{"last_updated":1742551809,"ttl":60,"version":"2.2","data":{"bikes":[{"bike_id":"3b276e99-234c-4646-acfe-1384ad70d051","system_id":"levelo_inurba_marseille","lat":43.25083,"lon":5.39524,"is_reserved":false,"is_disabled":false,"rental_uris":{"android":"levelo://app?vid=3b276e99-234c-4646-acfe-1384ad70d051","ios":"levelo://app?vid=3b276e99-234c-4646-acfe-1384ad70d051"},"vehicle_type_id":"4","last_reported":1742551809,"current_range_meters":2800,"station_id":"ce4bhm12rcd13ifvqgkg","pricing_plan_id":"cebpf4jnsgd1na2vs0mg"},{"bike_id":"b2caacf0-c062-4845-86a5-f31d6c5288f8","system_id":"levelo_inurba_marseille","lat":43.25588,"lon":5.38228,"is_reserved":false,"is_disabled":false,"rental_uris":{"android":"levelo://app?vid=b2caacf0-c062-4845-86a5-f31d6c5288f8","ios":"levelo://app?vid=b2caacf0-c062-4845-86a5-f31d6c5288f8"},"vehicle_type_id":"4","last_reported":1742551809,"current_range_meters":2800,"station_id":"ce4bhih2rcd13ifvqfs0","pricing_plan_id":"cebpf4jnsgd1na2vs0mg"},{"bike_id":"03559b68-f53b-4377-ba54-41f67f9d3d6b","system_id":"levelo_inurba_marseille","lat":43.315,"lon":5.37297,"is_reserved":false,"is_disabled":false,"rental_uris":{"android":"levelo://app?vid=03559b68-f53b-4377-ba54-41f67f9d3d6b","ios":"levelo://app?vid=03559b68-f53b-4377-ba54-41f67f9d3d6b"},"vehicle_type_id":"4","last_reported":1742551809,"current_range_meters":2800,"station_id":"ce4bgt12rcd13ifvqcd0","pricing_plan_id":"cebpf4jnsgd1na2vs0mg"},{"bike_id":"70d4d29e-18f3-481b-add9-2af87c3d160c","system_id":"levelo_inurba_marseille","lat":43.29259,"lon":5.38424,"is_reserved":false,"is_disabled":false,"rental_uris":{"android":"levelo://app?vid=70d4d29e-18f3-481b-add9-2af87c3d160c","ios":"levelo://app?vid=70d4d29e-18f3-481b-add9-2af87c3d160c"},"vehicle_type_id":"4","last_reported":1742551809,"current_range_meters":2800,"station_id":"ce4bh692rcd13ifvqea0","pricing_plan_id":"cebpf4jnsgd1na2vs0mg"},{"bike_id":"d4c7810d-5136-4c1c-9e59-2eafd545bbd4","system_id":"levelo_inurba_marseille","lat":43.30662,"lon":5.4009,"is_reserved":false,"is_disabled":false,"rental_uris":{"android":"levelo://app?vid=d4c7810d-5136-4c1c-9e59-2eafd545bbd4","ios":"levelo://app?vid=d4c7810d-5136-4c1c-9e59-2eafd545bbd4"},"vehicle_type_id":"4","last_reported":1742551809,"current_range_meters":2800,"station_id":"ce4bh112rcd13ifvqda0","pricing_plan_id":"cebpf4jnsgd1na2vs0mg"},{"bike_id":"32fa3c3c-6abf-499e-a5e3-672c71764130","system_id":"levelo_inurba_marseille","lat":43.32068,"lon":5.41501,"is_reserved":false,"is_disabled":false,"rental_uris":{"android":"levelo://app?vid=32fa3c3c-6abf-499e-a5e3-672c71764130","ios":"levelo://app?vid=32fa3c3c-6abf-499e-a5e3-672c71764130"},"vehicle_type_id":"4","last_reported":1742551809,"current_range_meters":2800,"station_id":"ce4bhq92rcd13ifvqhkg","pricing_plan_id":"cebpf4jnsgd1na2vs0mg"},{"bike_id":"932e50e5-8656-4e0e-845f-b8d1d7ba4a14","system_id":"levelo_inurba_marseille","lat":43.24543,"lon":5.39529,"is_reserved":false,"is_disabled":false,"rental_uris":{"android":"levelo://app?vid=932e50e5-8656-4e0e-845f-b8d1d7ba4a14","ios":"levelo://app?vid=932e50e5-8656-4e0e-845f-b8d1d7ba4a14"},"vehicle_type_id":"4","last_reported":1742551809,"current_range_meters":2800,"station_id":"ce4bhlp2rcd13ifvqgjg","pricing_plan_id":"cebpf4jnsgd1na2vs0mg"},{"bike_id":"010cab51-be23-4735-babf-19c9eb5c8e43","system_id":"levelo_inurba_marseille","lat":43.24073,"lon":5.37761,"is_reserved":false,"is_disabled":true,"rental_uris":{"android":"levelo://app?vid=010cab51-be23-4735-babf-19c9eb5c8e43","ios":"levelo://app?vid=010cab51-be23-4735-babf-19c9eb5c8e43"},"vehicle_type_id":"4","last_reported":1742551809,"current_range_meters":2800,"station_id":"ce4bhnp2rcd13ifvqgvg","pricing_plan_id":"cebpf4jnsgd1na2vs0mg"},{"bike_id":"b343d148-027f-47df-852f-5e3b5ede9c89","system_id":"levelo_inurba_marseille","lat":43.30651,"lon":5.37457,"is_reserved":false,"is_disabled":false,"rental_uris":{"android":"levelo://app?vid=b343d148-027f-47df-852f-5e3b5ede9c89","ios":"levelo://app?vid=b343d148-027f-47df-852f-5e3b5ede9c89"},"vehicle_type_id":"4","last_reported":1742551809,"current_range_meters":3200,"station_id":"ce4bgkh2rcd13ifvqbl0","pricing_plan_id":"cebpf4jnsgd1na2vs0mg"},{"bike_id":"a9cf5ff7-36bc-4131-a26a-d2a5701e8f33","system_id":"levelo_inurba_marseille","lat":43.26567,"lon":5.39015,"is_reserved":false,"is_disabled":false,"rental_uris":{"android":"levelo://app?vid=a9cf5ff7-36bc-4131-a26a-d2a5701e8f33","ios":"levelo://app?vid=a9cf5ff7-36bc-4131-a26a-d2a5701e8f33"},"vehicle_type_id":"4","last_reported":1742551809,"current_range_meters":3200,"station_id":"ce4bhe12rcd13ifvqf30","pricing_plan_id":"cebpf4jnsgd1na2vs0mg"},{"bike_id":"7661730a-e11b-431a-9786-e9413570571f","system_id":"levelo_inurba_marseille","lat":43.32536,"lon":5.41442,"is_reserved":false,"is_disabled":false,"rental_uris":{"android":"levelo://app?vid=7661730a-e11b-431a-9786-e9413570571f","ios":"levelo://app?vid=7661730a-e11b-431a-9786-e9413570571f"},"vehicle_type_id":"4","last_reported":1742551809,"current_range_meters":3200,"station_id":"ce4bhq12rcd13ifvqhhg","pricing_plan_id":"cebpf4jnsgd1na2vs0mg"},{"bike_id":"5188b82b-8c44-42ff-93c4-bf85de5ec3b7","system_id":"levelo_inurba_marseille","lat":43.32099,"lon":5.36791,"is_reserved":false,"is_disabled":false,"rental_uris":{"android":"levelo://app?vid=5188b82b-8c44-42ff-93c4-bf85de5ec3b7","ios":"levelo://app?vid=5188b82b-8c44-42ff-93c4-bf85de5ec3b7"},"vehicle_type_id":"4","last_reported":1742551809,"current_range_meters":3200,"station_id":"ce4bhrh2rcd13ifvqhug","pricing_plan_id":"cebpf4jnsgd1na2vs0mg"},{"bike_id":"9d26c008-8ec1-4269-9cd2-f45774f03ccb","system_id":"levelo_inurba_marseille","lat":43.27945,"lon":5.37927,"is_reserved":false,"is_disabled":true,"rental_uris":{"android":"levelo://app?vid=9d26c008-8ec1-4269-9cd2-f45774f03ccb","ios":"levelo://app?vid=9d26c008-8ec1-4269-9cd2-f45774f03ccb"},"vehicle_type_id":"4","last_reported":1742551809,"current_range_meters":3200,"station_id":"","pricing_plan_id":"cebpf4jnsgd1na2vs0mg"},{"bike_id":"4802b121-9209-45bd-8179-fe8f398a1511","system_id":"levelo_inurba_marseille","lat":43.30311,"lon":5.36902,"is_reserved":false,"is_disabled":false,"rental_uris":{"android":"levelo://app?vid=4802b121-9209-45bd-8179-fe8f398a1511","ios":"levelo://app?vid=4802b121-9209-45bd-8179-fe8f398a1511"},"vehicle_type_id":"4","last_reported":1742551809,"current_range_meters":3200,"station_id":"ce4bgqh2rcd13ifvqc5g","pricing_plan_id":"cebpf4jnsgd1na2vs0mg"},{"bike_id":"3ae4f3bd-c485-4c98-8e8e-3c9bb312423a","system_id":"levelo_inurba_marseille","lat":43.24816,"lon":5.37451,"is_reserved":false,"is_disabled":false,"rental_uris":{"android":"levelo://app?vid=3ae4f3bd-c485-4c98-8e8e-3c9bb312423a","ios":"levelo://app?vid=3ae4f3bd-c485-4c98-8e8e-3c9bb312423a"},"vehicle_type_id":"4","last_reported":1742551809,"current_range_meters":3600,"station_id":"ce4bhgh2rcd13ifvqfb0","pricing_plan_id":"cebpf4jnsgd1na2vs0mg"},{"bike_id":"ed0d656a-5ae7-48cc-a7ac-1155c6a6e21f","system_id":"levelo_inurba_marseille","lat":43.27214,"lon":5.39202,"is_reserved":false,"is_disabled":false,"rental_uris":{"android":"levelo://app?vid=ed0d656a-5ae7-48cc-a7ac-1155c6a6e21f","ios":"levelo://app?vid=ed0d656a-5ae7-48cc-a7ac-1155c6a6e21f"},"vehicle_type_id":"4","last_reported":1742551809,"current_range_meters":3600,"station_id":"ce4bhhp2rcd13ifvqfm0","pricing_plan_id":"cebpf4jnsgd1na2vs0mg"},{"bike_id":"80e68ebc-a130-4459-ae9a-7e1ccc4765df","system_id":"levelo_inurba_marseille","lat":43.29358,"lon":5.37833,"is_reserved":false,"is_disabled":false,"rental_uris":{"android":"levelo://app?vid=80e68ebc-a130-4459-ae9a-7e1ccc4765df","ios":"levelo://app?vid=80e68ebc-a130-4459-ae9a-7e1ccc4765df"},"vehicle_type_id":"4","last_reported":1742551809,"current_range_meters":3600,"station_id":"ce4bgjh2rcd13ifvqbf0","pricing_plan_id":"cebpf4jnsgd1na2vs0mg"},{"bike_id":"16818fb2-0115-4091-856c-6e0109271f6c","system_id":"levelo_inurba_marseille","lat":43.26957,"lon":5.38627,"is_reserved":false,"is_disabled":true,"rental_uris":{"android":"levelo://app?vid=16818fb2-0115-4091-856c-6e0109271f6c","ios":"levelo://app?vid=16818fb2-0115-4091-856c-6e0109271f6c"},"vehicle_type_id":"4","last_reported":1742551809,"current_range_meters":3600,"station_id":"ce4bhh92rcd13ifvqfh0","pricing_plan_id":"cebpf4jnsgd1na2vs0mg"},{"bike_id":"d526b6e2-b103-4339-baa5-b85128efba8c","system_id":"levelo_inurba_marseille","lat":43.23066,"lon":5.3549,"is_reserved":false,"is_disabled":false,"rental_uris":{"android":"levelo://app?vid=d526b6e2-b103-4339-baa5-b85128efba8c","ios":"levelo://app?vid=d526b6e2-b103-4339-baa5-b85128efba8c"},"vehicle_type_id":"4","last_reported":1742551809,"current_range_meters":3600,"station_id":"cpo3342slgdg3j2ifvpg","pricing_plan_id":"cebpf4jnsgd1na2vs0mg"},{"bike_id":"a8b8dae1-87ef-4f8a-a2c8-fe9fd9bf0f77","system_id":"levelo_inurba_marseille","lat":43.23536,"lon":5.3773,"is_reserved":false,"is_disabled":false,"rental_uris":{"android":"levelo://app?vid=a8b8dae1-87ef-4f8a-a2c8-fe9fd9bf0f77","ios":"levelo://app?vid=a8b8dae1-87ef-4f8a-a2c8-fe9fd9bf0f77"},"vehicle_type_id":"4","last_reported":1742551809,"current_range_meters":4000,"station_id":"","pricing_plan_id":"cebpf4jnsgd1na2vs0mg"},{"bike_id":"a8bff648-9b4d-483e-8acf-924a729bd8cf","system_id":"levelo_inurba_marseille","lat":43.29246,"lon":5.37602,"is_reserved":false,"is_disabled":false,"rental_uris":{"android":"levelo://app?vid=a8bff648-9b4d-483e-8acf-924a729bd8cf","ios":"levelo://app?vid=a8bff648-9b4d-483e-8acf-924a729bd8cf"},"vehicle_type_id":"4","last_reported":1742551809,"current_range_meters":4400,"station_id":"ce4bgi12rcd13ifvqb80","pricing_plan_id":"cebpf4jnsgd1na2vs0mg"},{"bike_id":"dd3884dc-0b6b-4a2b-8af5-b0f72ae3a61b","system_id":"levelo_inurba_marseille","lat":43.23194,"lon":5.35546,"is_reserved":false,"is_disabled":false,"rental_uris":{"android":"levelo://app?vid=dd3884dc-0b6b-4a2b-8af5-b0f72ae3a61b","ios":"levelo://app?vid=dd3884dc-0b6b-4a2b-8af5-b0f72ae3a61b"},"vehicle_type_id":"4","last_reported":1742551809,"current_range_meters":4400,"station_id":"ce4bhu92rcd13ifvqi70","pricing_plan_id":"cebpf4jnsgd1na2vs0mg"},{"bike_id":"0fe01501-b9ef-4fef-a8c2-6c0fff34e52d","system_id":"levelo_inurba_marseille","lat":43.29525,"lon":5.38539,"is_reserved":false,"is_disabled":false,"rental_uris":{"android":"levelo://app?vid=0fe01501-b9ef-4fef-a8c2-6c0fff34e52d","ios":"levelo://app?vid=0fe01501-b9ef-4fef-a8c2-6c0fff34e52d"},"vehicle_type_id":"4","last_reported":1742551809,"current_range_meters":4400,"station_id":"ce4bgih2rcd13ifvqba0","pricing_plan_id":"cebpf4jnsgd1na2vs0mg"},{"bike_id":"10313035-7c4a-4233-9530-1c5786db8ae8","system_id":"levelo_inurba_marseille","lat":43.27315,"lon":5.39099,"is_reserved":false,"is_disabled":false,"rental_uris":{"android":"levelo://app?vid=10313035-7c4a-4233-9530-1c5786db8ae8","ios":"levelo://app?vid=10313035-7c4a-4233-9530-1c5786db8ae8"},"vehicle_type_id":"4","last_reported":1742551809,"current_range_meters":4800,"station_id":"ce4bhgp2rcd13ifvqfe0","pricing_plan_id":"cebpf4jnsgd1na2vs0mg"},{"bike_id":"ea1f1f42-8acc-4e6d-910e-d629e045991a","system_id":"levelo_inurba_marseille","lat":43.30969,"lon":5.39068,"is_reserved":false,"is_disabled":false,"rental_uris":{"android":"levelo://app?vid=ea1f1f42-8acc-4e6d-910e-d629e045991a","ios":"levelo://app?vid=ea1f1f42-8acc-4e6d-910e-d629e045991a"},"vehicle_type_id":"4","last_reported":1742551809,"current_range_meters":4800,"station_id":"ce4bgup2rcd13ifvqco0","pricing_plan_id":"cebpf4jnsgd1na2vs0mg"},{"bike_id":"2da3d02e-eaec-41ef-a63e-82025b7dbd0c","system_id":"levelo_inurba_marseille","lat":43.29803,"lon":5.38126,"is_reserved":false,"is_disabled":false,"rental_uris":{"android":"levelo://app?vid=2da3d02e-eaec-41ef-a63e-82025b7dbd0c","ios":"levelo://app?vid=2da3d02e-eaec-41ef-a63e-82025b7dbd0c"},"vehicle_type_id":"4","last_reported":1742551809,"current_range_meters":4800,"station_id":"ce4bgip2rcd13ifvqbb0","pricing_plan_id":"cebpf4jnsgd1na2vs0mg"},{"bike_id":"8cb71e2b-d965-4f13-b540-05a111c6eb59","system_id":"levelo_inurba_marseille","lat":43.30152,"lon":5.38089,"is_reserved":false,"is_disabled":false,"rental_uris":{"android":"levelo://app?vid=8cb71e2b-d965-4f13-b540-05a111c6eb59","ios":"levelo://app?vid=8cb71e2b-d965-4f13-b540-05a111c6eb59"},"vehicle_type_id":"4","last_reported":1742551809,"current_range_meters":4800,"station_id":"ce4bgjp2rcd13ifvqbh0","pricing_plan_id":"cebpf4jnsgd1na2vs0mg"},{"bike_id":"4b40ad0e-4e55-448b-882a-8cc45260f4e3","system_id":"levelo_inurba_marseille","lat":43.29784,"lon":5.39339,"is_reserved":false,"is_disabled":false,"rental_uris":{"android":"levelo://app?vid=4b40ad0e-4e55-448b-882a-8cc45260f4e3","ios":"levelo://app?vid=4b40ad0e-4e55-448b-882a-8cc45260f4e3"},"vehicle_type_id":"4","last_reported":1742551809,"current_range_meters":4400,"station_id":"chh1huq6cuj3fo74tm60","pricing_plan_id":"cebpf4jnsgd1na2vs0mg"},{"bike_id":"08e60c3b-f1ea-4e04-a5fe-a909cccd6ffb","system_id":"levelo_inurba_marseille","lat":43.2942,"lon":5.38623,"is_reserved":false,"is_disabled":false,"rental_uris":{"android":"levelo://app?vid=08e60c3b-f1ea-4e04-a5fe-a909cccd6ffb","ios":"levelo://app?vid=08e60c3b-f1ea-4e04-a5fe-a909cccd6ffb"},"vehicle_type_id":"4","last_reported":1742551809,"current_range_meters":4800,"station_id":"ce4bh2h2rcd13ifvqdh0","pricing_plan_id":"cebpf4jnsgd1na2vs0mg"},{"bike_id":"139ba5d1-ef9d-4d89-9c68-9476516b7112","system_id":"levelo_inurba_marseille","lat":43.29574,"lon":5.3752,"is_reserved":false,"is_disabled":false,"rental_uris":{"android":"levelo://app?vid=139ba5d1-ef9d-4d89-9c68-9476516b7112","ios":"levelo://app?vid=139ba5d1-ef9d-4d89-9c68-9476516b7112"},"vehicle_type_id":"4","last_reported":1742551809,"current_range_meters":5600,"station_id":"ce4bgh92rcd13ifvqb50","pricing_plan_id":"cebpf4jnsgd1na2vs0mg"},{"bike_id":"0d87581c-e8a1-4ddc-bbdb-cc51556eba17","system_id":"levelo_inurba_marseille","lat":43.33605,"lon":5.4103,"is_reserved":false,"is_disabled":false,"rental_uris":{"android":"levelo://app?vid=0d87581c-e8a1-4ddc-bbdb-cc51556eba17","ios":"levelo://app?vid=0d87581c-e8a1-4ddc-bbdb-cc51556eba17"},"vehicle_type_id":"4","last_reported":1742551809,"current_range_meters":5600,"station_id":"ce4bhqh2rcd13ifvqhmg","pricing_plan_id":"cebpf4jnsgd1na2vs0mg"},{"bike_id":"cb13f948-1966-43ab-9c71-bf85b5dd530c","system_id":"levelo_inurba_marseille","lat":43.3112,"lon":5.37762,"is_reserved":false,"is_disabled":false,"rental_uris":{"android":"levelo://app?vid=cb13f948-1966-43ab-9c71-bf85b5dd530c","ios":"levelo://app?vid=cb13f948-1966-43ab-9c71-bf85b5dd530c"},"vehicle_type_id":"4","last_reported":1742551809,"current_range_meters":4800,"station_id":"ce4bgt92rcd13ifvqcg0","pricing_plan_id":"cebpf4jnsgd1na2vs0mg"},{"bike_id":"1b69d63b-92f8-4407-ace6-f01c34b61c9d","system_id":"levelo_inurba_marseille","lat":43.23964,"lon":5.36624,"is_reserved":false,"is_disabled":false,"rental_uris":{"android":"levelo://app?vid=1b69d63b-92f8-4407-ace6-f01c34b61c9d","ios":"levelo://app?vid=1b69d63b-92f8-4407-ace6-f01c34b61c9d"},"vehicle_type_id":"4","last_reported":1742551809,"current_range_meters":4800,"station_id":"ce4bhi12rcd13ifvqfp0","pricing_plan_id":"cebpf4jnsgd1na2vs0mg"},{"bike_id":"471b8c1a-1a85-4080-b533-fb41f3dbfd81","system_id":"levelo_inurba_marseille","lat":43.23188,"lon":5.35559,"is_reserved":false,"is_disabled":false,"rental_uris":{"android":"levelo://app?vid=471b8c1a-1a85-4080-b533-fb41f3dbfd81","ios":"levelo://app?vid=471b8c1a-1a85-4080-b533-fb41f3dbfd81"},"vehicle_type_id":"4","last_reported":1742551809,"current_range_meters":5600,"station_id":"ce4bhu92rcd13ifvqi70","pricing_plan_id":"cebpf4jnsgd1na2vs0mg"},{"bike_id":"671210b1-9e8f-4893-953f-985ab8b97e34","system_id":"levelo_inurba_marseille","lat":43.32078,"lon":5.36815,"is_reserved":false,"is_disabled":false,"rental_uris":{"android":"levelo://app?vid=671210b1-9e8f-4893-953f-985ab8b97e34","ios":"levelo://app?vid=671210b1-9e8f-4893-953f-985ab8b97e34"},"vehicle_type_id":"4","last_reported":1742551809,"current_range_meters":5600,"station_id":"ce4bhrh2rcd13ifvqhug","pricing_plan_id":"cebpf4jnsgd1na2vs0mg"},{"bike_id":"6fc4d402-a718-4441-82e4-db60aa4fa880","system_id":"levelo_inurba_marseille","lat":43.30552,"lon":5.36696,"is_reserved":false,"is_disabled":false,"rental_uris":{"android":"levelo://app?vid=6fc4d402-a718-4441-82e4-db60aa4fa880","ios":"levelo://app?vid=6fc4d402-a718-4441-82e4-db60aa4fa880"},"vehicle_type_id":"4","last_reported":1742551809,"current_range_meters":6000,"station_id":"ce4bgrp2rcd13ifvqc9g","pricing_plan_id":"cebpf4jnsgd1na2vs0mg"},{"bike_id":"747f52f6-e172-4a6b-8605-5af32b1e948a","system_id":"levelo_inurba_marseille","lat":43.32549,"lon":5.41438,"is_reserved":false,"is_disabled":false,"rental_uris":{"android":"levelo://app?vid=747f52f6-e172-4a6b-8605-5af32b1e948a","ios":"levelo://app?vid=747f52f6-e172-4a6b-8605-5af32b1e948a"},"vehicle_type_id":"4","last_reported":1742551809,"current_range_meters":6000,"station_id":"ce4bhq12rcd13ifvqhhg","pricing_plan_id":"cebpf4jnsgd1na2vs0mg"},{"bike_id":"88235f40-31c6-4a2f-8946-34e3a8b8f4b1","system_id":"levelo_inurba_marseille","lat":43.29897,"lon":5.39757,"is_reserved":false,"is_disabled":false,"rental_uris":{"android":"levelo://app?vid=88235f40-31c6-4a2f-8946-34e3a8b8f4b1","ios":"levelo://app?vid=88235f40-31c6-4a2f-8946-34e3a8b8f4b1"},"vehicle_type_id":"4","last_reported":1742551809,"current_range_meters":6000,"station_id":"ce4bh0h2rcd13ifvqd50","pricing_plan_id":"cebpf4jnsgd1na2vs0mg"},{"bike_id":"2f407216-0ab5-4f6a-8a7b-5113ac272f32","system_id":"levelo_inurba_marseille","lat":43.31168,"lon":5.38713,"is_reserved":false,"is_disabled":false,"rental_uris":{"android":"levelo://app?vid=2f407216-0ab5-4f6a-8a7b-5113ac272f32","ios":"levelo://app?vid=2f407216-0ab5-4f6a-8a7b-5113ac272f32"},"vehicle_type_id":"4","last_reported":1742551809,"current_range_meters":5600,"station_id":"ce4bgv12rcd13ifvqcp0","pricing_plan_id":"cebpf4jnsgd1na2vs0mg"},{"bike_id":"bf937b59-7f17-447a-bbc2-76c829f6f4d8","system_id":"levelo_inurba_marseille","lat":43.30435,"lon":5.39754,"is_reserved":false,"is_disabled":false,"rental_uris":{"android":"levelo://app?vid=bf937b59-7f17-447a-bbc2-76c829f6f4d8","ios":"levelo://app?vid=bf937b59-7f17-447a-bbc2-76c829f6f4d8"},"vehicle_type_id":"4","last_reported":1742551809,"current_range_meters":6400,"station_id":"ce4bh092rcd13ifvqd20","pricing_plan_id":"cebpf4jnsgd1na2vs0mg"},{"bike_id":"b92e41be-91dc-4008-9a61-e4045dda86fa","system_id":"levelo_inurba_marseille","lat":43.3249,"lon":5.36567,"is_reserved":false,"is_disabled":false,"rental_uris":{"android":"levelo://app?vid=b92e41be-91dc-4008-9a61-e4045dda86fa","ios":"levelo://app?vid=b92e41be-91dc-4008-9a61-e4045dda86fa"},"vehicle_type_id":"4","last_reported":1742551809,"current_range_meters":6400,"station_id":"ce4bhs12rcd13ifvqhvg","pricing_plan_id":"cebpf4jnsgd1na2vs0mg"},{"bike_id":"18da5e6a-cee5-42b3-b6fc-ba5d7d10a7b8","system_id":"levelo_inurba_marseille","lat":43.30951,"lon":5.39029,"is_reserved":false,"is_disabled":true,"rental_uris":{"android":"levelo://app?vid=18da5e6a-cee5-42b3-b6fc-ba5d7d10a7b8","ios":"levelo://app?vid=18da5e6a-cee5-42b3-b6fc-ba5d7d10a7b8"},"vehicle_type_id":"4","last_reported":1742551809,"current_range_meters":6400,"station_id":"ce4bgup2rcd13ifvqco0","pricing_plan_id":"cebpf4jnsgd1na2vs0mg"},{"bike_id":"c2e5f77d-7def-477a-88be-4e7832c31727","system_id":"levelo_inurba_marseille","lat":43.25939,"lon":5.4089,"is_reserved":false,"is_disabled":false,"rental_uris":{"android":"levelo://app?vid=c2e5f77d-7def-477a-88be-4e7832c31727","ios":"levelo://app?vid=c2e5f77d-7def-477a-88be-4e7832c31727"},"vehicle_type_id":"4","last_reported":1742551809,"current_range_meters":6400,"station_id":"ce4bhm92rcd13ifvqglg","pricing_plan_id":"cebpf4jnsgd1na2vs0mg"},{"bike_id":"9b2a4ae1-45d2-42a7-b1d8-970226b193d0","system_id":"levelo_inurba_marseille","lat":43.24186,"lon":5.39717,"is_reserved":false,"is_disabled":false,"rental_uris":{"android":"levelo://app?vid=9b2a4ae1-45d2-42a7-b1d8-970226b193d0","ios":"levelo://app?vid=9b2a4ae1-45d2-42a7-b1d8-970226b193d0"},"vehicle_type_id":"4","last_reported":1742551809,"current_range_meters":6400,"station_id":"ce4bhn12rcd13ifvqgpg","pricing_plan_id":"cebpf4jnsgd1na2vs0mg"},{"bike_id":"cb6062cd-3cfa-4917-b79b-5707b99e3c03","system_id":"levelo_inurba_marseille","lat":43.321185,"lon":5.367534,"is_reserved":false,"is_disabled":false,"rental_uris":{"android":"levelo://app?vid=cb6062cd-3cfa-4917-b79b-5707b99e3c03","ios":"levelo://app?vid=cb6062cd-3cfa-4917-b79b-5707b99e3c03"},"vehicle_type_id":"4","last_reported":1742551809,"current_range_meters":6800,"station_id":"ce4bho92rcd13ifvqh3g","pricing_plan_id":"cebpf4jnsgd1na2vs0mg"},{"bike_id":"28e10c94-a255-4d86-a7a6-2eb6c8c60b80","system_id":"levelo_inurba_marseille","lat":43.2962,"lon":5.3773,"is_reserved":false,"is_disabled":false,"rental_uris":{"android":"levelo://app?vid=28e10c94-a255-4d86-a7a6-2eb6c8c60b80","ios":"levelo://app?vid=28e10c94-a255-4d86-a7a6-2eb6c8c60b80"},"vehicle_type_id":"4","last_reported":1742551809,"current_range_meters":6800,"station_id":"ce4bgi92rcd13ifvqb90","pricing_plan_id":"cebpf4jnsgd1na2vs0mg"},{"bike_id":"4f3fae75-1507-44ea-b182-5931043b4935","system_id":"levelo_inurba_marseille","lat":43.265724,"lon":5.390186,"is_reserved":false,"is_disabled":false,"rental_uris":{"android":"levelo://app?vid=4f3fae75-1507-44ea-b182-5931043b4935","ios":"levelo://app?vid=4f3fae75-1507-44ea-b182-5931043b4935"},"vehicle_type_id":"4","last_reported":1742551809,"current_range_meters":6800,"station_id":"ce4bhe12rcd13ifvqf30","pricing_plan_id":"cebpf4jnsgd1na2vs0mg"},{"bike_id":"79b9318f-7b68-4ffa-a739-3d904aa51145","system_id":"levelo_inurba_marseille","lat":43.26796,"lon":5.39414,"is_reserved":false,"is_disabled":false,"rental_uris":{"android":"levelo://app?vid=79b9318f-7b68-4ffa-a739-3d904aa51145","ios":"levelo://app?vid=79b9318f-7b68-4ffa-a739-3d904aa51145"},"vehicle_type_id":"4","last_reported":1742551809,"current_range_meters":6800,"station_id":"ce4bhh12rcd13ifvqfg0","pricing_plan_id":"cebpf4jnsgd1na2vs0mg"},{"bike_id":"4da38abe-63fe-44a7-abd3-4bad6629a678","system_id":"levelo_inurba_marseille","lat":43.29699,"lon":5.37356,"is_reserved":false,"is_disabled":false,"rental_uris":{"android":"levelo://app?vid=4da38abe-63fe-44a7-abd3-4bad6629a678","ios":"levelo://app?vid=4da38abe-63fe-44a7-abd3-4bad6629a678"},"vehicle_type_id":"4","last_reported":1742551809,"current_range_meters":6800,"station_id":"","pricing_plan_id":"cebpf4jnsgd1na2vs0mg"},{"bike_id":"d7645557-54c5-44ed-8c44-41e433a350da","system_id":"levelo_inurba_marseille","lat":43.29475,"lon":5.356,"is_reserved":false,"is_disabled":false,"rental_uris":{"android":"levelo://app?vid=d7645557-54c5-44ed-8c44-41e433a350da","ios":"levelo://app?vid=d7645557-54c5-44ed-8c44-41e433a350da"},"vehicle_type_id":"4","last_reported":1742551809,"current_range_meters":6800,"station_id":"","pricing_plan_id":"cebpf4jnsgd1na2vs0mg"},{"bike_id":"2bccb1e2-4ec6-49dd-8fbc-289207394bb5","system_id":"levelo_inurba_marseille","lat":43.29049,"lon":5.40007,"is_reserved":false,"is_disabled":false,"rental_uris":{"android":"levelo://app?vid=2bccb1e2-4ec6-49dd-8fbc-289207394bb5","ios":"levelo://app?vid=2bccb1e2-4ec6-49dd-8fbc-289207394bb5"},"vehicle_type_id":"4","last_reported":1742551809,"current_range_meters":7200,"station_id":"ce4bh392rcd13ifvqdm0","pricing_plan_id":"cebpf4jnsgd1na2vs0mg"},{"bike_id":"b266faba-4e26-4c50-b078-a54d17773ddd","system_id":"levelo_inurba_marseille","lat":43.24547,"lon":5.39514,"is_reserved":false,"is_disabled":false,"rental_uris":{"android":"levelo://app?vid=b266faba-4e26-4c50-b078-a54d17773ddd","ios":"levelo://app?vid=b266faba-4e26-4c50-b078-a54d17773ddd"},"vehicle_type_id":"4","last_reported":1742551809,"current_range_meters":7200,"station_id":"ce4bhlp2rcd13ifvqgjg","pricing_plan_id":"cebpf4jnsgd1na2vs0mg"},{"bike_id":"1d051785-f31b-4db2-bd9a-b1f97811e834","system_id":"levelo_inurba_marseille","lat":43.262115,"lon":5.37439,"is_reserved":false,"is_disabled":false,"rental_uris":{"android":"levelo://app?vid=1d051785-f31b-4db2-bd9a-b1f97811e834","ios":"levelo://app?vid=1d051785-f31b-4db2-bd9a-b1f97811e834"},"vehicle_type_id":"4","last_reported":1742551809,"current_range_meters":7200,"station_id":"ce4bhgp2rcd13ifvqfc0","pricing_plan_id":"cebpf4jnsgd1na2vs0mg"},{"bike_id":"3a260712-d654-4076-bb8e-2d2c938680e2","system_id":"levelo_inurba_marseille","lat":43.33595,"lon":5.41039,"is_reserved":false,"is_disabled":false,"rental_uris":{"android":"levelo://app?vid=3a260712-d654-4076-bb8e-2d2c938680e2","ios":"levelo://app?vid=3a260712-d654-4076-bb8e-2d2c938680e2"},"vehicle_type_id":"4","last_reported":1742551809,"current_range_meters":7200,"station_id":"ce4bhqh2rcd13ifvqhmg","pricing_plan_id":"cebpf4jnsgd1na2vs0mg"},{"bike_id":"4dc49638-8af3-4f3b-8697-904628d34826","system_id":"levelo_inurba_marseille","lat":43.29574,"lon":5.37522,"is_reserved":false,"is_disabled":false,"rental_uris":{"android":"levelo://app?vid=4dc49638-8af3-4f3b-8697-904628d34826","ios":"levelo://app?vid=4dc49638-8af3-4f3b-8697-904628d34826"},"vehicle_type_id":"4","last_reported":1742551809,"current_range_meters":7200,"station_id":"ce4bgh92rcd13ifvqb50","pricing_plan_id":"cebpf4jnsgd1na2vs0mg"},{"bike_id":"cddf1fa1-9698-4e2b-9aee-55519c5ce26f","system_id":"levelo_inurba_marseille","lat":43.29791,"lon":5.40404,"is_reserved":false,"is_disabled":false,"rental_uris":{"android":"levelo://app?vid=cddf1fa1-9698-4e2b-9aee-55519c5ce26f","ios":"levelo://app?vid=cddf1fa1-9698-4e2b-9aee-55519c5ce26f"},"vehicle_type_id":"4","last_reported":1742551809,"current_range_meters":7200,"station_id":"ce4bh112rcd13ifvqd90","pricing_plan_id":"cebpf4jnsgd1na2vs0mg"},{"bike_id":"87fc0535-a83d-43a6-b769-72549de4a628","system_id":"levelo_inurba_marseille","lat":43.3039,"lon":5.42477,"is_reserved":false,"is_disabled":false,"rental_uris":{"android":"levelo://app?vid=87fc0535-a83d-43a6-b769-72549de4a628","ios":"levelo://app?vid=87fc0535-a83d-43a6-b769-72549de4a628"},"vehicle_type_id":"4","last_reported":1742551809,"current_range_meters":7200,"station_id":"ce4bhoh2rcd13ifvqh6g","pricing_plan_id":"cebpf4jnsgd1na2vs0mg"},{"bike_id":"704bc8f0-613c-4323-8304-587a41d75b5d","system_id":"levelo_inurba_marseille","lat":43.3028,"lon":5.377,"is_reserved":false,"is_disabled":false,"rental_uris":{"android":"levelo://app?vid=704bc8f0-613c-4323-8304-587a41d75b5d","ios":"levelo://app?vid=704bc8f0-613c-4323-8304-587a41d75b5d"},"vehicle_type_id":"4","last_reported":1742551809,"current_range_meters":7200,"station_id":"ce4bguh2rcd13ifvqcj0","pricing_plan_id":"cebpf4jnsgd1na2vs0mg"},{"bike_id":"7c7ca4bb-9de0-4cce-8130-65c77b21ac88","system_id":"levelo_inurba_marseille","lat":43.2934,"lon":5.4015,"is_reserved":false,"is_disabled":false,"rental_uris":{"android":"levelo://app?vid=7c7ca4bb-9de0-4cce-8130-65c77b21ac88","ios":"levelo://app?vid=7c7ca4bb-9de0-4cce-8130-65c77b21ac88"},"vehicle_type_id":"4","last_reported":1742551809,"current_range_meters":7200,"station_id":"ce4bh312rcd13ifvqdk0","pricing_plan_id":"cebpf4jnsgd1na2vs0mg"},{"bike_id":"c6294cd5-337b-453f-965b-c1bd8d1a90fe","system_id":"levelo_inurba_marseille","lat":43.29076,"lon":5.38066,"is_reserved":false,"is_disabled":false,"rental_uris":{"android":"levelo://app?vid=c6294cd5-337b-453f-965b-c1bd8d1a90fe","ios":"levelo://app?vid=c6294cd5-337b-453f-965b-c1bd8d1a90fe"},"vehicle_type_id":"4","last_reported":1742551809,"current_range_meters":7200,"station_id":"ce4bgi12rcd13ifvqb70","pricing_plan_id":"cebpf4jnsgd1na2vs0mg"},{"bike_id":"a1d4474e-dc54-4e96-8359-81b099ba1a93","system_id":"levelo_inurba_marseille","lat":43.23179,"lon":5.39977,"is_reserved":false,"is_disabled":false,"rental_uris":{"android":"levelo://app?vid=a1d4474e-dc54-4e96-8359-81b099ba1a93","ios":"levelo://app?vid=a1d4474e-dc54-4e96-8359-81b099ba1a93"},"vehicle_type_id":"4","last_reported":1742551809,"current_range_meters":8000,"station_id":"ce4bhn12rcd13ifvqgqg","pricing_plan_id":"cebpf4jnsgd1na2vs0mg"},{"bike_id":"6144b3c9-6228-4619-b5ec-8b09ead759c8","system_id":"levelo_inurba_marseille","lat":43.28107,"lon":5.3784,"is_reserved":false,"is_disabled":false,"rental_uris":{"android":"levelo://app?vid=6144b3c9-6228-4619-b5ec-8b09ead759c8","ios":"levelo://app?vid=6144b3c9-6228-4619-b5ec-8b09ead759c8"},"vehicle_type_id":"4","last_reported":1742551809,"current_range_meters":7200,"station_id":"ce4bha12rcd13ifvqee0","pricing_plan_id":"cebpf4jnsgd1na2vs0mg"},{"bike_id":"74ca8f8e-770f-4c39-9bcc-04d356dfc1fe","system_id":"levelo_inurba_marseille","lat":43.32485,"lon":5.36577,"is_reserved":false,"is_disabled":false,"rental_uris":{"android":"levelo://app?vid=74ca8f8e-770f-4c39-9bcc-04d356dfc1fe","ios":"levelo://app?vid=74ca8f8e-770f-4c39-9bcc-04d356dfc1fe"},"vehicle_type_id":"4","last_reported":1742551809,"current_range_meters":8000,"station_id":"ce4bhs12rcd13ifvqhvg","pricing_plan_id":"cebpf4jnsgd1na2vs0mg"},{"bike_id":"32e3927b-12d0-4b1a-9923-ea2f64ded6c1","system_id":"levelo_inurba_marseille","lat":43.28151,"lon":5.42643,"is_reserved":false,"is_disabled":false,"rental_uris":{"android":"levelo://app?vid=32e3927b-12d0-4b1a-9923-ea2f64ded6c1","ios":"levelo://app?vid=32e3927b-12d0-4b1a-9923-ea2f64ded6c1"},"vehicle_type_id":"4","last_reported":1742551809,"current_range_meters":8000,"station_id":"ce4bhnh2rcd13ifvqgug","pricing_plan_id":"cebpf4jnsgd1na2vs0mg"},{"bike_id":"e4fbf9fd-bd25-478f-b5b7-4e74d725d8b8","system_id":"levelo_inurba_marseille","lat":43.28173,"lon":5.42674,"is_reserved":false,"is_disabled":false,"rental_uris":{"android":"levelo://app?vid=e4fbf9fd-bd25-478f-b5b7-4e74d725d8b8","ios":"levelo://app?vid=e4fbf9fd-bd25-478f-b5b7-4e74d725d8b8"},"vehicle_type_id":"4","last_reported":1742551809,"current_range_meters":8000,"station_id":"ce4bhnh2rcd13ifvqgug","pricing_plan_id":"cebpf4jnsgd1na2vs0mg"},{"bike_id":"a0deeb6c-62a7-4efb-834c-1bec837aaba6","system_id":"levelo_inurba_marseille","lat":43.33663,"lon":5.37877,"is_reserved":false,"is_disabled":false,"rental_uris":{"android":"levelo://app?vid=a0deeb6c-62a7-4efb-834c-1bec837aaba6","ios":"levelo://app?vid=a0deeb6c-62a7-4efb-834c-1bec837aaba6"},"vehicle_type_id":"4","last_reported":1742551809,"current_range_meters":8000,"station_id":"","pricing_plan_id":"cebpf4jnsgd1na2vs0mg"},{"bike_id":"ffbee1c9-ab8d-45ee-b606-c546ab78c5f2","system_id":"levelo_inurba_marseille","lat":43.29739,"lon":5.37768,"is_reserved":false,"is_disabled":false,"rental_uris":{"android":"levelo://app?vid=ffbee1c9-ab8d-45ee-b606-c546ab78c5f2","ios":"levelo://app?vid=ffbee1c9-ab8d-45ee-b606-c546ab78c5f2"},"vehicle_type_id":"4","last_reported":1742551809,"current_range_meters":8000,"station_id":"","pricing_plan_id":"cebpf4jnsgd1na2vs0mg"},{"bike_id":"9044461e-62db-4d23-b825-ab9c7ed1b440","system_id":"levelo_inurba_marseille","lat":43.27493,"lon":5.42436,"is_reserved":false,"is_disabled":false,"rental_uris":{"android":"levelo://app?vid=9044461e-62db-4d23-b825-ab9c7ed1b440","ios":"levelo://app?vid=9044461e-62db-4d23-b825-ab9c7ed1b440"},"vehicle_type_id":"4","last_reported":1742551809,"current_range_meters":8000,"station_id":"ce4bho12rcd13ifvqh1g","pricing_plan_id":"cebpf4jnsgd1na2vs0mg"},{"bike_id":"08b1c5d9-0db5-4f74-ad5f-3ea86750a7be","system_id":"levelo_inurba_marseille","lat":43.31068,"lon":5.38358,"is_reserved":false,"is_disabled":false,"rental_uris":{"android":"levelo://app?vid=08b1c5d9-0db5-4f74-ad5f-3ea86750a7be","ios":"levelo://app?vid=08b1c5d9-0db5-4f74-ad5f-3ea86750a7be"},"vehicle_type_id":"4","last_reported":1742551809,"current_range_meters":8000,"station_id":"ce4bgv92rcd13ifvqcr0","pricing_plan_id":"cebpf4jnsgd1na2vs0mg"},{"bike_id":"b82d6ead-402b-4db0-8007-debc71aee8bc","system_id":"levelo_inurba_marseille","lat":43.23142,"lon":5.43712,"is_reserved":false,"is_disabled":false,"rental_uris":{"android":"levelo://app?vid=b82d6ead-402b-4db0-8007-debc71aee8bc","ios":"levelo://app?vid=b82d6ead-402b-4db0-8007-debc71aee8bc"},"vehicle_type_id":"4","last_reported":1742551809,"current_range_meters":8000,"station_id":"ce4bhmp2rcd13ifvqgog","pricing_plan_id":"cebpf4jnsgd1na2vs0mg"},{"bike_id":"b9e4bdd0-024c-4547-9a94-39d0c7923642","system_id":"levelo_inurba_marseille","lat":43.24169,"lon":5.36398,"is_reserved":false,"is_disabled":false,"rental_uris":{"android":"levelo://app?vid=b9e4bdd0-024c-4547-9a94-39d0c7923642","ios":"levelo://app?vid=b9e4bdd0-024c-4547-9a94-39d0c7923642"},"vehicle_type_id":"4","last_reported":1742551809,"current_range_meters":8000,"station_id":"cpo36qri1sfpv3e86is0","pricing_plan_id":"cebpf4jnsgd1na2vs0mg"},{"bike_id":"f43d6e12-15f8-4661-b1f8-886c4b9fac59","system_id":"levelo_inurba_marseille","lat":43.30274,"lon":5.377,"is_reserved":false,"is_disabled":false,"rental_uris":{"android":"levelo://app?vid=f43d6e12-15f8-4661-b1f8-886c4b9fac59","ios":"levelo://app?vid=f43d6e12-15f8-4661-b1f8-886c4b9fac59"},"vehicle_type_id":"4","last_reported":1742551809,"current_range_meters":8000,"station_id":"ce4bguh2rcd13ifvqcj0","pricing_plan_id":"cebpf4jnsgd1na2vs0mg"},{"bike_id":"c5bb5dca-1dc9-450e-9a3d-9fa737cf345d","system_id":"levelo_inurba_marseille","lat":43.24648,"lon":5.38879,"is_reserved":false,"is_disabled":false,"rental_uris":{"android":"levelo://app?vid=c5bb5dca-1dc9-450e-9a3d-9fa737cf345d","ios":"levelo://app?vid=c5bb5dca-1dc9-450e-9a3d-9fa737cf345d"},"vehicle_type_id":"4","last_reported":1742551809,"current_range_meters":8000,"station_id":"ce4bhg12rcd13ifvqf60","pricing_plan_id":"cebpf4jnsgd1na2vs0mg"},{"bike_id":"d60cc3bf-d395-4d88-a7c6-639c35074efd","system_id":"levelo_inurba_marseille","lat":43.31062,"lon":5.38351,"is_reserved":false,"is_disabled":false,"rental_uris":{"android":"levelo://app?vid=d60cc3bf-d395-4d88-a7c6-639c35074efd","ios":"levelo://app?vid=d60cc3bf-d395-4d88-a7c6-639c35074efd"},"vehicle_type_id":"4","last_reported":1742551809,"current_range_meters":8400,"station_id":"ce4bgv92rcd13ifvqcr0","pricing_plan_id":"cebpf4jnsgd1na2vs0mg"},{"bike_id":"a53f9c19-100a-4960-8945-a61abc7d3ac6","system_id":"levelo_inurba_marseille","lat":43.29599,"lon":5.3773,"is_reserved":false,"is_disabled":false,"rental_uris":{"android":"levelo://app?vid=a53f9c19-100a-4960-8945-a61abc7d3ac6","ios":"levelo://app?vid=a53f9c19-100a-4960-8945-a61abc7d3ac6"},"vehicle_type_id":"4","last_reported":1742551809,"current_range_meters":8400,"station_id":"ce4bgi92rcd13ifvqb90","pricing_plan_id":"cebpf4jnsgd1na2vs0mg"},{"bike_id":"311f3d6e-f9db-4cb3-9683-608f9dcd7aad","system_id":"levelo_inurba_marseille","lat":43.30286,"lon":5.36887,"is_reserved":false,"is_disabled":false,"rental_uris":{"android":"levelo://app?vid=311f3d6e-f9db-4cb3-9683-608f9dcd7aad","ios":"levelo://app?vid=311f3d6e-f9db-4cb3-9683-608f9dcd7aad"},"vehicle_type_id":"4","last_reported":1742551809,"current_range_meters":8400,"station_id":"ce4bgqh2rcd13ifvqc5g","pricing_plan_id":"cebpf4jnsgd1na2vs0mg"},{"bike_id":"a1e7a6c4-10c0-4a73-b94f-8c4b20be5194","system_id":"levelo_inurba_marseille","lat":43.231299,"lon":5.439946,"is_reserved":false,"is_disabled":false,"rental_uris":{"android":"levelo://app?vid=a1e7a6c4-10c0-4a73-b94f-8c4b20be5194","ios":"levelo://app?vid=a1e7a6c4-10c0-4a73-b94f-8c4b20be5194"},"vehicle_type_id":"4","last_reported":1742551809,"current_range_meters":8400,"station_id":"ce4bhmp2rcd13ifvqgog","pricing_plan_id":"cebpf4jnsgd1na2vs0mg"},{"bike_id":"298094ff-1b8f-403e-b315-5326030acb86","system_id":"levelo_inurba_marseille","lat":43.28177,"lon":5.42651,"is_reserved":false,"is_disabled":false,"rental_uris":{"android":"levelo://app?vid=298094ff-1b8f-403e-b315-5326030acb86","ios":"levelo://app?vid=298094ff-1b8f-403e-b315-5326030acb86"},"vehicle_type_id":"4","last_reported":1742551809,"current_range_meters":8400,"station_id":"ce4bhnh2rcd13ifvqgug","pricing_plan_id":"cebpf4jnsgd1na2vs0mg"},{"bike_id":"5dfc63c0-0c7b-4480-85a3-2062cb4ad599","system_id":"levelo_inurba_marseille","lat":43.32558,"lon":5.41453,"is_reserved":false,"is_disabled":false,"rental_uris":{"android":"levelo://app?vid=5dfc63c0-0c7b-4480-85a3-2062cb4ad599","ios":"levelo://app?vid=5dfc63c0-0c7b-4480-85a3-2062cb4ad599"},"vehicle_type_id":"4","last_reported":1742551809,"current_range_meters":8400,"station_id":"ce4bhq12rcd13ifvqhhg","pricing_plan_id":"cebpf4jnsgd1na2vs0mg"},{"bike_id":"af8b55e4-a50e-46cd-9328-924118befd6f","system_id":"levelo_inurba_marseille","lat":43.31481,"lon":5.37307,"is_reserved":false,"is_disabled":false,"rental_uris":{"android":"levelo://app?vid=af8b55e4-a50e-46cd-9328-924118befd6f","ios":"levelo://app?vid=af8b55e4-a50e-46cd-9328-924118befd6f"},"vehicle_type_id":"4","last_reported":1742551809,"current_range_meters":8400,"station_id":"ce4bgt12rcd13ifvqcd0","pricing_plan_id":"cebpf4jnsgd1na2vs0mg"},{"bike_id":"c0196702-1a48-466c-ba11-6749e93050f1","system_id":"levelo_inurba_marseille","lat":43.28429,"lon":5.37538,"is_reserved":false,"is_disabled":true,"rental_uris":{"android":"levelo://app?vid=c0196702-1a48-466c-ba11-6749e93050f1","ios":"levelo://app?vid=c0196702-1a48-466c-ba11-6749e93050f1"},"vehicle_type_id":"4","last_reported":1742551809,"current_range_meters":8400,"station_id":"ce4bh412rcd13ifvqds0","pricing_plan_id":"cebpf4jnsgd1na2vs0mg"},{"bike_id":"145f064f-efa5-4631-8ce7-f2b5b6a9f397","system_id":"levelo_inurba_marseille","lat":43.286644,"lon":5.363489,"is_reserved":false,"is_disabled":false,"rental_uris":{"android":"levelo://app?vid=145f064f-efa5-4631-8ce7-f2b5b6a9f397","ios":"levelo://app?vid=145f064f-efa5-4631-8ce7-f2b5b6a9f397"},"vehicle_type_id":"4","last_reported":1742551809,"current_range_meters":8400,"station_id":"ce4bhah2rcd13ifvqej0","pricing_plan_id":"cebpf4jnsgd1na2vs0mg"},{"bike_id":"1650c152-e083-415c-b118-5516ca869cbf","system_id":"levelo_inurba_marseille","lat":43.26977,"lon":5.38648,"is_reserved":false,"is_disabled":false,"rental_uris":{"android":"levelo://app?vid=1650c152-e083-415c-b118-5516ca869cbf","ios":"levelo://app?vid=1650c152-e083-415c-b118-5516ca869cbf"},"vehicle_type_id":"4","last_reported":1742551809,"current_range_meters":8400,"station_id":"ce4bhh92rcd13ifvqfh0","pricing_plan_id":"cebpf4jnsgd1na2vs0mg"},{"bike_id":"d6496905-199b-4708-a985-dc7d891a1034","system_id":"levelo_inurba_marseille","lat":43.29246,"lon":5.40888,"is_reserved":false,"is_disabled":false,"rental_uris":{"android":"levelo://app?vid=d6496905-199b-4708-a985-dc7d891a1034","ios":"levelo://app?vid=d6496905-199b-4708-a985-dc7d891a1034"},"vehicle_type_id":"4","last_reported":1742551809,"current_range_meters":8800,"station_id":"ce4bh192rcd13ifvqdc0","pricing_plan_id":"cebpf4jnsgd1na2vs0mg"},{"bike_id":"1d8daad7-9bb4-40dd-adfc-e589f483368c","system_id":"levelo_inurba_marseille","lat":43.25823,"lon":5.39432,"is_reserved":false,"is_disabled":false,"rental_uris":{"android":"levelo://app?vid=1d8daad7-9bb4-40dd-adfc-e589f483368c","ios":"levelo://app?vid=1d8daad7-9bb4-40dd-adfc-e589f483368c"},"vehicle_type_id":"4","last_reported":1742551809,"current_range_meters":8800,"station_id":"ce4bhip2rcd13ifvqft0","pricing_plan_id":"cebpf4jnsgd1na2vs0mg"},{"bike_id":"62bf2f5c-9819-4816-afad-4a268d7a76b8","system_id":"levelo_inurba_marseille","lat":43.24176,"lon":5.364,"is_reserved":false,"is_disabled":false,"rental_uris":{"android":"levelo://app?vid=62bf2f5c-9819-4816-afad-4a268d7a76b8","ios":"levelo://app?vid=62bf2f5c-9819-4816-afad-4a268d7a76b8"},"vehicle_type_id":"4","last_reported":1742551809,"current_range_meters":8800,"station_id":"cpo36qri1sfpv3e86is0","pricing_plan_id":"cebpf4jnsgd1na2vs0mg"},{"bike_id":"e5c14285-2e1d-41d9-bab9-ae38b8ffec63","system_id":"levelo_inurba_marseille","lat":43.33615,"lon":5.41002,"is_reserved":false,"is_disabled":false,"rental_uris":{"android":"levelo://app?vid=e5c14285-2e1d-41d9-bab9-ae38b8ffec63","ios":"levelo://app?vid=e5c14285-2e1d-41d9-bab9-ae38b8ffec63"},"vehicle_type_id":"4","last_reported":1742551809,"current_range_meters":8800,"station_id":"ce4bhqh2rcd13ifvqhmg","pricing_plan_id":"cebpf4jnsgd1na2vs0mg"},{"bike_id":"be38586b-e5dc-4232-ab17-bdf14f9705ea","system_id":"levelo_inurba_marseille","lat":43.28144,"lon":5.42662,"is_reserved":false,"is_disabled":false,"rental_uris":{"android":"levelo://app?vid=be38586b-e5dc-4232-ab17-bdf14f9705ea","ios":"levelo://app?vid=be38586b-e5dc-4232-ab17-bdf14f9705ea"},"vehicle_type_id":"4","last_reported":1742551809,"current_range_meters":8800,"station_id":"ce4bhnh2rcd13ifvqgug","pricing_plan_id":"cebpf4jnsgd1na2vs0mg"},{"bike_id":"82cc29dd-c716-4c29-9d98-a69696ac8e4e","system_id":"levelo_inurba_marseille","lat":43.31483,"lon":5.37288,"is_reserved":false,"is_disabled":false,"rental_uris":{"android":"levelo://app?vid=82cc29dd-c716-4c29-9d98-a69696ac8e4e","ios":"levelo://app?vid=82cc29dd-c716-4c29-9d98-a69696ac8e4e"},"vehicle_type_id":"4","last_reported":1742551809,"current_range_meters":8800,"station_id":"ce4bgt12rcd13ifvqcd0","pricing_plan_id":"cebpf4jnsgd1na2vs0mg"},{"bike_id":"5ab5285f-8d1d-4860-b978-a65c626c1634","system_id":"levelo_inurba_marseille","lat":43.31714,"lon":5.37764,"is_reserved":false,"is_disabled":false,"rental_uris":{"android":"levelo://app?vid=5ab5285f-8d1d-4860-b978-a65c626c1634","ios":"levelo://app?vid=5ab5285f-8d1d-4860-b978-a65c626c1634"},"vehicle_type_id":"4","last_reported":1742551809,"current_range_meters":8800,"station_id":"ce4bgth2rcd13ifvqch0","pricing_plan_id":"cebpf4jnsgd1na2vs0mg"},{"bike_id":"0da34579-31a9-482d-8493-fb122fa9b067","system_id":"levelo_inurba_marseille","lat":43.28451,"lon":5.39199,"is_reserved":false,"is_disabled":false,"rental_uris":{"android":"levelo://app?vid=0da34579-31a9-482d-8493-fb122fa9b067","ios":"levelo://app?vid=0da34579-31a9-482d-8493-fb122fa9b067"},"vehicle_type_id":"4","last_reported":1742551809,"current_range_meters":8400,"station_id":"ce4bhoh2rcd13ifvqh5g","pricing_plan_id":"cebpf4jnsgd1na2vs0mg"},{"bike_id":"770d684d-1bc2-4d37-898e-0329d21d6afd","system_id":"levelo_inurba_marseille","lat":43.34144,"lon":5.40907,"is_reserved":false,"is_disabled":false,"rental_uris":{"android":"levelo://app?vid=770d684d-1bc2-4d37-898e-0329d21d6afd","ios":"levelo://app?vid=770d684d-1bc2-4d37-898e-0329d21d6afd"},"vehicle_type_id":"4","last_reported":1742551809,"current_range_meters":8800,"station_id":"ce4bhqh2rcd13ifvqhlg","pricing_plan_id":"cebpf4jnsgd1na2vs0mg"},{"bike_id":"825ee441-bae2-442f-9126-9ee40c6406b2","system_id":"levelo_inurba_marseille","lat":43.30946,"lon":5.39024,"is_reserved":false,"is_disabled":false,"rental_uris":{"android":"levelo://app?vid=825ee441-bae2-442f-9126-9ee40c6406b2","ios":"levelo://app?vid=825ee441-bae2-442f-9126-9ee40c6406b2"},"vehicle_type_id":"4","last_reported":1742551809,"current_range_meters":9200,"station_id":"ce4bgup2rcd13ifvqco0","pricing_plan_id":"cebpf4jnsgd1na2vs0mg"},{"bike_id":"9e829b61-bb07-4953-b3a4-b3e8e3e13897","system_id":"levelo_inurba_marseille","lat":43.303,"lon":5.36897,"is_reserved":false,"is_disabled":false,"rental_uris":{"android":"levelo://app?vid=9e829b61-bb07-4953-b3a4-b3e8e3e13897","ios":"levelo://app?vid=9e829b61-bb07-4953-b3a4-b3e8e3e13897"},"vehicle_type_id":"4","last_reported":1742551809,"current_range_meters":9200,"station_id":"ce4bgqh2rcd13ifvqc5g","pricing_plan_id":"cebpf4jnsgd1na2vs0mg"},{"bike_id":"df4523e2-5d86-43f6-8bb2-92b5840ea621","system_id":"levelo_inurba_marseille","lat":43.262217,"lon":5.397454,"is_reserved":false,"is_disabled":false,"rental_uris":{"android":"levelo://app?vid=df4523e2-5d86-43f6-8bb2-92b5840ea621","ios":"levelo://app?vid=df4523e2-5d86-43f6-8bb2-92b5840ea621"},"vehicle_type_id":"4","last_reported":1742551809,"current_range_meters":8800,"station_id":"ce4bhl92rcd13ifvqghg","pricing_plan_id":"cebpf4jnsgd1na2vs0mg"},{"bike_id":"3b678762-afb2-4e65-8c69-056b08932a04","system_id":"levelo_inurba_marseille","lat":43.27936,"lon":5.41046,"is_reserved":false,"is_disabled":false,"rental_uris":{"android":"levelo://app?vid=3b678762-afb2-4e65-8c69-056b08932a04","ios":"levelo://app?vid=3b678762-afb2-4e65-8c69-056b08932a04"},"vehicle_type_id":"4","last_reported":1742551809,"current_range_meters":9200,"station_id":"ce4bhnp2rcd13ifvqh0g","pricing_plan_id":"cebpf4jnsgd1na2vs0mg"},{"bike_id":"b5acc6c1-f2ed-46ae-ac6d-f87b22ac88b5","system_id":"levelo_inurba_marseille","lat":43.30301,"lon":5.36904,"is_reserved":false,"is_disabled":false,"rental_uris":{"android":"levelo://app?vid=b5acc6c1-f2ed-46ae-ac6d-f87b22ac88b5","ios":"levelo://app?vid=b5acc6c1-f2ed-46ae-ac6d-f87b22ac88b5"},"vehicle_type_id":"4","last_reported":1742551809,"current_range_meters":9200,"station_id":"ce4bgqh2rcd13ifvqc5g","pricing_plan_id":"cebpf4jnsgd1na2vs0mg"},{"bike_id":"041746e8-f612-4f02-ba2c-e784ef31f6c4","system_id":"levelo_inurba_marseille","lat":43.23674,"lon":5.43587,"is_reserved":false,"is_disabled":false,"rental_uris":{"android":"levelo://app?vid=041746e8-f612-4f02-ba2c-e784ef31f6c4","ios":"levelo://app?vid=041746e8-f612-4f02-ba2c-e784ef31f6c4"},"vehicle_type_id":"4","last_reported":1742551809,"current_range_meters":9200,"station_id":"ce4bhmp2rcd13ifvqgog","pricing_plan_id":"cebpf4jnsgd1na2vs0mg"},{"bike_id":"2678929a-312d-4089-b116-1e816de7db90","system_id":"levelo_inurba_marseille","lat":43.32101,"lon":5.36766,"is_reserved":false,"is_disabled":false,"rental_uris":{"android":"levelo://app?vid=2678929a-312d-4089-b116-1e816de7db90","ios":"levelo://app?vid=2678929a-312d-4089-b116-1e816de7db90"},"vehicle_type_id":"4","last_reported":1742551809,"current_range_meters":9200,"station_id":"ce4bhrh2rcd13ifvqhug","pricing_plan_id":"cebpf4jnsgd1na2vs0mg"},{"bike_id":"1c3b5361-695c-4ccc-94f9-aca7f37b6d45","system_id":"levelo_inurba_marseille","lat":43.231895,"lon":5.355553,"is_reserved":false,"is_disabled":false,"rental_uris":{"android":"levelo://app?vid=1c3b5361-695c-4ccc-94f9-aca7f37b6d45","ios":"levelo://app?vid=1c3b5361-695c-4ccc-94f9-aca7f37b6d45"},"vehicle_type_id":"4","last_reported":1742551809,"current_range_meters":9600,"station_id":"ce4bhu92rcd13ifvqi70","pricing_plan_id":"cebpf4jnsgd1na2vs0mg"},{"bike_id":"14e04a47-4b39-4bd7-ae6e-bf93cf9acaee","system_id":"levelo_inurba_marseille","lat":43.29274,"lon":5.40116,"is_reserved":false,"is_disabled":false,"rental_uris":{"android":"levelo://app?vid=14e04a47-4b39-4bd7-ae6e-bf93cf9acaee","ios":"levelo://app?vid=14e04a47-4b39-4bd7-ae6e-bf93cf9acaee"},"vehicle_type_id":"4","last_reported":1742551809,"current_range_meters":9600,"station_id":"ce4bh312rcd13ifvqdk0","pricing_plan_id":"cebpf4jnsgd1na2vs0mg"},{"bike_id":"5355adac-aab2-4a7f-81d8-0133f613eedd","system_id":"levelo_inurba_marseille","lat":43.29858,"lon":5.36267,"is_reserved":false,"is_disabled":false,"rental_uris":{"android":"levelo://app?vid=5355adac-aab2-4a7f-81d8-0133f613eedd","ios":"levelo://app?vid=5355adac-aab2-4a7f-81d8-0133f613eedd"},"vehicle_type_id":"4","last_reported":1742551809,"current_range_meters":9600,"station_id":"ce4bgpp2rcd13ifvqc3g","pricing_plan_id":"cebpf4jnsgd1na2vs0mg"},{"bike_id":"ad4cdc41-562d-436a-b376-1bdaba4ddea6","system_id":"levelo_inurba_marseille","lat":43.30942,"lon":5.39055,"is_reserved":false,"is_disabled":false,"rental_uris":{"android":"levelo://app?vid=ad4cdc41-562d-436a-b376-1bdaba4ddea6","ios":"levelo://app?vid=ad4cdc41-562d-436a-b376-1bdaba4ddea6"},"vehicle_type_id":"4","last_reported":1742551809,"current_range_meters":9600,"station_id":"ce4bgup2rcd13ifvqco0","pricing_plan_id":"cebpf4jnsgd1na2vs0mg"},{"bike_id":"9e7620a7-78aa-471e-9397-7a4f73762d56","system_id":"levelo_inurba_marseille","lat":43.29593,"lon":5.39975,"is_reserved":false,"is_disabled":false,"rental_uris":{"android":"levelo://app?vid=9e7620a7-78aa-471e-9397-7a4f73762d56","ios":"levelo://app?vid=9e7620a7-78aa-471e-9397-7a4f73762d56"},"vehicle_type_id":"4","last_reported":1742551809,"current_range_meters":9600,"station_id":"ce4bh312rcd13ifvqdj0","pricing_plan_id":"cebpf4jnsgd1na2vs0mg"},{"bike_id":"971d52e6-f04b-4665-8e99-f9a511e878b1","system_id":"levelo_inurba_marseille","lat":43.30951,"lon":5.39031,"is_reserved":false,"is_disabled":false,"rental_uris":{"android":"levelo://app?vid=971d52e6-f04b-4665-8e99-f9a511e878b1","ios":"levelo://app?vid=971d52e6-f04b-4665-8e99-f9a511e878b1"},"vehicle_type_id":"4","last_reported":1742551809,"current_range_meters":9600,"station_id":"ce4bgup2rcd13ifvqco0","pricing_plan_id":"cebpf4jnsgd1na2vs0mg"},{"bike_id":"a8e54271-f43e-4238-be61-5a0d0f7d1259","system_id":"levelo_inurba_marseille","lat":43.24675,"lon":5.38154,"is_reserved":false,"is_disabled":false,"rental_uris":{"android":"levelo://app?vid=a8e54271-f43e-4238-be61-5a0d0f7d1259","ios":"levelo://app?vid=a8e54271-f43e-4238-be61-5a0d0f7d1259"},"vehicle_type_id":"4","last_reported":1742551809,"current_range_meters":9600,"station_id":"ce4bhih2rcd13ifvqfr0","pricing_plan_id":"cebpf4jnsgd1na2vs0mg"},{"bike_id":"a67c54b6-5ce9-4632-8070-5ca7d5b7fc9e","system_id":"levelo_inurba_marseille","lat":43.23067,"lon":5.35479,"is_reserved":false,"is_disabled":false,"rental_uris":{"android":"levelo://app?vid=a67c54b6-5ce9-4632-8070-5ca7d5b7fc9e","ios":"levelo://app?vid=a67c54b6-5ce9-4632-8070-5ca7d5b7fc9e"},"vehicle_type_id":"4","last_reported":1742551809,"current_range_meters":9600,"station_id":"cpo3342slgdg3j2ifvpg","pricing_plan_id":"cebpf4jnsgd1na2vs0mg"},{"bike_id":"9d87eaf5-326d-495f-a80f-e96261b34364","system_id":"levelo_inurba_marseille","lat":43.31408,"lon":5.36774,"is_reserved":false,"is_disabled":false,"rental_uris":{"android":"levelo://app?vid=9d87eaf5-326d-495f-a80f-e96261b34364","ios":"levelo://app?vid=9d87eaf5-326d-495f-a80f-e96261b34364"},"vehicle_type_id":"4","last_reported":1742551809,"current_range_meters":9600,"station_id":"ce4bgr92rcd13ifvqc6g","pricing_plan_id":"cebpf4jnsgd1na2vs0mg"},{"bike_id":"5ef2432c-8b14-42cf-8e2a-1af923562f84","system_id":"levelo_inurba_marseille","lat":43.31513,"lon":5.37277,"is_reserved":false,"is_disabled":false,"rental_uris":{"android":"levelo://app?vid=5ef2432c-8b14-42cf-8e2a-1af923562f84","ios":"levelo://app?vid=5ef2432c-8b14-42cf-8e2a-1af923562f84"},"vehicle_type_id":"4","last_reported":1742551809,"current_range_meters":9600,"station_id":"ce4bgt12rcd13ifvqcd0","pricing_plan_id":"cebpf4jnsgd1na2vs0mg"},{"bike_id":"e3bfaa63-7ecc-42a8-b2bc-7c7410993c9f","system_id":"levelo_inurba_marseille","lat":43.30531,"lon":5.36715,"is_reserved":false,"is_disabled":false,"rental_uris":{"android":"levelo://app?vid=e3bfaa63-7ecc-42a8-b2bc-7c7410993c9f","ios":"levelo://app?vid=e3bfaa63-7ecc-42a8-b2bc-7c7410993c9f"},"vehicle_type_id":"4","last_reported":1742551809,"current_range_meters":9600,"station_id":"ce4bgrp2rcd13ifvqc9g","pricing_plan_id":"cebpf4jnsgd1na2vs0mg"},{"bike_id":"31ba5937-48f4-487d-85b0-bd6c0014621f","system_id":"levelo_inurba_marseille","lat":43.31495,"lon":5.37282,"is_reserved":false,"is_disabled":false,"rental_uris":{"android":"levelo://app?vid=31ba5937-48f4-487d-85b0-bd6c0014621f","ios":"levelo://app?vid=31ba5937-48f4-487d-85b0-bd6c0014621f"},"vehicle_type_id":"4","last_reported":1742551809,"current_range_meters":9600,"station_id":"ce4bgt12rcd13ifvqcd0","pricing_plan_id":"cebpf4jnsgd1na2vs0mg"},{"bike_id":"dd713a48-3025-4704-84ce-aa7f1d00305f","system_id":"levelo_inurba_marseille","lat":43.29857,"lon":5.36286,"is_reserved":false,"is_disabled":false,"rental_uris":{"android":"levelo://app?vid=dd713a48-3025-4704-84ce-aa7f1d00305f","ios":"levelo://app?vid=dd713a48-3025-4704-84ce-aa7f1d00305f"},"vehicle_type_id":"4","last_reported":1742551809,"current_range_meters":9600,"station_id":"ce4bgpp2rcd13ifvqc3g","pricing_plan_id":"cebpf4jnsgd1na2vs0mg"},{"bike_id":"4618e3b5-317d-4450-b727-6315e79a6740","system_id":"levelo_inurba_marseille","lat":43.28268,"lon":5.35059,"is_reserved":false,"is_disabled":false,"rental_uris":{"android":"levelo://app?vid=4618e3b5-317d-4450-b727-6315e79a6740","ios":"levelo://app?vid=4618e3b5-317d-4450-b727-6315e79a6740"},"vehicle_type_id":"4","last_reported":1742551809,"current_range_meters":9600,"station_id":"ce4bhbp2rcd13ifvqerg","pricing_plan_id":"cebpf4jnsgd1na2vs0mg"},{"bike_id":"86859bc8-cdf3-4c55-a231-e1ff87943727","system_id":"levelo_inurba_marseille","lat":43.31455,"lon":5.37305,"is_reserved":false,"is_disabled":false,"rental_uris":{"android":"levelo://app?vid=86859bc8-cdf3-4c55-a231-e1ff87943727","ios":"levelo://app?vid=86859bc8-cdf3-4c55-a231-e1ff87943727"},"vehicle_type_id":"4","last_reported":1742551809,"current_range_meters":10000,"station_id":"ce4bgt12rcd13ifvqcd0","pricing_plan_id":"cebpf4jnsgd1na2vs0mg"},{"bike_id":"f2387910-c486-4275-a7ab-dbeb87afdc12","system_id":"levelo_inurba_marseille","lat":43.33734,"lon":5.39175,"is_reserved":false,"is_disabled":false,"rental_uris":{"android":"levelo://app?vid=f2387910-c486-4275-a7ab-dbeb87afdc12","ios":"levelo://app?vid=f2387910-c486-4275-a7ab-dbeb87afdc12"},"vehicle_type_id":"4","last_reported":1742551809,"current_range_meters":10000,"station_id":"ce4bhr92rcd13ifvqhsg","pricing_plan_id":"cebpf4jnsgd1na2vs0mg"},{"bike_id":"ca38fcd6-3c68-4041-b15a-86267bca2e49","system_id":"levelo_inurba_marseille","lat":43.32483,"lon":5.36575,"is_reserved":false,"is_disabled":false,"rental_uris":{"android":"levelo://app?vid=ca38fcd6-3c68-4041-b15a-86267bca2e49","ios":"levelo://app?vid=ca38fcd6-3c68-4041-b15a-86267bca2e49"},"vehicle_type_id":"4","last_reported":1742551809,"current_range_meters":10000,"station_id":"ce4bhs12rcd13ifvqhvg","pricing_plan_id":"cebpf4jnsgd1na2vs0mg"},{"bike_id":"fd63a192-a2ae-4c1d-aa3f-4b573664d6e9","system_id":"levelo_inurba_marseille","lat":43.31396,"lon":5.36698,"is_reserved":false,"is_disabled":false,"rental_uris":{"android":"levelo://app?vid=fd63a192-a2ae-4c1d-aa3f-4b573664d6e9","ios":"levelo://app?vid=fd63a192-a2ae-4c1d-aa3f-4b573664d6e9"},"vehicle_type_id":"4","last_reported":1742551809,"current_range_meters":10000,"station_id":"","pricing_plan_id":"cebpf4jnsgd1na2vs0mg"},{"bike_id":"206c58b2-f202-45cf-9046-ee4faa53107a","system_id":"levelo_inurba_marseille","lat":43.23151,"lon":5.43707,"is_reserved":false,"is_disabled":false,"rental_uris":{"android":"levelo://app?vid=206c58b2-f202-45cf-9046-ee4faa53107a","ios":"levelo://app?vid=206c58b2-f202-45cf-9046-ee4faa53107a"},"vehicle_type_id":"4","last_reported":1742551809,"current_range_meters":10000,"station_id":"ce4bhmp2rcd13ifvqgog","pricing_plan_id":"cebpf4jnsgd1na2vs0mg"},{"bike_id":"84ab2c5e-56bf-4f13-8f09-30e275d7e0cd","system_id":"levelo_inurba_marseille","lat":43.31484,"lon":5.37305,"is_reserved":false,"is_disabled":false,"rental_uris":{"android":"levelo://app?vid=84ab2c5e-56bf-4f13-8f09-30e275d7e0cd","ios":"levelo://app?vid=84ab2c5e-56bf-4f13-8f09-30e275d7e0cd"},"vehicle_type_id":"4","last_reported":1742551809,"current_range_meters":10000,"station_id":"ce4bgt12rcd13ifvqcd0","pricing_plan_id":"cebpf4jnsgd1na2vs0mg"},{"bike_id":"bf5d7bdb-65a8-4310-b955-6a76e2cbd7fe","system_id":"levelo_inurba_marseille","lat":43.3373,"lon":5.39174,"is_reserved":false,"is_disabled":false,"rental_uris":{"android":"levelo://app?vid=bf5d7bdb-65a8-4310-b955-6a76e2cbd7fe","ios":"levelo://app?vid=bf5d7bdb-65a8-4310-b955-6a76e2cbd7fe"},"vehicle_type_id":"4","last_reported":1742551809,"current_range_meters":10000,"station_id":"ce4bhr92rcd13ifvqhsg","pricing_plan_id":"cebpf4jnsgd1na2vs0mg"},{"bike_id":"08eaddc6-d579-40b8-895c-089b2f8ce149","system_id":"levelo_inurba_marseille","lat":43.24951,"lon":5.38282,"is_reserved":false,"is_disabled":false,"rental_uris":{"android":"levelo://app?vid=08eaddc6-d579-40b8-895c-089b2f8ce149","ios":"levelo://app?vid=08eaddc6-d579-40b8-895c-089b2f8ce149"},"vehicle_type_id":"4","last_reported":1742551809,"current_range_meters":9600,"station_id":"ce4bhih2rcd13ifvqfr0","pricing_plan_id":"cebpf4jnsgd1na2vs0mg"},{"bike_id":"ef16e6fd-d954-4df1-911a-4d78b575162e","system_id":"levelo_inurba_marseille","lat":43.32523,"lon":5.41458,"is_reserved":false,"is_disabled":false,"rental_uris":{"android":"levelo://app?vid=ef16e6fd-d954-4df1-911a-4d78b575162e","ios":"levelo://app?vid=ef16e6fd-d954-4df1-911a-4d78b575162e"},"vehicle_type_id":"4","last_reported":1742551809,"current_range_meters":10000,"station_id":"ce4bhq12rcd13ifvqhhg","pricing_plan_id":"cebpf4jnsgd1na2vs0mg"},{"bike_id":"ef760efa-1a76-4bb1-8cd8-068113ba4c42","system_id":"levelo_inurba_marseille","lat":43.25942,"lon":5.40903,"is_reserved":false,"is_disabled":false,"rental_uris":{"android":"levelo://app?vid=ef760efa-1a76-4bb1-8cd8-068113ba4c42","ios":"levelo://app?vid=ef760efa-1a76-4bb1-8cd8-068113ba4c42"},"vehicle_type_id":"4","last_reported":1742551809,"current_range_meters":10000,"station_id":"ce4bhm92rcd13ifvqglg","pricing_plan_id":"cebpf4jnsgd1na2vs0mg"},{"bike_id":"e8a37170-fee3-4d70-ba78-31e6e059fe35","system_id":"levelo_inurba_marseille","lat":43.28002,"lon":5.40011,"is_reserved":false,"is_disabled":false,"rental_uris":{"android":"levelo://app?vid=e8a37170-fee3-4d70-ba78-31e6e059fe35","ios":"levelo://app?vid=e8a37170-fee3-4d70-ba78-31e6e059fe35"},"vehicle_type_id":"4","last_reported":1742551809,"current_range_meters":10000,"station_id":"ce4bho92rcd13ifvqh4g","pricing_plan_id":"cebpf4jnsgd1na2vs0mg"},{"bike_id":"a3715952-7f72-4ddd-8cc7-7fc1adca4893","system_id":"levelo_inurba_marseille","lat":43.24654,"lon":5.38162,"is_reserved":false,"is_disabled":false,"rental_uris":{"android":"levelo://app?vid=a3715952-7f72-4ddd-8cc7-7fc1adca4893","ios":"levelo://app?vid=a3715952-7f72-4ddd-8cc7-7fc1adca4893"},"vehicle_type_id":"4","last_reported":1742551809,"current_range_meters":10000,"station_id":"ce4bhih2rcd13ifvqfr0","pricing_plan_id":"cebpf4jnsgd1na2vs0mg"},{"bike_id":"e7099a91-f011-4f51-8f8e-c8f0d1018eb5","system_id":"levelo_inurba_marseille","lat":43.23186,"lon":5.39969,"is_reserved":false,"is_disabled":false,"rental_uris":{"android":"levelo://app?vid=e7099a91-f011-4f51-8f8e-c8f0d1018eb5","ios":"levelo://app?vid=e7099a91-f011-4f51-8f8e-c8f0d1018eb5"},"vehicle_type_id":"4","last_reported":1742551809,"current_range_meters":10000,"station_id":"ce4bhn12rcd13ifvqgqg","pricing_plan_id":"cebpf4jnsgd1na2vs0mg"},{"bike_id":"ea01e00c-190b-4302-94fc-b75be72740e1","system_id":"levelo_inurba_marseille","lat":43.3149,"lon":5.37304,"is_reserved":false,"is_disabled":false,"rental_uris":{"android":"levelo://app?vid=ea01e00c-190b-4302-94fc-b75be72740e1","ios":"levelo://app?vid=ea01e00c-190b-4302-94fc-b75be72740e1"},"vehicle_type_id":"4","last_reported":1742551809,"current_range_meters":10000,"station_id":"ce4bgt12rcd13ifvqcd0","pricing_plan_id":"cebpf4jnsgd1na2vs0mg"},{"bike_id":"a3251066-4c40-4122-a906-99c3befc3d95","system_id":"levelo_inurba_marseille","lat":43.31451,"lon":5.3661,"is_reserved":false,"is_disabled":false,"rental_uris":{"android":"levelo://app?vid=a3251066-4c40-4122-a906-99c3befc3d95","ios":"levelo://app?vid=a3251066-4c40-4122-a906-99c3befc3d95"},"vehicle_type_id":"4","last_reported":1742551809,"current_range_meters":10800,"station_id":"","pricing_plan_id":"cebpf4jnsgd1na2vs0mg"},{"bike_id":"899ab87e-4ea4-40e5-9304-e09f83aad3d0","system_id":"levelo_inurba_marseille","lat":43.23976,"lon":5.3663,"is_reserved":false,"is_disabled":false,"rental_uris":{"android":"levelo://app?vid=899ab87e-4ea4-40e5-9304-e09f83aad3d0","ios":"levelo://app?vid=899ab87e-4ea4-40e5-9304-e09f83aad3d0"},"vehicle_type_id":"4","last_reported":1742551809,"current_range_meters":10800,"station_id":"ce4bhi12rcd13ifvqfp0","pricing_plan_id":"cebpf4jnsgd1na2vs0mg"},{"bike_id":"8e7befea-8416-4f3d-902f-cdfdbe65ac1d","system_id":"levelo_inurba_marseille","lat":43.24179,"lon":5.39726,"is_reserved":false,"is_disabled":false,"rental_uris":{"android":"levelo://app?vid=8e7befea-8416-4f3d-902f-cdfdbe65ac1d","ios":"levelo://app?vid=8e7befea-8416-4f3d-902f-cdfdbe65ac1d"},"vehicle_type_id":"4","last_reported":1742551809,"current_range_meters":10800,"station_id":"ce4bhn12rcd13ifvqgpg","pricing_plan_id":"cebpf4jnsgd1na2vs0mg"},{"bike_id":"59fdac8e-9b34-4fd3-a7df-adf6aad5c918","system_id":"levelo_inurba_marseille","lat":43.26079,"lon":5.39395,"is_reserved":false,"is_disabled":false,"rental_uris":{"android":"levelo://app?vid=59fdac8e-9b34-4fd3-a7df-adf6aad5c918","ios":"levelo://app?vid=59fdac8e-9b34-4fd3-a7df-adf6aad5c918"},"vehicle_type_id":"4","last_reported":1742551809,"current_range_meters":10800,"station_id":"ce4bhh92rcd13ifvqfj0","pricing_plan_id":"cebpf4jnsgd1na2vs0mg"},{"bike_id":"80e73453-5b03-4a66-9a0f-420d97bf1c15","system_id":"levelo_inurba_marseille","lat":43.25718,"lon":5.41113,"is_reserved":false,"is_disabled":false,"rental_uris":{"android":"levelo://app?vid=80e73453-5b03-4a66-9a0f-420d97bf1c15","ios":"levelo://app?vid=80e73453-5b03-4a66-9a0f-420d97bf1c15"},"vehicle_type_id":"4","last_reported":1742551809,"current_range_meters":10800,"station_id":"ce4bhkp2rcd13ifvqgd0","pricing_plan_id":"cebpf4jnsgd1na2vs0mg"},{"bike_id":"95d6241b-3e1d-4af9-93b1-4e10abb92a8a","system_id":"levelo_inurba_marseille","lat":43.25946,"lon":5.4089,"is_reserved":false,"is_disabled":false,"rental_uris":{"android":"levelo://app?vid=95d6241b-3e1d-4af9-93b1-4e10abb92a8a","ios":"levelo://app?vid=95d6241b-3e1d-4af9-93b1-4e10abb92a8a"},"vehicle_type_id":"4","last_reported":1742551809,"current_range_meters":10800,"station_id":"ce4bhm92rcd13ifvqglg","pricing_plan_id":"cebpf4jnsgd1na2vs0mg"},{"bike_id":"fb15ee11-b2b6-4fb7-9d7d-b32657ee284c","system_id":"levelo_inurba_marseille","lat":43.30291,"lon":5.36898,"is_reserved":false,"is_disabled":false,"rental_uris":{"android":"levelo://app?vid=fb15ee11-b2b6-4fb7-9d7d-b32657ee284c","ios":"levelo://app?vid=fb15ee11-b2b6-4fb7-9d7d-b32657ee284c"},"vehicle_type_id":"4","last_reported":1742551809,"current_range_meters":10800,"station_id":"ce4bgqh2rcd13ifvqc5g","pricing_plan_id":"cebpf4jnsgd1na2vs0mg"},{"bike_id":"cb0b8cc9-890f-4f2b-884f-b2d30866e08d","system_id":"levelo_inurba_marseille","lat":43.28155,"lon":5.42651,"is_reserved":false,"is_disabled":false,"rental_uris":{"android":"levelo://app?vid=cb0b8cc9-890f-4f2b-884f-b2d30866e08d","ios":"levelo://app?vid=cb0b8cc9-890f-4f2b-884f-b2d30866e08d"},"vehicle_type_id":"4","last_reported":1742551809,"current_range_meters":10800,"station_id":"ce4bhnh2rcd13ifvqgug","pricing_plan_id":"cebpf4jnsgd1na2vs0mg"},{"bike_id":"32c136b5-47bb-4db2-974c-debde23c849b","system_id":"levelo_inurba_marseille","lat":43.29264,"lon":5.37639,"is_reserved":false,"is_disabled":false,"rental_uris":{"android":"levelo://app?vid=32c136b5-47bb-4db2-974c-debde23c849b","ios":"levelo://app?vid=32c136b5-47bb-4db2-974c-debde23c849b"},"vehicle_type_id":"4","last_reported":1742551809,"current_range_meters":10800,"station_id":"ce4bgi12rcd13ifvqb80","pricing_plan_id":"cebpf4jnsgd1na2vs0mg"},{"bike_id":"aba7a31c-d1db-4bb4-ba56-e84838fed699","system_id":"levelo_inurba_marseille","lat":43.24674,"lon":5.38925,"is_reserved":false,"is_disabled":false,"rental_uris":{"android":"levelo://app?vid=aba7a31c-d1db-4bb4-ba56-e84838fed699","ios":"levelo://app?vid=aba7a31c-d1db-4bb4-ba56-e84838fed699"},"vehicle_type_id":"4","last_reported":1742551809,"current_range_meters":10800,"station_id":"ce4bhg12rcd13ifvqf60","pricing_plan_id":"cebpf4jnsgd1na2vs0mg"},{"bike_id":"a2ece08e-5a0a-4ecb-a8bb-4b5c24cd4f12","system_id":"levelo_inurba_marseille","lat":43.29791,"lon":5.38124,"is_reserved":false,"is_disabled":false,"rental_uris":{"android":"levelo://app?vid=a2ece08e-5a0a-4ecb-a8bb-4b5c24cd4f12","ios":"levelo://app?vid=a2ece08e-5a0a-4ecb-a8bb-4b5c24cd4f12"},"vehicle_type_id":"4","last_reported":1742551809,"current_range_meters":10800,"station_id":"ce4bgip2rcd13ifvqbb0","pricing_plan_id":"cebpf4jnsgd1na2vs0mg"},{"bike_id":"da25a481-ec45-460d-8fd6-0e400f91c966","system_id":"levelo_inurba_marseille","lat":43.31405,"lon":5.36708,"is_reserved":false,"is_disabled":false,"rental_uris":{"android":"levelo://app?vid=da25a481-ec45-460d-8fd6-0e400f91c966","ios":"levelo://app?vid=da25a481-ec45-460d-8fd6-0e400f91c966"},"vehicle_type_id":"4","last_reported":1742551809,"current_range_meters":10800,"station_id":"","pricing_plan_id":"cebpf4jnsgd1na2vs0mg"},{"bike_id":"64f3f160-3d41-4047-a7c4-5d9924ce80c7","system_id":"levelo_inurba_marseille","lat":43.25819,"lon":5.39372,"is_reserved":false,"is_disabled":false,"rental_uris":{"android":"levelo://app?vid=64f3f160-3d41-4047-a7c4-5d9924ce80c7","ios":"levelo://app?vid=64f3f160-3d41-4047-a7c4-5d9924ce80c7"},"vehicle_type_id":"4","last_reported":1742551809,"current_range_meters":10800,"station_id":"","pricing_plan_id":"cebpf4jnsgd1na2vs0mg"},{"bike_id":"06bbab08-73f4-423a-aed6-5501cdcb76a4","system_id":"levelo_inurba_marseille","lat":43.29019,"lon":5.3814,"is_reserved":false,"is_disabled":false,"rental_uris":{"android":"levelo://app?vid=06bbab08-73f4-423a-aed6-5501cdcb76a4","ios":"levelo://app?vid=06bbab08-73f4-423a-aed6-5501cdcb76a4"},"vehicle_type_id":"4","last_reported":1742551809,"current_range_meters":11200,"station_id":"ce4bh4p2rcd13ifvqe1g","pricing_plan_id":"cebpf4jnsgd1na2vs0mg"},{"bike_id":"563086a8-8515-4d07-a2d8-6c7fc246f529","system_id":"levelo_inurba_marseille","lat":43.25831,"lon":5.39422,"is_reserved":false,"is_disabled":false,"rental_uris":{"android":"levelo://app?vid=563086a8-8515-4d07-a2d8-6c7fc246f529","ios":"levelo://app?vid=563086a8-8515-4d07-a2d8-6c7fc246f529"},"vehicle_type_id":"4","last_reported":1742551809,"current_range_meters":11200,"station_id":"ce4bhip2rcd13ifvqft0","pricing_plan_id":"cebpf4jnsgd1na2vs0mg"},{"bike_id":"cff5c5d7-b2c2-4661-bcba-b7a09aa5def1","system_id":"levelo_inurba_marseille","lat":43.30305,"lon":5.36911,"is_reserved":false,"is_disabled":false,"rental_uris":{"android":"levelo://app?vid=cff5c5d7-b2c2-4661-bcba-b7a09aa5def1","ios":"levelo://app?vid=cff5c5d7-b2c2-4661-bcba-b7a09aa5def1"},"vehicle_type_id":"4","last_reported":1742551809,"current_range_meters":11200,"station_id":"ce4bgqh2rcd13ifvqc5g","pricing_plan_id":"cebpf4jnsgd1na2vs0mg"},{"bike_id":"0b5c41fa-abf0-4e80-9a27-4cc662d825a3","system_id":"levelo_inurba_marseille","lat":43.30312,"lon":5.369,"is_reserved":false,"is_disabled":false,"rental_uris":{"android":"levelo://app?vid=0b5c41fa-abf0-4e80-9a27-4cc662d825a3","ios":"levelo://app?vid=0b5c41fa-abf0-4e80-9a27-4cc662d825a3"},"vehicle_type_id":"4","last_reported":1742551809,"current_range_meters":11200,"station_id":"ce4bgqh2rcd13ifvqc5g","pricing_plan_id":"cebpf4jnsgd1na2vs0mg"},{"bike_id":"2f1aa16a-8533-444e-93d5-6a974fa5a1db","system_id":"levelo_inurba_marseille","lat":43.293,"lon":5.37429,"is_reserved":false,"is_disabled":false,"rental_uris":{"android":"levelo://app?vid=2f1aa16a-8533-444e-93d5-6a974fa5a1db","ios":"levelo://app?vid=2f1aa16a-8533-444e-93d5-6a974fa5a1db"},"vehicle_type_id":"4","last_reported":1742551809,"current_range_meters":11600,"station_id":"ce4bgi12rcd13ifvqb70","pricing_plan_id":"cebpf4jnsgd1na2vs0mg"},{"bike_id":"4bcb1d12-70bd-49c9-a774-8af972a6ec5c","system_id":"levelo_inurba_marseille","lat":43.2814,"lon":5.42597,"is_reserved":false,"is_disabled":false,"rental_uris":{"android":"levelo://app?vid=4bcb1d12-70bd-49c9-a774-8af972a6ec5c","ios":"levelo://app?vid=4bcb1d12-70bd-49c9-a774-8af972a6ec5c"},"vehicle_type_id":"4","last_reported":1742551809,"current_range_meters":11600,"station_id":"ce4bhnh2rcd13ifvqgug","pricing_plan_id":"cebpf4jnsgd1na2vs0mg"},{"bike_id":"d69253f7-1371-4496-907b-d4182a380cce","system_id":"levelo_inurba_marseille","lat":43.24073,"lon":5.37766,"is_reserved":false,"is_disabled":false,"rental_uris":{"android":"levelo://app?vid=d69253f7-1371-4496-907b-d4182a380cce","ios":"levelo://app?vid=d69253f7-1371-4496-907b-d4182a380cce"},"vehicle_type_id":"4","last_reported":1742551809,"current_range_meters":11600,"station_id":"ce4bhnp2rcd13ifvqgvg","pricing_plan_id":"cebpf4jnsgd1na2vs0mg"},{"bike_id":"611cf6a7-c612-4e85-9234-539bfc7b6df7","system_id":"levelo_inurba_marseille","lat":43.34143,"lon":5.409,"is_reserved":false,"is_disabled":false,"rental_uris":{"android":"levelo://app?vid=611cf6a7-c612-4e85-9234-539bfc7b6df7","ios":"levelo://app?vid=611cf6a7-c612-4e85-9234-539bfc7b6df7"},"vehicle_type_id":"4","last_reported":1742551809,"current_range_meters":11600,"station_id":"ce4bhqh2rcd13ifvqhlg","pricing_plan_id":"cebpf4jnsgd1na2vs0mg"},{"bike_id":"15b7ddba-d31e-4944-b345-a3c4fd450e1d","system_id":"levelo_inurba_marseille","lat":43.2454,"lon":5.39525,"is_reserved":false,"is_disabled":false,"rental_uris":{"android":"levelo://app?vid=15b7ddba-d31e-4944-b345-a3c4fd450e1d","ios":"levelo://app?vid=15b7ddba-d31e-4944-b345-a3c4fd450e1d"},"vehicle_type_id":"4","last_reported":1742551809,"current_range_meters":11600,"station_id":"ce4bhlp2rcd13ifvqgjg","pricing_plan_id":"cebpf4jnsgd1na2vs0mg"},{"bike_id":"1f4b5356-d265-454a-aa48-2f7dec9d4d2a","system_id":"levelo_inurba_marseille","lat":43.33735,"lon":5.39189,"is_reserved":false,"is_disabled":false,"rental_uris":{"android":"levelo://app?vid=1f4b5356-d265-454a-aa48-2f7dec9d4d2a","ios":"levelo://app?vid=1f4b5356-d265-454a-aa48-2f7dec9d4d2a"},"vehicle_type_id":"4","last_reported":1742551809,"current_range_meters":11600,"station_id":"ce4bhr92rcd13ifvqhsg","pricing_plan_id":"cebpf4jnsgd1na2vs0mg"},{"bike_id":"e62dac40-44c1-4bd0-960d-9e1c5df60e4a","system_id":"levelo_inurba_marseille","lat":43.30302,"lon":5.36916,"is_reserved":false,"is_disabled":false,"rental_uris":{"android":"levelo://app?vid=e62dac40-44c1-4bd0-960d-9e1c5df60e4a","ios":"levelo://app?vid=e62dac40-44c1-4bd0-960d-9e1c5df60e4a"},"vehicle_type_id":"4","last_reported":1742551809,"current_range_meters":11600,"station_id":"ce4bgqh2rcd13ifvqc5g","pricing_plan_id":"cebpf4jnsgd1na2vs0mg"},{"bike_id":"a06df953-ee24-4eee-acd9-cfb685fc1c62","system_id":"levelo_inurba_marseille","lat":43.31407,"lon":5.3744,"is_reserved":false,"is_disabled":false,"rental_uris":{"android":"levelo://app?vid=a06df953-ee24-4eee-acd9-cfb685fc1c62","ios":"levelo://app?vid=a06df953-ee24-4eee-acd9-cfb685fc1c62"},"vehicle_type_id":"4","last_reported":1742551809,"current_range_meters":12000,"station_id":"","pricing_plan_id":"cebpf4jnsgd1na2vs0mg"},{"bike_id":"52c16ac5-3447-4053-956c-78fc8bf0dc7c","system_id":"levelo_inurba_marseille","lat":43.32361,"lon":5.36749,"is_reserved":false,"is_disabled":false,"rental_uris":{"android":"levelo://app?vid=52c16ac5-3447-4053-956c-78fc8bf0dc7c","ios":"levelo://app?vid=52c16ac5-3447-4053-956c-78fc8bf0dc7c"},"vehicle_type_id":"4","last_reported":1742551809,"current_range_meters":12000,"station_id":"ce4bhsh2rcd13ifvqi2g","pricing_plan_id":"cebpf4jnsgd1na2vs0mg"},{"bike_id":"9f1c3e5c-869d-4869-b7c6-0c926f2da6bf","system_id":"levelo_inurba_marseille","lat":43.28362,"lon":5.39802,"is_reserved":false,"is_disabled":false,"rental_uris":{"android":"levelo://app?vid=9f1c3e5c-869d-4869-b7c6-0c926f2da6bf","ios":"levelo://app?vid=9f1c3e5c-869d-4869-b7c6-0c926f2da6bf"},"vehicle_type_id":"4","last_reported":1742551809,"current_range_meters":12000,"station_id":"","pricing_plan_id":"cebpf4jnsgd1na2vs0mg"},{"bike_id":"4267841d-5d94-44c6-8617-f314080e9a83","system_id":"levelo_inurba_marseille","lat":43.32483,"lon":5.36566,"is_reserved":false,"is_disabled":false,"rental_uris":{"android":"levelo://app?vid=4267841d-5d94-44c6-8617-f314080e9a83","ios":"levelo://app?vid=4267841d-5d94-44c6-8617-f314080e9a83"},"vehicle_type_id":"4","last_reported":1742551809,"current_range_meters":12000,"station_id":"ce4bhs12rcd13ifvqhvg","pricing_plan_id":"cebpf4jnsgd1na2vs0mg"},{"bike_id":"b4b0cdf3-c3bc-4a84-a0e4-288592dddecb","system_id":"levelo_inurba_marseille","lat":43.28696,"lon":5.37389,"is_reserved":false,"is_disabled":false,"rental_uris":{"android":"levelo://app?vid=b4b0cdf3-c3bc-4a84-a0e4-288592dddecb","ios":"levelo://app?vid=b4b0cdf3-c3bc-4a84-a0e4-288592dddecb"},"vehicle_type_id":"4","last_reported":1742551809,"current_range_meters":12000,"station_id":"ce4bh3p2rcd13ifvqdq0","pricing_plan_id":"cebpf4jnsgd1na2vs0mg"},{"bike_id":"4abb3195-7132-49da-98e0-ec29e44ed135","system_id":"levelo_inurba_marseille","lat":43.24086,"lon":5.37739,"is_reserved":false,"is_disabled":false,"rental_uris":{"android":"levelo://app?vid=4abb3195-7132-49da-98e0-ec29e44ed135","ios":"levelo://app?vid=4abb3195-7132-49da-98e0-ec29e44ed135"},"vehicle_type_id":"4","last_reported":1742551809,"current_range_meters":12000,"station_id":"ce4bhnp2rcd13ifvqgvg","pricing_plan_id":"cebpf4jnsgd1na2vs0mg"},{"bike_id":"eca27a81-a303-407b-9584-1b4a67bf83d4","system_id":"levelo_inurba_marseille","lat":43.24089,"lon":5.37749,"is_reserved":false,"is_disabled":false,"rental_uris":{"android":"levelo://app?vid=eca27a81-a303-407b-9584-1b4a67bf83d4","ios":"levelo://app?vid=eca27a81-a303-407b-9584-1b4a67bf83d4"},"vehicle_type_id":"4","last_reported":1742551809,"current_range_meters":12400,"station_id":"ce4bhnp2rcd13ifvqgvg","pricing_plan_id":"cebpf4jnsgd1na2vs0mg"},{"bike_id":"fbbb3028-b15b-4750-98dc-ac90972ecc9b","system_id":"levelo_inurba_marseille","lat":43.32116,"lon":5.36774,"is_reserved":false,"is_disabled":false,"rental_uris":{"android":"levelo://app?vid=fbbb3028-b15b-4750-98dc-ac90972ecc9b","ios":"levelo://app?vid=fbbb3028-b15b-4750-98dc-ac90972ecc9b"},"vehicle_type_id":"4","last_reported":1742551809,"current_range_meters":12400,"station_id":"ce4bhrh2rcd13ifvqhug","pricing_plan_id":"cebpf4jnsgd1na2vs0mg"},{"bike_id":"09b90bc9-f5a2-4675-b87f-b58dc3f75ec2","system_id":"levelo_inurba_marseille","lat":43.27956,"lon":5.38723,"is_reserved":false,"is_disabled":true,"rental_uris":{"android":"levelo://app?vid=09b90bc9-f5a2-4675-b87f-b58dc3f75ec2","ios":"levelo://app?vid=09b90bc9-f5a2-4675-b87f-b58dc3f75ec2"},"vehicle_type_id":"4","last_reported":1742551809,"current_range_meters":12400,"station_id":"ce4bhg12rcd13ifvqf80","pricing_plan_id":"cebpf4jnsgd1na2vs0mg"},{"bike_id":"01219e3e-734a-45e5-a17e-9ed808497e31","system_id":"levelo_inurba_marseille","lat":43.24541,"lon":5.39529,"is_reserved":false,"is_disabled":false,"rental_uris":{"android":"levelo://app?vid=01219e3e-734a-45e5-a17e-9ed808497e31","ios":"levelo://app?vid=01219e3e-734a-45e5-a17e-9ed808497e31"},"vehicle_type_id":"4","last_reported":1742551809,"current_range_meters":12800,"station_id":"ce4bhlp2rcd13ifvqgjg","pricing_plan_id":"cebpf4jnsgd1na2vs0mg"},{"bike_id":"4eed87ec-6ba8-4423-bb2a-902257d20a6d","system_id":"levelo_inurba_marseille","lat":43.23164,"lon":5.43701,"is_reserved":false,"is_disabled":false,"rental_uris":{"android":"levelo://app?vid=4eed87ec-6ba8-4423-bb2a-902257d20a6d","ios":"levelo://app?vid=4eed87ec-6ba8-4423-bb2a-902257d20a6d"},"vehicle_type_id":"4","last_reported":1742551809,"current_range_meters":12800,"station_id":"ce4bhmp2rcd13ifvqgog","pricing_plan_id":"cebpf4jnsgd1na2vs0mg"},{"bike_id":"8d8aa966-3f9a-4f7c-8370-35601cca72a6","system_id":"levelo_inurba_marseille","lat":43.30318,"lon":5.36908,"is_reserved":false,"is_disabled":false,"rental_uris":{"android":"levelo://app?vid=8d8aa966-3f9a-4f7c-8370-35601cca72a6","ios":"levelo://app?vid=8d8aa966-3f9a-4f7c-8370-35601cca72a6"},"vehicle_type_id":"4","last_reported":1742551809,"current_range_meters":12800,"station_id":"ce4bgqh2rcd13ifvqc5g","pricing_plan_id":"cebpf4jnsgd1na2vs0mg"},{"bike_id":"15ecf1da-a7e5-4f8a-a83b-5761a6e31ae3","system_id":"levelo_inurba_marseille","lat":43.23192,"lon":5.35555,"is_reserved":false,"is_disabled":false,"rental_uris":{"android":"levelo://app?vid=15ecf1da-a7e5-4f8a-a83b-5761a6e31ae3","ios":"levelo://app?vid=15ecf1da-a7e5-4f8a-a83b-5761a6e31ae3"},"vehicle_type_id":"4","last_reported":1742551809,"current_range_meters":12800,"station_id":"ce4bhu92rcd13ifvqi70","pricing_plan_id":"cebpf4jnsgd1na2vs0mg"},{"bike_id":"3f7d6cde-7911-4e85-a37f-700b24691ccd","system_id":"levelo_inurba_marseille","lat":43.24166,"lon":5.36401,"is_reserved":false,"is_disabled":false,"rental_uris":{"android":"levelo://app?vid=3f7d6cde-7911-4e85-a37f-700b24691ccd","ios":"levelo://app?vid=3f7d6cde-7911-4e85-a37f-700b24691ccd"},"vehicle_type_id":"4","last_reported":1742551809,"current_range_meters":12800,"station_id":"cpo36qri1sfpv3e86is0","pricing_plan_id":"cebpf4jnsgd1na2vs0mg"},{"bike_id":"91cabc99-b88c-4d8a-9e44-1edd6c0885ec","system_id":"levelo_inurba_marseille","lat":43.24078,"lon":5.37749,"is_reserved":false,"is_disabled":false,"rental_uris":{"android":"levelo://app?vid=91cabc99-b88c-4d8a-9e44-1edd6c0885ec","ios":"levelo://app?vid=91cabc99-b88c-4d8a-9e44-1edd6c0885ec"},"vehicle_type_id":"4","last_reported":1742551809,"current_range_meters":12800,"station_id":"ce4bhnp2rcd13ifvqgvg","pricing_plan_id":"cebpf4jnsgd1na2vs0mg"},{"bike_id":"60489768-70a1-4f3b-a334-8d7bb79d79eb","system_id":"levelo_inurba_marseille","lat":43.29255,"lon":5.40923,"is_reserved":false,"is_disabled":false,"rental_uris":{"android":"levelo://app?vid=60489768-70a1-4f3b-a334-8d7bb79d79eb","ios":"levelo://app?vid=60489768-70a1-4f3b-a334-8d7bb79d79eb"},"vehicle_type_id":"4","last_reported":1742551809,"current_range_meters":12800,"station_id":"ce4bh192rcd13ifvqdc0","pricing_plan_id":"cebpf4jnsgd1na2vs0mg"},{"bike_id":"9f71b25d-9206-481d-ac8c-220bc4ce65d9","system_id":"levelo_inurba_marseille","lat":43.24159,"lon":5.3638,"is_reserved":false,"is_disabled":false,"rental_uris":{"android":"levelo://app?vid=9f71b25d-9206-481d-ac8c-220bc4ce65d9","ios":"levelo://app?vid=9f71b25d-9206-481d-ac8c-220bc4ce65d9"},"vehicle_type_id":"4","last_reported":1742551809,"current_range_meters":12800,"station_id":"cpo36qri1sfpv3e86is0","pricing_plan_id":"cebpf4jnsgd1na2vs0mg"},{"bike_id":"466ab05c-24cc-4223-acab-cd66e8fed814","system_id":"levelo_inurba_marseille","lat":43.30958,"lon":5.39044,"is_reserved":false,"is_disabled":false,"rental_uris":{"android":"levelo://app?vid=466ab05c-24cc-4223-acab-cd66e8fed814","ios":"levelo://app?vid=466ab05c-24cc-4223-acab-cd66e8fed814"},"vehicle_type_id":"4","last_reported":1742551809,"current_range_meters":13600,"station_id":"ce4bgup2rcd13ifvqco0","pricing_plan_id":"cebpf4jnsgd1na2vs0mg"},{"bike_id":"556b5e08-97ea-4f47-9aee-0ddb89816c84","system_id":"levelo_inurba_marseille","lat":43.30539,"lon":5.36701,"is_reserved":false,"is_disabled":false,"rental_uris":{"android":"levelo://app?vid=556b5e08-97ea-4f47-9aee-0ddb89816c84","ios":"levelo://app?vid=556b5e08-97ea-4f47-9aee-0ddb89816c84"},"vehicle_type_id":"4","last_reported":1742551809,"current_range_meters":13600,"station_id":"ce4bgrp2rcd13ifvqc9g","pricing_plan_id":"cebpf4jnsgd1na2vs0mg"},{"bike_id":"dc537980-6042-493d-8080-0667efb1d6ad","system_id":"levelo_inurba_marseille","lat":43.24545,"lon":5.39525,"is_reserved":false,"is_disabled":false,"rental_uris":{"android":"levelo://app?vid=dc537980-6042-493d-8080-0667efb1d6ad","ios":"levelo://app?vid=dc537980-6042-493d-8080-0667efb1d6ad"},"vehicle_type_id":"4","last_reported":1742551809,"current_range_meters":13600,"station_id":"ce4bhlp2rcd13ifvqgjg","pricing_plan_id":"cebpf4jnsgd1na2vs0mg"},{"bike_id":"e66793e3-2da6-4d2f-ba3e-dad4dec04a88","system_id":"levelo_inurba_marseille","lat":43.298,"lon":5.38091,"is_reserved":false,"is_disabled":false,"rental_uris":{"android":"levelo://app?vid=e66793e3-2da6-4d2f-ba3e-dad4dec04a88","ios":"levelo://app?vid=e66793e3-2da6-4d2f-ba3e-dad4dec04a88"},"vehicle_type_id":"4","last_reported":1742551809,"current_range_meters":13600,"station_id":"ce4bgip2rcd13ifvqbb0","pricing_plan_id":"cebpf4jnsgd1na2vs0mg"},{"bike_id":"864cc626-acee-4281-a704-02772977571f","system_id":"levelo_inurba_marseille","lat":43.31297,"lon":5.36824,"is_reserved":false,"is_disabled":false,"rental_uris":{"android":"levelo://app?vid=864cc626-acee-4281-a704-02772977571f","ios":"levelo://app?vid=864cc626-acee-4281-a704-02772977571f"},"vehicle_type_id":"4","last_reported":1742551809,"current_range_meters":13600,"station_id":"ce4bgl92rcd13ifvqbq0","pricing_plan_id":"cebpf4jnsgd1na2vs0mg"},{"bike_id":"4da31b6a-f3aa-4ec7-a81a-164659308165","system_id":"levelo_inurba_marseille","lat":43.32548,"lon":5.41458,"is_reserved":false,"is_disabled":false,"rental_uris":{"android":"levelo://app?vid=4da31b6a-f3aa-4ec7-a81a-164659308165","ios":"levelo://app?vid=4da31b6a-f3aa-4ec7-a81a-164659308165"},"vehicle_type_id":"4","last_reported":1742551809,"current_range_meters":13600,"station_id":"ce4bhq12rcd13ifvqhhg","pricing_plan_id":"cebpf4jnsgd1na2vs0mg"},{"bike_id":"f7b19721-c68b-4280-b653-43eff6dbb1fd","system_id":"levelo_inurba_marseille","lat":43.32127,"lon":5.36791,"is_reserved":false,"is_disabled":false,"rental_uris":{"android":"levelo://app?vid=f7b19721-c68b-4280-b653-43eff6dbb1fd","ios":"levelo://app?vid=f7b19721-c68b-4280-b653-43eff6dbb1fd"},"vehicle_type_id":"4","last_reported":1742551809,"current_range_meters":13600,"station_id":"ce4bhrh2rcd13ifvqhug","pricing_plan_id":"cebpf4jnsgd1na2vs0mg"},{"bike_id":"7442246c-2798-431d-84d3-acec834915be","system_id":"levelo_inurba_marseille","lat":43.30846,"lon":5.3672,"is_reserved":false,"is_disabled":false,"rental_uris":{"android":"levelo://app?vid=7442246c-2798-431d-84d3-acec834915be","ios":"levelo://app?vid=7442246c-2798-431d-84d3-acec834915be"},"vehicle_type_id":"4","last_reported":1742551809,"current_range_meters":13600,"station_id":"ce4bgn92rcd13ifvqbvg","pricing_plan_id":"cebpf4jnsgd1na2vs0mg"},{"bike_id":"495d67fb-311c-4157-a54d-b808f182608e","system_id":"levelo_inurba_marseille","lat":43.32543,"lon":5.41451,"is_reserved":false,"is_disabled":false,"rental_uris":{"android":"levelo://app?vid=495d67fb-311c-4157-a54d-b808f182608e","ios":"levelo://app?vid=495d67fb-311c-4157-a54d-b808f182608e"},"vehicle_type_id":"4","last_reported":1742551809,"current_range_meters":13600,"station_id":"ce4bhq12rcd13ifvqhhg","pricing_plan_id":"cebpf4jnsgd1na2vs0mg"},{"bike_id":"4c414aff-8994-4200-8e46-e593a344b6f8","system_id":"levelo_inurba_marseille","lat":43.26958,"lon":5.38631,"is_reserved":false,"is_disabled":false,"rental_uris":{"android":"levelo://app?vid=4c414aff-8994-4200-8e46-e593a344b6f8","ios":"levelo://app?vid=4c414aff-8994-4200-8e46-e593a344b6f8"},"vehicle_type_id":"4","last_reported":1742551809,"current_range_meters":13600,"station_id":"ce4bhh92rcd13ifvqfh0","pricing_plan_id":"cebpf4jnsgd1na2vs0mg"},{"bike_id":"29c299a3-8deb-46e4-8cd6-c7a928ea34d7","system_id":"levelo_inurba_marseille","lat":43.2657,"lon":5.37281,"is_reserved":false,"is_disabled":false,"rental_uris":{"android":"levelo://app?vid=29c299a3-8deb-46e4-8cd6-c7a928ea34d7","ios":"levelo://app?vid=29c299a3-8deb-46e4-8cd6-c7a928ea34d7"},"vehicle_type_id":"4","last_reported":1742551809,"current_range_meters":14000,"station_id":"ce4bhg12rcd13ifvqf70","pricing_plan_id":"cebpf4jnsgd1na2vs0mg"},{"bike_id":"f857e3ee-7b86-4ccd-8116-6a58a1cacb60","system_id":"levelo_inurba_marseille","lat":43.33075,"lon":5.40834,"is_reserved":false,"is_disabled":false,"rental_uris":{"android":"levelo://app?vid=f857e3ee-7b86-4ccd-8116-6a58a1cacb60","ios":"levelo://app?vid=f857e3ee-7b86-4ccd-8116-6a58a1cacb60"},"vehicle_type_id":"4","last_reported":1742551809,"current_range_meters":14000,"station_id":"","pricing_plan_id":"cebpf4jnsgd1na2vs0mg"},{"bike_id":"144d37a4-36e2-42a8-aee9-74ed486b3eb9","system_id":"levelo_inurba_marseille","lat":43.30547,"lon":5.3653,"is_reserved":false,"is_disabled":false,"rental_uris":{"android":"levelo://app?vid=144d37a4-36e2-42a8-aee9-74ed486b3eb9","ios":"levelo://app?vid=144d37a4-36e2-42a8-aee9-74ed486b3eb9"},"vehicle_type_id":"4","last_reported":1742551809,"current_range_meters":14000,"station_id":"ce4bgs12rcd13ifvqcag","pricing_plan_id":"cebpf4jnsgd1na2vs0mg"},{"bike_id":"56c75b41-bbee-404f-89d9-8b4ff054e1a2","system_id":"levelo_inurba_marseille","lat":43.25863,"lon":5.39896,"is_reserved":false,"is_disabled":false,"rental_uris":{"android":"levelo://app?vid=56c75b41-bbee-404f-89d9-8b4ff054e1a2","ios":"levelo://app?vid=56c75b41-bbee-404f-89d9-8b4ff054e1a2"},"vehicle_type_id":"4","last_reported":1742551809,"current_range_meters":13600,"station_id":"ce4bhl92rcd13ifvqghg","pricing_plan_id":"cebpf4jnsgd1na2vs0mg"},{"bike_id":"4d50485a-50bc-4d6f-9462-f629a7d2e159","system_id":"levelo_inurba_marseille","lat":43.27617,"lon":5.36105,"is_reserved":false,"is_disabled":false,"rental_uris":{"android":"levelo://app?vid=4d50485a-50bc-4d6f-9462-f629a7d2e159","ios":"levelo://app?vid=4d50485a-50bc-4d6f-9462-f629a7d2e159"},"vehicle_type_id":"4","last_reported":1742551809,"current_range_meters":14000,"station_id":"ce4bgj92rcd13ifvqbe0","pricing_plan_id":"cebpf4jnsgd1na2vs0mg"},{"bike_id":"aa38de45-471a-40c6-9431-1f537c7b1dbb","system_id":"levelo_inurba_marseille","lat":43.29101,"lon":5.40077,"is_reserved":false,"is_disabled":false,"rental_uris":{"android":"levelo://app?vid=aa38de45-471a-40c6-9431-1f537c7b1dbb","ios":"levelo://app?vid=aa38de45-471a-40c6-9431-1f537c7b1dbb"},"vehicle_type_id":"4","last_reported":1742551809,"current_range_meters":14400,"station_id":"","pricing_plan_id":"cebpf4jnsgd1na2vs0mg"},{"bike_id":"0fbf373c-ac5b-49d9-a94e-bea438af3895","system_id":"levelo_inurba_marseille","lat":43.30957,"lon":5.39055,"is_reserved":false,"is_disabled":false,"rental_uris":{"android":"levelo://app?vid=0fbf373c-ac5b-49d9-a94e-bea438af3895","ios":"levelo://app?vid=0fbf373c-ac5b-49d9-a94e-bea438af3895"},"vehicle_type_id":"4","last_reported":1742551809,"current_range_meters":14400,"station_id":"ce4bgup2rcd13ifvqco0","pricing_plan_id":"cebpf4jnsgd1na2vs0mg"},{"bike_id":"317d6b69-7893-4d6a-bcf4-3a5c81de488e","system_id":"levelo_inurba_marseille","lat":43.27502,"lon":5.42447,"is_reserved":false,"is_disabled":false,"rental_uris":{"android":"levelo://app?vid=317d6b69-7893-4d6a-bcf4-3a5c81de488e","ios":"levelo://app?vid=317d6b69-7893-4d6a-bcf4-3a5c81de488e"},"vehicle_type_id":"4","last_reported":1742551809,"current_range_meters":14400,"station_id":"ce4bhn92rcd13ifvqgrg","pricing_plan_id":"cebpf4jnsgd1na2vs0mg"},{"bike_id":"272e9736-f994-4ff0-a887-13aca114bf02","system_id":"levelo_inurba_marseille","lat":43.31099,"lon":5.4243,"is_reserved":false,"is_disabled":false,"rental_uris":{"android":"levelo://app?vid=272e9736-f994-4ff0-a887-13aca114bf02","ios":"levelo://app?vid=272e9736-f994-4ff0-a887-13aca114bf02"},"vehicle_type_id":"4","last_reported":1742551809,"current_range_meters":14400,"station_id":"ce4bhp92rcd13ifvqhag","pricing_plan_id":"cebpf4jnsgd1na2vs0mg"},{"bike_id":"4e373db0-5541-4ae5-983c-0a0021d01170","system_id":"levelo_inurba_marseille","lat":43.30537,"lon":5.38426,"is_reserved":false,"is_disabled":false,"rental_uris":{"android":"levelo://app?vid=4e373db0-5541-4ae5-983c-0a0021d01170","ios":"levelo://app?vid=4e373db0-5541-4ae5-983c-0a0021d01170"},"vehicle_type_id":"4","last_reported":1742551809,"current_range_meters":14400,"station_id":"ce4bgg92rcd13ifvqb30","pricing_plan_id":"cebpf4jnsgd1na2vs0mg"},{"bike_id":"27d13143-5ca0-4eaf-910a-791fb0f99ce4","system_id":"levelo_inurba_marseille","lat":43.23205,"lon":5.35548,"is_reserved":false,"is_disabled":false,"rental_uris":{"android":"levelo://app?vid=27d13143-5ca0-4eaf-910a-791fb0f99ce4","ios":"levelo://app?vid=27d13143-5ca0-4eaf-910a-791fb0f99ce4"},"vehicle_type_id":"4","last_reported":1742551809,"current_range_meters":14800,"station_id":"ce4bhu92rcd13ifvqi70","pricing_plan_id":"cebpf4jnsgd1na2vs0mg"},{"bike_id":"9b91a0f9-9539-4ee0-ac8e-999f54064ee5","system_id":"levelo_inurba_marseille","lat":43.28465,"lon":5.35878,"is_reserved":false,"is_disabled":false,"rental_uris":{"android":"levelo://app?vid=9b91a0f9-9539-4ee0-ac8e-999f54064ee5","ios":"levelo://app?vid=9b91a0f9-9539-4ee0-ac8e-999f54064ee5"},"vehicle_type_id":"4","last_reported":1742551809,"current_range_meters":14400,"station_id":"ce4bhah2rcd13ifvqei0","pricing_plan_id":"cebpf4jnsgd1na2vs0mg"},{"bike_id":"758d6121-2739-47f8-baa5-39507cb03d50","system_id":"levelo_inurba_marseille","lat":43.31519,"lon":5.3727,"is_reserved":false,"is_disabled":false,"rental_uris":{"android":"levelo://app?vid=758d6121-2739-47f8-baa5-39507cb03d50","ios":"levelo://app?vid=758d6121-2739-47f8-baa5-39507cb03d50"},"vehicle_type_id":"4","last_reported":1742551809,"current_range_meters":14800,"station_id":"","pricing_plan_id":"cebpf4jnsgd1na2vs0mg"},{"bike_id":"6c2d259d-cc39-462c-94d1-46efd2f019c7","system_id":"levelo_inurba_marseille","lat":43.29035,"lon":5.38134,"is_reserved":false,"is_disabled":false,"rental_uris":{"android":"levelo://app?vid=6c2d259d-cc39-462c-94d1-46efd2f019c7","ios":"levelo://app?vid=6c2d259d-cc39-462c-94d1-46efd2f019c7"},"vehicle_type_id":"4","last_reported":1742551809,"current_range_meters":14800,"station_id":"ce4bh4p2rcd13ifvqe1g","pricing_plan_id":"cebpf4jnsgd1na2vs0mg"},{"bike_id":"85395184-366b-4290-aaa9-154eae029bb9","system_id":"levelo_inurba_marseille","lat":43.31365,"lon":5.36701,"is_reserved":false,"is_disabled":false,"rental_uris":{"android":"levelo://app?vid=85395184-366b-4290-aaa9-154eae029bb9","ios":"levelo://app?vid=85395184-366b-4290-aaa9-154eae029bb9"},"vehicle_type_id":"4","last_reported":1742551809,"current_range_meters":14800,"station_id":"ce4bgr92rcd13ifvqc6g","pricing_plan_id":"cebpf4jnsgd1na2vs0mg"},{"bike_id":"4ba70a3b-43ac-4de8-b351-3a8833532eb6","system_id":"levelo_inurba_marseille","lat":43.31536,"lon":5.3727,"is_reserved":false,"is_disabled":false,"rental_uris":{"android":"levelo://app?vid=4ba70a3b-43ac-4de8-b351-3a8833532eb6","ios":"levelo://app?vid=4ba70a3b-43ac-4de8-b351-3a8833532eb6"},"vehicle_type_id":"4","last_reported":1742551809,"current_range_meters":14800,"station_id":"","pricing_plan_id":"cebpf4jnsgd1na2vs0mg"},{"bike_id":"ab723d6b-06b9-421d-aee9-ca26cff9203d","system_id":"levelo_inurba_marseille","lat":43.32009,"lon":5.38146,"is_reserved":false,"is_disabled":false,"rental_uris":{"android":"levelo://app?vid=ab723d6b-06b9-421d-aee9-ca26cff9203d","ios":"levelo://app?vid=ab723d6b-06b9-421d-aee9-ca26cff9203d"},"vehicle_type_id":"4","last_reported":1742551809,"current_range_meters":14800,"station_id":"ce4bhr12rcd13ifvqhpg","pricing_plan_id":"cebpf4jnsgd1na2vs0mg"},{"bike_id":"295b2b96-8a22-4b6f-a45b-df5a7ed58969","system_id":"levelo_inurba_marseille","lat":43.33734,"lon":5.39181,"is_reserved":false,"is_disabled":false,"rental_uris":{"android":"levelo://app?vid=295b2b96-8a22-4b6f-a45b-df5a7ed58969","ios":"levelo://app?vid=295b2b96-8a22-4b6f-a45b-df5a7ed58969"},"vehicle_type_id":"4","last_reported":1742551809,"current_range_meters":15200,"station_id":"ce4bhr92rcd13ifvqhsg","pricing_plan_id":"cebpf4jnsgd1na2vs0mg"},{"bike_id":"e53819f3-f56d-4383-aab9-182a6b4eb49f","system_id":"levelo_inurba_marseille","lat":43.24079,"lon":5.37762,"is_reserved":false,"is_disabled":false,"rental_uris":{"android":"levelo://app?vid=e53819f3-f56d-4383-aab9-182a6b4eb49f","ios":"levelo://app?vid=e53819f3-f56d-4383-aab9-182a6b4eb49f"},"vehicle_type_id":"4","last_reported":1742551809,"current_range_meters":15200,"station_id":"ce4bhnp2rcd13ifvqgvg","pricing_plan_id":"cebpf4jnsgd1na2vs0mg"},{"bike_id":"8550f580-0fc4-4e94-bbd6-bc5fe20fc1b3","system_id":"levelo_inurba_marseille","lat":43.23155,"lon":5.43704,"is_reserved":false,"is_disabled":false,"rental_uris":{"android":"levelo://app?vid=8550f580-0fc4-4e94-bbd6-bc5fe20fc1b3","ios":"levelo://app?vid=8550f580-0fc4-4e94-bbd6-bc5fe20fc1b3"},"vehicle_type_id":"4","last_reported":1742551809,"current_range_meters":15200,"station_id":"ce4bhmp2rcd13ifvqgog","pricing_plan_id":"cebpf4jnsgd1na2vs0mg"},{"bike_id":"38f4a4e0-0dcd-4474-9d9c-3d20a7188283","system_id":"levelo_inurba_marseille","lat":43.29569,"lon":5.37521,"is_reserved":false,"is_disabled":false,"rental_uris":{"android":"levelo://app?vid=38f4a4e0-0dcd-4474-9d9c-3d20a7188283","ios":"levelo://app?vid=38f4a4e0-0dcd-4474-9d9c-3d20a7188283"},"vehicle_type_id":"4","last_reported":1742551809,"current_range_meters":15200,"station_id":"ce4bgh92rcd13ifvqb50","pricing_plan_id":"cebpf4jnsgd1na2vs0mg"},{"bike_id":"23244345-4a28-4de8-bbbe-a514eaf3e03c","system_id":"levelo_inurba_marseille","lat":43.23189,"lon":5.35505,"is_reserved":false,"is_disabled":false,"rental_uris":{"android":"levelo://app?vid=23244345-4a28-4de8-bbbe-a514eaf3e03c","ios":"levelo://app?vid=23244345-4a28-4de8-bbbe-a514eaf3e03c"},"vehicle_type_id":"4","last_reported":1742551809,"current_range_meters":15200,"station_id":"ce4bhu92rcd13ifvqi70","pricing_plan_id":"cebpf4jnsgd1na2vs0mg"},{"bike_id":"f1c1254d-d9d6-4485-8910-4ae2a7c84bc0","system_id":"levelo_inurba_marseille","lat":43.23203,"lon":5.39967,"is_reserved":false,"is_disabled":false,"rental_uris":{"android":"levelo://app?vid=f1c1254d-d9d6-4485-8910-4ae2a7c84bc0","ios":"levelo://app?vid=f1c1254d-d9d6-4485-8910-4ae2a7c84bc0"},"vehicle_type_id":"4","last_reported":1742551809,"current_range_meters":15200,"station_id":"ce4bhn12rcd13ifvqgqg","pricing_plan_id":"cebpf4jnsgd1na2vs0mg"},{"bike_id":"2ee11e51-242f-4eec-9134-dcb809b6ea12","system_id":"levelo_inurba_marseille","lat":43.25935,"lon":5.40896,"is_reserved":false,"is_disabled":false,"rental_uris":{"android":"levelo://app?vid=2ee11e51-242f-4eec-9134-dcb809b6ea12","ios":"levelo://app?vid=2ee11e51-242f-4eec-9134-dcb809b6ea12"},"vehicle_type_id":"4","last_reported":1742551809,"current_range_meters":16000,"station_id":"ce4bhm92rcd13ifvqglg","pricing_plan_id":"cebpf4jnsgd1na2vs0mg"},{"bike_id":"8d506eb5-6e6f-4e23-8278-802c9bc0c802","system_id":"levelo_inurba_marseille","lat":43.30535,"lon":5.36711,"is_reserved":false,"is_disabled":false,"rental_uris":{"android":"levelo://app?vid=8d506eb5-6e6f-4e23-8278-802c9bc0c802","ios":"levelo://app?vid=8d506eb5-6e6f-4e23-8278-802c9bc0c802"},"vehicle_type_id":"4","last_reported":1742551809,"current_range_meters":16000,"station_id":"ce4bgrp2rcd13ifvqc9g","pricing_plan_id":"cebpf4jnsgd1na2vs0mg"},{"bike_id":"acff88be-ebb4-41d5-85a5-379a85681fd9","system_id":"levelo_inurba_marseille","lat":43.26939,"lon":5.40248,"is_reserved":false,"is_disabled":false,"rental_uris":{"android":"levelo://app?vid=acff88be-ebb4-41d5-85a5-379a85681fd9","ios":"levelo://app?vid=acff88be-ebb4-41d5-85a5-379a85681fd9"},"vehicle_type_id":"4","last_reported":1742551809,"current_range_meters":16000,"station_id":"cjm6bp8fraef2m0cb0m0","pricing_plan_id":"cebpf4jnsgd1na2vs0mg"},{"bike_id":"8310bf33-a800-4f1c-978f-304120be031e","system_id":"levelo_inurba_marseille","lat":43.26533,"lon":5.38946,"is_reserved":false,"is_disabled":false,"rental_uris":{"android":"levelo://app?vid=8310bf33-a800-4f1c-978f-304120be031e","ios":"levelo://app?vid=8310bf33-a800-4f1c-978f-304120be031e"},"vehicle_type_id":"4","last_reported":1742551809,"current_range_meters":16000,"station_id":"","pricing_plan_id":"cebpf4jnsgd1na2vs0mg"},{"bike_id":"e4fb5ea4-7047-4ed2-b894-231fa292c026","system_id":"levelo_inurba_marseille","lat":43.24084,"lon":5.37736,"is_reserved":false,"is_disabled":false,"rental_uris":{"android":"levelo://app?vid=e4fb5ea4-7047-4ed2-b894-231fa292c026","ios":"levelo://app?vid=e4fb5ea4-7047-4ed2-b894-231fa292c026"},"vehicle_type_id":"4","last_reported":1742551809,"current_range_meters":16000,"station_id":"ce4bhnp2rcd13ifvqgvg","pricing_plan_id":"cebpf4jnsgd1na2vs0mg"},{"bike_id":"9683555e-fe04-4de7-b706-7a9b0019a6a7","system_id":"levelo_inurba_marseille","lat":43.33753,"lon":5.37495,"is_reserved":false,"is_disabled":true,"rental_uris":{"android":"levelo://app?vid=9683555e-fe04-4de7-b706-7a9b0019a6a7","ios":"levelo://app?vid=9683555e-fe04-4de7-b706-7a9b0019a6a7"},"vehicle_type_id":"4","last_reported":1742551809,"current_range_meters":16000,"station_id":"ce4bh2h2rcd13ifvqdh0","pricing_plan_id":"cebpf4jnsgd1na2vs0mg"},{"bike_id":"6c7f6a65-3f6d-43f3-b59a-7370b2183fbd","system_id":"levelo_inurba_marseille","lat":43.30894,"lon":5.369,"is_reserved":false,"is_disabled":false,"rental_uris":{"android":"levelo://app?vid=6c7f6a65-3f6d-43f3-b59a-7370b2183fbd","ios":"levelo://app?vid=6c7f6a65-3f6d-43f3-b59a-7370b2183fbd"},"vehicle_type_id":"4","last_reported":1742551809,"current_range_meters":16000,"station_id":"ce4bgn92rcd13ifvqbvg","pricing_plan_id":"cebpf4jnsgd1na2vs0mg"},{"bike_id":"e4f47cd9-ffa2-477c-b3ba-9665216af8ed","system_id":"levelo_inurba_marseille","lat":43.30952,"lon":5.3905,"is_reserved":false,"is_disabled":false,"rental_uris":{"android":"levelo://app?vid=e4f47cd9-ffa2-477c-b3ba-9665216af8ed","ios":"levelo://app?vid=e4f47cd9-ffa2-477c-b3ba-9665216af8ed"},"vehicle_type_id":"4","last_reported":1742551809,"current_range_meters":16000,"station_id":"ce4bgup2rcd13ifvqco0","pricing_plan_id":"cebpf4jnsgd1na2vs0mg"},{"bike_id":"8554844d-ad1f-4179-94b2-8ae283e549a0","system_id":"levelo_inurba_marseille","lat":43.30526,"lon":5.36546,"is_reserved":false,"is_disabled":false,"rental_uris":{"android":"levelo://app?vid=8554844d-ad1f-4179-94b2-8ae283e549a0","ios":"levelo://app?vid=8554844d-ad1f-4179-94b2-8ae283e549a0"},"vehicle_type_id":"4","last_reported":1742551809,"current_range_meters":16000,"station_id":"ce4bgs12rcd13ifvqcag","pricing_plan_id":"cebpf4jnsgd1na2vs0mg"},{"bike_id":"b66f8ee0-0e8d-4112-8a76-11bd9796bc3a","system_id":"levelo_inurba_marseille","lat":43.30311,"lon":5.36889,"is_reserved":false,"is_disabled":false,"rental_uris":{"android":"levelo://app?vid=b66f8ee0-0e8d-4112-8a76-11bd9796bc3a","ios":"levelo://app?vid=b66f8ee0-0e8d-4112-8a76-11bd9796bc3a"},"vehicle_type_id":"4","last_reported":1742551809,"current_range_meters":16000,"station_id":"ce4bgqh2rcd13ifvqc5g","pricing_plan_id":"cebpf4jnsgd1na2vs0mg"},{"bike_id":"647d7b6b-fca7-4df7-88f0-6f89518e1254","system_id":"levelo_inurba_marseille","lat":43.28702,"lon":5.37385,"is_reserved":false,"is_disabled":false,"rental_uris":{"android":"levelo://app?vid=647d7b6b-fca7-4df7-88f0-6f89518e1254","ios":"levelo://app?vid=647d7b6b-fca7-4df7-88f0-6f89518e1254"},"vehicle_type_id":"4","last_reported":1742551809,"current_range_meters":16000,"station_id":"ce4bh3p2rcd13ifvqdq0","pricing_plan_id":"cebpf4jnsgd1na2vs0mg"},{"bike_id":"cf341974-f8ac-49f7-adb6-72ba246186d1","system_id":"levelo_inurba_marseille","lat":43.31086,"lon":5.42435,"is_reserved":false,"is_disabled":false,"rental_uris":{"android":"levelo://app?vid=cf341974-f8ac-49f7-adb6-72ba246186d1","ios":"levelo://app?vid=cf341974-f8ac-49f7-adb6-72ba246186d1"},"vehicle_type_id":"4","last_reported":1742551809,"current_range_meters":16000,"station_id":"ce4bhp92rcd13ifvqhag","pricing_plan_id":"cebpf4jnsgd1na2vs0mg"},{"bike_id":"1f3d2cd1-71d4-4296-bb53-f0a7c7715831","system_id":"levelo_inurba_marseille","lat":43.28495,"lon":5.38437,"is_reserved":false,"is_disabled":false,"rental_uris":{"android":"levelo://app?vid=1f3d2cd1-71d4-4296-bb53-f0a7c7715831","ios":"levelo://app?vid=1f3d2cd1-71d4-4296-bb53-f0a7c7715831"},"vehicle_type_id":"4","last_reported":1742551809,"current_range_meters":16400,"station_id":"ce4bh512rcd13ifvqe3g","pricing_plan_id":"cebpf4jnsgd1na2vs0mg"},{"bike_id":"cfba300a-daa5-4b61-b8ed-8f7289e2b23a","system_id":"levelo_inurba_marseille","lat":43.30951,"lon":5.39031,"is_reserved":false,"is_disabled":false,"rental_uris":{"android":"levelo://app?vid=cfba300a-daa5-4b61-b8ed-8f7289e2b23a","ios":"levelo://app?vid=cfba300a-daa5-4b61-b8ed-8f7289e2b23a"},"vehicle_type_id":"4","last_reported":1742551809,"current_range_meters":16400,"station_id":"ce4bgup2rcd13ifvqco0","pricing_plan_id":"cebpf4jnsgd1na2vs0mg"},{"bike_id":"1941e1fe-aa74-4007-afde-fda9d78d046e","system_id":"levelo_inurba_marseille","lat":43.29271,"lon":5.37628,"is_reserved":false,"is_disabled":false,"rental_uris":{"android":"levelo://app?vid=1941e1fe-aa74-4007-afde-fda9d78d046e","ios":"levelo://app?vid=1941e1fe-aa74-4007-afde-fda9d78d046e"},"vehicle_type_id":"4","last_reported":1742551809,"current_range_meters":16400,"station_id":"ce4bgi12rcd13ifvqb80","pricing_plan_id":"cebpf4jnsgd1na2vs0mg"},{"bike_id":"25c6fd5a-3f54-45af-b43b-eae9e3b09eda","system_id":"levelo_inurba_marseille","lat":43.30204,"lon":5.39478,"is_reserved":false,"is_disabled":false,"rental_uris":{"android":"levelo://app?vid=25c6fd5a-3f54-45af-b43b-eae9e3b09eda","ios":"levelo://app?vid=25c6fd5a-3f54-45af-b43b-eae9e3b09eda"},"vehicle_type_id":"4","last_reported":1742551809,"current_range_meters":16400,"station_id":"ce4bh0p2rcd13ifvqd70","pricing_plan_id":"cebpf4jnsgd1na2vs0mg"},{"bike_id":"27370c4f-6644-4fae-a290-ff6e5f4fe8b8","system_id":"levelo_inurba_marseille","lat":43.24177,"lon":5.39718,"is_reserved":false,"is_disabled":false,"rental_uris":{"android":"levelo://app?vid=27370c4f-6644-4fae-a290-ff6e5f4fe8b8","ios":"levelo://app?vid=27370c4f-6644-4fae-a290-ff6e5f4fe8b8"},"vehicle_type_id":"4","last_reported":1742551809,"current_range_meters":16400,"station_id":"ce4bhn12rcd13ifvqgpg","pricing_plan_id":"cebpf4jnsgd1na2vs0mg"},{"bike_id":"3b0e697c-315b-4890-bdd7-a982e9a5956c","system_id":"levelo_inurba_marseille","lat":43.29071,"lon":5.39963,"is_reserved":false,"is_disabled":false,"rental_uris":{"android":"levelo://app?vid=3b0e697c-315b-4890-bdd7-a982e9a5956c","ios":"levelo://app?vid=3b0e697c-315b-4890-bdd7-a982e9a5956c"},"vehicle_type_id":"4","last_reported":1742551809,"current_range_meters":16400,"station_id":"ce4bh392rcd13ifvqdm0","pricing_plan_id":"cebpf4jnsgd1na2vs0mg"},{"bike_id":"1765a023-b432-4b27-8190-10cc6e61d29a","system_id":"levelo_inurba_marseille","lat":43.3266,"lon":5.40996,"is_reserved":false,"is_disabled":false,"rental_uris":{"android":"levelo://app?vid=1765a023-b432-4b27-8190-10cc6e61d29a","ios":"levelo://app?vid=1765a023-b432-4b27-8190-10cc6e61d29a"},