{"last_updated":1761300706,"ttl":60,"version":"2.2","data":{"bikes":[{"bike_id":"0bb4fe26-ec4c-4964-812a-ccb4ca39ece6","system_id":"levelo_inurba_marseille","lat":43.30358,"lon":5.41879,"is_reserved":false,"is_disabled":false,"rental_uris":{"android":"levelo://app?vid=0bb4fe26-ec4c-4964-812a-ccb4ca39ece6","ios":"levelo://app?vid=0bb4fe26-ec4c-4964-812a-ccb4ca39ece6"},"vehicle_type_id":"4","last_reported":1761300706,"current_range_meters":3200,"station_id":"ce4bhop2rcd13ifvqh7g","pricing_plan_id":"cebpf4jnsgd1na2vs0mg"},{"bike_id":"de10e8bc-86a5-48f6-b938-006994f3024a","system_id":"levelo_inurba_marseille","lat":43.29938,"lon":5.36541,"is_reserved":false,"is_disabled":false,"rental_uris":{"android":"levelo://app?vid=de10e8bc-86a5-48f6-b938-006994f3024a","ios":"levelo://app?vid=de10e8bc-86a5-48f6-b938-006994f3024a"},"vehicle_type_id":"4","last_reported":1761300706,"current_range_meters":3200,"station_id":"ce4bgm92rcd13ifvqbr0","pricing_plan_id":"cebpf4jnsgd1na2vs0mg"},{"bike_id":"ff3ba630-dc04-489c-b422-8721b9ddc862","system_id":"levelo_inurba_marseille","lat":43.29839,"lon":5.37751,"is_reserved":false,"is_disabled":false,"rental_uris":{"android":"levelo://app?vid=ff3ba630-dc04-489c-b422-8721b9ddc862","ios":"levelo://app?vid=ff3ba630-dc04-489c-b422-8721b9ddc862"},"vehicle_type_id":"4","last_reported":1761300706,"current_range_meters":3200,"station_id":"","pricing_plan_id":"cebpf4jnsgd1na2vs0mg"},{"bike_id":"82576c51-8b9b-43eb-aa43-fc4a18c9ea5b","system_id":"levelo_inurba_marseille","lat":43.2175,"lon":5.34602,"is_reserved":false,"is_disabled":false,"rental_uris":{"android":"levelo://app?vid=82576c51-8b9b-43eb-aa43-fc4a18c9ea5b","ios":"levelo://app?vid=82576c51-8b9b-43eb-aa43-fc4a18c9ea5b"},"vehicle_type_id":"4","last_reported":1761300706,"current_range_meters":4000,"station_id":"st_cvj6r9ubvosntc0bgbag","pricing_plan_id":"cebpf4jnsgd1na2vs0mg"},{"bike_id":"de88b060-a8d3-4631-9b2a-19bac33a1a68","system_id":"levelo_inurba_marseille","lat":43.30783,"lon":5.42437,"is_reserved":false,"is_disabled":false,"rental_uris":{"android":"levelo://app?vid=de88b060-a8d3-4631-9b2a-19bac33a1a68","ios":"levelo://app?vid=de88b060-a8d3-4631-9b2a-19bac33a1a68"},"vehicle_type_id":"4","last_reported":1761300706,"current_range_meters":4000,"station_id":"st_cvj6ca6bvosntc0bfgr0","pricing_plan_id":"cebpf4jnsgd1na2vs0mg"},{"bike_id":"d24281ca-7cc6-4200-be5d-c72e380d2fc2","system_id":"levelo_inurba_marseille","lat":43.3107,"lon":5.38354,"is_reserved":false,"is_disabled":false,"rental_uris":{"android":"levelo://app?vid=d24281ca-7cc6-4200-be5d-c72e380d2fc2","ios":"levelo://app?vid=d24281ca-7cc6-4200-be5d-c72e380d2fc2"},"vehicle_type_id":"4","last_reported":1761300706,"current_range_meters":4400,"station_id":"ce4bgv92rcd13ifvqcr0","pricing_plan_id":"cebpf4jnsgd1na2vs0mg"},{"bike_id":"334f72d2-30e9-44d9-a6da-c9891dc89d26","system_id":"levelo_inurba_marseille","lat":43.312191,"lon":5.368672,"is_reserved":false,"is_disabled":false,"rental_uris":{"android":"levelo://app?vid=334f72d2-30e9-44d9-a6da-c9891dc89d26","ios":"levelo://app?vid=334f72d2-30e9-44d9-a6da-c9891dc89d26"},"vehicle_type_id":"4","last_reported":1761300706,"current_range_meters":4400,"station_id":"ce4bgup2rcd13ifvqco0","pricing_plan_id":"cebpf4jnsgd1na2vs0mg"},{"bike_id":"37d01fc8-4b4d-4652-a489-1254eb9d4c80","system_id":"levelo_inurba_marseille","lat":43.34076,"lon":5.40411,"is_reserved":false,"is_disabled":false,"rental_uris":{"android":"levelo://app?vid=37d01fc8-4b4d-4652-a489-1254eb9d4c80","ios":"levelo://app?vid=37d01fc8-4b4d-4652-a489-1254eb9d4c80"},"vehicle_type_id":"4","last_reported":1761300706,"current_range_meters":4400,"station_id":"","pricing_plan_id":"cebpf4jnsgd1na2vs0mg"},{"bike_id":"6ebb9cab-4459-432e-af47-dddf2072e307","system_id":"levelo_inurba_marseille","lat":43.29519,"lon":5.39063,"is_reserved":false,"is_disabled":false,"rental_uris":{"android":"levelo://app?vid=6ebb9cab-4459-432e-af47-dddf2072e307","ios":"levelo://app?vid=6ebb9cab-4459-432e-af47-dddf2072e307"},"vehicle_type_id":"4","last_reported":1761300706,"current_range_meters":4800,"station_id":"ce4bh3p2rcd13ifvqdp0","pricing_plan_id":"cebpf4jnsgd1na2vs0mg"},{"bike_id":"aa5c39ca-5467-4d85-a1f8-b790dbb0979e","system_id":"levelo_inurba_marseille","lat":43.34071,"lon":5.37862,"is_reserved":false,"is_disabled":false,"rental_uris":{"android":"levelo://app?vid=aa5c39ca-5467-4d85-a1f8-b790dbb0979e","ios":"levelo://app?vid=aa5c39ca-5467-4d85-a1f8-b790dbb0979e"},"vehicle_type_id":"4","last_reported":1761300706,"current_range_meters":5600,"station_id":"","pricing_plan_id":"cebpf4jnsgd1na2vs0mg"},{"bike_id":"6b0cc57b-358a-410d-a4b8-e01f38d30f5b","system_id":"levelo_inurba_marseille","lat":43.25089,"lon":5.39519,"is_reserved":false,"is_disabled":false,"rental_uris":{"android":"levelo://app?vid=6b0cc57b-358a-410d-a4b8-e01f38d30f5b","ios":"levelo://app?vid=6b0cc57b-358a-410d-a4b8-e01f38d30f5b"},"vehicle_type_id":"4","last_reported":1761300706,"current_range_meters":5600,"station_id":"ce4bhm12rcd13ifvqgkg","pricing_plan_id":"cebpf4jnsgd1na2vs0mg"},{"bike_id":"849bf382-12d5-4ec9-a70f-209aa5f241da","system_id":"levelo_inurba_marseille","lat":43.27806,"lon":5.40703,"is_reserved":false,"is_disabled":false,"rental_uris":{"android":"levelo://app?vid=849bf382-12d5-4ec9-a70f-209aa5f241da","ios":"levelo://app?vid=849bf382-12d5-4ec9-a70f-209aa5f241da"},"vehicle_type_id":"4","last_reported":1761300706,"current_range_meters":6000,"station_id":"ce4bhnh2rcd13ifvqgtg","pricing_plan_id":"cebpf4jnsgd1na2vs0mg"},{"bike_id":"ad9a8166-85b3-49b6-88c7-1c6bdf69b632","system_id":"levelo_inurba_marseille","lat":43.311107,"lon":5.377624,"is_reserved":false,"is_disabled":false,"rental_uris":{"android":"levelo://app?vid=ad9a8166-85b3-49b6-88c7-1c6bdf69b632","ios":"levelo://app?vid=ad9a8166-85b3-49b6-88c7-1c6bdf69b632"},"vehicle_type_id":"4","last_reported":1761300706,"current_range_meters":6800,"station_id":"","pricing_plan_id":"cebpf4jnsgd1na2vs0mg"},{"bike_id":"4eae2ec4-8862-466e-a3d9-395cca4276d0","system_id":"levelo_inurba_marseille","lat":43.303791,"lon":5.375931,"is_reserved":false,"is_disabled":false,"rental_uris":{"android":"levelo://app?vid=4eae2ec4-8862-466e-a3d9-395cca4276d0","ios":"levelo://app?vid=4eae2ec4-8862-466e-a3d9-395cca4276d0"},"vehicle_type_id":"4","last_reported":1761300706,"current_range_meters":6800,"station_id":"","pricing_plan_id":"cebpf4jnsgd1na2vs0mg"},{"bike_id":"c8c0fa58-a519-4343-9887-b0c694f93aef","system_id":"levelo_inurba_marseille","lat":43.28875,"lon":5.42516,"is_reserved":false,"is_disabled":false,"rental_uris":{"android":"levelo://app?vid=c8c0fa58-a519-4343-9887-b0c694f93aef","ios":"levelo://app?vid=c8c0fa58-a519-4343-9887-b0c694f93aef"},"vehicle_type_id":"4","last_reported":1761300706,"current_range_meters":7200,"station_id":"st_d3b462108ojc7389ooeg","pricing_plan_id":"cebpf4jnsgd1na2vs0mg"},{"bike_id":"3167c122-43fa-497a-bf85-d0a6522abe7a","system_id":"levelo_inurba_marseille","lat":43.3277,"lon":5.37528,"is_reserved":false,"is_disabled":false,"rental_uris":{"android":"levelo://app?vid=3167c122-43fa-497a-bf85-d0a6522abe7a","ios":"levelo://app?vid=3167c122-43fa-497a-bf85-d0a6522abe7a"},"vehicle_type_id":"4","last_reported":1761300706,"current_range_meters":7200,"station_id":"","pricing_plan_id":"cebpf4jnsgd1na2vs0mg"},{"bike_id":"42ff1fd7-0ae2-4c9b-bb71-4e602b26476f","system_id":"levelo_inurba_marseille","lat":43.23148,"lon":5.43697,"is_reserved":false,"is_disabled":false,"rental_uris":{"android":"levelo://app?vid=42ff1fd7-0ae2-4c9b-bb71-4e602b26476f","ios":"levelo://app?vid=42ff1fd7-0ae2-4c9b-bb71-4e602b26476f"},"vehicle_type_id":"4","last_reported":1761300706,"current_range_meters":7200,"station_id":"ce4bhmp2rcd13ifvqgog","pricing_plan_id":"cebpf4jnsgd1na2vs0mg"},{"bike_id":"2098e2c6-b6e6-4e15-be1a-0c0a7e1bb05c","system_id":"levelo_inurba_marseille","lat":43.289191,"lon":5.3843,"is_reserved":false,"is_disabled":false,"rental_uris":{"android":"levelo://app?vid=2098e2c6-b6e6-4e15-be1a-0c0a7e1bb05c","ios":"levelo://app?vid=2098e2c6-b6e6-4e15-be1a-0c0a7e1bb05c"},"vehicle_type_id":"4","last_reported":1761300706,"current_range_meters":7200,"station_id":"ce4bh4p2rcd13ifvqe0g","pricing_plan_id":"cebpf4jnsgd1na2vs0mg"},{"bike_id":"e6a0a249-936b-487c-95a8-5b78fc191dbd","system_id":"levelo_inurba_marseille","lat":43.26519,"lon":5.39577,"is_reserved":false,"is_disabled":false,"rental_uris":{"android":"levelo://app?vid=e6a0a249-936b-487c-95a8-5b78fc191dbd","ios":"levelo://app?vid=e6a0a249-936b-487c-95a8-5b78fc191dbd"},"vehicle_type_id":"4","last_reported":1761300706,"current_range_meters":8000,"station_id":"ce4bhi12rcd13ifvqfq0","pricing_plan_id":"cebpf4jnsgd1na2vs0mg"},{"bike_id":"5df3bb81-4916-4427-8cd1-aaca61ad6031","system_id":"levelo_inurba_marseille","lat":43.30516,"lon":5.38246,"is_reserved":false,"is_disabled":false,"rental_uris":{"android":"levelo://app?vid=5df3bb81-4916-4427-8cd1-aaca61ad6031","ios":"levelo://app?vid=5df3bb81-4916-4427-8cd1-aaca61ad6031"},"vehicle_type_id":"4","last_reported":1761300706,"current_range_meters":8000,"station_id":"","pricing_plan_id":"cebpf4jnsgd1na2vs0mg"},{"bike_id":"32e7919e-26d8-4f7d-b229-086147816fa4","system_id":"levelo_inurba_marseille","lat":43.301286,"lon":5.38775,"is_reserved":false,"is_disabled":false,"rental_uris":{"android":"levelo://app?vid=32e7919e-26d8-4f7d-b229-086147816fa4","ios":"levelo://app?vid=32e7919e-26d8-4f7d-b229-086147816fa4"},"vehicle_type_id":"4","last_reported":1761300706,"current_range_meters":8400,"station_id":"","pricing_plan_id":"cebpf4jnsgd1na2vs0mg"},{"bike_id":"d634d2c9-9aae-436e-ac4a-7427eb272385","system_id":"levelo_inurba_marseille","lat":43.28935,"lon":5.36393,"is_reserved":false,"is_disabled":false,"rental_uris":{"android":"levelo://app?vid=d634d2c9-9aae-436e-ac4a-7427eb272385","ios":"levelo://app?vid=d634d2c9-9aae-436e-ac4a-7427eb272385"},"vehicle_type_id":"4","last_reported":1761300706,"current_range_meters":8800,"station_id":"ce4bhc92rcd13ifvqetg","pricing_plan_id":"cebpf4jnsgd1na2vs0mg"},{"bike_id":"53178423-93e9-460e-b008-3b1e29fc5fbb","system_id":"levelo_inurba_marseille","lat":43.28981,"lon":5.37839,"is_reserved":false,"is_disabled":false,"rental_uris":{"android":"levelo://app?vid=53178423-93e9-460e-b008-3b1e29fc5fbb","ios":"levelo://app?vid=53178423-93e9-460e-b008-3b1e29fc5fbb"},"vehicle_type_id":"4","last_reported":1761300706,"current_range_meters":8800,"station_id":"ce4bh9p2rcd13ifvqed0","pricing_plan_id":"cebpf4jnsgd1na2vs0mg"},{"bike_id":"ec9665a2-32ab-42b2-9bdf-cf94d158a9c2","system_id":"levelo_inurba_marseille","lat":43.30117,"lon":5.3708,"is_reserved":false,"is_disabled":false,"rental_uris":{"android":"levelo://app?vid=ec9665a2-32ab-42b2-9bdf-cf94d158a9c2","ios":"levelo://app?vid=ec9665a2-32ab-42b2-9bdf-cf94d158a9c2"},"vehicle_type_id":"4","last_reported":1761300706,"current_range_meters":8800,"station_id":"","pricing_plan_id":"cebpf4jnsgd1na2vs0mg"},{"bike_id":"00fd3c6a-780c-49dc-9993-d4de69c9b57a","system_id":"levelo_inurba_marseille","lat":43.31023,"lon":5.37433,"is_reserved":false,"is_disabled":false,"rental_uris":{"android":"levelo://app?vid=00fd3c6a-780c-49dc-9993-d4de69c9b57a","ios":"levelo://app?vid=00fd3c6a-780c-49dc-9993-d4de69c9b57a"},"vehicle_type_id":"4","last_reported":1761300706,"current_range_meters":8800,"station_id":"","pricing_plan_id":"cebpf4jnsgd1na2vs0mg"},{"bike_id":"e970d21e-df4c-4d8a-9dcc-b09959ead2d8","system_id":"levelo_inurba_marseille","lat":43.339262,"lon":5.397555,"is_reserved":false,"is_disabled":false,"rental_uris":{"android":"levelo://app?vid=e970d21e-df4c-4d8a-9dcc-b09959ead2d8","ios":"levelo://app?vid=e970d21e-df4c-4d8a-9dcc-b09959ead2d8"},"vehicle_type_id":"4","last_reported":1761300706,"current_range_meters":8800,"station_id":"","pricing_plan_id":"cebpf4jnsgd1na2vs0mg"},{"bike_id":"e4c35d84-1977-4b7e-b545-5beac1e73e8d","system_id":"levelo_inurba_marseille","lat":43.29885,"lon":5.3891,"is_reserved":false,"is_disabled":false,"rental_uris":{"android":"levelo://app?vid=e4c35d84-1977-4b7e-b545-5beac1e73e8d","ios":"levelo://app?vid=e4c35d84-1977-4b7e-b545-5beac1e73e8d"},"vehicle_type_id":"4","last_reported":1761300706,"current_range_meters":9200,"station_id":"ce4bh392rcd13ifvqdl0","pricing_plan_id":"cebpf4jnsgd1na2vs0mg"},{"bike_id":"c17b8240-fb7f-4dd6-9675-5cf103099844","system_id":"levelo_inurba_marseille","lat":43.28453,"lon":5.35886,"is_reserved":false,"is_disabled":false,"rental_uris":{"android":"levelo://app?vid=c17b8240-fb7f-4dd6-9675-5cf103099844","ios":"levelo://app?vid=c17b8240-fb7f-4dd6-9675-5cf103099844"},"vehicle_type_id":"4","last_reported":1761300706,"current_range_meters":9200,"station_id":"ce4bhah2rcd13ifvqei0","pricing_plan_id":"cebpf4jnsgd1na2vs0mg"},{"bike_id":"1aaa028d-93d8-4a20-8355-7a4b17d8620a","system_id":"levelo_inurba_marseille","lat":43.276358,"lon":5.392021,"is_reserved":false,"is_disabled":false,"rental_uris":{"android":"levelo://app?vid=1aaa028d-93d8-4a20-8355-7a4b17d8620a","ios":"levelo://app?vid=1aaa028d-93d8-4a20-8355-7a4b17d8620a"},"vehicle_type_id":"4","last_reported":1761300706,"current_range_meters":9200,"station_id":"","pricing_plan_id":"cebpf4jnsgd1na2vs0mg"},{"bike_id":"210551f3-8004-40e5-870e-3e6c28173f6c","system_id":"levelo_inurba_marseille","lat":43.26561,"lon":5.37282,"is_reserved":false,"is_disabled":false,"rental_uris":{"android":"levelo://app?vid=210551f3-8004-40e5-870e-3e6c28173f6c","ios":"levelo://app?vid=210551f3-8004-40e5-870e-3e6c28173f6c"},"vehicle_type_id":"4","last_reported":1761300706,"current_range_meters":9200,"station_id":"ce4bhg12rcd13ifvqf70","pricing_plan_id":"cebpf4jnsgd1na2vs0mg"},{"bike_id":"22c93976-9f79-4dab-b41c-f42c1078da85","system_id":"levelo_inurba_marseille","lat":43.27814,"lon":5.40709,"is_reserved":false,"is_disabled":false,"rental_uris":{"android":"levelo://app?vid=22c93976-9f79-4dab-b41c-f42c1078da85","ios":"levelo://app?vid=22c93976-9f79-4dab-b41c-f42c1078da85"},"vehicle_type_id":"4","last_reported":1761300706,"current_range_meters":9600,"station_id":"ce4bhnh2rcd13ifvqgtg","pricing_plan_id":"cebpf4jnsgd1na2vs0mg"},{"bike_id":"e96035ce-3f75-42c7-bc07-32e4ba0bd41a","system_id":"levelo_inurba_marseille","lat":43.30494,"lon":5.36938,"is_reserved":false,"is_disabled":false,"rental_uris":{"android":"levelo://app?vid=e96035ce-3f75-42c7-bc07-32e4ba0bd41a","ios":"levelo://app?vid=e96035ce-3f75-42c7-bc07-32e4ba0bd41a"},"vehicle_type_id":"4","last_reported":1761300706,"current_range_meters":9600,"station_id":"","pricing_plan_id":"cebpf4jnsgd1na2vs0mg"},{"bike_id":"323bf2de-3bb4-4b4c-b330-b19ea807dbf5","system_id":"levelo_inurba_marseille","lat":43.32993,"lon":5.429597,"is_reserved":false,"is_disabled":false,"rental_uris":{"android":"levelo://app?vid=323bf2de-3bb4-4b4c-b330-b19ea807dbf5","ios":"levelo://app?vid=323bf2de-3bb4-4b4c-b330-b19ea807dbf5"},"vehicle_type_id":"4","last_reported":1761300706,"current_range_meters":9600,"station_id":"","pricing_plan_id":"cebpf4jnsgd1na2vs0mg"},{"bike_id":"3e4783b6-28d8-4737-a4ef-6a1b0da02476","system_id":"levelo_inurba_marseille","lat":43.294472,"lon":5.407151,"is_reserved":false,"is_disabled":false,"rental_uris":{"android":"levelo://app?vid=3e4783b6-28d8-4737-a4ef-6a1b0da02476","ios":"levelo://app?vid=3e4783b6-28d8-4737-a4ef-6a1b0da02476"},"vehicle_type_id":"4","last_reported":1761300706,"current_range_meters":10000,"station_id":"","pricing_plan_id":"cebpf4jnsgd1na2vs0mg"},{"bike_id":"bf52d227-e2e6-4e46-bfde-44cbb96d7d45","system_id":"levelo_inurba_marseille","lat":43.212,"lon":5.35061,"is_reserved":false,"is_disabled":false,"rental_uris":{"android":"levelo://app?vid=bf52d227-e2e6-4e46-bfde-44cbb96d7d45","ios":"levelo://app?vid=bf52d227-e2e6-4e46-bfde-44cbb96d7d45"},"vehicle_type_id":"4","last_reported":1761300706,"current_range_meters":10000,"station_id":"st_cvj6sg6p6f1abm77japg","pricing_plan_id":"cebpf4jnsgd1na2vs0mg"},{"bike_id":"15ff84eb-ba87-472f-bc4e-33dc169c2f78","system_id":"levelo_inurba_marseille","lat":43.29005,"lon":5.35609,"is_reserved":false,"is_disabled":false,"rental_uris":{"android":"levelo://app?vid=15ff84eb-ba87-472f-bc4e-33dc169c2f78","ios":"levelo://app?vid=15ff84eb-ba87-472f-bc4e-33dc169c2f78"},"vehicle_type_id":"4","last_reported":1761300706,"current_range_meters":10000,"station_id":"ce4bhb92rcd13ifvqen0","pricing_plan_id":"cebpf4jnsgd1na2vs0mg"},{"bike_id":"5a77f5fa-19a9-4871-8e79-a596e720dcb9","system_id":"levelo_inurba_marseille","lat":43.25521,"lon":5.37651,"is_reserved":false,"is_disabled":true,"rental_uris":{"android":"levelo://app?vid=5a77f5fa-19a9-4871-8e79-a596e720dcb9","ios":"levelo://app?vid=5a77f5fa-19a9-4871-8e79-a596e720dcb9"},"vehicle_type_id":"4","last_reported":1761300706,"current_range_meters":10000,"station_id":"ce4bhh12rcd13ifvqff0","pricing_plan_id":"cebpf4jnsgd1na2vs0mg"},{"bike_id":"f0764640-ec1d-486f-9e1c-59043e66eb76","system_id":"levelo_inurba_marseille","lat":43.21352,"lon":5.34978,"is_reserved":false,"is_disabled":false,"rental_uris":{"android":"levelo://app?vid=f0764640-ec1d-486f-9e1c-59043e66eb76","ios":"levelo://app?vid=f0764640-ec1d-486f-9e1c-59043e66eb76"},"vehicle_type_id":"4","last_reported":1761300706,"current_range_meters":10800,"station_id":"","pricing_plan_id":"cebpf4jnsgd1na2vs0mg"},{"bike_id":"0e0750f3-e052-4676-947e-a4bb2ffbe8ae","system_id":"levelo_inurba_marseille","lat":43.28661,"lon":5.386737,"is_reserved":false,"is_disabled":false,"rental_uris":{"android":"levelo://app?vid=0e0750f3-e052-4676-947e-a4bb2ffbe8ae","ios":"levelo://app?vid=0e0750f3-e052-4676-947e-a4bb2ffbe8ae"},"vehicle_type_id":"4","last_reported":1761300706,"current_range_meters":10800,"station_id":"ce4bh492rcd13ifvqdug","pricing_plan_id":"cebpf4jnsgd1na2vs0mg"},{"bike_id":"59f00343-f081-4f35-865f-e48633c1d719","system_id":"levelo_inurba_marseille","lat":43.2823,"lon":5.39058,"is_reserved":false,"is_disabled":false,"rental_uris":{"android":"levelo://app?vid=59f00343-f081-4f35-865f-e48633c1d719","ios":"levelo://app?vid=59f00343-f081-4f35-865f-e48633c1d719"},"vehicle_type_id":"4","last_reported":1761300706,"current_range_meters":10800,"station_id":"ce4bhn92rcd13ifvqgsg","pricing_plan_id":"cebpf4jnsgd1na2vs0mg"},{"bike_id":"1316cdfe-0121-456d-8f96-b74770256e37","system_id":"levelo_inurba_marseille","lat":43.31701,"lon":5.37738,"is_reserved":false,"is_disabled":false,"rental_uris":{"android":"levelo://app?vid=1316cdfe-0121-456d-8f96-b74770256e37","ios":"levelo://app?vid=1316cdfe-0121-456d-8f96-b74770256e37"},"vehicle_type_id":"4","last_reported":1761300706,"current_range_meters":10800,"station_id":"ce4bgth2rcd13ifvqch0","pricing_plan_id":"cebpf4jnsgd1na2vs0mg"},{"bike_id":"316c843e-0abd-49e3-b3e9-3f61b02a5647","system_id":"levelo_inurba_marseille","lat":43.28884,"lon":5.42525,"is_reserved":false,"is_disabled":false,"rental_uris":{"android":"levelo://app?vid=316c843e-0abd-49e3-b3e9-3f61b02a5647","ios":"levelo://app?vid=316c843e-0abd-49e3-b3e9-3f61b02a5647"},"vehicle_type_id":"4","last_reported":1761300706,"current_range_meters":11200,"station_id":"st_d3b462108ojc7389ooeg","pricing_plan_id":"cebpf4jnsgd1na2vs0mg"},{"bike_id":"5f1fd4fe-ccc9-4cfb-a640-47d196305283","system_id":"levelo_inurba_marseille","lat":43.246579,"lon":5.38165,"is_reserved":false,"is_disabled":false,"rental_uris":{"android":"levelo://app?vid=5f1fd4fe-ccc9-4cfb-a640-47d196305283","ios":"levelo://app?vid=5f1fd4fe-ccc9-4cfb-a640-47d196305283"},"vehicle_type_id":"4","last_reported":1761300706,"current_range_meters":11200,"station_id":"","pricing_plan_id":"cebpf4jnsgd1na2vs0mg"},{"bike_id":"6fa0a77c-02d8-4903-9405-593def6e7318","system_id":"levelo_inurba_marseille","lat":43.31702,"lon":5.40452,"is_reserved":false,"is_disabled":false,"rental_uris":{"android":"levelo://app?vid=6fa0a77c-02d8-4903-9405-593def6e7318","ios":"levelo://app?vid=6fa0a77c-02d8-4903-9405-593def6e7318"},"vehicle_type_id":"4","last_reported":1761300706,"current_range_meters":11200,"station_id":"ce4bh012rcd13ifvqd00","pricing_plan_id":"cebpf4jnsgd1na2vs0mg"},{"bike_id":"8f3a37d7-ef68-438e-b675-4c925fc10151","system_id":"levelo_inurba_marseille","lat":43.21192,"lon":5.35069,"is_reserved":false,"is_disabled":false,"rental_uris":{"android":"levelo://app?vid=8f3a37d7-ef68-438e-b675-4c925fc10151","ios":"levelo://app?vid=8f3a37d7-ef68-438e-b675-4c925fc10151"},"vehicle_type_id":"4","last_reported":1761300706,"current_range_meters":11200,"station_id":"st_cvj6sg6p6f1abm77japg","pricing_plan_id":"cebpf4jnsgd1na2vs0mg"},{"bike_id":"e052242a-3d25-4ae5-94ea-b6d8f9e10869","system_id":"levelo_inurba_marseille","lat":43.28259,"lon":5.350518,"is_reserved":false,"is_disabled":false,"rental_uris":{"android":"levelo://app?vid=e052242a-3d25-4ae5-94ea-b6d8f9e10869","ios":"levelo://app?vid=e052242a-3d25-4ae5-94ea-b6d8f9e10869"},"vehicle_type_id":"4","last_reported":1761300706,"current_range_meters":11200,"station_id":"ce4bhbp2rcd13ifvqerg","pricing_plan_id":"cebpf4jnsgd1na2vs0mg"},{"bike_id":"8d6c7236-f620-4b6b-a423-516a20af52f1","system_id":"levelo_inurba_marseille","lat":43.2176,"lon":5.34595,"is_reserved":false,"is_disabled":false,"rental_uris":{"android":"levelo://app?vid=8d6c7236-f620-4b6b-a423-516a20af52f1","ios":"levelo://app?vid=8d6c7236-f620-4b6b-a423-516a20af52f1"},"vehicle_type_id":"4","last_reported":1761300706,"current_range_meters":11200,"station_id":"st_cvj6r9ubvosntc0bgbag","pricing_plan_id":"cebpf4jnsgd1na2vs0mg"},{"bike_id":"8bcacd78-80de-4026-af75-b37ebe3030fe","system_id":"levelo_inurba_marseille","lat":43.334756,"lon":5.404255,"is_reserved":false,"is_disabled":false,"rental_uris":{"android":"levelo://app?vid=8bcacd78-80de-4026-af75-b37ebe3030fe","ios":"levelo://app?vid=8bcacd78-80de-4026-af75-b37ebe3030fe"},"vehicle_type_id":"4","last_reported":1761300706,"current_range_meters":11600,"station_id":"","pricing_plan_id":"cebpf4jnsgd1na2vs0mg"},{"bike_id":"6844db38-03a9-4f91-b6d0-a4ec531bee4c","system_id":"levelo_inurba_marseille","lat":43.301384,"lon":5.374137,"is_reserved":false,"is_disabled":false,"rental_uris":{"android":"levelo://app?vid=6844db38-03a9-4f91-b6d0-a4ec531bee4c","ios":"levelo://app?vid=6844db38-03a9-4f91-b6d0-a4ec531bee4c"},"vehicle_type_id":"4","last_reported":1761300706,"current_range_meters":11600,"station_id":"ce4bgs92rcd13ifvqcc0","pricing_plan_id":"cebpf4jnsgd1na2vs0mg"},{"bike_id":"9881c788-42a8-46f5-8ccc-580a73583155","system_id":"levelo_inurba_marseille","lat":43.320839,"lon":5.409043,"is_reserved":false,"is_disabled":true,"rental_uris":{"android":"levelo://app?vid=9881c788-42a8-46f5-8ccc-580a73583155","ios":"levelo://app?vid=9881c788-42a8-46f5-8ccc-580a73583155"},"vehicle_type_id":"4","last_reported":1761300706,"current_range_meters":11600,"station_id":"","pricing_plan_id":"cebpf4jnsgd1na2vs0mg"},{"bike_id":"b9764ed2-f91a-421e-b54e-d7527bd8af22","system_id":"levelo_inurba_marseille","lat":43.29811,"lon":5.36588,"is_reserved":false,"is_disabled":false,"rental_uris":{"android":"levelo://app?vid=b9764ed2-f91a-421e-b54e-d7527bd8af22","ios":"levelo://app?vid=b9764ed2-f91a-421e-b54e-d7527bd8af22"},"vehicle_type_id":"4","last_reported":1761300706,"current_range_meters":12000,"station_id":"","pricing_plan_id":"cebpf4jnsgd1na2vs0mg"},{"bike_id":"d10b22fa-7672-4128-97f0-5cbf4295b17c","system_id":"levelo_inurba_marseille","lat":43.29354,"lon":5.39338,"is_reserved":false,"is_disabled":false,"rental_uris":{"android":"levelo://app?vid=d10b22fa-7672-4128-97f0-5cbf4295b17c","ios":"levelo://app?vid=d10b22fa-7672-4128-97f0-5cbf4295b17c"},"vehicle_type_id":"4","last_reported":1761300706,"current_range_meters":12000,"station_id":"","pricing_plan_id":"cebpf4jnsgd1na2vs0mg"},{"bike_id":"0b9b57bc-7a8a-4239-9bf8-8db0d41132b5","system_id":"levelo_inurba_marseille","lat":43.30134,"lon":5.37418,"is_reserved":false,"is_disabled":false,"rental_uris":{"android":"levelo://app?vid=0b9b57bc-7a8a-4239-9bf8-8db0d41132b5","ios":"levelo://app?vid=0b9b57bc-7a8a-4239-9bf8-8db0d41132b5"},"vehicle_type_id":"4","last_reported":1761300706,"current_range_meters":12000,"station_id":"ce4bgs92rcd13ifvqcc0","pricing_plan_id":"cebpf4jnsgd1na2vs0mg"},{"bike_id":"c12a786b-d447-4373-876a-58fc20f19148","system_id":"levelo_inurba_marseille","lat":43.298994,"lon":5.436633,"is_reserved":false,"is_disabled":false,"rental_uris":{"android":"levelo://app?vid=c12a786b-d447-4373-876a-58fc20f19148","ios":"levelo://app?vid=c12a786b-d447-4373-876a-58fc20f19148"},"vehicle_type_id":"4","last_reported":1761300706,"current_range_meters":12000,"station_id":"ce4bhpp2rcd13ifvqhfg","pricing_plan_id":"cebpf4jnsgd1na2vs0mg"},{"bike_id":"2842f5fd-7b05-4b47-909c-5ee54d7d3bc5","system_id":"levelo_inurba_marseille","lat":43.32466,"lon":5.42787,"is_reserved":false,"is_disabled":false,"rental_uris":{"android":"levelo://app?vid=2842f5fd-7b05-4b47-909c-5ee54d7d3bc5","ios":"levelo://app?vid=2842f5fd-7b05-4b47-909c-5ee54d7d3bc5"},"vehicle_type_id":"4","last_reported":1761300706,"current_range_meters":12000,"station_id":"","pricing_plan_id":"cebpf4jnsgd1na2vs0mg"},{"bike_id":"dd2fbcaf-68bf-4011-9728-88c2471f4152","system_id":"levelo_inurba_marseille","lat":43.25865,"lon":5.39895,"is_reserved":false,"is_disabled":false,"rental_uris":{"android":"levelo://app?vid=dd2fbcaf-68bf-4011-9728-88c2471f4152","ios":"levelo://app?vid=dd2fbcaf-68bf-4011-9728-88c2471f4152"},"vehicle_type_id":"4","last_reported":1761300706,"current_range_meters":12000,"station_id":"ce4bhl92rcd13ifvqghg","pricing_plan_id":"cebpf4jnsgd1na2vs0mg"},{"bike_id":"d903f979-169e-46c5-963f-4923180198d6","system_id":"levelo_inurba_marseille","lat":43.30558,"lon":5.36543,"is_reserved":false,"is_disabled":false,"rental_uris":{"android":"levelo://app?vid=d903f979-169e-46c5-963f-4923180198d6","ios":"levelo://app?vid=d903f979-169e-46c5-963f-4923180198d6"},"vehicle_type_id":"4","last_reported":1761300706,"current_range_meters":12000,"station_id":"ce4bgs12rcd13ifvqcag","pricing_plan_id":"cebpf4jnsgd1na2vs0mg"},{"bike_id":"b8132e4e-54c5-4ee2-9476-d2684321070b","system_id":"levelo_inurba_marseille","lat":43.29898,"lon":5.4367,"is_reserved":false,"is_disabled":false,"rental_uris":{"android":"levelo://app?vid=b8132e4e-54c5-4ee2-9476-d2684321070b","ios":"levelo://app?vid=b8132e4e-54c5-4ee2-9476-d2684321070b"},"vehicle_type_id":"4","last_reported":1761300706,"current_range_meters":12000,"station_id":"ce4bhpp2rcd13ifvqhfg","pricing_plan_id":"cebpf4jnsgd1na2vs0mg"},{"bike_id":"3261e5fc-166e-4f39-8dcd-0cbddc8c1243","system_id":"levelo_inurba_marseille","lat":43.30876,"lon":5.39651,"is_reserved":false,"is_disabled":false,"rental_uris":{"android":"levelo://app?vid=3261e5fc-166e-4f39-8dcd-0cbddc8c1243","ios":"levelo://app?vid=3261e5fc-166e-4f39-8dcd-0cbddc8c1243"},"vehicle_type_id":"4","last_reported":1761300706,"current_range_meters":12800,"station_id":"ce4bh012rcd13ifvqcv0","pricing_plan_id":"cebpf4jnsgd1na2vs0mg"},{"bike_id":"a53ee188-f0c4-497d-8e6a-8ec2af3e1d6b","system_id":"levelo_inurba_marseille","lat":43.30463,"lon":5.37907,"is_reserved":false,"is_disabled":false,"rental_uris":{"android":"levelo://app?vid=a53ee188-f0c4-497d-8e6a-8ec2af3e1d6b","ios":"levelo://app?vid=a53ee188-f0c4-497d-8e6a-8ec2af3e1d6b"},"vehicle_type_id":"4","last_reported":1761300706,"current_range_meters":12800,"station_id":"ce4bgup2rcd13ifvqcn0","pricing_plan_id":"cebpf4jnsgd1na2vs0mg"},{"bike_id":"2e516aa3-da3f-4cd4-8d7a-1dc8bf5d8ddd","system_id":"levelo_inurba_marseille","lat":43.32104,"lon":5.36767,"is_reserved":false,"is_disabled":false,"rental_uris":{"android":"levelo://app?vid=2e516aa3-da3f-4cd4-8d7a-1dc8bf5d8ddd","ios":"levelo://app?vid=2e516aa3-da3f-4cd4-8d7a-1dc8bf5d8ddd"},"vehicle_type_id":"4","last_reported":1761300706,"current_range_meters":13600,"station_id":"ce4bhrh2rcd13ifvqhug","pricing_plan_id":"cebpf4jnsgd1na2vs0mg"},{"bike_id":"49205a8f-4198-4c0b-b7d7-97a9473705ce","system_id":"levelo_inurba_marseille","lat":43.32113,"lon":5.36763,"is_reserved":false,"is_disabled":false,"rental_uris":{"android":"levelo://app?vid=49205a8f-4198-4c0b-b7d7-97a9473705ce","ios":"levelo://app?vid=49205a8f-4198-4c0b-b7d7-97a9473705ce"},"vehicle_type_id":"4","last_reported":1761300706,"current_range_meters":13600,"station_id":"ce4bhrh2rcd13ifvqhug","pricing_plan_id":"cebpf4jnsgd1na2vs0mg"},{"bike_id":"82a6ac02-8c08-4f93-844a-981cd0f715d0","system_id":"levelo_inurba_marseille","lat":43.25508,"lon":5.37654,"is_reserved":false,"is_disabled":false,"rental_uris":{"android":"levelo://app?vid=82a6ac02-8c08-4f93-844a-981cd0f715d0","ios":"levelo://app?vid=82a6ac02-8c08-4f93-844a-981cd0f715d0"},"vehicle_type_id":"4","last_reported":1761300706,"current_range_meters":13600,"station_id":"ce4bhh12rcd13ifvqff0","pricing_plan_id":"cebpf4jnsgd1na2vs0mg"},{"bike_id":"6b25e934-7e52-440b-9273-bd19d026e696","system_id":"levelo_inurba_marseille","lat":43.30471,"lon":5.37909,"is_reserved":false,"is_disabled":false,"rental_uris":{"android":"levelo://app?vid=6b25e934-7e52-440b-9273-bd19d026e696","ios":"levelo://app?vid=6b25e934-7e52-440b-9273-bd19d026e696"},"vehicle_type_id":"4","last_reported":1761300706,"current_range_meters":14000,"station_id":"ce4bgup2rcd13ifvqcn0","pricing_plan_id":"cebpf4jnsgd1na2vs0mg"},{"bike_id":"de4b8ab5-285e-474a-b521-72ccb626a9fe","system_id":"levelo_inurba_marseille","lat":43.32246,"lon":5.38357,"is_reserved":false,"is_disabled":false,"rental_uris":{"android":"levelo://app?vid=de4b8ab5-285e-474a-b521-72ccb626a9fe","ios":"levelo://app?vid=de4b8ab5-285e-474a-b521-72ccb626a9fe"},"vehicle_type_id":"4","last_reported":1761300706,"current_range_meters":14000,"station_id":"ce4bhr12rcd13ifvqhqg","pricing_plan_id":"cebpf4jnsgd1na2vs0mg"},{"bike_id":"c6fc3c84-7d6d-41e8-80db-e6bc8f6ae8ba","system_id":"levelo_inurba_marseille","lat":43.26555,"lon":5.37281,"is_reserved":false,"is_disabled":false,"rental_uris":{"android":"levelo://app?vid=c6fc3c84-7d6d-41e8-80db-e6bc8f6ae8ba","ios":"levelo://app?vid=c6fc3c84-7d6d-41e8-80db-e6bc8f6ae8ba"},"vehicle_type_id":"4","last_reported":1761300706,"current_range_meters":14000,"station_id":"ce4bhg12rcd13ifvqf70","pricing_plan_id":"cebpf4jnsgd1na2vs0mg"},{"bike_id":"dfc041f6-a962-4c93-8a58-0f138abbf1a2","system_id":"levelo_inurba_marseille","lat":43.262237,"lon":5.404473,"is_reserved":false,"is_disabled":false,"rental_uris":{"android":"levelo://app?vid=dfc041f6-a962-4c93-8a58-0f138abbf1a2","ios":"levelo://app?vid=dfc041f6-a962-4c93-8a58-0f138abbf1a2"},"vehicle_type_id":"4","last_reported":1761300706,"current_range_meters":14400,"station_id":"ce4bhmh2rcd13ifvqgmg","pricing_plan_id":"cebpf4jnsgd1na2vs0mg"},{"bike_id":"30c20775-7e7c-4dd5-b544-8b63c9979e48","system_id":"levelo_inurba_marseille","lat":43.29217,"lon":5.36054,"is_reserved":false,"is_disabled":false,"rental_uris":{"android":"levelo://app?vid=30c20775-7e7c-4dd5-b544-8b63c9979e48","ios":"levelo://app?vid=30c20775-7e7c-4dd5-b544-8b63c9979e48"},"vehicle_type_id":"4","last_reported":1761300706,"current_range_meters":14400,"station_id":"ce4bhbh2rcd13ifvqeqg","pricing_plan_id":"cebpf4jnsgd1na2vs0mg"},{"bike_id":"0c216ec5-2d75-4ee4-a223-b0d23bee74b5","system_id":"levelo_inurba_marseille","lat":43.24655,"lon":5.38919,"is_reserved":false,"is_disabled":false,"rental_uris":{"android":"levelo://app?vid=0c216ec5-2d75-4ee4-a223-b0d23bee74b5","ios":"levelo://app?vid=0c216ec5-2d75-4ee4-a223-b0d23bee74b5"},"vehicle_type_id":"4","last_reported":1761300706,"current_range_meters":14400,"station_id":"ce4bhg12rcd13ifvqf60","pricing_plan_id":"cebpf4jnsgd1na2vs0mg"},{"bike_id":"b82aa972-da68-4f95-87c7-ebee292f36bd","system_id":"levelo_inurba_marseille","lat":43.24166,"lon":5.36397,"is_reserved":false,"is_disabled":false,"rental_uris":{"android":"levelo://app?vid=b82aa972-da68-4f95-87c7-ebee292f36bd","ios":"levelo://app?vid=b82aa972-da68-4f95-87c7-ebee292f36bd"},"vehicle_type_id":"4","last_reported":1761300706,"current_range_meters":14400,"station_id":"cpo36qri1sfpv3e86is0","pricing_plan_id":"cebpf4jnsgd1na2vs0mg"},{"bike_id":"12a8c9b4-3a8b-47f9-96ec-aa3e951496ae","system_id":"levelo_inurba_marseille","lat":43.25116,"lon":5.40314,"is_reserved":false,"is_disabled":false,"rental_uris":{"android":"levelo://app?vid=12a8c9b4-3a8b-47f9-96ec-aa3e951496ae","ios":"levelo://app?vid=12a8c9b4-3a8b-47f9-96ec-aa3e951496ae"},"vehicle_type_id":"4","last_reported":1761300706,"current_range_meters":14400,"station_id":"ce4bhlh2rcd13ifvqgig","pricing_plan_id":"cebpf4jnsgd1na2vs0mg"},{"bike_id":"bdba2bad-a11a-4a75-a91c-503257819bd7","system_id":"levelo_inurba_marseille","lat":43.28612,"lon":5.35104,"is_reserved":false,"is_disabled":false,"rental_uris":{"android":"levelo://app?vid=bdba2bad-a11a-4a75-a91c-503257819bd7","ios":"levelo://app?vid=bdba2bad-a11a-4a75-a91c-503257819bd7"},"vehicle_type_id":"4","last_reported":1761300706,"current_range_meters":14800,"station_id":"ce4bhch2rcd13ifvqeug","pricing_plan_id":"cebpf4jnsgd1na2vs0mg"},{"bike_id":"1e38c02c-a0b3-4d18-89a8-5d1da4d01b6c","system_id":"levelo_inurba_marseille","lat":43.2923,"lon":5.37152,"is_reserved":false,"is_disabled":false,"rental_uris":{"android":"levelo://app?vid=1e38c02c-a0b3-4d18-89a8-5d1da4d01b6c","ios":"levelo://app?vid=1e38c02c-a0b3-4d18-89a8-5d1da4d01b6c"},"vehicle_type_id":"4","last_reported":1761300706,"current_range_meters":14800,"station_id":"","pricing_plan_id":"cebpf4jnsgd1na2vs0mg"},{"bike_id":"69e5fd8e-9a99-4162-8716-abeff61c026b","system_id":"levelo_inurba_marseille","lat":43.3205,"lon":5.41566,"is_reserved":false,"is_disabled":false,"rental_uris":{"android":"levelo://app?vid=69e5fd8e-9a99-4162-8716-abeff61c026b","ios":"levelo://app?vid=69e5fd8e-9a99-4162-8716-abeff61c026b"},"vehicle_type_id":"4","last_reported":1761300706,"current_range_meters":15200,"station_id":"ce4bhq92rcd13ifvqhkg","pricing_plan_id":"cebpf4jnsgd1na2vs0mg"},{"bike_id":"f8c755d7-1bb8-4fcd-bb3f-74aeb49951cc","system_id":"levelo_inurba_marseille","lat":43.31379,"lon":5.37898,"is_reserved":false,"is_disabled":false,"rental_uris":{"android":"levelo://app?vid=f8c755d7-1bb8-4fcd-bb3f-74aeb49951cc","ios":"levelo://app?vid=f8c755d7-1bb8-4fcd-bb3f-74aeb49951cc"},"vehicle_type_id":"4","last_reported":1761300706,"current_range_meters":15200,"station_id":"","pricing_plan_id":"cebpf4jnsgd1na2vs0mg"},{"bike_id":"e8c27b8d-241a-41f3-892d-350fab50dc13","system_id":"levelo_inurba_marseille","lat":43.28617,"lon":5.35108,"is_reserved":false,"is_disabled":false,"rental_uris":{"android":"levelo://app?vid=e8c27b8d-241a-41f3-892d-350fab50dc13","ios":"levelo://app?vid=e8c27b8d-241a-41f3-892d-350fab50dc13"},"vehicle_type_id":"4","last_reported":1761300706,"current_range_meters":15200,"station_id":"ce4bhch2rcd13ifvqeug","pricing_plan_id":"cebpf4jnsgd1na2vs0mg"},{"bike_id":"8e7186e9-e052-4030-a83b-1c1eb47fd46c","system_id":"levelo_inurba_marseille","lat":43.22928,"lon":5.35378,"is_reserved":false,"is_disabled":false,"rental_uris":{"android":"levelo://app?vid=8e7186e9-e052-4030-a83b-1c1eb47fd46c","ios":"levelo://app?vid=8e7186e9-e052-4030-a83b-1c1eb47fd46c"},"vehicle_type_id":"4","last_reported":1761300706,"current_range_meters":15200,"station_id":"cpo3532slgdg3j2ikp40","pricing_plan_id":"cebpf4jnsgd1na2vs0mg"},{"bike_id":"47f09c0c-92a9-44eb-a23c-69934b3ff134","system_id":"levelo_inurba_marseille","lat":43.30117,"lon":5.43114,"is_reserved":false,"is_disabled":false,"rental_uris":{"android":"levelo://app?vid=47f09c0c-92a9-44eb-a23c-69934b3ff134","ios":"levelo://app?vid=47f09c0c-92a9-44eb-a23c-69934b3ff134"},"vehicle_type_id":"4","last_reported":1761300706,"current_range_meters":15200,"station_id":"st_d3js3co5814s73ftftug","pricing_plan_id":"cebpf4jnsgd1na2vs0mg"},{"bike_id":"764563dd-e368-48f5-a186-3a29a8a5295d","system_id":"levelo_inurba_marseille","lat":43.25925,"lon":5.40908,"is_reserved":false,"is_disabled":false,"rental_uris":{"android":"levelo://app?vid=764563dd-e368-48f5-a186-3a29a8a5295d","ios":"levelo://app?vid=764563dd-e368-48f5-a186-3a29a8a5295d"},"vehicle_type_id":"4","last_reported":1761300706,"current_range_meters":15200,"station_id":"ce4bhm92rcd13ifvqglg","pricing_plan_id":"cebpf4jnsgd1na2vs0mg"},{"bike_id":"3e8e149f-7d68-4362-a2be-2ff2ee70434f","system_id":"levelo_inurba_marseille","lat":43.28613,"lon":5.35105,"is_reserved":false,"is_disabled":false,"rental_uris":{"android":"levelo://app?vid=3e8e149f-7d68-4362-a2be-2ff2ee70434f","ios":"levelo://app?vid=3e8e149f-7d68-4362-a2be-2ff2ee70434f"},"vehicle_type_id":"4","last_reported":1761300706,"current_range_meters":15200,"station_id":"ce4bhch2rcd13ifvqeug","pricing_plan_id":"cebpf4jnsgd1na2vs0mg"},{"bike_id":"34620a6d-6cbe-45b0-a540-768a36ac4c42","system_id":"levelo_inurba_marseille","lat":43.25936,"lon":5.40888,"is_reserved":false,"is_disabled":false,"rental_uris":{"android":"levelo://app?vid=34620a6d-6cbe-45b0-a540-768a36ac4c42","ios":"levelo://app?vid=34620a6d-6cbe-45b0-a540-768a36ac4c42"},"vehicle_type_id":"4","last_reported":1761300706,"current_range_meters":16000,"station_id":"ce4bhm92rcd13ifvqglg","pricing_plan_id":"cebpf4jnsgd1na2vs0mg"},{"bike_id":"b10b6f37-c167-4ff7-ba2a-89bd6256deac","system_id":"levelo_inurba_marseille","lat":43.27375,"lon":5.36259,"is_reserved":false,"is_disabled":false,"rental_uris":{"android":"levelo://app?vid=b10b6f37-c167-4ff7-ba2a-89bd6256deac","ios":"levelo://app?vid=b10b6f37-c167-4ff7-ba2a-89bd6256deac"},"vehicle_type_id":"4","last_reported":1761300706,"current_range_meters":16000,"station_id":"ce4bhbh2rcd13ifvqeo0","pricing_plan_id":"cebpf4jnsgd1na2vs0mg"},{"bike_id":"3a63eaab-f7ec-43a0-9f79-6ff1afb6a97f","system_id":"levelo_inurba_marseille","lat":43.28419,"lon":5.34976,"is_reserved":false,"is_disabled":false,"rental_uris":{"android":"levelo://app?vid=3a63eaab-f7ec-43a0-9f79-6ff1afb6a97f","ios":"levelo://app?vid=3a63eaab-f7ec-43a0-9f79-6ff1afb6a97f"},"vehicle_type_id":"4","last_reported":1761300706,"current_range_meters":16000,"station_id":"ce4bhbh2rcd13ifvqepg","pricing_plan_id":"cebpf4jnsgd1na2vs0mg"},{"bike_id":"f2a88201-ec4d-40e7-856a-1b850d1e932e","system_id":"levelo_inurba_marseille","lat":43.27813,"lon":5.40716,"is_reserved":false,"is_disabled":false,"rental_uris":{"android":"levelo://app?vid=f2a88201-ec4d-40e7-856a-1b850d1e932e","ios":"levelo://app?vid=f2a88201-ec4d-40e7-856a-1b850d1e932e"},"vehicle_type_id":"4","last_reported":1761300706,"current_range_meters":16000,"station_id":"ce4bhnh2rcd13ifvqgtg","pricing_plan_id":"cebpf4jnsgd1na2vs0mg"},{"bike_id":"86a91ff0-80e3-4e5c-bc4c-90330a4df12f","system_id":"levelo_inurba_marseille","lat":43.28152,"lon":5.42643,"is_reserved":false,"is_disabled":false,"rental_uris":{"android":"levelo://app?vid=86a91ff0-80e3-4e5c-bc4c-90330a4df12f","ios":"levelo://app?vid=86a91ff0-80e3-4e5c-bc4c-90330a4df12f"},"vehicle_type_id":"4","last_reported":1761300706,"current_range_meters":16000,"station_id":"ce4bhnh2rcd13ifvqgug","pricing_plan_id":"cebpf4jnsgd1na2vs0mg"},{"bike_id":"e9fcc046-9536-4e43-a329-f93ea988846b","system_id":"levelo_inurba_marseille","lat":43.28032,"lon":5.36948,"is_reserved":false,"is_disabled":false,"rental_uris":{"android":"levelo://app?vid=e9fcc046-9536-4e43-a329-f93ea988846b","ios":"levelo://app?vid=e9fcc046-9536-4e43-a329-f93ea988846b"},"vehicle_type_id":"4","last_reported":1761300706,"current_range_meters":16000,"station_id":"ce4bha12rcd13ifvqef0","pricing_plan_id":"cebpf4jnsgd1na2vs0mg"},{"bike_id":"719b04ae-4171-4220-909e-5ceafd79b7d3","system_id":"levelo_inurba_marseille","lat":43.28461,"lon":5.35872,"is_reserved":false,"is_disabled":false,"rental_uris":{"android":"levelo://app?vid=719b04ae-4171-4220-909e-5ceafd79b7d3","ios":"levelo://app?vid=719b04ae-4171-4220-909e-5ceafd79b7d3"},"vehicle_type_id":"4","last_reported":1761300706,"current_range_meters":16400,"station_id":"ce4bhah2rcd13ifvqei0","pricing_plan_id":"cebpf4jnsgd1na2vs0mg"},{"bike_id":"51eceae6-e77b-4ec6-8b90-f7c26939900c","system_id":"levelo_inurba_marseille","lat":43.27375,"lon":5.36261,"is_reserved":false,"is_disabled":false,"rental_uris":{"android":"levelo://app?vid=51eceae6-e77b-4ec6-8b90-f7c26939900c","ios":"levelo://app?vid=51eceae6-e77b-4ec6-8b90-f7c26939900c"},"vehicle_type_id":"4","last_reported":1761300706,"current_range_meters":16400,"station_id":"ce4bhbh2rcd13ifvqeo0","pricing_plan_id":"cebpf4jnsgd1na2vs0mg"},{"bike_id":"249615da-bae2-4bb3-9506-b338b9fb85b7","system_id":"levelo_inurba_marseille","lat":43.2974,"lon":5.37663,"is_reserved":false,"is_disabled":true,"rental_uris":{"android":"levelo://app?vid=249615da-bae2-4bb3-9506-b338b9fb85b7","ios":"levelo://app?vid=249615da-bae2-4bb3-9506-b338b9fb85b7"},"vehicle_type_id":"4","last_reported":1761300706,"current_range_meters":16400,"station_id":"ce4bgkh2rcd13ifvqbl0","pricing_plan_id":"cebpf4jnsgd1na2vs0mg"},{"bike_id":"8d37e86e-0fcb-4934-9c24-f827e9ccc08f","system_id":"levelo_inurba_marseille","lat":43.23151,"lon":5.43721,"is_reserved":false,"is_disabled":false,"rental_uris":{"android":"levelo://app?vid=8d37e86e-0fcb-4934-9c24-f827e9ccc08f","ios":"levelo://app?vid=8d37e86e-0fcb-4934-9c24-f827e9ccc08f"},"vehicle_type_id":"4","last_reported":1761300706,"current_range_meters":16400,"station_id":"ce4bhmp2rcd13ifvqgog","pricing_plan_id":"cebpf4jnsgd1na2vs0mg"},{"bike_id":"4f5c5045-2f2c-4ab7-ad8b-eeba1d52fe66","system_id":"levelo_inurba_marseille","lat":43.31574,"lon":5.37197,"is_reserved":false,"is_disabled":false,"rental_uris":{"android":"levelo://app?vid=4f5c5045-2f2c-4ab7-ad8b-eeba1d52fe66","ios":"levelo://app?vid=4f5c5045-2f2c-4ab7-ad8b-eeba1d52fe66"},"vehicle_type_id":"4","last_reported":1761300706,"current_range_meters":16800,"station_id":"","pricing_plan_id":"cebpf4jnsgd1na2vs0mg"},{"bike_id":"027671f0-647c-4906-b36a-8e0c86a19dff","system_id":"levelo_inurba_marseille","lat":43.302179,"lon":5.394717,"is_reserved":false,"is_disabled":false,"rental_uris":{"android":"levelo://app?vid=027671f0-647c-4906-b36a-8e0c86a19dff","ios":"levelo://app?vid=027671f0-647c-4906-b36a-8e0c86a19dff"},"vehicle_type_id":"4","last_reported":1761300706,"current_range_meters":16800,"station_id":"","pricing_plan_id":"cebpf4jnsgd1na2vs0mg"},{"bike_id":"46c0226f-9fad-4b07-8a98-586b07fa945a","system_id":"levelo_inurba_marseille","lat":43.30552,"lon":5.36515,"is_reserved":false,"is_disabled":false,"rental_uris":{"android":"levelo://app?vid=46c0226f-9fad-4b07-8a98-586b07fa945a","ios":"levelo://app?vid=46c0226f-9fad-4b07-8a98-586b07fa945a"},"vehicle_type_id":"4","last_reported":1761300706,"current_range_meters":16800,"station_id":"ce4bgs12rcd13ifvqcag","pricing_plan_id":"cebpf4jnsgd1na2vs0mg"},{"bike_id":"ce6cd538-c766-4c96-b93f-5b786164e4be","system_id":"levelo_inurba_marseille","lat":43.30906,"lon":5.3721,"is_reserved":false,"is_disabled":false,"rental_uris":{"android":"levelo://app?vid=ce6cd538-c766-4c96-b93f-5b786164e4be","ios":"levelo://app?vid=ce6cd538-c766-4c96-b93f-5b786164e4be"},"vehicle_type_id":"4","last_reported":1761300706,"current_range_meters":16800,"station_id":"ce4bguh2rcd13ifvqckg","pricing_plan_id":"cebpf4jnsgd1na2vs0mg"},{"bike_id":"dde114a4-8805-4784-b02d-0d744116457b","system_id":"levelo_inurba_marseille","lat":43.22924,"lon":5.35376,"is_reserved":false,"is_disabled":false,"rental_uris":{"android":"levelo://app?vid=dde114a4-8805-4784-b02d-0d744116457b","ios":"levelo://app?vid=dde114a4-8805-4784-b02d-0d744116457b"},"vehicle_type_id":"4","last_reported":1761300706,"current_range_meters":16800,"station_id":"cpo3532slgdg3j2ikp40","pricing_plan_id":"cebpf4jnsgd1na2vs0mg"},{"bike_id":"d10e6b9f-36f8-4ddb-ae2c-d29496d27855","system_id":"levelo_inurba_marseille","lat":43.30143,"lon":5.37417,"is_reserved":false,"is_disabled":false,"rental_uris":{"android":"levelo://app?vid=d10e6b9f-36f8-4ddb-ae2c-d29496d27855","ios":"levelo://app?vid=d10e6b9f-36f8-4ddb-ae2c-d29496d27855"},"vehicle_type_id":"4","last_reported":1761300706,"current_range_meters":17200,"station_id":"ce4bgs92rcd13ifvqcc0","pricing_plan_id":"cebpf4jnsgd1na2vs0mg"},{"bike_id":"be88eaa4-e674-44f9-9199-3901304dd644","system_id":"levelo_inurba_marseille","lat":43.217568,"lon":5.345975,"is_reserved":false,"is_disabled":false,"rental_uris":{"android":"levelo://app?vid=be88eaa4-e674-44f9-9199-3901304dd644","ios":"levelo://app?vid=be88eaa4-e674-44f9-9199-3901304dd644"},"vehicle_type_id":"4","last_reported":1761300706,"current_range_meters":17200,"station_id":"st_cvj6r9ubvosntc0bgbag","pricing_plan_id":"cebpf4jnsgd1na2vs0mg"},{"bike_id":"0f640445-b7c2-4dab-bfd8-f47d334584a8","system_id":"levelo_inurba_marseille","lat":43.273691,"lon":5.393243,"is_reserved":false,"is_disabled":false,"rental_uris":{"android":"levelo://app?vid=0f640445-b7c2-4dab-bfd8-f47d334584a8","ios":"levelo://app?vid=0f640445-b7c2-4dab-bfd8-f47d334584a8"},"vehicle_type_id":"4","last_reported":1761300706,"current_range_meters":17200,"station_id":"ce4bhdp2rcd13ifvqf20","pricing_plan_id":"cebpf4jnsgd1na2vs0mg"},{"bike_id":"517967d8-99f1-48b5-bb3b-a375d3316692","system_id":"levelo_inurba_marseille","lat":43.28454,"lon":5.35884,"is_reserved":false,"is_disabled":false,"rental_uris":{"android":"levelo://app?vid=517967d8-99f1-48b5-bb3b-a375d3316692","ios":"levelo://app?vid=517967d8-99f1-48b5-bb3b-a375d3316692"},"vehicle_type_id":"4","last_reported":1761300706,"current_range_meters":17200,"station_id":"ce4bhah2rcd13ifvqei0","pricing_plan_id":"cebpf4jnsgd1na2vs0mg"},{"bike_id":"17585014-36d0-4d96-ab97-1812e8c7fbe7","system_id":"levelo_inurba_marseille","lat":43.31667,"lon":5.38241,"is_reserved":false,"is_disabled":false,"rental_uris":{"android":"levelo://app?vid=17585014-36d0-4d96-ab97-1812e8c7fbe7","ios":"levelo://app?vid=17585014-36d0-4d96-ab97-1812e8c7fbe7"},"vehicle_type_id":"4","last_reported":1761300706,"current_range_meters":17200,"station_id":"","pricing_plan_id":"cebpf4jnsgd1na2vs0mg"},{"bike_id":"8ae1a895-256a-42ff-81e2-1ddef1dcb177","system_id":"levelo_inurba_marseille","lat":43.2313,"lon":5.437036,"is_reserved":false,"is_disabled":false,"rental_uris":{"android":"levelo://app?vid=8ae1a895-256a-42ff-81e2-1ddef1dcb177","ios":"levelo://app?vid=8ae1a895-256a-42ff-81e2-1ddef1dcb177"},"vehicle_type_id":"4","last_reported":1761300706,"current_range_meters":17200,"station_id":"ce4bhmp2rcd13ifvqgog","pricing_plan_id":"cebpf4jnsgd1na2vs0mg"},{"bike_id":"de32d5bd-0258-4a20-891c-33047555f0d8","system_id":"levelo_inurba_marseille","lat":43.29624,"lon":5.40595,"is_reserved":false,"is_disabled":false,"rental_uris":{"android":"levelo://app?vid=de32d5bd-0258-4a20-891c-33047555f0d8","ios":"levelo://app?vid=de32d5bd-0258-4a20-891c-33047555f0d8"},"vehicle_type_id":"4","last_reported":1761300706,"current_range_meters":17200,"station_id":"ce4bh0h2rcd13ifvqd60","pricing_plan_id":"cebpf4jnsgd1na2vs0mg"},{"bike_id":"a6c1a674-7746-4f2b-bfdf-0ab497e36b91","system_id":"levelo_inurba_marseille","lat":43.23185,"lon":5.39977,"is_reserved":false,"is_disabled":false,"rental_uris":{"android":"levelo://app?vid=a6c1a674-7746-4f2b-bfdf-0ab497e36b91","ios":"levelo://app?vid=a6c1a674-7746-4f2b-bfdf-0ab497e36b91"},"vehicle_type_id":"4","last_reported":1761300706,"current_range_meters":17200,"station_id":"ce4bhn12rcd13ifvqgqg","pricing_plan_id":"cebpf4jnsgd1na2vs0mg"},{"bike_id":"417d2345-c4c6-4ccd-bc5c-2eafc961607b","system_id":"levelo_inurba_marseille","lat":43.25532,"lon":5.37633,"is_reserved":false,"is_disabled":false,"rental_uris":{"android":"levelo://app?vid=417d2345-c4c6-4ccd-bc5c-2eafc961607b","ios":"levelo://app?vid=417d2345-c4c6-4ccd-bc5c-2eafc961607b"},"vehicle_type_id":"4","last_reported":1761300706,"current_range_meters":17600,"station_id":"ce4bhh12rcd13ifvqff0","pricing_plan_id":"cebpf4jnsgd1na2vs0mg"},{"bike_id":"9d0e2618-e334-4663-b1b9-89ca245f3667","system_id":"levelo_inurba_marseille","lat":43.30576,"lon":5.36501,"is_reserved":false,"is_disabled":false,"rental_uris":{"android":"levelo://app?vid=9d0e2618-e334-4663-b1b9-89ca245f3667","ios":"levelo://app?vid=9d0e2618-e334-4663-b1b9-89ca245f3667"},"vehicle_type_id":"4","last_reported":1761300706,"current_range_meters":17600,"station_id":"","pricing_plan_id":"cebpf4jnsgd1na2vs0mg"},{"bike_id":"e4ada461-d55b-49de-8026-1484f1381062","system_id":"levelo_inurba_marseille","lat":43.29982,"lon":5.38479,"is_reserved":false,"is_disabled":false,"rental_uris":{"android":"levelo://app?vid=e4ada461-d55b-49de-8026-1484f1381062","ios":"levelo://app?vid=e4ada461-d55b-49de-8026-1484f1381062"},"vehicle_type_id":"4","last_reported":1761300706,"current_range_meters":17600,"station_id":"ce4bgj92rcd13ifvqbd0","pricing_plan_id":"cebpf4jnsgd1na2vs0mg"},{"bike_id":"75eebb0f-2447-4bf8-b846-45b5b359059b","system_id":"levelo_inurba_marseille","lat":43.33769,"lon":5.37496,"is_reserved":false,"is_disabled":false,"rental_uris":{"android":"levelo://app?vid=75eebb0f-2447-4bf8-b846-45b5b359059b","ios":"levelo://app?vid=75eebb0f-2447-4bf8-b846-45b5b359059b"},"vehicle_type_id":"4","last_reported":1761300706,"current_range_meters":17600,"station_id":"","pricing_plan_id":"cebpf4jnsgd1na2vs0mg"},{"bike_id":"9d964ec4-c537-4f1d-b21c-451d3f46b1bf","system_id":"levelo_inurba_marseille","lat":43.299087,"lon":5.378578,"is_reserved":false,"is_disabled":false,"rental_uris":{"android":"levelo://app?vid=9d964ec4-c537-4f1d-b21c-451d3f46b1bf","ios":"levelo://app?vid=9d964ec4-c537-4f1d-b21c-451d3f46b1bf"},"vehicle_type_id":"4","last_reported":1761300706,"current_range_meters":17600,"station_id":"","pricing_plan_id":"cebpf4jnsgd1na2vs0mg"},{"bike_id":"55aa3877-cd59-41e2-925e-579361312dec","system_id":"levelo_inurba_marseille","lat":43.30613,"lon":5.37224,"is_reserved":false,"is_disabled":false,"rental_uris":{"android":"levelo://app?vid=55aa3877-cd59-41e2-925e-579361312dec","ios":"levelo://app?vid=55aa3877-cd59-41e2-925e-579361312dec"},"vehicle_type_id":"4","last_reported":1761300706,"current_range_meters":18000,"station_id":"ce4bgqh2rcd13ifvqc4g","pricing_plan_id":"cebpf4jnsgd1na2vs0mg"},{"bike_id":"ed4c633f-c14d-4cdb-995f-3fd13a6ec4b0","system_id":"levelo_inurba_marseille","lat":43.28445,"lon":5.39226,"is_reserved":false,"is_disabled":false,"rental_uris":{"android":"levelo://app?vid=ed4c633f-c14d-4cdb-995f-3fd13a6ec4b0","ios":"levelo://app?vid=ed4c633f-c14d-4cdb-995f-3fd13a6ec4b0"},"vehicle_type_id":"4","last_reported":1761300706,"current_range_meters":18000,"station_id":"ce4bhoh2rcd13ifvqh5g","pricing_plan_id":"cebpf4jnsgd1na2vs0mg"},{"bike_id":"8bb7bee9-5e62-432b-8c49-b661a9775620","system_id":"levelo_inurba_marseille","lat":43.259419,"lon":5.408985,"is_reserved":false,"is_disabled":false,"rental_uris":{"android":"levelo://app?vid=8bb7bee9-5e62-432b-8c49-b661a9775620","ios":"levelo://app?vid=8bb7bee9-5e62-432b-8c49-b661a9775620"},"vehicle_type_id":"4","last_reported":1761300706,"current_range_meters":18000,"station_id":"ce4bhm92rcd13ifvqglg","pricing_plan_id":"cebpf4jnsgd1na2vs0mg"},{"bike_id":"49c88eb1-18b5-42cc-aab1-cb913bda0353","system_id":"levelo_inurba_marseille","lat":43.33611,"lon":5.41034,"is_reserved":false,"is_disabled":true,"rental_uris":{"android":"levelo://app?vid=49c88eb1-18b5-42cc-aab1-cb913bda0353","ios":"levelo://app?vid=49c88eb1-18b5-42cc-aab1-cb913bda0353"},"vehicle_type_id":"4","last_reported":1761300706,"current_range_meters":18000,"station_id":"ce4bhqh2rcd13ifvqhmg","pricing_plan_id":"cebpf4jnsgd1na2vs0mg"},{"bike_id":"8d881a98-71e9-421e-9e11-c692cd36b6d1","system_id":"levelo_inurba_marseille","lat":43.27835,"lon":5.4071,"is_reserved":false,"is_disabled":false,"rental_uris":{"android":"levelo://app?vid=8d881a98-71e9-421e-9e11-c692cd36b6d1","ios":"levelo://app?vid=8d881a98-71e9-421e-9e11-c692cd36b6d1"},"vehicle_type_id":"4","last_reported":1761300706,"current_range_meters":18800,"station_id":"ce4bhnh2rcd13ifvqgtg","pricing_plan_id":"cebpf4jnsgd1na2vs0mg"},{"bike_id":"49a40464-c446-4022-adf4-3fd2e647b0e5","system_id":"levelo_inurba_marseille","lat":43.290351,"lon":5.375639,"is_reserved":false,"is_disabled":false,"rental_uris":{"android":"levelo://app?vid=49a40464-c446-4022-adf4-3fd2e647b0e5","ios":"levelo://app?vid=49a40464-c446-4022-adf4-3fd2e647b0e5"},"vehicle_type_id":"4","last_reported":1761300706,"current_range_meters":18800,"station_id":"","pricing_plan_id":"cebpf4jnsgd1na2vs0mg"},{"bike_id":"f7580ade-ead7-4d11-b5a8-0478850060c9","system_id":"levelo_inurba_marseille","lat":43.279739,"lon":5.387483,"is_reserved":false,"is_disabled":false,"rental_uris":{"android":"levelo://app?vid=f7580ade-ead7-4d11-b5a8-0478850060c9","ios":"levelo://app?vid=f7580ade-ead7-4d11-b5a8-0478850060c9"},"vehicle_type_id":"4","last_reported":1761300706,"current_range_meters":18800,"station_id":"","pricing_plan_id":"cebpf4jnsgd1na2vs0mg"},{"bike_id":"aaa0c47c-afa2-4a78-8653-fa8a2eeb4bb6","system_id":"levelo_inurba_marseille","lat":43.29583,"lon":5.37514,"is_reserved":false,"is_disabled":false,"rental_uris":{"android":"levelo://app?vid=aaa0c47c-afa2-4a78-8653-fa8a2eeb4bb6","ios":"levelo://app?vid=aaa0c47c-afa2-4a78-8653-fa8a2eeb4bb6"},"vehicle_type_id":"4","last_reported":1761300706,"current_range_meters":18800,"station_id":"ce4bgh92rcd13ifvqb50","pricing_plan_id":"cebpf4jnsgd1na2vs0mg"},{"bike_id":"f4e0d705-d465-47a5-9a58-6cb32dc695a4","system_id":"levelo_inurba_marseille","lat":43.25928,"lon":5.40909,"is_reserved":false,"is_disabled":false,"rental_uris":{"android":"levelo://app?vid=f4e0d705-d465-47a5-9a58-6cb32dc695a4","ios":"levelo://app?vid=f4e0d705-d465-47a5-9a58-6cb32dc695a4"},"vehicle_type_id":"4","last_reported":1761300706,"current_range_meters":19200,"station_id":"ce4bhm92rcd13ifvqglg","pricing_plan_id":"cebpf4jnsgd1na2vs0mg"},{"bike_id":"e1927214-042b-4ff4-88d7-8c0645f3fb8b","system_id":"levelo_inurba_marseille","lat":43.240514,"lon":5.377361,"is_reserved":false,"is_disabled":false,"rental_uris":{"android":"levelo://app?vid=e1927214-042b-4ff4-88d7-8c0645f3fb8b","ios":"levelo://app?vid=e1927214-042b-4ff4-88d7-8c0645f3fb8b"},"vehicle_type_id":"4","last_reported":1761300706,"current_range_meters":19200,"station_id":"ce4bhnp2rcd13ifvqgvg","pricing_plan_id":"cebpf4jnsgd1na2vs0mg"},{"bike_id":"7d99dcaa-df4f-4535-b0a3-ace13915ae9b","system_id":"levelo_inurba_marseille","lat":43.27214,"lon":5.39181,"is_reserved":false,"is_disabled":false,"rental_uris":{"android":"levelo://app?vid=7d99dcaa-df4f-4535-b0a3-ace13915ae9b","ios":"levelo://app?vid=7d99dcaa-df4f-4535-b0a3-ace13915ae9b"},"vehicle_type_id":"4","last_reported":1761300706,"current_range_meters":19200,"station_id":"ce4bhhp2rcd13ifvqfm0","pricing_plan_id":"cebpf4jnsgd1na2vs0mg"},{"bike_id":"1d91d2c9-29d3-4c7d-a6a8-29c5c39d1cce","system_id":"levelo_inurba_marseille","lat":43.22932,"lon":5.35373,"is_reserved":false,"is_disabled":false,"rental_uris":{"android":"levelo://app?vid=1d91d2c9-29d3-4c7d-a6a8-29c5c39d1cce","ios":"levelo://app?vid=1d91d2c9-29d3-4c7d-a6a8-29c5c39d1cce"},"vehicle_type_id":"4","last_reported":1761300706,"current_range_meters":19200,"station_id":"","pricing_plan_id":"cebpf4jnsgd1na2vs0mg"},{"bike_id":"1e04bd5e-dba9-4c39-b5e3-df33312b1ae1","system_id":"levelo_inurba_marseille","lat":43.2706,"lon":5.3828,"is_reserved":false,"is_disabled":false,"rental_uris":{"android":"levelo://app?vid=1e04bd5e-dba9-4c39-b5e3-df33312b1ae1","ios":"levelo://app?vid=1e04bd5e-dba9-4c39-b5e3-df33312b1ae1"},"vehicle_type_id":"4","last_reported":1761300706,"current_range_meters":19200,"station_id":"st_d3n2fo6cfp8s73cte1j0","pricing_plan_id":"cebpf4jnsgd1na2vs0mg"},{"bike_id":"16596cdb-186e-47d8-a3ec-bb6571def4b7","system_id":"levelo_inurba_marseille","lat":43.25923,"lon":5.40916,"is_reserved":false,"is_disabled":false,"rental_uris":{"android":"levelo://app?vid=16596cdb-186e-47d8-a3ec-bb6571def4b7","ios":"levelo://app?vid=16596cdb-186e-47d8-a3ec-bb6571def4b7"},"vehicle_type_id":"4","last_reported":1761300706,"current_range_meters":19200,"station_id":"ce4bhm92rcd13ifvqglg","pricing_plan_id":"cebpf4jnsgd1na2vs0mg"},{"bike_id":"23903ad2-cfc7-4bb0-9f8b-2dc6aa30d079","system_id":"levelo_inurba_marseille","lat":43.28486,"lon":5.38419,"is_reserved":false,"is_disabled":false,"rental_uris":{"android":"levelo://app?vid=23903ad2-cfc7-4bb0-9f8b-2dc6aa30d079","ios":"levelo://app?vid=23903ad2-cfc7-4bb0-9f8b-2dc6aa30d079"},"vehicle_type_id":"4","last_reported":1761300706,"current_range_meters":19200,"station_id":"ce4bh512rcd13ifvqe3g","pricing_plan_id":"cebpf4jnsgd1na2vs0mg"},{"bike_id":"05671d9c-e63a-4542-a1a7-01e7da0ef5a5","system_id":"levelo_inurba_marseille","lat":43.26963,"lon":5.38627,"is_reserved":false,"is_disabled":false,"rental_uris":{"android":"levelo://app?vid=05671d9c-e63a-4542-a1a7-01e7da0ef5a5","ios":"levelo://app?vid=05671d9c-e63a-4542-a1a7-01e7da0ef5a5"},"vehicle_type_id":"4","last_reported":1761300706,"current_range_meters":19200,"station_id":"ce4bhh92rcd13ifvqfh0","pricing_plan_id":"cebpf4jnsgd1na2vs0mg"},{"bike_id":"8e92164c-deff-4fbd-9f4e-43ff81933572","system_id":"levelo_inurba_marseille","lat":43.29838,"lon":5.42021,"is_reserved":false,"is_disabled":false,"rental_uris":{"android":"levelo://app?vid=8e92164c-deff-4fbd-9f4e-43ff81933572","ios":"levelo://app?vid=8e92164c-deff-4fbd-9f4e-43ff81933572"},"vehicle_type_id":"4","last_reported":1761300706,"current_range_meters":19200,"station_id":"","pricing_plan_id":"cebpf4jnsgd1na2vs0mg"},{"bike_id":"bfaea6f8-ccc6-44a7-83a6-9d7d9a7e60cc","system_id":"levelo_inurba_marseille","lat":43.263946,"lon":5.397503,"is_reserved":false,"is_disabled":false,"rental_uris":{"android":"levelo://app?vid=bfaea6f8-ccc6-44a7-83a6-9d7d9a7e60cc","ios":"levelo://app?vid=bfaea6f8-ccc6-44a7-83a6-9d7d9a7e60cc"},"vehicle_type_id":"4","last_reported":1761300706,"current_range_meters":19600,"station_id":"","pricing_plan_id":"cebpf4jnsgd1na2vs0mg"},{"bike_id":"8d92a292-9a74-4f9c-9d6b-628ee3caa80d","system_id":"levelo_inurba_marseille","lat":43.299164,"lon":5.397227,"is_reserved":false,"is_disabled":false,"rental_uris":{"android":"levelo://app?vid=8d92a292-9a74-4f9c-9d6b-628ee3caa80d","ios":"levelo://app?vid=8d92a292-9a74-4f9c-9d6b-628ee3caa80d"},"vehicle_type_id":"4","last_reported":1761300706,"current_range_meters":19600,"station_id":"ce4bh0h2rcd13ifvqd50","pricing_plan_id":"cebpf4jnsgd1na2vs0mg"},{"bike_id":"0bee0626-b9a8-413e-bed7-d82dc19927df","system_id":"levelo_inurba_marseille","lat":43.31492,"lon":5.3725,"is_reserved":false,"is_disabled":false,"rental_uris":{"android":"levelo://app?vid=0bee0626-b9a8-413e-bed7-d82dc19927df","ios":"levelo://app?vid=0bee0626-b9a8-413e-bed7-d82dc19927df"},"vehicle_type_id":"4","last_reported":1761300706,"current_range_meters":19600,"station_id":"","pricing_plan_id":"cebpf4jnsgd1na2vs0mg"},{"bike_id":"85831b0c-ac03-4a31-ad4b-6acd383c62ca","system_id":"levelo_inurba_marseille","lat":43.277092,"lon":5.388703,"is_reserved":false,"is_disabled":false,"rental_uris":{"android":"levelo://app?vid=85831b0c-ac03-4a31-ad4b-6acd383c62ca","ios":"levelo://app?vid=85831b0c-ac03-4a31-ad4b-6acd383c62ca"},"vehicle_type_id":"4","last_reported":1761300706,"current_range_meters":19600,"station_id":"ce4bhi12rcd13ifvqfo0","pricing_plan_id":"cebpf4jnsgd1na2vs0mg"},{"bike_id":"d4f34596-cd96-4004-af96-068144e0795b","system_id":"levelo_inurba_marseille","lat":43.30685,"lon":5.42225,"is_reserved":false,"is_disabled":false,"rental_uris":{"android":"levelo://app?vid=d4f34596-cd96-4004-af96-068144e0795b","ios":"levelo://app?vid=d4f34596-cd96-4004-af96-068144e0795b"},"vehicle_type_id":"4","last_reported":1761300706,"current_range_meters":19600,"station_id":"","pricing_plan_id":"cebpf4jnsgd1na2vs0mg"},{"bike_id":"5d14a0b6-65a7-44b7-8162-6bb54a334a63","system_id":"levelo_inurba_marseille","lat":43.30135,"lon":5.39865,"is_reserved":false,"is_disabled":false,"rental_uris":{"android":"levelo://app?vid=5d14a0b6-65a7-44b7-8162-6bb54a334a63","ios":"levelo://app?vid=5d14a0b6-65a7-44b7-8162-6bb54a334a63"},"vehicle_type_id":"4","last_reported":1761300706,"current_range_meters":19600,"station_id":"ce4bh0h2rcd13ifvqd40","pricing_plan_id":"cebpf4jnsgd1na2vs0mg"},{"bike_id":"9489737c-7c2c-4f83-bc76-e520af4d2990","system_id":"levelo_inurba_marseille","lat":43.32366,"lon":5.38871,"is_reserved":false,"is_disabled":false,"rental_uris":{"android":"levelo://app?vid=9489737c-7c2c-4f83-bc76-e520af4d2990","ios":"levelo://app?vid=9489737c-7c2c-4f83-bc76-e520af4d2990"},"vehicle_type_id":"4","last_reported":1761300706,"current_range_meters":19600,"station_id":"ce4bhqp2rcd13ifvqhog","pricing_plan_id":"cebpf4jnsgd1na2vs0mg"},{"bike_id":"affcb4d7-bd11-485d-ac87-73a3514edca3","system_id":"levelo_inurba_marseille","lat":43.2175,"lon":5.34602,"is_reserved":false,"is_disabled":false,"rental_uris":{"android":"levelo://app?vid=affcb4d7-bd11-485d-ac87-73a3514edca3","ios":"levelo://app?vid=affcb4d7-bd11-485d-ac87-73a3514edca3"},"vehicle_type_id":"4","last_reported":1761300706,"current_range_meters":19600,"station_id":"st_cvj6r9ubvosntc0bgbag","pricing_plan_id":"cebpf4jnsgd1na2vs0mg"},{"bike_id":"373c6881-b7ab-4c5b-a6aa-510e7fe85bfe","system_id":"levelo_inurba_marseille","lat":43.292984,"lon":5.374565,"is_reserved":false,"is_disabled":false,"rental_uris":{"android":"levelo://app?vid=373c6881-b7ab-4c5b-a6aa-510e7fe85bfe","ios":"levelo://app?vid=373c6881-b7ab-4c5b-a6aa-510e7fe85bfe"},"vehicle_type_id":"4","last_reported":1761300706,"current_range_meters":19600,"station_id":"","pricing_plan_id":"cebpf4jnsgd1na2vs0mg"},{"bike_id":"73a84e4b-1dc4-4293-ac07-8c8f95c6e770","system_id":"levelo_inurba_marseille","lat":43.3111,"lon":5.37757,"is_reserved":false,"is_disabled":true,"rental_uris":{"android":"levelo://app?vid=73a84e4b-1dc4-4293-ac07-8c8f95c6e770","ios":"levelo://app?vid=73a84e4b-1dc4-4293-ac07-8c8f95c6e770"},"vehicle_type_id":"4","last_reported":1761300706,"current_range_meters":20000,"station_id":"ce4bgt92rcd13ifvqcg0","pricing_plan_id":"cebpf4jnsgd1na2vs0mg"},{"bike_id":"05a41d5b-5136-4a4d-ad6a-882394cf4af1","system_id":"levelo_inurba_marseille","lat":43.27934,"lon":5.41049,"is_reserved":false,"is_disabled":false,"rental_uris":{"android":"levelo://app?vid=05a41d5b-5136-4a4d-ad6a-882394cf4af1","ios":"levelo://app?vid=05a41d5b-5136-4a4d-ad6a-882394cf4af1"},"vehicle_type_id":"4","last_reported":1761300706,"current_range_meters":20000,"station_id":"ce4bhnp2rcd13ifvqh0g","pricing_plan_id":"cebpf4jnsgd1na2vs0mg"},{"bike_id":"46b4e6dd-76ca-47bb-a3e6-247b7232a9bf","system_id":"levelo_inurba_marseille","lat":43.23154,"lon":5.43704,"is_reserved":false,"is_disabled":false,"rental_uris":{"android":"levelo://app?vid=46b4e6dd-76ca-47bb-a3e6-247b7232a9bf","ios":"levelo://app?vid=46b4e6dd-76ca-47bb-a3e6-247b7232a9bf"},"vehicle_type_id":"4","last_reported":1761300706,"current_range_meters":20000,"station_id":"ce4bhmp2rcd13ifvqgog","pricing_plan_id":"cebpf4jnsgd1na2vs0mg"},{"bike_id":"dcd0a935-4389-4e0d-a66e-cd9458b9a86e","system_id":"levelo_inurba_marseille","lat":43.26198,"lon":5.37933,"is_reserved":false,"is_disabled":false,"rental_uris":{"android":"levelo://app?vid=dcd0a935-4389-4e0d-a66e-cd9458b9a86e","ios":"levelo://app?vid=dcd0a935-4389-4e0d-a66e-cd9458b9a86e"},"vehicle_type_id":"4","last_reported":1761300706,"current_range_meters":20000,"station_id":"ce4bhjp2rcd13ifvqg90","pricing_plan_id":"cebpf4jnsgd1na2vs0mg"},{"bike_id":"eec197c3-9146-4942-bfc2-b26b699ad249","system_id":"levelo_inurba_marseille","lat":43.279468,"lon":5.410474,"is_reserved":false,"is_disabled":false,"rental_uris":{"android":"levelo://app?vid=eec197c3-9146-4942-bfc2-b26b699ad249","ios":"levelo://app?vid=eec197c3-9146-4942-bfc2-b26b699ad249"},"vehicle_type_id":"4","last_reported":1761300706,"current_range_meters":20000,"station_id":"ce4bhnp2rcd13ifvqh0g","pricing_plan_id":"cebpf4jnsgd1na2vs0mg"},{"bike_id":"4e35f9ed-db3b-45fc-8b18-21effaba6e51","system_id":"levelo_inurba_marseille","lat":43.28923,"lon":5.38405,"is_reserved":false,"is_disabled":false,"rental_uris":{"android":"levelo://app?vid=4e35f9ed-db3b-45fc-8b18-21effaba6e51","ios":"levelo://app?vid=4e35f9ed-db3b-45fc-8b18-21effaba6e51"},"vehicle_type_id":"4","last_reported":1761300706,"current_range_meters":20000,"station_id":"ce4bh612rcd13ifvqe6g","pricing_plan_id":"cebpf4jnsgd1na2vs0mg"},{"bike_id":"5a88517b-9ddf-4e5b-ab27-7f6c0834e8cc","system_id":"levelo_inurba_marseille","lat":43.31379,"lon":5.36732,"is_reserved":false,"is_disabled":false,"rental_uris":{"android":"levelo://app?vid=5a88517b-9ddf-4e5b-ab27-7f6c0834e8cc","ios":"levelo://app?vid=5a88517b-9ddf-4e5b-ab27-7f6c0834e8cc"},"vehicle_type_id":"4","last_reported":1761300706,"current_range_meters":20000,"station_id":"ce4bgr92rcd13ifvqc6g","pricing_plan_id":"cebpf4jnsgd1na2vs0mg"},{"bike_id":"ba9a9429-bfde-4653-87f1-2b95b92f5e70","system_id":"levelo_inurba_marseille","lat":43.285358,"lon":5.441035,"is_reserved":false,"is_disabled":false,"rental_uris":{"android":"levelo://app?vid=ba9a9429-bfde-4653-87f1-2b95b92f5e70","ios":"levelo://app?vid=ba9a9429-bfde-4653-87f1-2b95b92f5e70"},"vehicle_type_id":"4","last_reported":1761300706,"current_range_meters":20400,"station_id":"st_d3j3df2ikq2c7380ej80","pricing_plan_id":"cebpf4jnsgd1na2vs0mg"},{"bike_id":"87c7b988-57e8-4ef5-9b16-433c7953227b","system_id":"levelo_inurba_marseille","lat":43.3136,"lon":5.36711,"is_reserved":false,"is_disabled":false,"rental_uris":{"android":"levelo://app?vid=87c7b988-57e8-4ef5-9b16-433c7953227b","ios":"levelo://app?vid=87c7b988-57e8-4ef5-9b16-433c7953227b"},"vehicle_type_id":"4","last_reported":1761300706,"current_range_meters":20400,"station_id":"ce4bgr92rcd13ifvqc6g","pricing_plan_id":"cebpf4jnsgd1na2vs0mg"},{"bike_id":"b2e20cd2-c54c-4e77-b03f-069ffaf8b17b","system_id":"levelo_inurba_marseille","lat":43.21758,"lon":5.34599,"is_reserved":false,"is_disabled":false,"rental_uris":{"android":"levelo://app?vid=b2e20cd2-c54c-4e77-b03f-069ffaf8b17b","ios":"levelo://app?vid=b2e20cd2-c54c-4e77-b03f-069ffaf8b17b"},"vehicle_type_id":"4","last_reported":1761300706,"current_range_meters":20400,"station_id":"st_cvj6r9ubvosntc0bgbag","pricing_plan_id":"cebpf4jnsgd1na2vs0mg"},{"bike_id":"8c35a7e4-8378-4fdf-b42f-02e88b6199ca","system_id":"levelo_inurba_marseille","lat":43.32108,"lon":5.367597,"is_reserved":false,"is_disabled":false,"rental_uris":{"android":"levelo://app?vid=8c35a7e4-8378-4fdf-b42f-02e88b6199ca","ios":"levelo://app?vid=8c35a7e4-8378-4fdf-b42f-02e88b6199ca"},"vehicle_type_id":"4","last_reported":1761300706,"current_range_meters":20400,"station_id":"ce4bhrh2rcd13ifvqhug","pricing_plan_id":"cebpf4jnsgd1na2vs0mg"},{"bike_id":"842c2d22-5082-4835-8c20-8a4831e1b87a","system_id":"levelo_inurba_marseille","lat":43.273288,"lon":5.362952,"is_reserved":false,"is_disabled":false,"rental_uris":{"android":"levelo://app?vid=842c2d22-5082-4835-8c20-8a4831e1b87a","ios":"levelo://app?vid=842c2d22-5082-4835-8c20-8a4831e1b87a"},"vehicle_type_id":"4","last_reported":1761300706,"current_range_meters":20400,"station_id":"ce4bhbh2rcd13ifvqeo0","pricing_plan_id":"cebpf4jnsgd1na2vs0mg"},{"bike_id":"dab36927-4328-48fa-bffb-145a737de07e","system_id":"levelo_inurba_marseille","lat":43.307995,"lon":5.435333,"is_reserved":false,"is_disabled":true,"rental_uris":{"android":"levelo://app?vid=dab36927-4328-48fa-bffb-145a737de07e","ios":"levelo://app?vid=dab36927-4328-48fa-bffb-145a737de07e"},"vehicle_type_id":"4","last_reported":1761300706,"current_range_meters":20800,"station_id":"ce4bhph2rcd13ifvqheg","pricing_plan_id":"cebpf4jnsgd1na2vs0mg"},{"bike_id":"f0b4c55f-c2d5-42a8-892b-f121a18f9884","system_id":"levelo_inurba_marseille","lat":43.27308,"lon":5.39074,"is_reserved":false,"is_disabled":false,"rental_uris":{"android":"levelo://app?vid=f0b4c55f-c2d5-42a8-892b-f121a18f9884","ios":"levelo://app?vid=f0b4c55f-c2d5-42a8-892b-f121a18f9884"},"vehicle_type_id":"4","last_reported":1761300706,"current_range_meters":20800,"station_id":"ce4bhgp2rcd13ifvqfe0","pricing_plan_id":"cebpf4jnsgd1na2vs0mg"},{"bike_id":"a48b489a-127e-4aab-97a2-25cf37e655c9","system_id":"levelo_inurba_marseille","lat":43.309448,"lon":5.402848,"is_reserved":false,"is_disabled":false,"rental_uris":{"android":"levelo://app?vid=a48b489a-127e-4aab-97a2-25cf37e655c9","ios":"levelo://app?vid=a48b489a-127e-4aab-97a2-25cf37e655c9"},"vehicle_type_id":"4","last_reported":1761300706,"current_range_meters":20800,"station_id":"","pricing_plan_id":"cebpf4jnsgd1na2vs0mg"},{"bike_id":"73069b31-82a2-4124-9498-419aeff86536","system_id":"levelo_inurba_marseille","lat":43.25741,"lon":5.41109,"is_reserved":false,"is_disabled":false,"rental_uris":{"android":"levelo://app?vid=73069b31-82a2-4124-9498-419aeff86536","ios":"levelo://app?vid=73069b31-82a2-4124-9498-419aeff86536"},"vehicle_type_id":"4","last_reported":1761300706,"current_range_meters":20800,"station_id":"ce4bhkp2rcd13ifvqgd0","pricing_plan_id":"cebpf4jnsgd1na2vs0mg"},{"bike_id":"ab109533-1dd1-4f82-9834-f849d5187dfa","system_id":"levelo_inurba_marseille","lat":43.28073,"lon":5.39654,"is_reserved":false,"is_disabled":false,"rental_uris":{"android":"levelo://app?vid=ab109533-1dd1-4f82-9834-f849d5187dfa","ios":"levelo://app?vid=ab109533-1dd1-4f82-9834-f849d5187dfa"},"vehicle_type_id":"4","last_reported":1761300706,"current_range_meters":20800,"station_id":"ce4bho12rcd13ifvqh2g","pricing_plan_id":"cebpf4jnsgd1na2vs0mg"},{"bike_id":"4b336ac8-f146-4ba2-b0c6-7f5de28835f3","system_id":"levelo_inurba_marseille","lat":43.27949,"lon":5.41044,"is_reserved":false,"is_disabled":false,"rental_uris":{"android":"levelo://app?vid=4b336ac8-f146-4ba2-b0c6-7f5de28835f3","ios":"levelo://app?vid=4b336ac8-f146-4ba2-b0c6-7f5de28835f3"},"vehicle_type_id":"4","last_reported":1761300706,"current_range_meters":20800,"station_id":"ce4bhnp2rcd13ifvqh0g","pricing_plan_id":"cebpf4jnsgd1na2vs0mg"},{"bike_id":"80d3fb4f-fe0a-4b0d-8732-b2a1c3032140","system_id":"levelo_inurba_marseille","lat":43.28451,"lon":5.39188,"is_reserved":false,"is_disabled":false,"rental_uris":{"android":"levelo://app?vid=80d3fb4f-fe0a-4b0d-8732-b2a1c3032140","ios":"levelo://app?vid=80d3fb4f-fe0a-4b0d-8732-b2a1c3032140"},"vehicle_type_id":"4","last_reported":1761300706,"current_range_meters":21600,"station_id":"ce4bhoh2rcd13ifvqh5g","pricing_plan_id":"cebpf4jnsgd1na2vs0mg"},{"bike_id":"6bacdc39-a6db-441e-bad5-93433397050c","system_id":"levelo_inurba_marseille","lat":43.309426,"lon":5.390333,"is_reserved":false,"is_disabled":false,"rental_uris":{"android":"levelo://app?vid=6bacdc39-a6db-441e-bad5-93433397050c","ios":"levelo://app?vid=6bacdc39-a6db-441e-bad5-93433397050c"},"vehicle_type_id":"4","last_reported":1761300706,"current_range_meters":21600,"station_id":"ce4bgup2rcd13ifvqco0","pricing_plan_id":"cebpf4jnsgd1na2vs0mg"},{"bike_id":"c1a421f7-469d-400b-a25d-ae5b7ca452a1","system_id":"levelo_inurba_marseille","lat":43.298444,"lon":5.362776,"is_reserved":false,"is_disabled":false,"rental_uris":{"android":"levelo://app?vid=c1a421f7-469d-400b-a25d-ae5b7ca452a1","ios":"levelo://app?vid=c1a421f7-469d-400b-a25d-ae5b7ca452a1"},"vehicle_type_id":"4","last_reported":1761300706,"current_range_meters":21600,"station_id":"","pricing_plan_id":"cebpf4jnsgd1na2vs0mg"},{"bike_id":"36ef565d-595c-4fe5-832e-9069968fcd08","system_id":"levelo_inurba_marseille","lat":43.32518,"lon":5.41465,"is_reserved":false,"is_disabled":true,"rental_uris":{"android":"levelo://app?vid=36ef565d-595c-4fe5-832e-9069968fcd08","ios":"levelo://app?vid=36ef565d-595c-4fe5-832e-9069968fcd08"},"vehicle_type_id":"4","last_reported":1761300706,"current_range_meters":21600,"station_id":"ce4bhq12rcd13ifvqhhg","pricing_plan_id":"cebpf4jnsgd1na2vs0mg"},{"bike_id":"d662b0e9-17e6-4e1f-9935-ca01c0a994ea","system_id":"levelo_inurba_marseille","lat":43.225616,"lon":5.416219,"is_reserved":false,"is_disabled":false,"rental_uris":{"android":"levelo://app?vid=d662b0e9-17e6-4e1f-9935-ca01c0a994ea","ios":"levelo://app?vid=d662b0e9-17e6-4e1f-9935-ca01c0a994ea"},"vehicle_type_id":"4","last_reported":1761300706,"current_range_meters":21600,"station_id":"st_d2o4gvlbi1j2169b742g","pricing_plan_id":"cebpf4jnsgd1na2vs0mg"},{"bike_id":"77f156b0-4f05-4a6e-a513-c6806bf33878","system_id":"levelo_inurba_marseille","lat":43.30315,"lon":5.36892,"is_reserved":false,"is_disabled":false,"rental_uris":{"android":"levelo://app?vid=77f156b0-4f05-4a6e-a513-c6806bf33878","ios":"levelo://app?vid=77f156b0-4f05-4a6e-a513-c6806bf33878"},"vehicle_type_id":"4","last_reported":1761300706,"current_range_meters":21600,"station_id":"ce4bgqh2rcd13ifvqc5g","pricing_plan_id":"cebpf4jnsgd1na2vs0mg"},{"bike_id":"9dde16d9-b76f-4bc7-8122-96de160903fa","system_id":"levelo_inurba_marseille","lat":43.28526,"lon":5.44097,"is_reserved":false,"is_disabled":false,"rental_uris":{"android":"levelo://app?vid=9dde16d9-b76f-4bc7-8122-96de160903fa","ios":"levelo://app?vid=9dde16d9-b76f-4bc7-8122-96de160903fa"},"vehicle_type_id":"4","last_reported":1761300706,"current_range_meters":21600,"station_id":"st_d3j3df2ikq2c7380ej80","pricing_plan_id":"cebpf4jnsgd1na2vs0mg"},{"bike_id":"83ab2a02-9f34-4c75-bbcd-62c612d2d5f9","system_id":"levelo_inurba_marseille","lat":43.295801,"lon":5.375798,"is_reserved":false,"is_disabled":false,"rental_uris":{"android":"levelo://app?vid=83ab2a02-9f34-4c75-bbcd-62c612d2d5f9","ios":"levelo://app?vid=83ab2a02-9f34-4c75-bbcd-62c612d2d5f9"},"vehicle_type_id":"4","last_reported":1761300706,"current_range_meters":22000,"station_id":"ce4bgi92rcd13ifvqb90","pricing_plan_id":"cebpf4jnsgd1na2vs0mg"},{"bike_id":"4bf2aad4-ba18-40e9-8644-4c26e7f4069f","system_id":"levelo_inurba_marseille","lat":43.29214,"lon":5.36062,"is_reserved":false,"is_disabled":false,"rental_uris":{"android":"levelo://app?vid=4bf2aad4-ba18-40e9-8644-4c26e7f4069f","ios":"levelo://app?vid=4bf2aad4-ba18-40e9-8644-4c26e7f4069f"},"vehicle_type_id":"4","last_reported":1761300706,"current_range_meters":22000,"station_id":"ce4bhbh2rcd13ifvqeqg","pricing_plan_id":"cebpf4jnsgd1na2vs0mg"},{"bike_id":"62f0a2f8-d352-4580-a096-e8ce56ffccdb","system_id":"levelo_inurba_marseille","lat":43.32111,"lon":5.36746,"is_reserved":false,"is_disabled":false,"rental_uris":{"android":"levelo://app?vid=62f0a2f8-d352-4580-a096-e8ce56ffccdb","ios":"levelo://app?vid=62f0a2f8-d352-4580-a096-e8ce56ffccdb"},"vehicle_type_id":"4","last_reported":1761300706,"current_range_meters":22000,"station_id":"ce4bhrh2rcd13ifvqhug","pricing_plan_id":"cebpf4jnsgd1na2vs0mg"},{"bike_id":"857bb19d-4c41-4aba-a8b5-bff5a9650adc","system_id":"levelo_inurba_marseille","lat":43.22924,"lon":5.35379,"is_reserved":false,"is_disabled":false,"rental_uris":{"android":"levelo://app?vid=857bb19d-4c41-4aba-a8b5-bff5a9650adc","ios":"levelo://app?vid=857bb19d-4c41-4aba-a8b5-bff5a9650adc"},"vehicle_type_id":"4","last_reported":1761300706,"current_range_meters":22000,"station_id":"cpo3532slgdg3j2ikp40","pricing_plan_id":"cebpf4jnsgd1na2vs0mg"},{"bike_id":"1a70d9c3-47c6-4bf9-8f72-0245459fc374","system_id":"levelo_inurba_marseille","lat":43.21758,"lon":5.34611,"is_reserved":false,"is_disabled":false,"rental_uris":{"android":"levelo://app?vid=1a70d9c3-47c6-4bf9-8f72-0245459fc374","ios":"levelo://app?vid=1a70d9c3-47c6-4bf9-8f72-0245459fc374"},"vehicle_type_id":"4","last_reported":1761300706,"current_range_meters":22000,"station_id":"st_cvj6r9ubvosntc0bgbag","pricing_plan_id":"cebpf4jnsgd1na2vs0mg"},{"bike_id":"49edea08-de8c-4cb5-8fbc-b4c1c838dfc9","system_id":"levelo_inurba_marseille","lat":43.306002,"lon":5.366634,"is_reserved":false,"is_disabled":false,"rental_uris":{"android":"levelo://app?vid=49edea08-de8c-4cb5-8fbc-b4c1c838dfc9","ios":"levelo://app?vid=49edea08-de8c-4cb5-8fbc-b4c1c838dfc9"},"vehicle_type_id":"4","last_reported":1761300706,"current_range_meters":22000,"station_id":"","pricing_plan_id":"cebpf4jnsgd1na2vs0mg"},{"bike_id":"2e88e133-3eb5-4e5b-b44a-7ba8d339eff6","system_id":"levelo_inurba_marseille","lat":43.31193,"lon":5.36872,"is_reserved":false,"is_disabled":false,"rental_uris":{"android":"levelo://app?vid=2e88e133-3eb5-4e5b-b44a-7ba8d339eff6","ios":"levelo://app?vid=2e88e133-3eb5-4e5b-b44a-7ba8d339eff6"},"vehicle_type_id":"4","last_reported":1761300706,"current_range_meters":22000,"station_id":"ce4bgl92rcd13ifvqbq0","pricing_plan_id":"cebpf4jnsgd1na2vs0mg"},{"bike_id":"4c2cd850-f8be-4920-9c53-c224c5d6214b","system_id":"levelo_inurba_marseille","lat":43.278279,"lon":5.40724,"is_reserved":false,"is_disabled":false,"rental_uris":{"android":"levelo://app?vid=4c2cd850-f8be-4920-9c53-c224c5d6214b","ios":"levelo://app?vid=4c2cd850-f8be-4920-9c53-c224c5d6214b"},"vehicle_type_id":"4","last_reported":1761300706,"current_range_meters":22000,"station_id":"ce4bhnh2rcd13ifvqgtg","pricing_plan_id":"cebpf4jnsgd1na2vs0mg"},{"bike_id":"fbc51a66-9f5b-4793-bf47-376ff7c8c289","system_id":"levelo_inurba_marseille","lat":43.21192,"lon":5.35067,"is_reserved":false,"is_disabled":false,"rental_uris":{"android":"levelo://app?vid=fbc51a66-9f5b-4793-bf47-376ff7c8c289","ios":"levelo://app?vid=fbc51a66-9f5b-4793-bf47-376ff7c8c289"},"vehicle_type_id":"4","last_reported":1761300706,"current_range_meters":22000,"station_id":"st_cvj6sg6p6f1abm77japg","pricing_plan_id":"cebpf4jnsgd1na2vs0mg"},{"bike_id":"e94ff6cb-0105-416f-a6ff-182f9765cb79","system_id":"levelo_inurba_marseille","lat":43.2709,"lon":5.42301,"is_reserved":false,"is_disabled":false,"rental_uris":{"android":"levelo://app?vid=e94ff6cb-0105-416f-a6ff-182f9765cb79","ios":"levelo://app?vid=e94ff6cb-0105-416f-a6ff-182f9765cb79"},"vehicle_type_id":"4","last_reported":1761300706,"current_range_meters":22000,"station_id":"ce4bhk92rcd13ifvqgb0","pricing_plan_id":"cebpf4jnsgd1na2vs0mg"},{"bike_id":"29b38a45-3e07-40c1-b8b1-5f85b487711f","system_id":"levelo_inurba_marseille","lat":43.3125,"lon":5.404092,"is_reserved":false,"is_disabled":false,"rental_uris":{"android":"levelo://app?vid=29b38a45-3e07-40c1-b8b1-5f85b487711f","ios":"levelo://app?vid=29b38a45-3e07-40c1-b8b1-5f85b487711f"},"vehicle_type_id":"4","last_reported":1761300706,"current_range_meters":22400,"station_id":"","pricing_plan_id":"cebpf4jnsgd1na2vs0mg"},{"bike_id":"0144bdf2-84a6-45ad-976a-ea6fd3101d41","system_id":"levelo_inurba_marseille","lat":43.32089,"lon":5.36779,"is_reserved":false,"is_disabled":false,"rental_uris":{"android":"levelo://app?vid=0144bdf2-84a6-45ad-976a-ea6fd3101d41","ios":"levelo://app?vid=0144bdf2-84a6-45ad-976a-ea6fd3101d41"},"vehicle_type_id":"4","last_reported":1761300706,"current_range_meters":22400,"station_id":"ce4bhrh2rcd13ifvqhug","pricing_plan_id":"cebpf4jnsgd1na2vs0mg"},{"bike_id":"875af547-cfd6-4670-9df8-3028f8a67393","system_id":"levelo_inurba_marseille","lat":43.298925,"lon":5.436656,"is_reserved":false,"is_disabled":false,"rental_uris":{"android":"levelo://app?vid=875af547-cfd6-4670-9df8-3028f8a67393","ios":"levelo://app?vid=875af547-cfd6-4670-9df8-3028f8a67393"},"vehicle_type_id":"4","last_reported":1761300706,"current_range_meters":22400,"station_id":"ce4bhpp2rcd13ifvqhfg","pricing_plan_id":"cebpf4jnsgd1na2vs0mg"},{"bike_id":"5f4aa766-6adb-4fd7-9066-d9225dfcab30","system_id":"levelo_inurba_marseille","lat":43.29603,"lon":5.37725,"is_reserved":false,"is_disabled":false,"rental_uris":{"android":"levelo://app?vid=5f4aa766-6adb-4fd7-9066-d9225dfcab30","ios":"levelo://app?vid=5f4aa766-6adb-4fd7-9066-d9225dfcab30"},"vehicle_type_id":"4","last_reported":1761300706,"current_range_meters":22400,"station_id":"ce4bgi92rcd13ifvqb90","pricing_plan_id":"cebpf4jnsgd1na2vs0mg"},{"bike_id":"8c79808f-de07-4487-9bf6-6415f01758a5","system_id":"levelo_inurba_marseille","lat":43.282644,"lon":5.350577,"is_reserved":false,"is_disabled":false,"rental_uris":{"android":"levelo://app?vid=8c79808f-de07-4487-9bf6-6415f01758a5","ios":"levelo://app?vid=8c79808f-de07-4487-9bf6-6415f01758a5"},"vehicle_type_id":"4","last_reported":1761300706,"current_range_meters":22400,"station_id":"ce4bhbp2rcd13ifvqerg","pricing_plan_id":"cebpf4jnsgd1na2vs0mg"},{"bike_id":"c0b81f28-bbba-4247-a74b-c55a34b31846","system_id":"levelo_inurba_marseille","lat":43.33258,"lon":5.41086,"is_reserved":false,"is_disabled":false,"rental_uris":{"android":"levelo://app?vid=c0b81f28-bbba-4247-a74b-c55a34b31846","ios":"levelo://app?vid=c0b81f28-bbba-4247-a74b-c55a34b31846"},"vehicle_type_id":"4","last_reported":1761300706,"current_range_meters":22800,"station_id":"","pricing_plan_id":"cebpf4jnsgd1na2vs0mg"},{"bike_id":"f1241289-c0fd-41da-b516-5b1a7409203b","system_id":"levelo_inurba_marseille","lat":43.23145,"lon":5.43725,"is_reserved":false,"is_disabled":false,"rental_uris":{"android":"levelo://app?vid=f1241289-c0fd-41da-b516-5b1a7409203b","ios":"levelo://app?vid=f1241289-c0fd-41da-b516-5b1a7409203b"},"vehicle_type_id":"4","last_reported":1761300706,"current_range_meters":22800,"station_id":"ce4bhmp2rcd13ifvqgog","pricing_plan_id":"cebpf4jnsgd1na2vs0mg"},{"bike_id":"f3817190-10b1-4cd7-98d8-77cc6966185e","system_id":"levelo_inurba_marseille","lat":43.230454,"lon":5.354998,"is_reserved":false,"is_disabled":false,"rental_uris":{"android":"levelo://app?vid=f3817190-10b1-4cd7-98d8-77cc6966185e","ios":"levelo://app?vid=f3817190-10b1-4cd7-98d8-77cc6966185e"},"vehicle_type_id":"4","last_reported":1761300706,"current_range_meters":22800,"station_id":"cpo3342slgdg3j2ifvpg","pricing_plan_id":"cebpf4jnsgd1na2vs0mg"},{"bike_id":"4beb434e-50dd-449c-ae5d-1e5a1c0c3659","system_id":"levelo_inurba_marseille","lat":43.31111,"lon":5.37763,"is_reserved":false,"is_disabled":false,"rental_uris":{"android":"levelo://app?vid=4beb434e-50dd-449c-ae5d-1e5a1c0c3659","ios":"levelo://app?vid=4beb434e-50dd-449c-ae5d-1e5a1c0c3659"},"vehicle_type_id":"4","last_reported":1761300706,"current_range_meters":22800,"station_id":"ce4bgt92rcd13ifvqcg0","pricing_plan_id":"cebpf4jnsgd1na2vs0mg"},{"bike_id":"a420fe42-d929-4f02-8db6-f1518becc2c4","system_id":"levelo_inurba_marseille","lat":43.231999,"lon":5.355696,"is_reserved":false,"is_disabled":false,"rental_uris":{"android":"levelo://app?vid=a420fe42-d929-4f02-8db6-f1518becc2c4","ios":"levelo://app?vid=a420fe42-d929-4f02-8db6-f1518becc2c4"},"vehicle_type_id":"4","last_reported":1761300706,"current_range_meters":22800,"station_id":"ce4bhu92rcd13ifvqi70","pricing_plan_id":"cebpf4jnsgd1na2vs0mg"},{"bike_id":"b35c15b2-9e99-4c8b-bf46-88aa17742bb0","system_id":"levelo_inurba_marseille","lat":43.26061,"lon":5.39397,"is_reserved":false,"is_disabled":false,"rental_uris":{"android":"levelo://app?vid=b35c15b2-9e99-4c8b-bf46-88aa17742bb0","ios":"levelo://app?vid=b35c15b2-9e99-4c8b-bf46-88aa17742bb0"},"vehicle_type_id":"4","last_reported":1761300706,"current_range_meters":22800,"station_id":"ce4bhh92rcd13ifvqfj0","pricing_plan_id":"cebpf4jnsgd1na2vs0mg"},{"bike_id":"520e87b0-e363-422d-b00e-f45377f2d4a3","system_id":"levelo_inurba_marseille","lat":43.29588,"lon":5.37511,"is_reserved":false,"is_disabled":false,"rental_uris":{"android":"levelo://app?vid=520e87b0-e363-422d-b00e-f45377f2d4a3","ios":"levelo://app?vid=520e87b0-e363-422d-b00e-f45377f2d4a3"},"vehicle_type_id":"4","last_reported":1761300706,"current_range_meters":22800,"station_id":"ce4bgh92rcd13ifvqb50","pricing_plan_id":"cebpf4jnsgd1na2vs0mg"},{"bike_id":"65f25d26-94b3-4f6f-8c12-82b7c33f4a10","system_id":"levelo_inurba_marseille","lat":43.2871,"lon":5.37381,"is_reserved":false,"is_disabled":false,"rental_uris":{"android":"levelo://app?vid=65f25d26-94b3-4f6f-8c12-82b7c33f4a10","ios":"levelo://app?vid=65f25d26-94b3-4f6f-8c12-82b7c33f4a10"},"vehicle_type_id":"4","last_reported":1761300706,"current_range_meters":22800,"station_id":"ce4bh3p2rcd13ifvqdq0","pricing_plan_id":"cebpf4jnsgd1na2vs0mg"},{"bike_id":"117ebb32-de20-4083-a87c-3c910d7c9eb2","system_id":"levelo_inurba_marseille","lat":43.33615,"lon":5.4104,"is_reserved":false,"is_disabled":false,"rental_uris":{"android":"levelo://app?vid=117ebb32-de20-4083-a87c-3c910d7c9eb2","ios":"levelo://app?vid=117ebb32-de20-4083-a87c-3c910d7c9eb2"},"vehicle_type_id":"4","last_reported":1761300706,"current_range_meters":22800,"station_id":"ce4bhqh2rcd13ifvqhmg","pricing_plan_id":"cebpf4jnsgd1na2vs0mg"},{"bike_id":"8b568fab-e273-49f6-bdca-e47680ec431f","system_id":"levelo_inurba_marseille","lat":43.337673,"lon":5.374312,"is_reserved":false,"is_disabled":false,"rental_uris":{"android":"levelo://app?vid=8b568fab-e273-49f6-bdca-e47680ec431f","ios":"levelo://app?vid=8b568fab-e273-49f6-bdca-e47680ec431f"},"vehicle_type_id":"4","last_reported":1761300706,"current_range_meters":23200,"station_id":"","pricing_plan_id":"cebpf4jnsgd1na2vs0mg"},{"bike_id":"0fcb0426-41f3-44a2-8992-71665c2db5d7","system_id":"levelo_inurba_marseille","lat":43.29973,"lon":5.37173,"is_reserved":false,"is_disabled":false,"rental_uris":{"android":"levelo://app?vid=0fcb0426-41f3-44a2-8992-71665c2db5d7","ios":"levelo://app?vid=0fcb0426-41f3-44a2-8992-71665c2db5d7"},"vehicle_type_id":"4","last_reported":1761300706,"current_range_meters":23200,"station_id":"ce4bgr92rcd13ifvqc7g","pricing_plan_id":"cebpf4jnsgd1na2vs0mg"},{"bike_id":"294a3f34-361b-4c46-9333-ce2708bba8b2","system_id":"levelo_inurba_marseille","lat":43.317214,"lon":5.369489,"is_reserved":false,"is_disabled":false,"rental_uris":{"android":"levelo://app?vid=294a3f34-361b-4c46-9333-ce2708bba8b2","ios":"levelo://app?vid=294a3f34-361b-4c46-9333-ce2708bba8b2"},"vehicle_type_id":"4","last_reported":1761300706,"current_range_meters":23200,"station_id":"","pricing_plan_id":"cebpf4jnsgd1na2vs0mg"},{"bike_id":"19a42212-7e34-434d-9d35-c1a6b4a1b551","system_id":"levelo_inurba_marseille","lat":43.32281,"lon":5.38271,"is_reserved":false,"is_disabled":false,"rental_uris":{"android":"levelo://app?vid=19a42212-7e34-434d-9d35-c1a6b4a1b551","ios":"levelo://app?vid=19a42212-7e34-434d-9d35-c1a6b4a1b551"},"vehicle_type_id":"4","last_reported":1761300706,"current_range_meters":23200,"station_id":"ce4bhr12rcd13ifvqhqg","pricing_plan_id":"cebpf4jnsgd1na2vs0mg"},{"bike_id":"009173c8-e9df-4a97-939a-a05a9e74fb7e","system_id":"levelo_inurba_marseille","lat":43.28459,"lon":5.35895,"is_reserved":false,"is_disabled":false,"rental_uris":{"android":"levelo://app?vid=009173c8-e9df-4a97-939a-a05a9e74fb7e","ios":"levelo://app?vid=009173c8-e9df-4a97-939a-a05a9e74fb7e"},"vehicle_type_id":"4","last_reported":1761300706,"current_range_meters":23200,"station_id":"ce4bhah2rcd13ifvqei0","pricing_plan_id":"cebpf4jnsgd1na2vs0mg"},{"bike_id":"b47dba2b-98e9-4034-a853-22c9cb68974c","system_id":"levelo_inurba_marseille","lat":43.23153,"lon":5.43708,"is_reserved":false,"is_disabled":false,"rental_uris":{"android":"levelo://app?vid=b47dba2b-98e9-4034-a853-22c9cb68974c","ios":"levelo://app?vid=b47dba2b-98e9-4034-a853-22c9cb68974c"},"vehicle_type_id":"4","last_reported":1761300706,"current_range_meters":23200,"station_id":"ce4bhmp2rcd13ifvqgog","pricing_plan_id":"cebpf4jnsgd1na2vs0mg"},{"bike_id":"e666f0c7-f732-4f26-ba4c-52ef8cec6911","system_id":"levelo_inurba_marseille","lat":43.2921,"lon":5.36019,"is_reserved":false,"is_disabled":false,"rental_uris":{"android":"levelo://app?vid=e666f0c7-f732-4f26-ba4c-52ef8cec6911","ios":"levelo://app?vid=e666f0c7-f732-4f26-ba4c-52ef8cec6911"},"vehicle_type_id":"4","last_reported":1761300706,"current_range_meters":24000,"station_id":"ce4bhbh2rcd13ifvqeqg","pricing_plan_id":"cebpf4jnsgd1na2vs0mg"},{"bike_id":"a92c7415-09fe-4e7c-bae5-c755f5ae93d7","system_id":"levelo_inurba_marseille","lat":43.307415,"lon":5.424415,"is_reserved":false,"is_disabled":false,"rental_uris":{"android":"levelo://app?vid=a92c7415-09fe-4e7c-bae5-c755f5ae93d7","ios":"levelo://app?vid=a92c7415-09fe-4e7c-bae5-c755f5ae93d7"},"vehicle_type_id":"4","last_reported":1761300706,"current_range_meters":24000,"station_id":"st_cvj6ca6bvosntc0bfgr0","pricing_plan_id":"cebpf4jnsgd1na2vs0mg"},{"bike_id":"b1ac5b4c-9e25-4637-a88a-8f4207a3be8c","system_id":"levelo_inurba_marseille","lat":43.30232,"lon":5.38161,"is_reserved":false,"is_disabled":false,"rental_uris":{"android":"levelo://app?vid=b1ac5b4c-9e25-4637-a88a-8f4207a3be8c","ios":"levelo://app?vid=b1ac5b4c-9e25-4637-a88a-8f4207a3be8c"},"vehicle_type_id":"4","last_reported":1761300706,"current_range_meters":24000,"station_id":"","pricing_plan_id":"cebpf4jnsgd1na2vs0mg"},{"bike_id":"55e3b968-e4bf-492a-862d-3075e6a79a88","system_id":"levelo_inurba_marseille","lat":43.29495,"lon":5.43302,"is_reserved":false,"is_disabled":false,"rental_uris":{"android":"levelo://app?vid=55e3b968-e4bf-492a-862d-3075e6a79a88","ios":"levelo://app?vid=55e3b968-e4bf-492a-862d-3075e6a79a88"},"vehicle_type_id":"4","last_reported":1761300706,"current_range_meters":24000,"station_id":"st_d3j5ugp08ojc73fj9d10","pricing_plan_id":"cebpf4jnsgd1na2vs0mg"},{"bike_id":"7fbfc668-fa77-4906-9d21-ed3049f5db30","system_id":"levelo_inurba_marseille","lat":43.305387,"lon":5.36707,"is_reserved":false,"is_disabled":false,"rental_uris":{"android":"levelo://app?vid=7fbfc668-fa77-4906-9d21-ed3049f5db30","ios":"levelo://app?vid=7fbfc668-fa77-4906-9d21-ed3049f5db30"},"vehicle_type_id":"4","last_reported":1761300706,"current_range_meters":24400,"station_id":"ce4bgrp2rcd13ifvqc9g","pricing_plan_id":"cebpf4jnsgd1na2vs0mg"},{"bike_id":"fb439073-ae41-4ba2-8fad-63fcd024e1e9","system_id":"levelo_inurba_marseille","lat":43.27915,"lon":5.38017,"is_reserved":false,"is_disabled":false,"rental_uris":{"android":"levelo://app?vid=fb439073-ae41-4ba2-8fad-63fcd024e1e9","ios":"levelo://app?vid=fb439073-ae41-4ba2-8fad-63fcd024e1e9"},"vehicle_type_id":"4","last_reported":1761300706,"current_range_meters":24400,"station_id":"ce4bhf92rcd13ifvqf50","pricing_plan_id":"cebpf4jnsgd1na2vs0mg"},{"bike_id":"06cbd031-05db-4aff-9360-6a80e3d822f0","system_id":"levelo_inurba_marseille","lat":43.2707,"lon":5.42274,"is_reserved":false,"is_disabled":false,"rental_uris":{"android":"levelo://app?vid=06cbd031-05db-4aff-9360-6a80e3d822f0","ios":"levelo://app?vid=06cbd031-05db-4aff-9360-6a80e3d822f0"},"vehicle_type_id":"4","last_reported":1761300706,"current_range_meters":24400,"station_id":"ce4bhk92rcd13ifvqgb0","pricing_plan_id":"cebpf4jnsgd1na2vs0mg"},{"bike_id":"89c6cdb7-19dc-4f29-beb2-b0dd64318489","system_id":"levelo_inurba_marseille","lat":43.30188,"lon":5.36626,"is_reserved":false,"is_disabled":false,"rental_uris":{"android":"levelo://app?vid=89c6cdb7-19dc-4f29-beb2-b0dd64318489","ios":"levelo://app?vid=89c6cdb7-19dc-4f29-beb2-b0dd64318489"},"vehicle_type_id":"4","last_reported":1761300706,"current_range_meters":24400,"station_id":"ce4bgrh2rcd13ifvqc8g","pricing_plan_id":"cebpf4jnsgd1na2vs0mg"},{"bike_id":"9c784ae4-64ff-41b5-a9c8-03b16a302d99","system_id":"levelo_inurba_marseille","lat":43.30122,"lon":5.43118,"is_reserved":false,"is_disabled":false,"rental_uris":{"android":"levelo://app?vid=9c784ae4-64ff-41b5-a9c8-03b16a302d99","ios":"levelo://app?vid=9c784ae4-64ff-41b5-a9c8-03b16a302d99"},"vehicle_type_id":"4","last_reported":1761300706,"current_range_meters":24400,"station_id":"st_d3js3co5814s73ftftug","pricing_plan_id":"cebpf4jnsgd1na2vs0mg"},{"bike_id":"82c54f9e-bcd7-4c6d-9b18-44ec0fadd322","system_id":"levelo_inurba_marseille","lat":43.3157,"lon":5.38437,"is_reserved":false,"is_disabled":false,"rental_uris":{"android":"levelo://app?vid=82c54f9e-bcd7-4c6d-9b18-44ec0fadd322","ios":"levelo://app?vid=82c54f9e-bcd7-4c6d-9b18-44ec0fadd322"},"vehicle_type_id":"4","last_reported":1761300706,"current_range_meters":24400,"station_id":"","pricing_plan_id":"cebpf4jnsgd1na2vs0mg"},{"bike_id":"093d4d8b-108c-460b-a1e0-01ffb14d801e","system_id":"levelo_inurba_marseille","lat":43.28417,"lon":5.37515,"is_reserved":false,"is_disabled":false,"rental_uris":{"android":"levelo://app?vid=093d4d8b-108c-460b-a1e0-01ffb14d801e","ios":"levelo://app?vid=093d4d8b-108c-460b-a1e0-01ffb14d801e"},"vehicle_type_id":"4","last_reported":1761300706,"current_range_meters":24400,"station_id":"ce4bh412rcd13ifvqds0","pricing_plan_id":"cebpf4jnsgd1na2vs0mg"},{"bike_id":"a9cbeee8-50d4-4c44-86d3-cbf7448bc618","system_id":"levelo_inurba_marseille","lat":43.31382,"lon":5.37973,"is_reserved":false,"is_disabled":false,"rental_uris":{"android":"levelo://app?vid=a9cbeee8-50d4-4c44-86d3-cbf7448bc618","ios":"levelo://app?vid=a9cbeee8-50d4-4c44-86d3-cbf7448bc618"},"vehicle_type_id":"4","last_reported":1761300706,"current_range_meters":24400,"station_id":"","pricing_plan_id":"cebpf4jnsgd1na2vs0mg"},{"bike_id":"218c6e0a-6fdf-41f2-9f9c-52da1cbef58a","system_id":"levelo_inurba_marseille","lat":43.323648,"lon":5.367579,"is_reserved":false,"is_disabled":false,"rental_uris":{"android":"levelo://app?vid=218c6e0a-6fdf-41f2-9f9c-52da1cbef58a","ios":"levelo://app?vid=218c6e0a-6fdf-41f2-9f9c-52da1cbef58a"},"vehicle_type_id":"4","last_reported":1761300706,"current_range_meters":24400,"station_id":"ce4bhsh2rcd13ifvqi2g","pricing_plan_id":"cebpf4jnsgd1na2vs0mg"},{"bike_id":"e14fc342-b742-4c72-9719-5c4a8ac7a4cf","system_id":"levelo_inurba_marseille","lat":43.299072,"lon":5.436625,"is_reserved":false,"is_disabled":false,"rental_uris":{"android":"levelo://app?vid=e14fc342-b742-4c72-9719-5c4a8ac7a4cf","ios":"levelo://app?vid=e14fc342-b742-4c72-9719-5c4a8ac7a4cf"},"vehicle_type_id":"4","last_reported":1761300706,"current_range_meters":24400,"station_id":"ce4bhpp2rcd13ifvqhfg","pricing_plan_id":"cebpf4jnsgd1na2vs0mg"},{"bike_id":"84ed58f0-f29d-4b16-8759-5364042079cf","system_id":"levelo_inurba_marseille","lat":43.21188,"lon":5.35063,"is_reserved":false,"is_disabled":false,"rental_uris":{"android":"levelo://app?vid=84ed58f0-f29d-4b16-8759-5364042079cf","ios":"levelo://app?vid=84ed58f0-f29d-4b16-8759-5364042079cf"},"vehicle_type_id":"4","last_reported":1761300706,"current_range_meters":24400,"station_id":"st_cvj6sg6p6f1abm77japg","pricing_plan_id":"cebpf4jnsgd1na2vs0mg"},{"bike_id":"051a187a-19c0-4569-931a-8706a67952fc","system_id":"levelo_inurba_marseille","lat":43.28417,"lon":5.37513,"is_reserved":false,"is_disabled":false,"rental_uris":{"android":"levelo://app?vid=051a187a-19c0-4569-931a-8706a67952fc","ios":"levelo://app?vid=051a187a-19c0-4569-931a-8706a67952fc"},"vehicle_type_id":"4","last_reported":1761300706,"current_range_meters":24400,"station_id":"ce4bh412rcd13ifvqds0","pricing_plan_id":"cebpf4jnsgd1na2vs0mg"},{"bike_id":"fc74c03f-6810-4b94-8149-477bae3888a5","system_id":"levelo_inurba_marseille","lat":43.298185,"lon":5.440662,"is_reserved":false,"is_disabled":false,"rental_uris":{"android":"levelo://app?vid=fc74c03f-6810-4b94-8149-477bae3888a5","ios":"levelo://app?vid=fc74c03f-6810-4b94-8149-477bae3888a5"},"vehicle_type_id":"4","last_reported":1761300706,"current_range_meters":24800,"station_id":"st_d3jp68qikq2c7381ktn0","pricing_plan_id":"cebpf4jnsgd1na2vs0mg"},{"bike_id":"b78e1472-85d2-491a-a067-151f72bec03b","system_id":"levelo_inurba_marseille","lat":43.28264,"lon":5.35056,"is_reserved":false,"is_disabled":false,"rental_uris":{"android":"levelo://app?vid=b78e1472-85d2-491a-a067-151f72bec03b","ios":"levelo://app?vid=b78e1472-85d2-491a-a067-151f72bec03b"},"vehicle_type_id":"4","last_reported":1761300706,"current_range_meters":24800,"station_id":"ce4bhbp2rcd13ifvqerg","pricing_plan_id":"cebpf4jnsgd1na2vs0mg"},{"bike_id":"7eb022a6-4096-41f8-85cd-5ee0a4d1a3b2","system_id":"levelo_inurba_marseille","lat":43.31706,"lon":5.40422,"is_reserved":false,"is_disabled":true,"rental_uris":{"android":"levelo://app?vid=7eb022a6-4096-41f8-85cd-5ee0a4d1a3b2","ios":"levelo://app?vid=7eb022a6-4096-41f8-85cd-5ee0a4d1a3b2"},"vehicle_type_id":"4","last_reported":1761300706,"current_range_meters":24800,"station_id":"ce4bh012rcd13ifvqd00","pricing_plan_id":"cebpf4jnsgd1na2vs0mg"},{"bike_id":"640ff346-3935-4c0f-970b-35bc77fb8838","system_id":"levelo_inurba_marseille","lat":43.30186,"lon":5.36623,"is_reserved":false,"is_disabled":false,"rental_uris":{"android":"levelo://app?vid=640ff346-3935-4c0f-970b-35bc77fb8838","ios":"levelo://app?vid=640ff346-3935-4c0f-970b-35bc77fb8838"},"vehicle_type_id":"4","last_reported":1761300706,"current_range_meters":24800,"station_id":"ce4bgrh2rcd13ifvqc8g","pricing_plan_id":"cebpf4jnsgd1na2vs0mg"},{"bike_id":"ab9a029f-0460-4681-b94f-38b5fb115c0c","system_id":"levelo_inurba_marseille","lat":43.31726,"lon":5.42394,"is_reserved":false,"is_disabled":false,"rental_uris":{"android":"levelo://app?vid=ab9a029f-0460-4681-b94f-38b5fb115c0c","ios":"levelo://app?vid=ab9a029f-0460-4681-b94f-38b5fb115c0c"},"vehicle_type_id":"4","last_reported":1761300706,"current_range_meters":24800,"station_id":"ce4bhp92rcd13ifvqhbg","pricing_plan_id":"cebpf4jnsgd1na2vs0mg"},{"bike_id":"f70bf5c9-5cc3-47b1-a53c-c22cd5ab71fb","system_id":"levelo_inurba_marseille","lat":43.2587,"lon":5.39891,"is_reserved":false,"is_disabled":false,"rental_uris":{"android":"levelo://app?vid=f70bf5c9-5cc3-47b1-a53c-c22cd5ab71fb","ios":"levelo://app?vid=f70bf5c9-5cc3-47b1-a53c-c22cd5ab71fb"},"vehicle_type_id":"4","last_reported":1761300706,"current_range_meters":24800,"station_id":"ce4bhl92rcd13ifvqghg","pricing_plan_id":"cebpf4jnsgd1na2vs0mg"},{"bike_id":"397dc106-bed8-4e26-9fb1-9016ca322e85","system_id":"levelo_inurba_marseille","lat":43.25748,"lon":5.41094,"is_reserved":false,"is_disabled":false,"rental_uris":{"android":"levelo://app?vid=397dc106-bed8-4e26-9fb1-9016ca322e85","ios":"levelo://app?vid=397dc106-bed8-4e26-9fb1-9016ca322e85"},"vehicle_type_id":"4","last_reported":1761300706,"current_range_meters":24800,"station_id":"ce4bhkp2rcd13ifvqgd0","pricing_plan_id":"cebpf4jnsgd1na2vs0mg"},{"bike_id":"a85ff1cc-f1be-4501-a39d-20108ae56513","system_id":"levelo_inurba_marseille","lat":43.29585,"lon":5.36729,"is_reserved":false,"is_disabled":false,"rental_uris":{"android":"levelo://app?vid=a85ff1cc-f1be-4501-a39d-20108ae56513","ios":"levelo://app?vid=a85ff1cc-f1be-4501-a39d-20108ae56513"},"vehicle_type_id":"4","last_reported":1761300706,"current_range_meters":24800,"station_id":"ce4bgph2rcd13ifvqc2g","pricing_plan_id":"cebpf4jnsgd1na2vs0mg"},{"bike_id":"c02b5924-e15a-4070-aa27-9060f9a7a39f","system_id":"levelo_inurba_marseille","lat":43.25721,"lon":5.41108,"is_reserved":false,"is_disabled":false,"rental_uris":{"android":"levelo://app?vid=c02b5924-e15a-4070-aa27-9060f9a7a39f","ios":"levelo://app?vid=c02b5924-e15a-4070-aa27-9060f9a7a39f"},"vehicle_type_id":"4","last_reported":1761300706,"current_range_meters":24800,"station_id":"ce4bhkp2rcd13ifvqgd0","pricing_plan_id":"cebpf4jnsgd1na2vs0mg"},{"bike_id":"a0b035c9-040e-4f49-9e38-5981ffb2d33e","system_id":"levelo_inurba_marseille","lat":43.25933,"lon":5.40895,"is_reserved":false,"is_disabled":false,"rental_uris":{"android":"levelo://app?vid=a0b035c9-040e-4f49-9e38-5981ffb2d33e","ios":"levelo://app?vid=a0b035c9-040e-4f49-9e38-5981ffb2d33e"},"vehicle_type_id":"4","last_reported":1761300706,"current_range_meters":25200,"station_id":"ce4bhm92rcd13ifvqglg","pricing_plan_id":"cebpf4jnsgd1na2vs0mg"},{"bike_id":"66a31af8-a701-4d67-afe8-092e4010388e","system_id":"levelo_inurba_marseille","lat":43.27335,"lon":5.39132,"is_reserved":false,"is_disabled":false,"rental_uris":{"android":"levelo://app?vid=66a31af8-a701-4d67-afe8-092e4010388e","ios":"levelo://app?vid=66a31af8-a701-4d67-afe8-092e4010388e"},"vehicle_type_id":"4","last_reported":1761300706,"current_range_meters":25200,"station_id":"","pricing_plan_id":"cebpf4jnsgd1na2vs0mg"},{"bike_id":"6fd97e9c-cd76-44f4-b6e6-d0fb543e9348","system_id":"levelo_inurba_marseille","lat":43.27935,"lon":5.41037,"is_reserved":false,"is_disabled":false,"rental_uris":{"android":"levelo://app?vid=6fd97e9c-cd76-44f4-b6e6-d0fb543e9348","ios":"levelo://app?vid=6fd97e9c-cd76-44f4-b6e6-d0fb543e9348"},"vehicle_type_id":"4","last_reported":1761300706,"current_range_meters":25200,"station_id":"ce4bhnp2rcd13ifvqh0g","pricing_plan_id":"cebpf4jnsgd1na2vs0mg"},{"bike_id":"3a4aba60-2ebb-411a-9c35-02a803443518","system_id":"levelo_inurba_marseille","lat":43.281056,"lon":5.425884,"is_reserved":false,"is_disabled":false,"rental_uris":{"android":"levelo://app?vid=3a4aba60-2ebb-411a-9c35-02a803443518","ios":"levelo://app?vid=3a4aba60-2ebb-411a-9c35-02a803443518"},"vehicle_type_id":"4","last_reported":1761300706,"current_range_meters":25200,"station_id":"ce4bhnh2rcd13ifvqgug","pricing_plan_id":"cebpf4jnsgd1na2vs0mg"},{"bike_id":"8cf3d266-7678-481d-b3c0-8ab4b0997df5","system_id":"levelo_inurba_marseille","lat":43.30454,"lon":5.41341,"is_reserved":false,"is_disabled":false,"rental_uris":{"android":"levelo://app?vid=8cf3d266-7678-481d-b3c0-8ab4b0997df5","ios":"levelo://app?vid=8cf3d266-7678-481d-b3c0-8ab4b0997df5"},"vehicle_type_id":"4","last_reported":1761300706,"current_range_meters":25200,"station_id":"","pricing_plan_id":"cebpf4jnsgd1na2vs0mg"},{"bike_id":"10ac50b9-2d67-443a-9289-fa58ef61e2bd","system_id":"levelo_inurba_marseille","lat":43.31297,"lon":5.36705,"is_reserved":false,"is_disabled":false,"rental_uris":{"android":"levelo://app?vid=10ac50b9-2d67-443a-9289-fa58ef61e2bd","ios":"levelo://app?vid=10ac50b9-2d67-443a-9289-fa58ef61e2bd"},"vehicle_type_id":"4","last_reported":1761300706,"current_range_meters":25200,"station_id":"ce4bgr92rcd13ifvqc6g","pricing_plan_id":"cebpf4jnsgd1na2vs0mg"},