{"last_updated":1742728100,"ttl":60,"version":"2.2","data":{"bikes":[{"bike_id":"8e7e5e10-1922-4139-9d55-4dbbda468f82","system_id":"levelo_inurba_marseille","lat":43.24806,"lon":5.37464,"is_reserved":false,"is_disabled":false,"rental_uris":{"android":"levelo://app?vid=8e7e5e10-1922-4139-9d55-4dbbda468f82","ios":"levelo://app?vid=8e7e5e10-1922-4139-9d55-4dbbda468f82"},"vehicle_type_id":"4","last_reported":1742728100,"current_range_meters":2800,"station_id":"ce4bhgh2rcd13ifvqfb0","pricing_plan_id":"cebpf4jnsgd1na2vs0mg"},{"bike_id":"7675052c-8b1d-4bff-abdb-ec2cda54a591","system_id":"levelo_inurba_marseille","lat":43.24389,"lon":5.37068,"is_reserved":false,"is_disabled":false,"rental_uris":{"android":"levelo://app?vid=7675052c-8b1d-4bff-abdb-ec2cda54a591","ios":"levelo://app?vid=7675052c-8b1d-4bff-abdb-ec2cda54a591"},"vehicle_type_id":"4","last_reported":1742728100,"current_range_meters":2800,"station_id":"ce4bhhh2rcd13ifvqfk0","pricing_plan_id":"cebpf4jnsgd1na2vs0mg"},{"bike_id":"a564807e-5bd6-4a71-b02f-5054fff067f9","system_id":"levelo_inurba_marseille","lat":43.24695,"lon":5.38161,"is_reserved":false,"is_disabled":false,"rental_uris":{"android":"levelo://app?vid=a564807e-5bd6-4a71-b02f-5054fff067f9","ios":"levelo://app?vid=a564807e-5bd6-4a71-b02f-5054fff067f9"},"vehicle_type_id":"4","last_reported":1742728100,"current_range_meters":2800,"station_id":"ce4bhih2rcd13ifvqfr0","pricing_plan_id":"cebpf4jnsgd1na2vs0mg"},{"bike_id":"1f09be83-0144-4fb3-9c55-d1d2509f3d23","system_id":"levelo_inurba_marseille","lat":43.28417,"lon":5.37527,"is_reserved":false,"is_disabled":false,"rental_uris":{"android":"levelo://app?vid=1f09be83-0144-4fb3-9c55-d1d2509f3d23","ios":"levelo://app?vid=1f09be83-0144-4fb3-9c55-d1d2509f3d23"},"vehicle_type_id":"4","last_reported":1742728100,"current_range_meters":3200,"station_id":"ce4bh412rcd13ifvqds0","pricing_plan_id":"cebpf4jnsgd1na2vs0mg"},{"bike_id":"5fe65469-67e5-47c2-845c-b52671ccd500","system_id":"levelo_inurba_marseille","lat":43.292742,"lon":5.368494,"is_reserved":false,"is_disabled":false,"rental_uris":{"android":"levelo://app?vid=5fe65469-67e5-47c2-845c-b52671ccd500","ios":"levelo://app?vid=5fe65469-67e5-47c2-845c-b52671ccd500"},"vehicle_type_id":"4","last_reported":1742728100,"current_range_meters":3200,"station_id":"ce4bhih2rcd13ifvqfs0","pricing_plan_id":"cebpf4jnsgd1na2vs0mg"},{"bike_id":"da10421b-f04c-4d25-9a58-7b4ce1a0b032","system_id":"levelo_inurba_marseille","lat":43.28412,"lon":5.37514,"is_reserved":false,"is_disabled":false,"rental_uris":{"android":"levelo://app?vid=da10421b-f04c-4d25-9a58-7b4ce1a0b032","ios":"levelo://app?vid=da10421b-f04c-4d25-9a58-7b4ce1a0b032"},"vehicle_type_id":"4","last_reported":1742728100,"current_range_meters":3600,"station_id":"ce4bh412rcd13ifvqds0","pricing_plan_id":"cebpf4jnsgd1na2vs0mg"},{"bike_id":"c3d4e9f2-d71b-483c-8c3e-3c01b4ff9bb7","system_id":"levelo_inurba_marseille","lat":43.28605,"lon":5.35073,"is_reserved":false,"is_disabled":false,"rental_uris":{"android":"levelo://app?vid=c3d4e9f2-d71b-483c-8c3e-3c01b4ff9bb7","ios":"levelo://app?vid=c3d4e9f2-d71b-483c-8c3e-3c01b4ff9bb7"},"vehicle_type_id":"4","last_reported":1742728100,"current_range_meters":3200,"station_id":"ce4bhch2rcd13ifvqeug","pricing_plan_id":"cebpf4jnsgd1na2vs0mg"},{"bike_id":"4e130c3f-1e9a-4e1a-a546-fa10a03dc915","system_id":"levelo_inurba_marseille","lat":43.24676,"lon":5.38173,"is_reserved":false,"is_disabled":false,"rental_uris":{"android":"levelo://app?vid=4e130c3f-1e9a-4e1a-a546-fa10a03dc915","ios":"levelo://app?vid=4e130c3f-1e9a-4e1a-a546-fa10a03dc915"},"vehicle_type_id":"4","last_reported":1742728100,"current_range_meters":3600,"station_id":"ce4bhih2rcd13ifvqfr0","pricing_plan_id":"cebpf4jnsgd1na2vs0mg"},{"bike_id":"bf637251-4f6f-4c24-b109-b37e3790256c","system_id":"levelo_inurba_marseille","lat":43.27369,"lon":5.36253,"is_reserved":false,"is_disabled":false,"rental_uris":{"android":"levelo://app?vid=bf637251-4f6f-4c24-b109-b37e3790256c","ios":"levelo://app?vid=bf637251-4f6f-4c24-b109-b37e3790256c"},"vehicle_type_id":"4","last_reported":1742728100,"current_range_meters":4000,"station_id":"ce4bhbh2rcd13ifvqeo0","pricing_plan_id":"cebpf4jnsgd1na2vs0mg"},{"bike_id":"0476776e-3844-4523-80aa-b63c07f432cc","system_id":"levelo_inurba_marseille","lat":43.28314,"lon":5.39202,"is_reserved":false,"is_disabled":false,"rental_uris":{"android":"levelo://app?vid=0476776e-3844-4523-80aa-b63c07f432cc","ios":"levelo://app?vid=0476776e-3844-4523-80aa-b63c07f432cc"},"vehicle_type_id":"4","last_reported":1742728100,"current_range_meters":4400,"station_id":"ce4bhoh2rcd13ifvqh5g","pricing_plan_id":"cebpf4jnsgd1na2vs0mg"},{"bike_id":"0007fce5-562c-4dc0-afc3-21cf7828d9fe","system_id":"levelo_inurba_marseille","lat":43.30123,"lon":5.37428,"is_reserved":false,"is_disabled":false,"rental_uris":{"android":"levelo://app?vid=0007fce5-562c-4dc0-afc3-21cf7828d9fe","ios":"levelo://app?vid=0007fce5-562c-4dc0-afc3-21cf7828d9fe"},"vehicle_type_id":"4","last_reported":1742728100,"current_range_meters":4400,"station_id":"ce4bgs92rcd13ifvqcc0","pricing_plan_id":"cebpf4jnsgd1na2vs0mg"},{"bike_id":"04ffeec5-fcdc-4d90-9157-b0a757752a4a","system_id":"levelo_inurba_marseille","lat":43.23963,"lon":5.36633,"is_reserved":false,"is_disabled":false,"rental_uris":{"android":"levelo://app?vid=04ffeec5-fcdc-4d90-9157-b0a757752a4a","ios":"levelo://app?vid=04ffeec5-fcdc-4d90-9157-b0a757752a4a"},"vehicle_type_id":"4","last_reported":1742728100,"current_range_meters":4400,"station_id":"ce4bhi12rcd13ifvqfp0","pricing_plan_id":"cebpf4jnsgd1na2vs0mg"},{"bike_id":"3273f40d-d327-4a96-a10b-bb064e299908","system_id":"levelo_inurba_marseille","lat":43.330768,"lon":5.408196,"is_reserved":false,"is_disabled":false,"rental_uris":{"android":"levelo://app?vid=3273f40d-d327-4a96-a10b-bb064e299908","ios":"levelo://app?vid=3273f40d-d327-4a96-a10b-bb064e299908"},"vehicle_type_id":"4","last_reported":1742728100,"current_range_meters":4400,"station_id":"","pricing_plan_id":"cebpf4jnsgd1na2vs0mg"},{"bike_id":"a475dca1-4c92-4dca-bbeb-d1361bc9fba3","system_id":"levelo_inurba_marseille","lat":43.26935,"lon":5.38923,"is_reserved":false,"is_disabled":false,"rental_uris":{"android":"levelo://app?vid=a475dca1-4c92-4dca-bbeb-d1361bc9fba3","ios":"levelo://app?vid=a475dca1-4c92-4dca-bbeb-d1361bc9fba3"},"vehicle_type_id":"4","last_reported":1742728100,"current_range_meters":4800,"station_id":"ce4bhhh2rcd13ifvqfl0","pricing_plan_id":"cebpf4jnsgd1na2vs0mg"},{"bike_id":"41e25995-b1f7-4c57-b6a7-ad7cf9b0a48f","system_id":"levelo_inurba_marseille","lat":43.26234,"lon":5.4047,"is_reserved":false,"is_disabled":false,"rental_uris":{"android":"levelo://app?vid=41e25995-b1f7-4c57-b6a7-ad7cf9b0a48f","ios":"levelo://app?vid=41e25995-b1f7-4c57-b6a7-ad7cf9b0a48f"},"vehicle_type_id":"4","last_reported":1742728100,"current_range_meters":4800,"station_id":"ce4bhmh2rcd13ifvqgmg","pricing_plan_id":"cebpf4jnsgd1na2vs0mg"},{"bike_id":"43ac26df-6a3a-4645-8936-07394e3d9af2","system_id":"levelo_inurba_marseille","lat":43.22933,"lon":5.35378,"is_reserved":false,"is_disabled":false,"rental_uris":{"android":"levelo://app?vid=43ac26df-6a3a-4645-8936-07394e3d9af2","ios":"levelo://app?vid=43ac26df-6a3a-4645-8936-07394e3d9af2"},"vehicle_type_id":"4","last_reported":1742728100,"current_range_meters":4800,"station_id":"cpo3532slgdg3j2ikp40","pricing_plan_id":"cebpf4jnsgd1na2vs0mg"},{"bike_id":"7a80749b-56dc-4ab1-a2d7-268dfcb799e2","system_id":"levelo_inurba_marseille","lat":43.23959,"lon":5.36639,"is_reserved":false,"is_disabled":false,"rental_uris":{"android":"levelo://app?vid=7a80749b-56dc-4ab1-a2d7-268dfcb799e2","ios":"levelo://app?vid=7a80749b-56dc-4ab1-a2d7-268dfcb799e2"},"vehicle_type_id":"4","last_reported":1742728100,"current_range_meters":5600,"station_id":"ce4bhi12rcd13ifvqfp0","pricing_plan_id":"cebpf4jnsgd1na2vs0mg"},{"bike_id":"fafa77bc-de32-4294-af46-45bad0836f35","system_id":"levelo_inurba_marseille","lat":43.28449,"lon":5.39208,"is_reserved":false,"is_disabled":false,"rental_uris":{"android":"levelo://app?vid=fafa77bc-de32-4294-af46-45bad0836f35","ios":"levelo://app?vid=fafa77bc-de32-4294-af46-45bad0836f35"},"vehicle_type_id":"4","last_reported":1742728100,"current_range_meters":4800,"station_id":"ce4bhoh2rcd13ifvqh5g","pricing_plan_id":"cebpf4jnsgd1na2vs0mg"},{"bike_id":"a255a12b-22ca-41f1-b551-b8c80cc2f6d8","system_id":"levelo_inurba_marseille","lat":43.32102,"lon":5.36765,"is_reserved":false,"is_disabled":false,"rental_uris":{"android":"levelo://app?vid=a255a12b-22ca-41f1-b551-b8c80cc2f6d8","ios":"levelo://app?vid=a255a12b-22ca-41f1-b551-b8c80cc2f6d8"},"vehicle_type_id":"4","last_reported":1742728100,"current_range_meters":5600,"station_id":"ce4bhrh2rcd13ifvqhug","pricing_plan_id":"cebpf4jnsgd1na2vs0mg"},{"bike_id":"d1aa8ba9-395a-446c-9b44-c34268121342","system_id":"levelo_inurba_marseille","lat":43.26205,"lon":5.37455,"is_reserved":false,"is_disabled":false,"rental_uris":{"android":"levelo://app?vid=d1aa8ba9-395a-446c-9b44-c34268121342","ios":"levelo://app?vid=d1aa8ba9-395a-446c-9b44-c34268121342"},"vehicle_type_id":"4","last_reported":1742728100,"current_range_meters":5600,"station_id":"ce4bhgp2rcd13ifvqfc0","pricing_plan_id":"cebpf4jnsgd1na2vs0mg"},{"bike_id":"fe239f3d-5c83-42bd-8b99-e0b3f3784fb5","system_id":"levelo_inurba_marseille","lat":43.24619,"lon":5.38402,"is_reserved":false,"is_disabled":false,"rental_uris":{"android":"levelo://app?vid=fe239f3d-5c83-42bd-8b99-e0b3f3784fb5","ios":"levelo://app?vid=fe239f3d-5c83-42bd-8b99-e0b3f3784fb5"},"vehicle_type_id":"4","last_reported":1742728100,"current_range_meters":5600,"station_id":"","pricing_plan_id":"cebpf4jnsgd1na2vs0mg"},{"bike_id":"21459fcc-c68d-402d-adc5-b4412717487e","system_id":"levelo_inurba_marseille","lat":43.27204,"lon":5.39184,"is_reserved":false,"is_disabled":false,"rental_uris":{"android":"levelo://app?vid=21459fcc-c68d-402d-adc5-b4412717487e","ios":"levelo://app?vid=21459fcc-c68d-402d-adc5-b4412717487e"},"vehicle_type_id":"4","last_reported":1742728100,"current_range_meters":5600,"station_id":"ce4bhhp2rcd13ifvqfm0","pricing_plan_id":"cebpf4jnsgd1na2vs0mg"},{"bike_id":"172c3499-059b-4b2e-b0e4-e9e2a457dd65","system_id":"levelo_inurba_marseille","lat":43.22934,"lon":5.35382,"is_reserved":false,"is_disabled":false,"rental_uris":{"android":"levelo://app?vid=172c3499-059b-4b2e-b0e4-e9e2a457dd65","ios":"levelo://app?vid=172c3499-059b-4b2e-b0e4-e9e2a457dd65"},"vehicle_type_id":"4","last_reported":1742728100,"current_range_meters":6000,"station_id":"cpo3532slgdg3j2ikp40","pricing_plan_id":"cebpf4jnsgd1na2vs0mg"},{"bike_id":"63cb18d0-abd5-4e3c-942f-275def845671","system_id":"levelo_inurba_marseille","lat":43.255,"lon":5.37655,"is_reserved":false,"is_disabled":false,"rental_uris":{"android":"levelo://app?vid=63cb18d0-abd5-4e3c-942f-275def845671","ios":"levelo://app?vid=63cb18d0-abd5-4e3c-942f-275def845671"},"vehicle_type_id":"4","last_reported":1742728100,"current_range_meters":6000,"station_id":"ce4bhh12rcd13ifvqff0","pricing_plan_id":"cebpf4jnsgd1na2vs0mg"},{"bike_id":"b5fcb98a-c8d5-4f1a-a9b4-b3362af2a9c7","system_id":"levelo_inurba_marseille","lat":43.23045,"lon":5.35496,"is_reserved":false,"is_disabled":false,"rental_uris":{"android":"levelo://app?vid=b5fcb98a-c8d5-4f1a-a9b4-b3362af2a9c7","ios":"levelo://app?vid=b5fcb98a-c8d5-4f1a-a9b4-b3362af2a9c7"},"vehicle_type_id":"4","last_reported":1742728100,"current_range_meters":6000,"station_id":"cpo3342slgdg3j2ifvpg","pricing_plan_id":"cebpf4jnsgd1na2vs0mg"},{"bike_id":"195b5295-2f34-4819-bbac-da670590ac05","system_id":"levelo_inurba_marseille","lat":43.23161,"lon":5.43718,"is_reserved":false,"is_disabled":false,"rental_uris":{"android":"levelo://app?vid=195b5295-2f34-4819-bbac-da670590ac05","ios":"levelo://app?vid=195b5295-2f34-4819-bbac-da670590ac05"},"vehicle_type_id":"4","last_reported":1742728100,"current_range_meters":5600,"station_id":"ce4bhmp2rcd13ifvqgog","pricing_plan_id":"cebpf4jnsgd1na2vs0mg"},{"bike_id":"d7ecf0b7-2430-4e23-a8c3-92233081769e","system_id":"levelo_inurba_marseille","lat":43.24077,"lon":5.3773,"is_reserved":false,"is_disabled":false,"rental_uris":{"android":"levelo://app?vid=d7ecf0b7-2430-4e23-a8c3-92233081769e","ios":"levelo://app?vid=d7ecf0b7-2430-4e23-a8c3-92233081769e"},"vehicle_type_id":"4","last_reported":1742728100,"current_range_meters":6000,"station_id":"ce4bhnp2rcd13ifvqgvg","pricing_plan_id":"cebpf4jnsgd1na2vs0mg"},{"bike_id":"f3490539-4e67-4f62-8138-72593a349133","system_id":"levelo_inurba_marseille","lat":43.2737,"lon":5.36261,"is_reserved":false,"is_disabled":false,"rental_uris":{"android":"levelo://app?vid=f3490539-4e67-4f62-8138-72593a349133","ios":"levelo://app?vid=f3490539-4e67-4f62-8138-72593a349133"},"vehicle_type_id":"4","last_reported":1742728100,"current_range_meters":6400,"station_id":"ce4bhbh2rcd13ifvqeo0","pricing_plan_id":"cebpf4jnsgd1na2vs0mg"},{"bike_id":"3c2a7dcf-f6cd-4a5b-ac2d-0c447364948d","system_id":"levelo_inurba_marseille","lat":43.31399,"lon":5.37374,"is_reserved":false,"is_disabled":false,"rental_uris":{"android":"levelo://app?vid=3c2a7dcf-f6cd-4a5b-ac2d-0c447364948d","ios":"levelo://app?vid=3c2a7dcf-f6cd-4a5b-ac2d-0c447364948d"},"vehicle_type_id":"4","last_reported":1742728100,"current_range_meters":6400,"station_id":"","pricing_plan_id":"cebpf4jnsgd1na2vs0mg"},{"bike_id":"1d799419-4e8d-4313-8aba-e1c20e20fa8e","system_id":"levelo_inurba_marseille","lat":43.23203,"lon":5.3548,"is_reserved":false,"is_disabled":false,"rental_uris":{"android":"levelo://app?vid=1d799419-4e8d-4313-8aba-e1c20e20fa8e","ios":"levelo://app?vid=1d799419-4e8d-4313-8aba-e1c20e20fa8e"},"vehicle_type_id":"4","last_reported":1742728100,"current_range_meters":6400,"station_id":"ce4bhu92rcd13ifvqi70","pricing_plan_id":"cebpf4jnsgd1na2vs0mg"},{"bike_id":"3bc17e9f-c28e-42ac-ab2f-a661d914a8b7","system_id":"levelo_inurba_marseille","lat":43.2508,"lon":5.39522,"is_reserved":false,"is_disabled":true,"rental_uris":{"android":"levelo://app?vid=3bc17e9f-c28e-42ac-ab2f-a661d914a8b7","ios":"levelo://app?vid=3bc17e9f-c28e-42ac-ab2f-a661d914a8b7"},"vehicle_type_id":"4","last_reported":1742728100,"current_range_meters":6400,"station_id":"ce4bhm12rcd13ifvqgkg","pricing_plan_id":"cebpf4jnsgd1na2vs0mg"},{"bike_id":"22974a3c-2c10-4968-8643-ac5fb53e0947","system_id":"levelo_inurba_marseille","lat":43.24664,"lon":5.38166,"is_reserved":false,"is_disabled":false,"rental_uris":{"android":"levelo://app?vid=22974a3c-2c10-4968-8643-ac5fb53e0947","ios":"levelo://app?vid=22974a3c-2c10-4968-8643-ac5fb53e0947"},"vehicle_type_id":"4","last_reported":1742728100,"current_range_meters":6400,"station_id":"ce4bhih2rcd13ifvqfr0","pricing_plan_id":"cebpf4jnsgd1na2vs0mg"},{"bike_id":"c5f44f79-cf52-4dcb-8bd2-d2dbc5c2d0bf","system_id":"levelo_inurba_marseille","lat":43.23061,"lon":5.35493,"is_reserved":false,"is_disabled":false,"rental_uris":{"android":"levelo://app?vid=c5f44f79-cf52-4dcb-8bd2-d2dbc5c2d0bf","ios":"levelo://app?vid=c5f44f79-cf52-4dcb-8bd2-d2dbc5c2d0bf"},"vehicle_type_id":"4","last_reported":1742728100,"current_range_meters":6800,"station_id":"cpo3342slgdg3j2ifvpg","pricing_plan_id":"cebpf4jnsgd1na2vs0mg"},{"bike_id":"5a79d095-34a6-4b73-b152-1e70b8b81fa2","system_id":"levelo_inurba_marseille","lat":43.2454,"lon":5.39548,"is_reserved":false,"is_disabled":false,"rental_uris":{"android":"levelo://app?vid=5a79d095-34a6-4b73-b152-1e70b8b81fa2","ios":"levelo://app?vid=5a79d095-34a6-4b73-b152-1e70b8b81fa2"},"vehicle_type_id":"4","last_reported":1742728100,"current_range_meters":7200,"station_id":"ce4bhlp2rcd13ifvqgjg","pricing_plan_id":"cebpf4jnsgd1na2vs0mg"},{"bike_id":"75d255ab-20e0-490d-ab15-1f832d5a22b7","system_id":"levelo_inurba_marseille","lat":43.24649,"lon":5.38896,"is_reserved":false,"is_disabled":false,"rental_uris":{"android":"levelo://app?vid=75d255ab-20e0-490d-ab15-1f832d5a22b7","ios":"levelo://app?vid=75d255ab-20e0-490d-ab15-1f832d5a22b7"},"vehicle_type_id":"4","last_reported":1742728100,"current_range_meters":7200,"station_id":"ce4bhg12rcd13ifvqf60","pricing_plan_id":"cebpf4jnsgd1na2vs0mg"},{"bike_id":"7c8ce15b-2cf6-422b-b3d8-d5f371a3fc76","system_id":"levelo_inurba_marseille","lat":43.23059,"lon":5.35489,"is_reserved":false,"is_disabled":false,"rental_uris":{"android":"levelo://app?vid=7c8ce15b-2cf6-422b-b3d8-d5f371a3fc76","ios":"levelo://app?vid=7c8ce15b-2cf6-422b-b3d8-d5f371a3fc76"},"vehicle_type_id":"4","last_reported":1742728100,"current_range_meters":7200,"station_id":"cpo3342slgdg3j2ifvpg","pricing_plan_id":"cebpf4jnsgd1na2vs0mg"},{"bike_id":"53bbe999-a397-4456-8a18-713899c64fda","system_id":"levelo_inurba_marseille","lat":43.26779,"lon":5.39425,"is_reserved":false,"is_disabled":false,"rental_uris":{"android":"levelo://app?vid=53bbe999-a397-4456-8a18-713899c64fda","ios":"levelo://app?vid=53bbe999-a397-4456-8a18-713899c64fda"},"vehicle_type_id":"4","last_reported":1742728100,"current_range_meters":7200,"station_id":"ce4bhh12rcd13ifvqfg0","pricing_plan_id":"cebpf4jnsgd1na2vs0mg"},{"bike_id":"9246380d-9ab3-4787-b89c-2151b4321802","system_id":"levelo_inurba_marseille","lat":43.25501,"lon":5.37654,"is_reserved":false,"is_disabled":false,"rental_uris":{"android":"levelo://app?vid=9246380d-9ab3-4787-b89c-2151b4321802","ios":"levelo://app?vid=9246380d-9ab3-4787-b89c-2151b4321802"},"vehicle_type_id":"4","last_reported":1742728100,"current_range_meters":7200,"station_id":"ce4bhh12rcd13ifvqff0","pricing_plan_id":"cebpf4jnsgd1na2vs0mg"},{"bike_id":"ac317fcc-d7ce-4a66-a756-0815974c8ea9","system_id":"levelo_inurba_marseille","lat":43.27372,"lon":5.3626,"is_reserved":false,"is_disabled":false,"rental_uris":{"android":"levelo://app?vid=ac317fcc-d7ce-4a66-a756-0815974c8ea9","ios":"levelo://app?vid=ac317fcc-d7ce-4a66-a756-0815974c8ea9"},"vehicle_type_id":"4","last_reported":1742728100,"current_range_meters":6800,"station_id":"ce4bhbh2rcd13ifvqeo0","pricing_plan_id":"cebpf4jnsgd1na2vs0mg"},{"bike_id":"edcaa51d-dea3-47eb-9656-fa406f4673d5","system_id":"levelo_inurba_marseille","lat":43.23153,"lon":5.43708,"is_reserved":false,"is_disabled":false,"rental_uris":{"android":"levelo://app?vid=edcaa51d-dea3-47eb-9656-fa406f4673d5","ios":"levelo://app?vid=edcaa51d-dea3-47eb-9656-fa406f4673d5"},"vehicle_type_id":"4","last_reported":1742728100,"current_range_meters":8000,"station_id":"ce4bhmp2rcd13ifvqgog","pricing_plan_id":"cebpf4jnsgd1na2vs0mg"},{"bike_id":"102bb2fe-f94c-4b7e-92f0-3acc126b9c8b","system_id":"levelo_inurba_marseille","lat":43.310703,"lon":5.383638,"is_reserved":false,"is_disabled":false,"rental_uris":{"android":"levelo://app?vid=102bb2fe-f94c-4b7e-92f0-3acc126b9c8b","ios":"levelo://app?vid=102bb2fe-f94c-4b7e-92f0-3acc126b9c8b"},"vehicle_type_id":"4","last_reported":1742728100,"current_range_meters":8000,"station_id":"ce4bgv92rcd13ifvqcr0","pricing_plan_id":"cebpf4jnsgd1na2vs0mg"},{"bike_id":"dc0b5eb4-361e-4785-b0b9-f3eefce109c0","system_id":"levelo_inurba_marseille","lat":43.2842,"lon":5.34989,"is_reserved":false,"is_disabled":false,"rental_uris":{"android":"levelo://app?vid=dc0b5eb4-361e-4785-b0b9-f3eefce109c0","ios":"levelo://app?vid=dc0b5eb4-361e-4785-b0b9-f3eefce109c0"},"vehicle_type_id":"4","last_reported":1742728100,"current_range_meters":8000,"station_id":"ce4bhbh2rcd13ifvqepg","pricing_plan_id":"cebpf4jnsgd1na2vs0mg"},{"bike_id":"014cf003-1505-49cd-ba72-06250a2191ab","system_id":"levelo_inurba_marseille","lat":43.23054,"lon":5.35494,"is_reserved":false,"is_disabled":false,"rental_uris":{"android":"levelo://app?vid=014cf003-1505-49cd-ba72-06250a2191ab","ios":"levelo://app?vid=014cf003-1505-49cd-ba72-06250a2191ab"},"vehicle_type_id":"4","last_reported":1742728100,"current_range_meters":8000,"station_id":"cpo3342slgdg3j2ifvpg","pricing_plan_id":"cebpf4jnsgd1na2vs0mg"},{"bike_id":"a5a2b2cf-04a0-435e-baf1-a1e0027627a9","system_id":"levelo_inurba_marseille","lat":43.30559,"lon":5.36542,"is_reserved":false,"is_disabled":false,"rental_uris":{"android":"levelo://app?vid=a5a2b2cf-04a0-435e-baf1-a1e0027627a9","ios":"levelo://app?vid=a5a2b2cf-04a0-435e-baf1-a1e0027627a9"},"vehicle_type_id":"4","last_reported":1742728100,"current_range_meters":7200,"station_id":"ce4bgs12rcd13ifvqcag","pricing_plan_id":"cebpf4jnsgd1na2vs0mg"},{"bike_id":"1df0b3b2-8b10-4d59-a49f-c6ab72341a39","system_id":"levelo_inurba_marseille","lat":43.23054,"lon":5.355,"is_reserved":false,"is_disabled":false,"rental_uris":{"android":"levelo://app?vid=1df0b3b2-8b10-4d59-a49f-c6ab72341a39","ios":"levelo://app?vid=1df0b3b2-8b10-4d59-a49f-c6ab72341a39"},"vehicle_type_id":"4","last_reported":1742728100,"current_range_meters":8000,"station_id":"cpo3342slgdg3j2ifvpg","pricing_plan_id":"cebpf4jnsgd1na2vs0mg"},{"bike_id":"768ca5e6-f1bb-42f2-ac3f-2632b474747d","system_id":"levelo_inurba_marseille","lat":43.25821,"lon":5.39437,"is_reserved":false,"is_disabled":false,"rental_uris":{"android":"levelo://app?vid=768ca5e6-f1bb-42f2-ac3f-2632b474747d","ios":"levelo://app?vid=768ca5e6-f1bb-42f2-ac3f-2632b474747d"},"vehicle_type_id":"4","last_reported":1742728100,"current_range_meters":8000,"station_id":"ce4bhip2rcd13ifvqft0","pricing_plan_id":"cebpf4jnsgd1na2vs0mg"},{"bike_id":"e2227d44-5692-415c-9c3a-96a274e4c833","system_id":"levelo_inurba_marseille","lat":43.26012,"lon":5.37551,"is_reserved":false,"is_disabled":false,"rental_uris":{"android":"levelo://app?vid=e2227d44-5692-415c-9c3a-96a274e4c833","ios":"levelo://app?vid=e2227d44-5692-415c-9c3a-96a274e4c833"},"vehicle_type_id":"4","last_reported":1742728100,"current_range_meters":8000,"station_id":"ce4bhgh2rcd13ifvqfa0","pricing_plan_id":"cebpf4jnsgd1na2vs0mg"},{"bike_id":"ba0a9964-ab62-4807-b18d-12500e496f19","system_id":"levelo_inurba_marseille","lat":43.28618,"lon":5.35109,"is_reserved":false,"is_disabled":true,"rental_uris":{"android":"levelo://app?vid=ba0a9964-ab62-4807-b18d-12500e496f19","ios":"levelo://app?vid=ba0a9964-ab62-4807-b18d-12500e496f19"},"vehicle_type_id":"4","last_reported":1742728100,"current_range_meters":8000,"station_id":"ce4bhch2rcd13ifvqeug","pricing_plan_id":"cebpf4jnsgd1na2vs0mg"},{"bike_id":"16784492-6bb0-4dfd-a37c-0b309868075c","system_id":"levelo_inurba_marseille","lat":43.30629,"lon":5.36592,"is_reserved":false,"is_disabled":false,"rental_uris":{"android":"levelo://app?vid=16784492-6bb0-4dfd-a37c-0b309868075c","ios":"levelo://app?vid=16784492-6bb0-4dfd-a37c-0b309868075c"},"vehicle_type_id":"4","last_reported":1742728100,"current_range_meters":8400,"station_id":"","pricing_plan_id":"cebpf4jnsgd1na2vs0mg"},{"bike_id":"a4004cb9-86b6-486e-85b5-92a68937581d","system_id":"levelo_inurba_marseille","lat":43.31165,"lon":5.38724,"is_reserved":false,"is_disabled":false,"rental_uris":{"android":"levelo://app?vid=a4004cb9-86b6-486e-85b5-92a68937581d","ios":"levelo://app?vid=a4004cb9-86b6-486e-85b5-92a68937581d"},"vehicle_type_id":"4","last_reported":1742728100,"current_range_meters":8400,"station_id":"ce4bgv12rcd13ifvqcp0","pricing_plan_id":"cebpf4jnsgd1na2vs0mg"},{"bike_id":"7dff0d61-f3b4-42de-8e95-a63f03cbc4f6","system_id":"levelo_inurba_marseille","lat":43.31369,"lon":5.38501,"is_reserved":false,"is_disabled":false,"rental_uris":{"android":"levelo://app?vid=7dff0d61-f3b4-42de-8e95-a63f03cbc4f6","ios":"levelo://app?vid=7dff0d61-f3b4-42de-8e95-a63f03cbc4f6"},"vehicle_type_id":"4","last_reported":1742728100,"current_range_meters":8400,"station_id":"ce4bgt92rcd13ifvqcf0","pricing_plan_id":"cebpf4jnsgd1na2vs0mg"},{"bike_id":"d5bdb9ba-8f5e-4673-91a9-7dbeea01afe2","system_id":"levelo_inurba_marseille","lat":43.25006,"lon":5.38932,"is_reserved":false,"is_disabled":false,"rental_uris":{"android":"levelo://app?vid=d5bdb9ba-8f5e-4673-91a9-7dbeea01afe2","ios":"levelo://app?vid=d5bdb9ba-8f5e-4673-91a9-7dbeea01afe2"},"vehicle_type_id":"4","last_reported":1742728100,"current_range_meters":8400,"station_id":"ce4bhgp2rcd13ifvqfd0","pricing_plan_id":"cebpf4jnsgd1na2vs0mg"},{"bike_id":"7ec5e565-c539-4b65-9ef7-31ee071a6b54","system_id":"levelo_inurba_marseille","lat":43.32364,"lon":5.38881,"is_reserved":false,"is_disabled":false,"rental_uris":{"android":"levelo://app?vid=7ec5e565-c539-4b65-9ef7-31ee071a6b54","ios":"levelo://app?vid=7ec5e565-c539-4b65-9ef7-31ee071a6b54"},"vehicle_type_id":"4","last_reported":1742728100,"current_range_meters":8400,"station_id":"ce4bhqp2rcd13ifvqhog","pricing_plan_id":"cebpf4jnsgd1na2vs0mg"},{"bike_id":"5d4cc92c-eafe-478c-8820-ef016b1e9d02","system_id":"levelo_inurba_marseille","lat":43.29894,"lon":5.43663,"is_reserved":false,"is_disabled":false,"rental_uris":{"android":"levelo://app?vid=5d4cc92c-eafe-478c-8820-ef016b1e9d02","ios":"levelo://app?vid=5d4cc92c-eafe-478c-8820-ef016b1e9d02"},"vehicle_type_id":"4","last_reported":1742728100,"current_range_meters":8400,"station_id":"ce4bhpp2rcd13ifvqhfg","pricing_plan_id":"cebpf4jnsgd1na2vs0mg"},{"bike_id":"3f3f99da-6673-441e-a5b3-6857219a400e","system_id":"levelo_inurba_marseille","lat":43.25009,"lon":5.38937,"is_reserved":false,"is_disabled":false,"rental_uris":{"android":"levelo://app?vid=3f3f99da-6673-441e-a5b3-6857219a400e","ios":"levelo://app?vid=3f3f99da-6673-441e-a5b3-6857219a400e"},"vehicle_type_id":"4","last_reported":1742728100,"current_range_meters":8400,"station_id":"ce4bhgp2rcd13ifvqfd0","pricing_plan_id":"cebpf4jnsgd1na2vs0mg"},{"bike_id":"8ed1ac19-a2dd-4532-af16-423d1df5a6d4","system_id":"levelo_inurba_marseille","lat":43.23107,"lon":5.41352,"is_reserved":false,"is_disabled":false,"rental_uris":{"android":"levelo://app?vid=8ed1ac19-a2dd-4532-af16-423d1df5a6d4","ios":"levelo://app?vid=8ed1ac19-a2dd-4532-af16-423d1df5a6d4"},"vehicle_type_id":"4","last_reported":1742728100,"current_range_meters":8400,"station_id":"","pricing_plan_id":"cebpf4jnsgd1na2vs0mg"},{"bike_id":"89b0dcc5-cc3e-42ed-b96e-ed5335c7a50e","system_id":"levelo_inurba_marseille","lat":43.27088,"lon":5.40311,"is_reserved":false,"is_disabled":false,"rental_uris":{"android":"levelo://app?vid=89b0dcc5-cc3e-42ed-b96e-ed5335c7a50e","ios":"levelo://app?vid=89b0dcc5-cc3e-42ed-b96e-ed5335c7a50e"},"vehicle_type_id":"4","last_reported":1742728100,"current_range_meters":8400,"station_id":"","pricing_plan_id":"cebpf4jnsgd1na2vs0mg"},{"bike_id":"f52f1403-e5ef-4f15-816b-2ba1cd83754e","system_id":"levelo_inurba_marseille","lat":43.32591,"lon":5.36413,"is_reserved":false,"is_disabled":false,"rental_uris":{"android":"levelo://app?vid=f52f1403-e5ef-4f15-816b-2ba1cd83754e","ios":"levelo://app?vid=f52f1403-e5ef-4f15-816b-2ba1cd83754e"},"vehicle_type_id":"4","last_reported":1742728100,"current_range_meters":8400,"station_id":"","pricing_plan_id":"cebpf4jnsgd1na2vs0mg"},{"bike_id":"72503a27-a949-4a46-b139-c44d4f416a58","system_id":"levelo_inurba_marseille","lat":43.23192,"lon":5.355627,"is_reserved":false,"is_disabled":false,"rental_uris":{"android":"levelo://app?vid=72503a27-a949-4a46-b139-c44d4f416a58","ios":"levelo://app?vid=72503a27-a949-4a46-b139-c44d4f416a58"},"vehicle_type_id":"4","last_reported":1742728100,"current_range_meters":8800,"station_id":"ce4bhu92rcd13ifvqi70","pricing_plan_id":"cebpf4jnsgd1na2vs0mg"},{"bike_id":"ae27cd5a-bf75-4c25-9bb8-c2ac548ab1c1","system_id":"levelo_inurba_marseille","lat":43.29298,"lon":5.3745,"is_reserved":false,"is_disabled":false,"rental_uris":{"android":"levelo://app?vid=ae27cd5a-bf75-4c25-9bb8-c2ac548ab1c1","ios":"levelo://app?vid=ae27cd5a-bf75-4c25-9bb8-c2ac548ab1c1"},"vehicle_type_id":"4","last_reported":1742728100,"current_range_meters":8400,"station_id":"ce4bgi12rcd13ifvqb70","pricing_plan_id":"cebpf4jnsgd1na2vs0mg"},{"bike_id":"23aae21a-1ee8-4544-a323-476ec541691a","system_id":"levelo_inurba_marseille","lat":43.2318,"lon":5.40009,"is_reserved":false,"is_disabled":false,"rental_uris":{"android":"levelo://app?vid=23aae21a-1ee8-4544-a323-476ec541691a","ios":"levelo://app?vid=23aae21a-1ee8-4544-a323-476ec541691a"},"vehicle_type_id":"4","last_reported":1742728100,"current_range_meters":8800,"station_id":"ce4bhn12rcd13ifvqgqg","pricing_plan_id":"cebpf4jnsgd1na2vs0mg"},{"bike_id":"9970402a-8a2d-496c-b7c7-073b8ddd9a2d","system_id":"levelo_inurba_marseille","lat":43.28609,"lon":5.3511,"is_reserved":false,"is_disabled":false,"rental_uris":{"android":"levelo://app?vid=9970402a-8a2d-496c-b7c7-073b8ddd9a2d","ios":"levelo://app?vid=9970402a-8a2d-496c-b7c7-073b8ddd9a2d"},"vehicle_type_id":"4","last_reported":1742728100,"current_range_meters":8800,"station_id":"ce4bhch2rcd13ifvqeug","pricing_plan_id":"cebpf4jnsgd1na2vs0mg"},{"bike_id":"9b469204-1d25-4894-b812-bcc7dda80cbd","system_id":"levelo_inurba_marseille","lat":43.27797,"lon":5.40705,"is_reserved":false,"is_disabled":false,"rental_uris":{"android":"levelo://app?vid=9b469204-1d25-4894-b812-bcc7dda80cbd","ios":"levelo://app?vid=9b469204-1d25-4894-b812-bcc7dda80cbd"},"vehicle_type_id":"4","last_reported":1742728100,"current_range_meters":8800,"station_id":"ce4bhnh2rcd13ifvqgtg","pricing_plan_id":"cebpf4jnsgd1na2vs0mg"},{"bike_id":"5de93a4e-8597-44d3-b79a-a868c09960fb","system_id":"levelo_inurba_marseille","lat":43.26191,"lon":5.37451,"is_reserved":false,"is_disabled":true,"rental_uris":{"android":"levelo://app?vid=5de93a4e-8597-44d3-b79a-a868c09960fb","ios":"levelo://app?vid=5de93a4e-8597-44d3-b79a-a868c09960fb"},"vehicle_type_id":"4","last_reported":1742728100,"current_range_meters":8800,"station_id":"ce4bhgp2rcd13ifvqfc0","pricing_plan_id":"cebpf4jnsgd1na2vs0mg"},{"bike_id":"fb8fa33f-0ff4-46d9-84b9-2fcecb3bc9d2","system_id":"levelo_inurba_marseille","lat":43.232,"lon":5.39983,"is_reserved":false,"is_disabled":false,"rental_uris":{"android":"levelo://app?vid=fb8fa33f-0ff4-46d9-84b9-2fcecb3bc9d2","ios":"levelo://app?vid=fb8fa33f-0ff4-46d9-84b9-2fcecb3bc9d2"},"vehicle_type_id":"4","last_reported":1742728100,"current_range_meters":8800,"station_id":"ce4bhn12rcd13ifvqgqg","pricing_plan_id":"cebpf4jnsgd1na2vs0mg"},{"bike_id":"186584c4-e701-4e16-bbf3-d63b04c20b04","system_id":"levelo_inurba_marseille","lat":43.33603,"lon":5.41042,"is_reserved":false,"is_disabled":false,"rental_uris":{"android":"levelo://app?vid=186584c4-e701-4e16-bbf3-d63b04c20b04","ios":"levelo://app?vid=186584c4-e701-4e16-bbf3-d63b04c20b04"},"vehicle_type_id":"4","last_reported":1742728100,"current_range_meters":8800,"station_id":"ce4bhqh2rcd13ifvqhmg","pricing_plan_id":"cebpf4jnsgd1na2vs0mg"},{"bike_id":"a78cef60-fc94-412e-885b-8690cd38c560","system_id":"levelo_inurba_marseille","lat":43.31162,"lon":5.3872,"is_reserved":false,"is_disabled":false,"rental_uris":{"android":"levelo://app?vid=a78cef60-fc94-412e-885b-8690cd38c560","ios":"levelo://app?vid=a78cef60-fc94-412e-885b-8690cd38c560"},"vehicle_type_id":"4","last_reported":1742728100,"current_range_meters":9200,"station_id":"ce4bgv12rcd13ifvqcp0","pricing_plan_id":"cebpf4jnsgd1na2vs0mg"},{"bike_id":"aaed3249-eda0-4817-9951-b56ef9dacd78","system_id":"levelo_inurba_marseille","lat":43.27315,"lon":5.39073,"is_reserved":false,"is_disabled":false,"rental_uris":{"android":"levelo://app?vid=aaed3249-eda0-4817-9951-b56ef9dacd78","ios":"levelo://app?vid=aaed3249-eda0-4817-9951-b56ef9dacd78"},"vehicle_type_id":"4","last_reported":1742728100,"current_range_meters":8800,"station_id":"ce4bhgp2rcd13ifvqfe0","pricing_plan_id":"cebpf4jnsgd1na2vs0mg"},{"bike_id":"60bc5ef2-d120-4be4-8b53-10f64fb77c9a","system_id":"levelo_inurba_marseille","lat":43.26571,"lon":5.3901,"is_reserved":false,"is_disabled":false,"rental_uris":{"android":"levelo://app?vid=60bc5ef2-d120-4be4-8b53-10f64fb77c9a","ios":"levelo://app?vid=60bc5ef2-d120-4be4-8b53-10f64fb77c9a"},"vehicle_type_id":"4","last_reported":1742728100,"current_range_meters":9200,"station_id":"ce4bhe12rcd13ifvqf30","pricing_plan_id":"cebpf4jnsgd1na2vs0mg"},{"bike_id":"ad263336-64b9-4f27-8f30-4a49fa7dcbf6","system_id":"levelo_inurba_marseille","lat":43.2764,"lon":5.42671,"is_reserved":false,"is_disabled":false,"rental_uris":{"android":"levelo://app?vid=ad263336-64b9-4f27-8f30-4a49fa7dcbf6","ios":"levelo://app?vid=ad263336-64b9-4f27-8f30-4a49fa7dcbf6"},"vehicle_type_id":"4","last_reported":1742728100,"current_range_meters":9200,"station_id":"","pricing_plan_id":"cebpf4jnsgd1na2vs0mg"},{"bike_id":"75239504-6411-4c5a-918c-ff12c7d01c06","system_id":"levelo_inurba_marseille","lat":43.27805,"lon":5.40704,"is_reserved":false,"is_disabled":false,"rental_uris":{"android":"levelo://app?vid=75239504-6411-4c5a-918c-ff12c7d01c06","ios":"levelo://app?vid=75239504-6411-4c5a-918c-ff12c7d01c06"},"vehicle_type_id":"4","last_reported":1742728100,"current_range_meters":9200,"station_id":"ce4bhnh2rcd13ifvqgtg","pricing_plan_id":"cebpf4jnsgd1na2vs0mg"},{"bike_id":"7a1dfcad-6734-4a62-af07-f6026f306817","system_id":"levelo_inurba_marseille","lat":43.29193,"lon":5.39324,"is_reserved":false,"is_disabled":false,"rental_uris":{"android":"levelo://app?vid=7a1dfcad-6734-4a62-af07-f6026f306817","ios":"levelo://app?vid=7a1dfcad-6734-4a62-af07-f6026f306817"},"vehicle_type_id":"4","last_reported":1742728100,"current_range_meters":8800,"station_id":"ce4bh192rcd13ifvqdd0","pricing_plan_id":"cebpf4jnsgd1na2vs0mg"},{"bike_id":"72123cf2-9d2b-41b8-9bee-4f35b0be3549","system_id":"levelo_inurba_marseille","lat":43.23059,"lon":5.35482,"is_reserved":false,"is_disabled":true,"rental_uris":{"android":"levelo://app?vid=72123cf2-9d2b-41b8-9bee-4f35b0be3549","ios":"levelo://app?vid=72123cf2-9d2b-41b8-9bee-4f35b0be3549"},"vehicle_type_id":"4","last_reported":1742728100,"current_range_meters":9200,"station_id":"cpo3342slgdg3j2ifvpg","pricing_plan_id":"cebpf4jnsgd1na2vs0mg"},{"bike_id":"b6114535-04e9-4c65-a4ce-26f914383897","system_id":"levelo_inurba_marseille","lat":43.23148,"lon":5.43731,"is_reserved":false,"is_disabled":false,"rental_uris":{"android":"levelo://app?vid=b6114535-04e9-4c65-a4ce-26f914383897","ios":"levelo://app?vid=b6114535-04e9-4c65-a4ce-26f914383897"},"vehicle_type_id":"4","last_reported":1742728100,"current_range_meters":9600,"station_id":"ce4bhmp2rcd13ifvqgog","pricing_plan_id":"cebpf4jnsgd1na2vs0mg"},{"bike_id":"ebb17942-fb5c-4712-98b0-f431f6dace10","system_id":"levelo_inurba_marseille","lat":43.27172,"lon":5.40994,"is_reserved":false,"is_disabled":false,"rental_uris":{"android":"levelo://app?vid=ebb17942-fb5c-4712-98b0-f431f6dace10","ios":"levelo://app?vid=ebb17942-fb5c-4712-98b0-f431f6dace10"},"vehicle_type_id":"4","last_reported":1742728100,"current_range_meters":9600,"station_id":"ce4bhl12rcd13ifvqgf0","pricing_plan_id":"cebpf4jnsgd1na2vs0mg"},{"bike_id":"037e6ede-daec-42c4-b1a5-a4ddfe378bc9","system_id":"levelo_inurba_marseille","lat":43.28713,"lon":5.37946,"is_reserved":false,"is_disabled":true,"rental_uris":{"android":"levelo://app?vid=037e6ede-daec-42c4-b1a5-a4ddfe378bc9","ios":"levelo://app?vid=037e6ede-daec-42c4-b1a5-a4ddfe378bc9"},"vehicle_type_id":"4","last_reported":1742728100,"current_range_meters":9600,"station_id":"ce4bh9p2rcd13ifvqec0","pricing_plan_id":"cebpf4jnsgd1na2vs0mg"},{"bike_id":"bb2ebd34-9190-40c3-b427-a509f79ce1e9","system_id":"levelo_inurba_marseille","lat":43.2782,"lon":5.40728,"is_reserved":false,"is_disabled":false,"rental_uris":{"android":"levelo://app?vid=bb2ebd34-9190-40c3-b427-a509f79ce1e9","ios":"levelo://app?vid=bb2ebd34-9190-40c3-b427-a509f79ce1e9"},"vehicle_type_id":"4","last_reported":1742728100,"current_range_meters":9600,"station_id":"ce4bhnh2rcd13ifvqgtg","pricing_plan_id":"cebpf4jnsgd1na2vs0mg"},{"bike_id":"134387bc-c913-497e-ab63-6046273f7385","system_id":"levelo_inurba_marseille","lat":43.25583,"lon":5.38233,"is_reserved":false,"is_disabled":false,"rental_uris":{"android":"levelo://app?vid=134387bc-c913-497e-ab63-6046273f7385","ios":"levelo://app?vid=134387bc-c913-497e-ab63-6046273f7385"},"vehicle_type_id":"4","last_reported":1742728100,"current_range_meters":9600,"station_id":"ce4bhih2rcd13ifvqfs0","pricing_plan_id":"cebpf4jnsgd1na2vs0mg"},{"bike_id":"836f1089-8cc4-41d6-af75-9bbffbdd1201","system_id":"levelo_inurba_marseille","lat":43.26212,"lon":5.37442,"is_reserved":false,"is_disabled":false,"rental_uris":{"android":"levelo://app?vid=836f1089-8cc4-41d6-af75-9bbffbdd1201","ios":"levelo://app?vid=836f1089-8cc4-41d6-af75-9bbffbdd1201"},"vehicle_type_id":"4","last_reported":1742728100,"current_range_meters":9600,"station_id":"ce4bhgp2rcd13ifvqfc0","pricing_plan_id":"cebpf4jnsgd1na2vs0mg"},{"bike_id":"140d1708-b02b-4f3d-8b67-ad95553b03f4","system_id":"levelo_inurba_marseille","lat":43.30124,"lon":5.37426,"is_reserved":false,"is_disabled":false,"rental_uris":{"android":"levelo://app?vid=140d1708-b02b-4f3d-8b67-ad95553b03f4","ios":"levelo://app?vid=140d1708-b02b-4f3d-8b67-ad95553b03f4"},"vehicle_type_id":"4","last_reported":1742728100,"current_range_meters":9600,"station_id":"ce4bgs92rcd13ifvqcc0","pricing_plan_id":"cebpf4jnsgd1na2vs0mg"},{"bike_id":"2032e81a-8d24-4036-9cc6-bf67698b8322","system_id":"levelo_inurba_marseille","lat":43.24164,"lon":5.39713,"is_reserved":false,"is_disabled":false,"rental_uris":{"android":"levelo://app?vid=2032e81a-8d24-4036-9cc6-bf67698b8322","ios":"levelo://app?vid=2032e81a-8d24-4036-9cc6-bf67698b8322"},"vehicle_type_id":"4","last_reported":1742728100,"current_range_meters":9600,"station_id":"ce4bhn12rcd13ifvqgpg","pricing_plan_id":"cebpf4jnsgd1na2vs0mg"},{"bike_id":"cd440948-bc3a-4508-9935-217231d00616","system_id":"levelo_inurba_marseille","lat":43.24802,"lon":5.37457,"is_reserved":false,"is_disabled":false,"rental_uris":{"android":"levelo://app?vid=cd440948-bc3a-4508-9935-217231d00616","ios":"levelo://app?vid=cd440948-bc3a-4508-9935-217231d00616"},"vehicle_type_id":"4","last_reported":1742728100,"current_range_meters":9600,"station_id":"ce4bhgh2rcd13ifvqfb0","pricing_plan_id":"cebpf4jnsgd1na2vs0mg"},{"bike_id":"7b75d449-7c71-498f-b2ce-f002530eba03","system_id":"levelo_inurba_marseille","lat":43.30139,"lon":5.37414,"is_reserved":false,"is_disabled":false,"rental_uris":{"android":"levelo://app?vid=7b75d449-7c71-498f-b2ce-f002530eba03","ios":"levelo://app?vid=7b75d449-7c71-498f-b2ce-f002530eba03"},"vehicle_type_id":"4","last_reported":1742728100,"current_range_meters":10000,"station_id":"ce4bgs92rcd13ifvqcc0","pricing_plan_id":"cebpf4jnsgd1na2vs0mg"},{"bike_id":"cc82a72a-6509-4f0d-8031-77fa34214377","system_id":"levelo_inurba_marseille","lat":43.29893,"lon":5.43658,"is_reserved":false,"is_disabled":false,"rental_uris":{"android":"levelo://app?vid=cc82a72a-6509-4f0d-8031-77fa34214377","ios":"levelo://app?vid=cc82a72a-6509-4f0d-8031-77fa34214377"},"vehicle_type_id":"4","last_reported":1742728100,"current_range_meters":10000,"station_id":"ce4bhpp2rcd13ifvqhfg","pricing_plan_id":"cebpf4jnsgd1na2vs0mg"},{"bike_id":"a7c269ac-750b-4e61-a0a4-f774b818338f","system_id":"levelo_inurba_marseille","lat":43.28082,"lon":5.39648,"is_reserved":false,"is_disabled":false,"rental_uris":{"android":"levelo://app?vid=a7c269ac-750b-4e61-a0a4-f774b818338f","ios":"levelo://app?vid=a7c269ac-750b-4e61-a0a4-f774b818338f"},"vehicle_type_id":"4","last_reported":1742728100,"current_range_meters":10000,"station_id":"ce4bho12rcd13ifvqh2g","pricing_plan_id":"cebpf4jnsgd1na2vs0mg"},{"bike_id":"8d95e366-548c-4d8a-824c-d231193639ff","system_id":"levelo_inurba_marseille","lat":43.3047,"lon":5.37895,"is_reserved":false,"is_disabled":false,"rental_uris":{"android":"levelo://app?vid=8d95e366-548c-4d8a-824c-d231193639ff","ios":"levelo://app?vid=8d95e366-548c-4d8a-824c-d231193639ff"},"vehicle_type_id":"4","last_reported":1742728100,"current_range_meters":10000,"station_id":"ce4bgup2rcd13ifvqcn0","pricing_plan_id":"cebpf4jnsgd1na2vs0mg"},{"bike_id":"67391d9b-dc7e-4eb9-a098-0a7f46d8da72","system_id":"levelo_inurba_marseille","lat":43.23145,"lon":5.43718,"is_reserved":false,"is_disabled":false,"rental_uris":{"android":"levelo://app?vid=67391d9b-dc7e-4eb9-a098-0a7f46d8da72","ios":"levelo://app?vid=67391d9b-dc7e-4eb9-a098-0a7f46d8da72"},"vehicle_type_id":"4","last_reported":1742728100,"current_range_meters":10000,"station_id":"ce4bhmp2rcd13ifvqgog","pricing_plan_id":"cebpf4jnsgd1na2vs0mg"},{"bike_id":"52390db3-1658-4d95-8474-5735938b9643","system_id":"levelo_inurba_marseille","lat":43.26224,"lon":5.4046,"is_reserved":false,"is_disabled":false,"rental_uris":{"android":"levelo://app?vid=52390db3-1658-4d95-8474-5735938b9643","ios":"levelo://app?vid=52390db3-1658-4d95-8474-5735938b9643"},"vehicle_type_id":"4","last_reported":1742728100,"current_range_meters":10000,"station_id":"ce4bhmh2rcd13ifvqgmg","pricing_plan_id":"cebpf4jnsgd1na2vs0mg"},{"bike_id":"c7ca0d2c-9e56-4e54-8e6c-8120dbc3e9ba","system_id":"levelo_inurba_marseille","lat":43.23154,"lon":5.43722,"is_reserved":false,"is_disabled":false,"rental_uris":{"android":"levelo://app?vid=c7ca0d2c-9e56-4e54-8e6c-8120dbc3e9ba","ios":"levelo://app?vid=c7ca0d2c-9e56-4e54-8e6c-8120dbc3e9ba"},"vehicle_type_id":"4","last_reported":1742728100,"current_range_meters":10000,"station_id":"ce4bhmp2rcd13ifvqgog","pricing_plan_id":"cebpf4jnsgd1na2vs0mg"},{"bike_id":"46c33e53-ef12-48da-9b41-098c7d23a359","system_id":"levelo_inurba_marseille","lat":43.27817,"lon":5.40722,"is_reserved":false,"is_disabled":false,"rental_uris":{"android":"levelo://app?vid=46c33e53-ef12-48da-9b41-098c7d23a359","ios":"levelo://app?vid=46c33e53-ef12-48da-9b41-098c7d23a359"},"vehicle_type_id":"4","last_reported":1742728100,"current_range_meters":10800,"station_id":"ce4bhnh2rcd13ifvqgtg","pricing_plan_id":"cebpf4jnsgd1na2vs0mg"},{"bike_id":"dd5d6d06-0e34-4684-b128-c77a8d50ab86","system_id":"levelo_inurba_marseille","lat":43.30138,"lon":5.37436,"is_reserved":false,"is_disabled":false,"rental_uris":{"android":"levelo://app?vid=dd5d6d06-0e34-4684-b128-c77a8d50ab86","ios":"levelo://app?vid=dd5d6d06-0e34-4684-b128-c77a8d50ab86"},"vehicle_type_id":"4","last_reported":1742728100,"current_range_meters":10800,"station_id":"ce4bgs92rcd13ifvqcc0","pricing_plan_id":"cebpf4jnsgd1na2vs0mg"},{"bike_id":"751ff1ed-b498-4578-9bd4-943bf6c9d8eb","system_id":"levelo_inurba_marseille","lat":43.23198,"lon":5.35527,"is_reserved":false,"is_disabled":false,"rental_uris":{"android":"levelo://app?vid=751ff1ed-b498-4578-9bd4-943bf6c9d8eb","ios":"levelo://app?vid=751ff1ed-b498-4578-9bd4-943bf6c9d8eb"},"vehicle_type_id":"4","last_reported":1742728100,"current_range_meters":10800,"station_id":"ce4bhu92rcd13ifvqi70","pricing_plan_id":"cebpf4jnsgd1na2vs0mg"},{"bike_id":"2fd4d927-0f70-4f4e-9269-8cd3b232bcd8","system_id":"levelo_inurba_marseille","lat":43.25905,"lon":5.40865,"is_reserved":false,"is_disabled":false,"rental_uris":{"android":"levelo://app?vid=2fd4d927-0f70-4f4e-9269-8cd3b232bcd8","ios":"levelo://app?vid=2fd4d927-0f70-4f4e-9269-8cd3b232bcd8"},"vehicle_type_id":"4","last_reported":1742728100,"current_range_meters":10800,"station_id":"ce4bhm92rcd13ifvqglg","pricing_plan_id":"cebpf4jnsgd1na2vs0mg"},{"bike_id":"8a858ea1-7bd2-46ea-89e0-0e3881916363","system_id":"levelo_inurba_marseille","lat":43.25118,"lon":5.40339,"is_reserved":false,"is_disabled":true,"rental_uris":{"android":"levelo://app?vid=8a858ea1-7bd2-46ea-89e0-0e3881916363","ios":"levelo://app?vid=8a858ea1-7bd2-46ea-89e0-0e3881916363"},"vehicle_type_id":"4","last_reported":1742728100,"current_range_meters":10800,"station_id":"ce4bhlh2rcd13ifvqgig","pricing_plan_id":"cebpf4jnsgd1na2vs0mg"},{"bike_id":"ff526df9-66e1-4c8f-88bd-f1fc42df1991","system_id":"levelo_inurba_marseille","lat":43.24171,"lon":5.364,"is_reserved":false,"is_disabled":false,"rental_uris":{"android":"levelo://app?vid=ff526df9-66e1-4c8f-88bd-f1fc42df1991","ios":"levelo://app?vid=ff526df9-66e1-4c8f-88bd-f1fc42df1991"},"vehicle_type_id":"4","last_reported":1742728100,"current_range_meters":10800,"station_id":"cpo36qri1sfpv3e86is0","pricing_plan_id":"cebpf4jnsgd1na2vs0mg"},{"bike_id":"45cfb59b-dee4-4dfa-8135-3f3bd336e225","system_id":"levelo_inurba_marseille","lat":43.23963,"lon":5.3663,"is_reserved":false,"is_disabled":false,"rental_uris":{"android":"levelo://app?vid=45cfb59b-dee4-4dfa-8135-3f3bd336e225","ios":"levelo://app?vid=45cfb59b-dee4-4dfa-8135-3f3bd336e225"},"vehicle_type_id":"4","last_reported":1742728100,"current_range_meters":10800,"station_id":"ce4bhi12rcd13ifvqfp0","pricing_plan_id":"cebpf4jnsgd1na2vs0mg"},{"bike_id":"466b52b1-619d-4757-a4a2-7dbcc5ac0e91","system_id":"levelo_inurba_marseille","lat":43.30371,"lon":5.42499,"is_reserved":false,"is_disabled":false,"rental_uris":{"android":"levelo://app?vid=466b52b1-619d-4757-a4a2-7dbcc5ac0e91","ios":"levelo://app?vid=466b52b1-619d-4757-a4a2-7dbcc5ac0e91"},"vehicle_type_id":"4","last_reported":1742728100,"current_range_meters":10800,"station_id":"ce4bhoh2rcd13ifvqh6g","pricing_plan_id":"cebpf4jnsgd1na2vs0mg"},{"bike_id":"a9829aa8-4f8a-432e-93a9-8c3d5b4db07c","system_id":"levelo_inurba_marseille","lat":43.30141,"lon":5.37418,"is_reserved":false,"is_disabled":false,"rental_uris":{"android":"levelo://app?vid=a9829aa8-4f8a-432e-93a9-8c3d5b4db07c","ios":"levelo://app?vid=a9829aa8-4f8a-432e-93a9-8c3d5b4db07c"},"vehicle_type_id":"4","last_reported":1742728100,"current_range_meters":10800,"station_id":"ce4bgs92rcd13ifvqcc0","pricing_plan_id":"cebpf4jnsgd1na2vs0mg"},{"bike_id":"d954b141-3cee-4de0-9c29-d5babd11cd82","system_id":"levelo_inurba_marseille","lat":43.2509,"lon":5.39522,"is_reserved":false,"is_disabled":false,"rental_uris":{"android":"levelo://app?vid=d954b141-3cee-4de0-9c29-d5babd11cd82","ios":"levelo://app?vid=d954b141-3cee-4de0-9c29-d5babd11cd82"},"vehicle_type_id":"4","last_reported":1742728100,"current_range_meters":10800,"station_id":"ce4bhm12rcd13ifvqgkg","pricing_plan_id":"cebpf4jnsgd1na2vs0mg"},{"bike_id":"801ac92f-133f-417e-90ff-e9cdca3569b0","system_id":"levelo_inurba_marseille","lat":43.24078,"lon":5.37766,"is_reserved":false,"is_disabled":false,"rental_uris":{"android":"levelo://app?vid=801ac92f-133f-417e-90ff-e9cdca3569b0","ios":"levelo://app?vid=801ac92f-133f-417e-90ff-e9cdca3569b0"},"vehicle_type_id":"4","last_reported":1742728100,"current_range_meters":10800,"station_id":"ce4bhnp2rcd13ifvqgvg","pricing_plan_id":"cebpf4jnsgd1na2vs0mg"},{"bike_id":"196e5527-f8ec-47c9-88d8-c0c49611574a","system_id":"levelo_inurba_marseille","lat":43.2306,"lon":5.35499,"is_reserved":false,"is_disabled":false,"rental_uris":{"android":"levelo://app?vid=196e5527-f8ec-47c9-88d8-c0c49611574a","ios":"levelo://app?vid=196e5527-f8ec-47c9-88d8-c0c49611574a"},"vehicle_type_id":"4","last_reported":1742728100,"current_range_meters":10800,"station_id":"cpo3342slgdg3j2ifvpg","pricing_plan_id":"cebpf4jnsgd1na2vs0mg"},{"bike_id":"857f9de9-db68-4329-900c-8c41ceb56e11","system_id":"levelo_inurba_marseille","lat":43.30467,"lon":5.37904,"is_reserved":false,"is_disabled":false,"rental_uris":{"android":"levelo://app?vid=857f9de9-db68-4329-900c-8c41ceb56e11","ios":"levelo://app?vid=857f9de9-db68-4329-900c-8c41ceb56e11"},"vehicle_type_id":"4","last_reported":1742728100,"current_range_meters":11200,"station_id":"ce4bgup2rcd13ifvqcn0","pricing_plan_id":"cebpf4jnsgd1na2vs0mg"},{"bike_id":"ba52014b-a246-4894-a2c7-c3fb0c4bebc3","system_id":"levelo_inurba_marseille","lat":43.27838,"lon":5.40718,"is_reserved":false,"is_disabled":false,"rental_uris":{"android":"levelo://app?vid=ba52014b-a246-4894-a2c7-c3fb0c4bebc3","ios":"levelo://app?vid=ba52014b-a246-4894-a2c7-c3fb0c4bebc3"},"vehicle_type_id":"4","last_reported":1742728100,"current_range_meters":11200,"station_id":"ce4bhnh2rcd13ifvqgtg","pricing_plan_id":"cebpf4jnsgd1na2vs0mg"},{"bike_id":"ea375b77-5265-4f10-98eb-8a594992fa8c","system_id":"levelo_inurba_marseille","lat":43.23061,"lon":5.35497,"is_reserved":false,"is_disabled":false,"rental_uris":{"android":"levelo://app?vid=ea375b77-5265-4f10-98eb-8a594992fa8c","ios":"levelo://app?vid=ea375b77-5265-4f10-98eb-8a594992fa8c"},"vehicle_type_id":"4","last_reported":1742728100,"current_range_meters":11200,"station_id":"cpo3342slgdg3j2ifvpg","pricing_plan_id":"cebpf4jnsgd1na2vs0mg"},{"bike_id":"f9397cdf-4681-4ebd-9ed2-299c0517f62e","system_id":"levelo_inurba_marseille","lat":43.30279,"lon":5.37706,"is_reserved":false,"is_disabled":false,"rental_uris":{"android":"levelo://app?vid=f9397cdf-4681-4ebd-9ed2-299c0517f62e","ios":"levelo://app?vid=f9397cdf-4681-4ebd-9ed2-299c0517f62e"},"vehicle_type_id":"4","last_reported":1742728100,"current_range_meters":11200,"station_id":"ce4bguh2rcd13ifvqcj0","pricing_plan_id":"cebpf4jnsgd1na2vs0mg"},{"bike_id":"07541760-82c4-4d38-b58c-85ffff07e965","system_id":"levelo_inurba_marseille","lat":43.23958,"lon":5.36623,"is_reserved":false,"is_disabled":false,"rental_uris":{"android":"levelo://app?vid=07541760-82c4-4d38-b58c-85ffff07e965","ios":"levelo://app?vid=07541760-82c4-4d38-b58c-85ffff07e965"},"vehicle_type_id":"4","last_reported":1742728100,"current_range_meters":11200,"station_id":"ce4bhi12rcd13ifvqfp0","pricing_plan_id":"cebpf4jnsgd1na2vs0mg"},{"bike_id":"d534031d-e2d6-4b47-97e8-2d5f4806486d","system_id":"levelo_inurba_marseille","lat":43.24167,"lon":5.36394,"is_reserved":false,"is_disabled":false,"rental_uris":{"android":"levelo://app?vid=d534031d-e2d6-4b47-97e8-2d5f4806486d","ios":"levelo://app?vid=d534031d-e2d6-4b47-97e8-2d5f4806486d"},"vehicle_type_id":"4","last_reported":1742728100,"current_range_meters":11200,"station_id":"cpo36qri1sfpv3e86is0","pricing_plan_id":"cebpf4jnsgd1na2vs0mg"},{"bike_id":"bdd85a69-2526-423f-83bc-580097d3e5b5","system_id":"levelo_inurba_marseille","lat":43.230646,"lon":5.354991,"is_reserved":false,"is_disabled":false,"rental_uris":{"android":"levelo://app?vid=bdd85a69-2526-423f-83bc-580097d3e5b5","ios":"levelo://app?vid=bdd85a69-2526-423f-83bc-580097d3e5b5"},"vehicle_type_id":"4","last_reported":1742728100,"current_range_meters":11200,"station_id":"cpo3342slgdg3j2ifvpg","pricing_plan_id":"cebpf4jnsgd1na2vs0mg"},{"bike_id":"4c8a4056-48ac-48f3-aef0-9ae5cc16b399","system_id":"levelo_inurba_marseille","lat":43.27812,"lon":5.40705,"is_reserved":false,"is_disabled":false,"rental_uris":{"android":"levelo://app?vid=4c8a4056-48ac-48f3-aef0-9ae5cc16b399","ios":"levelo://app?vid=4c8a4056-48ac-48f3-aef0-9ae5cc16b399"},"vehicle_type_id":"4","last_reported":1742728100,"current_range_meters":11200,"station_id":"ce4bhnh2rcd13ifvqgtg","pricing_plan_id":"cebpf4jnsgd1na2vs0mg"},{"bike_id":"d848ce78-62d4-499d-a225-1a47703c7f62","system_id":"levelo_inurba_marseille","lat":43.31166,"lon":5.38724,"is_reserved":false,"is_disabled":false,"rental_uris":{"android":"levelo://app?vid=d848ce78-62d4-499d-a225-1a47703c7f62","ios":"levelo://app?vid=d848ce78-62d4-499d-a225-1a47703c7f62"},"vehicle_type_id":"4","last_reported":1742728100,"current_range_meters":11200,"station_id":"ce4bgv12rcd13ifvqcp0","pricing_plan_id":"cebpf4jnsgd1na2vs0mg"},{"bike_id":"f7128881-3250-47b4-940a-0a23e9764e36","system_id":"levelo_inurba_marseille","lat":43.25936,"lon":5.40884,"is_reserved":false,"is_disabled":false,"rental_uris":{"android":"levelo://app?vid=f7128881-3250-47b4-940a-0a23e9764e36","ios":"levelo://app?vid=f7128881-3250-47b4-940a-0a23e9764e36"},"vehicle_type_id":"4","last_reported":1742728100,"current_range_meters":11200,"station_id":"ce4bhm92rcd13ifvqglg","pricing_plan_id":"cebpf4jnsgd1na2vs0mg"},{"bike_id":"b638e0d7-250d-4483-9754-36eb29c25199","system_id":"levelo_inurba_marseille","lat":43.28796,"lon":5.39864,"is_reserved":false,"is_disabled":false,"rental_uris":{"android":"levelo://app?vid=b638e0d7-250d-4483-9754-36eb29c25199","ios":"levelo://app?vid=b638e0d7-250d-4483-9754-36eb29c25199"},"vehicle_type_id":"4","last_reported":1742728100,"current_range_meters":11200,"station_id":"","pricing_plan_id":"cebpf4jnsgd1na2vs0mg"},{"bike_id":"163a5115-2167-4447-b284-a9d7faafbe23","system_id":"levelo_inurba_marseille","lat":43.324841,"lon":5.365615,"is_reserved":false,"is_disabled":false,"rental_uris":{"android":"levelo://app?vid=163a5115-2167-4447-b284-a9d7faafbe23","ios":"levelo://app?vid=163a5115-2167-4447-b284-a9d7faafbe23"},"vehicle_type_id":"4","last_reported":1742728100,"current_range_meters":11600,"station_id":"ce4bhs12rcd13ifvqhvg","pricing_plan_id":"cebpf4jnsgd1na2vs0mg"},{"bike_id":"ef0553a3-6066-43cc-94b6-2f09725c05cb","system_id":"levelo_inurba_marseille","lat":43.28156,"lon":5.42643,"is_reserved":false,"is_disabled":false,"rental_uris":{"android":"levelo://app?vid=ef0553a3-6066-43cc-94b6-2f09725c05cb","ios":"levelo://app?vid=ef0553a3-6066-43cc-94b6-2f09725c05cb"},"vehicle_type_id":"4","last_reported":1742728100,"current_range_meters":11600,"station_id":"ce4bhnh2rcd13ifvqgug","pricing_plan_id":"cebpf4jnsgd1na2vs0mg"},{"bike_id":"566358ee-a469-4e1e-9d54-dfe18dcde584","system_id":"levelo_inurba_marseille","lat":43.28408,"lon":5.34986,"is_reserved":false,"is_disabled":false,"rental_uris":{"android":"levelo://app?vid=566358ee-a469-4e1e-9d54-dfe18dcde584","ios":"levelo://app?vid=566358ee-a469-4e1e-9d54-dfe18dcde584"},"vehicle_type_id":"4","last_reported":1742728100,"current_range_meters":11600,"station_id":"ce4bhbh2rcd13ifvqepg","pricing_plan_id":"cebpf4jnsgd1na2vs0mg"},{"bike_id":"7cbfd31c-d553-492c-81cb-8dae7f501a58","system_id":"levelo_inurba_marseille","lat":43.27917,"lon":5.41159,"is_reserved":false,"is_disabled":false,"rental_uris":{"android":"levelo://app?vid=7cbfd31c-d553-492c-81cb-8dae7f501a58","ios":"levelo://app?vid=7cbfd31c-d553-492c-81cb-8dae7f501a58"},"vehicle_type_id":"4","last_reported":1742728100,"current_range_meters":11600,"station_id":"","pricing_plan_id":"cebpf4jnsgd1na2vs0mg"},{"bike_id":"e41bf9f2-5cdf-4a27-9e19-85dd8eb5dce8","system_id":"levelo_inurba_marseille","lat":43.30139,"lon":5.37425,"is_reserved":false,"is_disabled":false,"rental_uris":{"android":"levelo://app?vid=e41bf9f2-5cdf-4a27-9e19-85dd8eb5dce8","ios":"levelo://app?vid=e41bf9f2-5cdf-4a27-9e19-85dd8eb5dce8"},"vehicle_type_id":"4","last_reported":1742728100,"current_range_meters":12000,"station_id":"ce4bgs92rcd13ifvqcc0","pricing_plan_id":"cebpf4jnsgd1na2vs0mg"},{"bike_id":"ec55c228-5d18-427e-9aaf-785bab1fd6ef","system_id":"levelo_inurba_marseille","lat":43.26059,"lon":5.39402,"is_reserved":false,"is_disabled":false,"rental_uris":{"android":"levelo://app?vid=ec55c228-5d18-427e-9aaf-785bab1fd6ef","ios":"levelo://app?vid=ec55c228-5d18-427e-9aaf-785bab1fd6ef"},"vehicle_type_id":"4","last_reported":1742728100,"current_range_meters":12000,"station_id":"ce4bhh92rcd13ifvqfj0","pricing_plan_id":"cebpf4jnsgd1na2vs0mg"},{"bike_id":"f657da43-9a05-4822-9c77-ad8671579423","system_id":"levelo_inurba_marseille","lat":43.29566,"lon":5.39976,"is_reserved":false,"is_disabled":true,"rental_uris":{"android":"levelo://app?vid=f657da43-9a05-4822-9c77-ad8671579423","ios":"levelo://app?vid=f657da43-9a05-4822-9c77-ad8671579423"},"vehicle_type_id":"4","last_reported":1742728100,"current_range_meters":12000,"station_id":"ce4bh312rcd13ifvqdj0","pricing_plan_id":"cebpf4jnsgd1na2vs0mg"},{"bike_id":"1650359f-760e-4a41-ab05-5e8897b971d2","system_id":"levelo_inurba_marseille","lat":43.31757,"lon":5.39033,"is_reserved":false,"is_disabled":false,"rental_uris":{"android":"levelo://app?vid=1650359f-760e-4a41-ab05-5e8897b971d2","ios":"levelo://app?vid=1650359f-760e-4a41-ab05-5e8897b971d2"},"vehicle_type_id":"4","last_reported":1742728100,"current_range_meters":12400,"station_id":"ce4bhqp2rcd13ifvqhng","pricing_plan_id":"cebpf4jnsgd1na2vs0mg"},{"bike_id":"a8054457-ef9c-4293-879f-1eab83000740","system_id":"levelo_inurba_marseille","lat":43.2417,"lon":5.36401,"is_reserved":false,"is_disabled":false,"rental_uris":{"android":"levelo://app?vid=a8054457-ef9c-4293-879f-1eab83000740","ios":"levelo://app?vid=a8054457-ef9c-4293-879f-1eab83000740"},"vehicle_type_id":"4","last_reported":1742728100,"current_range_meters":12400,"station_id":"cpo36qri1sfpv3e86is0","pricing_plan_id":"cebpf4jnsgd1na2vs0mg"},{"bike_id":"b0d9750a-8007-4292-bbe4-125f34d23ca3","system_id":"levelo_inurba_marseille","lat":43.28444,"lon":5.35014,"is_reserved":false,"is_disabled":false,"rental_uris":{"android":"levelo://app?vid=b0d9750a-8007-4292-bbe4-125f34d23ca3","ios":"levelo://app?vid=b0d9750a-8007-4292-bbe4-125f34d23ca3"},"vehicle_type_id":"4","last_reported":1742728100,"current_range_meters":12400,"station_id":"ce4bhbh2rcd13ifvqepg","pricing_plan_id":"cebpf4jnsgd1na2vs0mg"},{"bike_id":"f8ff41b7-94c3-4164-990c-0c31908da696","system_id":"levelo_inurba_marseille","lat":43.23062,"lon":5.35505,"is_reserved":false,"is_disabled":false,"rental_uris":{"android":"levelo://app?vid=f8ff41b7-94c3-4164-990c-0c31908da696","ios":"levelo://app?vid=f8ff41b7-94c3-4164-990c-0c31908da696"},"vehicle_type_id":"4","last_reported":1742728100,"current_range_meters":12400,"station_id":"cpo3342slgdg3j2ifvpg","pricing_plan_id":"cebpf4jnsgd1na2vs0mg"},{"bike_id":"1542e904-806a-47f4-9338-21788e6e778e","system_id":"levelo_inurba_marseille","lat":43.23971,"lon":5.36653,"is_reserved":false,"is_disabled":false,"rental_uris":{"android":"levelo://app?vid=1542e904-806a-47f4-9338-21788e6e778e","ios":"levelo://app?vid=1542e904-806a-47f4-9338-21788e6e778e"},"vehicle_type_id":"4","last_reported":1742728100,"current_range_meters":12800,"station_id":"ce4bhi12rcd13ifvqfp0","pricing_plan_id":"cebpf4jnsgd1na2vs0mg"},{"bike_id":"5415033d-576c-4cf9-9627-501bab7ee2ee","system_id":"levelo_inurba_marseille","lat":43.27055,"lon":5.40268,"is_reserved":false,"is_disabled":false,"rental_uris":{"android":"levelo://app?vid=5415033d-576c-4cf9-9627-501bab7ee2ee","ios":"levelo://app?vid=5415033d-576c-4cf9-9627-501bab7ee2ee"},"vehicle_type_id":"4","last_reported":1742728100,"current_range_meters":12800,"station_id":"ce4bhk92rcd13ifvqgc0","pricing_plan_id":"cebpf4jnsgd1na2vs0mg"},{"bike_id":"d2739044-a09d-4a9b-8854-85d84a245d21","system_id":"levelo_inurba_marseille","lat":43.2319,"lon":5.3556,"is_reserved":false,"is_disabled":false,"rental_uris":{"android":"levelo://app?vid=d2739044-a09d-4a9b-8854-85d84a245d21","ios":"levelo://app?vid=d2739044-a09d-4a9b-8854-85d84a245d21"},"vehicle_type_id":"4","last_reported":1742728100,"current_range_meters":12800,"station_id":"ce4bhu92rcd13ifvqi70","pricing_plan_id":"cebpf4jnsgd1na2vs0mg"},{"bike_id":"8ac76298-3375-4b96-8a90-9315b1510fa4","system_id":"levelo_inurba_marseille","lat":43.27796,"lon":5.4072,"is_reserved":false,"is_disabled":true,"rental_uris":{"android":"levelo://app?vid=8ac76298-3375-4b96-8a90-9315b1510fa4","ios":"levelo://app?vid=8ac76298-3375-4b96-8a90-9315b1510fa4"},"vehicle_type_id":"4","last_reported":1742728100,"current_range_meters":12800,"station_id":"ce4bhnh2rcd13ifvqgtg","pricing_plan_id":"cebpf4jnsgd1na2vs0mg"},{"bike_id":"901ad870-67db-4efd-a3cc-2d5ce9510114","system_id":"levelo_inurba_marseille","lat":43.26824,"lon":5.3943,"is_reserved":false,"is_disabled":false,"rental_uris":{"android":"levelo://app?vid=901ad870-67db-4efd-a3cc-2d5ce9510114","ios":"levelo://app?vid=901ad870-67db-4efd-a3cc-2d5ce9510114"},"vehicle_type_id":"4","last_reported":1742728100,"current_range_meters":12800,"station_id":"ce4bhh12rcd13ifvqfg0","pricing_plan_id":"cebpf4jnsgd1na2vs0mg"},{"bike_id":"b7ac545c-ab0e-4569-a87a-8fffd4694e98","system_id":"levelo_inurba_marseille","lat":43.23191,"lon":5.35544,"is_reserved":false,"is_disabled":false,"rental_uris":{"android":"levelo://app?vid=b7ac545c-ab0e-4569-a87a-8fffd4694e98","ios":"levelo://app?vid=b7ac545c-ab0e-4569-a87a-8fffd4694e98"},"vehicle_type_id":"4","last_reported":1742728100,"current_range_meters":12800,"station_id":"ce4bhu92rcd13ifvqi70","pricing_plan_id":"cebpf4jnsgd1na2vs0mg"},{"bike_id":"1e51d1f7-58cb-4e65-829d-7031ca75d9e7","system_id":"levelo_inurba_marseille","lat":43.31355,"lon":5.38498,"is_reserved":false,"is_disabled":false,"rental_uris":{"android":"levelo://app?vid=1e51d1f7-58cb-4e65-829d-7031ca75d9e7","ios":"levelo://app?vid=1e51d1f7-58cb-4e65-829d-7031ca75d9e7"},"vehicle_type_id":"4","last_reported":1742728100,"current_range_meters":12800,"station_id":"ce4bgt92rcd13ifvqcf0","pricing_plan_id":"cebpf4jnsgd1na2vs0mg"},{"bike_id":"ee5174fa-ce47-4436-a179-be1d71298dda","system_id":"levelo_inurba_marseille","lat":43.3122,"lon":5.36857,"is_reserved":false,"is_disabled":false,"rental_uris":{"android":"levelo://app?vid=ee5174fa-ce47-4436-a179-be1d71298dda","ios":"levelo://app?vid=ee5174fa-ce47-4436-a179-be1d71298dda"},"vehicle_type_id":"4","last_reported":1742728100,"current_range_meters":12800,"station_id":"ce4bgl92rcd13ifvqbq0","pricing_plan_id":"cebpf4jnsgd1na2vs0mg"},{"bike_id":"d7d0407a-0c5d-4338-9226-4ab59a9440f5","system_id":"levelo_inurba_marseille","lat":43.22936,"lon":5.3538,"is_reserved":false,"is_disabled":false,"rental_uris":{"android":"levelo://app?vid=d7d0407a-0c5d-4338-9226-4ab59a9440f5","ios":"levelo://app?vid=d7d0407a-0c5d-4338-9226-4ab59a9440f5"},"vehicle_type_id":"4","last_reported":1742728100,"current_range_meters":13600,"station_id":"cpo3532slgdg3j2ikp40","pricing_plan_id":"cebpf4jnsgd1na2vs0mg"},{"bike_id":"034718de-67f9-4b03-9b14-13a8fc4858ac","system_id":"levelo_inurba_marseille","lat":43.23199,"lon":5.35564,"is_reserved":false,"is_disabled":false,"rental_uris":{"android":"levelo://app?vid=034718de-67f9-4b03-9b14-13a8fc4858ac","ios":"levelo://app?vid=034718de-67f9-4b03-9b14-13a8fc4858ac"},"vehicle_type_id":"4","last_reported":1742728100,"current_range_meters":13600,"station_id":"ce4bhu92rcd13ifvqi70","pricing_plan_id":"cebpf4jnsgd1na2vs0mg"},{"bike_id":"e2b68c00-ea55-4d0f-ae98-6403b351276c","system_id":"levelo_inurba_marseille","lat":43.23069,"lon":5.3551,"is_reserved":false,"is_disabled":false,"rental_uris":{"android":"levelo://app?vid=e2b68c00-ea55-4d0f-ae98-6403b351276c","ios":"levelo://app?vid=e2b68c00-ea55-4d0f-ae98-6403b351276c"},"vehicle_type_id":"4","last_reported":1742728100,"current_range_meters":13600,"station_id":"cpo3342slgdg3j2ifvpg","pricing_plan_id":"cebpf4jnsgd1na2vs0mg"},{"bike_id":"17238c44-02e8-4ba3-abe3-5ae6a9cab49f","system_id":"levelo_inurba_marseille","lat":43.317592,"lon":5.390229,"is_reserved":false,"is_disabled":true,"rental_uris":{"android":"levelo://app?vid=17238c44-02e8-4ba3-abe3-5ae6a9cab49f","ios":"levelo://app?vid=17238c44-02e8-4ba3-abe3-5ae6a9cab49f"},"vehicle_type_id":"4","last_reported":1742728100,"current_range_meters":13600,"station_id":"ce4bhqp2rcd13ifvqhng","pricing_plan_id":"cebpf4jnsgd1na2vs0mg"},{"bike_id":"4baf8c5d-e0fe-4a6c-97de-a71e960c5338","system_id":"levelo_inurba_marseille","lat":43.24173,"lon":5.364,"is_reserved":false,"is_disabled":false,"rental_uris":{"android":"levelo://app?vid=4baf8c5d-e0fe-4a6c-97de-a71e960c5338","ios":"levelo://app?vid=4baf8c5d-e0fe-4a6c-97de-a71e960c5338"},"vehicle_type_id":"4","last_reported":1742728100,"current_range_meters":13600,"station_id":"cpo36qri1sfpv3e86is0","pricing_plan_id":"cebpf4jnsgd1na2vs0mg"},{"bike_id":"6cd44bb7-a821-472f-8ae9-f569bbbcf19a","system_id":"levelo_inurba_marseille","lat":43.29843,"lon":5.36282,"is_reserved":false,"is_disabled":false,"rental_uris":{"android":"levelo://app?vid=6cd44bb7-a821-472f-8ae9-f569bbbcf19a","ios":"levelo://app?vid=6cd44bb7-a821-472f-8ae9-f569bbbcf19a"},"vehicle_type_id":"4","last_reported":1742728100,"current_range_meters":13600,"station_id":"ce4bgpp2rcd13ifvqc3g","pricing_plan_id":"cebpf4jnsgd1na2vs0mg"},{"bike_id":"19300617-3688-44ac-8188-0b4bb6123814","system_id":"levelo_inurba_marseille","lat":43.28916,"lon":5.38387,"is_reserved":false,"is_disabled":false,"rental_uris":{"android":"levelo://app?vid=19300617-3688-44ac-8188-0b4bb6123814","ios":"levelo://app?vid=19300617-3688-44ac-8188-0b4bb6123814"},"vehicle_type_id":"4","last_reported":1742728100,"current_range_meters":13600,"station_id":"ce4bh612rcd13ifvqe6g","pricing_plan_id":"cebpf4jnsgd1na2vs0mg"},{"bike_id":"4c992c3a-0458-4b0e-9ccb-f4d37bdfd658","system_id":"levelo_inurba_marseille","lat":43.291932,"lon":5.357439,"is_reserved":false,"is_disabled":false,"rental_uris":{"android":"levelo://app?vid=4c992c3a-0458-4b0e-9ccb-f4d37bdfd658","ios":"levelo://app?vid=4c992c3a-0458-4b0e-9ccb-f4d37bdfd658"},"vehicle_type_id":"4","last_reported":1742728100,"current_range_meters":14000,"station_id":"ce4bhb12rcd13ifvqel0","pricing_plan_id":"cebpf4jnsgd1na2vs0mg"},{"bike_id":"487f73cb-c173-4e6b-b3c8-abeb9225cf06","system_id":"levelo_inurba_marseille","lat":43.29024,"lon":5.38652,"is_reserved":false,"is_disabled":false,"rental_uris":{"android":"levelo://app?vid=487f73cb-c173-4e6b-b3c8-abeb9225cf06","ios":"levelo://app?vid=487f73cb-c173-4e6b-b3c8-abeb9225cf06"},"vehicle_type_id":"4","last_reported":1742728100,"current_range_meters":13600,"station_id":"ce4bh4p2rcd13ifvqe0g","pricing_plan_id":"cebpf4jnsgd1na2vs0mg"},{"bike_id":"6a9d3319-5eab-4ea5-a046-7239a34f6931","system_id":"levelo_inurba_marseille","lat":43.32495,"lon":5.36558,"is_reserved":false,"is_disabled":false,"rental_uris":{"android":"levelo://app?vid=6a9d3319-5eab-4ea5-a046-7239a34f6931","ios":"levelo://app?vid=6a9d3319-5eab-4ea5-a046-7239a34f6931"},"vehicle_type_id":"4","last_reported":1742728100,"current_range_meters":14000,"station_id":"ce4bhs12rcd13ifvqhvg","pricing_plan_id":"cebpf4jnsgd1na2vs0mg"},{"bike_id":"30735f97-8e8b-4cdd-a4b4-df3e56acc466","system_id":"levelo_inurba_marseille","lat":43.29272,"lon":5.36848,"is_reserved":false,"is_disabled":false,"rental_uris":{"android":"levelo://app?vid=30735f97-8e8b-4cdd-a4b4-df3e56acc466","ios":"levelo://app?vid=30735f97-8e8b-4cdd-a4b4-df3e56acc466"},"vehicle_type_id":"4","last_reported":1742728100,"current_range_meters":14000,"station_id":"ce4bhbp2rcd13ifvqesg","pricing_plan_id":"cebpf4jnsgd1na2vs0mg"},{"bike_id":"1a28d795-bc4d-4fe1-a5e7-1aafee645a82","system_id":"levelo_inurba_marseille","lat":43.30539,"lon":5.36535,"is_reserved":false,"is_disabled":false,"rental_uris":{"android":"levelo://app?vid=1a28d795-bc4d-4fe1-a5e7-1aafee645a82","ios":"levelo://app?vid=1a28d795-bc4d-4fe1-a5e7-1aafee645a82"},"vehicle_type_id":"4","last_reported":1742728100,"current_range_meters":13600,"station_id":"ce4bgs12rcd13ifvqcag","pricing_plan_id":"cebpf4jnsgd1na2vs0mg"},{"bike_id":"b2064ad8-d523-4e00-b226-4320e3e52e2c","system_id":"levelo_inurba_marseille","lat":43.26056,"lon":5.39402,"is_reserved":false,"is_disabled":false,"rental_uris":{"android":"levelo://app?vid=b2064ad8-d523-4e00-b226-4320e3e52e2c","ios":"levelo://app?vid=b2064ad8-d523-4e00-b226-4320e3e52e2c"},"vehicle_type_id":"4","last_reported":1742728100,"current_range_meters":14000,"station_id":"ce4bhh92rcd13ifvqfj0","pricing_plan_id":"cebpf4jnsgd1na2vs0mg"},{"bike_id":"6c62d67e-b2e6-4219-b0a7-1d855799cf93","system_id":"levelo_inurba_marseille","lat":43.24813,"lon":5.37474,"is_reserved":false,"is_disabled":false,"rental_uris":{"android":"levelo://app?vid=6c62d67e-b2e6-4219-b0a7-1d855799cf93","ios":"levelo://app?vid=6c62d67e-b2e6-4219-b0a7-1d855799cf93"},"vehicle_type_id":"4","last_reported":1742728100,"current_range_meters":14400,"station_id":"ce4bhgh2rcd13ifvqfb0","pricing_plan_id":"cebpf4jnsgd1na2vs0mg"},{"bike_id":"f52c7f07-7a6b-4dbc-aeae-9fa998834082","system_id":"levelo_inurba_marseille","lat":43.32297,"lon":5.37541,"is_reserved":false,"is_disabled":false,"rental_uris":{"android":"levelo://app?vid=f52c7f07-7a6b-4dbc-aeae-9fa998834082","ios":"levelo://app?vid=f52c7f07-7a6b-4dbc-aeae-9fa998834082"},"vehicle_type_id":"4","last_reported":1742728100,"current_range_meters":14400,"station_id":"","pricing_plan_id":"cebpf4jnsgd1na2vs0mg"},{"bike_id":"209e5542-ac08-4009-abf5-f83bef8badc8","system_id":"levelo_inurba_marseille","lat":43.23965,"lon":5.36647,"is_reserved":false,"is_disabled":false,"rental_uris":{"android":"levelo://app?vid=209e5542-ac08-4009-abf5-f83bef8badc8","ios":"levelo://app?vid=209e5542-ac08-4009-abf5-f83bef8badc8"},"vehicle_type_id":"4","last_reported":1742728100,"current_range_meters":14400,"station_id":"ce4bhi12rcd13ifvqfp0","pricing_plan_id":"cebpf4jnsgd1na2vs0mg"},{"bike_id":"47e9bd04-e869-40bb-ba48-8adc9b243c46","system_id":"levelo_inurba_marseille","lat":43.25125,"lon":5.40331,"is_reserved":false,"is_disabled":false,"rental_uris":{"android":"levelo://app?vid=47e9bd04-e869-40bb-ba48-8adc9b243c46","ios":"levelo://app?vid=47e9bd04-e869-40bb-ba48-8adc9b243c46"},"vehicle_type_id":"4","last_reported":1742728100,"current_range_meters":14000,"station_id":"ce4bhlh2rcd13ifvqgig","pricing_plan_id":"cebpf4jnsgd1na2vs0mg"},{"bike_id":"aaf21abd-4df0-4de8-915d-555a82a1dfef","system_id":"levelo_inurba_marseille","lat":43.28421,"lon":5.34991,"is_reserved":false,"is_disabled":false,"rental_uris":{"android":"levelo://app?vid=aaf21abd-4df0-4de8-915d-555a82a1dfef","ios":"levelo://app?vid=aaf21abd-4df0-4de8-915d-555a82a1dfef"},"vehicle_type_id":"4","last_reported":1742728100,"current_range_meters":14400,"station_id":"ce4bhbh2rcd13ifvqepg","pricing_plan_id":"cebpf4jnsgd1na2vs0mg"},{"bike_id":"89f53ab0-bbed-4339-a48c-c7ed7fce80a7","system_id":"levelo_inurba_marseille","lat":43.24165,"lon":5.36398,"is_reserved":false,"is_disabled":false,"rental_uris":{"android":"levelo://app?vid=89f53ab0-bbed-4339-a48c-c7ed7fce80a7","ios":"levelo://app?vid=89f53ab0-bbed-4339-a48c-c7ed7fce80a7"},"vehicle_type_id":"4","last_reported":1742728100,"current_range_meters":14400,"station_id":"cpo36qri1sfpv3e86is0","pricing_plan_id":"cebpf4jnsgd1na2vs0mg"},{"bike_id":"a8b3cb95-f059-47ac-b672-1c7197ca6c51","system_id":"levelo_inurba_marseille","lat":43.28156,"lon":5.42645,"is_reserved":false,"is_disabled":false,"rental_uris":{"android":"levelo://app?vid=a8b3cb95-f059-47ac-b672-1c7197ca6c51","ios":"levelo://app?vid=a8b3cb95-f059-47ac-b672-1c7197ca6c51"},"vehicle_type_id":"4","last_reported":1742728100,"current_range_meters":14800,"station_id":"ce4bhnh2rcd13ifvqgug","pricing_plan_id":"cebpf4jnsgd1na2vs0mg"},{"bike_id":"9bd66c75-2d6b-4709-91e0-c8130478cce4","system_id":"levelo_inurba_marseille","lat":43.25916,"lon":5.40856,"is_reserved":false,"is_disabled":false,"rental_uris":{"android":"levelo://app?vid=9bd66c75-2d6b-4709-91e0-c8130478cce4","ios":"levelo://app?vid=9bd66c75-2d6b-4709-91e0-c8130478cce4"},"vehicle_type_id":"4","last_reported":1742728100,"current_range_meters":14800,"station_id":"ce4bhm92rcd13ifvqglg","pricing_plan_id":"cebpf4jnsgd1na2vs0mg"},{"bike_id":"8522f09e-029b-4ad4-874d-178efb07c438","system_id":"levelo_inurba_marseille","lat":43.27371,"lon":5.36248,"is_reserved":false,"is_disabled":false,"rental_uris":{"android":"levelo://app?vid=8522f09e-029b-4ad4-874d-178efb07c438","ios":"levelo://app?vid=8522f09e-029b-4ad4-874d-178efb07c438"},"vehicle_type_id":"4","last_reported":1742728100,"current_range_meters":14800,"station_id":"ce4bhbh2rcd13ifvqeo0","pricing_plan_id":"cebpf4jnsgd1na2vs0mg"},{"bike_id":"115561f9-8de6-497c-b35c-68d1ace111ae","system_id":"levelo_inurba_marseille","lat":43.2862,"lon":5.35109,"is_reserved":false,"is_disabled":false,"rental_uris":{"android":"levelo://app?vid=115561f9-8de6-497c-b35c-68d1ace111ae","ios":"levelo://app?vid=115561f9-8de6-497c-b35c-68d1ace111ae"},"vehicle_type_id":"4","last_reported":1742728100,"current_range_meters":14800,"station_id":"ce4bhch2rcd13ifvqeug","pricing_plan_id":"cebpf4jnsgd1na2vs0mg"},{"bike_id":"1e8c5458-cc03-4273-8c0b-75a6a7505632","system_id":"levelo_inurba_marseille","lat":43.28261,"lon":5.3506,"is_reserved":false,"is_disabled":false,"rental_uris":{"android":"levelo://app?vid=1e8c5458-cc03-4273-8c0b-75a6a7505632","ios":"levelo://app?vid=1e8c5458-cc03-4273-8c0b-75a6a7505632"},"vehicle_type_id":"4","last_reported":1742728100,"current_range_meters":14800,"station_id":"ce4bhbp2rcd13ifvqerg","pricing_plan_id":"cebpf4jnsgd1na2vs0mg"},{"bike_id":"282809df-29b4-411f-b718-322266f75751","system_id":"levelo_inurba_marseille","lat":43.23055,"lon":5.35497,"is_reserved":false,"is_disabled":false,"rental_uris":{"android":"levelo://app?vid=282809df-29b4-411f-b718-322266f75751","ios":"levelo://app?vid=282809df-29b4-411f-b718-322266f75751"},"vehicle_type_id":"4","last_reported":1742728100,"current_range_meters":14800,"station_id":"cpo3342slgdg3j2ifvpg","pricing_plan_id":"cebpf4jnsgd1na2vs0mg"},{"bike_id":"6e6f2292-d953-4193-b160-26f59d7cec7f","system_id":"levelo_inurba_marseille","lat":43.2862,"lon":5.35115,"is_reserved":false,"is_disabled":false,"rental_uris":{"android":"levelo://app?vid=6e6f2292-d953-4193-b160-26f59d7cec7f","ios":"levelo://app?vid=6e6f2292-d953-4193-b160-26f59d7cec7f"},"vehicle_type_id":"4","last_reported":1742728100,"current_range_meters":14800,"station_id":"ce4bhch2rcd13ifvqeug","pricing_plan_id":"cebpf4jnsgd1na2vs0mg"},{"bike_id":"587c4b09-c6c3-4755-8011-d820e3904490","system_id":"levelo_inurba_marseille","lat":43.2396,"lon":5.36639,"is_reserved":false,"is_disabled":false,"rental_uris":{"android":"levelo://app?vid=587c4b09-c6c3-4755-8011-d820e3904490","ios":"levelo://app?vid=587c4b09-c6c3-4755-8011-d820e3904490"},"vehicle_type_id":"4","last_reported":1742728100,"current_range_meters":14800,"station_id":"ce4bhi12rcd13ifvqfp0","pricing_plan_id":"cebpf4jnsgd1na2vs0mg"},{"bike_id":"362ce256-d873-44d5-8d0c-8eb3060da6b1","system_id":"levelo_inurba_marseille","lat":43.28156,"lon":5.42646,"is_reserved":false,"is_disabled":false,"rental_uris":{"android":"levelo://app?vid=362ce256-d873-44d5-8d0c-8eb3060da6b1","ios":"levelo://app?vid=362ce256-d873-44d5-8d0c-8eb3060da6b1"},"vehicle_type_id":"4","last_reported":1742728100,"current_range_meters":15200,"station_id":"ce4bhnh2rcd13ifvqgug","pricing_plan_id":"cebpf4jnsgd1na2vs0mg"},{"bike_id":"b4033be0-5b35-45ca-9979-c7890f6c888e","system_id":"levelo_inurba_marseille","lat":43.311677,"lon":5.387185,"is_reserved":false,"is_disabled":false,"rental_uris":{"android":"levelo://app?vid=b4033be0-5b35-45ca-9979-c7890f6c888e","ios":"levelo://app?vid=b4033be0-5b35-45ca-9979-c7890f6c888e"},"vehicle_type_id":"4","last_reported":1742728100,"current_range_meters":15200,"station_id":"ce4bh612rcd13ifvqe6g","pricing_plan_id":"cebpf4jnsgd1na2vs0mg"},{"bike_id":"c3362549-d37d-47ba-9e62-5e06d74774a8","system_id":"levelo_inurba_marseille","lat":43.2319,"lon":5.3555,"is_reserved":false,"is_disabled":false,"rental_uris":{"android":"levelo://app?vid=c3362549-d37d-47ba-9e62-5e06d74774a8","ios":"levelo://app?vid=c3362549-d37d-47ba-9e62-5e06d74774a8"},"vehicle_type_id":"4","last_reported":1742728100,"current_range_meters":15200,"station_id":"ce4bhu92rcd13ifvqi70","pricing_plan_id":"cebpf4jnsgd1na2vs0mg"},{"bike_id":"190b2064-fd76-48bb-8245-b597993b1043","system_id":"levelo_inurba_marseille","lat":43.27842,"lon":5.4069,"is_reserved":false,"is_disabled":false,"rental_uris":{"android":"levelo://app?vid=190b2064-fd76-48bb-8245-b597993b1043","ios":"levelo://app?vid=190b2064-fd76-48bb-8245-b597993b1043"},"vehicle_type_id":"4","last_reported":1742728100,"current_range_meters":15200,"station_id":"ce4bhnh2rcd13ifvqgtg","pricing_plan_id":"cebpf4jnsgd1na2vs0mg"},{"bike_id":"b0412563-bdfd-4056-9ff8-db1bf9f2dd0a","system_id":"levelo_inurba_marseille","lat":43.2396,"lon":5.36664,"is_reserved":false,"is_disabled":false,"rental_uris":{"android":"levelo://app?vid=b0412563-bdfd-4056-9ff8-db1bf9f2dd0a","ios":"levelo://app?vid=b0412563-bdfd-4056-9ff8-db1bf9f2dd0a"},"vehicle_type_id":"4","last_reported":1742728100,"current_range_meters":15200,"station_id":"ce4bhi12rcd13ifvqfp0","pricing_plan_id":"cebpf4jnsgd1na2vs0mg"},{"bike_id":"b72c88b3-1945-44b5-bf7b-ae4fb01fb317","system_id":"levelo_inurba_marseille","lat":43.32351,"lon":5.38906,"is_reserved":false,"is_disabled":false,"rental_uris":{"android":"levelo://app?vid=b72c88b3-1945-44b5-bf7b-ae4fb01fb317","ios":"levelo://app?vid=b72c88b3-1945-44b5-bf7b-ae4fb01fb317"},"vehicle_type_id":"4","last_reported":1742728100,"current_range_meters":15200,"station_id":"ce4bhqp2rcd13ifvqhog","pricing_plan_id":"cebpf4jnsgd1na2vs0mg"},{"bike_id":"2ca0e00a-5797-4fdf-8ea8-686805ca80c9","system_id":"levelo_inurba_marseille","lat":43.30937,"lon":5.39026,"is_reserved":false,"is_disabled":true,"rental_uris":{"android":"levelo://app?vid=2ca0e00a-5797-4fdf-8ea8-686805ca80c9","ios":"levelo://app?vid=2ca0e00a-5797-4fdf-8ea8-686805ca80c9"},"vehicle_type_id":"4","last_reported":1742728100,"current_range_meters":16000,"station_id":"ce4bgup2rcd13ifvqco0","pricing_plan_id":"cebpf4jnsgd1na2vs0mg"},{"bike_id":"fde42a6c-4b34-435d-90d3-cf48450edb68","system_id":"levelo_inurba_marseille","lat":43.26051,"lon":5.39368,"is_reserved":false,"is_disabled":false,"rental_uris":{"android":"levelo://app?vid=fde42a6c-4b34-435d-90d3-cf48450edb68","ios":"levelo://app?vid=fde42a6c-4b34-435d-90d3-cf48450edb68"},"vehicle_type_id":"4","last_reported":1742728100,"current_range_meters":16000,"station_id":"ce4bhh92rcd13ifvqfj0","pricing_plan_id":"cebpf4jnsgd1na2vs0mg"},{"bike_id":"34207fc9-5939-4edc-8d37-fffbb14f3eec","system_id":"levelo_inurba_marseille","lat":43.3076,"lon":5.38299,"is_reserved":false,"is_disabled":false,"rental_uris":{"android":"levelo://app?vid=34207fc9-5939-4edc-8d37-fffbb14f3eec","ios":"levelo://app?vid=34207fc9-5939-4edc-8d37-fffbb14f3eec"},"vehicle_type_id":"4","last_reported":1742728100,"current_range_meters":16000,"station_id":"","pricing_plan_id":"cebpf4jnsgd1na2vs0mg"},{"bike_id":"73f24004-486a-42ce-8b4c-437345158989","system_id":"levelo_inurba_marseille","lat":43.2593,"lon":5.40899,"is_reserved":false,"is_disabled":false,"rental_uris":{"android":"levelo://app?vid=73f24004-486a-42ce-8b4c-437345158989","ios":"levelo://app?vid=73f24004-486a-42ce-8b4c-437345158989"},"vehicle_type_id":"4","last_reported":1742728100,"current_range_meters":16000,"station_id":"ce4bhm92rcd13ifvqglg","pricing_plan_id":"cebpf4jnsgd1na2vs0mg"},{"bike_id":"f52d578c-2e92-468c-8d0d-6b48faf8734d","system_id":"levelo_inurba_marseille","lat":43.29882,"lon":5.38928,"is_reserved":false,"is_disabled":true,"rental_uris":{"android":"levelo://app?vid=f52d578c-2e92-468c-8d0d-6b48faf8734d","ios":"levelo://app?vid=f52d578c-2e92-468c-8d0d-6b48faf8734d"},"vehicle_type_id":"4","last_reported":1742728100,"current_range_meters":16000,"station_id":"ce4bh392rcd13ifvqdl0","pricing_plan_id":"cebpf4jnsgd1na2vs0mg"},{"bike_id":"f6eab7c3-2903-4033-b146-af17b763ee74","system_id":"levelo_inurba_marseille","lat":43.3054,"lon":5.36553,"is_reserved":false,"is_disabled":false,"rental_uris":{"android":"levelo://app?vid=f6eab7c3-2903-4033-b146-af17b763ee74","ios":"levelo://app?vid=f6eab7c3-2903-4033-b146-af17b763ee74"},"vehicle_type_id":"4","last_reported":1742728100,"current_range_meters":16000,"station_id":"ce4bgs12rcd13ifvqcag","pricing_plan_id":"cebpf4jnsgd1na2vs0mg"},{"bike_id":"8db8e94c-5c15-452d-8525-723b319c3c7c","system_id":"levelo_inurba_marseille","lat":43.28876,"lon":5.3933,"is_reserved":false,"is_disabled":true,"rental_uris":{"android":"levelo://app?vid=8db8e94c-5c15-452d-8525-723b319c3c7c","ios":"levelo://app?vid=8db8e94c-5c15-452d-8525-723b319c3c7c"},"vehicle_type_id":"4","last_reported":1742728100,"current_range_meters":16000,"station_id":"ce4bh2p2rcd13ifvqdi0","pricing_plan_id":"cebpf4jnsgd1na2vs0mg"},{"bike_id":"fd04745c-5ba0-453c-b5e6-6c175b8919c5","system_id":"levelo_inurba_marseille","lat":43.286041,"lon":5.351187,"is_reserved":false,"is_disabled":false,"rental_uris":{"android":"levelo://app?vid=fd04745c-5ba0-453c-b5e6-6c175b8919c5","ios":"levelo://app?vid=fd04745c-5ba0-453c-b5e6-6c175b8919c5"},"vehicle_type_id":"4","last_reported":1742728100,"current_range_meters":16000,"station_id":"ce4bgh92rcd13ifvqb50","pricing_plan_id":"cebpf4jnsgd1na2vs0mg"},{"bike_id":"3737121e-1265-4412-8d8b-331e5cf69ee9","system_id":"levelo_inurba_marseille","lat":43.31066,"lon":5.38355,"is_reserved":false,"is_disabled":false,"rental_uris":{"android":"levelo://app?vid=3737121e-1265-4412-8d8b-331e5cf69ee9","ios":"levelo://app?vid=3737121e-1265-4412-8d8b-331e5cf69ee9"},"vehicle_type_id":"4","last_reported":1742728100,"current_range_meters":16000,"station_id":"ce4bgv92rcd13ifvqcr0","pricing_plan_id":"cebpf4jnsgd1na2vs0mg"},{"bike_id":"995dc527-9441-4392-9c03-888f888754aa","system_id":"levelo_inurba_marseille","lat":43.3248,"lon":5.36566,"is_reserved":false,"is_disabled":false,"rental_uris":{"android":"levelo://app?vid=995dc527-9441-4392-9c03-888f888754aa","ios":"levelo://app?vid=995dc527-9441-4392-9c03-888f888754aa"},"vehicle_type_id":"4","last_reported":1742728100,"current_range_meters":16000,"station_id":"ce4bhs12rcd13ifvqhvg","pricing_plan_id":"cebpf4jnsgd1na2vs0mg"},{"bike_id":"7ac34af0-4560-4a02-83b4-f3a31341d559","system_id":"levelo_inurba_marseille","lat":43.26059,"lon":5.39367,"is_reserved":false,"is_disabled":false,"rental_uris":{"android":"levelo://app?vid=7ac34af0-4560-4a02-83b4-f3a31341d559","ios":"levelo://app?vid=7ac34af0-4560-4a02-83b4-f3a31341d559"},"vehicle_type_id":"4","last_reported":1742728100,"current_range_meters":16400,"station_id":"ce4bhh92rcd13ifvqfj0","pricing_plan_id":"cebpf4jnsgd1na2vs0mg"},{"bike_id":"87a71464-9b9d-4f11-a22c-d78716193fc4","system_id":"levelo_inurba_marseille","lat":43.28611,"lon":5.35114,"is_reserved":false,"is_disabled":false,"rental_uris":{"android":"levelo://app?vid=87a71464-9b9d-4f11-a22c-d78716193fc4","ios":"levelo://app?vid=87a71464-9b9d-4f11-a22c-d78716193fc4"},"vehicle_type_id":"4","last_reported":1742728100,"current_range_meters":16400,"station_id":"ce4bhch2rcd13ifvqeug","pricing_plan_id":"cebpf4jnsgd1na2vs0mg"},{"bike_id":"eff05f89-37ab-4de5-87b5-314d9e434f75","system_id":"levelo_inurba_marseille","lat":43.27993,"lon":5.40013,"is_reserved":false,"is_disabled":false,"rental_uris":{"android":"levelo://app?vid=eff05f89-37ab-4de5-87b5-314d9e434f75","ios":"levelo://app?vid=eff05f89-37ab-4de5-87b5-314d9e434f75"},"vehicle_type_id":"4","last_reported":1742728100,"current_range_meters":16400,"station_id":"ce4bho92rcd13ifvqh4g","pricing_plan_id":"cebpf4jnsgd1na2vs0mg"},{"bike_id":"bd9efa2d-e510-4373-b156-7632395cd83f","system_id":"levelo_inurba_marseille","lat":43.23961,"lon":5.36614,"is_reserved":false,"is_disabled":false,"rental_uris":{"android":"levelo://app?vid=bd9efa2d-e510-4373-b156-7632395cd83f","ios":"levelo://app?vid=bd9efa2d-e510-4373-b156-7632395cd83f"},"vehicle_type_id":"4","last_reported":1742728100,"current_range_meters":16400,"station_id":"ce4bhi12rcd13ifvqfp0","pricing_plan_id":"cebpf4jnsgd1na2vs0mg"},{"bike_id":"a0556177-d523-4357-943e-dc32ab94bf47","system_id":"levelo_inurba_marseille","lat":43.29577,"lon":5.36748,"is_reserved":false,"is_disabled":false,"rental_uris":{"android":"levelo://app?vid=a0556177-d523-4357-943e-dc32ab94bf47","ios":"levelo://app?vid=a0556177-d523-4357-943e-dc32ab94bf47"},"vehicle_type_id":"4","last_reported":1742728100,"current_range_meters":16000,"station_id":"ce4bgph2rcd13ifvqc2g","pricing_plan_id":"cebpf4jnsgd1na2vs0mg"},{"bike_id":"76757220-d8a3-400d-93c0-947089c24c8c","system_id":"levelo_inurba_marseille","lat":43.299,"lon":5.43653,"is_reserved":false,"is_disabled":false,"rental_uris":{"android":"levelo://app?vid=76757220-d8a3-400d-93c0-947089c24c8c","ios":"levelo://app?vid=76757220-d8a3-400d-93c0-947089c24c8c"},"vehicle_type_id":"4","last_reported":1742728100,"current_range_meters":16800,"station_id":"ce4bhpp2rcd13ifvqhfg","pricing_plan_id":"cebpf4jnsgd1na2vs0mg"},{"bike_id":"fd75b0f4-d590-40ad-8ab6-124339ae9bb3","system_id":"levelo_inurba_marseille","lat":43.32576,"lon":5.41009,"is_reserved":false,"is_disabled":false,"rental_uris":{"android":"levelo://app?vid=fd75b0f4-d590-40ad-8ab6-124339ae9bb3","ios":"levelo://app?vid=fd75b0f4-d590-40ad-8ab6-124339ae9bb3"},"vehicle_type_id":"4","last_reported":1742728100,"current_range_meters":16800,"station_id":"","pricing_plan_id":"cebpf4jnsgd1na2vs0mg"},{"bike_id":"e784bcf0-e6f4-419c-acc0-929d2665a4b7","system_id":"levelo_inurba_marseille","lat":43.28153,"lon":5.42617,"is_reserved":false,"is_disabled":false,"rental_uris":{"android":"levelo://app?vid=e784bcf0-e6f4-419c-acc0-929d2665a4b7","ios":"levelo://app?vid=e784bcf0-e6f4-419c-acc0-929d2665a4b7"},"vehicle_type_id":"4","last_reported":1742728100,"current_range_meters":16800,"station_id":"ce4bhnh2rcd13ifvqgug","pricing_plan_id":"cebpf4jnsgd1na2vs0mg"},{"bike_id":"73b791b4-3446-4740-9a40-60b9f2e78e09","system_id":"levelo_inurba_marseille","lat":43.2549,"lon":5.3765,"is_reserved":false,"is_disabled":false,"rental_uris":{"android":"levelo://app?vid=73b791b4-3446-4740-9a40-60b9f2e78e09","ios":"levelo://app?vid=73b791b4-3446-4740-9a40-60b9f2e78e09"},"vehicle_type_id":"4","last_reported":1742728100,"current_range_meters":16800,"station_id":"ce4bhh12rcd13ifvqff0","pricing_plan_id":"cebpf4jnsgd1na2vs0mg"},{"bike_id":"c4ab3472-f8f2-45ed-ad61-5a88a3be4471","system_id":"levelo_inurba_marseille","lat":43.29864,"lon":5.3788,"is_reserved":false,"is_disabled":false,"rental_uris":{"android":"levelo://app?vid=c4ab3472-f8f2-45ed-ad61-5a88a3be4471","ios":"levelo://app?vid=c4ab3472-f8f2-45ed-ad61-5a88a3be4471"},"vehicle_type_id":"4","last_reported":1742728100,"current_range_meters":16800,"station_id":"","pricing_plan_id":"cebpf4jnsgd1na2vs0mg"},{"bike_id":"eb5a6022-6707-43d2-a13c-de83eb519fe5","system_id":"levelo_inurba_marseille","lat":43.22928,"lon":5.35376,"is_reserved":false,"is_disabled":false,"rental_uris":{"android":"levelo://app?vid=eb5a6022-6707-43d2-a13c-de83eb519fe5","ios":"levelo://app?vid=eb5a6022-6707-43d2-a13c-de83eb519fe5"},"vehicle_type_id":"4","last_reported":1742728100,"current_range_meters":16400,"station_id":"cpo3532slgdg3j2ikp40","pricing_plan_id":"cebpf4jnsgd1na2vs0mg"},{"bike_id":"56832e1d-d640-41d1-9d93-aa349b7f036a","system_id":"levelo_inurba_marseille","lat":43.27382,"lon":5.36255,"is_reserved":false,"is_disabled":false,"rental_uris":{"android":"levelo://app?vid=56832e1d-d640-41d1-9d93-aa349b7f036a","ios":"levelo://app?vid=56832e1d-d640-41d1-9d93-aa349b7f036a"},"vehicle_type_id":"4","last_reported":1742728100,"current_range_meters":16800,"station_id":"ce4bhbh2rcd13ifvqeo0","pricing_plan_id":"cebpf4jnsgd1na2vs0mg"},{"bike_id":"1997b10d-1d35-44d3-85c4-29c84df0623c","system_id":"levelo_inurba_marseille","lat":43.24068,"lon":5.37754,"is_reserved":false,"is_disabled":false,"rental_uris":{"android":"levelo://app?vid=1997b10d-1d35-44d3-85c4-29c84df0623c","ios":"levelo://app?vid=1997b10d-1d35-44d3-85c4-29c84df0623c"},"vehicle_type_id":"4","last_reported":1742728100,"current_range_meters":16800,"station_id":"ce4bhnp2rcd13ifvqgvg","pricing_plan_id":"cebpf4jnsgd1na2vs0mg"},{"bike_id":"6da13cbe-fe0b-42ba-8b7f-69afa665c6dc","system_id":"levelo_inurba_marseille","lat":43.30322,"lon":5.37571,"is_reserved":false,"is_disabled":false,"rental_uris":{"android":"levelo://app?vid=6da13cbe-fe0b-42ba-8b7f-69afa665c6dc","ios":"levelo://app?vid=6da13cbe-fe0b-42ba-8b7f-69afa665c6dc"},"vehicle_type_id":"4","last_reported":1742728100,"current_range_meters":16800,"station_id":"","pricing_plan_id":"cebpf4jnsgd1na2vs0mg"},{"bike_id":"9b3dcaf5-b313-4c20-91dc-f1c16272632c","system_id":"levelo_inurba_marseille","lat":43.2816,"lon":5.42663,"is_reserved":false,"is_disabled":false,"rental_uris":{"android":"levelo://app?vid=9b3dcaf5-b313-4c20-91dc-f1c16272632c","ios":"levelo://app?vid=9b3dcaf5-b313-4c20-91dc-f1c16272632c"},"vehicle_type_id":"4","last_reported":1742728100,"current_range_meters":16800,"station_id":"ce4bhnh2rcd13ifvqgug","pricing_plan_id":"cebpf4jnsgd1na2vs0mg"},{"bike_id":"64da6105-406b-402f-b4c9-ed2c19fbf402","system_id":"levelo_inurba_marseille","lat":43.292725,"lon":5.384452,"is_reserved":false,"is_disabled":false,"rental_uris":{"android":"levelo://app?vid=64da6105-406b-402f-b4c9-ed2c19fbf402","ios":"levelo://app?vid=64da6105-406b-402f-b4c9-ed2c19fbf402"},"vehicle_type_id":"4","last_reported":1742728100,"current_range_meters":17200,"station_id":"","pricing_plan_id":"cebpf4jnsgd1na2vs0mg"},{"bike_id":"f74b13c7-053c-4b7a-983a-625dd03e6fbb","system_id":"levelo_inurba_marseille","lat":43.23196,"lon":5.355609,"is_reserved":false,"is_disabled":false,"rental_uris":{"android":"levelo://app?vid=f74b13c7-053c-4b7a-983a-625dd03e6fbb","ios":"levelo://app?vid=f74b13c7-053c-4b7a-983a-625dd03e6fbb"},"vehicle_type_id":"4","last_reported":1742728100,"current_range_meters":17200,"station_id":"ce4bhu92rcd13ifvqi70","pricing_plan_id":"cebpf4jnsgd1na2vs0mg"},{"bike_id":"11f4a5ee-676e-429f-8679-1776cbfb5777","system_id":"levelo_inurba_marseille","lat":43.23959,"lon":5.36634,"is_reserved":false,"is_disabled":false,"rental_uris":{"android":"levelo://app?vid=11f4a5ee-676e-429f-8679-1776cbfb5777","ios":"levelo://app?vid=11f4a5ee-676e-429f-8679-1776cbfb5777"},"vehicle_type_id":"4","last_reported":1742728100,"current_range_meters":17200,"station_id":"ce4bhi12rcd13ifvqfp0","pricing_plan_id":"cebpf4jnsgd1na2vs0mg"},{"bike_id":"3a43a6a6-9b6a-45b6-a2b9-4c8ede877505","system_id":"levelo_inurba_marseille","lat":43.23961,"lon":5.3663,"is_reserved":false,"is_disabled":false,"rental_uris":{"android":"levelo://app?vid=3a43a6a6-9b6a-45b6-a2b9-4c8ede877505","ios":"levelo://app?vid=3a43a6a6-9b6a-45b6-a2b9-4c8ede877505"},"vehicle_type_id":"4","last_reported":1742728100,"current_range_meters":17200,"station_id":"ce4bhi12rcd13ifvqfp0","pricing_plan_id":"cebpf4jnsgd1na2vs0mg"},{"bike_id":"bb97fd84-bf19-4b97-b7ef-6635ac34c84d","system_id":"levelo_inurba_marseille","lat":43.28265,"lon":5.35063,"is_reserved":false,"is_disabled":false,"rental_uris":{"android":"levelo://app?vid=bb97fd84-bf19-4b97-b7ef-6635ac34c84d","ios":"levelo://app?vid=bb97fd84-bf19-4b97-b7ef-6635ac34c84d"},"vehicle_type_id":"4","last_reported":1742728100,"current_range_meters":17200,"station_id":"ce4bhbp2rcd13ifvqerg","pricing_plan_id":"cebpf4jnsgd1na2vs0mg"},{"bike_id":"9e9d31e2-853c-4c0e-b66e-22bc2846ea61","system_id":"levelo_inurba_marseille","lat":43.32496,"lon":5.36568,"is_reserved":false,"is_disabled":false,"rental_uris":{"android":"levelo://app?vid=9e9d31e2-853c-4c0e-b66e-22bc2846ea61","ios":"levelo://app?vid=9e9d31e2-853c-4c0e-b66e-22bc2846ea61"},"vehicle_type_id":"4","last_reported":1742728100,"current_range_meters":17200,"station_id":"ce4bhs12rcd13ifvqhvg","pricing_plan_id":"cebpf4jnsgd1na2vs0mg"},{"bike_id":"67bf2362-5133-4aa2-bd64-4fc935feef23","system_id":"levelo_inurba_marseille","lat":43.3025,"lon":5.40057,"is_reserved":false,"is_disabled":false,"rental_uris":{"android":"levelo://app?vid=67bf2362-5133-4aa2-bd64-4fc935feef23","ios":"levelo://app?vid=67bf2362-5133-4aa2-bd64-4fc935feef23"},"vehicle_type_id":"4","last_reported":1742728100,"current_range_meters":17200,"station_id":"ce4bgvh2rcd13ifvqcs0","pricing_plan_id":"cebpf4jnsgd1na2vs0mg"},{"bike_id":"1b1aa697-db58-47f9-b324-bdeb39cb3418","system_id":"levelo_inurba_marseille","lat":43.32063,"lon":5.37674,"is_reserved":false,"is_disabled":false,"rental_uris":{"android":"levelo://app?vid=1b1aa697-db58-47f9-b324-bdeb39cb3418","ios":"levelo://app?vid=1b1aa697-db58-47f9-b324-bdeb39cb3418"},"vehicle_type_id":"4","last_reported":1742728100,"current_range_meters":17200,"station_id":"","pricing_plan_id":"cebpf4jnsgd1na2vs0mg"},{"bike_id":"b97b8876-d969-4576-b7ab-db9b2177d974","system_id":"levelo_inurba_marseille","lat":43.276371,"lon":5.389004,"is_reserved":false,"is_disabled":false,"rental_uris":{"android":"levelo://app?vid=b97b8876-d969-4576-b7ab-db9b2177d974","ios":"levelo://app?vid=b97b8876-d969-4576-b7ab-db9b2177d974"},"vehicle_type_id":"4","last_reported":1742728100,"current_range_meters":17200,"station_id":"ce4bhi12rcd13ifvqfo0","pricing_plan_id":"cebpf4jnsgd1na2vs0mg"},{"bike_id":"ba298775-8350-4b57-9be0-99308773b5b4","system_id":"levelo_inurba_marseille","lat":43.28153,"lon":5.42628,"is_reserved":false,"is_disabled":false,"rental_uris":{"android":"levelo://app?vid=ba298775-8350-4b57-9be0-99308773b5b4","ios":"levelo://app?vid=ba298775-8350-4b57-9be0-99308773b5b4"},"vehicle_type_id":"4","last_reported":1742728100,"current_range_meters":17200,"station_id":"ce4bhnh2rcd13ifvqgug","pricing_plan_id":"cebpf4jnsgd1na2vs0mg"},{"bike_id":"411f3bcd-8c10-4807-829c-d644d09dbe42","system_id":"levelo_inurba_marseille","lat":43.330194,"lon":5.390505,"is_reserved":false,"is_disabled":true,"rental_uris":{"android":"levelo://app?vid=411f3bcd-8c10-4807-829c-d644d09dbe42","ios":"levelo://app?vid=411f3bcd-8c10-4807-829c-d644d09dbe42"},"vehicle_type_id":"4","last_reported":1742728100,"current_range_meters":17200,"station_id":"ce4bhr92rcd13ifvqhrg","pricing_plan_id":"cebpf4jnsgd1na2vs0mg"},{"bike_id":"961053f7-f951-41f7-9b83-52209eb1b3ae","system_id":"levelo_inurba_marseille","lat":43.23047,"lon":5.35502,"is_reserved":false,"is_disabled":false,"rental_uris":{"android":"levelo://app?vid=961053f7-f951-41f7-9b83-52209eb1b3ae","ios":"levelo://app?vid=961053f7-f951-41f7-9b83-52209eb1b3ae"},"vehicle_type_id":"4","last_reported":1742728100,"current_range_meters":17200,"station_id":"cpo3342slgdg3j2ifvpg","pricing_plan_id":"cebpf4jnsgd1na2vs0mg"},{"bike_id":"41c8b74c-362a-4ace-a8be-a871abb3ef89","system_id":"levelo_inurba_marseille","lat":43.26154,"lon":5.405937,"is_reserved":false,"is_disabled":false,"rental_uris":{"android":"levelo://app?vid=41c8b74c-362a-4ace-a8be-a871abb3ef89","ios":"levelo://app?vid=41c8b74c-362a-4ace-a8be-a871abb3ef89"},"vehicle_type_id":"4","last_reported":1742728100,"current_range_meters":17200,"station_id":"","pricing_plan_id":"cebpf4jnsgd1na2vs0mg"},{"bike_id":"074ef621-2343-421e-9821-ea27910008f6","system_id":"levelo_inurba_marseille","lat":43.23649,"lon":5.3777,"is_reserved":false,"is_disabled":false,"rental_uris":{"android":"levelo://app?vid=074ef621-2343-421e-9821-ea27910008f6","ios":"levelo://app?vid=074ef621-2343-421e-9821-ea27910008f6"},"vehicle_type_id":"4","last_reported":1742728100,"current_range_meters":17600,"station_id":"","pricing_plan_id":"cebpf4jnsgd1na2vs0mg"},{"bike_id":"fe5053ed-9532-4d07-8dd6-91b4532665c6","system_id":"levelo_inurba_marseille","lat":43.28848,"lon":5.35856,"is_reserved":false,"is_disabled":false,"rental_uris":{"android":"levelo://app?vid=fe5053ed-9532-4d07-8dd6-91b4532665c6","ios":"levelo://app?vid=fe5053ed-9532-4d07-8dd6-91b4532665c6"},"vehicle_type_id":"4","last_reported":1742728100,"current_range_meters":17600,"station_id":"ce4bhb12rcd13ifvqem0","pricing_plan_id":"cebpf4jnsgd1na2vs0mg"},{"bike_id":"0fe64e53-0568-4901-b9d9-f0c79456e34f","system_id":"levelo_inurba_marseille","lat":43.33018,"lon":5.43858,"is_reserved":false,"is_disabled":false,"rental_uris":{"android":"levelo://app?vid=0fe64e53-0568-4901-b9d9-f0c79456e34f","ios":"levelo://app?vid=0fe64e53-0568-4901-b9d9-f0c79456e34f"},"vehicle_type_id":"4","last_reported":1742728100,"current_range_meters":17600,"station_id":"","pricing_plan_id":"cebpf4jnsgd1na2vs0mg"},{"bike_id":"3d616c92-df78-4c95-a846-52e531688b36","system_id":"levelo_inurba_marseille","lat":43.28411,"lon":5.34986,"is_reserved":false,"is_disabled":false,"rental_uris":{"android":"levelo://app?vid=3d616c92-df78-4c95-a846-52e531688b36","ios":"levelo://app?vid=3d616c92-df78-4c95-a846-52e531688b36"},"vehicle_type_id":"4","last_reported":1742728100,"current_range_meters":17600,"station_id":"ce4bhbh2rcd13ifvqepg","pricing_plan_id":"cebpf4jnsgd1na2vs0mg"},{"bike_id":"83dcf195-80a6-4d17-94d3-14f33f8671c7","system_id":"levelo_inurba_marseille","lat":43.2293,"lon":5.35377,"is_reserved":false,"is_disabled":false,"rental_uris":{"android":"levelo://app?vid=83dcf195-80a6-4d17-94d3-14f33f8671c7","ios":"levelo://app?vid=83dcf195-80a6-4d17-94d3-14f33f8671c7"},"vehicle_type_id":"4","last_reported":1742728100,"current_range_meters":18000,"station_id":"cpo3532slgdg3j2ikp40","pricing_plan_id":"cebpf4jnsgd1na2vs0mg"},{"bike_id":"25f2c2e5-0c09-4a67-8c29-edd40e18a987","system_id":"levelo_inurba_marseille","lat":43.24072,"lon":5.39622,"is_reserved":false,"is_disabled":false,"rental_uris":{"android":"levelo://app?vid=25f2c2e5-0c09-4a67-8c29-edd40e18a987","ios":"levelo://app?vid=25f2c2e5-0c09-4a67-8c29-edd40e18a987"},"vehicle_type_id":"4","last_reported":1742728100,"current_range_meters":18000,"station_id":"ce4bhn12rcd13ifvqgpg","pricing_plan_id":"cebpf4jnsgd1na2vs0mg"},{"bike_id":"8135a3e2-a50f-446f-8694-dfaa1c450829","system_id":"levelo_inurba_marseille","lat":43.28467,"lon":5.359,"is_reserved":false,"is_disabled":true,"rental_uris":{"android":"levelo://app?vid=8135a3e2-a50f-446f-8694-dfaa1c450829","ios":"levelo://app?vid=8135a3e2-a50f-446f-8694-dfaa1c450829"},"vehicle_type_id":"4","last_reported":1742728100,"current_range_meters":18000,"station_id":"ce4bhah2rcd13ifvqei0","pricing_plan_id":"cebpf4jnsgd1na2vs0mg"},{"bike_id":"31e86110-920c-4bf1-821b-4a98b869c353","system_id":"levelo_inurba_marseille","lat":43.31896,"lon":5.40736,"is_reserved":false,"is_disabled":false,"rental_uris":{"android":"levelo://app?vid=31e86110-920c-4bf1-821b-4a98b869c353","ios":"levelo://app?vid=31e86110-920c-4bf1-821b-4a98b869c353"},"vehicle_type_id":"4","last_reported":1742728100,"current_range_meters":18000,"station_id":"ce4bhq12rcd13ifvqhig","pricing_plan_id":"cebpf4jnsgd1na2vs0mg"},{"bike_id":"2837128b-27ec-48c9-9f29-25103435cee9","system_id":"levelo_inurba_marseille","lat":43.26568,"lon":5.39014,"is_reserved":false,"is_disabled":false,"rental_uris":{"android":"levelo://app?vid=2837128b-27ec-48c9-9f29-25103435cee9","ios":"levelo://app?vid=2837128b-27ec-48c9-9f29-25103435cee9"},"vehicle_type_id":"4","last_reported":1742728100,"current_range_meters":18800,"station_id":"ce4bhe12rcd13ifvqf30","pricing_plan_id":"cebpf4jnsgd1na2vs0mg"},{"bike_id":"5834dfcf-f290-419a-acc0-1e4a34af5222","system_id":"levelo_inurba_marseille","lat":43.23965,"lon":5.36629,"is_reserved":false,"is_disabled":false,"rental_uris":{"android":"levelo://app?vid=5834dfcf-f290-419a-acc0-1e4a34af5222","ios":"levelo://app?vid=5834dfcf-f290-419a-acc0-1e4a34af5222"},"vehicle_type_id":"4","last_reported":1742728100,"current_range_meters":18000,"station_id":"ce4bhi12rcd13ifvqfp0","pricing_plan_id":"cebpf4jnsgd1na2vs0mg"},{"bike_id":"73cc7ec7-8294-490e-9860-61938d46e5db","system_id":"levelo_inurba_marseille","lat":43.30314,"lon":5.39204,"is_reserved":false,"is_disabled":false,"rental_uris":{"android":"levelo://app?vid=73cc7ec7-8294-490e-9860-61938d46e5db","ios":"levelo://app?vid=73cc7ec7-8294-490e-9860-61938d46e5db"},"vehicle_type_id":"4","last_reported":1742728100,"current_range_meters":18000,"station_id":"ce4bgkh2rcd13ifvqbk0","pricing_plan_id":"cebpf4jnsgd1na2vs0mg"},{"bike_id":"96d5bc46-ee81-4a31-a1de-2bcc4a989eef","system_id":"levelo_inurba_marseille","lat":43.32365,"lon":5.3677,"is_reserved":false,"is_disabled":false,"rental_uris":{"android":"levelo://app?vid=96d5bc46-ee81-4a31-a1de-2bcc4a989eef","ios":"levelo://app?vid=96d5bc46-ee81-4a31-a1de-2bcc4a989eef"},"vehicle_type_id":"4","last_reported":1742728100,"current_range_meters":18000,"station_id":"ce4bhsh2rcd13ifvqi2g","pricing_plan_id":"cebpf4jnsgd1na2vs0mg"},{"bike_id":"b8c55d8a-dbd2-455d-921a-196c9c89183e","system_id":"levelo_inurba_marseille","lat":43.30962,"lon":5.39048,"is_reserved":false,"is_disabled":true,"rental_uris":{"android":"levelo://app?vid=b8c55d8a-dbd2-455d-921a-196c9c89183e","ios":"levelo://app?vid=b8c55d8a-dbd2-455d-921a-196c9c89183e"},"vehicle_type_id":"4","last_reported":1742728100,"current_range_meters":18000,"station_id":"ce4bgup2rcd13ifvqco0","pricing_plan_id":"cebpf4jnsgd1na2vs0mg"},{"bike_id":"75128158-9a82-45ca-8afc-dd6274fbbf41","system_id":"levelo_inurba_marseille","lat":43.29628,"lon":5.40602,"is_reserved":false,"is_disabled":false,"rental_uris":{"android":"levelo://app?vid=75128158-9a82-45ca-8afc-dd6274fbbf41","ios":"levelo://app?vid=75128158-9a82-45ca-8afc-dd6274fbbf41"},"vehicle_type_id":"4","last_reported":1742728100,"current_range_meters":18000,"station_id":"ce4bh0h2rcd13ifvqd60","pricing_plan_id":"cebpf4jnsgd1na2vs0mg"},{"bike_id":"d85b5d6f-fe51-467c-96e9-517c260682e1","system_id":"levelo_inurba_marseille","lat":43.32354,"lon":5.36768,"is_reserved":false,"is_disabled":false,"rental_uris":{"android":"levelo://app?vid=d85b5d6f-fe51-467c-96e9-517c260682e1","ios":"levelo://app?vid=d85b5d6f-fe51-467c-96e9-517c260682e1"},"vehicle_type_id":"4","last_reported":1742728100,"current_range_meters":18000,"station_id":"ce4bhsh2rcd13ifvqi2g","pricing_plan_id":"cebpf4jnsgd1na2vs0mg"},{"bike_id":"65242f0b-a8aa-4cab-8697-be58691d098c","system_id":"levelo_inurba_marseille","lat":43.28872,"lon":5.40906,"is_reserved":false,"is_disabled":false,"rental_uris":{"android":"levelo://app?vid=65242f0b-a8aa-4cab-8697-be58691d098c","ios":"levelo://app?vid=65242f0b-a8aa-4cab-8697-be58691d098c"},"vehicle_type_id":"4","last_reported":1742728100,"current_range_meters":18000,"station_id":"","pricing_plan_id":"cebpf4jnsgd1na2vs0mg"},{"bike_id":"b99b9b14-3f19-4244-92c2-5ddce01add5d","system_id":"levelo_inurba_marseille","lat":43.32985,"lon":5.36823,"is_reserved":false,"is_disabled":false,"rental_uris":{"android":"levelo://app?vid=b99b9b14-3f19-4244-92c2-5ddce01add5d","ios":"levelo://app?vid=b99b9b14-3f19-4244-92c2-5ddce01add5d"},"vehicle_type_id":"4","last_reported":1742728100,"current_range_meters":18000,"station_id":"","pricing_plan_id":"cebpf4jnsgd1na2vs0mg"},{"bike_id":"ef12f1df-58a7-44f9-a515-abbc046895de","system_id":"levelo_inurba_marseille","lat":43.241778,"lon":5.397377,"is_reserved":false,"is_disabled":false,"rental_uris":{"android":"levelo://app?vid=ef12f1df-58a7-44f9-a515-abbc046895de","ios":"levelo://app?vid=ef12f1df-58a7-44f9-a515-abbc046895de"},