{"last_updated":1735927919,"ttl":60,"version":"2.2","data":{"bikes":[{"bike_id":"9cc71510-9e84-408f-b333-ecb235fb2770","system_id":"levelo_inurba_marseille","lat":43.26679,"lon":5.38265,"is_reserved":false,"is_disabled":false,"rental_uris":{"android":"levelo://app?vid=9cc71510-9e84-408f-b333-ecb235fb2770","ios":"levelo://app?vid=9cc71510-9e84-408f-b333-ecb235fb2770"},"vehicle_type_id":"4","last_reported":1735927919,"current_range_meters":20800,"station_id":"ce4bhg92rcd13ifvqf90","pricing_plan_id":"cebpf4jnsgd1na2vs0mg"},{"bike_id":"54b912ba-e82a-4dc9-aa4c-0c4f37b17a80","system_id":"levelo_inurba_marseille","lat":43.29976,"lon":5.41309,"is_reserved":false,"is_disabled":false,"rental_uris":{"android":"levelo://app?vid=54b912ba-e82a-4dc9-aa4c-0c4f37b17a80","ios":"levelo://app?vid=54b912ba-e82a-4dc9-aa4c-0c4f37b17a80"},"vehicle_type_id":"4","last_reported":1735927919,"current_range_meters":38800,"station_id":"ce4bhp12rcd13ifvqh9g","pricing_plan_id":"cebpf4jnsgd1na2vs0mg"},{"bike_id":"bf54e88b-da3f-4189-8098-c83ac2078216","system_id":"levelo_inurba_marseille","lat":43.27946,"lon":5.41037,"is_reserved":false,"is_disabled":false,"rental_uris":{"android":"levelo://app?vid=bf54e88b-da3f-4189-8098-c83ac2078216","ios":"levelo://app?vid=bf54e88b-da3f-4189-8098-c83ac2078216"},"vehicle_type_id":"4","last_reported":1735927919,"current_range_meters":27200,"station_id":"ce4bhnp2rcd13ifvqh0g","pricing_plan_id":"cebpf4jnsgd1na2vs0mg"},{"bike_id":"71da731e-4f22-4aa1-8ffb-f3de0458ac84","system_id":"levelo_inurba_marseille","lat":43.31696,"lon":5.40524,"is_reserved":false,"is_disabled":false,"rental_uris":{"android":"levelo://app?vid=71da731e-4f22-4aa1-8ffb-f3de0458ac84","ios":"levelo://app?vid=71da731e-4f22-4aa1-8ffb-f3de0458ac84"},"vehicle_type_id":"4","last_reported":1735927919,"current_range_meters":19200,"station_id":"ce4bh012rcd13ifvqd00","pricing_plan_id":"cebpf4jnsgd1na2vs0mg"},{"bike_id":"33620e62-568e-4de5-ad46-ceb9ed4dd267","system_id":"levelo_inurba_marseille","lat":43.2621,"lon":5.37434,"is_reserved":false,"is_disabled":false,"rental_uris":{"android":"levelo://app?vid=33620e62-568e-4de5-ad46-ceb9ed4dd267","ios":"levelo://app?vid=33620e62-568e-4de5-ad46-ceb9ed4dd267"},"vehicle_type_id":"4","last_reported":1735927919,"current_range_meters":38800,"station_id":"ce4bhgp2rcd13ifvqfc0","pricing_plan_id":"cebpf4jnsgd1na2vs0mg"},{"bike_id":"7997b089-1c2f-4581-af18-425903d8dc91","system_id":"levelo_inurba_marseille","lat":43.28961,"lon":5.38507,"is_reserved":false,"is_disabled":false,"rental_uris":{"android":"levelo://app?vid=7997b089-1c2f-4581-af18-425903d8dc91","ios":"levelo://app?vid=7997b089-1c2f-4581-af18-425903d8dc91"},"vehicle_type_id":"4","last_reported":1735927919,"current_range_meters":9200,"station_id":"ce4bh612rcd13ifvqe6g","pricing_plan_id":"cebpf4jnsgd1na2vs0mg"},{"bike_id":"ca4beb2c-c4d8-484f-9237-25798230877a","system_id":"levelo_inurba_marseille","lat":43.29025,"lon":5.35601,"is_reserved":false,"is_disabled":false,"rental_uris":{"android":"levelo://app?vid=ca4beb2c-c4d8-484f-9237-25798230877a","ios":"levelo://app?vid=ca4beb2c-c4d8-484f-9237-25798230877a"},"vehicle_type_id":"4","last_reported":1735927919,"current_range_meters":32000,"station_id":"ce4bhb92rcd13ifvqen0","pricing_plan_id":"cebpf4jnsgd1na2vs0mg"},{"bike_id":"e1dfcdee-18af-407f-9a6c-807a8fefbf81","system_id":"levelo_inurba_marseille","lat":43.29007,"lon":5.35588,"is_reserved":false,"is_disabled":false,"rental_uris":{"android":"levelo://app?vid=e1dfcdee-18af-407f-9a6c-807a8fefbf81","ios":"levelo://app?vid=e1dfcdee-18af-407f-9a6c-807a8fefbf81"},"vehicle_type_id":"4","last_reported":1735927919,"current_range_meters":39200,"station_id":"ce4bhb92rcd13ifvqen0","pricing_plan_id":"cebpf4jnsgd1na2vs0mg"},{"bike_id":"b93015a1-25b5-4fc1-8a97-57557dbd7545","system_id":"levelo_inurba_marseille","lat":43.3053,"lon":5.36696,"is_reserved":false,"is_disabled":false,"rental_uris":{"android":"levelo://app?vid=b93015a1-25b5-4fc1-8a97-57557dbd7545","ios":"levelo://app?vid=b93015a1-25b5-4fc1-8a97-57557dbd7545"},"vehicle_type_id":"4","last_reported":1735927919,"current_range_meters":36400,"station_id":"ce4bgrp2rcd13ifvqc9g","pricing_plan_id":"cebpf4jnsgd1na2vs0mg"},{"bike_id":"36d0910b-d540-4d75-b065-f044cb5b6555","system_id":"levelo_inurba_marseille","lat":43.29584,"lon":5.36728,"is_reserved":false,"is_disabled":false,"rental_uris":{"android":"levelo://app?vid=36d0910b-d540-4d75-b065-f044cb5b6555","ios":"levelo://app?vid=36d0910b-d540-4d75-b065-f044cb5b6555"},"vehicle_type_id":"4","last_reported":1735927919,"current_range_meters":38800,"station_id":"ce4bgph2rcd13ifvqc2g","pricing_plan_id":"cebpf4jnsgd1na2vs0mg"},{"bike_id":"0cc226b6-5f36-4e90-9e5b-497bf45d78e0","system_id":"levelo_inurba_marseille","lat":43.28014,"lon":5.39995,"is_reserved":false,"is_disabled":false,"rental_uris":{"android":"levelo://app?vid=0cc226b6-5f36-4e90-9e5b-497bf45d78e0","ios":"levelo://app?vid=0cc226b6-5f36-4e90-9e5b-497bf45d78e0"},"vehicle_type_id":"4","last_reported":1735927919,"current_range_meters":38800,"station_id":"ce4bho92rcd13ifvqh4g","pricing_plan_id":"cebpf4jnsgd1na2vs0mg"},{"bike_id":"99f6a60b-e698-4008-869a-c7b70f268121","system_id":"levelo_inurba_marseille","lat":43.30477,"lon":5.37912,"is_reserved":false,"is_disabled":false,"rental_uris":{"android":"levelo://app?vid=99f6a60b-e698-4008-869a-c7b70f268121","ios":"levelo://app?vid=99f6a60b-e698-4008-869a-c7b70f268121"},"vehicle_type_id":"4","last_reported":1735927919,"current_range_meters":38400,"station_id":"ce4bgup2rcd13ifvqcn0","pricing_plan_id":"cebpf4jnsgd1na2vs0mg"},{"bike_id":"8e6a8cfa-e538-4aaf-8e12-2991be0ee87e","system_id":"levelo_inurba_marseille","lat":43.29034,"lon":5.38133,"is_reserved":false,"is_disabled":false,"rental_uris":{"android":"levelo://app?vid=8e6a8cfa-e538-4aaf-8e12-2991be0ee87e","ios":"levelo://app?vid=8e6a8cfa-e538-4aaf-8e12-2991be0ee87e"},"vehicle_type_id":"4","last_reported":1735927919,"current_range_meters":28000,"station_id":"ce4bh4p2rcd13ifvqe1g","pricing_plan_id":"cebpf4jnsgd1na2vs0mg"},{"bike_id":"116f92ae-65b4-4f7c-a23b-1117c0a69b33","system_id":"levelo_inurba_marseille","lat":43.28673,"lon":5.35026,"is_reserved":false,"is_disabled":false,"rental_uris":{"android":"levelo://app?vid=116f92ae-65b4-4f7c-a23b-1117c0a69b33","ios":"levelo://app?vid=116f92ae-65b4-4f7c-a23b-1117c0a69b33"},"vehicle_type_id":"4","last_reported":1735927919,"current_range_meters":26000,"station_id":"ce4bhch2rcd13ifvqeug","pricing_plan_id":"cebpf4jnsgd1na2vs0mg"},{"bike_id":"e9f9f12e-79a6-4764-be79-7964c4ba15ed","system_id":"levelo_inurba_marseille","lat":43.25582,"lon":5.38222,"is_reserved":false,"is_disabled":false,"rental_uris":{"android":"levelo://app?vid=e9f9f12e-79a6-4764-be79-7964c4ba15ed","ios":"levelo://app?vid=e9f9f12e-79a6-4764-be79-7964c4ba15ed"},"vehicle_type_id":"4","last_reported":1735927919,"current_range_meters":39200,"station_id":"ce4bhih2rcd13ifvqfs0","pricing_plan_id":"cebpf4jnsgd1na2vs0mg"},{"bike_id":"0a72fabb-c385-470f-8026-c60effe2f3f0","system_id":"levelo_inurba_marseille","lat":43.29686,"lon":5.3597,"is_reserved":false,"is_disabled":false,"rental_uris":{"android":"levelo://app?vid=0a72fabb-c385-470f-8026-c60effe2f3f0","ios":"levelo://app?vid=0a72fabb-c385-470f-8026-c60effe2f3f0"},"vehicle_type_id":"4","last_reported":1735927919,"current_range_meters":24800,"station_id":"","pricing_plan_id":"cebpf4jnsgd1na2vs0mg"},{"bike_id":"6b65e966-5a1a-4003-9913-97f31fc37c8a","system_id":"levelo_inurba_marseille","lat":43.29042,"lon":5.38665,"is_reserved":false,"is_disabled":false,"rental_uris":{"android":"levelo://app?vid=6b65e966-5a1a-4003-9913-97f31fc37c8a","ios":"levelo://app?vid=6b65e966-5a1a-4003-9913-97f31fc37c8a"},"vehicle_type_id":"4","last_reported":1735927919,"current_range_meters":23200,"station_id":"ce4bh4p2rcd13ifvqe0g","pricing_plan_id":"cebpf4jnsgd1na2vs0mg"},{"bike_id":"76d392c8-6dd4-4fbf-b626-27c2990c047b","system_id":"levelo_inurba_marseille","lat":43.28155,"lon":5.4279,"is_reserved":false,"is_disabled":false,"rental_uris":{"android":"levelo://app?vid=76d392c8-6dd4-4fbf-b626-27c2990c047b","ios":"levelo://app?vid=76d392c8-6dd4-4fbf-b626-27c2990c047b"},"vehicle_type_id":"4","last_reported":1735927919,"current_range_meters":16800,"station_id":"","pricing_plan_id":"cebpf4jnsgd1na2vs0mg"},{"bike_id":"ebb56956-e2e2-4f51-8f7a-80ccc26c078c","system_id":"levelo_inurba_marseille","lat":43.28153,"lon":5.42618,"is_reserved":false,"is_disabled":false,"rental_uris":{"android":"levelo://app?vid=ebb56956-e2e2-4f51-8f7a-80ccc26c078c","ios":"levelo://app?vid=ebb56956-e2e2-4f51-8f7a-80ccc26c078c"},"vehicle_type_id":"4","last_reported":1735927919,"current_range_meters":30400,"station_id":"ce4bhnh2rcd13ifvqgug","pricing_plan_id":"cebpf4jnsgd1na2vs0mg"},{"bike_id":"0577aeee-62fc-4f8a-a70a-045581fe2973","system_id":"levelo_inurba_marseille","lat":43.29447,"lon":5.39748,"is_reserved":false,"is_disabled":false,"rental_uris":{"android":"levelo://app?vid=0577aeee-62fc-4f8a-a70a-045581fe2973","ios":"levelo://app?vid=0577aeee-62fc-4f8a-a70a-045581fe2973"},"vehicle_type_id":"4","last_reported":1735927919,"current_range_meters":22000,"station_id":"ce4bh3h2rcd13ifvqdo0","pricing_plan_id":"cebpf4jnsgd1na2vs0mg"},{"bike_id":"4c0c6329-61b7-44a9-8f31-f23f15dd5702","system_id":"levelo_inurba_marseille","lat":43.29265,"lon":5.38442,"is_reserved":false,"is_disabled":false,"rental_uris":{"android":"levelo://app?vid=4c0c6329-61b7-44a9-8f31-f23f15dd5702","ios":"levelo://app?vid=4c0c6329-61b7-44a9-8f31-f23f15dd5702"},"vehicle_type_id":"4","last_reported":1735927919,"current_range_meters":23200,"station_id":"ce4bh692rcd13ifvqea0","pricing_plan_id":"cebpf4jnsgd1na2vs0mg"},{"bike_id":"1e30ab51-0361-4bb8-90b9-ba78be43a285","system_id":"levelo_inurba_marseille","lat":43.27677,"lon":5.38919,"is_reserved":false,"is_disabled":false,"rental_uris":{"android":"levelo://app?vid=1e30ab51-0361-4bb8-90b9-ba78be43a285","ios":"levelo://app?vid=1e30ab51-0361-4bb8-90b9-ba78be43a285"},"vehicle_type_id":"4","last_reported":1735927919,"current_range_meters":38800,"station_id":"ce4bhi12rcd13ifvqfo0","pricing_plan_id":"cebpf4jnsgd1na2vs0mg"},{"bike_id":"53bf85fe-dd63-4844-ad95-abf78e8c02a9","system_id":"levelo_inurba_marseille","lat":43.30176,"lon":5.3661,"is_reserved":false,"is_disabled":false,"rental_uris":{"android":"levelo://app?vid=53bf85fe-dd63-4844-ad95-abf78e8c02a9","ios":"levelo://app?vid=53bf85fe-dd63-4844-ad95-abf78e8c02a9"},"vehicle_type_id":"4","last_reported":1735927919,"current_range_meters":19200,"station_id":"ce4bgrh2rcd13ifvqc8g","pricing_plan_id":"cebpf4jnsgd1na2vs0mg"},{"bike_id":"c2e1a2f3-8fa2-4f47-a468-c23fde7b2a7a","system_id":"levelo_inurba_marseille","lat":43.30288,"lon":5.37694,"is_reserved":false,"is_disabled":false,"rental_uris":{"android":"levelo://app?vid=c2e1a2f3-8fa2-4f47-a468-c23fde7b2a7a","ios":"levelo://app?vid=c2e1a2f3-8fa2-4f47-a468-c23fde7b2a7a"},"vehicle_type_id":"4","last_reported":1735927919,"current_range_meters":12000,"station_id":"ce4bguh2rcd13ifvqcj0","pricing_plan_id":"cebpf4jnsgd1na2vs0mg"},{"bike_id":"02cb2cad-b316-419f-a764-3e6228df1e7b","system_id":"levelo_inurba_marseille","lat":43.27372,"lon":5.3625,"is_reserved":false,"is_disabled":false,"rental_uris":{"android":"levelo://app?vid=02cb2cad-b316-419f-a764-3e6228df1e7b","ios":"levelo://app?vid=02cb2cad-b316-419f-a764-3e6228df1e7b"},"vehicle_type_id":"4","last_reported":1735927919,"current_range_meters":38800,"station_id":"ce4bhbh2rcd13ifvqeo0","pricing_plan_id":"cebpf4jnsgd1na2vs0mg"},{"bike_id":"9d281a53-6992-4392-9438-72ec394ec5a5","system_id":"levelo_inurba_marseille","lat":43.24398,"lon":5.3705,"is_reserved":false,"is_disabled":false,"rental_uris":{"android":"levelo://app?vid=9d281a53-6992-4392-9438-72ec394ec5a5","ios":"levelo://app?vid=9d281a53-6992-4392-9438-72ec394ec5a5"},"vehicle_type_id":"4","last_reported":1735927919,"current_range_meters":9200,"station_id":"ce4bhhh2rcd13ifvqfk0","pricing_plan_id":"cebpf4jnsgd1na2vs0mg"},{"bike_id":"6c92faae-448f-4fcd-b837-c7db2ff4caee","system_id":"levelo_inurba_marseille","lat":43.306463,"lon":5.40065,"is_reserved":false,"is_disabled":false,"rental_uris":{"android":"levelo://app?vid=6c92faae-448f-4fcd-b837-c7db2ff4caee","ios":"levelo://app?vid=6c92faae-448f-4fcd-b837-c7db2ff4caee"},"vehicle_type_id":"4","last_reported":1735927919,"current_range_meters":38800,"station_id":"ce4bh112rcd13ifvqda0","pricing_plan_id":"cebpf4jnsgd1na2vs0mg"},{"bike_id":"50a71918-14c1-45e1-9888-2db7212b49f0","system_id":"levelo_inurba_marseille","lat":43.29578,"lon":5.37506,"is_reserved":false,"is_disabled":false,"rental_uris":{"android":"levelo://app?vid=50a71918-14c1-45e1-9888-2db7212b49f0","ios":"levelo://app?vid=50a71918-14c1-45e1-9888-2db7212b49f0"},"vehicle_type_id":"4","last_reported":1735927919,"current_range_meters":38800,"station_id":"ce4bgh92rcd13ifvqb50","pricing_plan_id":"cebpf4jnsgd1na2vs0mg"},{"bike_id":"a1ee6c06-e992-437f-90f0-dfd3bd0c13a6","system_id":"levelo_inurba_marseille","lat":43.30148,"lon":5.38077,"is_reserved":false,"is_disabled":false,"rental_uris":{"android":"levelo://app?vid=a1ee6c06-e992-437f-90f0-dfd3bd0c13a6","ios":"levelo://app?vid=a1ee6c06-e992-437f-90f0-dfd3bd0c13a6"},"vehicle_type_id":"4","last_reported":1735927919,"current_range_meters":39200,"station_id":"ce4bgjp2rcd13ifvqbh0","pricing_plan_id":"cebpf4jnsgd1na2vs0mg"},{"bike_id":"6a27b8ed-59a3-4765-b121-56acffc7b300","system_id":"levelo_inurba_marseille","lat":43.26582,"lon":5.39017,"is_reserved":false,"is_disabled":false,"rental_uris":{"android":"levelo://app?vid=6a27b8ed-59a3-4765-b121-56acffc7b300","ios":"levelo://app?vid=6a27b8ed-59a3-4765-b121-56acffc7b300"},"vehicle_type_id":"4","last_reported":1735927919,"current_range_meters":38800,"station_id":"ce4bhe12rcd13ifvqf30","pricing_plan_id":"cebpf4jnsgd1na2vs0mg"},{"bike_id":"820e7059-c94a-4dc0-85d1-6a14c13300c4","system_id":"levelo_inurba_marseille","lat":43.29017,"lon":5.38637,"is_reserved":false,"is_disabled":false,"rental_uris":{"android":"levelo://app?vid=820e7059-c94a-4dc0-85d1-6a14c13300c4","ios":"levelo://app?vid=820e7059-c94a-4dc0-85d1-6a14c13300c4"},"vehicle_type_id":"4","last_reported":1735927919,"current_range_meters":38800,"station_id":"ce4bh4p2rcd13ifvqe0g","pricing_plan_id":"cebpf4jnsgd1na2vs0mg"},{"bike_id":"1edca33b-8d82-4613-945e-057a682428fe","system_id":"levelo_inurba_marseille","lat":43.33102,"lon":5.38207,"is_reserved":false,"is_disabled":false,"rental_uris":{"android":"levelo://app?vid=1edca33b-8d82-4613-945e-057a682428fe","ios":"levelo://app?vid=1edca33b-8d82-4613-945e-057a682428fe"},"vehicle_type_id":"4","last_reported":1735927919,"current_range_meters":33200,"station_id":"","pricing_plan_id":"cebpf4jnsgd1na2vs0mg"},{"bike_id":"18f3cae1-31d6-4997-a825-88b4e3979bb4","system_id":"levelo_inurba_marseille","lat":43.25491,"lon":5.37653,"is_reserved":false,"is_disabled":false,"rental_uris":{"android":"levelo://app?vid=18f3cae1-31d6-4997-a825-88b4e3979bb4","ios":"levelo://app?vid=18f3cae1-31d6-4997-a825-88b4e3979bb4"},"vehicle_type_id":"4","last_reported":1735927919,"current_range_meters":32400,"station_id":"ce4bhh12rcd13ifvqff0","pricing_plan_id":"cebpf4jnsgd1na2vs0mg"},{"bike_id":"ecfc0ec1-21cd-43f9-ae5e-f6f63351f506","system_id":"levelo_inurba_marseille","lat":43.28342,"lon":5.38108,"is_reserved":false,"is_disabled":false,"rental_uris":{"android":"levelo://app?vid=ecfc0ec1-21cd-43f9-ae5e-f6f63351f506","ios":"levelo://app?vid=ecfc0ec1-21cd-43f9-ae5e-f6f63351f506"},"vehicle_type_id":"4","last_reported":1735927919,"current_range_meters":4800,"station_id":"ce4bh412rcd13ifvqdr0","pricing_plan_id":"cebpf4jnsgd1na2vs0mg"},{"bike_id":"fb0d5d50-2cba-4668-8a68-53b559a0ffc7","system_id":"levelo_inurba_marseille","lat":43.24678,"lon":5.38137,"is_reserved":false,"is_disabled":false,"rental_uris":{"android":"levelo://app?vid=fb0d5d50-2cba-4668-8a68-53b559a0ffc7","ios":"levelo://app?vid=fb0d5d50-2cba-4668-8a68-53b559a0ffc7"},"vehicle_type_id":"4","last_reported":1735927919,"current_range_meters":34800,"station_id":"ce4bhih2rcd13ifvqfr0","pricing_plan_id":"cebpf4jnsgd1na2vs0mg"},{"bike_id":"e2856e2d-92aa-4c39-ab79-48aa074ffade","system_id":"levelo_inurba_marseille","lat":43.29789,"lon":5.39346,"is_reserved":false,"is_disabled":false,"rental_uris":{"android":"levelo://app?vid=e2856e2d-92aa-4c39-ab79-48aa074ffade","ios":"levelo://app?vid=e2856e2d-92aa-4c39-ab79-48aa074ffade"},"vehicle_type_id":"4","last_reported":1735927919,"current_range_meters":38800,"station_id":"chh1huq6cuj3fo74tm60","pricing_plan_id":"cebpf4jnsgd1na2vs0mg"},{"bike_id":"da4df25d-b805-43d6-8806-56d930cd2264","system_id":"levelo_inurba_marseille","lat":43.293,"lon":5.38423,"is_reserved":false,"is_disabled":false,"rental_uris":{"android":"levelo://app?vid=da4df25d-b805-43d6-8806-56d930cd2264","ios":"levelo://app?vid=da4df25d-b805-43d6-8806-56d930cd2264"},"vehicle_type_id":"4","last_reported":1735927919,"current_range_meters":34800,"station_id":"ce4bh692rcd13ifvqea0","pricing_plan_id":"cebpf4jnsgd1na2vs0mg"},{"bike_id":"a3a13d37-324b-4f71-8010-6efc8939585d","system_id":"levelo_inurba_marseille","lat":43.291634,"lon":5.371592,"is_reserved":false,"is_disabled":false,"rental_uris":{"android":"levelo://app?vid=a3a13d37-324b-4f71-8010-6efc8939585d","ios":"levelo://app?vid=a3a13d37-324b-4f71-8010-6efc8939585d"},"vehicle_type_id":"4","last_reported":1735927919,"current_range_meters":36000,"station_id":"ce4bha92rcd13ifvqeh0","pricing_plan_id":"cebpf4jnsgd1na2vs0mg"},{"bike_id":"15226fad-3a96-4fe4-85ee-d4df7fc786d8","system_id":"levelo_inurba_marseille","lat":43.29228,"lon":5.36059,"is_reserved":false,"is_disabled":false,"rental_uris":{"android":"levelo://app?vid=15226fad-3a96-4fe4-85ee-d4df7fc786d8","ios":"levelo://app?vid=15226fad-3a96-4fe4-85ee-d4df7fc786d8"},"vehicle_type_id":"4","last_reported":1735927919,"current_range_meters":7200,"station_id":"ce4bhbh2rcd13ifvqeqg","pricing_plan_id":"cebpf4jnsgd1na2vs0mg"},{"bike_id":"6026595a-9072-4f8c-8de0-787492c894bf","system_id":"levelo_inurba_marseille","lat":43.3095,"lon":5.39032,"is_reserved":false,"is_disabled":false,"rental_uris":{"android":"levelo://app?vid=6026595a-9072-4f8c-8de0-787492c894bf","ios":"levelo://app?vid=6026595a-9072-4f8c-8de0-787492c894bf"},"vehicle_type_id":"4","last_reported":1735927919,"current_range_meters":18000,"station_id":"ce4bgup2rcd13ifvqco0","pricing_plan_id":"cebpf4jnsgd1na2vs0mg"},{"bike_id":"d69c97e9-315e-45ad-9944-0ebf4d453a68","system_id":"levelo_inurba_marseille","lat":43.30431,"lon":5.39737,"is_reserved":false,"is_disabled":false,"rental_uris":{"android":"levelo://app?vid=d69c97e9-315e-45ad-9944-0ebf4d453a68","ios":"levelo://app?vid=d69c97e9-315e-45ad-9944-0ebf4d453a68"},"vehicle_type_id":"4","last_reported":1735927919,"current_range_meters":7200,"station_id":"ce4bh092rcd13ifvqd20","pricing_plan_id":"cebpf4jnsgd1na2vs0mg"},{"bike_id":"3c7472a4-a45c-4f46-a692-aa44ebf92f21","system_id":"levelo_inurba_marseille","lat":43.27431,"lon":5.393946,"is_reserved":false,"is_disabled":false,"rental_uris":{"android":"levelo://app?vid=3c7472a4-a45c-4f46-a692-aa44ebf92f21","ios":"levelo://app?vid=3c7472a4-a45c-4f46-a692-aa44ebf92f21"},"vehicle_type_id":"4","last_reported":1735927919,"current_range_meters":30400,"station_id":"ce4bhdp2rcd13ifvqf20","pricing_plan_id":"cebpf4jnsgd1na2vs0mg"},{"bike_id":"058ecb54-af3e-4e44-a703-6e3c9b29c958","system_id":"levelo_inurba_marseille","lat":43.28966,"lon":5.35575,"is_reserved":false,"is_disabled":false,"rental_uris":{"android":"levelo://app?vid=058ecb54-af3e-4e44-a703-6e3c9b29c958","ios":"levelo://app?vid=058ecb54-af3e-4e44-a703-6e3c9b29c958"},"vehicle_type_id":"4","last_reported":1735927919,"current_range_meters":39200,"station_id":"ce4bhb92rcd13ifvqen0","pricing_plan_id":"cebpf4jnsgd1na2vs0mg"},{"bike_id":"ecea3f12-75f2-44db-bb9b-f9d40753c385","system_id":"levelo_inurba_marseille","lat":43.25001,"lon":5.38941,"is_reserved":false,"is_disabled":false,"rental_uris":{"android":"levelo://app?vid=ecea3f12-75f2-44db-bb9b-f9d40753c385","ios":"levelo://app?vid=ecea3f12-75f2-44db-bb9b-f9d40753c385"},"vehicle_type_id":"4","last_reported":1735927919,"current_range_meters":11600,"station_id":"ce4bhgp2rcd13ifvqfd0","pricing_plan_id":"cebpf4jnsgd1na2vs0mg"},{"bike_id":"b5b2166a-b0b8-4fc4-9960-24fcf8dddf0c","system_id":"levelo_inurba_marseille","lat":43.30825,"lon":5.38059,"is_reserved":false,"is_disabled":false,"rental_uris":{"android":"levelo://app?vid=b5b2166a-b0b8-4fc4-9960-24fcf8dddf0c","ios":"levelo://app?vid=b5b2166a-b0b8-4fc4-9960-24fcf8dddf0c"},"vehicle_type_id":"4","last_reported":1735927919,"current_range_meters":14000,"station_id":"","pricing_plan_id":"cebpf4jnsgd1na2vs0mg"},{"bike_id":"3d8da598-689d-4c93-8750-95cc3aeafe7f","system_id":"levelo_inurba_marseille","lat":43.28945,"lon":5.36644,"is_reserved":false,"is_disabled":false,"rental_uris":{"android":"levelo://app?vid=3d8da598-689d-4c93-8750-95cc3aeafe7f","ios":"levelo://app?vid=3d8da598-689d-4c93-8750-95cc3aeafe7f"},"vehicle_type_id":"4","last_reported":1735927919,"current_range_meters":20400,"station_id":"ce4bhap2rcd13ifvqek0","pricing_plan_id":"cebpf4jnsgd1na2vs0mg"},{"bike_id":"bbc91d2f-9df9-4138-9e66-e418db4b0df3","system_id":"levelo_inurba_marseille","lat":43.29537,"lon":5.38536,"is_reserved":false,"is_disabled":false,"rental_uris":{"android":"levelo://app?vid=bbc91d2f-9df9-4138-9e66-e418db4b0df3","ios":"levelo://app?vid=bbc91d2f-9df9-4138-9e66-e418db4b0df3"},"vehicle_type_id":"4","last_reported":1735927919,"current_range_meters":5600,"station_id":"ce4bgih2rcd13ifvqba0","pricing_plan_id":"cebpf4jnsgd1na2vs0mg"},{"bike_id":"2d37891b-3e35-407f-964b-7c262ae2b2d0","system_id":"levelo_inurba_marseille","lat":43.29403,"lon":5.38099,"is_reserved":false,"is_disabled":true,"rental_uris":{"android":"levelo://app?vid=2d37891b-3e35-407f-964b-7c262ae2b2d0","ios":"levelo://app?vid=2d37891b-3e35-407f-964b-7c262ae2b2d0"},"vehicle_type_id":"4","last_reported":1735927919,"current_range_meters":0,"station_id":"","pricing_plan_id":"cebpf4jnsgd1na2vs0mg"},{"bike_id":"13e1d001-5304-4440-8773-a99209b55da5","system_id":"levelo_inurba_marseille","lat":43.26807,"lon":5.39436,"is_reserved":false,"is_disabled":false,"rental_uris":{"android":"levelo://app?vid=13e1d001-5304-4440-8773-a99209b55da5","ios":"levelo://app?vid=13e1d001-5304-4440-8773-a99209b55da5"},"vehicle_type_id":"4","last_reported":1735927919,"current_range_meters":38800,"station_id":"ce4bhh12rcd13ifvqfg0","pricing_plan_id":"cebpf4jnsgd1na2vs0mg"},{"bike_id":"89413a3b-82eb-4e17-a581-a8f9dbcf72dd","system_id":"levelo_inurba_marseille","lat":43.29005,"lon":5.35623,"is_reserved":false,"is_disabled":false,"rental_uris":{"android":"levelo://app?vid=89413a3b-82eb-4e17-a581-a8f9dbcf72dd","ios":"levelo://app?vid=89413a3b-82eb-4e17-a581-a8f9dbcf72dd"},"vehicle_type_id":"4","last_reported":1735927919,"current_range_meters":12800,"station_id":"ce4bhb92rcd13ifvqen0","pricing_plan_id":"cebpf4jnsgd1na2vs0mg"},{"bike_id":"2332862a-3884-4317-af82-ee9793e9b62c","system_id":"levelo_inurba_marseille","lat":43.24105,"lon":5.37686,"is_reserved":false,"is_disabled":false,"rental_uris":{"android":"levelo://app?vid=2332862a-3884-4317-af82-ee9793e9b62c","ios":"levelo://app?vid=2332862a-3884-4317-af82-ee9793e9b62c"},"vehicle_type_id":"4","last_reported":1735927919,"current_range_meters":20400,"station_id":"","pricing_plan_id":"cebpf4jnsgd1na2vs0mg"},{"bike_id":"dc4816bd-6d03-4a66-84d7-a88b37be4552","system_id":"levelo_inurba_marseille","lat":43.29265,"lon":5.3844,"is_reserved":false,"is_disabled":false,"rental_uris":{"android":"levelo://app?vid=dc4816bd-6d03-4a66-84d7-a88b37be4552","ios":"levelo://app?vid=dc4816bd-6d03-4a66-84d7-a88b37be4552"},"vehicle_type_id":"4","last_reported":1735927919,"current_range_meters":24800,"station_id":"ce4bh692rcd13ifvqea0","pricing_plan_id":"cebpf4jnsgd1na2vs0mg"},{"bike_id":"9bc3e5f4-1076-4308-85ea-6ec37ca9b33e","system_id":"levelo_inurba_marseille","lat":43.29944,"lon":5.36528,"is_reserved":false,"is_disabled":false,"rental_uris":{"android":"levelo://app?vid=9bc3e5f4-1076-4308-85ea-6ec37ca9b33e","ios":"levelo://app?vid=9bc3e5f4-1076-4308-85ea-6ec37ca9b33e"},"vehicle_type_id":"4","last_reported":1735927919,"current_range_meters":24400,"station_id":"ce4bgm92rcd13ifvqbr0","pricing_plan_id":"cebpf4jnsgd1na2vs0mg"},{"bike_id":"d7293c52-8794-4bf6-ad35-140a30e24882","system_id":"levelo_inurba_marseille","lat":43.31532,"lon":5.38015,"is_reserved":false,"is_disabled":false,"rental_uris":{"android":"levelo://app?vid=d7293c52-8794-4bf6-ad35-140a30e24882","ios":"levelo://app?vid=d7293c52-8794-4bf6-ad35-140a30e24882"},"vehicle_type_id":"4","last_reported":1735927919,"current_range_meters":38800,"station_id":"ce4bhsp2rcd13ifvqi50","pricing_plan_id":"cebpf4jnsgd1na2vs0mg"},{"bike_id":"b196ede2-15dc-4193-a4cf-026c9e7d182c","system_id":"levelo_inurba_marseille","lat":43.3265,"lon":5.40967,"is_reserved":false,"is_disabled":false,"rental_uris":{"android":"levelo://app?vid=b196ede2-15dc-4193-a4cf-026c9e7d182c","ios":"levelo://app?vid=b196ede2-15dc-4193-a4cf-026c9e7d182c"},"vehicle_type_id":"4","last_reported":1735927919,"current_range_meters":24400,"station_id":"ce4bhpp2rcd13ifvqhgg","pricing_plan_id":"cebpf4jnsgd1na2vs0mg"},{"bike_id":"af6f5cf6-fe33-49d4-9b2b-a069d115dde7","system_id":"levelo_inurba_marseille","lat":43.29858,"lon":5.36279,"is_reserved":false,"is_disabled":false,"rental_uris":{"android":"levelo://app?vid=af6f5cf6-fe33-49d4-9b2b-a069d115dde7","ios":"levelo://app?vid=af6f5cf6-fe33-49d4-9b2b-a069d115dde7"},"vehicle_type_id":"4","last_reported":1735927919,"current_range_meters":22800,"station_id":"ce4bgpp2rcd13ifvqc3g","pricing_plan_id":"cebpf4jnsgd1na2vs0mg"},{"bike_id":"f8552ddb-26a0-445d-9a6e-4525b17b7a2f","system_id":"levelo_inurba_marseille","lat":43.29003,"lon":5.35617,"is_reserved":false,"is_disabled":false,"rental_uris":{"android":"levelo://app?vid=f8552ddb-26a0-445d-9a6e-4525b17b7a2f","ios":"levelo://app?vid=f8552ddb-26a0-445d-9a6e-4525b17b7a2f"},"vehicle_type_id":"4","last_reported":1735927919,"current_range_meters":18000,"station_id":"ce4bhb92rcd13ifvqen0","pricing_plan_id":"cebpf4jnsgd1na2vs0mg"},{"bike_id":"dd874b77-a42e-4757-bd84-560175a054b9","system_id":"levelo_inurba_marseille","lat":43.25003,"lon":5.38951,"is_reserved":false,"is_disabled":false,"rental_uris":{"android":"levelo://app?vid=dd874b77-a42e-4757-bd84-560175a054b9","ios":"levelo://app?vid=dd874b77-a42e-4757-bd84-560175a054b9"},"vehicle_type_id":"4","last_reported":1735927919,"current_range_meters":32800,"station_id":"ce4bhgp2rcd13ifvqfd0","pricing_plan_id":"cebpf4jnsgd1na2vs0mg"},{"bike_id":"01a892c4-6d34-4a6b-9f97-5324cd46aa08","system_id":"levelo_inurba_marseille","lat":43.2897,"lon":5.37841,"is_reserved":false,"is_disabled":true,"rental_uris":{"android":"levelo://app?vid=01a892c4-6d34-4a6b-9f97-5324cd46aa08","ios":"levelo://app?vid=01a892c4-6d34-4a6b-9f97-5324cd46aa08"},"vehicle_type_id":"4","last_reported":1735927919,"current_range_meters":37600,"station_id":"ce4bh9p2rcd13ifvqed0","pricing_plan_id":"cebpf4jnsgd1na2vs0mg"},{"bike_id":"89ebf658-d6be-4221-be38-507b09164ccf","system_id":"levelo_inurba_marseille","lat":43.30878,"lon":5.39641,"is_reserved":false,"is_disabled":false,"rental_uris":{"android":"levelo://app?vid=89ebf658-d6be-4221-be38-507b09164ccf","ios":"levelo://app?vid=89ebf658-d6be-4221-be38-507b09164ccf"},"vehicle_type_id":"4","last_reported":1735927919,"current_range_meters":8000,"station_id":"ce4bh012rcd13ifvqcv0","pricing_plan_id":"cebpf4jnsgd1na2vs0mg"},{"bike_id":"6b67876e-2b4d-4a5a-b805-a6c77cbe7c5f","system_id":"levelo_inurba_marseille","lat":43.28719,"lon":5.36094,"is_reserved":false,"is_disabled":false,"rental_uris":{"android":"levelo://app?vid=6b67876e-2b4d-4a5a-b805-a6c77cbe7c5f","ios":"levelo://app?vid=6b67876e-2b4d-4a5a-b805-a6c77cbe7c5f"},"vehicle_type_id":"4","last_reported":1735927919,"current_range_meters":31200,"station_id":"cki0cbj6b192h4jlfktg","pricing_plan_id":"cebpf4jnsgd1na2vs0mg"},{"bike_id":"a7b05dda-24ce-4e72-9ccf-73a42773175d","system_id":"levelo_inurba_marseille","lat":43.25498,"lon":5.3765,"is_reserved":false,"is_disabled":false,"rental_uris":{"android":"levelo://app?vid=a7b05dda-24ce-4e72-9ccf-73a42773175d","ios":"levelo://app?vid=a7b05dda-24ce-4e72-9ccf-73a42773175d"},"vehicle_type_id":"4","last_reported":1735927919,"current_range_meters":30400,"station_id":"ce4bhh12rcd13ifvqff0","pricing_plan_id":"cebpf4jnsgd1na2vs0mg"},{"bike_id":"c59d6f4b-6403-4abc-bb62-0a80ca074c76","system_id":"levelo_inurba_marseille","lat":43.2959,"lon":5.37502,"is_reserved":false,"is_disabled":false,"rental_uris":{"android":"levelo://app?vid=c59d6f4b-6403-4abc-bb62-0a80ca074c76","ios":"levelo://app?vid=c59d6f4b-6403-4abc-bb62-0a80ca074c76"},"vehicle_type_id":"4","last_reported":1735927919,"current_range_meters":38800,"station_id":"ce4bgh92rcd13ifvqb50","pricing_plan_id":"cebpf4jnsgd1na2vs0mg"},{"bike_id":"c38119df-a0cc-4d53-851b-aebce98309d3","system_id":"levelo_inurba_marseille","lat":43.25007,"lon":5.38886,"is_reserved":false,"is_disabled":false,"rental_uris":{"android":"levelo://app?vid=c38119df-a0cc-4d53-851b-aebce98309d3","ios":"levelo://app?vid=c38119df-a0cc-4d53-851b-aebce98309d3"},"vehicle_type_id":"4","last_reported":1735927919,"current_range_meters":8000,"station_id":"ce4bhgp2rcd13ifvqfd0","pricing_plan_id":"cebpf4jnsgd1na2vs0mg"},{"bike_id":"fa691ab8-b556-4c8b-a445-03c1143ff102","system_id":"levelo_inurba_marseille","lat":43.29175,"lon":5.3716,"is_reserved":false,"is_disabled":false,"rental_uris":{"android":"levelo://app?vid=fa691ab8-b556-4c8b-a445-03c1143ff102","ios":"levelo://app?vid=fa691ab8-b556-4c8b-a445-03c1143ff102"},"vehicle_type_id":"4","last_reported":1735927919,"current_range_meters":29600,"station_id":"ce4bha92rcd13ifvqeh0","pricing_plan_id":"cebpf4jnsgd1na2vs0mg"},{"bike_id":"ce95acd3-74d1-401a-a159-12c1e329fead","system_id":"levelo_inurba_marseille","lat":43.27813,"lon":5.4071,"is_reserved":false,"is_disabled":false,"rental_uris":{"android":"levelo://app?vid=ce95acd3-74d1-401a-a159-12c1e329fead","ios":"levelo://app?vid=ce95acd3-74d1-401a-a159-12c1e329fead"},"vehicle_type_id":"4","last_reported":1735927919,"current_range_meters":37600,"station_id":"ce4bhnh2rcd13ifvqgtg","pricing_plan_id":"cebpf4jnsgd1na2vs0mg"},{"bike_id":"d06765fb-ae36-4bd9-824c-0b5234000b68","system_id":"levelo_inurba_marseille","lat":43.25121,"lon":5.40318,"is_reserved":false,"is_disabled":false,"rental_uris":{"android":"levelo://app?vid=d06765fb-ae36-4bd9-824c-0b5234000b68","ios":"levelo://app?vid=d06765fb-ae36-4bd9-824c-0b5234000b68"},"vehicle_type_id":"4","last_reported":1735927919,"current_range_meters":38800,"station_id":"ce4bhlh2rcd13ifvqgig","pricing_plan_id":"cebpf4jnsgd1na2vs0mg"},{"bike_id":"9f58862a-aa2f-4ebc-a1ab-45710e1c8c93","system_id":"levelo_inurba_marseille","lat":43.308659,"lon":5.374059,"is_reserved":false,"is_disabled":false,"rental_uris":{"android":"levelo://app?vid=9f58862a-aa2f-4ebc-a1ab-45710e1c8c93","ios":"levelo://app?vid=9f58862a-aa2f-4ebc-a1ab-45710e1c8c93"},"vehicle_type_id":"4","last_reported":1735927919,"current_range_meters":20000,"station_id":"","pricing_plan_id":"cebpf4jnsgd1na2vs0mg"},{"bike_id":"6d14468d-d4fe-4fb2-b1d6-ebb52c384fb6","system_id":"levelo_inurba_marseille","lat":43.31982,"lon":5.38137,"is_reserved":false,"is_disabled":false,"rental_uris":{"android":"levelo://app?vid=6d14468d-d4fe-4fb2-b1d6-ebb52c384fb6","ios":"levelo://app?vid=6d14468d-d4fe-4fb2-b1d6-ebb52c384fb6"},"vehicle_type_id":"4","last_reported":1735927919,"current_range_meters":39200,"station_id":"ce4bhr12rcd13ifvqhpg","pricing_plan_id":"cebpf4jnsgd1na2vs0mg"},{"bike_id":"16314a60-59d6-4ad9-813c-6b2aae602f85","system_id":"levelo_inurba_marseille","lat":43.29285,"lon":5.36833,"is_reserved":false,"is_disabled":false,"rental_uris":{"android":"levelo://app?vid=16314a60-59d6-4ad9-813c-6b2aae602f85","ios":"levelo://app?vid=16314a60-59d6-4ad9-813c-6b2aae602f85"},"vehicle_type_id":"4","last_reported":1735927919,"current_range_meters":16000,"station_id":"ce4bhbp2rcd13ifvqesg","pricing_plan_id":"cebpf4jnsgd1na2vs0mg"},{"bike_id":"2f857458-45ae-4306-9ffb-5d94252d59a5","system_id":"levelo_inurba_marseille","lat":43.246471,"lon":5.389013,"is_reserved":false,"is_disabled":false,"rental_uris":{"android":"levelo://app?vid=2f857458-45ae-4306-9ffb-5d94252d59a5","ios":"levelo://app?vid=2f857458-45ae-4306-9ffb-5d94252d59a5"},"vehicle_type_id":"4","last_reported":1735927919,"current_range_meters":38800,"station_id":"ce4bhg12rcd13ifvqf60","pricing_plan_id":"cebpf4jnsgd1na2vs0mg"},{"bike_id":"7b78d5e2-5142-402d-a4f8-0f3037a6c533","system_id":"levelo_inurba_marseille","lat":43.26935,"lon":5.38628,"is_reserved":false,"is_disabled":true,"rental_uris":{"android":"levelo://app?vid=7b78d5e2-5142-402d-a4f8-0f3037a6c533","ios":"levelo://app?vid=7b78d5e2-5142-402d-a4f8-0f3037a6c533"},"vehicle_type_id":"4","last_reported":1735927919,"current_range_meters":16400,"station_id":"ce4bhh92rcd13ifvqfh0","pricing_plan_id":"cebpf4jnsgd1na2vs0mg"},{"bike_id":"cbb6eaa8-2a66-410e-9a99-0cc5daa01219","system_id":"levelo_inurba_marseille","lat":43.29012,"lon":5.35608,"is_reserved":false,"is_disabled":false,"rental_uris":{"android":"levelo://app?vid=cbb6eaa8-2a66-410e-9a99-0cc5daa01219","ios":"levelo://app?vid=cbb6eaa8-2a66-410e-9a99-0cc5daa01219"},"vehicle_type_id":"4","last_reported":1735927919,"current_range_meters":39200,"station_id":"ce4bhb92rcd13ifvqen0","pricing_plan_id":"cebpf4jnsgd1na2vs0mg"},{"bike_id":"00b0c897-4e8f-453d-8e9d-6135317dff3d","system_id":"levelo_inurba_marseille","lat":43.29569,"lon":5.42267,"is_reserved":false,"is_disabled":false,"rental_uris":{"android":"levelo://app?vid=00b0c897-4e8f-453d-8e9d-6135317dff3d","ios":"levelo://app?vid=00b0c897-4e8f-453d-8e9d-6135317dff3d"},"vehicle_type_id":"4","last_reported":1735927919,"current_range_meters":8400,"station_id":"ce4bhph2rcd13ifvqhdg","pricing_plan_id":"cebpf4jnsgd1na2vs0mg"},{"bike_id":"b0df2c77-f73a-46b2-b5c5-6520722442d4","system_id":"levelo_inurba_marseille","lat":43.2955,"lon":5.4228,"is_reserved":false,"is_disabled":false,"rental_uris":{"android":"levelo://app?vid=b0df2c77-f73a-46b2-b5c5-6520722442d4","ios":"levelo://app?vid=b0df2c77-f73a-46b2-b5c5-6520722442d4"},"vehicle_type_id":"4","last_reported":1735927919,"current_range_meters":32400,"station_id":"ce4bhph2rcd13ifvqhdg","pricing_plan_id":"cebpf4jnsgd1na2vs0mg"},{"bike_id":"4a5ecd12-4a57-4891-9f8e-0a21c601785b","system_id":"levelo_inurba_marseille","lat":43.2988,"lon":5.38914,"is_reserved":false,"is_disabled":false,"rental_uris":{"android":"levelo://app?vid=4a5ecd12-4a57-4891-9f8e-0a21c601785b","ios":"levelo://app?vid=4a5ecd12-4a57-4891-9f8e-0a21c601785b"},"vehicle_type_id":"4","last_reported":1735927919,"current_range_meters":37600,"station_id":"ce4bh392rcd13ifvqdl0","pricing_plan_id":"cebpf4jnsgd1na2vs0mg"},{"bike_id":"c05af183-08ce-4d46-8c31-6a2b7cc4d29e","system_id":"levelo_inurba_marseille","lat":43.27585,"lon":5.38474,"is_reserved":false,"is_disabled":false,"rental_uris":{"android":"levelo://app?vid=c05af183-08ce-4d46-8c31-6a2b7cc4d29e","ios":"levelo://app?vid=c05af183-08ce-4d46-8c31-6a2b7cc4d29e"},"vehicle_type_id":"4","last_reported":1735927919,"current_range_meters":38000,"station_id":"ce4bhh92rcd13ifvqfi0","pricing_plan_id":"cebpf4jnsgd1na2vs0mg"},{"bike_id":"9c4f5f20-797d-4d97-8578-d5d59dc7d997","system_id":"levelo_inurba_marseille","lat":43.27322,"lon":5.39078,"is_reserved":false,"is_disabled":false,"rental_uris":{"android":"levelo://app?vid=9c4f5f20-797d-4d97-8578-d5d59dc7d997","ios":"levelo://app?vid=9c4f5f20-797d-4d97-8578-d5d59dc7d997"},"vehicle_type_id":"4","last_reported":1735927919,"current_range_meters":30000,"station_id":"ce4bhgp2rcd13ifvqfe0","pricing_plan_id":"cebpf4jnsgd1na2vs0mg"},{"bike_id":"1237c156-cfa6-45ec-9298-949dcdbd11b6","system_id":"levelo_inurba_marseille","lat":43.27378,"lon":5.36249,"is_reserved":false,"is_disabled":false,"rental_uris":{"android":"levelo://app?vid=1237c156-cfa6-45ec-9298-949dcdbd11b6","ios":"levelo://app?vid=1237c156-cfa6-45ec-9298-949dcdbd11b6"},"vehicle_type_id":"4","last_reported":1735927919,"current_range_meters":38800,"station_id":"ce4bhbh2rcd13ifvqeo0","pricing_plan_id":"cebpf4jnsgd1na2vs0mg"},{"bike_id":"cb9ddef6-e3ca-4d83-8257-6a73eb8266c6","system_id":"levelo_inurba_marseille","lat":43.32651,"lon":5.40986,"is_reserved":false,"is_disabled":false,"rental_uris":{"android":"levelo://app?vid=cb9ddef6-e3ca-4d83-8257-6a73eb8266c6","ios":"levelo://app?vid=cb9ddef6-e3ca-4d83-8257-6a73eb8266c6"},"vehicle_type_id":"4","last_reported":1735927919,"current_range_meters":38400,"station_id":"ce4bhpp2rcd13ifvqhgg","pricing_plan_id":"cebpf4jnsgd1na2vs0mg"},{"bike_id":"7b9e134f-1d5b-46f5-87f8-6cc312c5778f","system_id":"levelo_inurba_marseille","lat":43.22926,"lon":5.35372,"is_reserved":false,"is_disabled":false,"rental_uris":{"android":"levelo://app?vid=7b9e134f-1d5b-46f5-87f8-6cc312c5778f","ios":"levelo://app?vid=7b9e134f-1d5b-46f5-87f8-6cc312c5778f"},"vehicle_type_id":"4","last_reported":1735927919,"current_range_meters":38800,"station_id":"cpo3532slgdg3j2ikp40","pricing_plan_id":"cebpf4jnsgd1na2vs0mg"},{"bike_id":"135cf862-1e80-4855-8234-457b3ef98c02","system_id":"levelo_inurba_marseille","lat":43.2961,"lon":5.36743,"is_reserved":false,"is_disabled":false,"rental_uris":{"android":"levelo://app?vid=135cf862-1e80-4855-8234-457b3ef98c02","ios":"levelo://app?vid=135cf862-1e80-4855-8234-457b3ef98c02"},"vehicle_type_id":"4","last_reported":1735927919,"current_range_meters":10800,"station_id":"ce4bgph2rcd13ifvqc2g","pricing_plan_id":"cebpf4jnsgd1na2vs0mg"},{"bike_id":"6270f2b4-ee06-4daf-8822-79368d92f364","system_id":"levelo_inurba_marseille","lat":43.27998,"lon":5.41671,"is_reserved":false,"is_disabled":false,"rental_uris":{"android":"levelo://app?vid=6270f2b4-ee06-4daf-8822-79368d92f364","ios":"levelo://app?vid=6270f2b4-ee06-4daf-8822-79368d92f364"},"vehicle_type_id":"4","last_reported":1735927919,"current_range_meters":15200,"station_id":"ce4bho12rcd13ifvqh1g","pricing_plan_id":"cebpf4jnsgd1na2vs0mg"},{"bike_id":"34825794-d565-4dbd-8cbe-c88df4608f04","system_id":"levelo_inurba_marseille","lat":43.27817,"lon":5.40705,"is_reserved":false,"is_disabled":false,"rental_uris":{"android":"levelo://app?vid=34825794-d565-4dbd-8cbe-c88df4608f04","ios":"levelo://app?vid=34825794-d565-4dbd-8cbe-c88df4608f04"},"vehicle_type_id":"4","last_reported":1735927919,"current_range_meters":38800,"station_id":"ce4bhnh2rcd13ifvqgtg","pricing_plan_id":"cebpf4jnsgd1na2vs0mg"},{"bike_id":"9085f317-eea3-445b-8bdd-28ff00ca8048","system_id":"levelo_inurba_marseille","lat":43.266795,"lon":5.382778,"is_reserved":false,"is_disabled":false,"rental_uris":{"android":"levelo://app?vid=9085f317-eea3-445b-8bdd-28ff00ca8048","ios":"levelo://app?vid=9085f317-eea3-445b-8bdd-28ff00ca8048"},"vehicle_type_id":"4","last_reported":1735927919,"current_range_meters":35200,"station_id":"ce4bhg92rcd13ifvqf90","pricing_plan_id":"cebpf4jnsgd1na2vs0mg"},{"bike_id":"a6f828f1-5f97-4da7-bf33-7d48a155db3e","system_id":"levelo_inurba_marseille","lat":43.27835,"lon":5.39207,"is_reserved":false,"is_disabled":false,"rental_uris":{"android":"levelo://app?vid=a6f828f1-5f97-4da7-bf33-7d48a155db3e","ios":"levelo://app?vid=a6f828f1-5f97-4da7-bf33-7d48a155db3e"},"vehicle_type_id":"4","last_reported":1735927919,"current_range_meters":30000,"station_id":"ce4bhjp2rcd13ifvqga0","pricing_plan_id":"cebpf4jnsgd1na2vs0mg"},{"bike_id":"109249d2-7daf-4296-bfbc-45d5163d23df","system_id":"levelo_inurba_marseille","lat":43.306027,"lon":5.372333,"is_reserved":false,"is_disabled":true,"rental_uris":{"android":"levelo://app?vid=109249d2-7daf-4296-bfbc-45d5163d23df","ios":"levelo://app?vid=109249d2-7daf-4296-bfbc-45d5163d23df"},"vehicle_type_id":"4","last_reported":1735927919,"current_range_meters":32400,"station_id":"ce4bgqh2rcd13ifvqc4g","pricing_plan_id":"cebpf4jnsgd1na2vs0mg"},{"bike_id":"264e2b37-a7a8-43de-af6e-2a79e21accc7","system_id":"levelo_inurba_marseille","lat":43.29282,"lon":5.3684,"is_reserved":false,"is_disabled":false,"rental_uris":{"android":"levelo://app?vid=264e2b37-a7a8-43de-af6e-2a79e21accc7","ios":"levelo://app?vid=264e2b37-a7a8-43de-af6e-2a79e21accc7"},"vehicle_type_id":"4","last_reported":1735927919,"current_range_meters":28000,"station_id":"ce4bhbp2rcd13ifvqesg","pricing_plan_id":"cebpf4jnsgd1na2vs0mg"},{"bike_id":"17d68fc8-a08c-4c51-9afe-f5e096925619","system_id":"levelo_inurba_marseille","lat":43.29015,"lon":5.35618,"is_reserved":false,"is_disabled":false,"rental_uris":{"android":"levelo://app?vid=17d68fc8-a08c-4c51-9afe-f5e096925619","ios":"levelo://app?vid=17d68fc8-a08c-4c51-9afe-f5e096925619"},"vehicle_type_id":"4","last_reported":1735927919,"current_range_meters":17600,"station_id":"ce4bhb92rcd13ifvqen0","pricing_plan_id":"cebpf4jnsgd1na2vs0mg"},{"bike_id":"03f24cb2-160b-4a7d-b55a-a5dd752a0817","system_id":"levelo_inurba_marseille","lat":43.29253,"lon":5.40908,"is_reserved":false,"is_disabled":false,"rental_uris":{"android":"levelo://app?vid=03f24cb2-160b-4a7d-b55a-a5dd752a0817","ios":"levelo://app?vid=03f24cb2-160b-4a7d-b55a-a5dd752a0817"},"vehicle_type_id":"4","last_reported":1735927919,"current_range_meters":28000,"station_id":"ce4bh192rcd13ifvqdc0","pricing_plan_id":"cebpf4jnsgd1na2vs0mg"},{"bike_id":"ea7e6e18-00ef-4f64-9f6e-8a6a142684aa","system_id":"levelo_inurba_marseille","lat":43.33614,"lon":5.41028,"is_reserved":false,"is_disabled":false,"rental_uris":{"android":"levelo://app?vid=ea7e6e18-00ef-4f64-9f6e-8a6a142684aa","ios":"levelo://app?vid=ea7e6e18-00ef-4f64-9f6e-8a6a142684aa"},"vehicle_type_id":"4","last_reported":1735927919,"current_range_meters":32000,"station_id":"ce4bhqh2rcd13ifvqhmg","pricing_plan_id":"cebpf4jnsgd1na2vs0mg"},{"bike_id":"40977940-0cd3-4c4e-ab13-342c16c738ab","system_id":"levelo_inurba_marseille","lat":43.2464,"lon":5.38901,"is_reserved":false,"is_disabled":false,"rental_uris":{"android":"levelo://app?vid=40977940-0cd3-4c4e-ab13-342c16c738ab","ios":"levelo://app?vid=40977940-0cd3-4c4e-ab13-342c16c738ab"},"vehicle_type_id":"4","last_reported":1735927919,"current_range_meters":18000,"station_id":"ce4bhg12rcd13ifvqf60","pricing_plan_id":"cebpf4jnsgd1na2vs0mg"},{"bike_id":"0fb09dc4-c559-469b-b944-d0167194cfca","system_id":"levelo_inurba_marseille","lat":43.279505,"lon":5.410482,"is_reserved":false,"is_disabled":true,"rental_uris":{"android":"levelo://app?vid=0fb09dc4-c559-469b-b944-d0167194cfca","ios":"levelo://app?vid=0fb09dc4-c559-469b-b944-d0167194cfca"},"vehicle_type_id":"4","last_reported":1735927919,"current_range_meters":0,"station_id":"ce4bhnp2rcd13ifvqh0g","pricing_plan_id":"cebpf4jnsgd1na2vs0mg"},{"bike_id":"6befa724-a01f-4ce7-a943-40045c8a7a16","system_id":"levelo_inurba_marseille","lat":43.26936,"lon":5.38905,"is_reserved":false,"is_disabled":false,"rental_uris":{"android":"levelo://app?vid=6befa724-a01f-4ce7-a943-40045c8a7a16","ios":"levelo://app?vid=6befa724-a01f-4ce7-a943-40045c8a7a16"},"vehicle_type_id":"4","last_reported":1735927919,"current_range_meters":38800,"station_id":"ce4bhhh2rcd13ifvqfl0","pricing_plan_id":"cebpf4jnsgd1na2vs0mg"},{"bike_id":"ffaa7442-5806-4ded-827f-12be4a9f93f7","system_id":"levelo_inurba_marseille","lat":43.26197,"lon":5.37441,"is_reserved":false,"is_disabled":false,"rental_uris":{"android":"levelo://app?vid=ffaa7442-5806-4ded-827f-12be4a9f93f7","ios":"levelo://app?vid=ffaa7442-5806-4ded-827f-12be4a9f93f7"},"vehicle_type_id":"4","last_reported":1735927919,"current_range_meters":38800,"station_id":"ce4bhgp2rcd13ifvqfc0","pricing_plan_id":"cebpf4jnsgd1na2vs0mg"},{"bike_id":"641d8acc-50b2-4173-ab23-c70f2a11d28e","system_id":"levelo_inurba_marseille","lat":43.28154,"lon":5.42623,"is_reserved":false,"is_disabled":true,"rental_uris":{"android":"levelo://app?vid=641d8acc-50b2-4173-ab23-c70f2a11d28e","ios":"levelo://app?vid=641d8acc-50b2-4173-ab23-c70f2a11d28e"},"vehicle_type_id":"4","last_reported":1735927919,"current_range_meters":38000,"station_id":"ce4bhnh2rcd13ifvqgug","pricing_plan_id":"cebpf4jnsgd1na2vs0mg"},{"bike_id":"8e936699-fb94-4c05-a18e-6a31521ab968","system_id":"levelo_inurba_marseille","lat":43.2846,"lon":5.358952,"is_reserved":false,"is_disabled":true,"rental_uris":{"android":"levelo://app?vid=8e936699-fb94-4c05-a18e-6a31521ab968","ios":"levelo://app?vid=8e936699-fb94-4c05-a18e-6a31521ab968"},"vehicle_type_id":"4","last_reported":1735927919,"current_range_meters":34800,"station_id":"ce4bhah2rcd13ifvqei0","pricing_plan_id":"cebpf4jnsgd1na2vs0mg"},{"bike_id":"237a0d5a-8195-4695-b7fc-17dfb3b6dfc0","system_id":"levelo_inurba_marseille","lat":43.28615,"lon":5.37056,"is_reserved":false,"is_disabled":false,"rental_uris":{"android":"levelo://app?vid=237a0d5a-8195-4695-b7fc-17dfb3b6dfc0","ios":"levelo://app?vid=237a0d5a-8195-4695-b7fc-17dfb3b6dfc0"},"vehicle_type_id":"4","last_reported":1735927919,"current_range_meters":20400,"station_id":"ce4bht12rcd13ifvqi60","pricing_plan_id":"cebpf4jnsgd1na2vs0mg"},{"bike_id":"d9039fb6-1526-43a5-ab47-bf6c74051347","system_id":"levelo_inurba_marseille","lat":43.28171,"lon":5.42639,"is_reserved":false,"is_disabled":false,"rental_uris":{"android":"levelo://app?vid=d9039fb6-1526-43a5-ab47-bf6c74051347","ios":"levelo://app?vid=d9039fb6-1526-43a5-ab47-bf6c74051347"},"vehicle_type_id":"4","last_reported":1735927919,"current_range_meters":36800,"station_id":"ce4bhnh2rcd13ifvqgug","pricing_plan_id":"cebpf4jnsgd1na2vs0mg"},{"bike_id":"bd609247-c05b-4bfd-8224-3974e4956916","system_id":"levelo_inurba_marseille","lat":43.309,"lon":5.36835,"is_reserved":false,"is_disabled":true,"rental_uris":{"android":"levelo://app?vid=bd609247-c05b-4bfd-8224-3974e4956916","ios":"levelo://app?vid=bd609247-c05b-4bfd-8224-3974e4956916"},"vehicle_type_id":"4","last_reported":1735927919,"current_range_meters":38800,"station_id":"ce4bgn92rcd13ifvqbvg","pricing_plan_id":"cebpf4jnsgd1na2vs0mg"},{"bike_id":"d85e3fbb-e7a1-4e38-bab3-57284191390e","system_id":"levelo_inurba_marseille","lat":43.29798,"lon":5.38075,"is_reserved":false,"is_disabled":false,"rental_uris":{"android":"levelo://app?vid=d85e3fbb-e7a1-4e38-bab3-57284191390e","ios":"levelo://app?vid=d85e3fbb-e7a1-4e38-bab3-57284191390e"},"vehicle_type_id":"4","last_reported":1735927919,"current_range_meters":39200,"station_id":"ce4bgip2rcd13ifvqbb0","pricing_plan_id":"cebpf4jnsgd1na2vs0mg"},{"bike_id":"9a130f1d-b89c-43b8-9e4f-be8793a1e69c","system_id":"levelo_inurba_marseille","lat":43.30888,"lon":5.37193,"is_reserved":false,"is_disabled":false,"rental_uris":{"android":"levelo://app?vid=9a130f1d-b89c-43b8-9e4f-be8793a1e69c","ios":"levelo://app?vid=9a130f1d-b89c-43b8-9e4f-be8793a1e69c"},"vehicle_type_id":"4","last_reported":1735927919,"current_range_meters":38800,"station_id":"ce4bguh2rcd13ifvqckg","pricing_plan_id":"cebpf4jnsgd1na2vs0mg"},{"bike_id":"b50c1e04-9c20-4daa-ad06-7d854e9beedd","system_id":"levelo_inurba_marseille","lat":43.26195,"lon":5.37449,"is_reserved":false,"is_disabled":false,"rental_uris":{"android":"levelo://app?vid=b50c1e04-9c20-4daa-ad06-7d854e9beedd","ios":"levelo://app?vid=b50c1e04-9c20-4daa-ad06-7d854e9beedd"},"vehicle_type_id":"4","last_reported":1735927919,"current_range_meters":34000,"station_id":"ce4bhgp2rcd13ifvqfc0","pricing_plan_id":"cebpf4jnsgd1na2vs0mg"},{"bike_id":"fe6f290f-0e15-46b1-9ee2-787dc5c43fe5","system_id":"levelo_inurba_marseille","lat":43.2955,"lon":5.42282,"is_reserved":false,"is_disabled":false,"rental_uris":{"android":"levelo://app?vid=fe6f290f-0e15-46b1-9ee2-787dc5c43fe5","ios":"levelo://app?vid=fe6f290f-0e15-46b1-9ee2-787dc5c43fe5"},"vehicle_type_id":"4","last_reported":1735927919,"current_range_meters":18000,"station_id":"ce4bhph2rcd13ifvqhdg","pricing_plan_id":"cebpf4jnsgd1na2vs0mg"},{"bike_id":"e17147ed-7c6a-4a29-b0c2-0d1a8c57ad92","system_id":"levelo_inurba_marseille","lat":43.29284,"lon":5.36793,"is_reserved":false,"is_disabled":false,"rental_uris":{"android":"levelo://app?vid=e17147ed-7c6a-4a29-b0c2-0d1a8c57ad92","ios":"levelo://app?vid=e17147ed-7c6a-4a29-b0c2-0d1a8c57ad92"},"vehicle_type_id":"4","last_reported":1735927919,"current_range_meters":7200,"station_id":"ce4bhbp2rcd13ifvqesg","pricing_plan_id":"cebpf4jnsgd1na2vs0mg"},{"bike_id":"1d0ee6fa-7e84-4bad-a513-32569bfb99a6","system_id":"levelo_inurba_marseille","lat":43.27403,"lon":5.39367,"is_reserved":false,"is_disabled":false,"rental_uris":{"android":"levelo://app?vid=1d0ee6fa-7e84-4bad-a513-32569bfb99a6","ios":"levelo://app?vid=1d0ee6fa-7e84-4bad-a513-32569bfb99a6"},"vehicle_type_id":"4","last_reported":1735927919,"current_range_meters":38800,"station_id":"ce4bhdp2rcd13ifvqf20","pricing_plan_id":"cebpf4jnsgd1na2vs0mg"},{"bike_id":"8a44c74e-b260-4c12-941f-f25144716764","system_id":"levelo_inurba_marseille","lat":43.25723,"lon":5.41115,"is_reserved":false,"is_disabled":false,"rental_uris":{"android":"levelo://app?vid=8a44c74e-b260-4c12-941f-f25144716764","ios":"levelo://app?vid=8a44c74e-b260-4c12-941f-f25144716764"},"vehicle_type_id":"4","last_reported":1735927919,"current_range_meters":38800,"station_id":"ce4bhkp2rcd13ifvqgd0","pricing_plan_id":"cebpf4jnsgd1na2vs0mg"},{"bike_id":"2ff0edbb-1120-44a4-b8a8-0b9a430d70c1","system_id":"levelo_inurba_marseille","lat":43.30431,"lon":5.38877,"is_reserved":false,"is_disabled":true,"rental_uris":{"android":"levelo://app?vid=2ff0edbb-1120-44a4-b8a8-0b9a430d70c1","ios":"levelo://app?vid=2ff0edbb-1120-44a4-b8a8-0b9a430d70c1"},"vehicle_type_id":"4","last_reported":1735927919,"current_range_meters":38800,"station_id":"ce4bgk12rcd13ifvqbi0","pricing_plan_id":"cebpf4jnsgd1na2vs0mg"},{"bike_id":"983a939f-0c90-4b41-8e07-1ba37a328643","system_id":"levelo_inurba_marseille","lat":43.24165,"lon":5.36412,"is_reserved":false,"is_disabled":false,"rental_uris":{"android":"levelo://app?vid=983a939f-0c90-4b41-8e07-1ba37a328643","ios":"levelo://app?vid=983a939f-0c90-4b41-8e07-1ba37a328643"},"vehicle_type_id":"4","last_reported":1735927919,"current_range_meters":28000,"station_id":"cpo36qri1sfpv3e86is0","pricing_plan_id":"cebpf4jnsgd1na2vs0mg"},{"bike_id":"0d36baca-b4e4-4eb6-85e9-d02c7038df15","system_id":"levelo_inurba_marseille","lat":43.30551,"lon":5.36526,"is_reserved":false,"is_disabled":true,"rental_uris":{"android":"levelo://app?vid=0d36baca-b4e4-4eb6-85e9-d02c7038df15","ios":"levelo://app?vid=0d36baca-b4e4-4eb6-85e9-d02c7038df15"},"vehicle_type_id":"4","last_reported":1735927919,"current_range_meters":30000,"station_id":"ce4bgs12rcd13ifvqcag","pricing_plan_id":"cebpf4jnsgd1na2vs0mg"},{"bike_id":"abc1d919-2210-4059-891f-1ba55ead0cad","system_id":"levelo_inurba_marseille","lat":43.29307,"lon":5.3717,"is_reserved":false,"is_disabled":false,"rental_uris":{"android":"levelo://app?vid=abc1d919-2210-4059-891f-1ba55ead0cad","ios":"levelo://app?vid=abc1d919-2210-4059-891f-1ba55ead0cad"},"vehicle_type_id":"4","last_reported":1735927919,"current_range_meters":38800,"station_id":"ce4bgh92rcd13ifvqb40","pricing_plan_id":"cebpf4jnsgd1na2vs0mg"},{"bike_id":"dbd7f6c9-df67-46d9-a336-d417ecad0d25","system_id":"levelo_inurba_marseille","lat":43.299,"lon":5.43671,"is_reserved":false,"is_disabled":false,"rental_uris":{"android":"levelo://app?vid=dbd7f6c9-df67-46d9-a336-d417ecad0d25","ios":"levelo://app?vid=dbd7f6c9-df67-46d9-a336-d417ecad0d25"},"vehicle_type_id":"4","last_reported":1735927919,"current_range_meters":36800,"station_id":"ce4bhpp2rcd13ifvqhfg","pricing_plan_id":"cebpf4jnsgd1na2vs0mg"},{"bike_id":"376c5e24-8c99-4a45-b448-d5554cb31c99","system_id":"levelo_inurba_marseille","lat":43.28726,"lon":5.39986,"is_reserved":false,"is_disabled":true,"rental_uris":{"android":"levelo://app?vid=376c5e24-8c99-4a45-b448-d5554cb31c99","ios":"levelo://app?vid=376c5e24-8c99-4a45-b448-d5554cb31c99"},"vehicle_type_id":"4","last_reported":1735927919,"current_range_meters":38000,"station_id":"ce4bho92rcd13ifvqh3g","pricing_plan_id":"cebpf4jnsgd1na2vs0mg"},{"bike_id":"dfc8a5ce-5ff4-4c79-bd9d-48e6c81f2d38","system_id":"levelo_inurba_marseille","lat":43.2861,"lon":5.37052,"is_reserved":false,"is_disabled":false,"rental_uris":{"android":"levelo://app?vid=dfc8a5ce-5ff4-4c79-bd9d-48e6c81f2d38","ios":"levelo://app?vid=dfc8a5ce-5ff4-4c79-bd9d-48e6c81f2d38"},"vehicle_type_id":"4","last_reported":1735927919,"current_range_meters":28000,"station_id":"ce4bht12rcd13ifvqi60","pricing_plan_id":"cebpf4jnsgd1na2vs0mg"},{"bike_id":"7c863057-f1ae-4435-9460-2cc51ef60299","system_id":"levelo_inurba_marseille","lat":43.29224,"lon":5.36072,"is_reserved":false,"is_disabled":false,"rental_uris":{"android":"levelo://app?vid=7c863057-f1ae-4435-9460-2cc51ef60299","ios":"levelo://app?vid=7c863057-f1ae-4435-9460-2cc51ef60299"},"vehicle_type_id":"4","last_reported":1735927919,"current_range_meters":33600,"station_id":"ce4bhbh2rcd13ifvqeqg","pricing_plan_id":"cebpf4jnsgd1na2vs0mg"},{"bike_id":"349a4ab8-6f13-4948-be71-abaadb9466ee","system_id":"levelo_inurba_marseille","lat":43.24088,"lon":5.37735,"is_reserved":false,"is_disabled":false,"rental_uris":{"android":"levelo://app?vid=349a4ab8-6f13-4948-be71-abaadb9466ee","ios":"levelo://app?vid=349a4ab8-6f13-4948-be71-abaadb9466ee"},"vehicle_type_id":"4","last_reported":1735927919,"current_range_meters":38000,"station_id":"ce4bhnp2rcd13ifvqgvg","pricing_plan_id":"cebpf4jnsgd1na2vs0mg"},{"bike_id":"a5857756-0478-41f2-bfa4-405eeda359bc","system_id":"levelo_inurba_marseille","lat":43.2668,"lon":5.38259,"is_reserved":false,"is_disabled":false,"rental_uris":{"android":"levelo://app?vid=a5857756-0478-41f2-bfa4-405eeda359bc","ios":"levelo://app?vid=a5857756-0478-41f2-bfa4-405eeda359bc"},"vehicle_type_id":"4","last_reported":1735927919,"current_range_meters":38800,"station_id":"ce4bhg92rcd13ifvqf90","pricing_plan_id":"cebpf4jnsgd1na2vs0mg"},{"bike_id":"e9c9ac99-6db0-4a19-9854-52585a709e6e","system_id":"levelo_inurba_marseille","lat":43.296013,"lon":5.36712,"is_reserved":false,"is_disabled":false,"rental_uris":{"android":"levelo://app?vid=e9c9ac99-6db0-4a19-9854-52585a709e6e","ios":"levelo://app?vid=e9c9ac99-6db0-4a19-9854-52585a709e6e"},"vehicle_type_id":"4","last_reported":1735927919,"current_range_meters":36800,"station_id":"ce4bgph2rcd13ifvqc2g","pricing_plan_id":"cebpf4jnsgd1na2vs0mg"},{"bike_id":"1f7cd740-2c18-4894-a0a5-47e69df84924","system_id":"levelo_inurba_marseille","lat":43.24999,"lon":5.38941,"is_reserved":false,"is_disabled":false,"rental_uris":{"android":"levelo://app?vid=1f7cd740-2c18-4894-a0a5-47e69df84924","ios":"levelo://app?vid=1f7cd740-2c18-4894-a0a5-47e69df84924"},"vehicle_type_id":"4","last_reported":1735927919,"current_range_meters":34800,"station_id":"ce4bhgp2rcd13ifvqfd0","pricing_plan_id":"cebpf4jnsgd1na2vs0mg"},{"bike_id":"f3998a04-3b93-4948-8eb7-aa16047370fd","system_id":"levelo_inurba_marseille","lat":43.28006,"lon":5.41067,"is_reserved":false,"is_disabled":false,"rental_uris":{"android":"levelo://app?vid=f3998a04-3b93-4948-8eb7-aa16047370fd","ios":"levelo://app?vid=f3998a04-3b93-4948-8eb7-aa16047370fd"},"vehicle_type_id":"4","last_reported":1735927919,"current_range_meters":17200,"station_id":"","pricing_plan_id":"cebpf4jnsgd1na2vs0mg"},{"bike_id":"94978c18-c7ac-49d8-9c72-40484a75119d","system_id":"levelo_inurba_marseille","lat":43.29006,"lon":5.35611,"is_reserved":false,"is_disabled":false,"rental_uris":{"android":"levelo://app?vid=94978c18-c7ac-49d8-9c72-40484a75119d","ios":"levelo://app?vid=94978c18-c7ac-49d8-9c72-40484a75119d"},"vehicle_type_id":"4","last_reported":1735927919,"current_range_meters":39200,"station_id":"ce4bhb92rcd13ifvqen0","pricing_plan_id":"cebpf4jnsgd1na2vs0mg"},{"bike_id":"615d335b-2783-43cb-bf6f-82b705d68bf3","system_id":"levelo_inurba_marseille","lat":43.29268,"lon":5.36849,"is_reserved":false,"is_disabled":false,"rental_uris":{"android":"levelo://app?vid=615d335b-2783-43cb-bf6f-82b705d68bf3","ios":"levelo://app?vid=615d335b-2783-43cb-bf6f-82b705d68bf3"},"vehicle_type_id":"4","last_reported":1735927919,"current_range_meters":8000,"station_id":"ce4bhbp2rcd13ifvqesg","pricing_plan_id":"cebpf4jnsgd1na2vs0mg"},{"bike_id":"0a684e83-02b4-4924-8b8a-900409f1cd34","system_id":"levelo_inurba_marseille","lat":43.24646,"lon":5.38877,"is_reserved":false,"is_disabled":false,"rental_uris":{"android":"levelo://app?vid=0a684e83-02b4-4924-8b8a-900409f1cd34","ios":"levelo://app?vid=0a684e83-02b4-4924-8b8a-900409f1cd34"},"vehicle_type_id":"4","last_reported":1735927919,"current_range_meters":19600,"station_id":"ce4bhg12rcd13ifvqf60","pricing_plan_id":"cebpf4jnsgd1na2vs0mg"},{"bike_id":"e5d6f920-caed-4995-8aea-c63b7b3edd0e","system_id":"levelo_inurba_marseille","lat":43.29007,"lon":5.35604,"is_reserved":false,"is_disabled":false,"rental_uris":{"android":"levelo://app?vid=e5d6f920-caed-4995-8aea-c63b7b3edd0e","ios":"levelo://app?vid=e5d6f920-caed-4995-8aea-c63b7b3edd0e"},"vehicle_type_id":"4","last_reported":1735927919,"current_range_meters":15200,"station_id":"ce4bhb92rcd13ifvqen0","pricing_plan_id":"cebpf4jnsgd1na2vs0mg"},{"bike_id":"a155989a-4edf-4cbc-809e-81f2306c0f69","system_id":"levelo_inurba_marseille","lat":43.30167,"lon":5.36598,"is_reserved":false,"is_disabled":false,"rental_uris":{"android":"levelo://app?vid=a155989a-4edf-4cbc-809e-81f2306c0f69","ios":"levelo://app?vid=a155989a-4edf-4cbc-809e-81f2306c0f69"},"vehicle_type_id":"4","last_reported":1735927919,"current_range_meters":38800,"station_id":"ce4bgrh2rcd13ifvqc8g","pricing_plan_id":"cebpf4jnsgd1na2vs0mg"},{"bike_id":"9a633b20-48e1-4d57-88ca-cc77983ef0f1","system_id":"levelo_inurba_marseille","lat":43.28158,"lon":5.42648,"is_reserved":false,"is_disabled":false,"rental_uris":{"android":"levelo://app?vid=9a633b20-48e1-4d57-88ca-cc77983ef0f1","ios":"levelo://app?vid=9a633b20-48e1-4d57-88ca-cc77983ef0f1"},"vehicle_type_id":"4","last_reported":1735927919,"current_range_meters":10000,"station_id":"ce4bhnh2rcd13ifvqgug","pricing_plan_id":"cebpf4jnsgd1na2vs0mg"},{"bike_id":"63bd9e51-f3f7-419c-aee7-3da94177a3d4","system_id":"levelo_inurba_marseille","lat":43.30595,"lon":5.37218,"is_reserved":false,"is_disabled":false,"rental_uris":{"android":"levelo://app?vid=63bd9e51-f3f7-419c-aee7-3da94177a3d4","ios":"levelo://app?vid=63bd9e51-f3f7-419c-aee7-3da94177a3d4"},"vehicle_type_id":"4","last_reported":1735927919,"current_range_meters":38800,"station_id":"ce4bgqh2rcd13ifvqc4g","pricing_plan_id":"cebpf4jnsgd1na2vs0mg"},{"bike_id":"1c324d20-b72d-4f5d-b244-6d48bf30a17b","system_id":"levelo_inurba_marseille","lat":43.26556,"lon":5.37276,"is_reserved":false,"is_disabled":false,"rental_uris":{"android":"levelo://app?vid=1c324d20-b72d-4f5d-b244-6d48bf30a17b","ios":"levelo://app?vid=1c324d20-b72d-4f5d-b244-6d48bf30a17b"},"vehicle_type_id":"4","last_reported":1735927919,"current_range_meters":27600,"station_id":"ce4bhg12rcd13ifvqf70","pricing_plan_id":"cebpf4jnsgd1na2vs0mg"},{"bike_id":"eaecfcca-aa89-4e9a-8d17-c5be1539665b","system_id":"levelo_inurba_marseille","lat":43.28275,"lon":5.35074,"is_reserved":false,"is_disabled":true,"rental_uris":{"android":"levelo://app?vid=eaecfcca-aa89-4e9a-8d17-c5be1539665b","ios":"levelo://app?vid=eaecfcca-aa89-4e9a-8d17-c5be1539665b"},"vehicle_type_id":"4","last_reported":1735927919,"current_range_meters":9600,"station_id":"ce4bhbp2rcd13ifvqerg","pricing_plan_id":"cebpf4jnsgd1na2vs0mg"},{"bike_id":"896797d5-e48c-435a-a4ff-c7d0b4682116","system_id":"levelo_inurba_marseille","lat":43.2784,"lon":5.40694,"is_reserved":false,"is_disabled":false,"rental_uris":{"android":"levelo://app?vid=896797d5-e48c-435a-a4ff-c7d0b4682116","ios":"levelo://app?vid=896797d5-e48c-435a-a4ff-c7d0b4682116"},"vehicle_type_id":"4","last_reported":1735927919,"current_range_meters":30000,"station_id":"ce4bhnh2rcd13ifvqgtg","pricing_plan_id":"cebpf4jnsgd1na2vs0mg"},{"bike_id":"2787b49e-7aee-4b28-9e24-cacc015407d3","system_id":"levelo_inurba_marseille","lat":43.28272,"lon":5.3507,"is_reserved":false,"is_disabled":true,"rental_uris":{"android":"levelo://app?vid=2787b49e-7aee-4b28-9e24-cacc015407d3","ios":"levelo://app?vid=2787b49e-7aee-4b28-9e24-cacc015407d3"},"vehicle_type_id":"4","last_reported":1735927919,"current_range_meters":1600,"station_id":"ce4bhbp2rcd13ifvqerg","pricing_plan_id":"cebpf4jnsgd1na2vs0mg"},{"bike_id":"13ef7d4c-1aac-463f-b78f-283376e4de16","system_id":"levelo_inurba_marseille","lat":43.22926,"lon":5.35384,"is_reserved":false,"is_disabled":false,"rental_uris":{"android":"levelo://app?vid=13ef7d4c-1aac-463f-b78f-283376e4de16","ios":"levelo://app?vid=13ef7d4c-1aac-463f-b78f-283376e4de16"},"vehicle_type_id":"4","last_reported":1735927919,"current_range_meters":38800,"station_id":"cpo3532slgdg3j2ikp40","pricing_plan_id":"cebpf4jnsgd1na2vs0mg"},{"bike_id":"042771d3-9baa-44a0-a3d0-1dbccfa8f961","system_id":"levelo_inurba_marseille","lat":43.31326,"lon":5.39699,"is_reserved":false,"is_disabled":false,"rental_uris":{"android":"levelo://app?vid=042771d3-9baa-44a0-a3d0-1dbccfa8f961","ios":"levelo://app?vid=042771d3-9baa-44a0-a3d0-1dbccfa8f961"},"vehicle_type_id":"4","last_reported":1735927919,"current_range_meters":38800,"station_id":"ce4bgvp2rcd13ifvqcu0","pricing_plan_id":"cebpf4jnsgd1na2vs0mg"},{"bike_id":"60b20c4f-76ac-4374-bd4d-a13ad2602930","system_id":"levelo_inurba_marseille","lat":43.25726,"lon":5.41101,"is_reserved":false,"is_disabled":false,"rental_uris":{"android":"levelo://app?vid=60b20c4f-76ac-4374-bd4d-a13ad2602930","ios":"levelo://app?vid=60b20c4f-76ac-4374-bd4d-a13ad2602930"},"vehicle_type_id":"4","last_reported":1735927919,"current_range_meters":20400,"station_id":"ce4bhkp2rcd13ifvqgd0","pricing_plan_id":"cebpf4jnsgd1na2vs0mg"},{"bike_id":"45ce62fc-6f6b-4621-b85d-7749bb24f8a2","system_id":"levelo_inurba_marseille","lat":43.29042,"lon":5.37564,"is_reserved":false,"is_disabled":true,"rental_uris":{"android":"levelo://app?vid=45ce62fc-6f6b-4621-b85d-7749bb24f8a2","ios":"levelo://app?vid=45ce62fc-6f6b-4621-b85d-7749bb24f8a2"},"vehicle_type_id":"4","last_reported":1735927919,"current_range_meters":800,"station_id":"ce4bh692rcd13ifvqe90","pricing_plan_id":"cebpf4jnsgd1na2vs0mg"},{"bike_id":"f3c12ef4-82bd-48ff-8ba6-8f2c9a44f8b9","system_id":"levelo_inurba_marseille","lat":43.24808,"lon":5.37454,"is_reserved":false,"is_disabled":false,"rental_uris":{"android":"levelo://app?vid=f3c12ef4-82bd-48ff-8ba6-8f2c9a44f8b9","ios":"levelo://app?vid=f3c12ef4-82bd-48ff-8ba6-8f2c9a44f8b9"},"vehicle_type_id":"4","last_reported":1735927919,"current_range_meters":38800,"station_id":"ce4bhgh2rcd13ifvqfb0","pricing_plan_id":"cebpf4jnsgd1na2vs0mg"},{"bike_id":"d6e7f03a-72a5-423e-b7d6-db39c9821471","system_id":"levelo_inurba_marseille","lat":43.2784,"lon":5.39206,"is_reserved":false,"is_disabled":false,"rental_uris":{"android":"levelo://app?vid=d6e7f03a-72a5-423e-b7d6-db39c9821471","ios":"levelo://app?vid=d6e7f03a-72a5-423e-b7d6-db39c9821471"},"vehicle_type_id":"4","last_reported":1735927919,"current_range_meters":39200,"station_id":"ce4bhjp2rcd13ifvqga0","pricing_plan_id":"cebpf4jnsgd1na2vs0mg"},{"bike_id":"4dd2e870-4977-422c-a723-9c8ea81a9468","system_id":"levelo_inurba_marseille","lat":43.255003,"lon":5.376513,"is_reserved":false,"is_disabled":false,"rental_uris":{"android":"levelo://app?vid=4dd2e870-4977-422c-a723-9c8ea81a9468","ios":"levelo://app?vid=4dd2e870-4977-422c-a723-9c8ea81a9468"},"vehicle_type_id":"4","last_reported":1735927919,"current_range_meters":34000,"station_id":"ce4bhh12rcd13ifvqff0","pricing_plan_id":"cebpf4jnsgd1na2vs0mg"},{"bike_id":"725999bb-8b32-4e5b-95fc-d63880a1b626","system_id":"levelo_inurba_marseille","lat":43.32636,"lon":5.40981,"is_reserved":false,"is_disabled":false,"rental_uris":{"android":"levelo://app?vid=725999bb-8b32-4e5b-95fc-d63880a1b626","ios":"levelo://app?vid=725999bb-8b32-4e5b-95fc-d63880a1b626"},"vehicle_type_id":"4","last_reported":1735927919,"current_range_meters":38800,"station_id":"ce4bhpp2rcd13ifvqhgg","pricing_plan_id":"cebpf4jnsgd1na2vs0mg"},{"bike_id":"6488e6ad-bca6-4c13-9be7-18c15e857560","system_id":"levelo_inurba_marseille","lat":43.29272,"lon":5.36844,"is_reserved":false,"is_disabled":false,"rental_uris":{"android":"levelo://app?vid=6488e6ad-bca6-4c13-9be7-18c15e857560","ios":"levelo://app?vid=6488e6ad-bca6-4c13-9be7-18c15e857560"},"vehicle_type_id":"4","last_reported":1735927919,"current_range_meters":38800,"station_id":"ce4bhbp2rcd13ifvqesg","pricing_plan_id":"cebpf4jnsgd1na2vs0mg"},{"bike_id":"eae11c21-0e68-4841-b456-38f5bd6f851c","system_id":"levelo_inurba_marseille","lat":43.26807,"lon":5.39395,"is_reserved":false,"is_disabled":false,"rental_uris":{"android":"levelo://app?vid=eae11c21-0e68-4841-b456-38f5bd6f851c","ios":"levelo://app?vid=eae11c21-0e68-4841-b456-38f5bd6f851c"},"vehicle_type_id":"4","last_reported":1735927919,"current_range_meters":22400,"station_id":"ce4bhh12rcd13ifvqfg0","pricing_plan_id":"cebpf4jnsgd1na2vs0mg"},{"bike_id":"735e5c87-8823-4a39-a3d9-bdfadecba49e","system_id":"levelo_inurba_marseille","lat":43.27496,"lon":5.42452,"is_reserved":false,"is_disabled":false,"rental_uris":{"android":"levelo://app?vid=735e5c87-8823-4a39-a3d9-bdfadecba49e","ios":"levelo://app?vid=735e5c87-8823-4a39-a3d9-bdfadecba49e"},"vehicle_type_id":"4","last_reported":1735927919,"current_range_meters":19200,"station_id":"ce4bhn92rcd13ifvqgrg","pricing_plan_id":"cebpf4jnsgd1na2vs0mg"},{"bike_id":"3603cabe-4957-48a6-b971-b737ca16a43d","system_id":"levelo_inurba_marseille","lat":43.32659,"lon":5.40987,"is_reserved":false,"is_disabled":false,"rental_uris":{"android":"levelo://app?vid=3603cabe-4957-48a6-b971-b737ca16a43d","ios":"levelo://app?vid=3603cabe-4957-48a6-b971-b737ca16a43d"},"vehicle_type_id":"4","last_reported":1735927919,"current_range_meters":22400,"station_id":"ce4bhpp2rcd13ifvqhgg","pricing_plan_id":"cebpf4jnsgd1na2vs0mg"},{"bike_id":"cb502d23-885a-4aea-bf23-e0a56e87da64","system_id":"levelo_inurba_marseille","lat":43.28735,"lon":5.3608,"is_reserved":false,"is_disabled":false,"rental_uris":{"android":"levelo://app?vid=cb502d23-885a-4aea-bf23-e0a56e87da64","ios":"levelo://app?vid=cb502d23-885a-4aea-bf23-e0a56e87da64"},"vehicle_type_id":"4","last_reported":1735927919,"current_range_meters":39200,"station_id":"cki0cbj6b192h4jlfktg","pricing_plan_id":"cebpf4jnsgd1na2vs0mg"},{"bike_id":"3f35ad24-0616-4407-959f-f24f6d330ccf","system_id":"levelo_inurba_marseille","lat":43.30326,"lon":5.40452,"is_reserved":false,"is_disabled":false,"rental_uris":{"android":"levelo://app?vid=3f35ad24-0616-4407-959f-f24f6d330ccf","ios":"levelo://app?vid=3f35ad24-0616-4407-959f-f24f6d330ccf"},"vehicle_type_id":"4","last_reported":1735927919,"current_range_meters":28800,"station_id":"ce4bh012rcd13ifvqd10","pricing_plan_id":"cebpf4jnsgd1na2vs0mg"},{"bike_id":"96b31675-1064-4153-98a7-64bc18e5abfe","system_id":"levelo_inurba_marseille","lat":43.30161,"lon":5.38081,"is_reserved":false,"is_disabled":false,"rental_uris":{"android":"levelo://app?vid=96b31675-1064-4153-98a7-64bc18e5abfe","ios":"levelo://app?vid=96b31675-1064-4153-98a7-64bc18e5abfe"},"vehicle_type_id":"4","last_reported":1735927919,"current_range_meters":25600,"station_id":"ce4bgjp2rcd13ifvqbh0","pricing_plan_id":"cebpf4jnsgd1na2vs0mg"},{"bike_id":"f69cf530-fadf-40f2-a4a1-1165e9ad1408","system_id":"levelo_inurba_marseille","lat":43.27991,"lon":5.41662,"is_reserved":false,"is_disabled":false,"rental_uris":{"android":"levelo://app?vid=f69cf530-fadf-40f2-a4a1-1165e9ad1408","ios":"levelo://app?vid=f69cf530-fadf-40f2-a4a1-1165e9ad1408"},"vehicle_type_id":"4","last_reported":1735927919,"current_range_meters":30800,"station_id":"ce4bho12rcd13ifvqh1g","pricing_plan_id":"cebpf4jnsgd1na2vs0mg"},{"bike_id":"6fec1f64-4c33-4501-a0fa-57f2521f6c43","system_id":"levelo_inurba_marseille","lat":43.28076,"lon":5.39664,"is_reserved":false,"is_disabled":false,"rental_uris":{"android":"levelo://app?vid=6fec1f64-4c33-4501-a0fa-57f2521f6c43","ios":"levelo://app?vid=6fec1f64-4c33-4501-a0fa-57f2521f6c43"},"vehicle_type_id":"4","last_reported":1735927919,"current_range_meters":30800,"station_id":"ce4bho12rcd13ifvqh2g","pricing_plan_id":"cebpf4jnsgd1na2vs0mg"},{"bike_id":"2bd213f6-7c3b-4206-a8d7-1b059cfadb7f","system_id":"levelo_inurba_marseille","lat":43.33723,"lon":5.39182,"is_reserved":false,"is_disabled":false,"rental_uris":{"android":"levelo://app?vid=2bd213f6-7c3b-4206-a8d7-1b059cfadb7f","ios":"levelo://app?vid=2bd213f6-7c3b-4206-a8d7-1b059cfadb7f"},"vehicle_type_id":"4","last_reported":1735927919,"current_range_meters":39200,"station_id":"ce4bhr92rcd13ifvqhsg","pricing_plan_id":"cebpf4jnsgd1na2vs0mg"},{"bike_id":"4e2e926a-cc62-4529-8b24-3abbcf0f0be2","system_id":"levelo_inurba_marseille","lat":43.23188,"lon":5.35566,"is_reserved":false,"is_disabled":false,"rental_uris":{"android":"levelo://app?vid=4e2e926a-cc62-4529-8b24-3abbcf0f0be2","ios":"levelo://app?vid=4e2e926a-cc62-4529-8b24-3abbcf0f0be2"},"vehicle_type_id":"4","last_reported":1735927919,"current_range_meters":32000,"station_id":"ce4bhu92rcd13ifvqi70","pricing_plan_id":"cebpf4jnsgd1na2vs0mg"},{"bike_id":"1add45ea-69c0-48f3-bc17-345fc523c21c","system_id":"levelo_inurba_marseille","lat":43.29257,"lon":5.40894,"is_reserved":false,"is_disabled":false,"rental_uris":{"android":"levelo://app?vid=1add45ea-69c0-48f3-bc17-345fc523c21c","ios":"levelo://app?vid=1add45ea-69c0-48f3-bc17-345fc523c21c"},"vehicle_type_id":"4","last_reported":1735927919,"current_range_meters":27600,"station_id":"ce4bh192rcd13ifvqdc0","pricing_plan_id":"cebpf4jnsgd1na2vs0mg"},{"bike_id":"2f3bb91a-83dc-4564-aa47-fd0f5fd81016","system_id":"levelo_inurba_marseille","lat":43.291,"lon":5.38139,"is_reserved":false,"is_disabled":false,"rental_uris":{"android":"levelo://app?vid=2f3bb91a-83dc-4564-aa47-fd0f5fd81016","ios":"levelo://app?vid=2f3bb91a-83dc-4564-aa47-fd0f5fd81016"},"vehicle_type_id":"4","last_reported":1735927919,"current_range_meters":9200,"station_id":"ce4bh512rcd13ifvqe2g","pricing_plan_id":"cebpf4jnsgd1na2vs0mg"},{"bike_id":"4099e364-d3d5-4e70-b9a6-6d1dbcbab17c","system_id":"levelo_inurba_marseille","lat":43.28078,"lon":5.39655,"is_reserved":false,"is_disabled":true,"rental_uris":{"android":"levelo://app?vid=4099e364-d3d5-4e70-b9a6-6d1dbcbab17c","ios":"levelo://app?vid=4099e364-d3d5-4e70-b9a6-6d1dbcbab17c"},"vehicle_type_id":"4","last_reported":1735927919,"current_range_meters":0,"station_id":"ce4bho12rcd13ifvqh2g","pricing_plan_id":"cebpf4jnsgd1na2vs0mg"},{"bike_id":"8f76f1e6-c416-4410-a4df-ed9c4594ea62","system_id":"levelo_inurba_marseille","lat":43.3046,"lon":5.37898,"is_reserved":false,"is_disabled":false,"rental_uris":{"android":"levelo://app?vid=8f76f1e6-c416-4410-a4df-ed9c4594ea62","ios":"levelo://app?vid=8f76f1e6-c416-4410-a4df-ed9c4594ea62"},"vehicle_type_id":"4","last_reported":1735927919,"current_range_meters":21600,"station_id":"ce4bgup2rcd13ifvqcn0","pricing_plan_id":"cebpf4jnsgd1na2vs0mg"},{"bike_id":"363691a1-1ab8-4ef9-ab2a-a84c265c101d","system_id":"levelo_inurba_marseille","lat":43.29154,"lon":5.37133,"is_reserved":false,"is_disabled":false,"rental_uris":{"android":"levelo://app?vid=363691a1-1ab8-4ef9-ab2a-a84c265c101d","ios":"levelo://app?vid=363691a1-1ab8-4ef9-ab2a-a84c265c101d"},"vehicle_type_id":"4","last_reported":1735927919,"current_range_meters":17200,"station_id":"ce4bha92rcd13ifvqeh0","pricing_plan_id":"cebpf4jnsgd1na2vs0mg"},{"bike_id":"791dec88-10e9-48b5-9fc6-b0acca6d5c2e","system_id":"levelo_inurba_marseille","lat":43.293,"lon":5.37451,"is_reserved":false,"is_disabled":true,"rental_uris":{"android":"levelo://app?vid=791dec88-10e9-48b5-9fc6-b0acca6d5c2e","ios":"levelo://app?vid=791dec88-10e9-48b5-9fc6-b0acca6d5c2e"},"vehicle_type_id":"4","last_reported":1735927919,"current_range_meters":1600,"station_id":"ce4bgi12rcd13ifvqb70","pricing_plan_id":"cebpf4jnsgd1na2vs0mg"},{"bike_id":"6ca81ff8-25f4-4aaa-8b72-2ac07fd9902c","system_id":"levelo_inurba_marseille","lat":43.29803,"lon":5.38088,"is_reserved":false,"is_disabled":false,"rental_uris":{"android":"levelo://app?vid=6ca81ff8-25f4-4aaa-8b72-2ac07fd9902c","ios":"levelo://app?vid=6ca81ff8-25f4-4aaa-8b72-2ac07fd9902c"},"vehicle_type_id":"4","last_reported":1735927919,"current_range_meters":39200,"station_id":"ce4bgip2rcd13ifvqbb0","pricing_plan_id":"cebpf4jnsgd1na2vs0mg"},{"bike_id":"34617586-430d-4b7a-9eab-a1013b7c582e","system_id":"levelo_inurba_marseille","lat":43.28981,"lon":5.37845,"is_reserved":false,"is_disabled":true,"rental_uris":{"android":"levelo://app?vid=34617586-430d-4b7a-9eab-a1013b7c582e","ios":"levelo://app?vid=34617586-430d-4b7a-9eab-a1013b7c582e"},"vehicle_type_id":"4","last_reported":1735927919,"current_range_meters":30800,"station_id":"ce4bh9p2rcd13ifvqed0","pricing_plan_id":"cebpf4jnsgd1na2vs0mg"},{"bike_id":"48d2688d-946c-4cd9-95b1-87f4dc14a3ad","system_id":"levelo_inurba_marseille","lat":43.27929,"lon":5.41185,"is_reserved":false,"is_disabled":false,"rental_uris":{"android":"levelo://app?vid=48d2688d-946c-4cd9-95b1-87f4dc14a3ad","ios":"levelo://app?vid=48d2688d-946c-4cd9-95b1-87f4dc14a3ad"},"vehicle_type_id":"4","last_reported":1735927919,"current_range_meters":17200,"station_id":"","pricing_plan_id":"cebpf4jnsgd1na2vs0mg"},{"bike_id":"e86e8a6b-2981-4147-9bb2-a5ab92db9450","system_id":"levelo_inurba_marseille","lat":43.28156,"lon":5.42633,"is_reserved":false,"is_disabled":false,"rental_uris":{"android":"levelo://app?vid=e86e8a6b-2981-4147-9bb2-a5ab92db9450","ios":"levelo://app?vid=e86e8a6b-2981-4147-9bb2-a5ab92db9450"},"vehicle_type_id":"4","last_reported":1735927919,"current_range_meters":36800,"station_id":"ce4bhnh2rcd13ifvqgug","pricing_plan_id":"cebpf4jnsgd1na2vs0mg"},{"bike_id":"96ba7f26-1810-4a4d-90e4-a07a1e6cacee","system_id":"levelo_inurba_marseille","lat":43.24813,"lon":5.37456,"is_reserved":false,"is_disabled":false,"rental_uris":{"android":"levelo://app?vid=96ba7f26-1810-4a4d-90e4-a07a1e6cacee","ios":"levelo://app?vid=96ba7f26-1810-4a4d-90e4-a07a1e6cacee"},"vehicle_type_id":"4","last_reported":1735927919,"current_range_meters":24800,"station_id":"ce4bhgh2rcd13ifvqfb0","pricing_plan_id":"cebpf4jnsgd1na2vs0mg"},{"bike_id":"d9676b1a-df49-429f-b317-1de61bb96597","system_id":"levelo_inurba_marseille","lat":43.2862,"lon":5.35106,"is_reserved":false,"is_disabled":false,"rental_uris":{"android":"levelo://app?vid=d9676b1a-df49-429f-b317-1de61bb96597","ios":"levelo://app?vid=d9676b1a-df49-429f-b317-1de61bb96597"},"vehicle_type_id":"4","last_reported":1735927919,"current_range_meters":34000,"station_id":"ce4bhch2rcd13ifvqeug","pricing_plan_id":"cebpf4jnsgd1na2vs0mg"},{"bike_id":"24d1e349-841a-44e7-ba82-b9928c2b4f89","system_id":"levelo_inurba_marseille","lat":43.29722,"lon":5.37691,"is_reserved":false,"is_disabled":false,"rental_uris":{"android":"levelo://app?vid=24d1e349-841a-44e7-ba82-b9928c2b4f89","ios":"levelo://app?vid=24d1e349-841a-44e7-ba82-b9928c2b4f89"},"vehicle_type_id":"4","last_reported":1735927919,"current_range_meters":38400,"station_id":"ce4bgkh2rcd13ifvqbl0","pricing_plan_id":"cebpf4jnsgd1na2vs0mg"},{"bike_id":"e40b8873-a7cf-4e56-b106-d515344f64c4","system_id":"levelo_inurba_marseille","lat":43.23218,"lon":5.35539,"is_reserved":false,"is_disabled":false,"rental_uris":{"android":"levelo://app?vid=e40b8873-a7cf-4e56-b106-d515344f64c4","ios":"levelo://app?vid=e40b8873-a7cf-4e56-b106-d515344f64c4"},"vehicle_type_id":"4","last_reported":1735927919,"current_range_meters":38800,"station_id":"ce4bhu92rcd13ifvqi70","pricing_plan_id":"cebpf4jnsgd1na2vs0mg"},{"bike_id":"bbf998ea-d252-4590-8711-16d78ff4b07c","system_id":"levelo_inurba_marseille","lat":43.24652,"lon":5.38879,"is_reserved":false,"is_disabled":false,"rental_uris":{"android":"levelo://app?vid=bbf998ea-d252-4590-8711-16d78ff4b07c","ios":"levelo://app?vid=bbf998ea-d252-4590-8711-16d78ff4b07c"},"vehicle_type_id":"4","last_reported":1735927919,"current_range_meters":38800,"station_id":"ce4bhg12rcd13ifvqf60","pricing_plan_id":"cebpf4jnsgd1na2vs0mg"},{"bike_id":"9027064e-6565-4c6d-8145-3a52c0a6a72f","system_id":"levelo_inurba_marseille","lat":43.29859,"lon":5.36279,"is_reserved":false,"is_disabled":false,"rental_uris":{"android":"levelo://app?vid=9027064e-6565-4c6d-8145-3a52c0a6a72f","ios":"levelo://app?vid=9027064e-6565-4c6d-8145-3a52c0a6a72f"},"vehicle_type_id":"4","last_reported":1735927919,"current_range_meters":38400,"station_id":"ce4bgpp2rcd13ifvqc3g","pricing_plan_id":"cebpf4jnsgd1na2vs0mg"},{"bike_id":"6986a939-ad68-46af-90c6-b23cfd43cb23","system_id":"levelo_inurba_marseille","lat":43.29027,"lon":5.38623,"is_reserved":false,"is_disabled":false,"rental_uris":{"android":"levelo://app?vid=6986a939-ad68-46af-90c6-b23cfd43cb23","ios":"levelo://app?vid=6986a939-ad68-46af-90c6-b23cfd43cb23"},"vehicle_type_id":"4","last_reported":1735927919,"current_range_meters":31200,"station_id":"ce4bh4p2rcd13ifvqe0g","pricing_plan_id":"cebpf4jnsgd1na2vs0mg"},{"bike_id":"5250f7d4-1da6-441d-b627-ab92cb7e088d","system_id":"levelo_inurba_marseille","lat":43.24816,"lon":5.37457,"is_reserved":false,"is_disabled":false,"rental_uris":{"android":"levelo://app?vid=5250f7d4-1da6-441d-b627-ab92cb7e088d","ios":"levelo://app?vid=5250f7d4-1da6-441d-b627-ab92cb7e088d"},"vehicle_type_id":"4","last_reported":1735927919,"current_range_meters":28400,"station_id":"ce4bhgh2rcd13ifvqfb0","pricing_plan_id":"cebpf4jnsgd1na2vs0mg"},{"bike_id":"ee808430-fc08-4e4b-b354-970dcaa7e3bb","system_id":"levelo_inurba_marseille","lat":43.29271,"lon":5.38454,"is_reserved":false,"is_disabled":false,"rental_uris":{"android":"levelo://app?vid=ee808430-fc08-4e4b-b354-970dcaa7e3bb","ios":"levelo://app?vid=ee808430-fc08-4e4b-b354-970dcaa7e3bb"},"vehicle_type_id":"4","last_reported":1735927919,"current_range_meters":10000,"station_id":"ce4bh692rcd13ifvqea0","pricing_plan_id":"cebpf4jnsgd1na2vs0mg"},{"bike_id":"c76f010e-8b23-4840-a7a5-a9a5d3648fa3","system_id":"levelo_inurba_marseille","lat":43.30884,"lon":5.372,"is_reserved":false,"is_disabled":true,"rental_uris":{"android":"levelo://app?vid=c76f010e-8b23-4840-a7a5-a9a5d3648fa3","ios":"levelo://app?vid=c76f010e-8b23-4840-a7a5-a9a5d3648fa3"},"vehicle_type_id":"4","last_reported":1735927919,"current_range_meters":14400,"station_id":"ce4bguh2rcd13ifvqckg","pricing_plan_id":"cebpf4jnsgd1na2vs0mg"},{"bike_id":"6f21fba1-6f8e-47c4-a476-286cca5f9cc6","system_id":"levelo_inurba_marseille","lat":43.28271,"lon":5.35065,"is_reserved":false,"is_disabled":true,"rental_uris":{"android":"levelo://app?vid=6f21fba1-6f8e-47c4-a476-286cca5f9cc6","ios":"levelo://app?vid=6f21fba1-6f8e-47c4-a476-286cca5f9cc6"},"vehicle_type_id":"4","last_reported":1735927919,"current_range_meters":6800,"station_id":"ce4bhbp2rcd13ifvqerg","pricing_plan_id":"cebpf4jnsgd1na2vs0mg"},{"bike_id":"34422dee-3770-41bd-9281-9613d3d13db9","system_id":"levelo_inurba_marseille","lat":43.30599,"lon":5.37205,"is_reserved":false,"is_disabled":false,"rental_uris":{"android":"levelo://app?vid=34422dee-3770-41bd-9281-9613d3d13db9","ios":"levelo://app?vid=34422dee-3770-41bd-9281-9613d3d13db9"},"vehicle_type_id":"4","last_reported":1735927919,"current_range_meters":36400,"station_id":"ce4bgqh2rcd13ifvqc4g","pricing_plan_id":"cebpf4jnsgd1na2vs0mg"},{"bike_id":"70df538c-5fe0-4bac-b37d-a6f7e9eb1810","system_id":"levelo_inurba_marseille","lat":43.28935,"lon":5.38408,"is_reserved":false,"is_disabled":false,"rental_uris":{"android":"levelo://app?vid=70df538c-5fe0-4bac-b37d-a6f7e9eb1810","ios":"levelo://app?vid=70df538c-5fe0-4bac-b37d-a6f7e9eb1810"},"vehicle_type_id":"4","last_reported":1735927919,"current_range_meters":38800,"station_id":"ce4bh612rcd13ifvqe6g","pricing_plan_id":"cebpf4jnsgd1na2vs0mg"},{"bike_id":"171b9e00-16eb-4289-ad45-2a51ccd89e7a","system_id":"levelo_inurba_marseille","lat":43.29596,"lon":5.38104,"is_reserved":false,"is_disabled":false,"rental_uris":{"android":"levelo://app?vid=171b9e00-16eb-4289-ad45-2a51ccd89e7a","ios":"levelo://app?vid=171b9e00-16eb-4289-ad45-2a51ccd89e7a"},"vehicle_type_id":"4","last_reported":1735927919,"current_range_meters":38000,"station_id":"ce4bgl12rcd13ifvqbo0","pricing_plan_id":"cebpf4jnsgd1na2vs0mg"},{"bike_id":"f06acfb3-bc00-4d8d-9b31-d68f48ec0e66","system_id":"levelo_inurba_marseille","lat":43.29583,"lon":5.36733,"is_reserved":false,"is_disabled":false,"rental_uris":{"android":"levelo://app?vid=f06acfb3-bc00-4d8d-9b31-d68f48ec0e66","ios":"levelo://app?vid=f06acfb3-bc00-4d8d-9b31-d68f48ec0e66"},"vehicle_type_id":"4","last_reported":1735927919,"current_range_meters":32400,"station_id":"ce4bgph2rcd13ifvqc2g","pricing_plan_id":"cebpf4jnsgd1na2vs0mg"},{"bike_id":"1c02ae40-e43c-4632-b75b-2df9308dc3fe","system_id":"levelo_inurba_marseille","lat":43.33758,"lon":5.37445,"is_reserved":false,"is_disabled":false,"rental_uris":{"android":"levelo://app?vid=1c02ae40-e43c-4632-b75b-2df9308dc3fe","ios":"levelo://app?vid=1c02ae40-e43c-4632-b75b-2df9308dc3fe"},"vehicle_type_id":"4","last_reported":1735927919,"current_range_meters":33600,"station_id":"","pricing_plan_id":"cebpf4jnsgd1na2vs0mg"},{"bike_id":"dfc98cf2-ac99-439d-95d0-401cedb2c49d","system_id":"levelo_inurba_marseille","lat":43.30929,"lon":5.40152,"is_reserved":false,"is_disabled":false,"rental_uris":{"android":"levelo://app?vid=dfc98cf2-ac99-439d-95d0-401cedb2c49d","ios":"levelo://app?vid=dfc98cf2-ac99-439d-95d0-401cedb2c49d"},"vehicle_type_id":"4","last_reported":1735927919,"current_range_meters":36800,"station_id":"ce4bgvp2rcd13ifvqct0","pricing_plan_id":"cebpf4jnsgd1na2vs0mg"},{"bike_id":"380d9a3e-df22-4d70-b6c7-a9e2a1230a08","system_id":"levelo_inurba_marseille","lat":43.28156,"lon":5.42642,"is_reserved":false,"is_disabled":false,"rental_uris":{"android":"levelo://app?vid=380d9a3e-df22-4d70-b6c7-a9e2a1230a08","ios":"levelo://app?vid=380d9a3e-df22-4d70-b6c7-a9e2a1230a08"},"vehicle_type_id":"4","last_reported":1735927919,"current_range_meters":30800,"station_id":"ce4bhnh2rcd13ifvqgug","pricing_plan_id":"cebpf4jnsgd1na2vs0mg"},{"bike_id":"e6f0f3be-d7b1-4265-96ae-8f4aa53891e2","system_id":"levelo_inurba_marseille","lat":43.29306,"lon":5.37169,"is_reserved":false,"is_disabled":false,"rental_uris":{"android":"levelo://app?vid=e6f0f3be-d7b1-4265-96ae-8f4aa53891e2","ios":"levelo://app?vid=e6f0f3be-d7b1-4265-96ae-8f4aa53891e2"},"vehicle_type_id":"4","last_reported":1735927919,"current_range_meters":39200,"station_id":"ce4bgh92rcd13ifvqb40","pricing_plan_id":"cebpf4jnsgd1na2vs0mg"},{"bike_id":"b96d2856-7472-475d-a492-2a1ac8597f9d","system_id":"levelo_inurba_marseille","lat":43.28388,"lon":5.38633,"is_reserved":false,"is_disabled":false,"rental_uris":{"android":"levelo://app?vid=b96d2856-7472-475d-a492-2a1ac8597f9d","ios":"levelo://app?vid=b96d2856-7472-475d-a492-2a1ac8597f9d"},"vehicle_type_id":"4","last_reported":1735927919,"current_range_meters":27200,"station_id":"ce4bh492rcd13ifvqdvg","pricing_plan_id":"cebpf4jnsgd1na2vs0mg"},{"bike_id":"262b0d7a-b83b-40f1-bc54-810a9a289441","system_id":"levelo_inurba_marseille","lat":43.29194,"lon":5.35799,"is_reserved":false,"is_disabled":false,"rental_uris":{"android":"levelo://app?vid=262b0d7a-b83b-40f1-bc54-810a9a289441","ios":"levelo://app?vid=262b0d7a-b83b-40f1-bc54-810a9a289441"},"vehicle_type_id":"4","last_reported":1735927919,"current_range_meters":39200,"station_id":"ce4bhb12rcd13ifvqel0","pricing_plan_id":"cebpf4jnsgd1na2vs0mg"},{"bike_id":"9f3869b7-1cc5-4ec7-927a-e16986ff99f5","system_id":"levelo_inurba_marseille","lat":43.23958,"lon":5.36617,"is_reserved":false,"is_disabled":false,"rental_uris":{"android":"levelo://app?vid=9f3869b7-1cc5-4ec7-927a-e16986ff99f5","ios":"levelo://app?vid=9f3869b7-1cc5-4ec7-927a-e16986ff99f5"},"vehicle_type_id":"4","last_reported":1735927919,"current_range_meters":27600,"station_id":"ce4bhi12rcd13ifvqfp0","pricing_plan_id":"cebpf4jnsgd1na2vs0mg"},{"bike_id":"d5355d3d-6620-4d8e-801e-d620f116c682","system_id":"levelo_inurba_marseille","lat":43.2305,"lon":5.355,"is_reserved":false,"is_disabled":false,"rental_uris":{"android":"levelo://app?vid=d5355d3d-6620-4d8e-801e-d620f116c682","ios":"levelo://app?vid=d5355d3d-6620-4d8e-801e-d620f116c682"},"vehicle_type_id":"4","last_reported":1735927919,"current_range_meters":23200,"station_id":"cpo3342slgdg3j2ifvpg","pricing_plan_id":"cebpf4jnsgd1na2vs0mg"},{"bike_id":"db1e3ba9-4d1c-4e48-817c-121bda31c5b4","system_id":"levelo_inurba_marseille","lat":43.31223,"lon":5.36841,"is_reserved":false,"is_disabled":false,"rental_uris":{"android":"levelo://app?vid=db1e3ba9-4d1c-4e48-817c-121bda31c5b4","ios":"levelo://app?vid=db1e3ba9-4d1c-4e48-817c-121bda31c5b4"},"vehicle_type_id":"4","last_reported":1735927919,"current_range_meters":12800,"station_id":"ce4bgl92rcd13ifvqbq0","pricing_plan_id":"cebpf4jnsgd1na2vs0mg"},{"bike_id":"91ec34b0-eb63-4dab-a7a3-36e68cc8bae1","system_id":"levelo_inurba_marseille","lat":43.29553,"lon":5.42292,"is_reserved":false,"is_disabled":false,"rental_uris":{"android":"levelo://app?vid=91ec34b0-eb63-4dab-a7a3-36e68cc8bae1","ios":"levelo://app?vid=91ec34b0-eb63-4dab-a7a3-36e68cc8bae1"},"vehicle_type_id":"4","last_reported":1735927919,"current_range_meters":27600,"station_id":"ce4bhph2rcd13ifvqhdg","pricing_plan_id":"cebpf4jnsgd1na2vs0mg"},{"bike_id":"dc5b739c-390b-4405-9fcd-bf2ae0d08545","system_id":"levelo_inurba_marseille","lat":43.30431,"lon":5.38892,"is_reserved":false,"is_disabled":false,"rental_uris":{"android":"levelo://app?vid=dc5b739c-390b-4405-9fcd-bf2ae0d08545","ios":"levelo://app?vid=dc5b739c-390b-4405-9fcd-bf2ae0d08545"},"vehicle_type_id":"4","last_reported":1735927919,"current_range_meters":34800,"station_id":"ce4bgk12rcd13ifvqbi0","pricing_plan_id":"cebpf4jnsgd1na2vs0mg"},{"bike_id":"9106d3ff-fc86-4d68-9c8d-6412f9d842de","system_id":"levelo_inurba_marseille","lat":43.254954,"lon":5.376501,"is_reserved":false,"is_disabled":false,"rental_uris":{"android":"levelo://app?vid=9106d3ff-fc86-4d68-9c8d-6412f9d842de","ios":"levelo://app?vid=9106d3ff-fc86-4d68-9c8d-6412f9d842de"},"vehicle_type_id":"4","last_reported":1735927919,"current_range_meters":12000,"station_id":"ce4bhh12rcd13ifvqff0","pricing_plan_id":"cebpf4jnsgd1na2vs0mg"},{"bike_id":"ccfdf32c-7c8c-45be-ab3d-6b71ffee61af","system_id":"levelo_inurba_marseille","lat":43.2992,"lon":5.38157,"is_reserved":false,"is_disabled":false,"rental_uris":{"android":"levelo://app?vid=ccfdf32c-7c8c-45be-ab3d-6b71ffee61af","ios":"levelo://app?vid=ccfdf32c-7c8c-45be-ab3d-6b71ffee61af"},"vehicle_type_id":"4","last_reported":1735927919,"current_range_meters":24000,"station_id":"ce4bgj12rcd13ifvqbc0","pricing_plan_id":"cebpf4jnsgd1na2vs0mg"},{"bike_id":"8fa73e7c-3148-40ee-a44b-5536f8a0f09c","system_id":"levelo_inurba_marseille","lat":43.30147,"lon":5.38082,"is_reserved":false,"is_disabled":false,"rental_uris":{"android":"levelo://app?vid=8fa73e7c-3148-40ee-a44b-5536f8a0f09c","ios":"levelo://app?vid=8fa73e7c-3148-40ee-a44b-5536f8a0f09c"},"vehicle_type_id":"4","last_reported":1735927919,"current_range_meters":13600,"station_id":"ce4bgjp2rcd13ifvqbh0","pricing_plan_id":"cebpf4jnsgd1na2vs0mg"},{"bike_id":"70c2848a-e325-4867-a87b-ec2e5af222ca","system_id":"levelo_inurba_marseille","lat":43.3108,"lon":5.42435,"is_reserved":false,"is_disabled":false,"rental_uris":{"android":"levelo://app?vid=70c2848a-e325-4867-a87b-ec2e5af222ca","ios":"levelo://app?vid=70c2848a-e325-4867-a87b-ec2e5af222ca"},"vehicle_type_id":"4","last_reported":1735927919,"current_range_meters":19200,"station_id":"ce4bhp92rcd13ifvqhag","pricing_plan_id":"cebpf4jnsgd1na2vs0mg"},{"bike_id":"ebf28115-469f-4825-9b5f-f2d0f86e5619","system_id":"levelo_inurba_marseille","lat":43.30139,"lon":5.39867,"is_reserved":false,"is_disabled":false,"rental_uris":{"android":"levelo://app?vid=ebf28115-469f-4825-9b5f-f2d0f86e5619","ios":"levelo://app?vid=ebf28115-469f-4825-9b5f-f2d0f86e5619"},"vehicle_type_id":"4","last_reported":1735927919,"current_range_meters":39200,"station_id":"ce4bh0h2rcd13ifvqd40","pricing_plan_id":"cebpf4jnsgd1na2vs0mg"},{"bike_id":"48dab017-3f42-472f-871a-513ce2bb3aac","system_id":"levelo_inurba_marseille","lat":43.23164,"lon":5.4369,"is_reserved":false,"is_disabled":false,"rental_uris":{"android":"levelo://app?vid=48dab017-3f42-472f-871a-513ce2bb3aac","ios":"levelo://app?vid=48dab017-3f42-472f-871a-513ce2bb3aac"},"vehicle_type_id":"4","last_reported":1735927919,"current_range_meters":38800,"station_id":"ce4bhmp2rcd13ifvqgog","pricing_plan_id":"cebpf4jnsgd1na2vs0mg"},{"bike_id":"c9ce59a4-381d-43e4-aa53-1adf730f26ad","system_id":"levelo_inurba_marseille","lat":43.31113,"lon":5.37772,"is_reserved":false,"is_disabled":true,"rental_uris":{"android":"levelo://app?vid=c9ce59a4-381d-43e4-aa53-1adf730f26ad","ios":"levelo://app?vid=c9ce59a4-381d-43e4-aa53-1adf730f26ad"},"vehicle_type_id":"4","last_reported":1735927919,"current_range_meters":800,"station_id":"ce4bgt92rcd13ifvqcg0","pricing_plan_id":"cebpf4jnsgd1na2vs0mg"},{"bike_id":"00463021-21a6-4c08-a482-69d080fa9e60","system_id":"levelo_inurba_marseille","lat":43.29188,"lon":5.39322,"is_reserved":false,"is_disabled":false,"rental_uris":{"android":"levelo://app?vid=00463021-21a6-4c08-a482-69d080fa9e60","ios":"levelo://app?vid=00463021-21a6-4c08-a482-69d080fa9e60"},"vehicle_type_id":"4","last_reported":1735927919,"current_range_meters":35200,"station_id":"ce4bh192rcd13ifvqdd0","pricing_plan_id":"cebpf4jnsgd1na2vs0mg"},{"bike_id":"5e60b576-3bfe-4772-abda-0c2dc65e717b","system_id":"levelo_inurba_marseille","lat":43.26954,"lon":5.38626,"is_reserved":false,"is_disabled":false,"rental_uris":{"android":"levelo://app?vid=5e60b576-3bfe-4772-abda-0c2dc65e717b","ios":"levelo://app?vid=5e60b576-3bfe-4772-abda-0c2dc65e717b"},"vehicle_type_id":"4","last_reported":1735927919,"current_range_meters":30000,"station_id":"ce4bhh92rcd13ifvqfh0","pricing_plan_id":"cebpf4jnsgd1na2vs0mg"},{"bike_id":"d014f699-d84d-436b-b3bf-8c059d18ea89","system_id":"levelo_inurba_marseille","lat":43.22927,"lon":5.35384,"is_reserved":false,"is_disabled":false,"rental_uris":{"android":"levelo://app?vid=d014f699-d84d-436b-b3bf-8c059d18ea89","ios":"levelo://app?vid=d014f699-d84d-436b-b3bf-8c059d18ea89"},"vehicle_type_id":"4","last_reported":1735927919,"current_range_meters":25600,"station_id":"cpo3532slgdg3j2ikp40","pricing_plan_id":"cebpf4jnsgd1na2vs0mg"},{"bike_id":"47f4101f-25f5-4bde-a825-148c2b532f65","system_id":"levelo_inurba_marseille","lat":43.31279,"lon":5.40141,"is_reserved":false,"is_disabled":false,"rental_uris":{"android":"levelo://app?vid=47f4101f-25f5-4bde-a825-148c2b532f65","ios":"levelo://app?vid=47f4101f-25f5-4bde-a825-148c2b532f65"},"vehicle_type_id":"4","last_reported":1735927919,"current_range_meters":36400,"station_id":"ce4bh092rcd13ifvqd30","pricing_plan_id":"cebpf4jnsgd1na2vs0mg"},{"bike_id":"fd286d47-106b-429f-9301-2ac57b0c25ac","system_id":"levelo_inurba_marseille","lat":43.26944,"lon":5.40245,"is_reserved":false,"is_disabled":false,"rental_uris":{"android":"levelo://app?vid=fd286d47-106b-429f-9301-2ac57b0c25ac","ios":"levelo://app?vid=fd286d47-106b-429f-9301-2ac57b0c25ac"},"vehicle_type_id":"4","last_reported":1735927919,"current_range_meters":6800,"station_id":"cjm6bp8fraef2m0cb0m0","pricing_plan_id":"cebpf4jnsgd1na2vs0mg"},{"bike_id":"c14d1989-a72f-4241-a582-39661d0bcfcf","system_id":"levelo_inurba_marseille","lat":43.23205,"lon":5.35551,"is_reserved":false,"is_disabled":false,"rental_uris":{"android":"levelo://app?vid=c14d1989-a72f-4241-a582-39661d0bcfcf","ios":"levelo://app?vid=c14d1989-a72f-4241-a582-39661d0bcfcf"},"vehicle_type_id":"4","last_reported":1735927919,"current_range_meters":38800,"station_id":"ce4bhu92rcd13ifvqi70","pricing_plan_id":"cebpf4jnsgd1na2vs0mg"},{"bike_id":"ef72cdb4-465d-4178-b952-49906f159c48","system_id":"levelo_inurba_marseille","lat":43.28139,"lon":5.42623,"is_reserved":false,"is_disabled":false,"rental_uris":{"android":"levelo://app?vid=ef72cdb4-465d-4178-b952-49906f159c48","ios":"levelo://app?vid=ef72cdb4-465d-4178-b952-49906f159c48"},"vehicle_type_id":"4","last_reported":1735927919,"current_range_meters":21600,"station_id":"ce4bhnh2rcd13ifvqgug","pricing_plan_id":"cebpf4jnsgd1na2vs0mg"},{"bike_id":"2ba961bf-884b-439d-848e-74caf16fb696","system_id":"levelo_inurba_marseille","lat":43.27447,"lon":5.394,"is_reserved":false,"is_disabled":false,"rental_uris":{"android":"levelo://app?vid=2ba961bf-884b-439d-848e-74caf16fb696","ios":"levelo://app?vid=2ba961bf-884b-439d-848e-74caf16fb696"},"vehicle_type_id":"4","last_reported":1735927919,"current_range_meters":39200,"station_id":"ce4bhdp2rcd13ifvqf20","pricing_plan_id":"cebpf4jnsgd1na2vs0mg"},{"bike_id":"4bc33b47-a63c-4f25-a0fe-24c64b43deee","system_id":"levelo_inurba_marseille","lat":43.30907,"lon":5.36849,"is_reserved":false,"is_disabled":false,"rental_uris":{"android":"levelo://app?vid=4bc33b47-a63c-4f25-a0fe-24c64b43deee","ios":"levelo://app?vid=4bc33b47-a63c-4f25-a0fe-24c64b43deee"},"vehicle_type_id":"4","last_reported":1735927919,"current_range_meters":38800,"station_id":"ce4bgn92rcd13ifvqbvg","pricing_plan_id":"cebpf4jnsgd1na2vs0mg"},{"bike_id":"7bbed7be-28f4-4cc7-81bb-977c0d79552f","system_id":"levelo_inurba_marseille","lat":43.23068,"lon":5.35493,"is_reserved":false,"is_disabled":false,"rental_uris":{"android":"levelo://app?vid=7bbed7be-28f4-4cc7-81bb-977c0d79552f","ios":"levelo://app?vid=7bbed7be-28f4-4cc7-81bb-977c0d79552f"},"vehicle_type_id":"4","last_reported":1735927919,"current_range_meters":22800,"station_id":"cpo3342slgdg3j2ifvpg","pricing_plan_id":"cebpf4jnsgd1na2vs0mg"},{"bike_id":"44377e14-c431-47f9-879d-d27236127509","system_id":"levelo_inurba_marseille","lat":43.2582,"lon":5.3943,"is_reserved":false,"is_disabled":false,"rental_uris":{"android":"levelo://app?vid=44377e14-c431-47f9-879d-d27236127509","ios":"levelo://app?vid=44377e14-c431-47f9-879d-d27236127509"},"vehicle_type_id":"4","last_reported":1735927919,"current_range_meters":38800,"station_id":"ce4bhip2rcd13ifvqft0","pricing_plan_id":"cebpf4jnsgd1na2vs0mg"},{"bike_id":"e2a83122-a02b-487f-b817-a71fb2e3ed4b","system_id":"levelo_inurba_marseille","lat":43.299651,"lon":5.384881,"is_reserved":false,"is_disabled":false,"rental_uris":{"android":"levelo://app?vid=e2a83122-a02b-487f-b817-a71fb2e3ed4b","ios":"levelo://app?vid=e2a83122-a02b-487f-b817-a71fb2e3ed4b"},"vehicle_type_id":"4","last_reported":1735927919,"current_range_meters":30000,"station_id":"ce4bgih2rcd13ifvqba0","pricing_plan_id":"cebpf4jnsgd1na2vs0mg"},{"bike_id":"5d64fa7b-6729-4e4c-8396-79fc7626a3f6","system_id":"levelo_inurba_marseille","lat":43.29278,"lon":5.3684,"is_reserved":false,"is_disabled":false,"rental_uris":{"android":"levelo://app?vid=5d64fa7b-6729-4e4c-8396-79fc7626a3f6","ios":"levelo://app?vid=5d64fa7b-6729-4e4c-8396-79fc7626a3f6"},"vehicle_type_id":"4","last_reported":1735927919,"current_range_meters":38800,"station_id":"ce4bhbp2rcd13ifvqesg","pricing_plan_id":"cebpf4jnsgd1na2vs0mg"},{"bike_id":"2bb35dbb-6b8f-4c69-9e3e-b28d7c30ca54","system_id":"levelo_inurba_marseille","lat":43.24392,"lon":5.3706,"is_reserved":false,"is_disabled":false,"rental_uris":{"android":"levelo://app?vid=2bb35dbb-6b8f-4c69-9e3e-b28d7c30ca54","ios":"levelo://app?vid=2bb35dbb-6b8f-4c69-9e3e-b28d7c30ca54"},"vehicle_type_id":"4","last_reported":1735927919,"current_range_meters":28800,"station_id":"ce4bhhh2rcd13ifvqfk0","pricing_plan_id":"cebpf4jnsgd1na2vs0mg"},{"bike_id":"5c0e6aff-a052-4a02-848f-c8e083c5996f","system_id":"levelo_inurba_marseille","lat":43.25525,"lon":5.37621,"is_reserved":false,"is_disabled":false,"rental_uris":{"android":"levelo://app?vid=5c0e6aff-a052-4a02-848f-c8e083c5996f","ios":"levelo://app?vid=5c0e6aff-a052-4a02-848f-c8e083c5996f"},"vehicle_type_id":"4","last_reported":1735927919,"current_range_meters":19600,"station_id":"ce4bhh12rcd13ifvqff0","pricing_plan_id":"cebpf4jnsgd1na2vs0mg"},{"bike_id":"78b7a00c-0ad2-40f4-9953-a74f3c8198bb","system_id":"levelo_inurba_marseille","lat":43.30128,"lon":5.37404,"is_reserved":false,"is_disabled":false,"rental_uris":{"android":"levelo://app?vid=78b7a00c-0ad2-40f4-9953-a74f3c8198bb","ios":"levelo://app?vid=78b7a00c-0ad2-40f4-9953-a74f3c8198bb"},"vehicle_type_id":"4","last_reported":1735927919,"current_range_meters":36800,"station_id":"ce4bgs92rcd13ifvqcc0","pricing_plan_id":"cebpf4jnsgd1na2vs0mg"},{"bike_id":"722eb4ef-6e43-42a4-a1dc-652162820961","system_id":"levelo_inurba_marseille","lat":43.29002,"lon":5.35607,"is_reserved":false,"is_disabled":false,"rental_uris":{"android":"levelo://app?vid=722eb4ef-6e43-42a4-a1dc-652162820961","ios":"levelo://app?vid=722eb4ef-6e43-42a4-a1dc-652162820961"},"vehicle_type_id":"4","last_reported":1735927919,"current_range_meters":39200,"station_id":"ce4bhb92rcd13ifvqen0","pricing_plan_id":"cebpf4jnsgd1na2vs0mg"},{"bike_id":"f1d87bf5-3985-43c2-9fde-b818f1e41c2b","system_id":"levelo_inurba_marseille","lat":43.26027,"lon":5.37554,"is_reserved":false,"is_disabled":false,"rental_uris":{"android":"levelo://app?vid=f1d87bf5-3985-43c2-9fde-b818f1e41c2b","ios":"levelo://app?vid=f1d87bf5-3985-43c2-9fde-b818f1e41c2b"},"vehicle_type_id":"4","last_reported":1735927919,"current_range_meters":39200,"station_id":"ce4bhgh2rcd13ifvqfa0","pricing_plan_id":"cebpf4jnsgd1na2vs0mg"},{"bike_id":"7478320a-45b5-4e2a-ba81-9cf13bdfeaf6","system_id":"levelo_inurba_marseille","lat":43.24812,"lon":5.37453,"is_reserved":false,"is_disabled":false,"rental_uris":{"android":"levelo://app?vid=7478320a-45b5-4e2a-ba81-9cf13bdfeaf6","ios":"levelo://app?vid=7478320a-45b5-4e2a-ba81-9cf13bdfeaf6"},"vehicle_type_id":"4","last_reported":1735927919,"current_range_meters":36400,"station_id":"ce4bhgh2rcd13ifvqfb0","pricing_plan_id":"cebpf4jnsgd1na2vs0mg"},{"bike_id":"e7bb10c5-9260-440d-8fc3-4952251aaf8e","system_id":"levelo_inurba_marseille","lat":43.30602,"lon":5.37215,"is_reserved":false,"is_disabled":false,"rental_uris":{"android":"levelo://app?vid=e7bb10c5-9260-440d-8fc3-4952251aaf8e","ios":"levelo://app?vid=e7bb10c5-9260-440d-8fc3-4952251aaf8e"},"vehicle_type_id":"4","last_reported":1735927919,"current_range_meters":36400,"station_id":"ce4bgqh2rcd13ifvqc4g","pricing_plan_id":"cebpf4jnsgd1na2vs0mg"},{"bike_id":"9ddbd3b9-04b5-41eb-b494-5e865faf1cdf","system_id":"levelo_inurba_marseille","lat":43.27322,"lon":5.39069,"is_reserved":false,"is_disabled":true,"rental_uris":{"android":"levelo://app?vid=9ddbd3b9-04b5-41eb-b494-5e865faf1cdf","ios":"levelo://app?vid=9ddbd3b9-04b5-41eb-b494-5e865faf1cdf"},"vehicle_type_id":"4","last_reported":1735927919,"current_range_meters":1200,"station_id":"ce4bhgp2rcd13ifvqfe0","pricing_plan_id":"cebpf4jnsgd1na2vs0mg"},{"bike_id":"a9b22bbb-73a2-40bd-b07d-dec778df2f53","system_id":"levelo_inurba_marseille","lat":43.27181,"lon":5.40999,"is_reserved":false,"is_disabled":false,"rental_uris":{"android":"levelo://app?vid=a9b22bbb-73a2-40bd-b07d-dec778df2f53","ios":"levelo://app?vid=a9b22bbb-73a2-40bd-b07d-dec778df2f53"},"vehicle_type_id":"4","last_reported":1735927919,"current_range_meters":28000,"station_id":"ce4bhl12rcd13ifvqgf0","pricing_plan_id":"cebpf4jnsgd1na2vs0mg"},{"bike_id":"ebc98ae2-fc2c-4b05-9eeb-5a0faac4522b","system_id":"levelo_inurba_marseille","lat":43.286998,"lon":5.373724,"is_reserved":false,"is_disabled":false,"rental_uris":{"android":"levelo://app?vid=ebc98ae2-fc2c-4b05-9eeb-5a0faac4522b","ios":"levelo://app?vid=ebc98ae2-fc2c-4b05-9eeb-5a0faac4522b"},"vehicle_type_id":"4","last_reported":1735927919,"current_range_meters":32000,"station_id":"ce4bh3p2rcd13ifvqdq0","pricing_plan_id":"cebpf4jnsgd1na2vs0mg"},{"bike_id":"4d2fbfd6-ef0a-4a15-a137-c5a2ebcce7dd","system_id":"levelo_inurba_marseille","lat":43.29512,"lon":5.39415,"is_reserved":false,"is_disabled":false,"rental_uris":{"android":"levelo://app?vid=4d2fbfd6-ef0a-4a15-a137-c5a2ebcce7dd","ios":"levelo://app?vid=4d2fbfd6-ef0a-4a15-a137-c5a2ebcce7dd"},"vehicle_type_id":"4","last_reported":1735927919,"current_range_meters":30000,"station_id":"ce4bh292rcd13ifvqdf0","pricing_plan_id":"cebpf4jnsgd1na2vs0mg"},{"bike_id":"33b13864-bf52-4c53-a86a-963e904afcc3","system_id":"levelo_inurba_marseille","lat":43.30535,"lon":5.38419,"is_reserved":false,"is_disabled":false,"rental_uris":{"android":"levelo://app?vid=33b13864-bf52-4c53-a86a-963e904afcc3","ios":"levelo://app?vid=33b13864-bf52-4c53-a86a-963e904afcc3"},"vehicle_type_id":"4","last_reported":1735927919,"current_range_meters":27600,"station_id":"ce4bgg92rcd13ifvqb30","pricing_plan_id":"cebpf4jnsgd1na2vs0mg"},{"bike_id":"a3568aab-1d34-4bdf-8c0c-ec81886f6177","system_id":"levelo_inurba_marseille","lat":43.33752,"lon":5.37413,"is_reserved":false,"is_disabled":true,"rental_uris":{"android":"levelo://app?vid=a3568aab-1d34-4bdf-8c0c-ec81886f6177","ios":"levelo://app?vid=a3568aab-1d34-4bdf-8c0c-ec81886f6177"},"vehicle_type_id":"4","last_reported":1735927919,"current_range_meters":18000,"station_id":"","pricing_plan_id":"cebpf4jnsgd1na2vs0mg"},