{"last_updated":1730747341,"ttl":60,"version":"2.2","data":{"bikes":[{"bike_id":"b1bfd193-0f72-4518-aa08-e75813a1f15b","system_id":"levelo_inurba_marseille","lat":43.26809,"lon":5.4027,"is_reserved":false,"is_disabled":false,"rental_uris":{"android":"levelo://app?vid=b1bfd193-0f72-4518-aa08-e75813a1f15b","ios":"levelo://app?vid=b1bfd193-0f72-4518-aa08-e75813a1f15b"},"vehicle_type_id":"4","last_reported":1730747341,"current_range_meters":38400,"station_id":"ce501612rcd8frsf0b60","pricing_plan_id":"cebpf4jnsgd1na2vs0mg"},{"bike_id":"b7837f34-17a9-43ad-b99a-4bf61e4fa6db","system_id":"levelo_inurba_marseille","lat":43.30246,"lon":5.40063,"is_reserved":false,"is_disabled":false,"rental_uris":{"android":"levelo://app?vid=b7837f34-17a9-43ad-b99a-4bf61e4fa6db","ios":"levelo://app?vid=b7837f34-17a9-43ad-b99a-4bf61e4fa6db"},"vehicle_type_id":"4","last_reported":1730747341,"current_range_meters":37600,"station_id":"ce4bgvh2rcd13ifvqcs0","pricing_plan_id":"cebpf4jnsgd1na2vs0mg"},{"bike_id":"bcac3ad2-33ea-454e-b32a-bb7e115d1f16","system_id":"levelo_inurba_marseille","lat":43.28086,"lon":5.39667,"is_reserved":false,"is_disabled":false,"rental_uris":{"android":"levelo://app?vid=bcac3ad2-33ea-454e-b32a-bb7e115d1f16","ios":"levelo://app?vid=bcac3ad2-33ea-454e-b32a-bb7e115d1f16"},"vehicle_type_id":"4","last_reported":1730747341,"current_range_meters":36800,"station_id":"ce4bho12rcd13ifvqh2g","pricing_plan_id":"cebpf4jnsgd1na2vs0mg"},{"bike_id":"2b6c8443-1848-4bd1-a5f7-cb79fbd151e5","system_id":"levelo_inurba_marseille","lat":43.28469,"lon":5.35888,"is_reserved":false,"is_disabled":false,"rental_uris":{"android":"levelo://app?vid=2b6c8443-1848-4bd1-a5f7-cb79fbd151e5","ios":"levelo://app?vid=2b6c8443-1848-4bd1-a5f7-cb79fbd151e5"},"vehicle_type_id":"4","last_reported":1730747341,"current_range_meters":34800,"station_id":"ce4bhah2rcd13ifvqei0","pricing_plan_id":"cebpf4jnsgd1na2vs0mg"},{"bike_id":"6159aa08-6f4b-4db1-99d0-0b9fd205cafe","system_id":"levelo_inurba_marseille","lat":43.29253,"lon":5.38449,"is_reserved":false,"is_disabled":false,"rental_uris":{"android":"levelo://app?vid=6159aa08-6f4b-4db1-99d0-0b9fd205cafe","ios":"levelo://app?vid=6159aa08-6f4b-4db1-99d0-0b9fd205cafe"},"vehicle_type_id":"4","last_reported":1730747341,"current_range_meters":27200,"station_id":"ce4bh692rcd13ifvqea0","pricing_plan_id":"cebpf4jnsgd1na2vs0mg"},{"bike_id":"0813b8d9-95b0-4ee8-8c30-0a2f8f5acae7","system_id":"levelo_inurba_marseille","lat":43.28659,"lon":5.36348,"is_reserved":false,"is_disabled":false,"rental_uris":{"android":"levelo://app?vid=0813b8d9-95b0-4ee8-8c30-0a2f8f5acae7","ios":"levelo://app?vid=0813b8d9-95b0-4ee8-8c30-0a2f8f5acae7"},"vehicle_type_id":"4","last_reported":1730747341,"current_range_meters":28400,"station_id":"ce4bhah2rcd13ifvqej0","pricing_plan_id":"cebpf4jnsgd1na2vs0mg"},{"bike_id":"3937c601-51e7-437e-8024-1b5701ea9a5b","system_id":"levelo_inurba_marseille","lat":43.29212,"lon":5.39316,"is_reserved":false,"is_disabled":false,"rental_uris":{"android":"levelo://app?vid=3937c601-51e7-437e-8024-1b5701ea9a5b","ios":"levelo://app?vid=3937c601-51e7-437e-8024-1b5701ea9a5b"},"vehicle_type_id":"4","last_reported":1730747341,"current_range_meters":38800,"station_id":"ce4bh192rcd13ifvqdd0","pricing_plan_id":"cebpf4jnsgd1na2vs0mg"},{"bike_id":"e69268df-bf99-404c-a39a-ee9f2a3ecdf5","system_id":"levelo_inurba_marseille","lat":43.3064,"lon":5.4008,"is_reserved":false,"is_disabled":false,"rental_uris":{"android":"levelo://app?vid=e69268df-bf99-404c-a39a-ee9f2a3ecdf5","ios":"levelo://app?vid=e69268df-bf99-404c-a39a-ee9f2a3ecdf5"},"vehicle_type_id":"4","last_reported":1730747341,"current_range_meters":8000,"station_id":"ce4bh112rcd13ifvqda0","pricing_plan_id":"cebpf4jnsgd1na2vs0mg"},{"bike_id":"198df7c5-19ab-45c4-b2b3-75af8c05766e","system_id":"levelo_inurba_marseille","lat":43.2816,"lon":5.42637,"is_reserved":false,"is_disabled":false,"rental_uris":{"android":"levelo://app?vid=198df7c5-19ab-45c4-b2b3-75af8c05766e","ios":"levelo://app?vid=198df7c5-19ab-45c4-b2b3-75af8c05766e"},"vehicle_type_id":"4","last_reported":1730747341,"current_range_meters":37600,"station_id":"ce4bhnh2rcd13ifvqgug","pricing_plan_id":"cebpf4jnsgd1na2vs0mg"},{"bike_id":"a364211d-1ee3-48e3-b217-c92d41ffe9cb","system_id":"levelo_inurba_marseille","lat":43.29267,"lon":5.38446,"is_reserved":false,"is_disabled":false,"rental_uris":{"android":"levelo://app?vid=a364211d-1ee3-48e3-b217-c92d41ffe9cb","ios":"levelo://app?vid=a364211d-1ee3-48e3-b217-c92d41ffe9cb"},"vehicle_type_id":"4","last_reported":1730747341,"current_range_meters":18800,"station_id":"ce4bh692rcd13ifvqea0","pricing_plan_id":"cebpf4jnsgd1na2vs0mg"},{"bike_id":"7d640c47-a4ae-4641-8ed6-4165bb1caeb6","system_id":"levelo_inurba_marseille","lat":43.26491,"lon":5.3955,"is_reserved":false,"is_disabled":false,"rental_uris":{"android":"levelo://app?vid=7d640c47-a4ae-4641-8ed6-4165bb1caeb6","ios":"levelo://app?vid=7d640c47-a4ae-4641-8ed6-4165bb1caeb6"},"vehicle_type_id":"4","last_reported":1730747341,"current_range_meters":38400,"station_id":"ce4bhi12rcd13ifvqfq0","pricing_plan_id":"cebpf4jnsgd1na2vs0mg"},{"bike_id":"c910a178-a105-4fc2-b46f-29b6672536e3","system_id":"levelo_inurba_marseille","lat":43.30954,"lon":5.39028,"is_reserved":false,"is_disabled":false,"rental_uris":{"android":"levelo://app?vid=c910a178-a105-4fc2-b46f-29b6672536e3","ios":"levelo://app?vid=c910a178-a105-4fc2-b46f-29b6672536e3"},"vehicle_type_id":"4","last_reported":1730747341,"current_range_meters":15200,"station_id":"ce4bgup2rcd13ifvqco0","pricing_plan_id":"cebpf4jnsgd1na2vs0mg"},{"bike_id":"bef6e360-e6a9-4673-8e18-0a89fd02a098","system_id":"levelo_inurba_marseille","lat":43.30097,"lon":5.39086,"is_reserved":false,"is_disabled":false,"rental_uris":{"android":"levelo://app?vid=bef6e360-e6a9-4673-8e18-0a89fd02a098","ios":"levelo://app?vid=bef6e360-e6a9-4673-8e18-0a89fd02a098"},"vehicle_type_id":"4","last_reported":1730747341,"current_range_meters":18000,"station_id":"ce4bh192rcd13ifvqdb0","pricing_plan_id":"cebpf4jnsgd1na2vs0mg"},{"bike_id":"76c85a2b-777c-4e0e-b010-9b9d68b23e0f","system_id":"levelo_inurba_marseille","lat":43.2953,"lon":5.38545,"is_reserved":false,"is_disabled":false,"rental_uris":{"android":"levelo://app?vid=76c85a2b-777c-4e0e-b010-9b9d68b23e0f","ios":"levelo://app?vid=76c85a2b-777c-4e0e-b010-9b9d68b23e0f"},"vehicle_type_id":"4","last_reported":1730747341,"current_range_meters":8000,"station_id":"ce4bgih2rcd13ifvqba0","pricing_plan_id":"cebpf4jnsgd1na2vs0mg"},{"bike_id":"d7680b91-790b-4028-b988-1d6c2608791c","system_id":"levelo_inurba_marseille","lat":43.32363,"lon":5.38885,"is_reserved":false,"is_disabled":false,"rental_uris":{"android":"levelo://app?vid=d7680b91-790b-4028-b988-1d6c2608791c","ios":"levelo://app?vid=d7680b91-790b-4028-b988-1d6c2608791c"},"vehicle_type_id":"4","last_reported":1730747341,"current_range_meters":24000,"station_id":"ce4bhqp2rcd13ifvqhog","pricing_plan_id":"cebpf4jnsgd1na2vs0mg"},{"bike_id":"3f56cf13-b929-47d3-92a4-cb06ce3393e7","system_id":"levelo_inurba_marseille","lat":43.31059,"lon":5.38352,"is_reserved":false,"is_disabled":false,"rental_uris":{"android":"levelo://app?vid=3f56cf13-b929-47d3-92a4-cb06ce3393e7","ios":"levelo://app?vid=3f56cf13-b929-47d3-92a4-cb06ce3393e7"},"vehicle_type_id":"4","last_reported":1730747341,"current_range_meters":30000,"station_id":"ce4bgv92rcd13ifvqcr0","pricing_plan_id":"cebpf4jnsgd1na2vs0mg"},{"bike_id":"3172469f-5af3-4070-845b-ee9be353fde8","system_id":"levelo_inurba_marseille","lat":43.28464,"lon":5.3588,"is_reserved":false,"is_disabled":false,"rental_uris":{"android":"levelo://app?vid=3172469f-5af3-4070-845b-ee9be353fde8","ios":"levelo://app?vid=3172469f-5af3-4070-845b-ee9be353fde8"},"vehicle_type_id":"4","last_reported":1730747341,"current_range_meters":24800,"station_id":"ce4bhah2rcd13ifvqei0","pricing_plan_id":"cebpf4jnsgd1na2vs0mg"},{"bike_id":"4147bbfb-4b14-4aca-b782-8ec6c0473609","system_id":"levelo_inurba_marseille","lat":43.23602,"lon":5.40337,"is_reserved":false,"is_disabled":false,"rental_uris":{"android":"levelo://app?vid=4147bbfb-4b14-4aca-b782-8ec6c0473609","ios":"levelo://app?vid=4147bbfb-4b14-4aca-b782-8ec6c0473609"},"vehicle_type_id":"4","last_reported":1730747341,"current_range_meters":12400,"station_id":"","pricing_plan_id":"cebpf4jnsgd1na2vs0mg"},{"bike_id":"8113a11d-faa1-4a73-a7b9-57f2c7a19838","system_id":"levelo_inurba_marseille","lat":43.3234,"lon":5.40622,"is_reserved":false,"is_disabled":false,"rental_uris":{"android":"levelo://app?vid=8113a11d-faa1-4a73-a7b9-57f2c7a19838","ios":"levelo://app?vid=8113a11d-faa1-4a73-a7b9-57f2c7a19838"},"vehicle_type_id":"4","last_reported":1730747341,"current_range_meters":18000,"station_id":"ce4bhq92rcd13ifvqhjg","pricing_plan_id":"cebpf4jnsgd1na2vs0mg"},{"bike_id":"fa66adb8-19da-4b56-aeb9-ccf1206b3e1e","system_id":"levelo_inurba_marseille","lat":43.32368,"lon":5.36769,"is_reserved":false,"is_disabled":false,"rental_uris":{"android":"levelo://app?vid=fa66adb8-19da-4b56-aeb9-ccf1206b3e1e","ios":"levelo://app?vid=fa66adb8-19da-4b56-aeb9-ccf1206b3e1e"},"vehicle_type_id":"4","last_reported":1730747341,"current_range_meters":37600,"station_id":"ce4bhsh2rcd13ifvqi2g","pricing_plan_id":"cebpf4jnsgd1na2vs0mg"},{"bike_id":"146b94cf-b81c-43a8-a126-d1471621d458","system_id":"levelo_inurba_marseille","lat":43.279944,"lon":5.400003,"is_reserved":false,"is_disabled":false,"rental_uris":{"android":"levelo://app?vid=146b94cf-b81c-43a8-a126-d1471621d458","ios":"levelo://app?vid=146b94cf-b81c-43a8-a126-d1471621d458"},"vehicle_type_id":"4","last_reported":1730747341,"current_range_meters":30000,"station_id":"ce4bho92rcd13ifvqh4g","pricing_plan_id":"cebpf4jnsgd1na2vs0mg"},{"bike_id":"9dd4c1b5-f2ec-496b-8f02-a2c3d2c60a9c","system_id":"levelo_inurba_marseille","lat":43.24791,"lon":5.41843,"is_reserved":false,"is_disabled":false,"rental_uris":{"android":"levelo://app?vid=9dd4c1b5-f2ec-496b-8f02-a2c3d2c60a9c","ios":"levelo://app?vid=9dd4c1b5-f2ec-496b-8f02-a2c3d2c60a9c"},"vehicle_type_id":"4","last_reported":1730747341,"current_range_meters":32400,"station_id":"ce4bhkp2rcd13ifvqgd0","pricing_plan_id":"cebpf4jnsgd1na2vs0mg"},{"bike_id":"a6e8d293-0bf1-434d-992b-e1996f9a5a42","system_id":"levelo_inurba_marseille","lat":43.25583,"lon":5.38232,"is_reserved":false,"is_disabled":false,"rental_uris":{"android":"levelo://app?vid=a6e8d293-0bf1-434d-992b-e1996f9a5a42","ios":"levelo://app?vid=a6e8d293-0bf1-434d-992b-e1996f9a5a42"},"vehicle_type_id":"4","last_reported":1730747341,"current_range_meters":21600,"station_id":"ce4bhih2rcd13ifvqfs0","pricing_plan_id":"cebpf4jnsgd1na2vs0mg"},{"bike_id":"47662166-db17-4d16-a97b-519c42566d41","system_id":"levelo_inurba_marseille","lat":43.27812,"lon":5.40717,"is_reserved":false,"is_disabled":false,"rental_uris":{"android":"levelo://app?vid=47662166-db17-4d16-a97b-519c42566d41","ios":"levelo://app?vid=47662166-db17-4d16-a97b-519c42566d41"},"vehicle_type_id":"4","last_reported":1730747341,"current_range_meters":7200,"station_id":"ce4bhnh2rcd13ifvqgtg","pricing_plan_id":"cebpf4jnsgd1na2vs0mg"},{"bike_id":"77e6040e-077a-4822-bbe7-c09819ecc6e9","system_id":"levelo_inurba_marseille","lat":43.2955,"lon":5.42283,"is_reserved":false,"is_disabled":false,"rental_uris":{"android":"levelo://app?vid=77e6040e-077a-4822-bbe7-c09819ecc6e9","ios":"levelo://app?vid=77e6040e-077a-4822-bbe7-c09819ecc6e9"},"vehicle_type_id":"4","last_reported":1730747341,"current_range_meters":32800,"station_id":"ce4bhph2rcd13ifvqhdg","pricing_plan_id":"cebpf4jnsgd1na2vs0mg"},{"bike_id":"525c40cf-ce5d-40cc-a112-46953ad38731","system_id":"levelo_inurba_marseille","lat":43.3117,"lon":5.38718,"is_reserved":false,"is_disabled":false,"rental_uris":{"android":"levelo://app?vid=525c40cf-ce5d-40cc-a112-46953ad38731","ios":"levelo://app?vid=525c40cf-ce5d-40cc-a112-46953ad38731"},"vehicle_type_id":"4","last_reported":1730747341,"current_range_meters":37600,"station_id":"ce4bgv12rcd13ifvqcp0","pricing_plan_id":"cebpf4jnsgd1na2vs0mg"},{"bike_id":"ef762b0a-886e-4da9-adfe-1739a57163ed","system_id":"levelo_inurba_marseille","lat":43.32338,"lon":5.40628,"is_reserved":false,"is_disabled":false,"rental_uris":{"android":"levelo://app?vid=ef762b0a-886e-4da9-adfe-1739a57163ed","ios":"levelo://app?vid=ef762b0a-886e-4da9-adfe-1739a57163ed"},"vehicle_type_id":"4","last_reported":1730747341,"current_range_meters":12800,"station_id":"ce4bhq92rcd13ifvqhjg","pricing_plan_id":"cebpf4jnsgd1na2vs0mg"},{"bike_id":"74f992aa-92c9-4ee9-9ce4-3682f42c10a0","system_id":"levelo_inurba_marseille","lat":43.30092,"lon":5.39085,"is_reserved":false,"is_disabled":false,"rental_uris":{"android":"levelo://app?vid=74f992aa-92c9-4ee9-9ce4-3682f42c10a0","ios":"levelo://app?vid=74f992aa-92c9-4ee9-9ce4-3682f42c10a0"},"vehicle_type_id":"4","last_reported":1730747341,"current_range_meters":39200,"station_id":"ce4bh192rcd13ifvqdb0","pricing_plan_id":"cebpf4jnsgd1na2vs0mg"},{"bike_id":"85744d25-67fd-4b20-85eb-e50d65efb98c","system_id":"levelo_inurba_marseille","lat":43.29594,"lon":5.38103,"is_reserved":false,"is_disabled":false,"rental_uris":{"android":"levelo://app?vid=85744d25-67fd-4b20-85eb-e50d65efb98c","ios":"levelo://app?vid=85744d25-67fd-4b20-85eb-e50d65efb98c"},"vehicle_type_id":"4","last_reported":1730747341,"current_range_meters":8400,"station_id":"ce4bgl12rcd13ifvqbo0","pricing_plan_id":"cebpf4jnsgd1na2vs0mg"},{"bike_id":"97e21a68-0df6-4a00-ae86-755009ed42b0","system_id":"levelo_inurba_marseille","lat":43.31367,"lon":5.38495,"is_reserved":false,"is_disabled":false,"rental_uris":{"android":"levelo://app?vid=97e21a68-0df6-4a00-ae86-755009ed42b0","ios":"levelo://app?vid=97e21a68-0df6-4a00-ae86-755009ed42b0"},"vehicle_type_id":"4","last_reported":1730747341,"current_range_meters":34000,"station_id":"ce4bgt92rcd13ifvqcf0","pricing_plan_id":"cebpf4jnsgd1na2vs0mg"},{"bike_id":"2378f453-72a7-4eb2-ab3b-946285d406fd","system_id":"levelo_inurba_marseille","lat":43.29221,"lon":5.37722,"is_reserved":false,"is_disabled":false,"rental_uris":{"android":"levelo://app?vid=2378f453-72a7-4eb2-ab3b-946285d406fd","ios":"levelo://app?vid=2378f453-72a7-4eb2-ab3b-946285d406fd"},"vehicle_type_id":"4","last_reported":1730747341,"current_range_meters":7200,"station_id":"","pricing_plan_id":"cebpf4jnsgd1na2vs0mg"},{"bike_id":"d9fa7bd9-2d2a-4396-b82b-5183421327cd","system_id":"levelo_inurba_marseille","lat":43.29515,"lon":5.39405,"is_reserved":false,"is_disabled":false,"rental_uris":{"android":"levelo://app?vid=d9fa7bd9-2d2a-4396-b82b-5183421327cd","ios":"levelo://app?vid=d9fa7bd9-2d2a-4396-b82b-5183421327cd"},"vehicle_type_id":"4","last_reported":1730747341,"current_range_meters":22400,"station_id":"ce4bh292rcd13ifvqdf0","pricing_plan_id":"cebpf4jnsgd1na2vs0mg"},{"bike_id":"e87520ab-7d44-4391-8bba-3a764130f29d","system_id":"levelo_inurba_marseille","lat":43.28465,"lon":5.35883,"is_reserved":false,"is_disabled":false,"rental_uris":{"android":"levelo://app?vid=e87520ab-7d44-4391-8bba-3a764130f29d","ios":"levelo://app?vid=e87520ab-7d44-4391-8bba-3a764130f29d"},"vehicle_type_id":"4","last_reported":1730747341,"current_range_meters":7200,"station_id":"ce4bhah2rcd13ifvqei0","pricing_plan_id":"cebpf4jnsgd1na2vs0mg"},{"bike_id":"b2cf1c19-e486-429a-a791-b7e20740fbc0","system_id":"levelo_inurba_marseille","lat":43.29072,"lon":5.37167,"is_reserved":false,"is_disabled":false,"rental_uris":{"android":"levelo://app?vid=b2cf1c19-e486-429a-a791-b7e20740fbc0","ios":"levelo://app?vid=b2cf1c19-e486-429a-a791-b7e20740fbc0"},"vehicle_type_id":"4","last_reported":1730747341,"current_range_meters":39200,"station_id":"ce4bh5p2rcd13ifvqe4g","pricing_plan_id":"cebpf4jnsgd1na2vs0mg"},{"bike_id":"87e2ca9d-a76f-4935-bb9d-102d5d7cfefb","system_id":"levelo_inurba_marseille","lat":43.29415,"lon":5.38624,"is_reserved":false,"is_disabled":false,"rental_uris":{"android":"levelo://app?vid=87e2ca9d-a76f-4935-bb9d-102d5d7cfefb","ios":"levelo://app?vid=87e2ca9d-a76f-4935-bb9d-102d5d7cfefb"},"vehicle_type_id":"4","last_reported":1730747341,"current_range_meters":8400,"station_id":"ce4bh2h2rcd13ifvqdh0","pricing_plan_id":"cebpf4jnsgd1na2vs0mg"},{"bike_id":"5b3d7647-9afd-4801-bfd7-362b22f62f5b","system_id":"levelo_inurba_marseille","lat":43.29936,"lon":5.3654,"is_reserved":false,"is_disabled":false,"rental_uris":{"android":"levelo://app?vid=5b3d7647-9afd-4801-bfd7-362b22f62f5b","ios":"levelo://app?vid=5b3d7647-9afd-4801-bfd7-362b22f62f5b"},"vehicle_type_id":"4","last_reported":1730747341,"current_range_meters":8400,"station_id":"ce4bgm92rcd13ifvqbr0","pricing_plan_id":"cebpf4jnsgd1na2vs0mg"},{"bike_id":"07800ca4-36cf-4b4f-a3f7-5c9140c47345","system_id":"levelo_inurba_marseille","lat":43.23974,"lon":5.36624,"is_reserved":false,"is_disabled":false,"rental_uris":{"android":"levelo://app?vid=07800ca4-36cf-4b4f-a3f7-5c9140c47345","ios":"levelo://app?vid=07800ca4-36cf-4b4f-a3f7-5c9140c47345"},"vehicle_type_id":"4","last_reported":1730747341,"current_range_meters":6800,"station_id":"ce4bhi12rcd13ifvqfp0","pricing_plan_id":"cebpf4jnsgd1na2vs0mg"},{"bike_id":"fc2c3f9b-061b-4b88-8d47-8a6d27bb94ba","system_id":"levelo_inurba_marseille","lat":43.25119,"lon":5.40317,"is_reserved":false,"is_disabled":false,"rental_uris":{"android":"levelo://app?vid=fc2c3f9b-061b-4b88-8d47-8a6d27bb94ba","ios":"levelo://app?vid=fc2c3f9b-061b-4b88-8d47-8a6d27bb94ba"},"vehicle_type_id":"4","last_reported":1730747341,"current_range_meters":8400,"station_id":"ce4bhlh2rcd13ifvqgig","pricing_plan_id":"cebpf4jnsgd1na2vs0mg"},{"bike_id":"c01a511f-b463-46aa-abb2-dc11e485d03a","system_id":"levelo_inurba_marseille","lat":43.23156,"lon":5.43706,"is_reserved":false,"is_disabled":false,"rental_uris":{"android":"levelo://app?vid=c01a511f-b463-46aa-abb2-dc11e485d03a","ios":"levelo://app?vid=c01a511f-b463-46aa-abb2-dc11e485d03a"},"vehicle_type_id":"4","last_reported":1730747341,"current_range_meters":28000,"station_id":"ce4bhmp2rcd13ifvqgog","pricing_plan_id":"cebpf4jnsgd1na2vs0mg"},{"bike_id":"6c58450d-b66c-479a-84c7-725163e47f53","system_id":"levelo_inurba_marseille","lat":43.3136,"lon":5.38502,"is_reserved":false,"is_disabled":false,"rental_uris":{"android":"levelo://app?vid=6c58450d-b66c-479a-84c7-725163e47f53","ios":"levelo://app?vid=6c58450d-b66c-479a-84c7-725163e47f53"},"vehicle_type_id":"4","last_reported":1730747341,"current_range_meters":11600,"station_id":"ce4bgt92rcd13ifvqcf0","pricing_plan_id":"cebpf4jnsgd1na2vs0mg"},{"bike_id":"617faf97-8b48-4132-b4b6-6683dfba8161","system_id":"levelo_inurba_marseille","lat":43.29446,"lon":5.39761,"is_reserved":false,"is_disabled":false,"rental_uris":{"android":"levelo://app?vid=617faf97-8b48-4132-b4b6-6683dfba8161","ios":"levelo://app?vid=617faf97-8b48-4132-b4b6-6683dfba8161"},"vehicle_type_id":"4","last_reported":1730747341,"current_range_meters":39200,"station_id":"ce4bh3h2rcd13ifvqdo0","pricing_plan_id":"cebpf4jnsgd1na2vs0mg"},{"bike_id":"bc6cbb8d-1f72-4e32-9e2e-d0547ca3c84f","system_id":"levelo_inurba_marseille","lat":43.29612,"lon":5.3772,"is_reserved":false,"is_disabled":false,"rental_uris":{"android":"levelo://app?vid=bc6cbb8d-1f72-4e32-9e2e-d0547ca3c84f","ios":"levelo://app?vid=bc6cbb8d-1f72-4e32-9e2e-d0547ca3c84f"},"vehicle_type_id":"4","last_reported":1730747341,"current_range_meters":6800,"station_id":"ce4bgi92rcd13ifvqb90","pricing_plan_id":"cebpf4jnsgd1na2vs0mg"},{"bike_id":"e12d7650-f1b2-4c4b-8eb8-23651f70543b","system_id":"levelo_inurba_marseille","lat":43.32368,"lon":5.38877,"is_reserved":false,"is_disabled":false,"rental_uris":{"android":"levelo://app?vid=e12d7650-f1b2-4c4b-8eb8-23651f70543b","ios":"levelo://app?vid=e12d7650-f1b2-4c4b-8eb8-23651f70543b"},"vehicle_type_id":"4","last_reported":1730747341,"current_range_meters":8800,"station_id":"ce4bhqp2rcd13ifvqhog","pricing_plan_id":"cebpf4jnsgd1na2vs0mg"},{"bike_id":"fbe1344d-a732-4551-86e4-3b4d6dad7b24","system_id":"levelo_inurba_marseille","lat":43.29256,"lon":5.40909,"is_reserved":false,"is_disabled":false,"rental_uris":{"android":"levelo://app?vid=fbe1344d-a732-4551-86e4-3b4d6dad7b24","ios":"levelo://app?vid=fbe1344d-a732-4551-86e4-3b4d6dad7b24"},"vehicle_type_id":"4","last_reported":1730747341,"current_range_meters":9200,"station_id":"ce4bh192rcd13ifvqdc0","pricing_plan_id":"cebpf4jnsgd1na2vs0mg"},{"bike_id":"91f5b76d-bdfe-4048-8a04-c9679d35526a","system_id":"levelo_inurba_marseille","lat":43.33017,"lon":5.39041,"is_reserved":false,"is_disabled":false,"rental_uris":{"android":"levelo://app?vid=91f5b76d-bdfe-4048-8a04-c9679d35526a","ios":"levelo://app?vid=91f5b76d-bdfe-4048-8a04-c9679d35526a"},"vehicle_type_id":"4","last_reported":1730747341,"current_range_meters":38800,"station_id":"ce4bhr92rcd13ifvqhrg","pricing_plan_id":"cebpf4jnsgd1na2vs0mg"},{"bike_id":"8c438f77-76f7-45b9-9f92-eb3a6e9759df","system_id":"levelo_inurba_marseille","lat":43.29866,"lon":5.39732,"is_reserved":false,"is_disabled":false,"rental_uris":{"android":"levelo://app?vid=8c438f77-76f7-45b9-9f92-eb3a6e9759df","ios":"levelo://app?vid=8c438f77-76f7-45b9-9f92-eb3a6e9759df"},"vehicle_type_id":"4","last_reported":1730747341,"current_range_meters":30400,"station_id":"ce4bh0h2rcd13ifvqd50","pricing_plan_id":"cebpf4jnsgd1na2vs0mg"},{"bike_id":"54a53193-b42f-4e81-af8d-b5da45c2ad7e","system_id":"levelo_inurba_marseille","lat":43.27182,"lon":5.40998,"is_reserved":false,"is_disabled":false,"rental_uris":{"android":"levelo://app?vid=54a53193-b42f-4e81-af8d-b5da45c2ad7e","ios":"levelo://app?vid=54a53193-b42f-4e81-af8d-b5da45c2ad7e"},"vehicle_type_id":"4","last_reported":1730747341,"current_range_meters":36800,"station_id":"ce4bhl12rcd13ifvqgf0","pricing_plan_id":"cebpf4jnsgd1na2vs0mg"},{"bike_id":"19505a76-095a-4d4b-aea1-1efd3b3c4792","system_id":"levelo_inurba_marseille","lat":43.25865,"lon":5.39908,"is_reserved":false,"is_disabled":false,"rental_uris":{"android":"levelo://app?vid=19505a76-095a-4d4b-aea1-1efd3b3c4792","ios":"levelo://app?vid=19505a76-095a-4d4b-aea1-1efd3b3c4792"},"vehicle_type_id":"4","last_reported":1730747341,"current_range_meters":27200,"station_id":"ce4bhl92rcd13ifvqghg","pricing_plan_id":"cebpf4jnsgd1na2vs0mg"},{"bike_id":"7c250c5e-45b0-4eba-8f6f-d8d2a364128c","system_id":"levelo_inurba_marseille","lat":43.30784,"lon":5.37656,"is_reserved":false,"is_disabled":false,"rental_uris":{"android":"levelo://app?vid=7c250c5e-45b0-4eba-8f6f-d8d2a364128c","ios":"levelo://app?vid=7c250c5e-45b0-4eba-8f6f-d8d2a364128c"},"vehicle_type_id":"4","last_reported":1730747341,"current_range_meters":14000,"station_id":"ce4bgv92rcd13ifvqcq0","pricing_plan_id":"cebpf4jnsgd1na2vs0mg"},{"bike_id":"f911f27a-8c2f-4251-8fa7-74e985f9417e","system_id":"levelo_inurba_marseille","lat":43.306003,"lon":5.373402,"is_reserved":false,"is_disabled":false,"rental_uris":{"android":"levelo://app?vid=f911f27a-8c2f-4251-8fa7-74e985f9417e","ios":"levelo://app?vid=f911f27a-8c2f-4251-8fa7-74e985f9417e"},"vehicle_type_id":"4","last_reported":1730747341,"current_range_meters":18800,"station_id":"ce4bguh2rcd13ifvqckg","pricing_plan_id":"cebpf4jnsgd1na2vs0mg"},{"bike_id":"1c00494a-e802-4f3e-b0a6-ef5dedcfcb02","system_id":"levelo_inurba_marseille","lat":43.27939,"lon":5.41055,"is_reserved":false,"is_disabled":false,"rental_uris":{"android":"levelo://app?vid=1c00494a-e802-4f3e-b0a6-ef5dedcfcb02","ios":"levelo://app?vid=1c00494a-e802-4f3e-b0a6-ef5dedcfcb02"},"vehicle_type_id":"4","last_reported":1730747341,"current_range_meters":16400,"station_id":"ce4bhnp2rcd13ifvqh0g","pricing_plan_id":"cebpf4jnsgd1na2vs0mg"},{"bike_id":"0688e1f9-1bf1-4863-9a6f-f01b30b1aed3","system_id":"levelo_inurba_marseille","lat":43.284635,"lon":5.358857,"is_reserved":false,"is_disabled":false,"rental_uris":{"android":"levelo://app?vid=0688e1f9-1bf1-4863-9a6f-f01b30b1aed3","ios":"levelo://app?vid=0688e1f9-1bf1-4863-9a6f-f01b30b1aed3"},"vehicle_type_id":"4","last_reported":1730747341,"current_range_meters":29600,"station_id":"ce4bhah2rcd13ifvqei0","pricing_plan_id":"cebpf4jnsgd1na2vs0mg"},{"bike_id":"7955d6ea-5c6d-409a-b68a-d8adf44f2f31","system_id":"levelo_inurba_marseille","lat":43.29414,"lon":5.3862,"is_reserved":false,"is_disabled":false,"rental_uris":{"android":"levelo://app?vid=7955d6ea-5c6d-409a-b68a-d8adf44f2f31","ios":"levelo://app?vid=7955d6ea-5c6d-409a-b68a-d8adf44f2f31"},"vehicle_type_id":"4","last_reported":1730747341,"current_range_meters":38800,"station_id":"ce4bh2h2rcd13ifvqdh0","pricing_plan_id":"cebpf4jnsgd1na2vs0mg"},{"bike_id":"5f7bea16-ee2b-4b3b-8d0f-0102e87cabea","system_id":"levelo_inurba_marseille","lat":43.30807,"lon":5.43518,"is_reserved":false,"is_disabled":false,"rental_uris":{"android":"levelo://app?vid=5f7bea16-ee2b-4b3b-8d0f-0102e87cabea","ios":"levelo://app?vid=5f7bea16-ee2b-4b3b-8d0f-0102e87cabea"},"vehicle_type_id":"4","last_reported":1730747341,"current_range_meters":6800,"station_id":"ce4bhph2rcd13ifvqheg","pricing_plan_id":"cebpf4jnsgd1na2vs0mg"},{"bike_id":"a5143deb-1a03-43e9-a62f-9793e1d2990f","system_id":"levelo_inurba_marseille","lat":43.29884,"lon":5.38894,"is_reserved":false,"is_disabled":false,"rental_uris":{"android":"levelo://app?vid=a5143deb-1a03-43e9-a62f-9793e1d2990f","ios":"levelo://app?vid=a5143deb-1a03-43e9-a62f-9793e1d2990f"},"vehicle_type_id":"4","last_reported":1730747341,"current_range_meters":6800,"station_id":"ce4bh392rcd13ifvqdl0","pricing_plan_id":"cebpf4jnsgd1na2vs0mg"},{"bike_id":"d781521b-35e8-4746-afbe-b97d69a86b56","system_id":"levelo_inurba_marseille","lat":43.27999,"lon":5.40014,"is_reserved":false,"is_disabled":false,"rental_uris":{"android":"levelo://app?vid=d781521b-35e8-4746-afbe-b97d69a86b56","ios":"levelo://app?vid=d781521b-35e8-4746-afbe-b97d69a86b56"},"vehicle_type_id":"4","last_reported":1730747341,"current_range_meters":10000,"station_id":"ce4bho92rcd13ifvqh4g","pricing_plan_id":"cebpf4jnsgd1na2vs0mg"},{"bike_id":"64071c05-f62c-4dd4-af79-89685a1ac4bb","system_id":"levelo_inurba_marseille","lat":43.28103,"lon":5.37838,"is_reserved":false,"is_disabled":false,"rental_uris":{"android":"levelo://app?vid=64071c05-f62c-4dd4-af79-89685a1ac4bb","ios":"levelo://app?vid=64071c05-f62c-4dd4-af79-89685a1ac4bb"},"vehicle_type_id":"4","last_reported":1730747341,"current_range_meters":14000,"station_id":"ce4bha12rcd13ifvqee0","pricing_plan_id":"cebpf4jnsgd1na2vs0mg"},{"bike_id":"a1ce1ea0-2146-4891-a010-b9e141d71bad","system_id":"levelo_inurba_marseille","lat":43.255604,"lon":5.382385,"is_reserved":false,"is_disabled":false,"rental_uris":{"android":"levelo://app?vid=a1ce1ea0-2146-4891-a010-b9e141d71bad","ios":"levelo://app?vid=a1ce1ea0-2146-4891-a010-b9e141d71bad"},"vehicle_type_id":"4","last_reported":1730747341,"current_range_meters":7200,"station_id":"ce4bhih2rcd13ifvqfs0","pricing_plan_id":"cebpf4jnsgd1na2vs0mg"},{"bike_id":"8a6108fb-39e5-44c9-bb0e-c92b1fbe0362","system_id":"levelo_inurba_marseille","lat":43.27998,"lon":5.4001,"is_reserved":false,"is_disabled":false,"rental_uris":{"android":"levelo://app?vid=8a6108fb-39e5-44c9-bb0e-c92b1fbe0362","ios":"levelo://app?vid=8a6108fb-39e5-44c9-bb0e-c92b1fbe0362"},"vehicle_type_id":"4","last_reported":1730747341,"current_range_meters":38800,"station_id":"ce4bho92rcd13ifvqh4g","pricing_plan_id":"cebpf4jnsgd1na2vs0mg"},{"bike_id":"1d5e10b4-597c-427c-ba45-88cf584af35f","system_id":"levelo_inurba_marseille","lat":43.32538,"lon":5.41428,"is_reserved":false,"is_disabled":false,"rental_uris":{"android":"levelo://app?vid=1d5e10b4-597c-427c-ba45-88cf584af35f","ios":"levelo://app?vid=1d5e10b4-597c-427c-ba45-88cf584af35f"},"vehicle_type_id":"4","last_reported":1730747341,"current_range_meters":11200,"station_id":"ce4bhq12rcd13ifvqhhg","pricing_plan_id":"cebpf4jnsgd1na2vs0mg"},{"bike_id":"8d5faf28-e526-4d5b-93d3-399bd2cb1046","system_id":"levelo_inurba_marseille","lat":43.3176,"lon":5.39016,"is_reserved":false,"is_disabled":false,"rental_uris":{"android":"levelo://app?vid=8d5faf28-e526-4d5b-93d3-399bd2cb1046","ios":"levelo://app?vid=8d5faf28-e526-4d5b-93d3-399bd2cb1046"},"vehicle_type_id":"4","last_reported":1730747341,"current_range_meters":13600,"station_id":"ce4bhqp2rcd13ifvqhng","pricing_plan_id":"cebpf4jnsgd1na2vs0mg"},{"bike_id":"97504df4-414e-4d7e-824c-612b5c359cb0","system_id":"levelo_inurba_marseille","lat":43.31684,"lon":5.40471,"is_reserved":false,"is_disabled":false,"rental_uris":{"android":"levelo://app?vid=97504df4-414e-4d7e-824c-612b5c359cb0","ios":"levelo://app?vid=97504df4-414e-4d7e-824c-612b5c359cb0"},"vehicle_type_id":"4","last_reported":1730747341,"current_range_meters":27600,"station_id":"ce4bh012rcd13ifvqd00","pricing_plan_id":"cebpf4jnsgd1na2vs0mg"},{"bike_id":"af307df6-7e01-44e2-9893-e44970a18dab","system_id":"levelo_inurba_marseille","lat":43.30951,"lon":5.39044,"is_reserved":false,"is_disabled":false,"rental_uris":{"android":"levelo://app?vid=af307df6-7e01-44e2-9893-e44970a18dab","ios":"levelo://app?vid=af307df6-7e01-44e2-9893-e44970a18dab"},"vehicle_type_id":"4","last_reported":1730747341,"current_range_meters":38400,"station_id":"ce4bgup2rcd13ifvqco0","pricing_plan_id":"cebpf4jnsgd1na2vs0mg"},{"bike_id":"09829a24-f639-4891-80cb-ed9f598d5fde","system_id":"levelo_inurba_marseille","lat":43.2921,"lon":5.39321,"is_reserved":false,"is_disabled":false,"rental_uris":{"android":"levelo://app?vid=09829a24-f639-4891-80cb-ed9f598d5fde","ios":"levelo://app?vid=09829a24-f639-4891-80cb-ed9f598d5fde"},"vehicle_type_id":"4","last_reported":1730747341,"current_range_meters":9600,"station_id":"ce4bh192rcd13ifvqdd0","pricing_plan_id":"cebpf4jnsgd1na2vs0mg"},{"bike_id":"4d39a779-31fa-49e8-8dd7-1884b4a4ae25","system_id":"levelo_inurba_marseille","lat":43.26197,"lon":5.37447,"is_reserved":false,"is_disabled":false,"rental_uris":{"android":"levelo://app?vid=4d39a779-31fa-49e8-8dd7-1884b4a4ae25","ios":"levelo://app?vid=4d39a779-31fa-49e8-8dd7-1884b4a4ae25"},"vehicle_type_id":"4","last_reported":1730747341,"current_range_meters":6800,"station_id":"ce4bhgp2rcd13ifvqfc0","pricing_plan_id":"cebpf4jnsgd1na2vs0mg"},{"bike_id":"b25dc3be-0a19-4cd9-ba71-348b68408b3a","system_id":"levelo_inurba_marseille","lat":43.28844,"lon":5.39306,"is_reserved":false,"is_disabled":false,"rental_uris":{"android":"levelo://app?vid=b25dc3be-0a19-4cd9-ba71-348b68408b3a","ios":"levelo://app?vid=b25dc3be-0a19-4cd9-ba71-348b68408b3a"},"vehicle_type_id":"4","last_reported":1730747341,"current_range_meters":6000,"station_id":"ce4bh2p2rcd13ifvqdi0","pricing_plan_id":"cebpf4jnsgd1na2vs0mg"},{"bike_id":"3e5a8634-a637-4014-bc6a-240a337f8596","system_id":"levelo_inurba_marseille","lat":43.28672,"lon":5.38663,"is_reserved":false,"is_disabled":false,"rental_uris":{"android":"levelo://app?vid=3e5a8634-a637-4014-bc6a-240a337f8596","ios":"levelo://app?vid=3e5a8634-a637-4014-bc6a-240a337f8596"},"vehicle_type_id":"4","last_reported":1730747341,"current_range_meters":28800,"station_id":"ce4bh492rcd13ifvqdug","pricing_plan_id":"cebpf4jnsgd1na2vs0mg"},{"bike_id":"37deeb23-ece9-4f69-9fee-a33b9b0b9f3f","system_id":"levelo_inurba_marseille","lat":43.29527,"lon":5.39028,"is_reserved":false,"is_disabled":false,"rental_uris":{"android":"levelo://app?vid=37deeb23-ece9-4f69-9fee-a33b9b0b9f3f","ios":"levelo://app?vid=37deeb23-ece9-4f69-9fee-a33b9b0b9f3f"},"vehicle_type_id":"4","last_reported":1730747341,"current_range_meters":35200,"station_id":"ce4bh3p2rcd13ifvqdp0","pricing_plan_id":"cebpf4jnsgd1na2vs0mg"},{"bike_id":"32500efe-17dc-4778-b878-74b764dbdfc8","system_id":"levelo_inurba_marseille","lat":43.28008,"lon":5.40004,"is_reserved":false,"is_disabled":false,"rental_uris":{"android":"levelo://app?vid=32500efe-17dc-4778-b878-74b764dbdfc8","ios":"levelo://app?vid=32500efe-17dc-4778-b878-74b764dbdfc8"},"vehicle_type_id":"4","last_reported":1730747341,"current_range_meters":33200,"station_id":"ce4bho92rcd13ifvqh4g","pricing_plan_id":"cebpf4jnsgd1na2vs0mg"},{"bike_id":"2e55ac96-41cc-4d8f-85de-3bd7b1342bb1","system_id":"levelo_inurba_marseille","lat":43.25085,"lon":5.39521,"is_reserved":false,"is_disabled":false,"rental_uris":{"android":"levelo://app?vid=2e55ac96-41cc-4d8f-85de-3bd7b1342bb1","ios":"levelo://app?vid=2e55ac96-41cc-4d8f-85de-3bd7b1342bb1"},"vehicle_type_id":"4","last_reported":1730747341,"current_range_meters":2000,"station_id":"ce4bhm12rcd13ifvqgkg","pricing_plan_id":"cebpf4jnsgd1na2vs0mg"},{"bike_id":"eb39e603-ad9f-4225-9a3b-12ae2097763c","system_id":"levelo_inurba_marseille","lat":43.25085,"lon":5.39518,"is_reserved":false,"is_disabled":false,"rental_uris":{"android":"levelo://app?vid=eb39e603-ad9f-4225-9a3b-12ae2097763c","ios":"levelo://app?vid=eb39e603-ad9f-4225-9a3b-12ae2097763c"},"vehicle_type_id":"4","last_reported":1730747341,"current_range_meters":33200,"station_id":"ce4bhm12rcd13ifvqgkg","pricing_plan_id":"cebpf4jnsgd1na2vs0mg"},{"bike_id":"dfdbab8c-1f1d-443d-b108-183c4b7fb7c3","system_id":"levelo_inurba_marseille","lat":43.28082,"lon":5.39648,"is_reserved":false,"is_disabled":false,"rental_uris":{"android":"levelo://app?vid=dfdbab8c-1f1d-443d-b108-183c4b7fb7c3","ios":"levelo://app?vid=dfdbab8c-1f1d-443d-b108-183c4b7fb7c3"},"vehicle_type_id":"4","last_reported":1730747341,"current_range_meters":29600,"station_id":"ce4bho12rcd13ifvqh2g","pricing_plan_id":"cebpf4jnsgd1na2vs0mg"},{"bike_id":"ef035a9e-e33e-4137-b881-272584da15b9","system_id":"levelo_inurba_marseille","lat":43.27832,"lon":5.39209,"is_reserved":false,"is_disabled":false,"rental_uris":{"android":"levelo://app?vid=ef035a9e-e33e-4137-b881-272584da15b9","ios":"levelo://app?vid=ef035a9e-e33e-4137-b881-272584da15b9"},"vehicle_type_id":"4","last_reported":1730747341,"current_range_meters":11600,"station_id":"ce4bhjp2rcd13ifvqga0","pricing_plan_id":"cebpf4jnsgd1na2vs0mg"},{"bike_id":"04aa5b59-4bb9-497a-a1ac-eef2c51fb9a6","system_id":"levelo_inurba_marseille","lat":43.2808,"lon":5.3966,"is_reserved":false,"is_disabled":false,"rental_uris":{"android":"levelo://app?vid=04aa5b59-4bb9-497a-a1ac-eef2c51fb9a6","ios":"levelo://app?vid=04aa5b59-4bb9-497a-a1ac-eef2c51fb9a6"},"vehicle_type_id":"4","last_reported":1730747341,"current_range_meters":12400,"station_id":"ce4bho12rcd13ifvqh2g","pricing_plan_id":"cebpf4jnsgd1na2vs0mg"},{"bike_id":"3ab4030e-66fe-403c-8479-fde3f9e0f5d6","system_id":"levelo_inurba_marseille","lat":43.29867,"lon":5.39741,"is_reserved":false,"is_disabled":false,"rental_uris":{"android":"levelo://app?vid=3ab4030e-66fe-403c-8479-fde3f9e0f5d6","ios":"levelo://app?vid=3ab4030e-66fe-403c-8479-fde3f9e0f5d6"},"vehicle_type_id":"4","last_reported":1730747341,"current_range_meters":38800,"station_id":"ce4bh0h2rcd13ifvqd50","pricing_plan_id":"cebpf4jnsgd1na2vs0mg"},{"bike_id":"b3adece3-3f60-4210-bb79-096f6fe7c51f","system_id":"levelo_inurba_marseille","lat":43.32338,"lon":5.40619,"is_reserved":false,"is_disabled":false,"rental_uris":{"android":"levelo://app?vid=b3adece3-3f60-4210-bb79-096f6fe7c51f","ios":"levelo://app?vid=b3adece3-3f60-4210-bb79-096f6fe7c51f"},"vehicle_type_id":"4","last_reported":1730747341,"current_range_meters":34000,"station_id":"ce4bhq92rcd13ifvqhjg","pricing_plan_id":"cebpf4jnsgd1na2vs0mg"},{"bike_id":"c1d9de5b-72de-4c23-acfa-ea5bcd9c8c68","system_id":"levelo_inurba_marseille","lat":43.29514,"lon":5.39413,"is_reserved":false,"is_disabled":false,"rental_uris":{"android":"levelo://app?vid=c1d9de5b-72de-4c23-acfa-ea5bcd9c8c68","ios":"levelo://app?vid=c1d9de5b-72de-4c23-acfa-ea5bcd9c8c68"},"vehicle_type_id":"4","last_reported":1730747341,"current_range_meters":26000,"station_id":"ce4bh292rcd13ifvqdf0","pricing_plan_id":"cebpf4jnsgd1na2vs0mg"},{"bike_id":"efd52e43-c6c4-4283-8f94-e8c17d086d54","system_id":"levelo_inurba_marseille","lat":43.28665,"lon":5.36338,"is_reserved":false,"is_disabled":false,"rental_uris":{"android":"levelo://app?vid=efd52e43-c6c4-4283-8f94-e8c17d086d54","ios":"levelo://app?vid=efd52e43-c6c4-4283-8f94-e8c17d086d54"},"vehicle_type_id":"4","last_reported":1730747341,"current_range_meters":11200,"station_id":"ce4bhah2rcd13ifvqej0","pricing_plan_id":"cebpf4jnsgd1na2vs0mg"},{"bike_id":"fca3bb47-36da-49b2-bc78-db89b0b21aec","system_id":"levelo_inurba_marseille","lat":43.276186,"lon":5.361074,"is_reserved":false,"is_disabled":false,"rental_uris":{"android":"levelo://app?vid=fca3bb47-36da-49b2-bc78-db89b0b21aec","ios":"levelo://app?vid=fca3bb47-36da-49b2-bc78-db89b0b21aec"},"vehicle_type_id":"4","last_reported":1730747341,"current_range_meters":30000,"station_id":"ce4bh392rcd13ifvqdl0","pricing_plan_id":"cebpf4jnsgd1na2vs0mg"},{"bike_id":"87231ffe-0ac7-469b-8716-78c258e514db","system_id":"levelo_inurba_marseille","lat":43.24678,"lon":5.38174,"is_reserved":false,"is_disabled":false,"rental_uris":{"android":"levelo://app?vid=87231ffe-0ac7-469b-8716-78c258e514db","ios":"levelo://app?vid=87231ffe-0ac7-469b-8716-78c258e514db"},"vehicle_type_id":"4","last_reported":1730747341,"current_range_meters":24800,"station_id":"ce4bhih2rcd13ifvqfr0","pricing_plan_id":"cebpf4jnsgd1na2vs0mg"},{"bike_id":"d4472d20-9c4b-4c70-ad00-3a005519a429","system_id":"levelo_inurba_marseille","lat":43.35366,"lon":5.35735,"is_reserved":false,"is_disabled":false,"rental_uris":{"android":"levelo://app?vid=d4472d20-9c4b-4c70-ad00-3a005519a429","ios":"levelo://app?vid=d4472d20-9c4b-4c70-ad00-3a005519a429"},"vehicle_type_id":"4","last_reported":1730747341,"current_range_meters":8400,"station_id":"","pricing_plan_id":"cebpf4jnsgd1na2vs0mg"},{"bike_id":"c84b0bfc-34a9-475b-9f04-6a326b51d4f9","system_id":"levelo_inurba_marseille","lat":43.29511,"lon":5.39042,"is_reserved":false,"is_disabled":false,"rental_uris":{"android":"levelo://app?vid=c84b0bfc-34a9-475b-9f04-6a326b51d4f9","ios":"levelo://app?vid=c84b0bfc-34a9-475b-9f04-6a326b51d4f9"},"vehicle_type_id":"4","last_reported":1730747341,"current_range_meters":24000,"station_id":"ce4bh3p2rcd13ifvqdp0","pricing_plan_id":"cebpf4jnsgd1na2vs0mg"},{"bike_id":"e23b8f27-1f20-48cc-9fb7-362393d34dfc","system_id":"levelo_inurba_marseille","lat":43.28701,"lon":5.39981,"is_reserved":false,"is_disabled":false,"rental_uris":{"android":"levelo://app?vid=e23b8f27-1f20-48cc-9fb7-362393d34dfc","ios":"levelo://app?vid=e23b8f27-1f20-48cc-9fb7-362393d34dfc"},"vehicle_type_id":"4","last_reported":1730747341,"current_range_meters":39200,"station_id":"ce4bho92rcd13ifvqh3g","pricing_plan_id":"cebpf4jnsgd1na2vs0mg"},{"bike_id":"28ed30cb-39f7-403c-b763-8ee5add25ea0","system_id":"levelo_inurba_marseille","lat":43.32496,"lon":5.36573,"is_reserved":false,"is_disabled":false,"rental_uris":{"android":"levelo://app?vid=28ed30cb-39f7-403c-b763-8ee5add25ea0","ios":"levelo://app?vid=28ed30cb-39f7-403c-b763-8ee5add25ea0"},"vehicle_type_id":"4","last_reported":1730747341,"current_range_meters":22000,"station_id":"ce4bhs12rcd13ifvqhvg","pricing_plan_id":"cebpf4jnsgd1na2vs0mg"},{"bike_id":"b934b83b-a0ef-45c5-becd-ac014a76a723","system_id":"levelo_inurba_marseille","lat":43.29204,"lon":5.3932,"is_reserved":false,"is_disabled":false,"rental_uris":{"android":"levelo://app?vid=b934b83b-a0ef-45c5-becd-ac014a76a723","ios":"levelo://app?vid=b934b83b-a0ef-45c5-becd-ac014a76a723"},"vehicle_type_id":"4","last_reported":1730747341,"current_range_meters":13600,"station_id":"ce4bh192rcd13ifvqdd0","pricing_plan_id":"cebpf4jnsgd1na2vs0mg"},{"bike_id":"423fd533-c9ab-4f91-a2fe-25548c4c566c","system_id":"levelo_inurba_marseille","lat":43.28705,"lon":5.39989,"is_reserved":false,"is_disabled":false,"rental_uris":{"android":"levelo://app?vid=423fd533-c9ab-4f91-a2fe-25548c4c566c","ios":"levelo://app?vid=423fd533-c9ab-4f91-a2fe-25548c4c566c"},"vehicle_type_id":"4","last_reported":1730747341,"current_range_meters":39200,"station_id":"ce4bho92rcd13ifvqh3g","pricing_plan_id":"cebpf4jnsgd1na2vs0mg"},{"bike_id":"0cd2180d-56f3-45e6-b3f5-978b59b12b28","system_id":"levelo_inurba_marseille","lat":43.32364,"lon":5.38884,"is_reserved":false,"is_disabled":false,"rental_uris":{"android":"levelo://app?vid=0cd2180d-56f3-45e6-b3f5-978b59b12b28","ios":"levelo://app?vid=0cd2180d-56f3-45e6-b3f5-978b59b12b28"},"vehicle_type_id":"4","last_reported":1730747341,"current_range_meters":26000,"station_id":"ce4bhqp2rcd13ifvqhog","pricing_plan_id":"cebpf4jnsgd1na2vs0mg"},{"bike_id":"0a1a40db-b474-4571-b7c4-fd7400638eb1","system_id":"levelo_inurba_marseille","lat":43.31713,"lon":5.4371,"is_reserved":false,"is_disabled":false,"rental_uris":{"android":"levelo://app?vid=0a1a40db-b474-4571-b7c4-fd7400638eb1","ios":"levelo://app?vid=0a1a40db-b474-4571-b7c4-fd7400638eb1"},"vehicle_type_id":"4","last_reported":1730747341,"current_range_meters":8000,"station_id":"ce4bhp92rcd13ifvqhcg","pricing_plan_id":"cebpf4jnsgd1na2vs0mg"},{"bike_id":"be5bb167-8e9d-4764-9cac-04dc5e3697e1","system_id":"levelo_inurba_marseille","lat":43.28469,"lon":5.35883,"is_reserved":false,"is_disabled":false,"rental_uris":{"android":"levelo://app?vid=be5bb167-8e9d-4764-9cac-04dc5e3697e1","ios":"levelo://app?vid=be5bb167-8e9d-4764-9cac-04dc5e3697e1"},"vehicle_type_id":"4","last_reported":1730747341,"current_range_meters":26800,"station_id":"ce4bhah2rcd13ifvqei0","pricing_plan_id":"cebpf4jnsgd1na2vs0mg"},{"bike_id":"2dd40e8a-347a-4069-9f04-901c41b0a3c7","system_id":"levelo_inurba_marseille","lat":43.321,"lon":5.36776,"is_reserved":false,"is_disabled":false,"rental_uris":{"android":"levelo://app?vid=2dd40e8a-347a-4069-9f04-901c41b0a3c7","ios":"levelo://app?vid=2dd40e8a-347a-4069-9f04-901c41b0a3c7"},"vehicle_type_id":"4","last_reported":1730747341,"current_range_meters":38800,"station_id":"ce4bhrh2rcd13ifvqhug","pricing_plan_id":"cebpf4jnsgd1na2vs0mg"},{"bike_id":"d3b7307e-da30-444f-aeb0-ca57643fc232","system_id":"levelo_inurba_marseille","lat":43.300385,"lon":5.386338,"is_reserved":false,"is_disabled":false,"rental_uris":{"android":"levelo://app?vid=d3b7307e-da30-444f-aeb0-ca57643fc232","ios":"levelo://app?vid=d3b7307e-da30-444f-aeb0-ca57643fc232"},"vehicle_type_id":"4","last_reported":1730747341,"current_range_meters":10000,"station_id":"ce4bgk12rcd13ifvqbi0","pricing_plan_id":"cebpf4jnsgd1na2vs0mg"},{"bike_id":"d590f985-1c6f-48fd-ac80-e8e9b1815504","system_id":"levelo_inurba_marseille","lat":43.30138,"lon":5.38786,"is_reserved":false,"is_disabled":false,"rental_uris":{"android":"levelo://app?vid=d590f985-1c6f-48fd-ac80-e8e9b1815504","ios":"levelo://app?vid=d590f985-1c6f-48fd-ac80-e8e9b1815504"},"vehicle_type_id":"4","last_reported":1730747341,"current_range_meters":10000,"station_id":"ce4bghh2rcd13ifvqb60","pricing_plan_id":"cebpf4jnsgd1na2vs0mg"},{"bike_id":"6fc2326c-4cde-4ad0-9f66-cc0b4811ab5d","system_id":"levelo_inurba_marseille","lat":43.31992,"lon":5.38144,"is_reserved":false,"is_disabled":false,"rental_uris":{"android":"levelo://app?vid=6fc2326c-4cde-4ad0-9f66-cc0b4811ab5d","ios":"levelo://app?vid=6fc2326c-4cde-4ad0-9f66-cc0b4811ab5d"},"vehicle_type_id":"4","last_reported":1730747341,"current_range_meters":38800,"station_id":"ce4bhr12rcd13ifvqhpg","pricing_plan_id":"cebpf4jnsgd1na2vs0mg"},{"bike_id":"fbe7bda1-c764-48ef-9dd8-80605f50a849","system_id":"levelo_inurba_marseille","lat":43.2845,"lon":5.39193,"is_reserved":false,"is_disabled":false,"rental_uris":{"android":"levelo://app?vid=fbe7bda1-c764-48ef-9dd8-80605f50a849","ios":"levelo://app?vid=fbe7bda1-c764-48ef-9dd8-80605f50a849"},"vehicle_type_id":"4","last_reported":1730747341,"current_range_meters":30400,"station_id":"ce4bhoh2rcd13ifvqh5g","pricing_plan_id":"cebpf4jnsgd1na2vs0mg"},{"bike_id":"148ef324-e0ba-4f3f-a972-788a9d2d9cf2","system_id":"levelo_inurba_marseille","lat":43.28726,"lon":5.36095,"is_reserved":false,"is_disabled":false,"rental_uris":{"android":"levelo://app?vid=148ef324-e0ba-4f3f-a972-788a9d2d9cf2","ios":"levelo://app?vid=148ef324-e0ba-4f3f-a972-788a9d2d9cf2"},"vehicle_type_id":"4","last_reported":1730747341,"current_range_meters":38800,"station_id":"cki0cbj6b192h4jlfktg","pricing_plan_id":"cebpf4jnsgd1na2vs0mg"},{"bike_id":"476b1032-3456-4e75-9225-7aec38b7121d","system_id":"levelo_inurba_marseille","lat":43.27811,"lon":5.4071,"is_reserved":false,"is_disabled":false,"rental_uris":{"android":"levelo://app?vid=476b1032-3456-4e75-9225-7aec38b7121d","ios":"levelo://app?vid=476b1032-3456-4e75-9225-7aec38b7121d"},"vehicle_type_id":"4","last_reported":1730747341,"current_range_meters":24800,"station_id":"ce4bhnh2rcd13ifvqgtg","pricing_plan_id":"cebpf4jnsgd1na2vs0mg"},{"bike_id":"9d764d20-b2dd-4da1-acae-03a5ed91a76d","system_id":"levelo_inurba_marseille","lat":43.28452,"lon":5.39221,"is_reserved":false,"is_disabled":false,"rental_uris":{"android":"levelo://app?vid=9d764d20-b2dd-4da1-acae-03a5ed91a76d","ios":"levelo://app?vid=9d764d20-b2dd-4da1-acae-03a5ed91a76d"},"vehicle_type_id":"4","last_reported":1730747341,"current_range_meters":36400,"station_id":"ce4bhoh2rcd13ifvqh5g","pricing_plan_id":"cebpf4jnsgd1na2vs0mg"},{"bike_id":"2750ce85-6180-47ce-b77f-48af9ddab584","system_id":"levelo_inurba_marseille","lat":43.29109,"lon":5.38143,"is_reserved":false,"is_disabled":false,"rental_uris":{"android":"levelo://app?vid=2750ce85-6180-47ce-b77f-48af9ddab584","ios":"levelo://app?vid=2750ce85-6180-47ce-b77f-48af9ddab584"},"vehicle_type_id":"4","last_reported":1730747341,"current_range_meters":4000,"station_id":"ce4bh512rcd13ifvqe2g","pricing_plan_id":"cebpf4jnsgd1na2vs0mg"},{"bike_id":"8b751894-1161-4d7b-a0e2-88850f36a102","system_id":"levelo_inurba_marseille","lat":43.31761,"lon":5.39012,"is_reserved":false,"is_disabled":false,"rental_uris":{"android":"levelo://app?vid=8b751894-1161-4d7b-a0e2-88850f36a102","ios":"levelo://app?vid=8b751894-1161-4d7b-a0e2-88850f36a102"},"vehicle_type_id":"4","last_reported":1730747341,"current_range_meters":36400,"station_id":"ce4bhqp2rcd13ifvqhng","pricing_plan_id":"cebpf4jnsgd1na2vs0mg"},{"bike_id":"284a58f0-ac34-4623-8869-59696274e7c5","system_id":"levelo_inurba_marseille","lat":43.31063,"lon":5.383527,"is_reserved":false,"is_disabled":false,"rental_uris":{"android":"levelo://app?vid=284a58f0-ac34-4623-8869-59696274e7c5","ios":"levelo://app?vid=284a58f0-ac34-4623-8869-59696274e7c5"},"vehicle_type_id":"4","last_reported":1730747341,"current_range_meters":22400,"station_id":"ce4bgv92rcd13ifvqcr0","pricing_plan_id":"cebpf4jnsgd1na2vs0mg"},{"bike_id":"a1e9a334-a473-4351-aa60-c0bec8d3a41f","system_id":"levelo_inurba_marseille","lat":43.29512,"lon":5.39038,"is_reserved":false,"is_disabled":false,"rental_uris":{"android":"levelo://app?vid=a1e9a334-a473-4351-aa60-c0bec8d3a41f","ios":"levelo://app?vid=a1e9a334-a473-4351-aa60-c0bec8d3a41f"},"vehicle_type_id":"4","last_reported":1730747341,"current_range_meters":10800,"station_id":"ce4bh3p2rcd13ifvqdp0","pricing_plan_id":"cebpf4jnsgd1na2vs0mg"},{"bike_id":"ba8f5d9a-4861-4465-b828-23e2245ef053","system_id":"levelo_inurba_marseille","lat":43.23189,"lon":5.39973,"is_reserved":false,"is_disabled":false,"rental_uris":{"android":"levelo://app?vid=ba8f5d9a-4861-4465-b828-23e2245ef053","ios":"levelo://app?vid=ba8f5d9a-4861-4465-b828-23e2245ef053"},"vehicle_type_id":"4","last_reported":1730747341,"current_range_meters":39200,"station_id":"ce4bhn12rcd13ifvqgqg","pricing_plan_id":"cebpf4jnsgd1na2vs0mg"},{"bike_id":"210cf12c-e7eb-40ea-9268-4aa5e67661c7","system_id":"levelo_inurba_marseille","lat":43.26496,"lon":5.39535,"is_reserved":false,"is_disabled":false,"rental_uris":{"android":"levelo://app?vid=210cf12c-e7eb-40ea-9268-4aa5e67661c7","ios":"levelo://app?vid=210cf12c-e7eb-40ea-9268-4aa5e67661c7"},"vehicle_type_id":"4","last_reported":1730747341,"current_range_meters":28800,"station_id":"ce4bhi12rcd13ifvqfq0","pricing_plan_id":"cebpf4jnsgd1na2vs0mg"},{"bike_id":"6c78a033-e104-48bc-bb54-3615bf76d1ad","system_id":"levelo_inurba_marseille","lat":43.25873,"lon":5.39899,"is_reserved":false,"is_disabled":false,"rental_uris":{"android":"levelo://app?vid=6c78a033-e104-48bc-bb54-3615bf76d1ad","ios":"levelo://app?vid=6c78a033-e104-48bc-bb54-3615bf76d1ad"},"vehicle_type_id":"4","last_reported":1730747341,"current_range_meters":5600,"station_id":"ce4bhl92rcd13ifvqghg","pricing_plan_id":"cebpf4jnsgd1na2vs0mg"},{"bike_id":"772f5a1a-0240-4436-8273-7fb69704d5fd","system_id":"levelo_inurba_marseille","lat":43.25088,"lon":5.39524,"is_reserved":false,"is_disabled":false,"rental_uris":{"android":"levelo://app?vid=772f5a1a-0240-4436-8273-7fb69704d5fd","ios":"levelo://app?vid=772f5a1a-0240-4436-8273-7fb69704d5fd"},"vehicle_type_id":"4","last_reported":1730747341,"current_range_meters":30800,"station_id":"ce4bhm12rcd13ifvqgkg","pricing_plan_id":"cebpf4jnsgd1na2vs0mg"},{"bike_id":"42efe7e3-d734-4591-b8ab-0dbccdafc45f","system_id":"levelo_inurba_marseille","lat":43.3177,"lon":5.37838,"is_reserved":false,"is_disabled":false,"rental_uris":{"android":"levelo://app?vid=42efe7e3-d734-4591-b8ab-0dbccdafc45f","ios":"levelo://app?vid=42efe7e3-d734-4591-b8ab-0dbccdafc45f"},"vehicle_type_id":"4","last_reported":1730747341,"current_range_meters":38000,"station_id":"ce4bhqp2rcd13ifvqhng","pricing_plan_id":"cebpf4jnsgd1na2vs0mg"},{"bike_id":"4314c959-0960-488f-8a5e-47a2dcd21d56","system_id":"levelo_inurba_marseille","lat":43.31881,"lon":5.40738,"is_reserved":false,"is_disabled":false,"rental_uris":{"android":"levelo://app?vid=4314c959-0960-488f-8a5e-47a2dcd21d56","ios":"levelo://app?vid=4314c959-0960-488f-8a5e-47a2dcd21d56"},"vehicle_type_id":"4","last_reported":1730747341,"current_range_meters":9200,"station_id":"ce4bhq12rcd13ifvqhig","pricing_plan_id":"cebpf4jnsgd1na2vs0mg"},{"bike_id":"beeef4e4-0d45-4dfa-9ccc-aedb2ce31115","system_id":"levelo_inurba_marseille","lat":43.32109,"lon":5.36779,"is_reserved":false,"is_disabled":false,"rental_uris":{"android":"levelo://app?vid=beeef4e4-0d45-4dfa-9ccc-aedb2ce31115","ios":"levelo://app?vid=beeef4e4-0d45-4dfa-9ccc-aedb2ce31115"},"vehicle_type_id":"4","last_reported":1730747341,"current_range_meters":29600,"station_id":"ce4bhrh2rcd13ifvqhug","pricing_plan_id":"cebpf4jnsgd1na2vs0mg"},{"bike_id":"23cc3cfb-0b9c-4c08-a9a6-8468a4a173ce","system_id":"levelo_inurba_marseille","lat":43.31166,"lon":5.38727,"is_reserved":false,"is_disabled":false,"rental_uris":{"android":"levelo://app?vid=23cc3cfb-0b9c-4c08-a9a6-8468a4a173ce","ios":"levelo://app?vid=23cc3cfb-0b9c-4c08-a9a6-8468a4a173ce"},"vehicle_type_id":"4","last_reported":1730747341,"current_range_meters":3600,"station_id":"ce4bgv12rcd13ifvqcp0","pricing_plan_id":"cebpf4jnsgd1na2vs0mg"},{"bike_id":"1ea4c3c0-dbf4-4dab-b6f1-22e20d00b9a5","system_id":"levelo_inurba_marseille","lat":43.31174,"lon":5.38713,"is_reserved":false,"is_disabled":false,"rental_uris":{"android":"levelo://app?vid=1ea4c3c0-dbf4-4dab-b6f1-22e20d00b9a5","ios":"levelo://app?vid=1ea4c3c0-dbf4-4dab-b6f1-22e20d00b9a5"},"vehicle_type_id":"4","last_reported":1730747341,"current_range_meters":37600,"station_id":"ce4bgv12rcd13ifvqcp0","pricing_plan_id":"cebpf4jnsgd1na2vs0mg"},{"bike_id":"7622e7dd-8692-41f0-ac73-9d2d2c2fc77b","system_id":"levelo_inurba_marseille","lat":43.27819,"lon":5.40716,"is_reserved":false,"is_disabled":false,"rental_uris":{"android":"levelo://app?vid=7622e7dd-8692-41f0-ac73-9d2d2c2fc77b","ios":"levelo://app?vid=7622e7dd-8692-41f0-ac73-9d2d2c2fc77b"},"vehicle_type_id":"4","last_reported":1730747341,"current_range_meters":10800,"station_id":"ce4bhnh2rcd13ifvqgtg","pricing_plan_id":"cebpf4jnsgd1na2vs0mg"},{"bike_id":"3118c42b-0818-4ed8-9512-e3e393f3a0b9","system_id":"levelo_inurba_marseille","lat":43.30132,"lon":5.38775,"is_reserved":false,"is_disabled":false,"rental_uris":{"android":"levelo://app?vid=3118c42b-0818-4ed8-9512-e3e393f3a0b9","ios":"levelo://app?vid=3118c42b-0818-4ed8-9512-e3e393f3a0b9"},"vehicle_type_id":"4","last_reported":1730747341,"current_range_meters":23200,"station_id":"ce4bghh2rcd13ifvqb60","pricing_plan_id":"cebpf4jnsgd1na2vs0mg"},{"bike_id":"176ff4e6-f708-4c06-812b-5b1de7ea63cb","system_id":"levelo_inurba_marseille","lat":43.292759,"lon":5.408907,"is_reserved":false,"is_disabled":false,"rental_uris":{"android":"levelo://app?vid=176ff4e6-f708-4c06-812b-5b1de7ea63cb","ios":"levelo://app?vid=176ff4e6-f708-4c06-812b-5b1de7ea63cb"},"vehicle_type_id":"4","last_reported":1730747341,"current_range_meters":38800,"station_id":"ce4bh192rcd13ifvqdc0","pricing_plan_id":"cebpf4jnsgd1na2vs0mg"},{"bike_id":"71721fe2-35d7-41f2-9225-983e1943836f","system_id":"levelo_inurba_marseille","lat":43.33755,"lon":5.37471,"is_reserved":false,"is_disabled":false,"rental_uris":{"android":"levelo://app?vid=71721fe2-35d7-41f2-9225-983e1943836f","ios":"levelo://app?vid=71721fe2-35d7-41f2-9225-983e1943836f"},"vehicle_type_id":"4","last_reported":1730747341,"current_range_meters":38000,"station_id":"","pricing_plan_id":"cebpf4jnsgd1na2vs0mg"},{"bike_id":"97187e03-df7f-4b1b-9f37-cb3b16e0fe7a","system_id":"levelo_inurba_marseille","lat":43.25502,"lon":5.37646,"is_reserved":false,"is_disabled":false,"rental_uris":{"android":"levelo://app?vid=97187e03-df7f-4b1b-9f37-cb3b16e0fe7a","ios":"levelo://app?vid=97187e03-df7f-4b1b-9f37-cb3b16e0fe7a"},"vehicle_type_id":"4","last_reported":1730747341,"current_range_meters":12400,"station_id":"ce4bhh12rcd13ifvqff0","pricing_plan_id":"cebpf4jnsgd1na2vs0mg"},{"bike_id":"cc31af17-f388-4e6d-9239-c7e766dad994","system_id":"levelo_inurba_marseille","lat":43.31377,"lon":5.38493,"is_reserved":false,"is_disabled":false,"rental_uris":{"android":"levelo://app?vid=cc31af17-f388-4e6d-9239-c7e766dad994","ios":"levelo://app?vid=cc31af17-f388-4e6d-9239-c7e766dad994"},"vehicle_type_id":"4","last_reported":1730747341,"current_range_meters":24400,"station_id":"ce4bgt92rcd13ifvqcf0","pricing_plan_id":"cebpf4jnsgd1na2vs0mg"},{"bike_id":"c0374e61-06cf-4331-bd99-04f58657e0ea","system_id":"levelo_inurba_marseille","lat":43.29864,"lon":5.39733,"is_reserved":false,"is_disabled":false,"rental_uris":{"android":"levelo://app?vid=c0374e61-06cf-4331-bd99-04f58657e0ea","ios":"levelo://app?vid=c0374e61-06cf-4331-bd99-04f58657e0ea"},"vehicle_type_id":"4","last_reported":1730747341,"current_range_meters":10000,"station_id":"ce4bh0h2rcd13ifvqd50","pricing_plan_id":"cebpf4jnsgd1na2vs0mg"},{"bike_id":"4dd0d67c-ca53-417a-b4cb-8f81bef331b5","system_id":"levelo_inurba_marseille","lat":43.28436,"lon":5.39186,"is_reserved":false,"is_disabled":false,"rental_uris":{"android":"levelo://app?vid=4dd0d67c-ca53-417a-b4cb-8f81bef331b5","ios":"levelo://app?vid=4dd0d67c-ca53-417a-b4cb-8f81bef331b5"},"vehicle_type_id":"4","last_reported":1730747341,"current_range_meters":8800,"station_id":"ce4bhoh2rcd13ifvqh5g","pricing_plan_id":"cebpf4jnsgd1na2vs0mg"},{"bike_id":"697dd118-268c-406e-bad8-371dfe74ed47","system_id":"levelo_inurba_marseille","lat":43.31762,"lon":5.39008,"is_reserved":false,"is_disabled":false,"rental_uris":{"android":"levelo://app?vid=697dd118-268c-406e-bad8-371dfe74ed47","ios":"levelo://app?vid=697dd118-268c-406e-bad8-371dfe74ed47"},"vehicle_type_id":"4","last_reported":1730747341,"current_range_meters":38000,"station_id":"ce4bhqp2rcd13ifvqhng","pricing_plan_id":"cebpf4jnsgd1na2vs0mg"},{"bike_id":"84d144c2-2bfa-4f81-b807-31926879bd22","system_id":"levelo_inurba_marseille","lat":43.28157,"lon":5.42636,"is_reserved":false,"is_disabled":false,"rental_uris":{"android":"levelo://app?vid=84d144c2-2bfa-4f81-b807-31926879bd22","ios":"levelo://app?vid=84d144c2-2bfa-4f81-b807-31926879bd22"},"vehicle_type_id":"4","last_reported":1730747341,"current_range_meters":21600,"station_id":"ce4bhnh2rcd13ifvqgug","pricing_plan_id":"cebpf4jnsgd1na2vs0mg"},{"bike_id":"f767ae21-70a9-41f5-b210-a44435a86b24","system_id":"levelo_inurba_marseille","lat":43.29877,"lon":5.3891,"is_reserved":false,"is_disabled":false,"rental_uris":{"android":"levelo://app?vid=f767ae21-70a9-41f5-b210-a44435a86b24","ios":"levelo://app?vid=f767ae21-70a9-41f5-b210-a44435a86b24"},"vehicle_type_id":"4","last_reported":1730747341,"current_range_meters":32400,"station_id":"ce4bh392rcd13ifvqdl0","pricing_plan_id":"cebpf4jnsgd1na2vs0mg"},{"bike_id":"82193bb7-d94a-440b-8a22-b9c54d6f6502","system_id":"levelo_inurba_marseille","lat":43.29708,"lon":5.36594,"is_reserved":false,"is_disabled":false,"rental_uris":{"android":"levelo://app?vid=82193bb7-d94a-440b-8a22-b9c54d6f6502","ios":"levelo://app?vid=82193bb7-d94a-440b-8a22-b9c54d6f6502"},"vehicle_type_id":"4","last_reported":1730747341,"current_range_meters":17200,"station_id":"ce4bgn12rcd13ifvqbt0","pricing_plan_id":"cebpf4jnsgd1na2vs0mg"},{"bike_id":"0c04ad83-3261-450e-829e-dc8f395383fd","system_id":"levelo_inurba_marseille","lat":43.29535,"lon":5.3854,"is_reserved":false,"is_disabled":false,"rental_uris":{"android":"levelo://app?vid=0c04ad83-3261-450e-829e-dc8f395383fd","ios":"levelo://app?vid=0c04ad83-3261-450e-829e-dc8f395383fd"},"vehicle_type_id":"4","last_reported":1730747341,"current_range_meters":38800,"station_id":"ce4bgih2rcd13ifvqba0","pricing_plan_id":"cebpf4jnsgd1na2vs0mg"},{"bike_id":"35db7418-caea-44fa-9677-10c75926c990","system_id":"levelo_inurba_marseille","lat":43.27819,"lon":5.4072,"is_reserved":false,"is_disabled":false,"rental_uris":{"android":"levelo://app?vid=35db7418-caea-44fa-9677-10c75926c990","ios":"levelo://app?vid=35db7418-caea-44fa-9677-10c75926c990"},"vehicle_type_id":"4","last_reported":1730747341,"current_range_meters":18000,"station_id":"ce4bhnh2rcd13ifvqgtg","pricing_plan_id":"cebpf4jnsgd1na2vs0mg"},{"bike_id":"e94745ea-50ba-4862-ba35-a527b1c40b78","system_id":"levelo_inurba_marseille","lat":43.30787,"lon":5.37655,"is_reserved":false,"is_disabled":false,"rental_uris":{"android":"levelo://app?vid=e94745ea-50ba-4862-ba35-a527b1c40b78","ios":"levelo://app?vid=e94745ea-50ba-4862-ba35-a527b1c40b78"},"vehicle_type_id":"4","last_reported":1730747341,"current_range_meters":16800,"station_id":"ce4bgv92rcd13ifvqcq0","pricing_plan_id":"cebpf4jnsgd1na2vs0mg"},{"bike_id":"7580d83e-3d7c-46be-82b1-25f013a114af","system_id":"levelo_inurba_marseille","lat":43.31079,"lon":5.40079,"is_reserved":false,"is_disabled":false,"rental_uris":{"android":"levelo://app?vid=7580d83e-3d7c-46be-82b1-25f013a114af","ios":"levelo://app?vid=7580d83e-3d7c-46be-82b1-25f013a114af"},"vehicle_type_id":"4","last_reported":1730747341,"current_range_meters":20800,"station_id":"","pricing_plan_id":"cebpf4jnsgd1na2vs0mg"},{"bike_id":"cc59bd8c-3828-402f-9dfa-c63b53d40c6d","system_id":"levelo_inurba_marseille","lat":43.29163,"lon":5.37168,"is_reserved":false,"is_disabled":false,"rental_uris":{"android":"levelo://app?vid=cc59bd8c-3828-402f-9dfa-c63b53d40c6d","ios":"levelo://app?vid=cc59bd8c-3828-402f-9dfa-c63b53d40c6d"},"vehicle_type_id":"4","last_reported":1730747341,"current_range_meters":37600,"station_id":"ce4bha92rcd13ifvqeh0","pricing_plan_id":"cebpf4jnsgd1na2vs0mg"},{"bike_id":"dc11fb10-7966-4c34-a425-c94a472bc4a8","system_id":"levelo_inurba_marseille","lat":43.28001,"lon":5.40018,"is_reserved":false,"is_disabled":false,"rental_uris":{"android":"levelo://app?vid=dc11fb10-7966-4c34-a425-c94a472bc4a8","ios":"levelo://app?vid=dc11fb10-7966-4c34-a425-c94a472bc4a8"},"vehicle_type_id":"4","last_reported":1730747341,"current_range_meters":28400,"station_id":"ce4bho92rcd13ifvqh4g","pricing_plan_id":"cebpf4jnsgd1na2vs0mg"},{"bike_id":"c8f2c109-5830-42a2-a3b8-cda7f5abab99","system_id":"levelo_inurba_marseille","lat":43.28938,"lon":5.38389,"is_reserved":false,"is_disabled":false,"rental_uris":{"android":"levelo://app?vid=c8f2c109-5830-42a2-a3b8-cda7f5abab99","ios":"levelo://app?vid=c8f2c109-5830-42a2-a3b8-cda7f5abab99"},"vehicle_type_id":"4","last_reported":1730747341,"current_range_meters":6000,"station_id":"ce4bh612rcd13ifvqe6g","pricing_plan_id":"cebpf4jnsgd1na2vs0mg"},{"bike_id":"ba04515b-2530-4f99-bfe4-78243134c10b","system_id":"levelo_inurba_marseille","lat":43.280579,"lon":5.409851,"is_reserved":false,"is_disabled":false,"rental_uris":{"android":"levelo://app?vid=ba04515b-2530-4f99-bfe4-78243134c10b","ios":"levelo://app?vid=ba04515b-2530-4f99-bfe4-78243134c10b"},"vehicle_type_id":"4","last_reported":1730747341,"current_range_meters":35600,"station_id":"","pricing_plan_id":"cebpf4jnsgd1na2vs0mg"},{"bike_id":"3a843ecf-334b-4c2a-8a50-6cf5d384cca6","system_id":"levelo_inurba_marseille","lat":43.27422,"lon":5.39414,"is_reserved":false,"is_disabled":false,"rental_uris":{"android":"levelo://app?vid=3a843ecf-334b-4c2a-8a50-6cf5d384cca6","ios":"levelo://app?vid=3a843ecf-334b-4c2a-8a50-6cf5d384cca6"},"vehicle_type_id":"4","last_reported":1730747341,"current_range_meters":27600,"station_id":"ce4bhdp2rcd13ifvqf20","pricing_plan_id":"cebpf4jnsgd1na2vs0mg"},{"bike_id":"da0bd390-0d51-4002-9583-2a3cfe57c78a","system_id":"levelo_inurba_marseille","lat":43.29535,"lon":5.38551,"is_reserved":false,"is_disabled":false,"rental_uris":{"android":"levelo://app?vid=da0bd390-0d51-4002-9583-2a3cfe57c78a","ios":"levelo://app?vid=da0bd390-0d51-4002-9583-2a3cfe57c78a"},"vehicle_type_id":"4","last_reported":1730747341,"current_range_meters":26000,"station_id":"ce4bgih2rcd13ifvqba0","pricing_plan_id":"cebpf4jnsgd1na2vs0mg"},{"bike_id":"266a348d-d3a8-4050-901a-b320b9aa71ff","system_id":"levelo_inurba_marseille","lat":43.297089,"lon":5.377001,"is_reserved":false,"is_disabled":false,"rental_uris":{"android":"levelo://app?vid=266a348d-d3a8-4050-901a-b320b9aa71ff","ios":"levelo://app?vid=266a348d-d3a8-4050-901a-b320b9aa71ff"},"vehicle_type_id":"4","last_reported":1730747341,"current_range_meters":36800,"station_id":"ce4bgkh2rcd13ifvqbl0","pricing_plan_id":"cebpf4jnsgd1na2vs0mg"},{"bike_id":"cfc27677-d4a6-43cf-a638-8a448341433b","system_id":"levelo_inurba_marseille","lat":43.29574,"lon":5.39985,"is_reserved":false,"is_disabled":false,"rental_uris":{"android":"levelo://app?vid=cfc27677-d4a6-43cf-a638-8a448341433b","ios":"levelo://app?vid=cfc27677-d4a6-43cf-a638-8a448341433b"},"vehicle_type_id":"4","last_reported":1730747341,"current_range_meters":8400,"station_id":"ce4bh312rcd13ifvqdj0","pricing_plan_id":"cebpf4jnsgd1na2vs0mg"},{"bike_id":"819340a6-562b-46a4-9301-df7b52968f6c","system_id":"levelo_inurba_marseille","lat":43.25121,"lon":5.40322,"is_reserved":false,"is_disabled":false,"rental_uris":{"android":"levelo://app?vid=819340a6-562b-46a4-9301-df7b52968f6c","ios":"levelo://app?vid=819340a6-562b-46a4-9301-df7b52968f6c"},"vehicle_type_id":"4","last_reported":1730747341,"current_range_meters":9200,"station_id":"ce4bhlh2rcd13ifvqgig","pricing_plan_id":"cebpf4jnsgd1na2vs0mg"},{"bike_id":"43d6e804-beaa-4da6-8024-292405ca1412","system_id":"levelo_inurba_marseille","lat":43.24803,"lon":5.37452,"is_reserved":false,"is_disabled":false,"rental_uris":{"android":"levelo://app?vid=43d6e804-beaa-4da6-8024-292405ca1412","ios":"levelo://app?vid=43d6e804-beaa-4da6-8024-292405ca1412"},"vehicle_type_id":"4","last_reported":1730747341,"current_range_meters":3600,"station_id":"ce4bhgh2rcd13ifvqfb0","pricing_plan_id":"cebpf4jnsgd1na2vs0mg"},{"bike_id":"e692e67e-9843-43fc-9906-1b2dbc22b648","system_id":"levelo_inurba_marseille","lat":43.2558,"lon":5.38234,"is_reserved":false,"is_disabled":false,"rental_uris":{"android":"levelo://app?vid=e692e67e-9843-43fc-9906-1b2dbc22b648","ios":"levelo://app?vid=e692e67e-9843-43fc-9906-1b2dbc22b648"},"vehicle_type_id":"4","last_reported":1730747341,"current_range_meters":30800,"station_id":"ce4bhih2rcd13ifvqfs0","pricing_plan_id":"cebpf4jnsgd1na2vs0mg"},{"bike_id":"5ccdef9b-846e-4e58-bb40-a676280a0170","system_id":"levelo_inurba_marseille","lat":43.24654,"lon":5.38892,"is_reserved":false,"is_disabled":false,"rental_uris":{"android":"levelo://app?vid=5ccdef9b-846e-4e58-bb40-a676280a0170","ios":"levelo://app?vid=5ccdef9b-846e-4e58-bb40-a676280a0170"},"vehicle_type_id":"4","last_reported":1730747341,"current_range_meters":32800,"station_id":"ce4bhg12rcd13ifvqf60","pricing_plan_id":"cebpf4jnsgd1na2vs0mg"},{"bike_id":"d844a569-2803-4908-ac9c-866a60aea8c4","system_id":"levelo_inurba_marseille","lat":43.29874,"lon":5.39732,"is_reserved":false,"is_disabled":false,"rental_uris":{"android":"levelo://app?vid=d844a569-2803-4908-ac9c-866a60aea8c4","ios":"levelo://app?vid=d844a569-2803-4908-ac9c-866a60aea8c4"},"vehicle_type_id":"4","last_reported":1730747341,"current_range_meters":39200,"station_id":"ce4bh0h2rcd13ifvqd50","pricing_plan_id":"cebpf4jnsgd1na2vs0mg"},{"bike_id":"32226b21-dbcc-474c-9004-398b3fdc8208","system_id":"levelo_inurba_marseille","lat":43.28455,"lon":5.35893,"is_reserved":false,"is_disabled":false,"rental_uris":{"android":"levelo://app?vid=32226b21-dbcc-474c-9004-398b3fdc8208","ios":"levelo://app?vid=32226b21-dbcc-474c-9004-398b3fdc8208"},"vehicle_type_id":"4","last_reported":1730747341,"current_range_meters":27600,"station_id":"ce4bhah2rcd13ifvqei0","pricing_plan_id":"cebpf4jnsgd1na2vs0mg"},{"bike_id":"41e0f506-093b-4fd4-aa64-948fe05224df","system_id":"levelo_inurba_marseille","lat":43.31118,"lon":5.37762,"is_reserved":false,"is_disabled":false,"rental_uris":{"android":"levelo://app?vid=41e0f506-093b-4fd4-aa64-948fe05224df","ios":"levelo://app?vid=41e0f506-093b-4fd4-aa64-948fe05224df"},"vehicle_type_id":"4","last_reported":1730747341,"current_range_meters":29600,"station_id":"ce4bgt92rcd13ifvqcg0","pricing_plan_id":"cebpf4jnsgd1na2vs0mg"},{"bike_id":"d24dcb5a-a96f-49a8-8202-0053b533273a","system_id":"levelo_inurba_marseille","lat":43.29262,"lon":5.38444,"is_reserved":false,"is_disabled":false,"rental_uris":{"android":"levelo://app?vid=d24dcb5a-a96f-49a8-8202-0053b533273a","ios":"levelo://app?vid=d24dcb5a-a96f-49a8-8202-0053b533273a"},"vehicle_type_id":"4","last_reported":1730747341,"current_range_meters":18000,"station_id":"ce4bh692rcd13ifvqea0","pricing_plan_id":"cebpf4jnsgd1na2vs0mg"},{"bike_id":"cb3e0f7a-2749-41ab-b789-484e25d26bc7","system_id":"levelo_inurba_marseille","lat":43.29793,"lon":5.37103,"is_reserved":false,"is_disabled":false,"rental_uris":{"android":"levelo://app?vid=cb3e0f7a-2749-41ab-b789-484e25d26bc7","ios":"levelo://app?vid=cb3e0f7a-2749-41ab-b789-484e25d26bc7"},"vehicle_type_id":"4","last_reported":1730747341,"current_range_meters":13600,"station_id":"ce4bgop2rcd13ifvqc1g","pricing_plan_id":"cebpf4jnsgd1na2vs0mg"},{"bike_id":"823967de-5ba0-4689-8bf8-641b466fd8b1","system_id":"levelo_inurba_marseille","lat":43.23201,"lon":5.35558,"is_reserved":false,"is_disabled":false,"rental_uris":{"android":"levelo://app?vid=823967de-5ba0-4689-8bf8-641b466fd8b1","ios":"levelo://app?vid=823967de-5ba0-4689-8bf8-641b466fd8b1"},"vehicle_type_id":"4","last_reported":1730747341,"current_range_meters":39200,"station_id":"ce4bhu92rcd13ifvqi70","pricing_plan_id":"cebpf4jnsgd1na2vs0mg"},{"bike_id":"4bc64790-c609-4c70-b002-0790c5df4a72","system_id":"levelo_inurba_marseille","lat":43.29855,"lon":5.36291,"is_reserved":false,"is_disabled":false,"rental_uris":{"android":"levelo://app?vid=4bc64790-c609-4c70-b002-0790c5df4a72","ios":"levelo://app?vid=4bc64790-c609-4c70-b002-0790c5df4a72"},"vehicle_type_id":"4","last_reported":1730747341,"current_range_meters":38800,"station_id":"ce4bgpp2rcd13ifvqc3g","pricing_plan_id":"cebpf4jnsgd1na2vs0mg"},{"bike_id":"e6f2d8fd-c368-479d-9ade-ef8122a84504","system_id":"levelo_inurba_marseille","lat":43.313416,"lon":5.371255,"is_reserved":false,"is_disabled":false,"rental_uris":{"android":"levelo://app?vid=e6f2d8fd-c368-479d-9ade-ef8122a84504","ios":"levelo://app?vid=e6f2d8fd-c368-479d-9ade-ef8122a84504"},"vehicle_type_id":"4","last_reported":1730747341,"current_range_meters":36800,"station_id":"ce4bgl92rcd13ifvqbq0","pricing_plan_id":"cebpf4jnsgd1na2vs0mg"},{"bike_id":"5e6344c5-6d4f-418b-96e0-2eb6d04efaac","system_id":"levelo_inurba_marseille","lat":43.2694,"lon":5.40251,"is_reserved":false,"is_disabled":false,"rental_uris":{"android":"levelo://app?vid=5e6344c5-6d4f-418b-96e0-2eb6d04efaac","ios":"levelo://app?vid=5e6344c5-6d4f-418b-96e0-2eb6d04efaac"},"vehicle_type_id":"4","last_reported":1730747341,"current_range_meters":6400,"station_id":"cjm6bp8fraef2m0cb0m0","pricing_plan_id":"cebpf4jnsgd1na2vs0mg"},{"bike_id":"371ed9b9-117f-4304-a294-be3251d3642c","system_id":"levelo_inurba_marseille","lat":43.31759,"lon":5.39019,"is_reserved":false,"is_disabled":false,"rental_uris":{"android":"levelo://app?vid=371ed9b9-117f-4304-a294-be3251d3642c","ios":"levelo://app?vid=371ed9b9-117f-4304-a294-be3251d3642c"},"vehicle_type_id":"4","last_reported":1730747341,"current_range_meters":29600,"station_id":"ce4bhqp2rcd13ifvqhng","pricing_plan_id":"cebpf4jnsgd1na2vs0mg"},{"bike_id":"c6272608-f4bc-4624-887f-f5366c746565","system_id":"levelo_inurba_marseille","lat":43.27035,"lon":5.40696,"is_reserved":false,"is_disabled":false,"rental_uris":{"android":"levelo://app?vid=c6272608-f4bc-4624-887f-f5366c746565","ios":"levelo://app?vid=c6272608-f4bc-4624-887f-f5366c746565"},"vehicle_type_id":"4","last_reported":1730747341,"current_range_meters":8400,"station_id":"ce4bho12rcd13ifvqh1g","pricing_plan_id":"cebpf4jnsgd1na2vs0mg"},{"bike_id":"b6ec6d6e-2f13-48a9-8ad7-6402026a75f4","system_id":"levelo_inurba_marseille","lat":43.29908,"lon":5.38132,"is_reserved":false,"is_disabled":false,"rental_uris":{"android":"levelo://app?vid=b6ec6d6e-2f13-48a9-8ad7-6402026a75f4","ios":"levelo://app?vid=b6ec6d6e-2f13-48a9-8ad7-6402026a75f4"},"vehicle_type_id":"4","last_reported":1730747341,"current_range_meters":39200,"station_id":"ce4bgj12rcd13ifvqbc0","pricing_plan_id":"cebpf4jnsgd1na2vs0mg"},{"bike_id":"dbcbbd02-a6cd-4967-9038-e3b355b4447b","system_id":"levelo_inurba_marseille","lat":43.29421,"lon":5.38625,"is_reserved":false,"is_disabled":false,"rental_uris":{"android":"levelo://app?vid=dbcbbd02-a6cd-4967-9038-e3b355b4447b","ios":"levelo://app?vid=dbcbbd02-a6cd-4967-9038-e3b355b4447b"},"vehicle_type_id":"4","last_reported":1730747341,"current_range_meters":26800,"station_id":"ce4bh2h2rcd13ifvqdh0","pricing_plan_id":"cebpf4jnsgd1na2vs0mg"},{"bike_id":"964f03cc-66a1-4862-9b96-abca24fbcdea","system_id":"levelo_inurba_marseille","lat":43.275696,"lon":5.384226,"is_reserved":false,"is_disabled":false,"rental_uris":{"android":"levelo://app?vid=964f03cc-66a1-4862-9b96-abca24fbcdea","ios":"levelo://app?vid=964f03cc-66a1-4862-9b96-abca24fbcdea"},"vehicle_type_id":"4","last_reported":1730747341,"current_range_meters":20800,"station_id":"ce4bh3p2rcd13ifvqdq0","pricing_plan_id":"cebpf4jnsgd1na2vs0mg"},{"bike_id":"b97d231f-b06d-444f-93ba-90193ccee906","system_id":"levelo_inurba_marseille","lat":43.25083,"lon":5.39525,"is_reserved":false,"is_disabled":false,"rental_uris":{"android":"levelo://app?vid=b97d231f-b06d-444f-93ba-90193ccee906","ios":"levelo://app?vid=b97d231f-b06d-444f-93ba-90193ccee906"},"vehicle_type_id":"4","last_reported":1730747341,"current_range_meters":39200,"station_id":"ce4bhm12rcd13ifvqgkg","pricing_plan_id":"cebpf4jnsgd1na2vs0mg"},{"bike_id":"ed3cc475-9352-4500-9e2a-f8144dc4b6f1","system_id":"levelo_inurba_marseille","lat":43.33018,"lon":5.39047,"is_reserved":false,"is_disabled":false,"rental_uris":{"android":"levelo://app?vid=ed3cc475-9352-4500-9e2a-f8144dc4b6f1","ios":"levelo://app?vid=ed3cc475-9352-4500-9e2a-f8144dc4b6f1"},"vehicle_type_id":"4","last_reported":1730747341,"current_range_meters":39200,"station_id":"ce4bhr92rcd13ifvqhrg","pricing_plan_id":"cebpf4jnsgd1na2vs0mg"},{"bike_id":"70564515-7b78-4a47-885c-ce95b9b32f7b","system_id":"levelo_inurba_marseille","lat":43.2307,"lon":5.35491,"is_reserved":false,"is_disabled":false,"rental_uris":{"android":"levelo://app?vid=70564515-7b78-4a47-885c-ce95b9b32f7b","ios":"levelo://app?vid=70564515-7b78-4a47-885c-ce95b9b32f7b"},"vehicle_type_id":"4","last_reported":1730747341,"current_range_meters":34800,"station_id":"cpo3342slgdg3j2ifvpg","pricing_plan_id":"cebpf4jnsgd1na2vs0mg"},{"bike_id":"8a0c325f-e634-413a-83b4-b9280d66307d","system_id":"levelo_inurba_marseille","lat":43.3025,"lon":5.4004,"is_reserved":false,"is_disabled":false,"rental_uris":{"android":"levelo://app?vid=8a0c325f-e634-413a-83b4-b9280d66307d","ios":"levelo://app?vid=8a0c325f-e634-413a-83b4-b9280d66307d"},"vehicle_type_id":"4","last_reported":1730747341,"current_range_meters":26800,"station_id":"ce4bgvh2rcd13ifvqcs0","pricing_plan_id":"cebpf4jnsgd1na2vs0mg"},{"bike_id":"7a58136c-3165-4313-8fac-2c364b399752","system_id":"levelo_inurba_marseille","lat":43.33736,"lon":5.39193,"is_reserved":false,"is_disabled":false,"rental_uris":{"android":"levelo://app?vid=7a58136c-3165-4313-8fac-2c364b399752","ios":"levelo://app?vid=7a58136c-3165-4313-8fac-2c364b399752"},"vehicle_type_id":"4","last_reported":1730747341,"current_range_meters":27200,"station_id":"ce4bhr92rcd13ifvqhsg","pricing_plan_id":"cebpf4jnsgd1na2vs0mg"},{"bike_id":"2205bd4b-202f-4149-b7c7-6bfedff4840e","system_id":"levelo_inurba_marseille","lat":43.29712,"lon":5.36611,"is_reserved":false,"is_disabled":false,"rental_uris":{"android":"levelo://app?vid=2205bd4b-202f-4149-b7c7-6bfedff4840e","ios":"levelo://app?vid=2205bd4b-202f-4149-b7c7-6bfedff4840e"},"vehicle_type_id":"4","last_reported":1730747341,"current_range_meters":400,"station_id":"ce4bgn12rcd13ifvqbt0","pricing_plan_id":"cebpf4jnsgd1na2vs0mg"},{"bike_id":"777d3623-ec04-4224-a967-8b9f9fe6e4a5","system_id":"levelo_inurba_marseille","lat":43.29552,"lon":5.42283,"is_reserved":false,"is_disabled":false,"rental_uris":{"android":"levelo://app?vid=777d3623-ec04-4224-a967-8b9f9fe6e4a5","ios":"levelo://app?vid=777d3623-ec04-4224-a967-8b9f9fe6e4a5"},"vehicle_type_id":"4","last_reported":1730747341,"current_range_meters":10000,"station_id":"ce4bhph2rcd13ifvqhdg","pricing_plan_id":"cebpf4jnsgd1na2vs0mg"},{"bike_id":"ad8c4724-209a-4e48-8a10-9bd37feb7d2c","system_id":"levelo_inurba_marseille","lat":43.31169,"lon":5.38711,"is_reserved":false,"is_disabled":false,"rental_uris":{"android":"levelo://app?vid=ad8c4724-209a-4e48-8a10-9bd37feb7d2c","ios":"levelo://app?vid=ad8c4724-209a-4e48-8a10-9bd37feb7d2c"},"vehicle_type_id":"4","last_reported":1730747341,"current_range_meters":34800,"station_id":"ce4bgv12rcd13ifvqcp0","pricing_plan_id":"cebpf4jnsgd1na2vs0mg"},{"bike_id":"d53b57e5-6868-433d-b990-24fcbe41bcf1","system_id":"levelo_inurba_marseille","lat":43.27572,"lon":5.3841,"is_reserved":false,"is_disabled":false,"rental_uris":{"android":"levelo://app?vid=d53b57e5-6868-433d-b990-24fcbe41bcf1","ios":"levelo://app?vid=d53b57e5-6868-433d-b990-24fcbe41bcf1"},"vehicle_type_id":"4","last_reported":1730747341,"current_range_meters":16400,"station_id":"ce4bhh92rcd13ifvqfi0","pricing_plan_id":"cebpf4jnsgd1na2vs0mg"},{"bike_id":"a8758df9-3f5a-492e-a2ad-bc762183546e","system_id":"levelo_inurba_marseille","lat":43.28411,"lon":5.37509,"is_reserved":false,"is_disabled":false,"rental_uris":{"android":"levelo://app?vid=a8758df9-3f5a-492e-a2ad-bc762183546e","ios":"levelo://app?vid=a8758df9-3f5a-492e-a2ad-bc762183546e"},"vehicle_type_id":"4","last_reported":1730747341,"current_range_meters":4400,"station_id":"ce4bh412rcd13ifvqds0","pricing_plan_id":"cebpf4jnsgd1na2vs0mg"},{"bike_id":"e2899662-72c3-41b8-8d7d-36f52aadd58c","system_id":"levelo_inurba_marseille","lat":43.23152,"lon":5.43707,"is_reserved":false,"is_disabled":false,"rental_uris":{"android":"levelo://app?vid=e2899662-72c3-41b8-8d7d-36f52aadd58c","ios":"levelo://app?vid=e2899662-72c3-41b8-8d7d-36f52aadd58c"},"vehicle_type_id":"4","last_reported":1730747341,"current_range_meters":34800,"station_id":"ce4bhmp2rcd13ifvqgog","pricing_plan_id":"cebpf4jnsgd1na2vs0mg"},{"bike_id":"11631e5a-25f5-4552-899d-dc0c452dab65","system_id":"levelo_inurba_marseille","lat":43.32365,"lon":5.38886,"is_reserved":false,"is_disabled":false,"rental_uris":{"android":"levelo://app?vid=11631e5a-25f5-4552-899d-dc0c452dab65","ios":"levelo://app?vid=11631e5a-25f5-4552-899d-dc0c452dab65"},"vehicle_type_id":"4","last_reported":1730747341,"current_range_meters":38000,"station_id":"ce4bhqp2rcd13ifvqhog","pricing_plan_id":"cebpf4jnsgd1na2vs0mg"},{"bike_id":"eab47ed5-f83a-4939-80d1-ff052743bdd1","system_id":"levelo_inurba_marseille","lat":43.321106,"lon":5.367649,"is_reserved":false,"is_disabled":false,"rental_uris":{"android":"levelo://app?vid=eab47ed5-f83a-4939-80d1-ff052743bdd1","ios":"levelo://app?vid=eab47ed5-f83a-4939-80d1-ff052743bdd1"},"vehicle_type_id":"4","last_reported":1730747341,"current_range_meters":36000,"station_id":"ce4bhrh2rcd13ifvqhug","pricing_plan_id":"cebpf4jnsgd1na2vs0mg"},{"bike_id":"447ee1df-dbc3-4675-bef3-9e2af97da320","system_id":"levelo_inurba_marseille","lat":43.3248,"lon":5.36571,"is_reserved":false,"is_disabled":false,"rental_uris":{"android":"levelo://app?vid=447ee1df-dbc3-4675-bef3-9e2af97da320","ios":"levelo://app?vid=447ee1df-dbc3-4675-bef3-9e2af97da320"},"vehicle_type_id":"4","last_reported":1730747341,"current_range_meters":28800,"station_id":"ce4bhs12rcd13ifvqhvg","pricing_plan_id":"cebpf4jnsgd1na2vs0mg"},{"bike_id":"fc3560fa-0db5-4bad-ba39-d648f086df42","system_id":"levelo_inurba_marseille","lat":43.30144,"lon":5.38764,"is_reserved":false,"is_disabled":false,"rental_uris":{"android":"levelo://app?vid=fc3560fa-0db5-4bad-ba39-d648f086df42","ios":"levelo://app?vid=fc3560fa-0db5-4bad-ba39-d648f086df42"},"vehicle_type_id":"4","last_reported":1730747341,"current_range_meters":4000,"station_id":"ce4bghh2rcd13ifvqb60","pricing_plan_id":"cebpf4jnsgd1na2vs0mg"},{"bike_id":"bfbab1ef-7e1b-4b5c-8ca7-9d700596a5a4","system_id":"levelo_inurba_marseille","lat":43.28724,"lon":5.37928,"is_reserved":false,"is_disabled":false,"rental_uris":{"android":"levelo://app?vid=bfbab1ef-7e1b-4b5c-8ca7-9d700596a5a4","ios":"levelo://app?vid=bfbab1ef-7e1b-4b5c-8ca7-9d700596a5a4"},"vehicle_type_id":"4","last_reported":1730747341,"current_range_meters":29600,"station_id":"ce4bh9p2rcd13ifvqec0","pricing_plan_id":"cebpf4jnsgd1na2vs0mg"},{"bike_id":"863fe607-56d5-473f-8fe9-906695997619","system_id":"levelo_inurba_marseille","lat":43.25087,"lon":5.39524,"is_reserved":false,"is_disabled":false,"rental_uris":{"android":"levelo://app?vid=863fe607-56d5-473f-8fe9-906695997619","ios":"levelo://app?vid=863fe607-56d5-473f-8fe9-906695997619"},"vehicle_type_id":"4","last_reported":1730747341,"current_range_meters":6400,"station_id":"ce4bhm12rcd13ifvqgkg","pricing_plan_id":"cebpf4jnsgd1na2vs0mg"},{"bike_id":"eeb6fa2a-003b-4e78-b5b2-99abb33a724d","system_id":"levelo_inurba_marseille","lat":43.29577,"lon":5.39975,"is_reserved":false,"is_disabled":false,"rental_uris":{"android":"levelo://app?vid=eeb6fa2a-003b-4e78-b5b2-99abb33a724d","ios":"levelo://app?vid=eeb6fa2a-003b-4e78-b5b2-99abb33a724d"},"vehicle_type_id":"4","last_reported":1730747341,"current_range_meters":5600,"station_id":"ce4bh312rcd13ifvqdj0","pricing_plan_id":"cebpf4jnsgd1na2vs0mg"},{"bike_id":"ce8e5906-0d4f-4085-a6e2-c7f244080cc6","system_id":"levelo_inurba_marseille","lat":43.32293,"lon":5.3827,"is_reserved":false,"is_disabled":false,"rental_uris":{"android":"levelo://app?vid=ce8e5906-0d4f-4085-a6e2-c7f244080cc6","ios":"levelo://app?vid=ce8e5906-0d4f-4085-a6e2-c7f244080cc6"},"vehicle_type_id":"4","last_reported":1730747341,"current_range_meters":39200,"station_id":"ce4bhr12rcd13ifvqhqg","pricing_plan_id":"cebpf4jnsgd1na2vs0mg"},{"bike_id":"6c6f793a-b4ae-48da-ab03-1e7093a0eced","system_id":"levelo_inurba_marseille","lat":43.28572,"lon":5.39497,"is_reserved":false,"is_disabled":false,"rental_uris":{"android":"levelo://app?vid=6c6f793a-b4ae-48da-ab03-1e7093a0eced","ios":"levelo://app?vid=6c6f793a-b4ae-48da-ab03-1e7093a0eced"},"vehicle_type_id":"4","last_reported":1730747341,"current_range_meters":38400,"station_id":"ce4bh292rcd13ifvqdg0","pricing_plan_id":"cebpf4jnsgd1na2vs0mg"},{"bike_id":"11258114-969d-4f6d-9f39-9fcd8afcb215","system_id":"levelo_inurba_marseille","lat":43.31368,"lon":5.38493,"is_reserved":false,"is_disabled":false,"rental_uris":{"android":"levelo://app?vid=11258114-969d-4f6d-9f39-9fcd8afcb215","ios":"levelo://app?vid=11258114-969d-4f6d-9f39-9fcd8afcb215"},"vehicle_type_id":"4","last_reported":1730747341,"current_range_meters":14400,"station_id":"ce4bgt92rcd13ifvqcf0","pricing_plan_id":"cebpf4jnsgd1na2vs0mg"},{"bike_id":"061af2b2-d26c-4fd5-bc63-3604d8d8b438","system_id":"levelo_inurba_marseille","lat":43.26802,"lon":5.40266,"is_reserved":false,"is_disabled":false,"rental_uris":{"android":"levelo://app?vid=061af2b2-d26c-4fd5-bc63-3604d8d8b438","ios":"levelo://app?vid=061af2b2-d26c-4fd5-bc63-3604d8d8b438"},"vehicle_type_id":"4","last_reported":1730747341,"current_range_meters":25600,"station_id":"ce501612rcd8frsf0b60","pricing_plan_id":"cebpf4jnsgd1na2vs0mg"},{"bike_id":"6db0df53-e51c-44c4-b87e-fc6acdf253e2","system_id":"levelo_inurba_marseille","lat":43.26803,"lon":5.40263,"is_reserved":false,"is_disabled":false,"rental_uris":{"android":"levelo://app?vid=6db0df53-e51c-44c4-b87e-fc6acdf253e2","ios":"levelo://app?vid=6db0df53-e51c-44c4-b87e-fc6acdf253e2"},"vehicle_type_id":"4","last_reported":1730747341,"current_range_meters":39200,"station_id":"ce501612rcd8frsf0b60","pricing_plan_id":"cebpf4jnsgd1na2vs0mg"},{"bike_id":"e9e66975-cafe-4658-a4c5-ff1a1ec866aa","system_id":"levelo_inurba_marseille","lat":43.27843,"lon":5.39208,"is_reserved":false,"is_disabled":false,"rental_uris":{"android":"levelo://app?vid=e9e66975-cafe-4658-a4c5-ff1a1ec866aa","ios":"levelo://app?vid=e9e66975-cafe-4658-a4c5-ff1a1ec866aa"},"vehicle_type_id":"4","last_reported":1730747341,"current_range_meters":6000,"station_id":"ce4bhjp2rcd13ifvqga0","pricing_plan_id":"cebpf4jnsgd1na2vs0mg"},{"bike_id":"260fa75a-01a4-4465-ba93-2899bc76795b","system_id":"levelo_inurba_marseille","lat":43.27068,"lon":5.42277,"is_reserved":false,"is_disabled":false,"rental_uris":{"android":"levelo://app?vid=260fa75a-01a4-4465-ba93-2899bc76795b","ios":"levelo://app?vid=260fa75a-01a4-4465-ba93-2899bc76795b"},"vehicle_type_id":"4","last_reported":1730747341,"current_range_meters":21600,"station_id":"ce4bhk92rcd13ifvqgb0","pricing_plan_id":"cebpf4jnsgd1na2vs0mg"},{"bike_id":"b4facab6-2372-454d-9a7f-42f9d1acd4ed","system_id":"levelo_inurba_marseille","lat":43.28721,"lon":5.37921,"is_reserved":false,"is_disabled":false,"rental_uris":{"android":"levelo://app?vid=b4facab6-2372-454d-9a7f-42f9d1acd4ed","ios":"levelo://app?vid=b4facab6-2372-454d-9a7f-42f9d1acd4ed"},"vehicle_type_id":"4","last_reported":1730747341,"current_range_meters":30800,"station_id":"ce4bh9p2rcd13ifvqec0","pricing_plan_id":"cebpf4jnsgd1na2vs0mg"},{"bike_id":"95266fe5-bc92-42c6-9291-c065a95f564c","system_id":"levelo_inurba_marseille","lat":43.29314,"lon":5.37189,"is_reserved":false,"is_disabled":false,"rental_uris":{"android":"levelo://app?vid=95266fe5-bc92-42c6-9291-c065a95f564c","ios":"levelo://app?vid=95266fe5-bc92-42c6-9291-c065a95f564c"},"vehicle_type_id":"4","last_reported":1730747341,"current_range_meters":39200,"station_id":"ce4bgh92rcd13ifvqb40","pricing_plan_id":"cebpf4jnsgd1na2vs0mg"},{"bike_id":"69d728d9-309b-4a8b-a56b-95b3944c9f36","system_id":"levelo_inurba_marseille","lat":43.31163,"lon":5.38711,"is_reserved":false,"is_disabled":false,"rental_uris":{"android":"levelo://app?vid=69d728d9-309b-4a8b-a56b-95b3944c9f36","ios":"levelo://app?vid=69d728d9-309b-4a8b-a56b-95b3944c9f36"},"vehicle_type_id":"4","last_reported":1730747341,"current_range_meters":14000,"station_id":"ce4bgv12rcd13ifvqcp0","pricing_plan_id":"cebpf4jnsgd1na2vs0mg"},{"bike_id":"b7715ad2-c110-4363-8267-6022f97336ab","system_id":"levelo_inurba_marseille","lat":43.23964,"lon":5.36635,"is_reserved":false,"is_disabled":false,"rental_uris":{"android":"levelo://app?vid=b7715ad2-c110-4363-8267-6022f97336ab","ios":"levelo://app?vid=b7715ad2-c110-4363-8267-6022f97336ab"},"vehicle_type_id":"4","last_reported":1730747341,"current_range_meters":14000,"station_id":"ce4bhi12rcd13ifvqfp0","pricing_plan_id":"cebpf4jnsgd1na2vs0mg"},{"bike_id":"60b1e6ad-7b89-46d3-a2ee-520ea244611c","system_id":"levelo_inurba_marseille","lat":43.31064,"lon":5.38364,"is_reserved":false,"is_disabled":false,"rental_uris":{"android":"levelo://app?vid=60b1e6ad-7b89-46d3-a2ee-520ea244611c","ios":"levelo://app?vid=60b1e6ad-7b89-46d3-a2ee-520ea244611c"},"vehicle_type_id":"4","last_reported":1730747341,"current_range_meters":38800,"station_id":"ce4bgv92rcd13ifvqcr0","pricing_plan_id":"cebpf4jnsgd1na2vs0mg"},{"bike_id":"7a11a98d-8ac5-4670-a0af-96ec4b174999","system_id":"levelo_inurba_marseille","lat":43.28157,"lon":5.42638,"is_reserved":false,"is_disabled":false,"rental_uris":{"android":"levelo://app?vid=7a11a98d-8ac5-4670-a0af-96ec4b174999","ios":"levelo://app?vid=7a11a98d-8ac5-4670-a0af-96ec4b174999"},"vehicle_type_id":"4","last_reported":1730747341,"current_range_meters":3200,"station_id":"ce4bhnh2rcd13ifvqgug","pricing_plan_id":"cebpf4jnsgd1na2vs0mg"},{"bike_id":"c4c0de2f-a87e-415a-bc12-145e90238b59","system_id":"levelo_inurba_marseille","lat":43.27946,"lon":5.41049,"is_reserved":false,"is_disabled":false,"rental_uris":{"android":"levelo://app?vid=c4c0de2f-a87e-415a-bc12-145e90238b59","ios":"levelo://app?vid=c4c0de2f-a87e-415a-bc12-145e90238b59"},"vehicle_type_id":"4","last_reported":1730747341,"current_range_meters":9600,"station_id":"ce4bhnp2rcd13ifvqh0g","pricing_plan_id":"cebpf4jnsgd1na2vs0mg"},{"bike_id":"d92fcd0e-1757-48cb-90be-a7e853f0353a","system_id":"levelo_inurba_marseille","lat":43.293072,"lon":5.374421,"is_reserved":false,"is_disabled":false,"rental_uris":{"android":"levelo://app?vid=d92fcd0e-1757-48cb-90be-a7e853f0353a","ios":"levelo://app?vid=d92fcd0e-1757-48cb-90be-a7e853f0353a"},"vehicle_type_id":"4","last_reported":1730747341,"current_range_meters":36400,"station_id":"ce4bgi12rcd13ifvqb70","pricing_plan_id":"cebpf4jnsgd1na2vs0mg"},{"bike_id":"ee780dfc-d7f1-4c30-b860-edc50b8e8ff1","system_id":"levelo_inurba_marseille","lat":43.29299,"lon":5.37175,"is_reserved":false,"is_disabled":false,"rental_uris":{"android":"levelo://app?vid=ee780dfc-d7f1-4c30-b860-edc50b8e8ff1","ios":"levelo://app?vid=ee780dfc-d7f1-4c30-b860-edc50b8e8ff1"},"vehicle_type_id":"4","last_reported":1730747341,"current_range_meters":8000,"station_id":"ce4bgh92rcd13ifvqb40","pricing_plan_id":"cebpf4jnsgd1na2vs0mg"},{"bike_id":"37ef2ca3-2c43-4d66-9992-5cf3dddabb46","system_id":"levelo_inurba_marseille","lat":43.31066,"lon":5.38351,"is_reserved":false,"is_disabled":false,"rental_uris":{"android":"levelo://app?vid=37ef2ca3-2c43-4d66-9992-5cf3dddabb46","ios":"levelo://app?vid=37ef2ca3-2c43-4d66-9992-5cf3dddabb46"},"vehicle_type_id":"4","last_reported":1730747341,"current_range_meters":14000,"station_id":"ce4bgv92rcd13ifvqcr0","pricing_plan_id":"cebpf4jnsgd1na2vs0mg"},{"bike_id":"29f681b5-c5da-48c5-9970-08b3f9bca177","system_id":"levelo_inurba_marseille","lat":43.32336,"lon":5.40622,"is_reserved":false,"is_disabled":false,"rental_uris":{"android":"levelo://app?vid=29f681b5-c5da-48c5-9970-08b3f9bca177","ios":"levelo://app?vid=29f681b5-c5da-48c5-9970-08b3f9bca177"},"vehicle_type_id":"4","last_reported":1730747341,"current_range_meters":12000,"station_id":"ce4bhq92rcd13ifvqhjg","pricing_plan_id":"cebpf4jnsgd1na2vs0mg"},{"bike_id":"756c1efa-f2cb-4ba2-928c-22e9fea9145d","system_id":"levelo_inurba_marseille","lat":43.29259,"lon":5.40914,"is_reserved":false,"is_disabled":false,"rental_uris":{"android":"levelo://app?vid=756c1efa-f2cb-4ba2-928c-22e9fea9145d","ios":"levelo://app?vid=756c1efa-f2cb-4ba2-928c-22e9fea9145d"},"vehicle_type_id":"4","last_reported":1730747341,"current_range_meters":39200,"station_id":"ce4bh192rcd13ifvqdc0","pricing_plan_id":"cebpf4jnsgd1na2vs0mg"},{"bike_id":"8f6ae032-9bce-4fab-b9c5-8174447ce3ce","system_id":"levelo_inurba_marseille","lat":43.29522,"lon":5.39035,"is_reserved":false,"is_disabled":false,"rental_uris":{"android":"levelo://app?vid=8f6ae032-9bce-4fab-b9c5-8174447ce3ce","ios":"levelo://app?vid=8f6ae032-9bce-4fab-b9c5-8174447ce3ce"},"vehicle_type_id":"4","last_reported":1730747341,"current_range_meters":32400,"station_id":"ce4bh3p2rcd13ifvqdp0","pricing_plan_id":"cebpf4jnsgd1na2vs0mg"},{"bike_id":"888d7c20-b463-46eb-b029-e6a3fec43c8f","system_id":"levelo_inurba_marseille","lat":43.29416,"lon":5.38633,"is_reserved":false,"is_disabled":false,"rental_uris":{"android":"levelo://app?vid=888d7c20-b463-46eb-b029-e6a3fec43c8f","ios":"levelo://app?vid=888d7c20-b463-46eb-b029-e6a3fec43c8f"},"vehicle_type_id":"4","last_reported":1730747341,"current_range_meters":21600,"station_id":"ce4bh2h2rcd13ifvqdh0","pricing_plan_id":"cebpf4jnsgd1na2vs0mg"},{"bike_id":"f962eeb2-c255-4402-a6e4-690c44fcb3ab","system_id":"levelo_inurba_marseille","lat":43.294289,"lon":5.385634,"is_reserved":false,"is_disabled":false,"rental_uris":{"android":"levelo://app?vid=f962eeb2-c255-4402-a6e4-690c44fcb3ab","ios":"levelo://app?vid=f962eeb2-c255-4402-a6e4-690c44fcb3ab"},"vehicle_type_id":"4","last_reported":1730747341,"current_range_meters":14000,"station_id":"ce4bh2h2rcd13ifvqdh0","pricing_plan_id":"cebpf4jnsgd1na2vs0mg"},{"bike_id":"cc164c79-47b7-41a2-8ddf-f6e1442291cb","system_id":"levelo_inurba_marseille","lat":43.27815,"lon":5.40715,"is_reserved":false,"is_disabled":false,"rental_uris":{"android":"levelo://app?vid=cc164c79-47b7-41a2-8ddf-f6e1442291cb","ios":"levelo://app?vid=cc164c79-47b7-41a2-8ddf-f6e1442291cb"},"vehicle_type_id":"4","last_reported":1730747341,"current_range_meters":27200,"station_id":"ce4bhnh2rcd13ifvqgtg","pricing_plan_id":"cebpf4jnsgd1na2vs0mg"},{"bike_id":"5e4789c0-dda2-4013-80f2-5c2d8da893a6","system_id":"levelo_inurba_marseille","lat":43.2846,"lon":5.35883,"is_reserved":false,"is_disabled":false,"rental_uris":{"android":"levelo://app?vid=5e4789c0-dda2-4013-80f2-5c2d8da893a6","ios":"levelo://app?vid=5e4789c0-dda2-4013-80f2-5c2d8da893a6"},"vehicle_type_id":"4","last_reported":1730747341,"current_range_meters":25200,"station_id":"ce4bhah2rcd13ifvqei0","pricing_plan_id":"cebpf4jnsgd1na2vs0mg"},{"bike_id":"bb56022b-5cf8-48e6-b121-4bdeeb6db6d7","system_id":"levelo_inurba_marseille","lat":43.285278,"lon":5.390683,"is_reserved":false,"is_disabled":false,"rental_uris":{"android":"levelo://app?vid=bb56022b-5cf8-48e6-b121-4bdeeb6db6d7","ios":"levelo://app?vid=bb56022b-5cf8-48e6-b121-4bdeeb6db6d7"},"vehicle_type_id":"4","last_reported":1730747341,"current_range_meters":37600,"station_id":"ce4bgs92rcd13ifvqcc0","pricing_plan_id":"cebpf4jnsgd1na2vs0mg"},{"bike_id":"a7adc7ea-055f-47bb-b719-ed2702addb6b","system_id":"levelo_inurba_marseille","lat":43.28468,"lon":5.3589,"is_reserved":false,"is_disabled":false,"rental_uris":{"android":"levelo://app?vid=a7adc7ea-055f-47bb-b719-ed2702addb6b","ios":"levelo://app?vid=a7adc7ea-055f-47bb-b719-ed2702addb6b"},"vehicle_type_id":"4","last_reported":1730747341,"current_range_meters":36000,"station_id":"ce4bhah2rcd13ifvqei0","pricing_plan_id":"cebpf4jnsgd1na2vs0mg"},{"bike_id":"67b3ccc6-c55c-434e-b3e2-305de43dd644","system_id":"levelo_inurba_marseille","lat":43.27963,"lon":5.38703,"is_reserved":false,"is_disabled":false,"rental_uris":{"android":"levelo://app?vid=67b3ccc6-c55c-434e-b3e2-305de43dd644","ios":"levelo://app?vid=67b3ccc6-c55c-434e-b3e2-305de43dd644"},"vehicle_type_id":"4","last_reported":1730747341,"current_range_meters":23200,"station_id":"ce4bhg12rcd13ifvqf80","pricing_plan_id":"cebpf4jnsgd1na2vs0mg"},{"bike_id":"2e5b4eda-1e00-4de7-bf32-df40f4d56ed2","system_id":"levelo_inurba_marseille","lat":43.32484,"lon":5.36552,"is_reserved":false,"is_disabled":false,"rental_uris":{"android":"levelo://app?vid=2e5b4eda-1e00-4de7-bf32-df40f4d56ed2","ios":"levelo://app?vid=2e5b4eda-1e00-4de7-bf32-df40f4d56ed2"},"vehicle_type_id":"4","last_reported":1730747341,"current_range_meters":15200,"station_id":"ce4bhs12rcd13ifvqhvg","pricing_plan_id":"cebpf4jnsgd1na2vs0mg"},{"bike_id":"6b7d2449-e46d-4565-9e6c-8c69071159a7","system_id":"levelo_inurba_marseille","lat":43.29153,"lon":5.37169,"is_reserved":false,"is_disabled":false,"rental_uris":{"android":"levelo://app?vid=6b7d2449-e46d-4565-9e6c-8c69071159a7","ios":"levelo://app?vid=6b7d2449-e46d-4565-9e6c-8c69071159a7"},"vehicle_type_id":"4","last_reported":1730747341,"current_range_meters":30800,"station_id":"ce4bha92rcd13ifvqeh0","pricing_plan_id":"cebpf4jnsgd1na2vs0mg"},{"bike_id":"4c8e72b5-aba7-4439-8dcc-1e2370b4bb8a","system_id":"levelo_inurba_marseille","lat":43.308,"lon":5.43524,"is_reserved":false,"is_disabled":false,"rental_uris":{"android":"levelo://app?vid=4c8e72b5-aba7-4439-8dcc-1e2370b4bb8a","ios":"levelo://app?vid=4c8e72b5-aba7-4439-8dcc-1e2370b4bb8a"},"vehicle_type_id":"4","last_reported":1730747341,"current_range_meters":40000,"station_id":"ce4bhph2rcd13ifvqheg","pricing_plan_id":"cebpf4jnsgd1na2vs0mg"},{"bike_id":"62846512-c27a-49a0-b420-08e77017a80e","system_id":"levelo_inurba_marseille","lat":43.28458,"lon":5.35887,"is_reserved":false,"is_disabled":false,"rental_uris":{"android":"levelo://app?vid=62846512-c27a-49a0-b420-08e77017a80e","ios":"levelo://app?vid=62846512-c27a-49a0-b420-08e77017a80e"},"vehicle_type_id":"4","last_reported":1730747341,"current_range_meters":9200,"station_id":"ce4bhah2rcd13ifvqei0","pricing_plan_id":"cebpf4jnsgd1na2vs0mg"},{"bike_id":"75ed7478-abbb-49b2-99e0-8898b4b807f8","system_id":"levelo_inurba_marseille","lat":43.27626,"lon":5.36106,"is_reserved":false,"is_disabled":false,"rental_uris":{"android":"levelo://app?vid=75ed7478-abbb-49b2-99e0-8898b4b807f8","ios":"levelo://app?vid=75ed7478-abbb-49b2-99e0-8898b4b807f8"},"vehicle_type_id":"4","last_reported":1730747341,"current_range_meters":22000,"station_id":"ce4bgj92rcd13ifvqbe0","pricing_plan_id":"cebpf4jnsgd1na2vs0mg"},{"bike_id":"3c3d9c01-e0e4-4328-b67c-f2acbf70a104","system_id":"levelo_inurba_marseille","lat":43.28418,"lon":5.37504,"is_reserved":false,"is_disabled":false,"rental_uris":{"android":"levelo://app?vid=3c3d9c01-e0e4-4328-b67c-f2acbf70a104","ios":"levelo://app?vid=3c3d9c01-e0e4-4328-b67c-f2acbf70a104"},"vehicle_type_id":"4","last_reported":1730747341,"current_range_meters":20400,"station_id":"ce4bh412rcd13ifvqds0","pricing_plan_id":"cebpf4jnsgd1na2vs0mg"},{"bike_id":"0b241463-8d53-4c09-8b90-66b472fc744c","system_id":"levelo_inurba_marseille","lat":43.27943,"lon":5.41042,"is_reserved":false,"is_disabled":false,"rental_uris":{"android":"levelo://app?vid=0b241463-8d53-4c09-8b90-66b472fc744c","ios":"levelo://app?vid=0b241463-8d53-4c09-8b90-66b472fc744c"},"vehicle_type_id":"4","last_reported":1730747341,"current_range_meters":25600,"station_id":"ce4bhnp2rcd13ifvqh0g","pricing_plan_id":"cebpf4jnsgd1na2vs0mg"},{"bike_id":"8e8b2ac4-7628-43d8-a1c3-78768105a024","system_id":"levelo_inurba_marseille","lat":43.27838,"lon":5.39198,"is_reserved":false,"is_disabled":false,"rental_uris":{"android":"levelo://app?vid=8e8b2ac4-7628-43d8-a1c3-78768105a024","ios":"levelo://app?vid=8e8b2ac4-7628-43d8-a1c3-78768105a024"},"vehicle_type_id":"4","last_reported":1730747341,"current_range_meters":33200,"station_id":"ce4bhjp2rcd13ifvqga0","pricing_plan_id":"cebpf4jnsgd1na2vs0mg"},{"bike_id":"b03e9bdf-c54e-462a-82b0-f3fb2be4bd17","system_id":"levelo_inurba_marseille","lat":43.23185,"lon":5.3998,"is_reserved":false,"is_disabled":false,"rental_uris":{"android":"levelo://app?vid=b03e9bdf-c54e-462a-82b0-f3fb2be4bd17","ios":"levelo://app?vid=b03e9bdf-c54e-462a-82b0-f3fb2be4bd17"},"vehicle_type_id":"4","last_reported":1730747341,"current_range_meters":39200,"station_id":"ce4bhn12rcd13ifvqgqg","pricing_plan_id":"cebpf4jnsgd1na2vs0mg"},{"bike_id":"7f85a234-3fff-4a84-8738-0cb6823e40c2","system_id":"levelo_inurba_marseille","lat":43.29913,"lon":5.436135,"is_reserved":false,"is_disabled":false,"rental_uris":{"android":"levelo://app?vid=7f85a234-3fff-4a84-8738-0cb6823e40c2","ios":"levelo://app?vid=7f85a234-3fff-4a84-8738-0cb6823e40c2"},"vehicle_type_id":"4","last_reported":1730747341,"current_range_meters":24000,"station_id":"ce4bhph2rcd13ifvqheg","pricing_plan_id":"cebpf4jnsgd1na2vs0mg"},{"bike_id":"e5154003-48ca-4a25-8bfd-467b2c9cd51f","system_id":"levelo_inurba_marseille","lat":43.2757,"lon":5.38415,"is_reserved":false,"is_disabled":false,"rental_uris":{"android":"levelo://app?vid=e5154003-48ca-4a25-8bfd-467b2c9cd51f","ios":"levelo://app?vid=e5154003-48ca-4a25-8bfd-467b2c9cd51f"},"vehicle_type_id":"4","last_reported":1730747341,"current_range_meters":16400,"station_id":"ce4bhh92rcd13ifvqfi0","pricing_plan_id":"cebpf4jnsgd1na2vs0mg"},{"bike_id":"3c7d9c7e-3ec2-4a8f-bbde-1e1c25aa1b2a","system_id":"levelo_inurba_marseille","lat":43.27995,"lon":5.40022,"is_reserved":false,"is_disabled":false,"rental_uris":{"android":"levelo://app?vid=3c7d9c7e-3ec2-4a8f-bbde-1e1c25aa1b2a","ios":"levelo://app?vid=3c7d9c7e-3ec2-4a8f-bbde-1e1c25aa1b2a"},"vehicle_type_id":"4","last_reported":1730747341,"current_range_meters":9200,"station_id":"ce4bho92rcd13ifvqh4g","pricing_plan_id":"cebpf4jnsgd1na2vs0mg"},{"bike_id":"41bd49b9-1950-41c9-b858-83b6dfe232ea","system_id":"levelo_inurba_marseille","lat":43.23187,"lon":5.3997,"is_reserved":false,"is_disabled":false,"rental_uris":{"android":"levelo://app?vid=41bd49b9-1950-41c9-b858-83b6dfe232ea","ios":"levelo://app?vid=41bd49b9-1950-41c9-b858-83b6dfe232ea"},"vehicle_type_id":"4","last_reported":1730747341,"current_range_meters":38800,"station_id":"ce4bhn12rcd13ifvqgqg","pricing_plan_id":"cebpf4jnsgd1na2vs0mg"},{"bike_id":"82e04a68-aeb5-4f15-9c4a-0297ec779117","system_id":"levelo_inurba_marseille","lat":43.28153,"lon":5.42647,"is_reserved":false,"is_disabled":false,"rental_uris":{"android":"levelo://app?vid=82e04a68-aeb5-4f15-9c4a-0297ec779117","ios":"levelo://app?vid=82e04a68-aeb5-4f15-9c4a-0297ec779117"},"vehicle_type_id":"4","last_reported":1730747341,"current_range_meters":19600,"station_id":"ce4bhnh2rcd13ifvqgug","pricing_plan_id":"cebpf4jnsgd1na2vs0mg"},{"bike_id":"406238e0-4bed-4dff-8965-1bc9e8ed08f8","system_id":"levelo_inurba_marseille","lat":43.30873,"lon":5.3719,"is_reserved":false,"is_disabled":false,"rental_uris":{"android":"levelo://app?vid=406238e0-4bed-4dff-8965-1bc9e8ed08f8","ios":"levelo://app?vid=406238e0-4bed-4dff-8965-1bc9e8ed08f8"},"vehicle_type_id":"4","last_reported":1730747341,"current_range_meters":9600,"station_id":"ce4bguh2rcd13ifvqckg","pricing_plan_id":"cebpf4jnsgd1na2vs0mg"},{"bike_id":"271d9710-d436-4c7c-838e-121d00202fc4","system_id":"levelo_inurba_marseille","lat":43.29066,"lon":5.37184,"is_reserved":false,"is_disabled":false,"rental_uris":{"android":"levelo://app?vid=271d9710-d436-4c7c-838e-121d00202fc4","ios":"levelo://app?vid=271d9710-d436-4c7c-838e-121d00202fc4"},"vehicle_type_id":"4","last_reported":1730747341,"current_range_meters":12800,"station_id":"ce4bh5p2rcd13ifvqe4g","pricing_plan_id":"cebpf4jnsgd1na2vs0mg"},{"bike_id":"91e5b127-af45-48df-b559-614491e0c8d5","system_id":"levelo_inurba_marseille","lat":43.33021,"lon":5.39041,"is_reserved":false,"is_disabled":false,"rental_uris":{"android":"levelo://app?vid=91e5b127-af45-48df-b559-614491e0c8d5","ios":"levelo://app?vid=91e5b127-af45-48df-b559-614491e0c8d5"},"vehicle_type_id":"4","last_reported":1730747341,"current_range_meters":36800,"station_id":"ce4bhr92rcd13ifvqhrg","pricing_plan_id":"cebpf4jnsgd1na2vs0mg"},{"bike_id":"67e5d0e7-9b13-4e5f-8ce2-0b04c520e849","system_id":"levelo_inurba_marseille","lat":43.25086,"lon":5.39517,"is_reserved":false,"is_disabled":false,"rental_uris":{"android":"levelo://app?vid=67e5d0e7-9b13-4e5f-8ce2-0b04c520e849","ios":"levelo://app?vid=67e5d0e7-9b13-4e5f-8ce2-0b04c520e849"},"vehicle_type_id":"4","last_reported":1730747341,"current_range_meters":22400,"station_id":"ce4bhm12rcd13ifvqgkg","pricing_plan_id":"cebpf4jnsgd1na2vs0mg"},{"bike_id":"7be9b903-f6b0-4339-ba71-16ff75120ccd","system_id":"levelo_inurba_marseille","lat":43.31704,"lon":5.37741,"is_reserved":false,"is_disabled":false,"rental_uris":{"android":"levelo://app?vid=7be9b903-f6b0-4339-ba71-16ff75120ccd","ios":"levelo://app?vid=7be9b903-f6b0-4339-ba71-16ff75120ccd"},"vehicle_type_id":"4","last_reported":1730747341,"current_range_meters":8800,"station_id":"ce4bgth2rcd13ifvqch0","pricing_plan_id":"cebpf4jnsgd1na2vs0mg"},{"bike_id":"5c2f3c4a-2b73-45da-9d81-ec69a9adceb4","system_id":"levelo_inurba_marseille","lat":43.25866,"lon":5.39903,"is_reserved":false,"is_disabled":false,"rental_uris":{"android":"levelo://app?vid=5c2f3c4a-2b73-45da-9d81-ec69a9adceb4","ios":"levelo://app?vid=5c2f3c4a-2b73-45da-9d81-ec69a9adceb4"},"vehicle_type_id":"4","last_reported":1730747341,"current_range_meters":6000,"station_id":"ce4bhl92rcd13ifvqghg","pricing_plan_id":"cebpf4jnsgd1na2vs0mg"},{"bike_id":"641668fb-7821-4ad5-a704-60e491c215d6","system_id":"levelo_inurba_marseille","lat":43.29875,"lon":5.397312,"is_reserved":false,"is_disabled":false,"rental_uris":{"android":"levelo://app?vid=641668fb-7821-4ad5-a704-60e491c215d6","ios":"levelo://app?vid=641668fb-7821-4ad5-a704-60e491c215d6"},"vehicle_type_id":"4","last_reported":1730747341,"current_range_meters":8800,"station_id":"ce4bh0h2rcd13ifvqd50","pricing_plan_id":"cebpf4jnsgd1na2vs0mg"},{"bike_id":"61a100ac-77ea-4ee5-9aa3-aeb81442c7db","system_id":"levelo_inurba_marseille","lat":43.29799,"lon":5.40396,"is_reserved":false,"is_disabled":false,"rental_uris":{"android":"levelo://app?vid=61a100ac-77ea-4ee5-9aa3-aeb81442c7db","ios":"levelo://app?vid=61a100ac-77ea-4ee5-9aa3-aeb81442c7db"},"vehicle_type_id":"4","last_reported":1730747341,"current_range_meters":24800,"station_id":"ce4bh112rcd13ifvqd90","pricing_plan_id":"cebpf4jnsgd1na2vs0mg"},