{"last_updated":1739798298,"ttl":60,"version":"2.2","data":{"bikes":[{"bike_id":"9e7a1b36-2e01-4a75-8def-35cec576c3c5","system_id":"levelo_inurba_marseille","lat":43.27142,"lon":5.39255,"is_reserved":false,"is_disabled":true,"rental_uris":{"android":"levelo://app?vid=9e7a1b36-2e01-4a75-8def-35cec576c3c5","ios":"levelo://app?vid=9e7a1b36-2e01-4a75-8def-35cec576c3c5"},"vehicle_type_id":"4","last_reported":1739798298,"current_range_meters":2800,"station_id":"","pricing_plan_id":"cebpf4jnsgd1na2vs0mg"},{"bike_id":"de0d5157-23c7-4265-8536-5ad0a75deceb","system_id":"levelo_inurba_marseille","lat":43.25093,"lon":5.39525,"is_reserved":false,"is_disabled":false,"rental_uris":{"android":"levelo://app?vid=de0d5157-23c7-4265-8536-5ad0a75deceb","ios":"levelo://app?vid=de0d5157-23c7-4265-8536-5ad0a75deceb"},"vehicle_type_id":"4","last_reported":1739798298,"current_range_meters":2800,"station_id":"ce4bhm12rcd13ifvqgkg","pricing_plan_id":"cebpf4jnsgd1na2vs0mg"},{"bike_id":"d1f4b90e-a0bf-44a0-8551-fdc016dfecea","system_id":"levelo_inurba_marseille","lat":43.23056,"lon":5.35484,"is_reserved":false,"is_disabled":false,"rental_uris":{"android":"levelo://app?vid=d1f4b90e-a0bf-44a0-8551-fdc016dfecea","ios":"levelo://app?vid=d1f4b90e-a0bf-44a0-8551-fdc016dfecea"},"vehicle_type_id":"4","last_reported":1739798298,"current_range_meters":2800,"station_id":"cpo3342slgdg3j2ifvpg","pricing_plan_id":"cebpf4jnsgd1na2vs0mg"},{"bike_id":"5cf12fc4-7fe4-41d7-886c-cdfb2b753983","system_id":"levelo_inurba_marseille","lat":43.30129,"lon":5.37405,"is_reserved":false,"is_disabled":false,"rental_uris":{"android":"levelo://app?vid=5cf12fc4-7fe4-41d7-886c-cdfb2b753983","ios":"levelo://app?vid=5cf12fc4-7fe4-41d7-886c-cdfb2b753983"},"vehicle_type_id":"4","last_reported":1739798298,"current_range_meters":3200,"station_id":"","pricing_plan_id":"cebpf4jnsgd1na2vs0mg"},{"bike_id":"1d9534c0-5db5-48c2-a707-0528db252be3","system_id":"levelo_inurba_marseille","lat":43.24551,"lon":5.39528,"is_reserved":false,"is_disabled":false,"rental_uris":{"android":"levelo://app?vid=1d9534c0-5db5-48c2-a707-0528db252be3","ios":"levelo://app?vid=1d9534c0-5db5-48c2-a707-0528db252be3"},"vehicle_type_id":"4","last_reported":1739798298,"current_range_meters":3200,"station_id":"ce4bhlp2rcd13ifvqgjg","pricing_plan_id":"cebpf4jnsgd1na2vs0mg"},{"bike_id":"28046f97-ae85-42b7-a87a-52b26e51f08f","system_id":"levelo_inurba_marseille","lat":43.2481,"lon":5.37458,"is_reserved":false,"is_disabled":false,"rental_uris":{"android":"levelo://app?vid=28046f97-ae85-42b7-a87a-52b26e51f08f","ios":"levelo://app?vid=28046f97-ae85-42b7-a87a-52b26e51f08f"},"vehicle_type_id":"4","last_reported":1739798298,"current_range_meters":3200,"station_id":"ce4bhgh2rcd13ifvqfb0","pricing_plan_id":"cebpf4jnsgd1na2vs0mg"},{"bike_id":"3c1f0eda-bb6b-4c68-85d6-e488519adb72","system_id":"levelo_inurba_marseille","lat":43.23967,"lon":5.36633,"is_reserved":false,"is_disabled":false,"rental_uris":{"android":"levelo://app?vid=3c1f0eda-bb6b-4c68-85d6-e488519adb72","ios":"levelo://app?vid=3c1f0eda-bb6b-4c68-85d6-e488519adb72"},"vehicle_type_id":"4","last_reported":1739798298,"current_range_meters":3600,"station_id":"ce4bhi12rcd13ifvqfp0","pricing_plan_id":"cebpf4jnsgd1na2vs0mg"},{"bike_id":"18332cc9-0f16-4941-9018-c3813354a900","system_id":"levelo_inurba_marseille","lat":43.27627,"lon":5.39342,"is_reserved":false,"is_disabled":true,"rental_uris":{"android":"levelo://app?vid=18332cc9-0f16-4941-9018-c3813354a900","ios":"levelo://app?vid=18332cc9-0f16-4941-9018-c3813354a900"},"vehicle_type_id":"4","last_reported":1739798298,"current_range_meters":3600,"station_id":"","pricing_plan_id":"cebpf4jnsgd1na2vs0mg"},{"bike_id":"cf805522-c938-4f56-bfe1-10e8ddd9c228","system_id":"levelo_inurba_marseille","lat":43.241796,"lon":5.397329,"is_reserved":false,"is_disabled":false,"rental_uris":{"android":"levelo://app?vid=cf805522-c938-4f56-bfe1-10e8ddd9c228","ios":"levelo://app?vid=cf805522-c938-4f56-bfe1-10e8ddd9c228"},"vehicle_type_id":"4","last_reported":1739798298,"current_range_meters":4000,"station_id":"ce4bhn12rcd13ifvqgpg","pricing_plan_id":"cebpf4jnsgd1na2vs0mg"},{"bike_id":"1f54a3d6-03b1-4265-8e45-3df12fe2c9b2","system_id":"levelo_inurba_marseille","lat":43.25037,"lon":5.38934,"is_reserved":false,"is_disabled":false,"rental_uris":{"android":"levelo://app?vid=1f54a3d6-03b1-4265-8e45-3df12fe2c9b2","ios":"levelo://app?vid=1f54a3d6-03b1-4265-8e45-3df12fe2c9b2"},"vehicle_type_id":"4","last_reported":1739798298,"current_range_meters":4000,"station_id":"ce4bhgp2rcd13ifvqfd0","pricing_plan_id":"cebpf4jnsgd1na2vs0mg"},{"bike_id":"36e7808e-bbd2-4a51-a14b-f7f0fb6e293a","system_id":"levelo_inurba_marseille","lat":43.27995,"lon":5.40003,"is_reserved":false,"is_disabled":false,"rental_uris":{"android":"levelo://app?vid=36e7808e-bbd2-4a51-a14b-f7f0fb6e293a","ios":"levelo://app?vid=36e7808e-bbd2-4a51-a14b-f7f0fb6e293a"},"vehicle_type_id":"4","last_reported":1739798298,"current_range_meters":4000,"station_id":"ce4bho92rcd13ifvqh4g","pricing_plan_id":"cebpf4jnsgd1na2vs0mg"},{"bike_id":"195de0eb-7f44-4be2-b666-380d7bfc425c","system_id":"levelo_inurba_marseille","lat":43.23199,"lon":5.40014,"is_reserved":false,"is_disabled":false,"rental_uris":{"android":"levelo://app?vid=195de0eb-7f44-4be2-b666-380d7bfc425c","ios":"levelo://app?vid=195de0eb-7f44-4be2-b666-380d7bfc425c"},"vehicle_type_id":"4","last_reported":1739798298,"current_range_meters":4400,"station_id":"ce4bhn12rcd13ifvqgqg","pricing_plan_id":"cebpf4jnsgd1na2vs0mg"},{"bike_id":"8508cfa7-4e72-4c47-bb34-ec11950cc4f3","system_id":"levelo_inurba_marseille","lat":43.24077,"lon":5.37766,"is_reserved":false,"is_disabled":false,"rental_uris":{"android":"levelo://app?vid=8508cfa7-4e72-4c47-bb34-ec11950cc4f3","ios":"levelo://app?vid=8508cfa7-4e72-4c47-bb34-ec11950cc4f3"},"vehicle_type_id":"4","last_reported":1739798298,"current_range_meters":4400,"station_id":"ce4bhnp2rcd13ifvqgvg","pricing_plan_id":"cebpf4jnsgd1na2vs0mg"},{"bike_id":"b30b40ce-7d81-4ac7-a58f-45a7af8d4eba","system_id":"levelo_inurba_marseille","lat":43.278153,"lon":5.407207,"is_reserved":false,"is_disabled":false,"rental_uris":{"android":"levelo://app?vid=b30b40ce-7d81-4ac7-a58f-45a7af8d4eba","ios":"levelo://app?vid=b30b40ce-7d81-4ac7-a58f-45a7af8d4eba"},"vehicle_type_id":"4","last_reported":1739798298,"current_range_meters":4400,"station_id":"","pricing_plan_id":"cebpf4jnsgd1na2vs0mg"},{"bike_id":"36731310-3cff-4691-98c1-21f705b5fae8","system_id":"levelo_inurba_marseille","lat":43.25864,"lon":5.3991,"is_reserved":false,"is_disabled":false,"rental_uris":{"android":"levelo://app?vid=36731310-3cff-4691-98c1-21f705b5fae8","ios":"levelo://app?vid=36731310-3cff-4691-98c1-21f705b5fae8"},"vehicle_type_id":"4","last_reported":1739798298,"current_range_meters":4800,"station_id":"ce4bhl92rcd13ifvqghg","pricing_plan_id":"cebpf4jnsgd1na2vs0mg"},{"bike_id":"541e5230-d383-4a10-aae1-56671011baa5","system_id":"levelo_inurba_marseille","lat":43.239662,"lon":5.366328,"is_reserved":false,"is_disabled":false,"rental_uris":{"android":"levelo://app?vid=541e5230-d383-4a10-aae1-56671011baa5","ios":"levelo://app?vid=541e5230-d383-4a10-aae1-56671011baa5"},"vehicle_type_id":"4","last_reported":1739798298,"current_range_meters":4800,"station_id":"","pricing_plan_id":"cebpf4jnsgd1na2vs0mg"},{"bike_id":"cab84c5e-f01e-4466-be72-25f56473e679","system_id":"levelo_inurba_marseille","lat":43.31133,"lon":5.37765,"is_reserved":false,"is_disabled":false,"rental_uris":{"android":"levelo://app?vid=cab84c5e-f01e-4466-be72-25f56473e679","ios":"levelo://app?vid=cab84c5e-f01e-4466-be72-25f56473e679"},"vehicle_type_id":"4","last_reported":1739798298,"current_range_meters":4800,"station_id":"ce4bgt92rcd13ifvqcg0","pricing_plan_id":"cebpf4jnsgd1na2vs0mg"},{"bike_id":"5221f4c0-9f1c-498e-86bd-57456c79685e","system_id":"levelo_inurba_marseille","lat":43.32125,"lon":5.36778,"is_reserved":false,"is_disabled":false,"rental_uris":{"android":"levelo://app?vid=5221f4c0-9f1c-498e-86bd-57456c79685e","ios":"levelo://app?vid=5221f4c0-9f1c-498e-86bd-57456c79685e"},"vehicle_type_id":"4","last_reported":1739798298,"current_range_meters":4800,"station_id":"ce4bhrh2rcd13ifvqhug","pricing_plan_id":"cebpf4jnsgd1na2vs0mg"},{"bike_id":"df60d901-b3b1-42f8-a6b8-db98e79a5081","system_id":"levelo_inurba_marseille","lat":43.25821,"lon":5.39425,"is_reserved":false,"is_disabled":false,"rental_uris":{"android":"levelo://app?vid=df60d901-b3b1-42f8-a6b8-db98e79a5081","ios":"levelo://app?vid=df60d901-b3b1-42f8-a6b8-db98e79a5081"},"vehicle_type_id":"4","last_reported":1739798298,"current_range_meters":4800,"station_id":"ce4bhip2rcd13ifvqft0","pricing_plan_id":"cebpf4jnsgd1na2vs0mg"},{"bike_id":"4e7beed8-3f51-4c59-a37c-0ac46140a818","system_id":"levelo_inurba_marseille","lat":43.26942,"lon":5.38634,"is_reserved":false,"is_disabled":true,"rental_uris":{"android":"levelo://app?vid=4e7beed8-3f51-4c59-a37c-0ac46140a818","ios":"levelo://app?vid=4e7beed8-3f51-4c59-a37c-0ac46140a818"},"vehicle_type_id":"4","last_reported":1739798298,"current_range_meters":4800,"station_id":"","pricing_plan_id":"cebpf4jnsgd1na2vs0mg"},{"bike_id":"30533a0a-631b-427c-a656-6965d4c35b8c","system_id":"levelo_inurba_marseille","lat":43.294525,"lon":5.385838,"is_reserved":false,"is_disabled":false,"rental_uris":{"android":"levelo://app?vid=30533a0a-631b-427c-a656-6965d4c35b8c","ios":"levelo://app?vid=30533a0a-631b-427c-a656-6965d4c35b8c"},"vehicle_type_id":"4","last_reported":1739798298,"current_range_meters":4800,"station_id":"ce4bho92rcd13ifvqh4g","pricing_plan_id":"cebpf4jnsgd1na2vs0mg"},{"bike_id":"d4b71f29-7708-4339-a34e-24fb64c437c3","system_id":"levelo_inurba_marseille","lat":43.288483,"lon":5.393249,"is_reserved":false,"is_disabled":false,"rental_uris":{"android":"levelo://app?vid=d4b71f29-7708-4339-a34e-24fb64c437c3","ios":"levelo://app?vid=d4b71f29-7708-4339-a34e-24fb64c437c3"},"vehicle_type_id":"4","last_reported":1739798298,"current_range_meters":5600,"station_id":"ce4bgvh2rcd13ifvqcs0","pricing_plan_id":"cebpf4jnsgd1na2vs0mg"},{"bike_id":"8dcf7f31-320d-40b1-8f0c-2b34885febe4","system_id":"levelo_inurba_marseille","lat":43.27049,"lon":5.40274,"is_reserved":false,"is_disabled":false,"rental_uris":{"android":"levelo://app?vid=8dcf7f31-320d-40b1-8f0c-2b34885febe4","ios":"levelo://app?vid=8dcf7f31-320d-40b1-8f0c-2b34885febe4"},"vehicle_type_id":"4","last_reported":1739798298,"current_range_meters":6000,"station_id":"ce4bhk92rcd13ifvqgc0","pricing_plan_id":"cebpf4jnsgd1na2vs0mg"},{"bike_id":"6cd21724-e8e2-477a-a447-a8294202085b","system_id":"levelo_inurba_marseille","lat":43.32255,"lon":5.3923,"is_reserved":false,"is_disabled":false,"rental_uris":{"android":"levelo://app?vid=6cd21724-e8e2-477a-a447-a8294202085b","ios":"levelo://app?vid=6cd21724-e8e2-477a-a447-a8294202085b"},"vehicle_type_id":"4","last_reported":1739798298,"current_range_meters":6400,"station_id":"ce4bhr92rcd13ifvqhrg","pricing_plan_id":"cebpf4jnsgd1na2vs0mg"},{"bike_id":"d91e5174-ec9b-4eac-ac1c-c13c307c2853","system_id":"levelo_inurba_marseille","lat":43.25008,"lon":5.38928,"is_reserved":false,"is_disabled":false,"rental_uris":{"android":"levelo://app?vid=d91e5174-ec9b-4eac-ac1c-c13c307c2853","ios":"levelo://app?vid=d91e5174-ec9b-4eac-ac1c-c13c307c2853"},"vehicle_type_id":"4","last_reported":1739798298,"current_range_meters":6400,"station_id":"","pricing_plan_id":"cebpf4jnsgd1na2vs0mg"},{"bike_id":"e8472be3-5482-4ab6-9059-b45851ddd8b9","system_id":"levelo_inurba_marseille","lat":43.25494,"lon":5.37654,"is_reserved":false,"is_disabled":false,"rental_uris":{"android":"levelo://app?vid=e8472be3-5482-4ab6-9059-b45851ddd8b9","ios":"levelo://app?vid=e8472be3-5482-4ab6-9059-b45851ddd8b9"},"vehicle_type_id":"4","last_reported":1739798298,"current_range_meters":6400,"station_id":"ce4bhh12rcd13ifvqff0","pricing_plan_id":"cebpf4jnsgd1na2vs0mg"},{"bike_id":"6b21d320-52d0-422d-a96b-25dc166ffb72","system_id":"levelo_inurba_marseille","lat":43.30442,"lon":5.41269,"is_reserved":false,"is_disabled":true,"rental_uris":{"android":"levelo://app?vid=6b21d320-52d0-422d-a96b-25dc166ffb72","ios":"levelo://app?vid=6b21d320-52d0-422d-a96b-25dc166ffb72"},"vehicle_type_id":"4","last_reported":1739798298,"current_range_meters":6400,"station_id":"ce4bhop2rcd13ifvqh8g","pricing_plan_id":"cebpf4jnsgd1na2vs0mg"},{"bike_id":"65cac0ef-eaf9-44f6-b122-60ddb0499a0b","system_id":"levelo_inurba_marseille","lat":43.29558,"lon":5.42305,"is_reserved":false,"is_disabled":false,"rental_uris":{"android":"levelo://app?vid=65cac0ef-eaf9-44f6-b122-60ddb0499a0b","ios":"levelo://app?vid=65cac0ef-eaf9-44f6-b122-60ddb0499a0b"},"vehicle_type_id":"4","last_reported":1739798298,"current_range_meters":6800,"station_id":"ce4bhph2rcd13ifvqhdg","pricing_plan_id":"cebpf4jnsgd1na2vs0mg"},{"bike_id":"d44236ba-71a5-47f7-b336-30d61a0779fa","system_id":"levelo_inurba_marseille","lat":43.24177,"lon":5.3974,"is_reserved":false,"is_disabled":false,"rental_uris":{"android":"levelo://app?vid=d44236ba-71a5-47f7-b336-30d61a0779fa","ios":"levelo://app?vid=d44236ba-71a5-47f7-b336-30d61a0779fa"},"vehicle_type_id":"4","last_reported":1739798298,"current_range_meters":6800,"station_id":"ce4bhn12rcd13ifvqgpg","pricing_plan_id":"cebpf4jnsgd1na2vs0mg"},{"bike_id":"1d6f5a5a-bf78-4d12-91e4-6dc8a2b7ed98","system_id":"levelo_inurba_marseille","lat":43.27476,"lon":5.42458,"is_reserved":false,"is_disabled":true,"rental_uris":{"android":"levelo://app?vid=1d6f5a5a-bf78-4d12-91e4-6dc8a2b7ed98","ios":"levelo://app?vid=1d6f5a5a-bf78-4d12-91e4-6dc8a2b7ed98"},"vehicle_type_id":"4","last_reported":1739798298,"current_range_meters":6800,"station_id":"ce4bhn92rcd13ifvqgrg","pricing_plan_id":"cebpf4jnsgd1na2vs0mg"},{"bike_id":"37985d1e-58e4-447a-a26a-66e367254631","system_id":"levelo_inurba_marseille","lat":43.25001,"lon":5.38937,"is_reserved":false,"is_disabled":false,"rental_uris":{"android":"levelo://app?vid=37985d1e-58e4-447a-a26a-66e367254631","ios":"levelo://app?vid=37985d1e-58e4-447a-a26a-66e367254631"},"vehicle_type_id":"4","last_reported":1739798298,"current_range_meters":6800,"station_id":"","pricing_plan_id":"cebpf4jnsgd1na2vs0mg"},{"bike_id":"c6a2e1a4-94ef-4064-8f9e-774f190fb8ec","system_id":"levelo_inurba_marseille","lat":43.26221,"lon":5.40452,"is_reserved":false,"is_disabled":false,"rental_uris":{"android":"levelo://app?vid=c6a2e1a4-94ef-4064-8f9e-774f190fb8ec","ios":"levelo://app?vid=c6a2e1a4-94ef-4064-8f9e-774f190fb8ec"},"vehicle_type_id":"4","last_reported":1739798298,"current_range_meters":7200,"station_id":"ce4bhmh2rcd13ifvqgmg","pricing_plan_id":"cebpf4jnsgd1na2vs0mg"},{"bike_id":"c4916927-7d10-4eb6-bf80-df6fa900d439","system_id":"levelo_inurba_marseille","lat":43.29548,"lon":5.42296,"is_reserved":false,"is_disabled":true,"rental_uris":{"android":"levelo://app?vid=c4916927-7d10-4eb6-bf80-df6fa900d439","ios":"levelo://app?vid=c4916927-7d10-4eb6-bf80-df6fa900d439"},"vehicle_type_id":"4","last_reported":1739798298,"current_range_meters":7200,"station_id":"ce4bhph2rcd13ifvqhdg","pricing_plan_id":"cebpf4jnsgd1na2vs0mg"},{"bike_id":"ce61429a-686f-445d-80d9-4b10876ed4ef","system_id":"levelo_inurba_marseille","lat":43.337444,"lon":5.374475,"is_reserved":false,"is_disabled":true,"rental_uris":{"android":"levelo://app?vid=ce61429a-686f-445d-80d9-4b10876ed4ef","ios":"levelo://app?vid=ce61429a-686f-445d-80d9-4b10876ed4ef"},"vehicle_type_id":"4","last_reported":1739798298,"current_range_meters":7200,"station_id":"","pricing_plan_id":"cebpf4jnsgd1na2vs0mg"},{"bike_id":"dbacb8fc-5c3a-48a0-aaab-a7cae7fa2d46","system_id":"levelo_inurba_marseille","lat":43.29579,"lon":5.3812,"is_reserved":false,"is_disabled":false,"rental_uris":{"android":"levelo://app?vid=dbacb8fc-5c3a-48a0-aaab-a7cae7fa2d46","ios":"levelo://app?vid=dbacb8fc-5c3a-48a0-aaab-a7cae7fa2d46"},"vehicle_type_id":"4","last_reported":1739798298,"current_range_meters":7200,"station_id":"ce4bgl12rcd13ifvqbo0","pricing_plan_id":"cebpf4jnsgd1na2vs0mg"},{"bike_id":"b259ec2f-3a85-43df-9379-f97beaa6b6db","system_id":"levelo_inurba_marseille","lat":43.29974,"lon":5.37122,"is_reserved":false,"is_disabled":false,"rental_uris":{"android":"levelo://app?vid=b259ec2f-3a85-43df-9379-f97beaa6b6db","ios":"levelo://app?vid=b259ec2f-3a85-43df-9379-f97beaa6b6db"},"vehicle_type_id":"4","last_reported":1739798298,"current_range_meters":8000,"station_id":"","pricing_plan_id":"cebpf4jnsgd1na2vs0mg"},{"bike_id":"68c9ec09-efa3-42b7-9d9b-298456b6ded4","system_id":"levelo_inurba_marseille","lat":43.30469,"lon":5.36959,"is_reserved":false,"is_disabled":false,"rental_uris":{"android":"levelo://app?vid=68c9ec09-efa3-42b7-9d9b-298456b6ded4","ios":"levelo://app?vid=68c9ec09-efa3-42b7-9d9b-298456b6ded4"},"vehicle_type_id":"4","last_reported":1739798298,"current_range_meters":8000,"station_id":"","pricing_plan_id":"cebpf4jnsgd1na2vs0mg"},{"bike_id":"b141a526-1b05-4d9f-8317-0d9dc49d567c","system_id":"levelo_inurba_marseille","lat":43.27945,"lon":5.41056,"is_reserved":false,"is_disabled":false,"rental_uris":{"android":"levelo://app?vid=b141a526-1b05-4d9f-8317-0d9dc49d567c","ios":"levelo://app?vid=b141a526-1b05-4d9f-8317-0d9dc49d567c"},"vehicle_type_id":"4","last_reported":1739798298,"current_range_meters":8000,"station_id":"ce4bhnp2rcd13ifvqh0g","pricing_plan_id":"cebpf4jnsgd1na2vs0mg"},{"bike_id":"4089f1a0-cd12-42d3-a6c3-01d445970a86","system_id":"levelo_inurba_marseille","lat":43.31274,"lon":5.37436,"is_reserved":false,"is_disabled":false,"rental_uris":{"android":"levelo://app?vid=4089f1a0-cd12-42d3-a6c3-01d445970a86","ios":"levelo://app?vid=4089f1a0-cd12-42d3-a6c3-01d445970a86"},"vehicle_type_id":"4","last_reported":1739798298,"current_range_meters":8000,"station_id":"","pricing_plan_id":"cebpf4jnsgd1na2vs0mg"},{"bike_id":"3a9a968d-dcc9-4ffb-90af-aadcb8469a1d","system_id":"levelo_inurba_marseille","lat":43.32239,"lon":5.39405,"is_reserved":false,"is_disabled":false,"rental_uris":{"android":"levelo://app?vid=3a9a968d-dcc9-4ffb-90af-aadcb8469a1d","ios":"levelo://app?vid=3a9a968d-dcc9-4ffb-90af-aadcb8469a1d"},"vehicle_type_id":"4","last_reported":1739798298,"current_range_meters":8000,"station_id":"","pricing_plan_id":"cebpf4jnsgd1na2vs0mg"},{"bike_id":"08fd3000-d744-4373-a10c-e2b50e170313","system_id":"levelo_inurba_marseille","lat":43.28566,"lon":5.39495,"is_reserved":false,"is_disabled":false,"rental_uris":{"android":"levelo://app?vid=08fd3000-d744-4373-a10c-e2b50e170313","ios":"levelo://app?vid=08fd3000-d744-4373-a10c-e2b50e170313"},"vehicle_type_id":"4","last_reported":1739798298,"current_range_meters":8000,"station_id":"ce4bh292rcd13ifvqdg0","pricing_plan_id":"cebpf4jnsgd1na2vs0mg"},{"bike_id":"d002827a-6b99-4cd2-b820-80cdcaccbad3","system_id":"levelo_inurba_marseille","lat":43.2909,"lon":5.38125,"is_reserved":false,"is_disabled":false,"rental_uris":{"android":"levelo://app?vid=d002827a-6b99-4cd2-b820-80cdcaccbad3","ios":"levelo://app?vid=d002827a-6b99-4cd2-b820-80cdcaccbad3"},"vehicle_type_id":"4","last_reported":1739798298,"current_range_meters":8000,"station_id":"ce4bh512rcd13ifvqe2g","pricing_plan_id":"cebpf4jnsgd1na2vs0mg"},{"bike_id":"2b51147d-1f92-480b-a06a-e9b8532cd66d","system_id":"levelo_inurba_marseille","lat":43.27988,"lon":5.41662,"is_reserved":false,"is_disabled":false,"rental_uris":{"android":"levelo://app?vid=2b51147d-1f92-480b-a06a-e9b8532cd66d","ios":"levelo://app?vid=2b51147d-1f92-480b-a06a-e9b8532cd66d"},"vehicle_type_id":"4","last_reported":1739798298,"current_range_meters":8000,"station_id":"ce4bho12rcd13ifvqh1g","pricing_plan_id":"cebpf4jnsgd1na2vs0mg"},{"bike_id":"b7962d4c-eed7-4d40-9024-48cf4af0320d","system_id":"levelo_inurba_marseille","lat":43.27687,"lon":5.38887,"is_reserved":false,"is_disabled":false,"rental_uris":{"android":"levelo://app?vid=b7962d4c-eed7-4d40-9024-48cf4af0320d","ios":"levelo://app?vid=b7962d4c-eed7-4d40-9024-48cf4af0320d"},"vehicle_type_id":"4","last_reported":1739798298,"current_range_meters":8000,"station_id":"ce4bhi12rcd13ifvqfo0","pricing_plan_id":"cebpf4jnsgd1na2vs0mg"},{"bike_id":"33a2f713-59cf-4dee-bd5e-cf5438338de0","system_id":"levelo_inurba_marseille","lat":43.304669,"lon":5.36971,"is_reserved":false,"is_disabled":false,"rental_uris":{"android":"levelo://app?vid=33a2f713-59cf-4dee-bd5e-cf5438338de0","ios":"levelo://app?vid=33a2f713-59cf-4dee-bd5e-cf5438338de0"},"vehicle_type_id":"4","last_reported":1739798298,"current_range_meters":8000,"station_id":"","pricing_plan_id":"cebpf4jnsgd1na2vs0mg"},{"bike_id":"66b5b6a2-b669-4429-9fe4-2c9c93ac786f","system_id":"levelo_inurba_marseille","lat":43.29432,"lon":5.38605,"is_reserved":false,"is_disabled":false,"rental_uris":{"android":"levelo://app?vid=66b5b6a2-b669-4429-9fe4-2c9c93ac786f","ios":"levelo://app?vid=66b5b6a2-b669-4429-9fe4-2c9c93ac786f"},"vehicle_type_id":"4","last_reported":1739798298,"current_range_meters":8400,"station_id":"ce4bh2h2rcd13ifvqdh0","pricing_plan_id":"cebpf4jnsgd1na2vs0mg"},{"bike_id":"6093cebd-6528-4123-aeaa-f90f90742c12","system_id":"levelo_inurba_marseille","lat":43.28694,"lon":5.39975,"is_reserved":false,"is_disabled":false,"rental_uris":{"android":"levelo://app?vid=6093cebd-6528-4123-aeaa-f90f90742c12","ios":"levelo://app?vid=6093cebd-6528-4123-aeaa-f90f90742c12"},"vehicle_type_id":"4","last_reported":1739798298,"current_range_meters":8400,"station_id":"ce4bho92rcd13ifvqh3g","pricing_plan_id":"cebpf4jnsgd1na2vs0mg"},{"bike_id":"4eb69801-1a62-4997-8eb6-382739a2e33e","system_id":"levelo_inurba_marseille","lat":43.28672,"lon":5.38661,"is_reserved":false,"is_disabled":false,"rental_uris":{"android":"levelo://app?vid=4eb69801-1a62-4997-8eb6-382739a2e33e","ios":"levelo://app?vid=4eb69801-1a62-4997-8eb6-382739a2e33e"},"vehicle_type_id":"4","last_reported":1739798298,"current_range_meters":8000,"station_id":"ce4bh492rcd13ifvqdug","pricing_plan_id":"cebpf4jnsgd1na2vs0mg"},{"bike_id":"533511e5-f8bd-4758-a1c5-1869d94301bb","system_id":"levelo_inurba_marseille","lat":43.30206,"lon":5.39466,"is_reserved":false,"is_disabled":false,"rental_uris":{"android":"levelo://app?vid=533511e5-f8bd-4758-a1c5-1869d94301bb","ios":"levelo://app?vid=533511e5-f8bd-4758-a1c5-1869d94301bb"},"vehicle_type_id":"4","last_reported":1739798298,"current_range_meters":8400,"station_id":"ce4bh0p2rcd13ifvqd70","pricing_plan_id":"cebpf4jnsgd1na2vs0mg"},{"bike_id":"1028d825-a809-400b-a433-b2f52b266986","system_id":"levelo_inurba_marseille","lat":43.30951,"lon":5.37924,"is_reserved":false,"is_disabled":false,"rental_uris":{"android":"levelo://app?vid=1028d825-a809-400b-a433-b2f52b266986","ios":"levelo://app?vid=1028d825-a809-400b-a433-b2f52b266986"},"vehicle_type_id":"4","last_reported":1739798298,"current_range_meters":8400,"station_id":"","pricing_plan_id":"cebpf4jnsgd1na2vs0mg"},{"bike_id":"2420c121-c082-41fe-9256-9209689167cc","system_id":"levelo_inurba_marseille","lat":43.25092,"lon":5.39504,"is_reserved":false,"is_disabled":false,"rental_uris":{"android":"levelo://app?vid=2420c121-c082-41fe-9256-9209689167cc","ios":"levelo://app?vid=2420c121-c082-41fe-9256-9209689167cc"},"vehicle_type_id":"4","last_reported":1739798298,"current_range_meters":8800,"station_id":"ce4bhm12rcd13ifvqgkg","pricing_plan_id":"cebpf4jnsgd1na2vs0mg"},{"bike_id":"60e48e3f-1097-44c1-9d09-4ac070f15538","system_id":"levelo_inurba_marseille","lat":43.27066,"lon":5.42269,"is_reserved":false,"is_disabled":false,"rental_uris":{"android":"levelo://app?vid=60e48e3f-1097-44c1-9d09-4ac070f15538","ios":"levelo://app?vid=60e48e3f-1097-44c1-9d09-4ac070f15538"},"vehicle_type_id":"4","last_reported":1739798298,"current_range_meters":8400,"station_id":"ce4bhk92rcd13ifvqgb0","pricing_plan_id":"cebpf4jnsgd1na2vs0mg"},{"bike_id":"9f72b035-42cd-4ed2-9def-93c83a040988","system_id":"levelo_inurba_marseille","lat":43.240747,"lon":5.377444,"is_reserved":false,"is_disabled":false,"rental_uris":{"android":"levelo://app?vid=9f72b035-42cd-4ed2-9def-93c83a040988","ios":"levelo://app?vid=9f72b035-42cd-4ed2-9def-93c83a040988"},"vehicle_type_id":"4","last_reported":1739798298,"current_range_meters":8800,"station_id":"ce4bhnp2rcd13ifvqgvg","pricing_plan_id":"cebpf4jnsgd1na2vs0mg"},{"bike_id":"2b278cf2-594f-4230-8154-882e1df047f2","system_id":"levelo_inurba_marseille","lat":43.24084,"lon":5.37735,"is_reserved":false,"is_disabled":false,"rental_uris":{"android":"levelo://app?vid=2b278cf2-594f-4230-8154-882e1df047f2","ios":"levelo://app?vid=2b278cf2-594f-4230-8154-882e1df047f2"},"vehicle_type_id":"4","last_reported":1739798298,"current_range_meters":8800,"station_id":"ce4bhnp2rcd13ifvqgvg","pricing_plan_id":"cebpf4jnsgd1na2vs0mg"},{"bike_id":"0217c938-d85d-45be-94b8-08b415250c20","system_id":"levelo_inurba_marseille","lat":43.26944,"lon":5.38943,"is_reserved":false,"is_disabled":true,"rental_uris":{"android":"levelo://app?vid=0217c938-d85d-45be-94b8-08b415250c20","ios":"levelo://app?vid=0217c938-d85d-45be-94b8-08b415250c20"},"vehicle_type_id":"4","last_reported":1739798298,"current_range_meters":8800,"station_id":"ce4bhhh2rcd13ifvqfl0","pricing_plan_id":"cebpf4jnsgd1na2vs0mg"},{"bike_id":"b5d17f81-147a-4b98-9222-81f58da27bdf","system_id":"levelo_inurba_marseille","lat":43.25584,"lon":5.38229,"is_reserved":false,"is_disabled":false,"rental_uris":{"android":"levelo://app?vid=b5d17f81-147a-4b98-9222-81f58da27bdf","ios":"levelo://app?vid=b5d17f81-147a-4b98-9222-81f58da27bdf"},"vehicle_type_id":"4","last_reported":1739798298,"current_range_meters":9200,"station_id":"ce4bhih2rcd13ifvqfs0","pricing_plan_id":"cebpf4jnsgd1na2vs0mg"},{"bike_id":"ce7eb203-df1a-4323-a126-50fb5e9416e8","system_id":"levelo_inurba_marseille","lat":43.25004,"lon":5.38921,"is_reserved":false,"is_disabled":false,"rental_uris":{"android":"levelo://app?vid=ce7eb203-df1a-4323-a126-50fb5e9416e8","ios":"levelo://app?vid=ce7eb203-df1a-4323-a126-50fb5e9416e8"},"vehicle_type_id":"4","last_reported":1739798298,"current_range_meters":9200,"station_id":"ce4bhgp2rcd13ifvqfd0","pricing_plan_id":"cebpf4jnsgd1na2vs0mg"},{"bike_id":"249925dc-9855-44a5-b66b-23a8629209a2","system_id":"levelo_inurba_marseille","lat":43.27947,"lon":5.41057,"is_reserved":false,"is_disabled":false,"rental_uris":{"android":"levelo://app?vid=249925dc-9855-44a5-b66b-23a8629209a2","ios":"levelo://app?vid=249925dc-9855-44a5-b66b-23a8629209a2"},"vehicle_type_id":"4","last_reported":1739798298,"current_range_meters":9200,"station_id":"ce4bhnp2rcd13ifvqh0g","pricing_plan_id":"cebpf4jnsgd1na2vs0mg"},{"bike_id":"93cfa947-fe17-4dab-ad2d-b62d32402ea7","system_id":"levelo_inurba_marseille","lat":43.2669,"lon":5.38266,"is_reserved":false,"is_disabled":false,"rental_uris":{"android":"levelo://app?vid=93cfa947-fe17-4dab-ad2d-b62d32402ea7","ios":"levelo://app?vid=93cfa947-fe17-4dab-ad2d-b62d32402ea7"},"vehicle_type_id":"4","last_reported":1739798298,"current_range_meters":6800,"station_id":"ce4bhg92rcd13ifvqf90","pricing_plan_id":"cebpf4jnsgd1na2vs0mg"},{"bike_id":"30fe6385-92b9-4b96-9ceb-8a7e55699a18","system_id":"levelo_inurba_marseille","lat":43.29007,"lon":5.35609,"is_reserved":false,"is_disabled":false,"rental_uris":{"android":"levelo://app?vid=30fe6385-92b9-4b96-9ceb-8a7e55699a18","ios":"levelo://app?vid=30fe6385-92b9-4b96-9ceb-8a7e55699a18"},"vehicle_type_id":"4","last_reported":1739798298,"current_range_meters":9200,"station_id":"ce4bhb92rcd13ifvqen0","pricing_plan_id":"cebpf4jnsgd1na2vs0mg"},{"bike_id":"61d21a7f-e930-499d-84bd-f3a8dea6e79b","system_id":"levelo_inurba_marseille","lat":43.24661,"lon":5.38899,"is_reserved":false,"is_disabled":false,"rental_uris":{"android":"levelo://app?vid=61d21a7f-e930-499d-84bd-f3a8dea6e79b","ios":"levelo://app?vid=61d21a7f-e930-499d-84bd-f3a8dea6e79b"},"vehicle_type_id":"4","last_reported":1739798298,"current_range_meters":9200,"station_id":"ce4bhg12rcd13ifvqf60","pricing_plan_id":"cebpf4jnsgd1na2vs0mg"},{"bike_id":"33b2f53e-b70b-4755-a9bd-161272f15b89","system_id":"levelo_inurba_marseille","lat":43.29636,"lon":5.3803,"is_reserved":false,"is_disabled":false,"rental_uris":{"android":"levelo://app?vid=33b2f53e-b70b-4755-a9bd-161272f15b89","ios":"levelo://app?vid=33b2f53e-b70b-4755-a9bd-161272f15b89"},"vehicle_type_id":"4","last_reported":1739798298,"current_range_meters":9200,"station_id":"","pricing_plan_id":"cebpf4jnsgd1na2vs0mg"},{"bike_id":"8ed4f90e-e247-45c7-82a3-86ba1a83ee22","system_id":"levelo_inurba_marseille","lat":43.28157,"lon":5.4264,"is_reserved":false,"is_disabled":false,"rental_uris":{"android":"levelo://app?vid=8ed4f90e-e247-45c7-82a3-86ba1a83ee22","ios":"levelo://app?vid=8ed4f90e-e247-45c7-82a3-86ba1a83ee22"},"vehicle_type_id":"4","last_reported":1739798298,"current_range_meters":9600,"station_id":"","pricing_plan_id":"cebpf4jnsgd1na2vs0mg"},{"bike_id":"71af5cb3-17fa-4fc8-a8ea-f2c475db18c6","system_id":"levelo_inurba_marseille","lat":43.29965,"lon":5.36515,"is_reserved":false,"is_disabled":false,"rental_uris":{"android":"levelo://app?vid=71af5cb3-17fa-4fc8-a8ea-f2c475db18c6","ios":"levelo://app?vid=71af5cb3-17fa-4fc8-a8ea-f2c475db18c6"},"vehicle_type_id":"4","last_reported":1739798298,"current_range_meters":9600,"station_id":"ce4bgm92rcd13ifvqbr0","pricing_plan_id":"cebpf4jnsgd1na2vs0mg"},{"bike_id":"8a49e737-2dba-437e-b0e4-c61d64b4fa11","system_id":"levelo_inurba_marseille","lat":43.24532,"lon":5.39517,"is_reserved":false,"is_disabled":false,"rental_uris":{"android":"levelo://app?vid=8a49e737-2dba-437e-b0e4-c61d64b4fa11","ios":"levelo://app?vid=8a49e737-2dba-437e-b0e4-c61d64b4fa11"},"vehicle_type_id":"4","last_reported":1739798298,"current_range_meters":9600,"station_id":"ce4bhlp2rcd13ifvqgjg","pricing_plan_id":"cebpf4jnsgd1na2vs0mg"},{"bike_id":"a7d986e4-3f8d-4154-b66c-f2238c9edf48","system_id":"levelo_inurba_marseille","lat":43.29872,"lon":5.39741,"is_reserved":false,"is_disabled":false,"rental_uris":{"android":"levelo://app?vid=a7d986e4-3f8d-4154-b66c-f2238c9edf48","ios":"levelo://app?vid=a7d986e4-3f8d-4154-b66c-f2238c9edf48"},"vehicle_type_id":"4","last_reported":1739798298,"current_range_meters":9600,"station_id":"ce4bh0h2rcd13ifvqd50","pricing_plan_id":"cebpf4jnsgd1na2vs0mg"},{"bike_id":"65a36bf8-d927-443e-bdd7-b23e6c691214","system_id":"levelo_inurba_marseille","lat":43.24132,"lon":5.39732,"is_reserved":false,"is_disabled":false,"rental_uris":{"android":"levelo://app?vid=65a36bf8-d927-443e-bdd7-b23e6c691214","ios":"levelo://app?vid=65a36bf8-d927-443e-bdd7-b23e6c691214"},"vehicle_type_id":"4","last_reported":1739798298,"current_range_meters":9600,"station_id":"ce4bhn12rcd13ifvqgpg","pricing_plan_id":"cebpf4jnsgd1na2vs0mg"},{"bike_id":"a1c81209-9637-4c0d-b61c-bb95f8bec12f","system_id":"levelo_inurba_marseille","lat":43.28006,"lon":5.400041,"is_reserved":false,"is_disabled":false,"rental_uris":{"android":"levelo://app?vid=a1c81209-9637-4c0d-b61c-bb95f8bec12f","ios":"levelo://app?vid=a1c81209-9637-4c0d-b61c-bb95f8bec12f"},"vehicle_type_id":"4","last_reported":1739798298,"current_range_meters":9600,"station_id":"ce4bho92rcd13ifvqh4g","pricing_plan_id":"cebpf4jnsgd1na2vs0mg"},{"bike_id":"4b313577-3405-489c-be9d-5466249d823a","system_id":"levelo_inurba_marseille","lat":43.25002,"lon":5.38922,"is_reserved":false,"is_disabled":false,"rental_uris":{"android":"levelo://app?vid=4b313577-3405-489c-be9d-5466249d823a","ios":"levelo://app?vid=4b313577-3405-489c-be9d-5466249d823a"},"vehicle_type_id":"4","last_reported":1739798298,"current_range_meters":10000,"station_id":"ce4bhgp2rcd13ifvqfd0","pricing_plan_id":"cebpf4jnsgd1na2vs0mg"},{"bike_id":"2c9700ea-057b-4786-a86f-c93de6d53138","system_id":"levelo_inurba_marseille","lat":43.27189,"lon":5.4047,"is_reserved":false,"is_disabled":false,"rental_uris":{"android":"levelo://app?vid=2c9700ea-057b-4786-a86f-c93de6d53138","ios":"levelo://app?vid=2c9700ea-057b-4786-a86f-c93de6d53138"},"vehicle_type_id":"4","last_reported":1739798298,"current_range_meters":10000,"station_id":"","pricing_plan_id":"cebpf4jnsgd1na2vs0mg"},{"bike_id":"daac048e-560f-4ac4-8253-f428b1e4a640","system_id":"levelo_inurba_marseille","lat":43.24176,"lon":5.39734,"is_reserved":false,"is_disabled":false,"rental_uris":{"android":"levelo://app?vid=daac048e-560f-4ac4-8253-f428b1e4a640","ios":"levelo://app?vid=daac048e-560f-4ac4-8253-f428b1e4a640"},"vehicle_type_id":"4","last_reported":1739798298,"current_range_meters":10000,"station_id":"ce4bhn12rcd13ifvqgpg","pricing_plan_id":"cebpf4jnsgd1na2vs0mg"},{"bike_id":"59ded7b0-a8b6-4def-9cfa-7f57bb4128d1","system_id":"levelo_inurba_marseille","lat":43.28732,"lon":5.36093,"is_reserved":false,"is_disabled":false,"rental_uris":{"android":"levelo://app?vid=59ded7b0-a8b6-4def-9cfa-7f57bb4128d1","ios":"levelo://app?vid=59ded7b0-a8b6-4def-9cfa-7f57bb4128d1"},"vehicle_type_id":"4","last_reported":1739798298,"current_range_meters":10000,"station_id":"cki0cbj6b192h4jlfktg","pricing_plan_id":"cebpf4jnsgd1na2vs0mg"},{"bike_id":"483449cd-31b3-4ec2-a842-2a81f5aafb0a","system_id":"levelo_inurba_marseille","lat":43.337275,"lon":5.391831,"is_reserved":false,"is_disabled":false,"rental_uris":{"android":"levelo://app?vid=483449cd-31b3-4ec2-a842-2a81f5aafb0a","ios":"levelo://app?vid=483449cd-31b3-4ec2-a842-2a81f5aafb0a"},"vehicle_type_id":"4","last_reported":1739798298,"current_range_meters":10000,"station_id":"ce4bhr92rcd13ifvqhsg","pricing_plan_id":"cebpf4jnsgd1na2vs0mg"},{"bike_id":"09d8e7e3-4c41-44b3-abcb-31b4b4a1dfae","system_id":"levelo_inurba_marseille","lat":43.25029,"lon":5.38922,"is_reserved":false,"is_disabled":false,"rental_uris":{"android":"levelo://app?vid=09d8e7e3-4c41-44b3-abcb-31b4b4a1dfae","ios":"levelo://app?vid=09d8e7e3-4c41-44b3-abcb-31b4b4a1dfae"},"vehicle_type_id":"4","last_reported":1739798298,"current_range_meters":10000,"station_id":"ce4bhgp2rcd13ifvqfd0","pricing_plan_id":"cebpf4jnsgd1na2vs0mg"},{"bike_id":"79f62c9d-1f7b-4919-b99c-b3088be87c66","system_id":"levelo_inurba_marseille","lat":43.25007,"lon":5.38931,"is_reserved":false,"is_disabled":false,"rental_uris":{"android":"levelo://app?vid=79f62c9d-1f7b-4919-b99c-b3088be87c66","ios":"levelo://app?vid=79f62c9d-1f7b-4919-b99c-b3088be87c66"},"vehicle_type_id":"4","last_reported":1739798298,"current_range_meters":10000,"station_id":"ce4bhgp2rcd13ifvqfd0","pricing_plan_id":"cebpf4jnsgd1na2vs0mg"},{"bike_id":"506e9171-84b0-4415-9193-58b19ec236bb","system_id":"levelo_inurba_marseille","lat":43.28279,"lon":5.35077,"is_reserved":false,"is_disabled":false,"rental_uris":{"android":"levelo://app?vid=506e9171-84b0-4415-9193-58b19ec236bb","ios":"levelo://app?vid=506e9171-84b0-4415-9193-58b19ec236bb"},"vehicle_type_id":"4","last_reported":1739798298,"current_range_meters":10000,"station_id":"ce4bhbp2rcd13ifvqerg","pricing_plan_id":"cebpf4jnsgd1na2vs0mg"},{"bike_id":"2b127faf-161d-4fde-bf46-a9fb90cb48ac","system_id":"levelo_inurba_marseille","lat":43.26486,"lon":5.39546,"is_reserved":false,"is_disabled":false,"rental_uris":{"android":"levelo://app?vid=2b127faf-161d-4fde-bf46-a9fb90cb48ac","ios":"levelo://app?vid=2b127faf-161d-4fde-bf46-a9fb90cb48ac"},"vehicle_type_id":"4","last_reported":1739798298,"current_range_meters":10800,"station_id":"","pricing_plan_id":"cebpf4jnsgd1na2vs0mg"},{"bike_id":"bfbacc6f-ff9c-4bd2-a2e8-7cfd28c9cfde","system_id":"levelo_inurba_marseille","lat":43.27053,"lon":5.40265,"is_reserved":false,"is_disabled":false,"rental_uris":{"android":"levelo://app?vid=bfbacc6f-ff9c-4bd2-a2e8-7cfd28c9cfde","ios":"levelo://app?vid=bfbacc6f-ff9c-4bd2-a2e8-7cfd28c9cfde"},"vehicle_type_id":"4","last_reported":1739798298,"current_range_meters":10800,"station_id":"ce4bhk92rcd13ifvqgc0","pricing_plan_id":"cebpf4jnsgd1na2vs0mg"},{"bike_id":"b4fb51a5-3829-4287-b58a-fd128f54653f","system_id":"levelo_inurba_marseille","lat":43.32022,"lon":5.41568,"is_reserved":false,"is_disabled":true,"rental_uris":{"android":"levelo://app?vid=b4fb51a5-3829-4287-b58a-fd128f54653f","ios":"levelo://app?vid=b4fb51a5-3829-4287-b58a-fd128f54653f"},"vehicle_type_id":"4","last_reported":1739798298,"current_range_meters":10800,"station_id":"ce4bhq92rcd13ifvqhkg","pricing_plan_id":"cebpf4jnsgd1na2vs0mg"},{"bike_id":"f49d96af-5630-4761-a17e-ea2e12354d6b","system_id":"levelo_inurba_marseille","lat":43.31134,"lon":5.38313,"is_reserved":false,"is_disabled":true,"rental_uris":{"android":"levelo://app?vid=f49d96af-5630-4761-a17e-ea2e12354d6b","ios":"levelo://app?vid=f49d96af-5630-4761-a17e-ea2e12354d6b"},"vehicle_type_id":"4","last_reported":1739798298,"current_range_meters":10800,"station_id":"","pricing_plan_id":"cebpf4jnsgd1na2vs0mg"},{"bike_id":"d987532f-bafe-447e-92c6-1ad2da2cc856","system_id":"levelo_inurba_marseille","lat":43.23148,"lon":5.43698,"is_reserved":false,"is_disabled":false,"rental_uris":{"android":"levelo://app?vid=d987532f-bafe-447e-92c6-1ad2da2cc856","ios":"levelo://app?vid=d987532f-bafe-447e-92c6-1ad2da2cc856"},"vehicle_type_id":"4","last_reported":1739798298,"current_range_meters":10800,"station_id":"ce4bhmp2rcd13ifvqgog","pricing_plan_id":"cebpf4jnsgd1na2vs0mg"},{"bike_id":"d28224c0-7c54-4ca7-9d18-8d2db3823312","system_id":"levelo_inurba_marseille","lat":43.29316,"lon":5.37184,"is_reserved":false,"is_disabled":false,"rental_uris":{"android":"levelo://app?vid=d28224c0-7c54-4ca7-9d18-8d2db3823312","ios":"levelo://app?vid=d28224c0-7c54-4ca7-9d18-8d2db3823312"},"vehicle_type_id":"4","last_reported":1739798298,"current_range_meters":10800,"station_id":"ce4bgh92rcd13ifvqb40","pricing_plan_id":"cebpf4jnsgd1na2vs0mg"},{"bike_id":"e38e52ed-3aae-4e43-b18b-98d34795d553","system_id":"levelo_inurba_marseille","lat":43.27378,"lon":5.36258,"is_reserved":false,"is_disabled":false,"rental_uris":{"android":"levelo://app?vid=e38e52ed-3aae-4e43-b18b-98d34795d553","ios":"levelo://app?vid=e38e52ed-3aae-4e43-b18b-98d34795d553"},"vehicle_type_id":"4","last_reported":1739798298,"current_range_meters":10800,"station_id":"ce4bhbh2rcd13ifvqeo0","pricing_plan_id":"cebpf4jnsgd1na2vs0mg"},{"bike_id":"98dafedc-f25b-409d-b3e2-803b47ffb900","system_id":"levelo_inurba_marseille","lat":43.245,"lon":5.37269,"is_reserved":false,"is_disabled":false,"rental_uris":{"android":"levelo://app?vid=98dafedc-f25b-409d-b3e2-803b47ffb900","ios":"levelo://app?vid=98dafedc-f25b-409d-b3e2-803b47ffb900"},"vehicle_type_id":"4","last_reported":1739798298,"current_range_meters":10800,"station_id":"","pricing_plan_id":"cebpf4jnsgd1na2vs0mg"},{"bike_id":"03b11fa7-8a29-4c6f-a48c-0c9ec5770536","system_id":"levelo_inurba_marseille","lat":43.30206,"lon":5.39462,"is_reserved":false,"is_disabled":false,"rental_uris":{"android":"levelo://app?vid=03b11fa7-8a29-4c6f-a48c-0c9ec5770536","ios":"levelo://app?vid=03b11fa7-8a29-4c6f-a48c-0c9ec5770536"},"vehicle_type_id":"4","last_reported":1739798298,"current_range_meters":10800,"station_id":"ce4bh0p2rcd13ifvqd70","pricing_plan_id":"cebpf4jnsgd1na2vs0mg"},{"bike_id":"2b00a42f-9efa-4ced-a356-f0b26c47649f","system_id":"levelo_inurba_marseille","lat":43.28622,"lon":5.35111,"is_reserved":false,"is_disabled":true,"rental_uris":{"android":"levelo://app?vid=2b00a42f-9efa-4ced-a356-f0b26c47649f","ios":"levelo://app?vid=2b00a42f-9efa-4ced-a356-f0b26c47649f"},"vehicle_type_id":"4","last_reported":1739798298,"current_range_meters":11200,"station_id":"ce4bhch2rcd13ifvqeug","pricing_plan_id":"cebpf4jnsgd1na2vs0mg"},{"bike_id":"058be7b0-6b2b-48ae-80a6-6763c1fa04e8","system_id":"levelo_inurba_marseille","lat":43.26035,"lon":5.37548,"is_reserved":false,"is_disabled":false,"rental_uris":{"android":"levelo://app?vid=058be7b0-6b2b-48ae-80a6-6763c1fa04e8","ios":"levelo://app?vid=058be7b0-6b2b-48ae-80a6-6763c1fa04e8"},"vehicle_type_id":"4","last_reported":1739798298,"current_range_meters":10800,"station_id":"ce4bhgh2rcd13ifvqfa0","pricing_plan_id":"cebpf4jnsgd1na2vs0mg"},{"bike_id":"9a86aff9-d852-4512-b047-433feac4afd8","system_id":"levelo_inurba_marseille","lat":43.31066,"lon":5.3687,"is_reserved":false,"is_disabled":false,"rental_uris":{"android":"levelo://app?vid=9a86aff9-d852-4512-b047-433feac4afd8","ios":"levelo://app?vid=9a86aff9-d852-4512-b047-433feac4afd8"},"vehicle_type_id":"4","last_reported":1739798298,"current_range_meters":11200,"station_id":"","pricing_plan_id":"cebpf4jnsgd1na2vs0mg"},{"bike_id":"7c7c0f20-4ebe-4ae9-a466-5bcf5fc08c06","system_id":"levelo_inurba_marseille","lat":43.2919,"lon":5.35728,"is_reserved":false,"is_disabled":true,"rental_uris":{"android":"levelo://app?vid=7c7c0f20-4ebe-4ae9-a466-5bcf5fc08c06","ios":"levelo://app?vid=7c7c0f20-4ebe-4ae9-a466-5bcf5fc08c06"},"vehicle_type_id":"4","last_reported":1739798298,"current_range_meters":11200,"station_id":"","pricing_plan_id":"cebpf4jnsgd1na2vs0mg"},{"bike_id":"3dd4a3b3-8d07-43c8-bc64-e922dcffa9c6","system_id":"levelo_inurba_marseille","lat":43.30546,"lon":5.365485,"is_reserved":false,"is_disabled":false,"rental_uris":{"android":"levelo://app?vid=3dd4a3b3-8d07-43c8-bc64-e922dcffa9c6","ios":"levelo://app?vid=3dd4a3b3-8d07-43c8-bc64-e922dcffa9c6"},"vehicle_type_id":"4","last_reported":1739798298,"current_range_meters":11600,"station_id":"","pricing_plan_id":"cebpf4jnsgd1na2vs0mg"},{"bike_id":"84ec75b2-ffa6-4a41-aa45-280c675dbabc","system_id":"levelo_inurba_marseille","lat":43.29259,"lon":5.40108,"is_reserved":false,"is_disabled":true,"rental_uris":{"android":"levelo://app?vid=84ec75b2-ffa6-4a41-aa45-280c675dbabc","ios":"levelo://app?vid=84ec75b2-ffa6-4a41-aa45-280c675dbabc"},"vehicle_type_id":"4","last_reported":1739798298,"current_range_meters":11600,"station_id":"ce4bh312rcd13ifvqdk0","pricing_plan_id":"cebpf4jnsgd1na2vs0mg"},{"bike_id":"178a20b1-0616-44f0-b7d5-03038ff57abd","system_id":"levelo_inurba_marseille","lat":43.30462,"lon":5.37904,"is_reserved":false,"is_disabled":false,"rental_uris":{"android":"levelo://app?vid=178a20b1-0616-44f0-b7d5-03038ff57abd","ios":"levelo://app?vid=178a20b1-0616-44f0-b7d5-03038ff57abd"},"vehicle_type_id":"4","last_reported":1739798298,"current_range_meters":11600,"station_id":"ce4bgup2rcd13ifvqcn0","pricing_plan_id":"cebpf4jnsgd1na2vs0mg"},{"bike_id":"63213ce8-ab3b-490e-8b8e-c1a55a68b2ca","system_id":"levelo_inurba_marseille","lat":43.2951,"lon":5.38198,"is_reserved":false,"is_disabled":true,"rental_uris":{"android":"levelo://app?vid=63213ce8-ab3b-490e-8b8e-c1a55a68b2ca","ios":"levelo://app?vid=63213ce8-ab3b-490e-8b8e-c1a55a68b2ca"},"vehicle_type_id":"4","last_reported":1739798298,"current_range_meters":11600,"station_id":"","pricing_plan_id":"cebpf4jnsgd1na2vs0mg"},{"bike_id":"4938879b-ea91-4625-98e2-3e53802faa19","system_id":"levelo_inurba_marseille","lat":43.29712,"lon":5.37708,"is_reserved":false,"is_disabled":false,"rental_uris":{"android":"levelo://app?vid=4938879b-ea91-4625-98e2-3e53802faa19","ios":"levelo://app?vid=4938879b-ea91-4625-98e2-3e53802faa19"},"vehicle_type_id":"4","last_reported":1739798298,"current_range_meters":11200,"station_id":"ce4bgkh2rcd13ifvqbl0","pricing_plan_id":"cebpf4jnsgd1na2vs0mg"},{"bike_id":"e8896831-ddfb-4156-a85b-87b34e4651fb","system_id":"levelo_inurba_marseille","lat":43.31279,"lon":5.4017,"is_reserved":false,"is_disabled":false,"rental_uris":{"android":"levelo://app?vid=e8896831-ddfb-4156-a85b-87b34e4651fb","ios":"levelo://app?vid=e8896831-ddfb-4156-a85b-87b34e4651fb"},"vehicle_type_id":"4","last_reported":1739798298,"current_range_meters":11200,"station_id":"ce4bh092rcd13ifvqd30","pricing_plan_id":"cebpf4jnsgd1na2vs0mg"},{"bike_id":"4767ce61-083b-49b6-b6bd-c77650019e8f","system_id":"levelo_inurba_marseille","lat":43.321,"lon":5.36762,"is_reserved":false,"is_disabled":false,"rental_uris":{"android":"levelo://app?vid=4767ce61-083b-49b6-b6bd-c77650019e8f","ios":"levelo://app?vid=4767ce61-083b-49b6-b6bd-c77650019e8f"},"vehicle_type_id":"4","last_reported":1739798298,"current_range_meters":12000,"station_id":"","pricing_plan_id":"cebpf4jnsgd1na2vs0mg"},{"bike_id":"d479d7cc-f6ec-4842-98a4-55e7da70bebc","system_id":"levelo_inurba_marseille","lat":43.27947,"lon":5.38687,"is_reserved":false,"is_disabled":false,"rental_uris":{"android":"levelo://app?vid=d479d7cc-f6ec-4842-98a4-55e7da70bebc","ios":"levelo://app?vid=d479d7cc-f6ec-4842-98a4-55e7da70bebc"},"vehicle_type_id":"4","last_reported":1739798298,"current_range_meters":12400,"station_id":"ce4bhg12rcd13ifvqf80","pricing_plan_id":"cebpf4jnsgd1na2vs0mg"},{"bike_id":"10ab8f4c-39de-48bb-994d-5acf98c7cdfb","system_id":"levelo_inurba_marseille","lat":43.28417,"lon":5.37514,"is_reserved":false,"is_disabled":false,"rental_uris":{"android":"levelo://app?vid=10ab8f4c-39de-48bb-994d-5acf98c7cdfb","ios":"levelo://app?vid=10ab8f4c-39de-48bb-994d-5acf98c7cdfb"},"vehicle_type_id":"4","last_reported":1739798298,"current_range_meters":12400,"station_id":"ce4bh412rcd13ifvqds0","pricing_plan_id":"cebpf4jnsgd1na2vs0mg"},{"bike_id":"cb8372d6-bad2-4555-89ad-5b495afb0b59","system_id":"levelo_inurba_marseille","lat":43.24826,"lon":5.3746,"is_reserved":false,"is_disabled":false,"rental_uris":{"android":"levelo://app?vid=cb8372d6-bad2-4555-89ad-5b495afb0b59","ios":"levelo://app?vid=cb8372d6-bad2-4555-89ad-5b495afb0b59"},"vehicle_type_id":"4","last_reported":1739798298,"current_range_meters":12400,"station_id":"ce4bhgh2rcd13ifvqfb0","pricing_plan_id":"cebpf4jnsgd1na2vs0mg"},{"bike_id":"b87258ce-6f3a-4a8b-88fa-fc379934b70c","system_id":"levelo_inurba_marseille","lat":43.24173,"lon":5.39723,"is_reserved":false,"is_disabled":false,"rental_uris":{"android":"levelo://app?vid=b87258ce-6f3a-4a8b-88fa-fc379934b70c","ios":"levelo://app?vid=b87258ce-6f3a-4a8b-88fa-fc379934b70c"},"vehicle_type_id":"4","last_reported":1739798298,"current_range_meters":12800,"station_id":"ce4bhn12rcd13ifvqgpg","pricing_plan_id":"cebpf4jnsgd1na2vs0mg"},{"bike_id":"4485b41d-8ad5-481d-8c6e-243d5823c9cc","system_id":"levelo_inurba_marseille","lat":43.2505,"lon":5.38938,"is_reserved":false,"is_disabled":false,"rental_uris":{"android":"levelo://app?vid=4485b41d-8ad5-481d-8c6e-243d5823c9cc","ios":"levelo://app?vid=4485b41d-8ad5-481d-8c6e-243d5823c9cc"},"vehicle_type_id":"4","last_reported":1739798298,"current_range_meters":12400,"station_id":"ce4bhgp2rcd13ifvqfd0","pricing_plan_id":"cebpf4jnsgd1na2vs0mg"},{"bike_id":"f24826f6-3623-4502-8662-9b349cbb305a","system_id":"levelo_inurba_marseille","lat":43.26564,"lon":5.37306,"is_reserved":false,"is_disabled":false,"rental_uris":{"android":"levelo://app?vid=f24826f6-3623-4502-8662-9b349cbb305a","ios":"levelo://app?vid=f24826f6-3623-4502-8662-9b349cbb305a"},"vehicle_type_id":"4","last_reported":1739798298,"current_range_meters":12800,"station_id":"ce4bhg12rcd13ifvqf70","pricing_plan_id":"cebpf4jnsgd1na2vs0mg"},{"bike_id":"33317490-b372-4352-8474-deaf0378421b","system_id":"levelo_inurba_marseille","lat":43.28573,"lon":5.39498,"is_reserved":false,"is_disabled":false,"rental_uris":{"android":"levelo://app?vid=33317490-b372-4352-8474-deaf0378421b","ios":"levelo://app?vid=33317490-b372-4352-8474-deaf0378421b"},"vehicle_type_id":"4","last_reported":1739798298,"current_range_meters":14000,"station_id":"ce4bh292rcd13ifvqdg0","pricing_plan_id":"cebpf4jnsgd1na2vs0mg"},{"bike_id":"8f9e8329-57e0-4c28-8199-1caa70c47efc","system_id":"levelo_inurba_marseille","lat":43.2861,"lon":5.37066,"is_reserved":false,"is_disabled":false,"rental_uris":{"android":"levelo://app?vid=8f9e8329-57e0-4c28-8199-1caa70c47efc","ios":"levelo://app?vid=8f9e8329-57e0-4c28-8199-1caa70c47efc"},"vehicle_type_id":"4","last_reported":1739798298,"current_range_meters":12800,"station_id":"ce4bht12rcd13ifvqi60","pricing_plan_id":"cebpf4jnsgd1na2vs0mg"},{"bike_id":"3cde2a6d-d5b9-49b6-8285-27fc39ef3f3a","system_id":"levelo_inurba_marseille","lat":43.24807,"lon":5.37455,"is_reserved":false,"is_disabled":false,"rental_uris":{"android":"levelo://app?vid=3cde2a6d-d5b9-49b6-8285-27fc39ef3f3a","ios":"levelo://app?vid=3cde2a6d-d5b9-49b6-8285-27fc39ef3f3a"},"vehicle_type_id":"4","last_reported":1739798298,"current_range_meters":13600,"station_id":"ce4bhgh2rcd13ifvqfb0","pricing_plan_id":"cebpf4jnsgd1na2vs0mg"},{"bike_id":"265573d5-55e5-476e-b8f4-b96289e9a660","system_id":"levelo_inurba_marseille","lat":43.24549,"lon":5.39522,"is_reserved":false,"is_disabled":false,"rental_uris":{"android":"levelo://app?vid=265573d5-55e5-476e-b8f4-b96289e9a660","ios":"levelo://app?vid=265573d5-55e5-476e-b8f4-b96289e9a660"},"vehicle_type_id":"4","last_reported":1739798298,"current_range_meters":12800,"station_id":"ce4bhlp2rcd13ifvqgjg","pricing_plan_id":"cebpf4jnsgd1na2vs0mg"},{"bike_id":"80177e4f-8bea-48ba-a89d-f8ce601903e6","system_id":"levelo_inurba_marseille","lat":43.29579,"lon":5.36741,"is_reserved":false,"is_disabled":false,"rental_uris":{"android":"levelo://app?vid=80177e4f-8bea-48ba-a89d-f8ce601903e6","ios":"levelo://app?vid=80177e4f-8bea-48ba-a89d-f8ce601903e6"},"vehicle_type_id":"4","last_reported":1739798298,"current_range_meters":12800,"station_id":"","pricing_plan_id":"cebpf4jnsgd1na2vs0mg"},{"bike_id":"02a9bf57-ed16-47a0-a562-14d92d5d1b68","system_id":"levelo_inurba_marseille","lat":43.2997,"lon":5.3718,"is_reserved":false,"is_disabled":false,"rental_uris":{"android":"levelo://app?vid=02a9bf57-ed16-47a0-a562-14d92d5d1b68","ios":"levelo://app?vid=02a9bf57-ed16-47a0-a562-14d92d5d1b68"},"vehicle_type_id":"4","last_reported":1739798298,"current_range_meters":12800,"station_id":"ce4bgr92rcd13ifvqc7g","pricing_plan_id":"cebpf4jnsgd1na2vs0mg"},{"bike_id":"f3af8f83-a92b-482c-bd5a-ab58262448c7","system_id":"levelo_inurba_marseille","lat":43.2861,"lon":5.37069,"is_reserved":false,"is_disabled":false,"rental_uris":{"android":"levelo://app?vid=f3af8f83-a92b-482c-bd5a-ab58262448c7","ios":"levelo://app?vid=f3af8f83-a92b-482c-bd5a-ab58262448c7"},"vehicle_type_id":"4","last_reported":1739798298,"current_range_meters":12800,"station_id":"ce4bht12rcd13ifvqi60","pricing_plan_id":"cebpf4jnsgd1na2vs0mg"},{"bike_id":"511297f0-4659-4cc7-92fe-97cf7cb65fc4","system_id":"levelo_inurba_marseille","lat":43.33601,"lon":5.4103,"is_reserved":false,"is_disabled":false,"rental_uris":{"android":"levelo://app?vid=511297f0-4659-4cc7-92fe-97cf7cb65fc4","ios":"levelo://app?vid=511297f0-4659-4cc7-92fe-97cf7cb65fc4"},"vehicle_type_id":"4","last_reported":1739798298,"current_range_meters":12800,"station_id":"","pricing_plan_id":"cebpf4jnsgd1na2vs0mg"},{"bike_id":"6528e792-6c2b-41ab-b102-37d30001a0e7","system_id":"levelo_inurba_marseille","lat":43.27251,"lon":5.40066,"is_reserved":false,"is_disabled":false,"rental_uris":{"android":"levelo://app?vid=6528e792-6c2b-41ab-b102-37d30001a0e7","ios":"levelo://app?vid=6528e792-6c2b-41ab-b102-37d30001a0e7"},"vehicle_type_id":"4","last_reported":1739798298,"current_range_meters":13600,"station_id":"","pricing_plan_id":"cebpf4jnsgd1na2vs0mg"},{"bike_id":"9fcdd754-b714-48d8-82e8-35fffabf6b85","system_id":"levelo_inurba_marseille","lat":43.30423,"lon":5.3975,"is_reserved":false,"is_disabled":false,"rental_uris":{"android":"levelo://app?vid=9fcdd754-b714-48d8-82e8-35fffabf6b85","ios":"levelo://app?vid=9fcdd754-b714-48d8-82e8-35fffabf6b85"},"vehicle_type_id":"4","last_reported":1739798298,"current_range_meters":13600,"station_id":"","pricing_plan_id":"cebpf4jnsgd1na2vs0mg"},{"bike_id":"7e34b599-258c-4427-afa1-844dde0ae30c","system_id":"levelo_inurba_marseille","lat":43.26033,"lon":5.37565,"is_reserved":false,"is_disabled":false,"rental_uris":{"android":"levelo://app?vid=7e34b599-258c-4427-afa1-844dde0ae30c","ios":"levelo://app?vid=7e34b599-258c-4427-afa1-844dde0ae30c"},"vehicle_type_id":"4","last_reported":1739798298,"current_range_meters":13600,"station_id":"ce4bhgh2rcd13ifvqfa0","pricing_plan_id":"cebpf4jnsgd1na2vs0mg"},{"bike_id":"9beb99fa-247c-4be4-994c-ad481a4bc4b6","system_id":"levelo_inurba_marseille","lat":43.23156,"lon":5.43712,"is_reserved":false,"is_disabled":false,"rental_uris":{"android":"levelo://app?vid=9beb99fa-247c-4be4-994c-ad481a4bc4b6","ios":"levelo://app?vid=9beb99fa-247c-4be4-994c-ad481a4bc4b6"},"vehicle_type_id":"4","last_reported":1739798298,"current_range_meters":13600,"station_id":"ce4bhmp2rcd13ifvqgog","pricing_plan_id":"cebpf4jnsgd1na2vs0mg"},{"bike_id":"4e2b468f-8f4a-4d73-8517-62fa28d3fb4c","system_id":"levelo_inurba_marseille","lat":43.24818,"lon":5.37452,"is_reserved":false,"is_disabled":false,"rental_uris":{"android":"levelo://app?vid=4e2b468f-8f4a-4d73-8517-62fa28d3fb4c","ios":"levelo://app?vid=4e2b468f-8f4a-4d73-8517-62fa28d3fb4c"},"vehicle_type_id":"4","last_reported":1739798298,"current_range_meters":14000,"station_id":"ce4bhgh2rcd13ifvqfb0","pricing_plan_id":"cebpf4jnsgd1na2vs0mg"},{"bike_id":"d687eaf3-5f9a-41f1-b704-e9df3f64c86f","system_id":"levelo_inurba_marseille","lat":43.304625,"lon":5.379104,"is_reserved":false,"is_disabled":false,"rental_uris":{"android":"levelo://app?vid=d687eaf3-5f9a-41f1-b704-e9df3f64c86f","ios":"levelo://app?vid=d687eaf3-5f9a-41f1-b704-e9df3f64c86f"},"vehicle_type_id":"4","last_reported":1739798298,"current_range_meters":18800,"station_id":"ce4bh692rcd13ifvqea0","pricing_plan_id":"cebpf4jnsgd1na2vs0mg"},{"bike_id":"22578521-0ea7-463a-8019-3c6269779208","system_id":"levelo_inurba_marseille","lat":43.23059,"lon":5.35489,"is_reserved":false,"is_disabled":false,"rental_uris":{"android":"levelo://app?vid=22578521-0ea7-463a-8019-3c6269779208","ios":"levelo://app?vid=22578521-0ea7-463a-8019-3c6269779208"},"vehicle_type_id":"4","last_reported":1739798298,"current_range_meters":14000,"station_id":"cpo3342slgdg3j2ifvpg","pricing_plan_id":"cebpf4jnsgd1na2vs0mg"},{"bike_id":"49cadee9-38b9-48b7-a227-083b366802fc","system_id":"levelo_inurba_marseille","lat":43.24545,"lon":5.39523,"is_reserved":false,"is_disabled":false,"rental_uris":{"android":"levelo://app?vid=49cadee9-38b9-48b7-a227-083b366802fc","ios":"levelo://app?vid=49cadee9-38b9-48b7-a227-083b366802fc"},"vehicle_type_id":"4","last_reported":1739798298,"current_range_meters":14000,"station_id":"","pricing_plan_id":"cebpf4jnsgd1na2vs0mg"},{"bike_id":"8a8a6b2e-87cd-498b-bc54-df425c7358d7","system_id":"levelo_inurba_marseille","lat":43.26935,"lon":5.38636,"is_reserved":false,"is_disabled":false,"rental_uris":{"android":"levelo://app?vid=8a8a6b2e-87cd-498b-bc54-df425c7358d7","ios":"levelo://app?vid=8a8a6b2e-87cd-498b-bc54-df425c7358d7"},"vehicle_type_id":"4","last_reported":1739798298,"current_range_meters":14000,"station_id":"ce4bhh92rcd13ifvqfh0","pricing_plan_id":"cebpf4jnsgd1na2vs0mg"},{"bike_id":"5a9afb1f-4ad8-47e1-bc35-a5ddbbb8db1a","system_id":"levelo_inurba_marseille","lat":43.28669,"lon":5.38657,"is_reserved":false,"is_disabled":false,"rental_uris":{"android":"levelo://app?vid=5a9afb1f-4ad8-47e1-bc35-a5ddbbb8db1a","ios":"levelo://app?vid=5a9afb1f-4ad8-47e1-bc35-a5ddbbb8db1a"},"vehicle_type_id":"4","last_reported":1739798298,"current_range_meters":14000,"station_id":"ce4bh492rcd13ifvqdug","pricing_plan_id":"cebpf4jnsgd1na2vs0mg"},{"bike_id":"cafdaaa9-f913-4ecf-bf54-af3a1bd50499","system_id":"levelo_inurba_marseille","lat":43.30155,"lon":5.38789,"is_reserved":false,"is_disabled":true,"rental_uris":{"android":"levelo://app?vid=cafdaaa9-f913-4ecf-bf54-af3a1bd50499","ios":"levelo://app?vid=cafdaaa9-f913-4ecf-bf54-af3a1bd50499"},"vehicle_type_id":"4","last_reported":1739798298,"current_range_meters":14000,"station_id":"ce4bghh2rcd13ifvqb60","pricing_plan_id":"cebpf4jnsgd1na2vs0mg"},{"bike_id":"ad62ba98-2a0c-4c3e-ae8b-68fcdc8a8ec2","system_id":"levelo_inurba_marseille","lat":43.29369,"lon":5.378457,"is_reserved":false,"is_disabled":false,"rental_uris":{"android":"levelo://app?vid=ad62ba98-2a0c-4c3e-ae8b-68fcdc8a8ec2","ios":"levelo://app?vid=ad62ba98-2a0c-4c3e-ae8b-68fcdc8a8ec2"},"vehicle_type_id":"4","last_reported":1739798298,"current_range_meters":13600,"station_id":"ce4bh9p2rcd13ifvqed0","pricing_plan_id":"cebpf4jnsgd1na2vs0mg"},{"bike_id":"dfe07188-9d78-4e91-a30a-05c86d7df8f6","system_id":"levelo_inurba_marseille","lat":43.27058,"lon":5.40269,"is_reserved":false,"is_disabled":false,"rental_uris":{"android":"levelo://app?vid=dfe07188-9d78-4e91-a30a-05c86d7df8f6","ios":"levelo://app?vid=dfe07188-9d78-4e91-a30a-05c86d7df8f6"},"vehicle_type_id":"4","last_reported":1739798298,"current_range_meters":14000,"station_id":"ce4bhk92rcd13ifvqgc0","pricing_plan_id":"cebpf4jnsgd1na2vs0mg"},{"bike_id":"adc9866e-bdcc-41b3-aaa3-a381c4de181f","system_id":"levelo_inurba_marseille","lat":43.23068,"lon":5.35495,"is_reserved":false,"is_disabled":false,"rental_uris":{"android":"levelo://app?vid=adc9866e-bdcc-41b3-aaa3-a381c4de181f","ios":"levelo://app?vid=adc9866e-bdcc-41b3-aaa3-a381c4de181f"},"vehicle_type_id":"4","last_reported":1739798298,"current_range_meters":14000,"station_id":"","pricing_plan_id":"cebpf4jnsgd1na2vs0mg"},{"bike_id":"cd9b4085-c131-4f0b-9c5c-dcc681470367","system_id":"levelo_inurba_marseille","lat":43.32472,"lon":5.36573,"is_reserved":false,"is_disabled":false,"rental_uris":{"android":"levelo://app?vid=cd9b4085-c131-4f0b-9c5c-dcc681470367","ios":"levelo://app?vid=cd9b4085-c131-4f0b-9c5c-dcc681470367"},"vehicle_type_id":"4","last_reported":1739798298,"current_range_meters":14800,"station_id":"ce4bhs12rcd13ifvqhvg","pricing_plan_id":"cebpf4jnsgd1na2vs0mg"},{"bike_id":"7342d8fa-ab8b-4741-8b26-dc8105736318","system_id":"levelo_inurba_marseille","lat":43.29203,"lon":5.39333,"is_reserved":false,"is_disabled":false,"rental_uris":{"android":"levelo://app?vid=7342d8fa-ab8b-4741-8b26-dc8105736318","ios":"levelo://app?vid=7342d8fa-ab8b-4741-8b26-dc8105736318"},"vehicle_type_id":"4","last_reported":1739798298,"current_range_meters":14800,"station_id":"ce4bh192rcd13ifvqdd0","pricing_plan_id":"cebpf4jnsgd1na2vs0mg"},{"bike_id":"ac5be2ab-730f-4a98-a539-2a3ab4370578","system_id":"levelo_inurba_marseille","lat":43.28155,"lon":5.42646,"is_reserved":false,"is_disabled":false,"rental_uris":{"android":"levelo://app?vid=ac5be2ab-730f-4a98-a539-2a3ab4370578","ios":"levelo://app?vid=ac5be2ab-730f-4a98-a539-2a3ab4370578"},"vehicle_type_id":"4","last_reported":1739798298,"current_range_meters":14800,"station_id":"ce4bhnh2rcd13ifvqgug","pricing_plan_id":"cebpf4jnsgd1na2vs0mg"},{"bike_id":"c406416f-233a-40f0-adf4-a910af5ca12a","system_id":"levelo_inurba_marseille","lat":43.30157,"lon":5.38083,"is_reserved":false,"is_disabled":false,"rental_uris":{"android":"levelo://app?vid=c406416f-233a-40f0-adf4-a910af5ca12a","ios":"levelo://app?vid=c406416f-233a-40f0-adf4-a910af5ca12a"},"vehicle_type_id":"4","last_reported":1739798298,"current_range_meters":14800,"station_id":"ce4bgjp2rcd13ifvqbh0","pricing_plan_id":"cebpf4jnsgd1na2vs0mg"},{"bike_id":"70f6d482-92b2-4967-8613-10a4e770ab10","system_id":"levelo_inurba_marseille","lat":43.273621,"lon":5.362349,"is_reserved":false,"is_disabled":false,"rental_uris":{"android":"levelo://app?vid=70f6d482-92b2-4967-8613-10a4e770ab10","ios":"levelo://app?vid=70f6d482-92b2-4967-8613-10a4e770ab10"},"vehicle_type_id":"4","last_reported":1739798298,"current_range_meters":15200,"station_id":"ce4bhbh2rcd13ifvqeo0","pricing_plan_id":"cebpf4jnsgd1na2vs0mg"},{"bike_id":"020f9db3-6048-4a83-8c59-4acc533112c8","system_id":"levelo_inurba_marseille","lat":43.28151,"lon":5.42631,"is_reserved":false,"is_disabled":false,"rental_uris":{"android":"levelo://app?vid=020f9db3-6048-4a83-8c59-4acc533112c8","ios":"levelo://app?vid=020f9db3-6048-4a83-8c59-4acc533112c8"},"vehicle_type_id":"4","last_reported":1739798298,"current_range_meters":15200,"station_id":"ce4bhnh2rcd13ifvqgug","pricing_plan_id":"cebpf4jnsgd1na2vs0mg"},{"bike_id":"d3e77bac-df5f-4a85-a378-5b5b4b915905","system_id":"levelo_inurba_marseille","lat":43.29054,"lon":5.37162,"is_reserved":false,"is_disabled":false,"rental_uris":{"android":"levelo://app?vid=d3e77bac-df5f-4a85-a378-5b5b4b915905","ios":"levelo://app?vid=d3e77bac-df5f-4a85-a378-5b5b4b915905"},"vehicle_type_id":"4","last_reported":1739798298,"current_range_meters":16000,"station_id":"ce4bh5p2rcd13ifvqe4g","pricing_plan_id":"cebpf4jnsgd1na2vs0mg"},{"bike_id":"64af24a4-8e38-47da-9a24-c3fcf271b844","system_id":"levelo_inurba_marseille","lat":43.28446,"lon":5.39196,"is_reserved":false,"is_disabled":false,"rental_uris":{"android":"levelo://app?vid=64af24a4-8e38-47da-9a24-c3fcf271b844","ios":"levelo://app?vid=64af24a4-8e38-47da-9a24-c3fcf271b844"},"vehicle_type_id":"4","last_reported":1739798298,"current_range_meters":16000,"station_id":"ce4bhoh2rcd13ifvqh5g","pricing_plan_id":"cebpf4jnsgd1na2vs0mg"},{"bike_id":"c5c59f41-6de9-4286-8e47-0b749ef897bc","system_id":"levelo_inurba_marseille","lat":43.28638,"lon":5.35093,"is_reserved":false,"is_disabled":false,"rental_uris":{"android":"levelo://app?vid=c5c59f41-6de9-4286-8e47-0b749ef897bc","ios":"levelo://app?vid=c5c59f41-6de9-4286-8e47-0b749ef897bc"},"vehicle_type_id":"4","last_reported":1739798298,"current_range_meters":16000,"station_id":"ce4bhch2rcd13ifvqeug","pricing_plan_id":"cebpf4jnsgd1na2vs0mg"},{"bike_id":"5f6c3d54-427f-4c5e-9013-84144224f1c7","system_id":"levelo_inurba_marseille","lat":43.26554,"lon":5.37245,"is_reserved":false,"is_disabled":false,"rental_uris":{"android":"levelo://app?vid=5f6c3d54-427f-4c5e-9013-84144224f1c7","ios":"levelo://app?vid=5f6c3d54-427f-4c5e-9013-84144224f1c7"},"vehicle_type_id":"4","last_reported":1739798298,"current_range_meters":16000,"station_id":"ce4bhg12rcd13ifvqf70","pricing_plan_id":"cebpf4jnsgd1na2vs0mg"},{"bike_id":"f2ed1939-a611-4c0c-b834-6691e0118b72","system_id":"levelo_inurba_marseille","lat":43.23192,"lon":5.35547,"is_reserved":false,"is_disabled":false,"rental_uris":{"android":"levelo://app?vid=f2ed1939-a611-4c0c-b834-6691e0118b72","ios":"levelo://app?vid=f2ed1939-a611-4c0c-b834-6691e0118b72"},"vehicle_type_id":"4","last_reported":1739798298,"current_range_meters":16000,"station_id":"ce4bhu92rcd13ifvqi70","pricing_plan_id":"cebpf4jnsgd1na2vs0mg"},{"bike_id":"85cec814-93b1-4c1f-9be1-190c56cc1f74","system_id":"levelo_inurba_marseille","lat":43.2768,"lon":5.38866,"is_reserved":false,"is_disabled":false,"rental_uris":{"android":"levelo://app?vid=85cec814-93b1-4c1f-9be1-190c56cc1f74","ios":"levelo://app?vid=85cec814-93b1-4c1f-9be1-190c56cc1f74"},"vehicle_type_id":"4","last_reported":1739798298,"current_range_meters":16000,"station_id":"ce4bhi12rcd13ifvqfo0","pricing_plan_id":"cebpf4jnsgd1na2vs0mg"},{"bike_id":"9084f880-c05c-41d9-962e-1ab7add2848e","system_id":"levelo_inurba_marseille","lat":43.24115,"lon":5.37764,"is_reserved":false,"is_disabled":false,"rental_uris":{"android":"levelo://app?vid=9084f880-c05c-41d9-962e-1ab7add2848e","ios":"levelo://app?vid=9084f880-c05c-41d9-962e-1ab7add2848e"},"vehicle_type_id":"4","last_reported":1739798298,"current_range_meters":16000,"station_id":"ce4bhnp2rcd13ifvqgvg","pricing_plan_id":"cebpf4jnsgd1na2vs0mg"},{"bike_id":"d1b292e2-afaf-4d01-841f-1489ff1ec4d2","system_id":"levelo_inurba_marseille","lat":43.28154,"lon":5.42645,"is_reserved":false,"is_disabled":false,"rental_uris":{"android":"levelo://app?vid=d1b292e2-afaf-4d01-841f-1489ff1ec4d2","ios":"levelo://app?vid=d1b292e2-afaf-4d01-841f-1489ff1ec4d2"},"vehicle_type_id":"4","last_reported":1739798298,"current_range_meters":16000,"station_id":"ce4bhnh2rcd13ifvqgug","pricing_plan_id":"cebpf4jnsgd1na2vs0mg"},{"bike_id":"c300d2f5-35bb-4d22-b445-3c56ab02df6a","system_id":"levelo_inurba_marseille","lat":43.29929,"lon":5.36482,"is_reserved":false,"is_disabled":false,"rental_uris":{"android":"levelo://app?vid=c300d2f5-35bb-4d22-b445-3c56ab02df6a","ios":"levelo://app?vid=c300d2f5-35bb-4d22-b445-3c56ab02df6a"},"vehicle_type_id":"4","last_reported":1739798298,"current_range_meters":16000,"station_id":"ce4bgm92rcd13ifvqbr0","pricing_plan_id":"cebpf4jnsgd1na2vs0mg"},{"bike_id":"721703a2-532a-4593-88cc-d02780117d20","system_id":"levelo_inurba_marseille","lat":43.29627,"lon":5.37709,"is_reserved":false,"is_disabled":false,"rental_uris":{"android":"levelo://app?vid=721703a2-532a-4593-88cc-d02780117d20","ios":"levelo://app?vid=721703a2-532a-4593-88cc-d02780117d20"},"vehicle_type_id":"4","last_reported":1739798298,"current_range_meters":16400,"station_id":"ce4bgi92rcd13ifvqb90","pricing_plan_id":"cebpf4jnsgd1na2vs0mg"},{"bike_id":"91bf3218-0a05-4226-acc9-b3131b7d5a8d","system_id":"levelo_inurba_marseille","lat":43.23957,"lon":5.3662,"is_reserved":false,"is_disabled":false,"rental_uris":{"android":"levelo://app?vid=91bf3218-0a05-4226-acc9-b3131b7d5a8d","ios":"levelo://app?vid=91bf3218-0a05-4226-acc9-b3131b7d5a8d"},"vehicle_type_id":"4","last_reported":1739798298,"current_range_meters":16400,"station_id":"ce4bhi12rcd13ifvqfp0","pricing_plan_id":"cebpf4jnsgd1na2vs0mg"},{"bike_id":"1e1faca5-0a8a-44ad-a8cf-20061f0e1d29","system_id":"levelo_inurba_marseille","lat":43.28441,"lon":5.37517,"is_reserved":false,"is_disabled":false,"rental_uris":{"android":"levelo://app?vid=1e1faca5-0a8a-44ad-a8cf-20061f0e1d29","ios":"levelo://app?vid=1e1faca5-0a8a-44ad-a8cf-20061f0e1d29"},"vehicle_type_id":"4","last_reported":1739798298,"current_range_meters":16400,"station_id":"ce4bh412rcd13ifvqds0","pricing_plan_id":"cebpf4jnsgd1na2vs0mg"},{"bike_id":"d9da9ec9-50c3-42fd-9f4d-8da50caac3d0","system_id":"levelo_inurba_marseille","lat":43.26943,"lon":5.38658,"is_reserved":false,"is_disabled":false,"rental_uris":{"android":"levelo://app?vid=d9da9ec9-50c3-42fd-9f4d-8da50caac3d0","ios":"levelo://app?vid=d9da9ec9-50c3-42fd-9f4d-8da50caac3d0"},"vehicle_type_id":"4","last_reported":1739798298,"current_range_meters":16400,"station_id":"ce4bhh92rcd13ifvqfh0","pricing_plan_id":"cebpf4jnsgd1na2vs0mg"},{"bike_id":"475f1293-84a1-4367-858e-1bfb454f2c52","system_id":"levelo_inurba_marseille","lat":43.23153,"lon":5.43719,"is_reserved":false,"is_disabled":false,"rental_uris":{"android":"levelo://app?vid=475f1293-84a1-4367-858e-1bfb454f2c52","ios":"levelo://app?vid=475f1293-84a1-4367-858e-1bfb454f2c52"},"vehicle_type_id":"4","last_reported":1739798298,"current_range_meters":16400,"station_id":"ce4bhmp2rcd13ifvqgog","pricing_plan_id":"cebpf4jnsgd1na2vs0mg"},{"bike_id":"4a42b849-8dce-4679-be4e-fb42f1f7b062","system_id":"levelo_inurba_marseille","lat":43.24175,"lon":5.39739,"is_reserved":false,"is_disabled":false,"rental_uris":{"android":"levelo://app?vid=4a42b849-8dce-4679-be4e-fb42f1f7b062","ios":"levelo://app?vid=4a42b849-8dce-4679-be4e-fb42f1f7b062"},"vehicle_type_id":"4","last_reported":1739798298,"current_range_meters":16400,"station_id":"ce4bhn12rcd13ifvqgpg","pricing_plan_id":"cebpf4jnsgd1na2vs0mg"},{"bike_id":"e57f9313-8443-49d5-820a-e3f0c205b6f2","system_id":"levelo_inurba_marseille","lat":43.24068,"lon":5.37746,"is_reserved":false,"is_disabled":false,"rental_uris":{"android":"levelo://app?vid=e57f9313-8443-49d5-820a-e3f0c205b6f2","ios":"levelo://app?vid=e57f9313-8443-49d5-820a-e3f0c205b6f2"},"vehicle_type_id":"4","last_reported":1739798298,"current_range_meters":16400,"station_id":"ce4bhnp2rcd13ifvqgvg","pricing_plan_id":"cebpf4jnsgd1na2vs0mg"},{"bike_id":"f48ae73a-08fb-4ee8-9db5-88388c64d606","system_id":"levelo_inurba_marseille","lat":43.29893,"lon":5.43658,"is_reserved":false,"is_disabled":false,"rental_uris":{"android":"levelo://app?vid=f48ae73a-08fb-4ee8-9db5-88388c64d606","ios":"levelo://app?vid=f48ae73a-08fb-4ee8-9db5-88388c64d606"},"vehicle_type_id":"4","last_reported":1739798298,"current_range_meters":16400,"station_id":"ce4bhpp2rcd13ifvqhfg","pricing_plan_id":"cebpf4jnsgd1na2vs0mg"},{"bike_id":"7e2a03c9-4d7f-4291-ac8a-b2f1e14fd908","system_id":"levelo_inurba_marseille","lat":43.27313,"lon":5.39078,"is_reserved":false,"is_disabled":false,"rental_uris":{"android":"levelo://app?vid=7e2a03c9-4d7f-4291-ac8a-b2f1e14fd908","ios":"levelo://app?vid=7e2a03c9-4d7f-4291-ac8a-b2f1e14fd908"},"vehicle_type_id":"4","last_reported":1739798298,"current_range_meters":16400,"station_id":"ce4bhgp2rcd13ifvqfe0","pricing_plan_id":"cebpf4jnsgd1na2vs0mg"},{"bike_id":"a3d19399-f165-4423-a6ad-9b298564f78d","system_id":"levelo_inurba_marseille","lat":43.27681,"lon":5.41538,"is_reserved":false,"is_disabled":false,"rental_uris":{"android":"levelo://app?vid=a3d19399-f165-4423-a6ad-9b298564f78d","ios":"levelo://app?vid=a3d19399-f165-4423-a6ad-9b298564f78d"},"vehicle_type_id":"4","last_reported":1739798298,"current_range_meters":16400,"station_id":"","pricing_plan_id":"cebpf4jnsgd1na2vs0mg"},{"bike_id":"8400608f-9b0c-4949-8392-d9cd9cc2f7d1","system_id":"levelo_inurba_marseille","lat":43.3237,"lon":5.40602,"is_reserved":false,"is_disabled":false,"rental_uris":{"android":"levelo://app?vid=8400608f-9b0c-4949-8392-d9cd9cc2f7d1","ios":"levelo://app?vid=8400608f-9b0c-4949-8392-d9cd9cc2f7d1"},"vehicle_type_id":"4","last_reported":1739798298,"current_range_meters":16800,"station_id":"ce4bhq92rcd13ifvqhjg","pricing_plan_id":"cebpf4jnsgd1na2vs0mg"},{"bike_id":"a662d250-9d12-49cf-972a-9aa337ac7c51","system_id":"levelo_inurba_marseille","lat":43.24829,"lon":5.37459,"is_reserved":false,"is_disabled":false,"rental_uris":{"android":"levelo://app?vid=a662d250-9d12-49cf-972a-9aa337ac7c51","ios":"levelo://app?vid=a662d250-9d12-49cf-972a-9aa337ac7c51"},"vehicle_type_id":"4","last_reported":1739798298,"current_range_meters":17200,"station_id":"ce4bhgh2rcd13ifvqfb0","pricing_plan_id":"cebpf4jnsgd1na2vs0mg"},{"bike_id":"411ae60d-45d9-4ead-b086-8cb5abefecd0","system_id":"levelo_inurba_marseille","lat":43.29043,"lon":5.35914,"is_reserved":false,"is_disabled":false,"rental_uris":{"android":"levelo://app?vid=411ae60d-45d9-4ead-b086-8cb5abefecd0","ios":"levelo://app?vid=411ae60d-45d9-4ead-b086-8cb5abefecd0"},"vehicle_type_id":"4","last_reported":1739798298,"current_range_meters":16800,"station_id":"ce4bha92rcd13ifvqeg0","pricing_plan_id":"cebpf4jnsgd1na2vs0mg"},{"bike_id":"9a0ac1d7-57ab-45ba-a7ff-71e6f435fd29","system_id":"levelo_inurba_marseille","lat":43.30955,"lon":5.3903,"is_reserved":false,"is_disabled":true,"rental_uris":{"android":"levelo://app?vid=9a0ac1d7-57ab-45ba-a7ff-71e6f435fd29","ios":"levelo://app?vid=9a0ac1d7-57ab-45ba-a7ff-71e6f435fd29"},"vehicle_type_id":"4","last_reported":1739798298,"current_range_meters":16800,"station_id":"ce4bgup2rcd13ifvqco0","pricing_plan_id":"cebpf4jnsgd1na2vs0mg"},{"bike_id":"8821d221-80a9-410d-86eb-b6186a8514ca","system_id":"levelo_inurba_marseille","lat":43.24073,"lon":5.37762,"is_reserved":false,"is_disabled":false,"rental_uris":{"android":"levelo://app?vid=8821d221-80a9-410d-86eb-b6186a8514ca","ios":"levelo://app?vid=8821d221-80a9-410d-86eb-b6186a8514ca"},"vehicle_type_id":"4","last_reported":1739798298,"current_range_meters":16800,"station_id":"ce4bhnp2rcd13ifvqgvg","pricing_plan_id":"cebpf4jnsgd1na2vs0mg"},{"bike_id":"24ebf8a8-886a-4d01-b0b4-74b391d54ff1","system_id":"levelo_inurba_marseille","lat":43.30212,"lon":5.39483,"is_reserved":false,"is_disabled":false,"rental_uris":{"android":"levelo://app?vid=24ebf8a8-886a-4d01-b0b4-74b391d54ff1","ios":"levelo://app?vid=24ebf8a8-886a-4d01-b0b4-74b391d54ff1"},"vehicle_type_id":"4","last_reported":1739798298,"current_range_meters":16800,"station_id":"ce4bh0p2rcd13ifvqd70","pricing_plan_id":"cebpf4jnsgd1na2vs0mg"},{"bike_id":"c88c0dc8-5a6b-4ce0-af6b-615734767dd1","system_id":"levelo_inurba_marseille","lat":43.29229,"lon":5.36068,"is_reserved":false,"is_disabled":false,"rental_uris":{"android":"levelo://app?vid=c88c0dc8-5a6b-4ce0-af6b-615734767dd1","ios":"levelo://app?vid=c88c0dc8-5a6b-4ce0-af6b-615734767dd1"},"vehicle_type_id":"4","last_reported":1739798298,"current_range_meters":16800,"station_id":"ce4bhbh2rcd13ifvqeqg","pricing_plan_id":"cebpf4jnsgd1na2vs0mg"},{"bike_id":"b7ea6e7f-4daa-4886-9c63-6c0211897347","system_id":"levelo_inurba_marseille","lat":43.30096,"lon":5.39076,"is_reserved":false,"is_disabled":false,"rental_uris":{"android":"levelo://app?vid=b7ea6e7f-4daa-4886-9c63-6c0211897347","ios":"levelo://app?vid=b7ea6e7f-4daa-4886-9c63-6c0211897347"},"vehicle_type_id":"4","last_reported":1739798298,"current_range_meters":17200,"station_id":"","pricing_plan_id":"cebpf4jnsgd1na2vs0mg"},{"bike_id":"78d96bc0-50fd-4c5c-b327-841cdab85b08","system_id":"levelo_inurba_marseille","lat":43.29932,"lon":5.36554,"is_reserved":false,"is_disabled":false,"rental_uris":{"android":"levelo://app?vid=78d96bc0-50fd-4c5c-b327-841cdab85b08","ios":"levelo://app?vid=78d96bc0-50fd-4c5c-b327-841cdab85b08"},"vehicle_type_id":"4","last_reported":1739798298,"current_range_meters":16800,"station_id":"ce4bgm92rcd13ifvqbr0","pricing_plan_id":"cebpf4jnsgd1na2vs0mg"},{"bike_id":"717fe8ca-28b8-437e-b57f-dd7e30b5ee21","system_id":"levelo_inurba_marseille","lat":43.28569,"lon":5.39499,"is_reserved":false,"is_disabled":false,"rental_uris":{"android":"levelo://app?vid=717fe8ca-28b8-437e-b57f-dd7e30b5ee21","ios":"levelo://app?vid=717fe8ca-28b8-437e-b57f-dd7e30b5ee21"},"vehicle_type_id":"4","last_reported":1739798298,"current_range_meters":17200,"station_id":"ce4bh292rcd13ifvqdg0","pricing_plan_id":"cebpf4jnsgd1na2vs0mg"},{"bike_id":"226eddad-f3ca-4c7d-9a61-a2ae6afbfef1","system_id":"levelo_inurba_marseille","lat":43.29838,"lon":5.36275,"is_reserved":false,"is_disabled":false,"rental_uris":{"android":"levelo://app?vid=226eddad-f3ca-4c7d-9a61-a2ae6afbfef1","ios":"levelo://app?vid=226eddad-f3ca-4c7d-9a61-a2ae6afbfef1"},"vehicle_type_id":"4","last_reported":1739798298,"current_range_meters":16800,"station_id":"ce4bgpp2rcd13ifvqc3g","pricing_plan_id":"cebpf4jnsgd1na2vs0mg"},{"bike_id":"a00579aa-2fdb-454b-acea-4784cc879539","system_id":"levelo_inurba_marseille","lat":43.32658,"lon":5.40998,"is_reserved":false,"is_disabled":false,"rental_uris":{"android":"levelo://app?vid=a00579aa-2fdb-454b-acea-4784cc879539","ios":"levelo://app?vid=a00579aa-2fdb-454b-acea-4784cc879539"},"vehicle_type_id":"4","last_reported":1739798298,"current_range_meters":17200,"station_id":"ce4bhpp2rcd13ifvqhgg","pricing_plan_id":"cebpf4jnsgd1na2vs0mg"},{"bike_id":"19054a3c-ce1e-4433-a01e-9572f69a3f4e","system_id":"levelo_inurba_marseille","lat":43.29616,"lon":5.37732,"is_reserved":false,"is_disabled":false,"rental_uris":{"android":"levelo://app?vid=19054a3c-ce1e-4433-a01e-9572f69a3f4e","ios":"levelo://app?vid=19054a3c-ce1e-4433-a01e-9572f69a3f4e"},"vehicle_type_id":"4","last_reported":1739798298,"current_range_meters":17200,"station_id":"ce4bgi92rcd13ifvqb90","pricing_plan_id":"cebpf4jnsgd1na2vs0mg"},{"bike_id":"0c95993f-f141-442f-9a15-478429bec3fc","system_id":"levelo_inurba_marseille","lat":43.29915,"lon":5.37575,"is_reserved":false,"is_disabled":true,"rental_uris":{"android":"levelo://app?vid=0c95993f-f141-442f-9a15-478429bec3fc","ios":"levelo://app?vid=0c95993f-f141-442f-9a15-478429bec3fc"},"vehicle_type_id":"4","last_reported":1739798298,"current_range_meters":17200,"station_id":"","pricing_plan_id":"cebpf4jnsgd1na2vs0mg"},{"bike_id":"51e5e272-1390-4266-8747-10ef46d95bd1","system_id":"levelo_inurba_marseille","lat":43.22933,"lon":5.35391,"is_reserved":false,"is_disabled":false,"rental_uris":{"android":"levelo://app?vid=51e5e272-1390-4266-8747-10ef46d95bd1","ios":"levelo://app?vid=51e5e272-1390-4266-8747-10ef46d95bd1"},"vehicle_type_id":"4","last_reported":1739798298,"current_range_meters":17200,"station_id":"cpo3532slgdg3j2ikp40","pricing_plan_id":"cebpf4jnsgd1na2vs0mg"},{"bike_id":"bb4a3648-09cb-4cc2-9947-bf380533d03f","system_id":"levelo_inurba_marseille","lat":43.31665,"lon":5.37244,"is_reserved":false,"is_disabled":false,"rental_uris":{"android":"levelo://app?vid=bb4a3648-09cb-4cc2-9947-bf380533d03f","ios":"levelo://app?vid=bb4a3648-09cb-4cc2-9947-bf380533d03f"},"vehicle_type_id":"4","last_reported":1739798298,"current_range_meters":17200,"station_id":"","pricing_plan_id":"cebpf4jnsgd1na2vs0mg"},{"bike_id":"e493d32f-c7df-48a8-8644-e6c67b333882","system_id":"levelo_inurba_marseille","lat":43.30145,"lon":5.37124,"is_reserved":false,"is_disabled":false,"rental_uris":{"android":"levelo://app?vid=e493d32f-c7df-48a8-8644-e6c67b333882","ios":"levelo://app?vid=e493d32f-c7df-48a8-8644-e6c67b333882"},"vehicle_type_id":"4","last_reported":1739798298,"current_range_meters":17200,"station_id":"","pricing_plan_id":"cebpf4jnsgd1na2vs0mg"},{"bike_id":"9f5e2ed3-dbc9-412d-b781-75ed365a25cc","system_id":"levelo_inurba_marseille","lat":43.27058,"lon":5.40261,"is_reserved":false,"is_disabled":false,"rental_uris":{"android":"levelo://app?vid=9f5e2ed3-dbc9-412d-b781-75ed365a25cc","ios":"levelo://app?vid=9f5e2ed3-dbc9-412d-b781-75ed365a25cc"},"vehicle_type_id":"4","last_reported":1739798298,"current_range_meters":17600,"station_id":"ce4bhk92rcd13ifvqgc0","pricing_plan_id":"cebpf4jnsgd1na2vs0mg"},{"bike_id":"ea59682e-3627-4592-8ea0-4a29e940490e","system_id":"levelo_inurba_marseille","lat":43.29967,"lon":5.37172,"is_reserved":false,"is_disabled":false,"rental_uris":{"android":"levelo://app?vid=ea59682e-3627-4592-8ea0-4a29e940490e","ios":"levelo://app?vid=ea59682e-3627-4592-8ea0-4a29e940490e"},"vehicle_type_id":"4","last_reported":1739798298,"current_range_meters":18000,"station_id":"ce4bgr92rcd13ifvqc7g","pricing_plan_id":"cebpf4jnsgd1na2vs0mg"},{"bike_id":"6ec200ed-f04d-4871-95f5-7350157ade2f","system_id":"levelo_inurba_marseille","lat":43.24177,"lon":5.3973,"is_reserved":false,"is_disabled":false,"rental_uris":{"android":"levelo://app?vid=6ec200ed-f04d-4871-95f5-7350157ade2f","ios":"levelo://app?vid=6ec200ed-f04d-4871-95f5-7350157ade2f"},"vehicle_type_id":"4","last_reported":1739798298,"current_range_meters":17600,"station_id":"ce4bhn12rcd13ifvqgpg","pricing_plan_id":"cebpf4jnsgd1na2vs0mg"},{"bike_id":"a9e8daf3-70cf-4ca0-a2bf-a2ff80ebc918","system_id":"levelo_inurba_marseille","lat":43.304568,"lon":5.369571,"is_reserved":false,"is_disabled":false,"rental_uris":{"android":"levelo://app?vid=a9e8daf3-70cf-4ca0-a2bf-a2ff80ebc918","ios":"levelo://app?vid=a9e8daf3-70cf-4ca0-a2bf-a2ff80ebc918"},"vehicle_type_id":"4","last_reported":1739798298,"current_range_meters":17600,"station_id":"","pricing_plan_id":"cebpf4jnsgd1na2vs0mg"},{"bike_id":"0c4d800b-5126-4ebf-a420-722193d89483","system_id":"levelo_inurba_marseille","lat":43.3359,"lon":5.40996,"is_reserved":false,"is_disabled":false,"rental_uris":{"android":"levelo://app?vid=0c4d800b-5126-4ebf-a420-722193d89483","ios":"levelo://app?vid=0c4d800b-5126-4ebf-a420-722193d89483"},"vehicle_type_id":"4","last_reported":1739798298,"current_range_meters":17600,"station_id":"ce4bhqh2rcd13ifvqhmg","pricing_plan_id":"cebpf4jnsgd1na2vs0mg"},{"bike_id":"7f4269dd-2ac5-4b5a-b384-c1682237db47","system_id":"levelo_inurba_marseille","lat":43.26807,"lon":5.40269,"is_reserved":false,"is_disabled":false,"rental_uris":{"android":"levelo://app?vid=7f4269dd-2ac5-4b5a-b384-c1682237db47","ios":"levelo://app?vid=7f4269dd-2ac5-4b5a-b384-c1682237db47"},"vehicle_type_id":"4","last_reported":1739798298,"current_range_meters":17600,"station_id":"ce501612rcd8frsf0b60","pricing_plan_id":"cebpf4jnsgd1na2vs0mg"},{"bike_id":"bc80e012-c61b-4676-8703-d5a0eb6cf10b","system_id":"levelo_inurba_marseille","lat":43.2927,"lon":5.38451,"is_reserved":false,"is_disabled":false,"rental_uris":{"android":"levelo://app?vid=bc80e012-c61b-4676-8703-d5a0eb6cf10b","ios":"levelo://app?vid=bc80e012-c61b-4676-8703-d5a0eb6cf10b"},"vehicle_type_id":"4","last_reported":1739798298,"current_range_meters":17600,"station_id":"ce4bh692rcd13ifvqea0","pricing_plan_id":"cebpf4jnsgd1na2vs0mg"},{"bike_id":"a81f047e-2602-4d29-8821-508c11538471","system_id":"levelo_inurba_marseille","lat":43.2293,"lon":5.35348,"is_reserved":false,"is_disabled":false,"rental_uris":{"android":"levelo://app?vid=a81f047e-2602-4d29-8821-508c11538471","ios":"levelo://app?vid=a81f047e-2602-4d29-8821-508c11538471"},"vehicle_type_id":"4","last_reported":1739798298,"current_range_meters":18000,"station_id":"cpo3532slgdg3j2ikp40","pricing_plan_id":"cebpf4jnsgd1na2vs0mg"},{"bike_id":"2b78a580-f064-4192-a68d-8925275237ea","system_id":"levelo_inurba_marseille","lat":43.28275,"lon":5.35072,"is_reserved":false,"is_disabled":false,"rental_uris":{"android":"levelo://app?vid=2b78a580-f064-4192-a68d-8925275237ea","ios":"levelo://app?vid=2b78a580-f064-4192-a68d-8925275237ea"},"vehicle_type_id":"4","last_reported":1739798298,"current_range_meters":18000,"station_id":"ce4bhbp2rcd13ifvqerg","pricing_plan_id":"cebpf4jnsgd1na2vs0mg"},{"bike_id":"98c262ff-6ad4-46c3-98b5-69631a8e5097","system_id":"levelo_inurba_marseille","lat":43.26806,"lon":5.40268,"is_reserved":false,"is_disabled":false,"rental_uris":{"android":"levelo://app?vid=98c262ff-6ad4-46c3-98b5-69631a8e5097","ios":"levelo://app?vid=98c262ff-6ad4-46c3-98b5-69631a8e5097"},"vehicle_type_id":"4","last_reported":1739798298,"current_range_meters":18000,"station_id":"ce501612rcd8frsf0b60","pricing_plan_id":"cebpf4jnsgd1na2vs0mg"},{"bike_id":"a6385b51-9d7a-4e87-833b-a60d9d970782","system_id":"levelo_inurba_marseille","lat":43.30644,"lon":5.40101,"is_reserved":false,"is_disabled":false,"rental_uris":{"android":"levelo://app?vid=a6385b51-9d7a-4e87-833b-a60d9d970782","ios":"levelo://app?vid=a6385b51-9d7a-4e87-833b-a60d9d970782"},"vehicle_type_id":"4","last_reported":1739798298,"current_range_meters":17600,"station_id":"ce4bh112rcd13ifvqda0","pricing_plan_id":"cebpf4jnsgd1na2vs0mg"},{"bike_id":"20bf0f99-c9d5-43d0-bede-cee701a2ad02","system_id":"levelo_inurba_marseille","lat":43.279859,"lon":5.416599,"is_reserved":false,"is_disabled":false,"rental_uris":{"android":"levelo://app?vid=20bf0f99-c9d5-43d0-bede-cee701a2ad02","ios":"levelo://app?vid=20bf0f99-c9d5-43d0-bede-cee701a2ad02"},"vehicle_type_id":"4","last_reported":1739798298,"current_range_meters":18000,"station_id":"ce4bho12rcd13ifvqh1g","pricing_plan_id":"cebpf4jnsgd1na2vs0mg"},{"bike_id":"8c7b7ad8-5e21-4e33-b2a6-06232efa12d3","system_id":"levelo_inurba_marseille","lat":43.28857,"lon":5.35857,"is_reserved":false,"is_disabled":false,"rental_uris":{"android":"levelo://app?vid=8c7b7ad8-5e21-4e33-b2a6-06232efa12d3","ios":"levelo://app?vid=8c7b7ad8-5e21-4e33-b2a6-06232efa12d3"},"vehicle_type_id":"4","last_reported":1739798298,"current_range_meters":18000,"station_id":"ce4bhb12rcd13ifvqem0","pricing_plan_id":"cebpf4jnsgd1na2vs0mg"},{"bike_id":"1e435478-a2c9-4f48-87a1-13e3b6e4b782","system_id":"levelo_inurba_marseille","lat":43.26218,"lon":5.37442,"is_reserved":false,"is_disabled":false,"rental_uris":{"android":"levelo://app?vid=1e435478-a2c9-4f48-87a1-13e3b6e4b782","ios":"levelo://app?vid=1e435478-a2c9-4f48-87a1-13e3b6e4b782"},"vehicle_type_id":"4","last_reported":1739798298,"current_range_meters":18000,"station_id":"ce4bhgp2rcd13ifvqfc0","pricing_plan_id":"cebpf4jnsgd1na2vs0mg"},{"bike_id":"8cbf1044-63aa-40dc-8f90-2cebfa313693","system_id":"levelo_inurba_marseille","lat":43.29807,"lon":5.37248,"is_reserved":false,"is_disabled":false,"rental_uris":{"android":"levelo://app?vid=8cbf1044-63aa-40dc-8f90-2cebfa313693","ios":"levelo://app?vid=8cbf1044-63aa-40dc-8f90-2cebfa313693"},"vehicle_type_id":"4","last_reported":1739798298,"current_range_meters":19200,"station_id":"ce4bgn12rcd13ifvqbt0","pricing_plan_id":"cebpf4jnsgd1na2vs0mg"},{"bike_id":"e719f4d1-982b-4784-b145-76fcfedba6a7","system_id":"levelo_inurba_marseille","lat":43.28707,"lon":5.39991,"is_reserved":false,"is_disabled":false,"rental_uris":{"android":"levelo://app?vid=e719f4d1-982b-4784-b145-76fcfedba6a7","ios":"levelo://app?vid=e719f4d1-982b-4784-b145-76fcfedba6a7"},"vehicle_type_id":"4","last_reported":1739798298,"current_range_meters":18800,"station_id":"ce4bho92rcd13ifvqh3g","pricing_plan_id":"cebpf4jnsgd1na2vs0mg"},{"bike_id":"f235e94e-40b4-4a4c-8f15-bd95df01e708","system_id":"levelo_inurba_marseille","lat":43.25933,"lon":5.40894,"is_reserved":false,"is_disabled":false,"rental_uris":{"android":"levelo://app?vid=f235e94e-40b4-4a4c-8f15-bd95df01e708","ios":"levelo://app?vid=f235e94e-40b4-4a4c-8f15-bd95df01e708"},"vehicle_type_id":"4","last_reported":1739798298,"current_range_meters":18800,"station_id":"ce4bhm92rcd13ifvqglg","pricing_plan_id":"cebpf4jnsgd1na2vs0mg"},{"bike_id":"9885c601-2cbe-4ea7-9b6c-479dc416387c","system_id":"levelo_inurba_marseille","lat":43.29902,"lon":5.43682,"is_reserved":false,"is_disabled":false,"rental_uris":{"android":"levelo://app?vid=9885c601-2cbe-4ea7-9b6c-479dc416387c","ios":"levelo://app?vid=9885c601-2cbe-4ea7-9b6c-479dc416387c"},"vehicle_type_id":"4","last_reported":1739798298,"current_range_meters":19200,"station_id":"ce4bhpp2rcd13ifvqhfg","pricing_plan_id":"cebpf4jnsgd1na2vs0mg"},{"bike_id":"f2f038bb-5d3a-415b-9164-ad30d51c80ee","system_id":"levelo_inurba_marseille","lat":43.24018,"lon":5.37658,"is_reserved":false,"is_disabled":false,"rental_uris":{"android":"levelo://app?vid=f2f038bb-5d3a-415b-9164-ad30d51c80ee","ios":"levelo://app?vid=f2f038bb-5d3a-415b-9164-ad30d51c80ee"},"vehicle_type_id":"4","last_reported":1739798298,"current_range_meters":19200,"station_id":"","pricing_plan_id":"cebpf4jnsgd1na2vs0mg"},{"bike_id":"954882ad-f997-48eb-8b49-af0b0b38bc7e","system_id":"levelo_inurba_marseille","lat":43.3106,"lon":5.36971,"is_reserved":false,"is_disabled":false,"rental_uris":{"android":"levelo://app?vid=954882ad-f997-48eb-8b49-af0b0b38bc7e","ios":"levelo://app?vid=954882ad-f997-48eb-8b49-af0b0b38bc7e"},"vehicle_type_id":"4","last_reported":1739798298,"current_range_meters":19200,"station_id":"","pricing_plan_id":"cebpf4jnsgd1na2vs0mg"},{"bike_id":"ae9b4191-fc7e-4537-a4cd-810e369c484b","system_id":"levelo_inurba_marseille","lat":43.2583,"lon":5.39439,"is_reserved":false,"is_disabled":false,"rental_uris":{"android":"levelo://app?vid=ae9b4191-fc7e-4537-a4cd-810e369c484b","ios":"levelo://app?vid=ae9b4191-fc7e-4537-a4cd-810e369c484b"},"vehicle_type_id":"4","last_reported":1739798298,"current_range_meters":19200,"station_id":"ce4bhip2rcd13ifvqft0","pricing_plan_id":"cebpf4jnsgd1na2vs0mg"},{"bike_id":"b5be2404-fa95-4b0f-a11c-bfc60d40bdbe","system_id":"levelo_inurba_marseille","lat":43.30648,"lon":5.40098,"is_reserved":false,"is_disabled":false,"rental_uris":{"android":"levelo://app?vid=b5be2404-fa95-4b0f-a11c-bfc60d40bdbe","ios":"levelo://app?vid=b5be2404-fa95-4b0f-a11c-bfc60d40bdbe"},"vehicle_type_id":"4","last_reported":1739798298,"current_range_meters":19200,"station_id":"ce4bh112rcd13ifvqda0","pricing_plan_id":"cebpf4jnsgd1na2vs0mg"},{"bike_id":"96a5d018-2110-4307-a224-b7ea4a252568","system_id":"levelo_inurba_marseille","lat":43.26038,"lon":5.37545,"is_reserved":false,"is_disabled":false,"rental_uris":{"android":"levelo://app?vid=96a5d018-2110-4307-a224-b7ea4a252568","ios":"levelo://app?vid=96a5d018-2110-4307-a224-b7ea4a252568"},"vehicle_type_id":"4","last_reported":1739798298,"current_range_meters":19200,"station_id":"ce4bhgh2rcd13ifvqfa0","pricing_plan_id":"cebpf4jnsgd1na2vs0mg"},{"bike_id":"9dbb2a2a-6935-49c1-b722-29ab9960ce2e","system_id":"levelo_inurba_marseille","lat":43.3236,"lon":5.38879,"is_reserved":false,"is_disabled":false,"rental_uris":{"android":"levelo://app?vid=9dbb2a2a-6935-49c1-b722-29ab9960ce2e","ios":"levelo://app?vid=9dbb2a2a-6935-49c1-b722-29ab9960ce2e"},"vehicle_type_id":"4","last_reported":1739798298,"current_range_meters":19200,"station_id":"ce4bhqp2rcd13ifvqhog","pricing_plan_id":"cebpf4jnsgd1na2vs0mg"},{"bike_id":"ddb77486-45fd-4e99-b99d-cc39ad3aea66","system_id":"levelo_inurba_marseille","lat":43.26041,"lon":5.37554,"is_reserved":false,"is_disabled":false,"rental_uris":{"android":"levelo://app?vid=ddb77486-45fd-4e99-b99d-cc39ad3aea66","ios":"levelo://app?vid=ddb77486-45fd-4e99-b99d-cc39ad3aea66"},"vehicle_type_id":"4","last_reported":1739798298,"current_range_meters":19200,"station_id":"ce4bhgh2rcd13ifvqfa0","pricing_plan_id":"cebpf4jnsgd1na2vs0mg"},{"bike_id":"87e4e3d9-887e-4f25-bf58-279367bc8327","system_id":"levelo_inurba_marseille","lat":43.306635,"lon":5.400925,"is_reserved":false,"is_disabled":true,"rental_uris":{"android":"levelo://app?vid=87e4e3d9-887e-4f25-bf58-279367bc8327","ios":"levelo://app?vid=87e4e3d9-887e-4f25-bf58-279367bc8327"},"vehicle_type_id":"4","last_reported":1739798298,"current_range_meters":19600,"station_id":"ce4bh112rcd13ifvqda0","pricing_plan_id":"cebpf4jnsgd1na2vs0mg"},{"bike_id":"ff7f4373-418d-47c4-92b8-8e40f7b617a4","system_id":"levelo_inurba_marseille","lat":43.22931,"lon":5.35374,"is_reserved":false,"is_disabled":false,"rental_uris":{"android":"levelo://app?vid=ff7f4373-418d-47c4-92b8-8e40f7b617a4","ios":"levelo://app?vid=ff7f4373-418d-47c4-92b8-8e40f7b617a4"},"vehicle_type_id":"4","last_reported":1739798298,"current_range_meters":19600,"station_id":"cpo3532slgdg3j2ikp40","pricing_plan_id":"cebpf4jnsgd1na2vs0mg"},{"bike_id":"3ba0e61e-8059-49f6-a77d-d951ac1006a4","system_id":"levelo_inurba_marseille","lat":43.29911,"lon":5.38137,"is_reserved":false,"is_disabled":false,"rental_uris":{"android":"levelo://app?vid=3ba0e61e-8059-49f6-a77d-d951ac1006a4","ios":"levelo://app?vid=3ba0e61e-8059-49f6-a77d-d951ac1006a4"},"vehicle_type_id":"4","last_reported":1739798298,"current_range_meters":19600,"station_id":"ce4bgj12rcd13ifvqbc0","pricing_plan_id":"cebpf4jnsgd1na2vs0mg"},{"bike_id":"d95ee1ac-6625-45f3-947e-4e9c29dc24d2","system_id":"levelo_inurba_marseille","lat":43.22937,"lon":5.35382,"is_reserved":false,"is_disabled":false,"rental_uris":{"android":"levelo://app?vid=d95ee1ac-6625-45f3-947e-4e9c29dc24d2","ios":"levelo://app?vid=d95ee1ac-6625-45f3-947e-4e9c29dc24d2"},"vehicle_type_id":"4","last_reported":1739798298,"current_range_meters":19600,"station_id":"cpo3532slgdg3j2ikp40","pricing_plan_id":"cebpf4jnsgd1na2vs0mg"},{"bike_id":"5bd3b795-1c94-4f69-923e-28d6296b76b4","system_id":"levelo_inurba_marseille","lat":43.2799,"lon":5.41653,"is_reserved":false,"is_disabled":false,"rental_uris":{"android":"levelo://app?vid=5bd3b795-1c94-4f69-923e-28d6296b76b4","ios":"levelo://app?vid=5bd3b795-1c94-4f69-923e-28d6296b76b4"},"vehicle_type_id":"4","last_reported":1739798298,"current_range_meters":19600,"station_id":"ce4bho12rcd13ifvqh1g","pricing_plan_id":"cebpf4jnsgd1na2vs0mg"},{"bike_id":"4d50de08-2cec-428e-9f44-63d60dd7ce1c","system_id":"levelo_inurba_marseille","lat":43.32369,"lon":5.38888,"is_reserved":false,"is_disabled":false,"rental_uris":{"android":"levelo://app?vid=4d50de08-2cec-428e-9f44-63d60dd7ce1c","ios":"levelo://app?vid=4d50de08-2cec-428e-9f44-63d60dd7ce1c"},"vehicle_type_id":"4","last_reported":1739798298,"current_range_meters":19600,"station_id":"ce4bhqp2rcd13ifvqhog","pricing_plan_id":"cebpf4jnsgd1na2vs0mg"},{"bike_id":"aee00ad4-2ef0-4c13-89bd-5f432067c8ae","system_id":"levelo_inurba_marseille","lat":43.30891,"lon":5.39665,"is_reserved":false,"is_disabled":false,"rental_uris":{"android":"levelo://app?vid=aee00ad4-2ef0-4c13-89bd-5f432067c8ae","ios":"levelo://app?vid=aee00ad4-2ef0-4c13-89bd-5f432067c8ae"},"vehicle_type_id":"4","last_reported":1739798298,"current_range_meters":19200,"station_id":"ce4bh012rcd13ifvqcv0","pricing_plan_id":"cebpf4jnsgd1na2vs0mg"},{"bike_id":"7312cda3-bba1-47e6-b097-bd447e567723","system_id":"levelo_inurba_marseille","lat":43.240755,"lon":5.37748,"is_reserved":false,"is_disabled":false,"rental_uris":{"android":"levelo://app?vid=7312cda3-bba1-47e6-b097-bd447e567723","ios":"levelo://app?vid=7312cda3-bba1-47e6-b097-bd447e567723"},"vehicle_type_id":"4","last_reported":1739798298,"current_range_meters":19600,"station_id":"ce4bhnp2rcd13ifvqgvg","pricing_plan_id":"cebpf4jnsgd1na2vs0mg"},{"bike_id":"fe93f667-8c09-4429-bb67-402b2df92f4e","system_id":"levelo_inurba_marseille","lat":43.29923,"lon":5.36531,"is_reserved":false,"is_disabled":false,"rental_uris":{"android":"levelo://app?vid=fe93f667-8c09-4429-bb67-402b2df92f4e","ios":"levelo://app?vid=fe93f667-8c09-4429-bb67-402b2df92f4e"},"vehicle_type_id":"4","last_reported":1739798298,"current_range_meters":19600,"station_id":"ce4bgm92rcd13ifvqbr0","pricing_plan_id":"cebpf4jnsgd1na2vs0mg"},{"bike_id":"1d5d6ae1-009e-4e90-90b8-31651747fdb6","system_id":"levelo_inurba_marseille","lat":43.26037,"lon":5.37547,"is_reserved":false,"is_disabled":false,"rental_uris":{"android":"levelo://app?vid=1d5d6ae1-009e-4e90-90b8-31651747fdb6","ios":"levelo://app?vid=1d5d6ae1-009e-4e90-90b8-31651747fdb6"},"vehicle_type_id":"4","last_reported":1739798298,"current_range_meters":19600,"station_id":"ce4bhgh2rcd13ifvqfa0","pricing_plan_id":"cebpf4jnsgd1na2vs0mg"},{"bike_id":"5d9dc9b4-2132-44d4-a6ae-43c679254f39","system_id":"levelo_inurba_marseille","lat":43.27055,"lon":5.4027,"is_reserved":false,"is_disabled":false,"rental_uris":{"android":"levelo://app?vid=5d9dc9b4-2132-44d4-a6ae-43c679254f39","ios":"levelo://app?vid=5d9dc9b4-2132-44d4-a6ae-43c679254f39"},"vehicle_type_id":"4","last_reported":1739798298,"current_range_meters":19600,"station_id":"ce4bhk92rcd13ifvqgc0","pricing_plan_id":"cebpf4jnsgd1na2vs0mg"},{"bike_id":"9d2dfefd-d0c5-461c-802b-941628d53608","system_id":"levelo_inurba_marseille","lat":43.2417,"lon":5.36407,"is_reserved":false,"is_disabled":false,"rental_uris":{"android":"levelo://app?vid=9d2dfefd-d0c5-461c-802b-941628d53608","ios":"levelo://app?vid=9d2dfefd-d0c5-461c-802b-941628d53608"},"vehicle_type_id":"4","last_reported":1739798298,"current_range_meters":20000,"station_id":"cpo36qri1sfpv3e86is0","pricing_plan_id":"cebpf4jnsgd1na2vs0mg"},{"bike_id":"f81766ed-4365-4a97-9dc4-1bc0c02009d1","system_id":"levelo_inurba_marseille","lat":43.26953,"lon":5.38629,"is_reserved":false,"is_disabled":false,"rental_uris":{"android":"levelo://app?vid=f81766ed-4365-4a97-9dc4-1bc0c02009d1","ios":"levelo://app?vid=f81766ed-4365-4a97-9dc4-1bc0c02009d1"},"vehicle_type_id":"4","last_reported":1739798298,"current_range_meters":20000,"station_id":"ce4bhh92rcd13ifvqfh0","pricing_plan_id":"cebpf4jnsgd1na2vs0mg"},{"bike_id":"f8768e59-08e7-4dd6-bb0e-ea971c3abab3","system_id":"levelo_inurba_marseille","lat":43.28403,"lon":5.37517,"is_reserved":false,"is_disabled":false,"rental_uris":{"android":"levelo://app?vid=f8768e59-08e7-4dd6-bb0e-ea971c3abab3","ios":"levelo://app?vid=f8768e59-08e7-4dd6-bb0e-ea971c3abab3"},"vehicle_type_id":"4","last_reported":1739798298,"current_range_meters":20000,"station_id":"","pricing_plan_id":"cebpf4jnsgd1na2vs0mg"},{"bike_id":"b6f4de1b-7afd-4932-90e1-8c5a1962214d","system_id":"levelo_inurba_marseille","lat":43.3176,"lon":5.3902,"is_reserved":false,"is_disabled":false,"rental_uris":{"android":"levelo://app?vid=b6f4de1b-7afd-4932-90e1-8c5a1962214d","ios":"levelo://app?vid=b6f4de1b-7afd-4932-90e1-8c5a1962214d"},"vehicle_type_id":"4","last_reported":1739798298,"current_range_meters":19600,"station_id":"ce4bhqp2rcd13ifvqhng","pricing_plan_id":"cebpf4jnsgd1na2vs0mg"},{"bike_id":"8ae3b342-ba5c-47fe-a76e-8ecb80a9949a","system_id":"levelo_inurba_marseille","lat":43.3056,"lon":5.36541,"is_reserved":false,"is_disabled":false,"rental_uris":{"android":"levelo://app?vid=8ae3b342-ba5c-47fe-a76e-8ecb80a9949a","ios":"levelo://app?vid=8ae3b342-ba5c-47fe-a76e-8ecb80a9949a"},"vehicle_type_id":"4","last_reported":1739798298,"current_range_meters":20000,"station_id":"ce4bgs12rcd13ifvqcag","pricing_plan_id":"cebpf4jnsgd1na2vs0mg"},{"bike_id":"fc51df8b-5518-4a7d-998d-4d96d2951524","system_id":"levelo_inurba_marseille","lat":43.28273,"lon":5.35057,"is_reserved":false,"is_disabled":false,"rental_uris":{"android":"levelo://app?vid=fc51df8b-5518-4a7d-998d-4d96d2951524","ios":"levelo://app?vid=fc51df8b-5518-4a7d-998d-4d96d2951524"},"vehicle_type_id":"4","last_reported":1739798298,"current_range_meters":19600,"station_id":"ce4bhbp2rcd13ifvqerg","pricing_plan_id":"cebpf4jnsgd1na2vs0mg"},{"bike_id":"214edec8-b5aa-4fed-8b97-15fbe693b3f9","system_id":"levelo_inurba_marseille","lat":43.31226,"lon":5.36831,"is_reserved":false,"is_disabled":false,"rental_uris":{"android":"levelo://app?vid=214edec8-b5aa-4fed-8b97-15fbe693b3f9","ios":"levelo://app?vid=214edec8-b5aa-4fed-8b97-15fbe693b3f9"},"vehicle_type_id":"4","last_reported":1739798298,"current_range_meters":19600,"station_id":"ce4bgl92rcd13ifvqbq0","pricing_plan_id":"cebpf4jnsgd1na2vs0mg"},{"bike_id":"5937c61a-ff3c-4c9c-a9c5-7ca5a85e16f6","system_id":"levelo_inurba_marseille","lat":43.24074,"lon":5.37763,"is_reserved":false,"is_disabled":false,"rental_uris":{"android":"levelo://app?vid=5937c61a-ff3c-4c9c-a9c5-7ca5a85e16f6","ios":"levelo://app?vid=5937c61a-ff3c-4c9c-a9c5-7ca5a85e16f6"},"vehicle_type_id":"4","last_reported":1739798298,"current_range_meters":20000,"station_id":"ce4bhnp2rcd13ifvqgvg","pricing_plan_id":"cebpf4jnsgd1na2vs0mg"},{"bike_id":"c22b076a-c085-4a58-81f5-c0fa44a6fd44","system_id":"levelo_inurba_marseille","lat":43.23962,"lon":5.36648,"is_reserved":false,"is_disabled":false,"rental_uris":{"android":"levelo://app?vid=c22b076a-c085-4a58-81f5-c0fa44a6fd44","ios":"levelo://app?vid=c22b076a-c085-4a58-81f5-c0fa44a6fd44"},"vehicle_type_id":"4","last_reported":1739798298,"current_range_meters":20000,"station_id":"ce4bhi12rcd13ifvqfp0","pricing_plan_id":"cebpf4jnsgd1na2vs0mg"},{"bike_id":"d8755149-4fdf-4fc4-8e01-cfb5ece8fc21","system_id":"levelo_inurba_marseille","lat":43.30315,"lon":5.36895,"is_reserved":false,"is_disabled":false,"rental_uris":{"android":"levelo://app?vid=d8755149-4fdf-4fc4-8e01-cfb5ece8fc21","ios":"levelo://app?vid=d8755149-4fdf-4fc4-8e01-cfb5ece8fc21"},"vehicle_type_id":"4","last_reported":1739798298,"current_range_meters":20400,"station_id":"","pricing_plan_id":"cebpf4jnsgd1na2vs0mg"},{"bike_id":"6dda2f23-46bb-4bc4-9193-80a071d223c9","system_id":"levelo_inurba_marseille","lat":43.30664,"lon":5.36733,"is_reserved":false,"is_disabled":false,"rental_uris":{"android":"levelo://app?vid=6dda2f23-46bb-4bc4-9193-80a071d223c9","ios":"levelo://app?vid=6dda2f23-46bb-4bc4-9193-80a071d223c9"},"vehicle_type_id":"4","last_reported":1739798298,"current_range_meters":20400,"station_id":"","pricing_plan_id":"cebpf4jnsgd1na2vs0mg"},{"bike_id":"ebdd3c8f-9c46-41ff-a923-eaeca81f5301","system_id":"levelo_inurba_marseille","lat":43.29414,"lon":5.38627,"is_reserved":false,"is_disabled":false,"rental_uris":{"android":"levelo://app?vid=ebdd3c8f-9c46-41ff-a923-eaeca81f5301","ios":"levelo://app?vid=ebdd3c8f-9c46-41ff-a923-eaeca81f5301"},"vehicle_type_id":"4","last_reported":1739798298,"current_range_meters":20000,"station_id":"ce4bh2h2rcd13ifvqdh0","pricing_plan_id":"cebpf4jnsgd1na2vs0mg"},{"bike_id":"03d4faad-c15a-48aa-9dae-b9ddb0491fbe","system_id":"levelo_inurba_marseille","lat":43.33716,"lon":5.39206,"is_reserved":false,"is_disabled":false,"rental_uris":{"android":"levelo://app?vid=03d4faad-c15a-48aa-9dae-b9ddb0491fbe","ios":"levelo://app?vid=03d4faad-c15a-48aa-9dae-b9ddb0491fbe"},"vehicle_type_id":"4","last_reported":1739798298,"current_range_meters":20400,"station_id":"ce4bhr92rcd13ifvqhsg","pricing_plan_id":"cebpf4jnsgd1na2vs0mg"},{"bike_id":"db90dd96-e348-4c68-ac8b-20428675b838","system_id":"levelo_inurba_marseille","lat":43.27189,"lon":5.39965,"is_reserved":false,"is_disabled":false,"rental_uris":{"android":"levelo://app?vid=db90dd96-e348-4c68-ac8b-20428675b838","ios":"levelo://app?vid=db90dd96-e348-4c68-ac8b-20428675b838"},"vehicle_type_id":"4","last_reported":1739798298,"current_range_meters":20400,"station_id":"","pricing_plan_id":"cebpf4jnsgd1na2vs0mg"},{"bike_id":"852ecaec-dde6-467b-ac57-257c9c204d40","system_id":"levelo_inurba_marseille","lat":43.30138,"lon":5.38773,"is_reserved":false,"is_disabled":false,"rental_uris":{"android":"levelo://app?vid=852ecaec-dde6-467b-ac57-257c9c204d40","ios":"levelo://app?vid=852ecaec-dde6-467b-ac57-257c9c204d40"},"vehicle_type_id":"4","last_reported":1739798298,"current_range_meters":20800,"station_id":"ce4bhoh2rcd13ifvqh6g","pricing_plan_id":"cebpf4jnsgd1na2vs0mg"},{"bike_id":"3641e30d-1dbe-4a62-a1f4-724280dd566e","system_id":"levelo_inurba_marseille","lat":43.31362,"lon":5.38484,"is_reserved":false,"is_disabled":false,"rental_uris":{"android":"levelo://app?vid=3641e30d-1dbe-4a62-a1f4-724280dd566e","ios":"levelo://app?vid=3641e30d-1dbe-4a62-a1f4-724280dd566e"},"vehicle_type_id":"4","last_reported":1739798298,"current_range_meters":20800,"station_id":"ce4bgt92rcd13ifvqcf0","pricing_plan_id":"cebpf4jnsgd1na2vs0mg"},{"bike_id":"e987b063-967e-46c8-a590-01e6308795b6","system_id":"levelo_inurba_marseille","lat":43.26886,"lon":5.40424,"is_reserved":false,"is_disabled":false,"rental_uris":{"android":"levelo://app?vid=e987b063-967e-46c8-a590-01e6308795b6","ios":"levelo://app?vid=e987b063-967e-46c8-a590-01e6308795b6"},"vehicle_type_id":"4","last_reported":1739798298,"current_range_meters":20800,"station_id":"ce4bhl12rcd13ifvqgf0","pricing_plan_id":"cebpf4jnsgd1na2vs0mg"},{"bike_id":"1ed8b3d1-03ce-4264-a6a4-6a432a1b465b","system_id":"levelo_inurba_marseille","lat":43.33604,"lon":5.41029,"is_reserved":false,"is_disabled":false,"rental_uris":{"android":"levelo://app?vid=1ed8b3d1-03ce-4264-a6a4-6a432a1b465b","ios":"levelo://app?vid=1ed8b3d1-03ce-4264-a6a4-6a432a1b465b"},"vehicle_type_id":"4","last_reported":1739798298,"current_range_meters":20400,"station_id":"ce4bhqh2rcd13ifvqhmg","pricing_plan_id":"cebpf4jnsgd1na2vs0mg"},{"bike_id":"7d1b5e44-ca44-441a-b62b-24c835730bd0","system_id":"levelo_inurba_marseille","lat":43.30146,"lon":5.39878,"is_reserved":false,"is_disabled":false,"rental_uris":{"android":"levelo://app?vid=7d1b5e44-ca44-441a-b62b-24c835730bd0","ios":"levelo://app?vid=7d1b5e44-ca44-441a-b62b-24c835730bd0"},