{"last_updated":1773174120,"ttl":60,"version":"2.2","data":{"bikes":[{"bike_id":"bd334b99-1100-447f-a433-39bd3e02f36e","system_id":"levelo_inurba_marseille","lat":43.24167,"lon":5.36395,"is_reserved":false,"is_disabled":false,"rental_uris":{"android":"levelo://app?vid=bd334b99-1100-447f-a433-39bd3e02f36e","ios":"levelo://app?vid=bd334b99-1100-447f-a433-39bd3e02f36e"},"vehicle_type_id":"4","last_reported":1773174121,"current_range_meters":9200,"station_id":"cpo36qri1sfpv3e86is0","pricing_plan_id":"cebpf4jnsgd1na2vs0mg"},{"bike_id":"c58e631c-2aa0-4562-9b1d-9233b8f93e38","system_id":"levelo_inurba_marseille","lat":43.25856,"lon":5.39932,"is_reserved":false,"is_disabled":false,"rental_uris":{"android":"levelo://app?vid=c58e631c-2aa0-4562-9b1d-9233b8f93e38","ios":"levelo://app?vid=c58e631c-2aa0-4562-9b1d-9233b8f93e38"},"vehicle_type_id":"4","last_reported":1773174121,"current_range_meters":39200,"station_id":"ce4bhl92rcd13ifvqghg","pricing_plan_id":"cebpf4jnsgd1na2vs0mg"},{"bike_id":"5bfd5e8b-0863-471b-997b-ec125c70364c","system_id":"levelo_inurba_marseille","lat":43.294418,"lon":5.397353,"is_reserved":false,"is_disabled":false,"rental_uris":{"android":"levelo://app?vid=5bfd5e8b-0863-471b-997b-ec125c70364c","ios":"levelo://app?vid=5bfd5e8b-0863-471b-997b-ec125c70364c"},"vehicle_type_id":"4","last_reported":1773174121,"current_range_meters":19600,"station_id":"ce4bh3h2rcd13ifvqdo0","pricing_plan_id":"cebpf4jnsgd1na2vs0mg"},{"bike_id":"52f6420f-0eb9-4b9f-9fde-0d25053348cb","system_id":"levelo_inurba_marseille","lat":43.30883,"lon":5.39652,"is_reserved":false,"is_disabled":false,"rental_uris":{"android":"levelo://app?vid=52f6420f-0eb9-4b9f-9fde-0d25053348cb","ios":"levelo://app?vid=52f6420f-0eb9-4b9f-9fde-0d25053348cb"},"vehicle_type_id":"4","last_reported":1773174121,"current_range_meters":39200,"station_id":"ce4bh012rcd13ifvqcv0","pricing_plan_id":"cebpf4jnsgd1na2vs0mg"},{"bike_id":"95fed9f7-1c81-44c3-af5f-e716c9cfb425","system_id":"levelo_inurba_marseille","lat":43.29623,"lon":5.37724,"is_reserved":false,"is_disabled":false,"rental_uris":{"android":"levelo://app?vid=95fed9f7-1c81-44c3-af5f-e716c9cfb425","ios":"levelo://app?vid=95fed9f7-1c81-44c3-af5f-e716c9cfb425"},"vehicle_type_id":"4","last_reported":1773174121,"current_range_meters":37600,"station_id":"ce4bgi92rcd13ifvqb90","pricing_plan_id":"cebpf4jnsgd1na2vs0mg"},{"bike_id":"b5250489-cc8e-41f8-96db-114ed4263407","system_id":"levelo_inurba_marseille","lat":43.29986,"lon":5.38486,"is_reserved":false,"is_disabled":false,"rental_uris":{"android":"levelo://app?vid=b5250489-cc8e-41f8-96db-114ed4263407","ios":"levelo://app?vid=b5250489-cc8e-41f8-96db-114ed4263407"},"vehicle_type_id":"4","last_reported":1773174121,"current_range_meters":21600,"station_id":"ce4bgj92rcd13ifvqbd0","pricing_plan_id":"cebpf4jnsgd1na2vs0mg"},{"bike_id":"beb344ca-4534-4ba9-9c05-5bf124c258c5","system_id":"levelo_inurba_marseille","lat":43.29267,"lon":5.40123,"is_reserved":false,"is_disabled":false,"rental_uris":{"android":"levelo://app?vid=beb344ca-4534-4ba9-9c05-5bf124c258c5","ios":"levelo://app?vid=beb344ca-4534-4ba9-9c05-5bf124c258c5"},"vehicle_type_id":"4","last_reported":1773174121,"current_range_meters":15200,"station_id":"ce4bh312rcd13ifvqdk0","pricing_plan_id":"cebpf4jnsgd1na2vs0mg"},{"bike_id":"6c9e3b7e-da10-48c1-a765-9c8a71cb5c70","system_id":"levelo_inurba_marseille","lat":43.296096,"lon":5.377273,"is_reserved":false,"is_disabled":true,"rental_uris":{"android":"levelo://app?vid=6c9e3b7e-da10-48c1-a765-9c8a71cb5c70","ios":"levelo://app?vid=6c9e3b7e-da10-48c1-a765-9c8a71cb5c70"},"vehicle_type_id":"4","last_reported":1773174121,"current_range_meters":0,"station_id":"ce4bgi92rcd13ifvqb90","pricing_plan_id":"cebpf4jnsgd1na2vs0mg"},{"bike_id":"5061e64b-7a6f-416d-95f6-434ea56b6a99","system_id":"levelo_inurba_marseille","lat":43.3464,"lon":5.36722,"is_reserved":false,"is_disabled":false,"rental_uris":{"android":"levelo://app?vid=5061e64b-7a6f-416d-95f6-434ea56b6a99","ios":"levelo://app?vid=5061e64b-7a6f-416d-95f6-434ea56b6a99"},"vehicle_type_id":"4","last_reported":1773174121,"current_range_meters":32800,"station_id":"","pricing_plan_id":"cebpf4jnsgd1na2vs0mg"},{"bike_id":"5fa59ccf-77d0-45df-afe7-54550a0fd2d4","system_id":"levelo_inurba_marseille","lat":43.27447,"lon":5.39391,"is_reserved":false,"is_disabled":false,"rental_uris":{"android":"levelo://app?vid=5fa59ccf-77d0-45df-afe7-54550a0fd2d4","ios":"levelo://app?vid=5fa59ccf-77d0-45df-afe7-54550a0fd2d4"},"vehicle_type_id":"4","last_reported":1773174121,"current_range_meters":33600,"station_id":"ce4bhdp2rcd13ifvqf20","pricing_plan_id":"cebpf4jnsgd1na2vs0mg"},{"bike_id":"9faea34b-1c48-4a1b-8f51-2bafe5184a50","system_id":"levelo_inurba_marseille","lat":43.28478,"lon":5.48395,"is_reserved":false,"is_disabled":false,"rental_uris":{"android":"levelo://app?vid=9faea34b-1c48-4a1b-8f51-2bafe5184a50","ios":"levelo://app?vid=9faea34b-1c48-4a1b-8f51-2bafe5184a50"},"vehicle_type_id":"4","last_reported":1773174121,"current_range_meters":37600,"station_id":"st_d3svhcjqgbts73a3dn0g","pricing_plan_id":"cebpf4jnsgd1na2vs0mg"},{"bike_id":"3ed7cc46-dfe0-48b3-b403-50ad5ae704c8","system_id":"levelo_inurba_marseille","lat":43.29934,"lon":5.36529,"is_reserved":false,"is_disabled":false,"rental_uris":{"android":"levelo://app?vid=3ed7cc46-dfe0-48b3-b403-50ad5ae704c8","ios":"levelo://app?vid=3ed7cc46-dfe0-48b3-b403-50ad5ae704c8"},"vehicle_type_id":"4","last_reported":1773174121,"current_range_meters":39200,"station_id":"ce4bgm92rcd13ifvqbr0","pricing_plan_id":"cebpf4jnsgd1na2vs0mg"},{"bike_id":"d427d34d-e739-4c0f-a843-74b85111544b","system_id":"levelo_inurba_marseille","lat":43.33159,"lon":5.37698,"is_reserved":false,"is_disabled":false,"rental_uris":{"android":"levelo://app?vid=d427d34d-e739-4c0f-a843-74b85111544b","ios":"levelo://app?vid=d427d34d-e739-4c0f-a843-74b85111544b"},"vehicle_type_id":"4","last_reported":1773174121,"current_range_meters":32400,"station_id":"st_d46cu089ee8s73dldbu0","pricing_plan_id":"cebpf4jnsgd1na2vs0mg"},{"bike_id":"573d947c-41cc-4f73-b77c-370cb9447a2f","system_id":"levelo_inurba_marseille","lat":43.30548,"lon":5.36693,"is_reserved":false,"is_disabled":false,"rental_uris":{"android":"levelo://app?vid=573d947c-41cc-4f73-b77c-370cb9447a2f","ios":"levelo://app?vid=573d947c-41cc-4f73-b77c-370cb9447a2f"},"vehicle_type_id":"4","last_reported":1773174121,"current_range_meters":36400,"station_id":"ce4bgrp2rcd13ifvqc9g","pricing_plan_id":"cebpf4jnsgd1na2vs0mg"},{"bike_id":"76f2eca3-ac84-438d-878d-901d76cba811","system_id":"levelo_inurba_marseille","lat":43.279905,"lon":5.4001,"is_reserved":false,"is_disabled":false,"rental_uris":{"android":"levelo://app?vid=76f2eca3-ac84-438d-878d-901d76cba811","ios":"levelo://app?vid=76f2eca3-ac84-438d-878d-901d76cba811"},"vehicle_type_id":"4","last_reported":1773174121,"current_range_meters":20000,"station_id":"ce4bho92rcd13ifvqh4g","pricing_plan_id":"cebpf4jnsgd1na2vs0mg"},{"bike_id":"c943c8f2-fd97-497f-b02c-47e60712859d","system_id":"levelo_inurba_marseille","lat":43.25827,"lon":5.39423,"is_reserved":false,"is_disabled":false,"rental_uris":{"android":"levelo://app?vid=c943c8f2-fd97-497f-b02c-47e60712859d","ios":"levelo://app?vid=c943c8f2-fd97-497f-b02c-47e60712859d"},"vehicle_type_id":"4","last_reported":1773174121,"current_range_meters":29600,"station_id":"ce4bhip2rcd13ifvqft0","pricing_plan_id":"cebpf4jnsgd1na2vs0mg"},{"bike_id":"f6cb404b-ae6f-4996-9567-eb71cd4321ae","system_id":"levelo_inurba_marseille","lat":43.29076,"lon":5.37157,"is_reserved":false,"is_disabled":false,"rental_uris":{"android":"levelo://app?vid=f6cb404b-ae6f-4996-9567-eb71cd4321ae","ios":"levelo://app?vid=f6cb404b-ae6f-4996-9567-eb71cd4321ae"},"vehicle_type_id":"4","last_reported":1773174121,"current_range_meters":39200,"station_id":"ce4bh5p2rcd13ifvqe4g","pricing_plan_id":"cebpf4jnsgd1na2vs0mg"},{"bike_id":"913fb0ac-86ae-420a-9f83-517ee9c2fc7a","system_id":"levelo_inurba_marseille","lat":43.248,"lon":5.37464,"is_reserved":false,"is_disabled":false,"rental_uris":{"android":"levelo://app?vid=913fb0ac-86ae-420a-9f83-517ee9c2fc7a","ios":"levelo://app?vid=913fb0ac-86ae-420a-9f83-517ee9c2fc7a"},"vehicle_type_id":"4","last_reported":1773174121,"current_range_meters":26800,"station_id":"ce4bhgh2rcd13ifvqfb0","pricing_plan_id":"cebpf4jnsgd1na2vs0mg"},{"bike_id":"5cfc603b-29fb-4936-93b0-d2cfd02c0ab1","system_id":"levelo_inurba_marseille","lat":43.24828,"lon":5.3743,"is_reserved":false,"is_disabled":false,"rental_uris":{"android":"levelo://app?vid=5cfc603b-29fb-4936-93b0-d2cfd02c0ab1","ios":"levelo://app?vid=5cfc603b-29fb-4936-93b0-d2cfd02c0ab1"},"vehicle_type_id":"4","last_reported":1773174121,"current_range_meters":34800,"station_id":"ce4bhgh2rcd13ifvqfb0","pricing_plan_id":"cebpf4jnsgd1na2vs0mg"},{"bike_id":"74e2ef54-135b-4d55-afcc-646517288532","system_id":"levelo_inurba_marseille","lat":43.30566,"lon":5.36746,"is_reserved":false,"is_disabled":false,"rental_uris":{"android":"levelo://app?vid=74e2ef54-135b-4d55-afcc-646517288532","ios":"levelo://app?vid=74e2ef54-135b-4d55-afcc-646517288532"},"vehicle_type_id":"4","last_reported":1773174121,"current_range_meters":21600,"station_id":"ce4bgrp2rcd13ifvqc9g","pricing_plan_id":"cebpf4jnsgd1na2vs0mg"},{"bike_id":"69937d6b-0ad4-476f-a55d-d6a587fba769","system_id":"levelo_inurba_marseille","lat":43.28457,"lon":5.35909,"is_reserved":false,"is_disabled":false,"rental_uris":{"android":"levelo://app?vid=69937d6b-0ad4-476f-a55d-d6a587fba769","ios":"levelo://app?vid=69937d6b-0ad4-476f-a55d-d6a587fba769"},"vehicle_type_id":"4","last_reported":1773174121,"current_range_meters":25200,"station_id":"ce4bhah2rcd13ifvqei0","pricing_plan_id":"cebpf4jnsgd1na2vs0mg"},{"bike_id":"9f750502-900e-4298-a083-f138285ae7a6","system_id":"levelo_inurba_marseille","lat":43.30638,"lon":5.40071,"is_reserved":false,"is_disabled":false,"rental_uris":{"android":"levelo://app?vid=9f750502-900e-4298-a083-f138285ae7a6","ios":"levelo://app?vid=9f750502-900e-4298-a083-f138285ae7a6"},"vehicle_type_id":"4","last_reported":1773174121,"current_range_meters":24800,"station_id":"ce4bh112rcd13ifvqda0","pricing_plan_id":"cebpf4jnsgd1na2vs0mg"},{"bike_id":"80d9c585-717b-48ff-bcbe-ef475313aca3","system_id":"levelo_inurba_marseille","lat":43.28075,"lon":5.39637,"is_reserved":false,"is_disabled":false,"rental_uris":{"android":"levelo://app?vid=80d9c585-717b-48ff-bcbe-ef475313aca3","ios":"levelo://app?vid=80d9c585-717b-48ff-bcbe-ef475313aca3"},"vehicle_type_id":"4","last_reported":1773174121,"current_range_meters":37600,"station_id":"ce4bho12rcd13ifvqh2g","pricing_plan_id":"cebpf4jnsgd1na2vs0mg"},{"bike_id":"5a595904-25a5-4fb8-b8dd-531cb59359d8","system_id":"levelo_inurba_marseille","lat":43.31998,"lon":5.38135,"is_reserved":false,"is_disabled":false,"rental_uris":{"android":"levelo://app?vid=5a595904-25a5-4fb8-b8dd-531cb59359d8","ios":"levelo://app?vid=5a595904-25a5-4fb8-b8dd-531cb59359d8"},"vehicle_type_id":"4","last_reported":1773174121,"current_range_meters":36800,"station_id":"ce4bhr12rcd13ifvqhpg","pricing_plan_id":"cebpf4jnsgd1na2vs0mg"},{"bike_id":"719ecba6-c5fd-4311-ba94-b7f00bd3ea56","system_id":"levelo_inurba_marseille","lat":43.28929,"lon":5.38389,"is_reserved":false,"is_disabled":false,"rental_uris":{"android":"levelo://app?vid=719ecba6-c5fd-4311-ba94-b7f00bd3ea56","ios":"levelo://app?vid=719ecba6-c5fd-4311-ba94-b7f00bd3ea56"},"vehicle_type_id":"4","last_reported":1773174121,"current_range_meters":32400,"station_id":"ce4bh612rcd13ifvqe6g","pricing_plan_id":"cebpf4jnsgd1na2vs0mg"},{"bike_id":"2a72884c-217b-44f3-b3fa-1b63110b8966","system_id":"levelo_inurba_marseille","lat":43.32118,"lon":5.36808,"is_reserved":false,"is_disabled":false,"rental_uris":{"android":"levelo://app?vid=2a72884c-217b-44f3-b3fa-1b63110b8966","ios":"levelo://app?vid=2a72884c-217b-44f3-b3fa-1b63110b8966"},"vehicle_type_id":"4","last_reported":1773174121,"current_range_meters":30800,"station_id":"ce4bhrh2rcd13ifvqhug","pricing_plan_id":"cebpf4jnsgd1na2vs0mg"},{"bike_id":"f41cfb42-0ff7-49c2-9aeb-0d17a0584783","system_id":"levelo_inurba_marseille","lat":43.3228,"lon":5.38305,"is_reserved":false,"is_disabled":false,"rental_uris":{"android":"levelo://app?vid=f41cfb42-0ff7-49c2-9aeb-0d17a0584783","ios":"levelo://app?vid=f41cfb42-0ff7-49c2-9aeb-0d17a0584783"},"vehicle_type_id":"4","last_reported":1773174121,"current_range_meters":39200,"station_id":"ce4bhr12rcd13ifvqhqg","pricing_plan_id":"cebpf4jnsgd1na2vs0mg"},{"bike_id":"d758fa9c-0dda-48b5-aa13-54ef9f268249","system_id":"levelo_inurba_marseille","lat":43.28731,"lon":5.36089,"is_reserved":false,"is_disabled":false,"rental_uris":{"android":"levelo://app?vid=d758fa9c-0dda-48b5-aa13-54ef9f268249","ios":"levelo://app?vid=d758fa9c-0dda-48b5-aa13-54ef9f268249"},"vehicle_type_id":"4","last_reported":1773174121,"current_range_meters":39200,"station_id":"cki0cbj6b192h4jlfktg","pricing_plan_id":"cebpf4jnsgd1na2vs0mg"},{"bike_id":"66796482-b4de-4f94-b605-12681c60b721","system_id":"levelo_inurba_marseille","lat":43.32468,"lon":5.41442,"is_reserved":false,"is_disabled":false,"rental_uris":{"android":"levelo://app?vid=66796482-b4de-4f94-b605-12681c60b721","ios":"levelo://app?vid=66796482-b4de-4f94-b605-12681c60b721"},"vehicle_type_id":"4","last_reported":1773174121,"current_range_meters":4400,"station_id":"","pricing_plan_id":"cebpf4jnsgd1na2vs0mg"},{"bike_id":"d935a044-f1a3-44cd-b547-06262fe35eb2","system_id":"levelo_inurba_marseille","lat":43.2891,"lon":5.38405,"is_reserved":false,"is_disabled":false,"rental_uris":{"android":"levelo://app?vid=d935a044-f1a3-44cd-b547-06262fe35eb2","ios":"levelo://app?vid=d935a044-f1a3-44cd-b547-06262fe35eb2"},"vehicle_type_id":"4","last_reported":1773174121,"current_range_meters":39200,"station_id":"ce4bh612rcd13ifvqe6g","pricing_plan_id":"cebpf4jnsgd1na2vs0mg"},{"bike_id":"d460b25f-6966-4f7a-9001-1f7215b67b27","system_id":"levelo_inurba_marseille","lat":43.22559,"lon":5.41636,"is_reserved":false,"is_disabled":false,"rental_uris":{"android":"levelo://app?vid=d460b25f-6966-4f7a-9001-1f7215b67b27","ios":"levelo://app?vid=d460b25f-6966-4f7a-9001-1f7215b67b27"},"vehicle_type_id":"4","last_reported":1773174121,"current_range_meters":38400,"station_id":"st_d2o4gvlbi1j2169b742g","pricing_plan_id":"cebpf4jnsgd1na2vs0mg"},{"bike_id":"d0e204b5-6dd1-4f52-88bc-3b2bdf1cb73b","system_id":"levelo_inurba_marseille","lat":43.28416,"lon":5.35001,"is_reserved":false,"is_disabled":false,"rental_uris":{"android":"levelo://app?vid=d0e204b5-6dd1-4f52-88bc-3b2bdf1cb73b","ios":"levelo://app?vid=d0e204b5-6dd1-4f52-88bc-3b2bdf1cb73b"},"vehicle_type_id":"4","last_reported":1773174121,"current_range_meters":37600,"station_id":"ce4bhbh2rcd13ifvqepg","pricing_plan_id":"cebpf4jnsgd1na2vs0mg"},{"bike_id":"4035076b-e1f7-4550-ba18-40b5d2e4f17a","system_id":"levelo_inurba_marseille","lat":43.25823,"lon":5.39436,"is_reserved":false,"is_disabled":false,"rental_uris":{"android":"levelo://app?vid=4035076b-e1f7-4550-ba18-40b5d2e4f17a","ios":"levelo://app?vid=4035076b-e1f7-4550-ba18-40b5d2e4f17a"},"vehicle_type_id":"4","last_reported":1773174121,"current_range_meters":10800,"station_id":"ce4bhip2rcd13ifvqft0","pricing_plan_id":"cebpf4jnsgd1na2vs0mg"},{"bike_id":"182a33c2-192b-4c16-af77-c32682d4109b","system_id":"levelo_inurba_marseille","lat":43.24162,"lon":5.39709,"is_reserved":false,"is_disabled":true,"rental_uris":{"android":"levelo://app?vid=182a33c2-192b-4c16-af77-c32682d4109b","ios":"levelo://app?vid=182a33c2-192b-4c16-af77-c32682d4109b"},"vehicle_type_id":"4","last_reported":1773174121,"current_range_meters":37600,"station_id":"ce4bhn12rcd13ifvqgpg","pricing_plan_id":"cebpf4jnsgd1na2vs0mg"},{"bike_id":"1a3a5560-3e07-4e54-8aa7-c954adec59b1","system_id":"levelo_inurba_marseille","lat":43.28857,"lon":5.35847,"is_reserved":false,"is_disabled":false,"rental_uris":{"android":"levelo://app?vid=1a3a5560-3e07-4e54-8aa7-c954adec59b1","ios":"levelo://app?vid=1a3a5560-3e07-4e54-8aa7-c954adec59b1"},"vehicle_type_id":"4","last_reported":1773174121,"current_range_meters":37600,"station_id":"ce4bhb12rcd13ifvqem0","pricing_plan_id":"cebpf4jnsgd1na2vs0mg"},{"bike_id":"c3dc0b5e-140c-40d8-bbb8-b192f15e6c07","system_id":"levelo_inurba_marseille","lat":43.28907,"lon":5.37993,"is_reserved":false,"is_disabled":false,"rental_uris":{"android":"levelo://app?vid=c3dc0b5e-140c-40d8-bbb8-b192f15e6c07","ios":"levelo://app?vid=c3dc0b5e-140c-40d8-bbb8-b192f15e6c07"},"vehicle_type_id":"4","last_reported":1773174121,"current_range_meters":36400,"station_id":"","pricing_plan_id":"cebpf4jnsgd1na2vs0mg"},{"bike_id":"aa72799a-1cb7-459e-8130-301a8f0e72b3","system_id":"levelo_inurba_marseille","lat":43.25577,"lon":5.3823,"is_reserved":false,"is_disabled":false,"rental_uris":{"android":"levelo://app?vid=aa72799a-1cb7-459e-8130-301a8f0e72b3","ios":"levelo://app?vid=aa72799a-1cb7-459e-8130-301a8f0e72b3"},"vehicle_type_id":"4","last_reported":1773174121,"current_range_meters":36000,"station_id":"ce4bhih2rcd13ifvqfs0","pricing_plan_id":"cebpf4jnsgd1na2vs0mg"},{"bike_id":"1e140ebb-c0b1-4106-8e49-8058eb265710","system_id":"levelo_inurba_marseille","lat":43.29897,"lon":5.38137,"is_reserved":false,"is_disabled":false,"rental_uris":{"android":"levelo://app?vid=1e140ebb-c0b1-4106-8e49-8058eb265710","ios":"levelo://app?vid=1e140ebb-c0b1-4106-8e49-8058eb265710"},"vehicle_type_id":"4","last_reported":1773174121,"current_range_meters":25200,"station_id":"ce4bgj12rcd13ifvqbc0","pricing_plan_id":"cebpf4jnsgd1na2vs0mg"},{"bike_id":"66480ce6-369e-4a26-a85b-ddbe56b57036","system_id":"levelo_inurba_marseille","lat":43.29629,"lon":5.37732,"is_reserved":false,"is_disabled":false,"rental_uris":{"android":"levelo://app?vid=66480ce6-369e-4a26-a85b-ddbe56b57036","ios":"levelo://app?vid=66480ce6-369e-4a26-a85b-ddbe56b57036"},"vehicle_type_id":"4","last_reported":1773174121,"current_range_meters":38800,"station_id":"ce4bgi92rcd13ifvqb90","pricing_plan_id":"cebpf4jnsgd1na2vs0mg"},{"bike_id":"faa6004d-cd41-4008-8bcc-b182163123b5","system_id":"levelo_inurba_marseille","lat":43.24175,"lon":5.36408,"is_reserved":false,"is_disabled":false,"rental_uris":{"android":"levelo://app?vid=faa6004d-cd41-4008-8bcc-b182163123b5","ios":"levelo://app?vid=faa6004d-cd41-4008-8bcc-b182163123b5"},"vehicle_type_id":"4","last_reported":1773174121,"current_range_meters":14400,"station_id":"cpo36qri1sfpv3e86is0","pricing_plan_id":"cebpf4jnsgd1na2vs0mg"},{"bike_id":"643a041d-3faf-4dc4-a3ad-d2cb17d6236c","system_id":"levelo_inurba_marseille","lat":43.29933,"lon":5.37498,"is_reserved":false,"is_disabled":false,"rental_uris":{"android":"levelo://app?vid=643a041d-3faf-4dc4-a3ad-d2cb17d6236c","ios":"levelo://app?vid=643a041d-3faf-4dc4-a3ad-d2cb17d6236c"},"vehicle_type_id":"4","last_reported":1773174121,"current_range_meters":38800,"station_id":"ce4bgjh2rcd13ifvqbg0","pricing_plan_id":"cebpf4jnsgd1na2vs0mg"},{"bike_id":"6c0f3fb9-20f8-4cc9-adc9-3db7d6569969","system_id":"levelo_inurba_marseille","lat":43.28849,"lon":5.3931,"is_reserved":false,"is_disabled":false,"rental_uris":{"android":"levelo://app?vid=6c0f3fb9-20f8-4cc9-adc9-3db7d6569969","ios":"levelo://app?vid=6c0f3fb9-20f8-4cc9-adc9-3db7d6569969"},"vehicle_type_id":"4","last_reported":1773174121,"current_range_meters":28400,"station_id":"ce4bh2p2rcd13ifvqdi0","pricing_plan_id":"cebpf4jnsgd1na2vs0mg"},{"bike_id":"a98a2ffa-f3fb-4c8b-86b7-609f1d5345a7","system_id":"levelo_inurba_marseille","lat":43.30302,"lon":5.36893,"is_reserved":false,"is_disabled":false,"rental_uris":{"android":"levelo://app?vid=a98a2ffa-f3fb-4c8b-86b7-609f1d5345a7","ios":"levelo://app?vid=a98a2ffa-f3fb-4c8b-86b7-609f1d5345a7"},"vehicle_type_id":"4","last_reported":1773174121,"current_range_meters":31200,"station_id":"ce4bgqh2rcd13ifvqc5g","pricing_plan_id":"cebpf4jnsgd1na2vs0mg"},{"bike_id":"90c21d76-cccc-4252-975d-3a89242c8302","system_id":"levelo_inurba_marseille","lat":43.306,"lon":5.37222,"is_reserved":false,"is_disabled":false,"rental_uris":{"android":"levelo://app?vid=90c21d76-cccc-4252-975d-3a89242c8302","ios":"levelo://app?vid=90c21d76-cccc-4252-975d-3a89242c8302"},"vehicle_type_id":"4","last_reported":1773174121,"current_range_meters":30800,"station_id":"ce4bgqh2rcd13ifvqc4g","pricing_plan_id":"cebpf4jnsgd1na2vs0mg"},{"bike_id":"17ce7070-d813-4eaf-a544-6259968aa271","system_id":"levelo_inurba_marseille","lat":43.31147,"lon":5.3685,"is_reserved":false,"is_disabled":false,"rental_uris":{"android":"levelo://app?vid=17ce7070-d813-4eaf-a544-6259968aa271","ios":"levelo://app?vid=17ce7070-d813-4eaf-a544-6259968aa271"},"vehicle_type_id":"4","last_reported":1773174121,"current_range_meters":10000,"station_id":"","pricing_plan_id":"cebpf4jnsgd1na2vs0mg"},{"bike_id":"79ebb48b-5dd9-4c32-8ca8-620d043b75f5","system_id":"levelo_inurba_marseille","lat":43.29631,"lon":5.37608,"is_reserved":false,"is_disabled":false,"rental_uris":{"android":"levelo://app?vid=79ebb48b-5dd9-4c32-8ca8-620d043b75f5","ios":"levelo://app?vid=79ebb48b-5dd9-4c32-8ca8-620d043b75f5"},"vehicle_type_id":"4","last_reported":1773174121,"current_range_meters":8400,"station_id":"","pricing_plan_id":"cebpf4jnsgd1na2vs0mg"},{"bike_id":"32bf2ee9-7c9d-43b6-9b19-98bb3c938947","system_id":"levelo_inurba_marseille","lat":43.25859,"lon":5.39892,"is_reserved":false,"is_disabled":false,"rental_uris":{"android":"levelo://app?vid=32bf2ee9-7c9d-43b6-9b19-98bb3c938947","ios":"levelo://app?vid=32bf2ee9-7c9d-43b6-9b19-98bb3c938947"},"vehicle_type_id":"4","last_reported":1773174121,"current_range_meters":27200,"station_id":"ce4bhl92rcd13ifvqghg","pricing_plan_id":"cebpf4jnsgd1na2vs0mg"},{"bike_id":"e088ba4c-ef29-40cc-a89d-2a98910924db","system_id":"levelo_inurba_marseille","lat":43.30811,"lon":5.37651,"is_reserved":false,"is_disabled":false,"rental_uris":{"android":"levelo://app?vid=e088ba4c-ef29-40cc-a89d-2a98910924db","ios":"levelo://app?vid=e088ba4c-ef29-40cc-a89d-2a98910924db"},"vehicle_type_id":"4","last_reported":1773174121,"current_range_meters":27200,"station_id":"ce4bgv92rcd13ifvqcq0","pricing_plan_id":"cebpf4jnsgd1na2vs0mg"},{"bike_id":"16ced00d-b75b-480f-bfe3-587817c52078","system_id":"levelo_inurba_marseille","lat":43.24645,"lon":5.38902,"is_reserved":false,"is_disabled":false,"rental_uris":{"android":"levelo://app?vid=16ced00d-b75b-480f-bfe3-587817c52078","ios":"levelo://app?vid=16ced00d-b75b-480f-bfe3-587817c52078"},"vehicle_type_id":"4","last_reported":1773174121,"current_range_meters":39200,"station_id":"ce4bhg12rcd13ifvqf60","pricing_plan_id":"cebpf4jnsgd1na2vs0mg"},{"bike_id":"095740f3-4e12-4adb-8a1a-03aa33c9cd08","system_id":"levelo_inurba_marseille","lat":43.2657,"lon":5.3728,"is_reserved":false,"is_disabled":false,"rental_uris":{"android":"levelo://app?vid=095740f3-4e12-4adb-8a1a-03aa33c9cd08","ios":"levelo://app?vid=095740f3-4e12-4adb-8a1a-03aa33c9cd08"},"vehicle_type_id":"4","last_reported":1773174121,"current_range_meters":15200,"station_id":"ce4bhg12rcd13ifvqf70","pricing_plan_id":"cebpf4jnsgd1na2vs0mg"},{"bike_id":"07d667a1-20cd-44c6-a08f-d51c851309d8","system_id":"levelo_inurba_marseille","lat":43.29784,"lon":5.37107,"is_reserved":false,"is_disabled":false,"rental_uris":{"android":"levelo://app?vid=07d667a1-20cd-44c6-a08f-d51c851309d8","ios":"levelo://app?vid=07d667a1-20cd-44c6-a08f-d51c851309d8"},"vehicle_type_id":"4","last_reported":1773174121,"current_range_meters":27600,"station_id":"ce4bgop2rcd13ifvqc1g","pricing_plan_id":"cebpf4jnsgd1na2vs0mg"},{"bike_id":"566d1d1a-0852-4e0d-907b-e1334e0d6bf9","system_id":"levelo_inurba_marseille","lat":43.23824,"lon":5.3662,"is_reserved":false,"is_disabled":false,"rental_uris":{"android":"levelo://app?vid=566d1d1a-0852-4e0d-907b-e1334e0d6bf9","ios":"levelo://app?vid=566d1d1a-0852-4e0d-907b-e1334e0d6bf9"},"vehicle_type_id":"4","last_reported":1773174121,"current_range_meters":16800,"station_id":"","pricing_plan_id":"cebpf4jnsgd1na2vs0mg"},{"bike_id":"3cf11ba7-9b31-4e74-8681-d388cd19aab7","system_id":"levelo_inurba_marseille","lat":43.29551,"lon":5.38541,"is_reserved":false,"is_disabled":false,"rental_uris":{"android":"levelo://app?vid=3cf11ba7-9b31-4e74-8681-d388cd19aab7","ios":"levelo://app?vid=3cf11ba7-9b31-4e74-8681-d388cd19aab7"},"vehicle_type_id":"4","last_reported":1773174121,"current_range_meters":24400,"station_id":"ce4bgih2rcd13ifvqba0","pricing_plan_id":"cebpf4jnsgd1na2vs0mg"},{"bike_id":"ba5bb906-7706-4937-b349-5a1f2bd015dc","system_id":"levelo_inurba_marseille","lat":43.27817,"lon":5.40693,"is_reserved":false,"is_disabled":false,"rental_uris":{"android":"levelo://app?vid=ba5bb906-7706-4937-b349-5a1f2bd015dc","ios":"levelo://app?vid=ba5bb906-7706-4937-b349-5a1f2bd015dc"},"vehicle_type_id":"4","last_reported":1773174121,"current_range_meters":30400,"station_id":"ce4bhnh2rcd13ifvqgtg","pricing_plan_id":"cebpf4jnsgd1na2vs0mg"},{"bike_id":"1f22164f-3f62-4aa1-b979-623a5f5ae5b4","system_id":"levelo_inurba_marseille","lat":43.28261,"lon":5.35141,"is_reserved":false,"is_disabled":false,"rental_uris":{"android":"levelo://app?vid=1f22164f-3f62-4aa1-b979-623a5f5ae5b4","ios":"levelo://app?vid=1f22164f-3f62-4aa1-b979-623a5f5ae5b4"},"vehicle_type_id":"4","last_reported":1773174121,"current_range_meters":38400,"station_id":"ce4bhbp2rcd13ifvqerg","pricing_plan_id":"cebpf4jnsgd1na2vs0mg"},{"bike_id":"13f5d6ee-b5b6-4f72-86db-f808654551b8","system_id":"levelo_inurba_marseille","lat":43.299,"lon":5.43667,"is_reserved":false,"is_disabled":false,"rental_uris":{"android":"levelo://app?vid=13f5d6ee-b5b6-4f72-86db-f808654551b8","ios":"levelo://app?vid=13f5d6ee-b5b6-4f72-86db-f808654551b8"},"vehicle_type_id":"4","last_reported":1773174121,"current_range_meters":31200,"station_id":"ce4bhpp2rcd13ifvqhfg","pricing_plan_id":"cebpf4jnsgd1na2vs0mg"},{"bike_id":"055eedec-dcb8-4fdb-a78d-48d6a606ccae","system_id":"levelo_inurba_marseille","lat":43.29542,"lon":5.38545,"is_reserved":false,"is_disabled":false,"rental_uris":{"android":"levelo://app?vid=055eedec-dcb8-4fdb-a78d-48d6a606ccae","ios":"levelo://app?vid=055eedec-dcb8-4fdb-a78d-48d6a606ccae"},"vehicle_type_id":"4","last_reported":1773174121,"current_range_meters":16000,"station_id":"ce4bgih2rcd13ifvqba0","pricing_plan_id":"cebpf4jnsgd1na2vs0mg"},{"bike_id":"4237657a-7cdc-4967-86ba-cfba955c0ea9","system_id":"levelo_inurba_marseille","lat":43.27183,"lon":5.41009,"is_reserved":false,"is_disabled":false,"rental_uris":{"android":"levelo://app?vid=4237657a-7cdc-4967-86ba-cfba955c0ea9","ios":"levelo://app?vid=4237657a-7cdc-4967-86ba-cfba955c0ea9"},"vehicle_type_id":"4","last_reported":1773174121,"current_range_meters":39200,"station_id":"ce4bhl12rcd13ifvqgf0","pricing_plan_id":"cebpf4jnsgd1na2vs0mg"},{"bike_id":"544883e0-bc94-48d8-afd0-efc523c007b8","system_id":"levelo_inurba_marseille","lat":43.29252,"lon":5.40906,"is_reserved":false,"is_disabled":false,"rental_uris":{"android":"levelo://app?vid=544883e0-bc94-48d8-afd0-efc523c007b8","ios":"levelo://app?vid=544883e0-bc94-48d8-afd0-efc523c007b8"},"vehicle_type_id":"4","last_reported":1773174121,"current_range_meters":30000,"station_id":"ce4bh192rcd13ifvqdc0","pricing_plan_id":"cebpf4jnsgd1na2vs0mg"},{"bike_id":"d9ae451b-394d-4600-bc8e-250781c8b682","system_id":"levelo_inurba_marseille","lat":43.26552,"lon":5.37319,"is_reserved":false,"is_disabled":false,"rental_uris":{"android":"levelo://app?vid=d9ae451b-394d-4600-bc8e-250781c8b682","ios":"levelo://app?vid=d9ae451b-394d-4600-bc8e-250781c8b682"},"vehicle_type_id":"4","last_reported":1773174121,"current_range_meters":17600,"station_id":"ce4bhg12rcd13ifvqf70","pricing_plan_id":"cebpf4jnsgd1na2vs0mg"},{"bike_id":"c33732c3-34b3-43cf-9550-258c10091c04","system_id":"levelo_inurba_marseille","lat":43.29904,"lon":5.42095,"is_reserved":false,"is_disabled":false,"rental_uris":{"android":"levelo://app?vid=c33732c3-34b3-43cf-9550-258c10091c04","ios":"levelo://app?vid=c33732c3-34b3-43cf-9550-258c10091c04"},"vehicle_type_id":"4","last_reported":1773174121,"current_range_meters":38000,"station_id":"","pricing_plan_id":"cebpf4jnsgd1na2vs0mg"},{"bike_id":"5e71fadf-3d46-4d3f-8258-74b7144134d8","system_id":"levelo_inurba_marseille","lat":43.27498,"lon":5.41577,"is_reserved":false,"is_disabled":false,"rental_uris":{"android":"levelo://app?vid=5e71fadf-3d46-4d3f-8258-74b7144134d8","ios":"levelo://app?vid=5e71fadf-3d46-4d3f-8258-74b7144134d8"},"vehicle_type_id":"4","last_reported":1773174121,"current_range_meters":22800,"station_id":"st_d6im8g6chgec73a5pndg","pricing_plan_id":"cebpf4jnsgd1na2vs0mg"},{"bike_id":"741e3ec7-cec0-4e99-bcaf-44517a159255","system_id":"levelo_inurba_marseille","lat":43.29557,"lon":5.37444,"is_reserved":false,"is_disabled":false,"rental_uris":{"android":"levelo://app?vid=741e3ec7-cec0-4e99-bcaf-44517a159255","ios":"levelo://app?vid=741e3ec7-cec0-4e99-bcaf-44517a159255"},"vehicle_type_id":"4","last_reported":1773174121,"current_range_meters":28400,"station_id":"","pricing_plan_id":"cebpf4jnsgd1na2vs0mg"},{"bike_id":"c0f5bd4a-cbc2-427a-92f0-0be45de4abfd","system_id":"levelo_inurba_marseille","lat":43.28532,"lon":5.44111,"is_reserved":false,"is_disabled":false,"rental_uris":{"android":"levelo://app?vid=c0f5bd4a-cbc2-427a-92f0-0be45de4abfd","ios":"levelo://app?vid=c0f5bd4a-cbc2-427a-92f0-0be45de4abfd"},"vehicle_type_id":"4","last_reported":1773174121,"current_range_meters":8400,"station_id":"st_d3j3df2ikq2c7380ej80","pricing_plan_id":"cebpf4jnsgd1na2vs0mg"},{"bike_id":"4c4cd193-b46e-456e-934d-026fbd8d688d","system_id":"levelo_inurba_marseille","lat":43.29268,"lon":5.38437,"is_reserved":false,"is_disabled":false,"rental_uris":{"android":"levelo://app?vid=4c4cd193-b46e-456e-934d-026fbd8d688d","ios":"levelo://app?vid=4c4cd193-b46e-456e-934d-026fbd8d688d"},"vehicle_type_id":"4","last_reported":1773174121,"current_range_meters":36800,"station_id":"ce4bh692rcd13ifvqea0","pricing_plan_id":"cebpf4jnsgd1na2vs0mg"},{"bike_id":"251e2fa3-9cee-4a07-883b-96d86c803c28","system_id":"levelo_inurba_marseille","lat":43.2318,"lon":5.39983,"is_reserved":false,"is_disabled":false,"rental_uris":{"android":"levelo://app?vid=251e2fa3-9cee-4a07-883b-96d86c803c28","ios":"levelo://app?vid=251e2fa3-9cee-4a07-883b-96d86c803c28"},"vehicle_type_id":"4","last_reported":1773174121,"current_range_meters":39200,"station_id":"ce4bhn12rcd13ifvqgqg","pricing_plan_id":"cebpf4jnsgd1na2vs0mg"},{"bike_id":"6eaf328c-de35-4b3f-8c0e-4c90d9499b4b","system_id":"levelo_inurba_marseille","lat":43.32105,"lon":5.3678,"is_reserved":false,"is_disabled":false,"rental_uris":{"android":"levelo://app?vid=6eaf328c-de35-4b3f-8c0e-4c90d9499b4b","ios":"levelo://app?vid=6eaf328c-de35-4b3f-8c0e-4c90d9499b4b"},"vehicle_type_id":"4","last_reported":1773174121,"current_range_meters":38800,"station_id":"ce4bhrh2rcd13ifvqhug","pricing_plan_id":"cebpf4jnsgd1na2vs0mg"},{"bike_id":"a5eb7e2e-f45f-42c7-8ba3-bf76c2472338","system_id":"levelo_inurba_marseille","lat":43.30207,"lon":5.39438,"is_reserved":false,"is_disabled":false,"rental_uris":{"android":"levelo://app?vid=a5eb7e2e-f45f-42c7-8ba3-bf76c2472338","ios":"levelo://app?vid=a5eb7e2e-f45f-42c7-8ba3-bf76c2472338"},"vehicle_type_id":"4","last_reported":1773174121,"current_range_meters":27200,"station_id":"ce4bh0p2rcd13ifvqd70","pricing_plan_id":"cebpf4jnsgd1na2vs0mg"},{"bike_id":"bb4d2406-b5bc-49be-9f7c-f47fcdbe593b","system_id":"levelo_inurba_marseille","lat":43.30561,"lon":5.36708,"is_reserved":false,"is_disabled":false,"rental_uris":{"android":"levelo://app?vid=bb4d2406-b5bc-49be-9f7c-f47fcdbe593b","ios":"levelo://app?vid=bb4d2406-b5bc-49be-9f7c-f47fcdbe593b"},"vehicle_type_id":"4","last_reported":1773174121,"current_range_meters":39200,"station_id":"ce4bgrp2rcd13ifvqc9g","pricing_plan_id":"cebpf4jnsgd1na2vs0mg"},{"bike_id":"1496cf75-2e0e-4aa6-9429-43775397205c","system_id":"levelo_inurba_marseille","lat":43.29305,"lon":5.3683,"is_reserved":false,"is_disabled":false,"rental_uris":{"android":"levelo://app?vid=1496cf75-2e0e-4aa6-9429-43775397205c","ios":"levelo://app?vid=1496cf75-2e0e-4aa6-9429-43775397205c"},"vehicle_type_id":"4","last_reported":1773174121,"current_range_meters":38000,"station_id":"ce4bhbp2rcd13ifvqesg","pricing_plan_id":"cebpf4jnsgd1na2vs0mg"},{"bike_id":"68559005-fe8c-4e27-9d9a-830d90612209","system_id":"levelo_inurba_marseille","lat":43.25102,"lon":5.4032,"is_reserved":false,"is_disabled":false,"rental_uris":{"android":"levelo://app?vid=68559005-fe8c-4e27-9d9a-830d90612209","ios":"levelo://app?vid=68559005-fe8c-4e27-9d9a-830d90612209"},"vehicle_type_id":"4","last_reported":1773174121,"current_range_meters":14400,"station_id":"ce4bhlh2rcd13ifvqgig","pricing_plan_id":"cebpf4jnsgd1na2vs0mg"},{"bike_id":"00adc013-06bc-44f0-92b9-114da8a17fc8","system_id":"levelo_inurba_marseille","lat":43.29663,"lon":5.39385,"is_reserved":false,"is_disabled":false,"rental_uris":{"android":"levelo://app?vid=00adc013-06bc-44f0-92b9-114da8a17fc8","ios":"levelo://app?vid=00adc013-06bc-44f0-92b9-114da8a17fc8"},"vehicle_type_id":"4","last_reported":1773174121,"current_range_meters":10800,"station_id":"","pricing_plan_id":"cebpf4jnsgd1na2vs0mg"},{"bike_id":"a3cfe904-18fb-4467-b355-b56cd107d238","system_id":"levelo_inurba_marseille","lat":43.28606,"lon":5.37062,"is_reserved":false,"is_disabled":false,"rental_uris":{"android":"levelo://app?vid=a3cfe904-18fb-4467-b355-b56cd107d238","ios":"levelo://app?vid=a3cfe904-18fb-4467-b355-b56cd107d238"},"vehicle_type_id":"4","last_reported":1773174121,"current_range_meters":27600,"station_id":"ce4bht12rcd13ifvqi60","pricing_plan_id":"cebpf4jnsgd1na2vs0mg"},{"bike_id":"070cd0a6-749d-436a-bec4-797f07440630","system_id":"levelo_inurba_marseille","lat":43.2884,"lon":5.35854,"is_reserved":false,"is_disabled":false,"rental_uris":{"android":"levelo://app?vid=070cd0a6-749d-436a-bec4-797f07440630","ios":"levelo://app?vid=070cd0a6-749d-436a-bec4-797f07440630"},"vehicle_type_id":"4","last_reported":1773174121,"current_range_meters":30800,"station_id":"ce4bhb12rcd13ifvqem0","pricing_plan_id":"cebpf4jnsgd1na2vs0mg"},{"bike_id":"f27be3cb-d5fc-4498-8e52-861d9b4aac8e","system_id":"levelo_inurba_marseille","lat":43.24803,"lon":5.37455,"is_reserved":false,"is_disabled":false,"rental_uris":{"android":"levelo://app?vid=f27be3cb-d5fc-4498-8e52-861d9b4aac8e","ios":"levelo://app?vid=f27be3cb-d5fc-4498-8e52-861d9b4aac8e"},"vehicle_type_id":"4","last_reported":1773174121,"current_range_meters":38400,"station_id":"ce4bhgh2rcd13ifvqfb0","pricing_plan_id":"cebpf4jnsgd1na2vs0mg"},{"bike_id":"3d7b1bec-2a06-47da-a7d0-796cda99d14f","system_id":"levelo_inurba_marseille","lat":43.2707,"lon":5.38303,"is_reserved":false,"is_disabled":false,"rental_uris":{"android":"levelo://app?vid=3d7b1bec-2a06-47da-a7d0-796cda99d14f","ios":"levelo://app?vid=3d7b1bec-2a06-47da-a7d0-796cda99d14f"},"vehicle_type_id":"4","last_reported":1773174121,"current_range_meters":22400,"station_id":"st_d3n2fo6cfp8s73cte1j0","pricing_plan_id":"cebpf4jnsgd1na2vs0mg"},{"bike_id":"b7ff98bd-9d8c-43f7-a95e-37511af3a427","system_id":"levelo_inurba_marseille","lat":43.29242,"lon":5.38436,"is_reserved":false,"is_disabled":true,"rental_uris":{"android":"levelo://app?vid=b7ff98bd-9d8c-43f7-a95e-37511af3a427","ios":"levelo://app?vid=b7ff98bd-9d8c-43f7-a95e-37511af3a427"},"vehicle_type_id":"4","last_reported":1773174121,"current_range_meters":26800,"station_id":"ce4bh692rcd13ifvqea0","pricing_plan_id":"cebpf4jnsgd1na2vs0mg"},{"bike_id":"aa8a19aa-c792-4f00-b467-0061c17c84a8","system_id":"levelo_inurba_marseille","lat":43.23186,"lon":5.3998,"is_reserved":false,"is_disabled":false,"rental_uris":{"android":"levelo://app?vid=aa8a19aa-c792-4f00-b467-0061c17c84a8","ios":"levelo://app?vid=aa8a19aa-c792-4f00-b467-0061c17c84a8"},"vehicle_type_id":"4","last_reported":1773174121,"current_range_meters":8400,"station_id":"ce4bhn12rcd13ifvqgqg","pricing_plan_id":"cebpf4jnsgd1na2vs0mg"},{"bike_id":"def9d016-b4f1-4551-9bca-72f9a3613739","system_id":"levelo_inurba_marseille","lat":43.27511,"lon":5.41589,"is_reserved":false,"is_disabled":false,"rental_uris":{"android":"levelo://app?vid=def9d016-b4f1-4551-9bca-72f9a3613739","ios":"levelo://app?vid=def9d016-b4f1-4551-9bca-72f9a3613739"},"vehicle_type_id":"4","last_reported":1773174121,"current_range_meters":18000,"station_id":"st_d6im8g6chgec73a5pndg","pricing_plan_id":"cebpf4jnsgd1na2vs0mg"},{"bike_id":"dd854777-f378-4132-94e6-63027cc18b82","system_id":"levelo_inurba_marseille","lat":43.29727,"lon":5.41059,"is_reserved":false,"is_disabled":false,"rental_uris":{"android":"levelo://app?vid=dd854777-f378-4132-94e6-63027cc18b82","ios":"levelo://app?vid=dd854777-f378-4132-94e6-63027cc18b82"},"vehicle_type_id":"4","last_reported":1773174121,"current_range_meters":32400,"station_id":"","pricing_plan_id":"cebpf4jnsgd1na2vs0mg"},{"bike_id":"e39e7377-b1b8-4872-a5d5-78745f413fb0","system_id":"levelo_inurba_marseille","lat":43.29809,"lon":5.37109,"is_reserved":false,"is_disabled":false,"rental_uris":{"android":"levelo://app?vid=e39e7377-b1b8-4872-a5d5-78745f413fb0","ios":"levelo://app?vid=e39e7377-b1b8-4872-a5d5-78745f413fb0"},"vehicle_type_id":"4","last_reported":1773174121,"current_range_meters":20800,"station_id":"ce4bgop2rcd13ifvqc1g","pricing_plan_id":"cebpf4jnsgd1na2vs0mg"},{"bike_id":"40aaf654-e802-470f-905e-61376d705d44","system_id":"levelo_inurba_marseille","lat":43.29261,"lon":5.38431,"is_reserved":false,"is_disabled":false,"rental_uris":{"android":"levelo://app?vid=40aaf654-e802-470f-905e-61376d705d44","ios":"levelo://app?vid=40aaf654-e802-470f-905e-61376d705d44"},"vehicle_type_id":"4","last_reported":1773174121,"current_range_meters":39200,"station_id":"ce4bh692rcd13ifvqea0","pricing_plan_id":"cebpf4jnsgd1na2vs0mg"},{"bike_id":"003d1d08-fcf1-4e48-b79d-cd47497b0244","system_id":"levelo_inurba_marseille","lat":43.29584,"lon":5.37521,"is_reserved":false,"is_disabled":true,"rental_uris":{"android":"levelo://app?vid=003d1d08-fcf1-4e48-b79d-cd47497b0244","ios":"levelo://app?vid=003d1d08-fcf1-4e48-b79d-cd47497b0244"},"vehicle_type_id":"4","last_reported":1773174121,"current_range_meters":38000,"station_id":"ce4bgh92rcd13ifvqb50","pricing_plan_id":"cebpf4jnsgd1na2vs0mg"},{"bike_id":"532f1fe9-6384-4056-88f3-ddfdd084688a","system_id":"levelo_inurba_marseille","lat":43.29811,"lon":5.4188,"is_reserved":false,"is_disabled":false,"rental_uris":{"android":"levelo://app?vid=532f1fe9-6384-4056-88f3-ddfdd084688a","ios":"levelo://app?vid=532f1fe9-6384-4056-88f3-ddfdd084688a"},"vehicle_type_id":"4","last_reported":1773174121,"current_range_meters":32800,"station_id":"","pricing_plan_id":"cebpf4jnsgd1na2vs0mg"},{"bike_id":"955c54e3-e7ad-4355-8ec0-7be239d34285","system_id":"levelo_inurba_marseille","lat":43.28103,"lon":5.37842,"is_reserved":false,"is_disabled":false,"rental_uris":{"android":"levelo://app?vid=955c54e3-e7ad-4355-8ec0-7be239d34285","ios":"levelo://app?vid=955c54e3-e7ad-4355-8ec0-7be239d34285"},"vehicle_type_id":"4","last_reported":1773174121,"current_range_meters":35600,"station_id":"ce4bha12rcd13ifvqee0","pricing_plan_id":"cebpf4jnsgd1na2vs0mg"},{"bike_id":"3c8d6bce-d9c4-4269-82c6-7e6f35ffe4b3","system_id":"levelo_inurba_marseille","lat":43.29586,"lon":5.37516,"is_reserved":false,"is_disabled":false,"rental_uris":{"android":"levelo://app?vid=3c8d6bce-d9c4-4269-82c6-7e6f35ffe4b3","ios":"levelo://app?vid=3c8d6bce-d9c4-4269-82c6-7e6f35ffe4b3"},"vehicle_type_id":"4","last_reported":1773174121,"current_range_meters":12000,"station_id":"ce4bgh92rcd13ifvqb50","pricing_plan_id":"cebpf4jnsgd1na2vs0mg"},{"bike_id":"e0c6d53f-d556-4f3c-9be6-809ce4aebd6e","system_id":"levelo_inurba_marseille","lat":43.28639,"lon":5.38638,"is_reserved":false,"is_disabled":false,"rental_uris":{"android":"levelo://app?vid=e0c6d53f-d556-4f3c-9be6-809ce4aebd6e","ios":"levelo://app?vid=e0c6d53f-d556-4f3c-9be6-809ce4aebd6e"},"vehicle_type_id":"4","last_reported":1773174121,"current_range_meters":37600,"station_id":"ce4bh492rcd13ifvqdug","pricing_plan_id":"cebpf4jnsgd1na2vs0mg"},{"bike_id":"e5980185-ec26-4b37-ab2d-3a97dcedfd87","system_id":"levelo_inurba_marseille","lat":43.2604,"lon":5.39424,"is_reserved":false,"is_disabled":false,"rental_uris":{"android":"levelo://app?vid=e5980185-ec26-4b37-ab2d-3a97dcedfd87","ios":"levelo://app?vid=e5980185-ec26-4b37-ab2d-3a97dcedfd87"},"vehicle_type_id":"4","last_reported":1773174121,"current_range_meters":20000,"station_id":"ce4bhh92rcd13ifvqfj0","pricing_plan_id":"cebpf4jnsgd1na2vs0mg"},{"bike_id":"c127c5d1-f3ab-44a6-b0be-0d7b280137c1","system_id":"levelo_inurba_marseille","lat":43.28461,"lon":5.3589,"is_reserved":false,"is_disabled":false,"rental_uris":{"android":"levelo://app?vid=c127c5d1-f3ab-44a6-b0be-0d7b280137c1","ios":"levelo://app?vid=c127c5d1-f3ab-44a6-b0be-0d7b280137c1"},"vehicle_type_id":"4","last_reported":1773174121,"current_range_meters":8000,"station_id":"ce4bhah2rcd13ifvqei0","pricing_plan_id":"cebpf4jnsgd1na2vs0mg"},{"bike_id":"5ff4eed9-cc94-417e-b8b0-f370f495b41d","system_id":"levelo_inurba_marseille","lat":43.28162,"lon":5.42649,"is_reserved":false,"is_disabled":false,"rental_uris":{"android":"levelo://app?vid=5ff4eed9-cc94-417e-b8b0-f370f495b41d","ios":"levelo://app?vid=5ff4eed9-cc94-417e-b8b0-f370f495b41d"},"vehicle_type_id":"4","last_reported":1773174121,"current_range_meters":25200,"station_id":"ce4bhnh2rcd13ifvqgug","pricing_plan_id":"cebpf4jnsgd1na2vs0mg"},{"bike_id":"412a9e36-4e46-4e89-b2f5-d1dff61cf781","system_id":"levelo_inurba_marseille","lat":43.30132,"lon":5.3877,"is_reserved":false,"is_disabled":false,"rental_uris":{"android":"levelo://app?vid=412a9e36-4e46-4e89-b2f5-d1dff61cf781","ios":"levelo://app?vid=412a9e36-4e46-4e89-b2f5-d1dff61cf781"},"vehicle_type_id":"4","last_reported":1773174121,"current_range_meters":35600,"station_id":"ce4bghh2rcd13ifvqb60","pricing_plan_id":"cebpf4jnsgd1na2vs0mg"},{"bike_id":"4c16535f-45b7-4219-854d-c74170118360","system_id":"levelo_inurba_marseille","lat":43.24947,"lon":5.40485,"is_reserved":false,"is_disabled":false,"rental_uris":{"android":"levelo://app?vid=4c16535f-45b7-4219-854d-c74170118360","ios":"levelo://app?vid=4c16535f-45b7-4219-854d-c74170118360"},"vehicle_type_id":"4","last_reported":1773174121,"current_range_meters":8800,"station_id":"st_d2ngiaodas8pm72gd1h0","pricing_plan_id":"cebpf4jnsgd1na2vs0mg"},{"bike_id":"75093d5d-7c75-43f4-b526-91360dcb1bc6","system_id":"levelo_inurba_marseille","lat":43.28421,"lon":5.34994,"is_reserved":false,"is_disabled":false,"rental_uris":{"android":"levelo://app?vid=75093d5d-7c75-43f4-b526-91360dcb1bc6","ios":"levelo://app?vid=75093d5d-7c75-43f4-b526-91360dcb1bc6"},"vehicle_type_id":"4","last_reported":1773174121,"current_range_meters":38400,"station_id":"ce4bhbh2rcd13ifvqepg","pricing_plan_id":"cebpf4jnsgd1na2vs0mg"},{"bike_id":"7de6ca69-27cb-4f01-b0b4-5059a464752e","system_id":"levelo_inurba_marseille","lat":43.26681,"lon":5.38283,"is_reserved":false,"is_disabled":false,"rental_uris":{"android":"levelo://app?vid=7de6ca69-27cb-4f01-b0b4-5059a464752e","ios":"levelo://app?vid=7de6ca69-27cb-4f01-b0b4-5059a464752e"},"vehicle_type_id":"4","last_reported":1773174121,"current_range_meters":39200,"station_id":"ce4bhg92rcd13ifvqf90","pricing_plan_id":"cebpf4jnsgd1na2vs0mg"},{"bike_id":"a653cb16-eb56-4d3d-9547-661074c0647c","system_id":"levelo_inurba_marseille","lat":43.33773,"lon":5.37465,"is_reserved":false,"is_disabled":true,"rental_uris":{"android":"levelo://app?vid=a653cb16-eb56-4d3d-9547-661074c0647c","ios":"levelo://app?vid=a653cb16-eb56-4d3d-9547-661074c0647c"},"vehicle_type_id":"4","last_reported":1773174121,"current_range_meters":38000,"station_id":"","pricing_plan_id":"cebpf4jnsgd1na2vs0mg"},{"bike_id":"02c50f3f-0ebe-4c78-a0f1-5485749df61c","system_id":"levelo_inurba_marseille","lat":43.24821,"lon":5.37448,"is_reserved":false,"is_disabled":false,"rental_uris":{"android":"levelo://app?vid=02c50f3f-0ebe-4c78-a0f1-5485749df61c","ios":"levelo://app?vid=02c50f3f-0ebe-4c78-a0f1-5485749df61c"},"vehicle_type_id":"4","last_reported":1773174121,"current_range_meters":24000,"station_id":"ce4bhgh2rcd13ifvqfb0","pricing_plan_id":"cebpf4jnsgd1na2vs0mg"},{"bike_id":"e9ee824d-a011-4766-b135-044c258fa453","system_id":"levelo_inurba_marseille","lat":43.29029,"lon":5.38139,"is_reserved":false,"is_disabled":true,"rental_uris":{"android":"levelo://app?vid=e9ee824d-a011-4766-b135-044c258fa453","ios":"levelo://app?vid=e9ee824d-a011-4766-b135-044c258fa453"},"vehicle_type_id":"4","last_reported":1773174121,"current_range_meters":0,"station_id":"ce4bh4p2rcd13ifvqe1g","pricing_plan_id":"cebpf4jnsgd1na2vs0mg"},{"bike_id":"de0dadaf-9825-4c22-8e2a-ccac57e2b2d3","system_id":"levelo_inurba_marseille","lat":43.29902,"lon":5.38143,"is_reserved":false,"is_disabled":false,"rental_uris":{"android":"levelo://app?vid=de0dadaf-9825-4c22-8e2a-ccac57e2b2d3","ios":"levelo://app?vid=de0dadaf-9825-4c22-8e2a-ccac57e2b2d3"},"vehicle_type_id":"4","last_reported":1773174121,"current_range_meters":39200,"station_id":"ce4bgj12rcd13ifvqbc0","pricing_plan_id":"cebpf4jnsgd1na2vs0mg"},{"bike_id":"2cc84e15-68c0-4e5a-99ac-8f7ccf840430","system_id":"levelo_inurba_marseille","lat":43.22561,"lon":5.41621,"is_reserved":false,"is_disabled":false,"rental_uris":{"android":"levelo://app?vid=2cc84e15-68c0-4e5a-99ac-8f7ccf840430","ios":"levelo://app?vid=2cc84e15-68c0-4e5a-99ac-8f7ccf840430"},"vehicle_type_id":"4","last_reported":1773174121,"current_range_meters":38400,"station_id":"st_d2o4gvlbi1j2169b742g","pricing_plan_id":"cebpf4jnsgd1na2vs0mg"},{"bike_id":"712d2224-9001-4f6f-bfdc-af9c778b9081","system_id":"levelo_inurba_marseille","lat":43.22565,"lon":5.41651,"is_reserved":false,"is_disabled":false,"rental_uris":{"android":"levelo://app?vid=712d2224-9001-4f6f-bfdc-af9c778b9081","ios":"levelo://app?vid=712d2224-9001-4f6f-bfdc-af9c778b9081"},"vehicle_type_id":"4","last_reported":1773174121,"current_range_meters":4400,"station_id":"st_d2o4gvlbi1j2169b742g","pricing_plan_id":"cebpf4jnsgd1na2vs0mg"},{"bike_id":"2301d092-fcd2-45f3-804a-bf87c6aa69a3","system_id":"levelo_inurba_marseille","lat":43.29573,"lon":5.37589,"is_reserved":false,"is_disabled":false,"rental_uris":{"android":"levelo://app?vid=2301d092-fcd2-45f3-804a-bf87c6aa69a3","ios":"levelo://app?vid=2301d092-fcd2-45f3-804a-bf87c6aa69a3"},"vehicle_type_id":"4","last_reported":1773174121,"current_range_meters":22800,"station_id":"","pricing_plan_id":"cebpf4jnsgd1na2vs0mg"},{"bike_id":"e1fcee2b-0a2f-425b-90e6-63c8f4b304c7","system_id":"levelo_inurba_marseille","lat":43.25336,"lon":5.4214,"is_reserved":false,"is_disabled":false,"rental_uris":{"android":"levelo://app?vid=e1fcee2b-0a2f-425b-90e6-63c8f4b304c7","ios":"levelo://app?vid=e1fcee2b-0a2f-425b-90e6-63c8f4b304c7"},"vehicle_type_id":"4","last_reported":1773174121,"current_range_meters":33200,"station_id":"st_d2m65c5bi1j21697t3ng","pricing_plan_id":"cebpf4jnsgd1na2vs0mg"},{"bike_id":"3cb4118e-249f-4f7f-8bd1-0ddb85d3d47f","system_id":"levelo_inurba_marseille","lat":43.29798,"lon":5.41408,"is_reserved":false,"is_disabled":false,"rental_uris":{"android":"levelo://app?vid=3cb4118e-249f-4f7f-8bd1-0ddb85d3d47f","ios":"levelo://app?vid=3cb4118e-249f-4f7f-8bd1-0ddb85d3d47f"},"vehicle_type_id":"4","last_reported":1773174121,"current_range_meters":38000,"station_id":"","pricing_plan_id":"cebpf4jnsgd1na2vs0mg"},{"bike_id":"251e7265-6da3-486f-9540-4813a6799da8","system_id":"levelo_inurba_marseille","lat":43.29171,"lon":5.35651,"is_reserved":false,"is_disabled":false,"rental_uris":{"android":"levelo://app?vid=251e7265-6da3-486f-9540-4813a6799da8","ios":"levelo://app?vid=251e7265-6da3-486f-9540-4813a6799da8"},"vehicle_type_id":"4","last_reported":1773174121,"current_range_meters":11600,"station_id":"ce4bhb12rcd13ifvqel0","pricing_plan_id":"cebpf4jnsgd1na2vs0mg"},{"bike_id":"d2f8800f-30c1-4c21-b8e2-ba5c5b2f20f8","system_id":"levelo_inurba_marseille","lat":43.27189,"lon":5.40985,"is_reserved":false,"is_disabled":false,"rental_uris":{"android":"levelo://app?vid=d2f8800f-30c1-4c21-b8e2-ba5c5b2f20f8","ios":"levelo://app?vid=d2f8800f-30c1-4c21-b8e2-ba5c5b2f20f8"},"vehicle_type_id":"4","last_reported":1773174121,"current_range_meters":35200,"station_id":"ce4bhl12rcd13ifvqgf0","pricing_plan_id":"cebpf4jnsgd1na2vs0mg"},{"bike_id":"896440e6-cef8-4268-bb86-ac2c6e2de747","system_id":"levelo_inurba_marseille","lat":43.28451,"lon":5.48389,"is_reserved":false,"is_disabled":false,"rental_uris":{"android":"levelo://app?vid=896440e6-cef8-4268-bb86-ac2c6e2de747","ios":"levelo://app?vid=896440e6-cef8-4268-bb86-ac2c6e2de747"},"vehicle_type_id":"4","last_reported":1773174121,"current_range_meters":32400,"station_id":"","pricing_plan_id":"cebpf4jnsgd1na2vs0mg"},{"bike_id":"c12ca336-7e33-4700-b55a-bea9313ec609","system_id":"levelo_inurba_marseille","lat":43.2533,"lon":5.42169,"is_reserved":false,"is_disabled":false,"rental_uris":{"android":"levelo://app?vid=c12ca336-7e33-4700-b55a-bea9313ec609","ios":"levelo://app?vid=c12ca336-7e33-4700-b55a-bea9313ec609"},"vehicle_type_id":"4","last_reported":1773174121,"current_range_meters":14000,"station_id":"st_d2m65c5bi1j21697t3ng","pricing_plan_id":"cebpf4jnsgd1na2vs0mg"},{"bike_id":"bdff13f0-0040-42f8-a042-90efed8054cb","system_id":"levelo_inurba_marseille","lat":43.27839,"lon":5.39204,"is_reserved":false,"is_disabled":false,"rental_uris":{"android":"levelo://app?vid=bdff13f0-0040-42f8-a042-90efed8054cb","ios":"levelo://app?vid=bdff13f0-0040-42f8-a042-90efed8054cb"},"vehicle_type_id":"4","last_reported":1773174121,"current_range_meters":26000,"station_id":"ce4bhjp2rcd13ifvqga0","pricing_plan_id":"cebpf4jnsgd1na2vs0mg"},{"bike_id":"2c1215f2-9624-4e50-bbbb-a53264cdd31e","system_id":"levelo_inurba_marseille","lat":43.28475,"lon":5.48402,"is_reserved":false,"is_disabled":false,"rental_uris":{"android":"levelo://app?vid=2c1215f2-9624-4e50-bbbb-a53264cdd31e","ios":"levelo://app?vid=2c1215f2-9624-4e50-bbbb-a53264cdd31e"},"vehicle_type_id":"4","last_reported":1773174121,"current_range_meters":33200,"station_id":"","pricing_plan_id":"cebpf4jnsgd1na2vs0mg"},{"bike_id":"1a207468-e47b-4f76-96da-6b3403b02150","system_id":"levelo_inurba_marseille","lat":43.28451,"lon":5.35887,"is_reserved":false,"is_disabled":false,"rental_uris":{"android":"levelo://app?vid=1a207468-e47b-4f76-96da-6b3403b02150","ios":"levelo://app?vid=1a207468-e47b-4f76-96da-6b3403b02150"},"vehicle_type_id":"4","last_reported":1773174121,"current_range_meters":38800,"station_id":"ce4bhah2rcd13ifvqei0","pricing_plan_id":"cebpf4jnsgd1na2vs0mg"},{"bike_id":"b20e784e-83e8-4171-8c29-5aa2de2d6861","system_id":"levelo_inurba_marseille","lat":43.32108,"lon":5.36778,"is_reserved":false,"is_disabled":false,"rental_uris":{"android":"levelo://app?vid=b20e784e-83e8-4171-8c29-5aa2de2d6861","ios":"levelo://app?vid=b20e784e-83e8-4171-8c29-5aa2de2d6861"},"vehicle_type_id":"4","last_reported":1773174121,"current_range_meters":24400,"station_id":"ce4bhrh2rcd13ifvqhug","pricing_plan_id":"cebpf4jnsgd1na2vs0mg"},{"bike_id":"a0ab89fd-d4e3-4039-8377-577b0acf001d","system_id":"levelo_inurba_marseille","lat":43.24375,"lon":5.44112,"is_reserved":false,"is_disabled":false,"rental_uris":{"android":"levelo://app?vid=a0ab89fd-d4e3-4039-8377-577b0acf001d","ios":"levelo://app?vid=a0ab89fd-d4e3-4039-8377-577b0acf001d"},"vehicle_type_id":"4","last_reported":1773174121,"current_range_meters":11600,"station_id":"","pricing_plan_id":"cebpf4jnsgd1na2vs0mg"},{"bike_id":"b9a3a995-b001-4d18-9713-749fdc308856","system_id":"levelo_inurba_marseille","lat":43.24999,"lon":5.38937,"is_reserved":false,"is_disabled":false,"rental_uris":{"android":"levelo://app?vid=b9a3a995-b001-4d18-9713-749fdc308856","ios":"levelo://app?vid=b9a3a995-b001-4d18-9713-749fdc308856"},"vehicle_type_id":"4","last_reported":1773174121,"current_range_meters":14800,"station_id":"ce4bhgp2rcd13ifvqfd0","pricing_plan_id":"cebpf4jnsgd1na2vs0mg"},{"bike_id":"2d0478ba-9463-4ccb-9f83-d80fe33eddd2","system_id":"levelo_inurba_marseille","lat":43.27385,"lon":5.36272,"is_reserved":false,"is_disabled":false,"rental_uris":{"android":"levelo://app?vid=2d0478ba-9463-4ccb-9f83-d80fe33eddd2","ios":"levelo://app?vid=2d0478ba-9463-4ccb-9f83-d80fe33eddd2"},"vehicle_type_id":"4","last_reported":1773174121,"current_range_meters":30800,"station_id":"ce4bhbh2rcd13ifvqeo0","pricing_plan_id":"cebpf4jnsgd1na2vs0mg"},{"bike_id":"688dce1c-cf53-43aa-b22e-8f6ee99a6467","system_id":"levelo_inurba_marseille","lat":43.22933,"lon":5.35377,"is_reserved":false,"is_disabled":false,"rental_uris":{"android":"levelo://app?vid=688dce1c-cf53-43aa-b22e-8f6ee99a6467","ios":"levelo://app?vid=688dce1c-cf53-43aa-b22e-8f6ee99a6467"},"vehicle_type_id":"4","last_reported":1773174121,"current_range_meters":18000,"station_id":"cpo3532slgdg3j2ikp40","pricing_plan_id":"cebpf4jnsgd1na2vs0mg"},{"bike_id":"c9fdec63-7232-4c40-8487-75579466936b","system_id":"levelo_inurba_marseille","lat":43.26637,"lon":5.38274,"is_reserved":false,"is_disabled":false,"rental_uris":{"android":"levelo://app?vid=c9fdec63-7232-4c40-8487-75579466936b","ios":"levelo://app?vid=c9fdec63-7232-4c40-8487-75579466936b"},"vehicle_type_id":"4","last_reported":1773174121,"current_range_meters":30000,"station_id":"ce4bhg92rcd13ifvqf90","pricing_plan_id":"cebpf4jnsgd1na2vs0mg"},{"bike_id":"5c377f38-fc97-4b2e-93a0-0d6e429565ea","system_id":"levelo_inurba_marseille","lat":43.26936,"lon":5.40234,"is_reserved":false,"is_disabled":false,"rental_uris":{"android":"levelo://app?vid=5c377f38-fc97-4b2e-93a0-0d6e429565ea","ios":"levelo://app?vid=5c377f38-fc97-4b2e-93a0-0d6e429565ea"},"vehicle_type_id":"4","last_reported":1773174121,"current_range_meters":40000,"station_id":"cjm6bp8fraef2m0cb0m0","pricing_plan_id":"cebpf4jnsgd1na2vs0mg"},{"bike_id":"e8b7d766-9ece-4870-a1b8-5b316a1b8e67","system_id":"levelo_inurba_marseille","lat":43.22568,"lon":5.41639,"is_reserved":false,"is_disabled":false,"rental_uris":{"android":"levelo://app?vid=e8b7d766-9ece-4870-a1b8-5b316a1b8e67","ios":"levelo://app?vid=e8b7d766-9ece-4870-a1b8-5b316a1b8e67"},"vehicle_type_id":"4","last_reported":1773174121,"current_range_meters":21600,"station_id":"st_d2o4gvlbi1j2169b742g","pricing_plan_id":"cebpf4jnsgd1na2vs0mg"},{"bike_id":"e78a2dfd-1cac-4c70-833e-a27a202ba77f","system_id":"levelo_inurba_marseille","lat":43.27815,"lon":5.40733,"is_reserved":false,"is_disabled":false,"rental_uris":{"android":"levelo://app?vid=e78a2dfd-1cac-4c70-833e-a27a202ba77f","ios":"levelo://app?vid=e78a2dfd-1cac-4c70-833e-a27a202ba77f"},"vehicle_type_id":"4","last_reported":1773174121,"current_range_meters":35600,"station_id":"ce4bhnh2rcd13ifvqgtg","pricing_plan_id":"cebpf4jnsgd1na2vs0mg"},{"bike_id":"7fec08d5-ee68-460a-ac18-925555054430","system_id":"levelo_inurba_marseille","lat":43.24145,"lon":5.36414,"is_reserved":false,"is_disabled":false,"rental_uris":{"android":"levelo://app?vid=7fec08d5-ee68-460a-ac18-925555054430","ios":"levelo://app?vid=7fec08d5-ee68-460a-ac18-925555054430"},"vehicle_type_id":"4","last_reported":1773174121,"current_range_meters":19200,"station_id":"cpo36qri1sfpv3e86is0","pricing_plan_id":"cebpf4jnsgd1na2vs0mg"},{"bike_id":"5710dcd1-e745-41ec-96c6-e4d758bdbfca","system_id":"levelo_inurba_marseille","lat":43.29524,"lon":5.39037,"is_reserved":false,"is_disabled":false,"rental_uris":{"android":"levelo://app?vid=5710dcd1-e745-41ec-96c6-e4d758bdbfca","ios":"levelo://app?vid=5710dcd1-e745-41ec-96c6-e4d758bdbfca"},"vehicle_type_id":"4","last_reported":1773174121,"current_range_meters":36400,"station_id":"ce4bh3p2rcd13ifvqdp0","pricing_plan_id":"cebpf4jnsgd1na2vs0mg"},{"bike_id":"3f859369-29b9-4a75-a3e5-d08afde721cf","system_id":"levelo_inurba_marseille","lat":43.29936,"lon":5.38156,"is_reserved":false,"is_disabled":false,"rental_uris":{"android":"levelo://app?vid=3f859369-29b9-4a75-a3e5-d08afde721cf","ios":"levelo://app?vid=3f859369-29b9-4a75-a3e5-d08afde721cf"},"vehicle_type_id":"4","last_reported":1773174121,"current_range_meters":36400,"station_id":"ce4bgj12rcd13ifvqbc0","pricing_plan_id":"cebpf4jnsgd1na2vs0mg"},{"bike_id":"fbacc4e2-20d2-440b-8334-f840b8c13084","system_id":"levelo_inurba_marseille","lat":43.23184,"lon":5.43703,"is_reserved":false,"is_disabled":false,"rental_uris":{"android":"levelo://app?vid=fbacc4e2-20d2-440b-8334-f840b8c13084","ios":"levelo://app?vid=fbacc4e2-20d2-440b-8334-f840b8c13084"},"vehicle_type_id":"4","last_reported":1773174121,"current_range_meters":25200,"station_id":"ce4bhmp2rcd13ifvqgog","pricing_plan_id":"cebpf4jnsgd1na2vs0mg"},{"bike_id":"3e5376d1-74e0-493d-8800-a1ee648fb8c9","system_id":"levelo_inurba_marseille","lat":43.30367,"lon":5.42475,"is_reserved":false,"is_disabled":false,"rental_uris":{"android":"levelo://app?vid=3e5376d1-74e0-493d-8800-a1ee648fb8c9","ios":"levelo://app?vid=3e5376d1-74e0-493d-8800-a1ee648fb8c9"},"vehicle_type_id":"4","last_reported":1773174121,"current_range_meters":35600,"station_id":"ce4bhoh2rcd13ifvqh6g","pricing_plan_id":"cebpf4jnsgd1na2vs0mg"},{"bike_id":"c95c98b4-d4f4-48f2-b9c6-eaacb07d9cdb","system_id":"levelo_inurba_marseille","lat":43.30258,"lon":5.40053,"is_reserved":false,"is_disabled":false,"rental_uris":{"android":"levelo://app?vid=c95c98b4-d4f4-48f2-b9c6-eaacb07d9cdb","ios":"levelo://app?vid=c95c98b4-d4f4-48f2-b9c6-eaacb07d9cdb"},"vehicle_type_id":"4","last_reported":1773174121,"current_range_meters":33200,"station_id":"ce4bgvh2rcd13ifvqcs0","pricing_plan_id":"cebpf4jnsgd1na2vs0mg"},{"bike_id":"19c585cb-b516-45ee-aa09-cf34d5e1db9f","system_id":"levelo_inurba_marseille","lat":43.31191,"lon":5.3766,"is_reserved":false,"is_disabled":false,"rental_uris":{"android":"levelo://app?vid=19c585cb-b516-45ee-aa09-cf34d5e1db9f","ios":"levelo://app?vid=19c585cb-b516-45ee-aa09-cf34d5e1db9f"},"vehicle_type_id":"4","last_reported":1773174121,"current_range_meters":34800,"station_id":"","pricing_plan_id":"cebpf4jnsgd1na2vs0mg"},{"bike_id":"64db144a-07de-49ea-9432-4bcd2298dea1","system_id":"levelo_inurba_marseille","lat":43.26687,"lon":5.38281,"is_reserved":false,"is_disabled":false,"rental_uris":{"android":"levelo://app?vid=64db144a-07de-49ea-9432-4bcd2298dea1","ios":"levelo://app?vid=64db144a-07de-49ea-9432-4bcd2298dea1"},"vehicle_type_id":"4","last_reported":1773174121,"current_range_meters":20800,"station_id":"ce4bhg92rcd13ifvqf90","pricing_plan_id":"cebpf4jnsgd1na2vs0mg"},{"bike_id":"6c4cf459-9d91-4f06-98a0-e2caa263890b","system_id":"levelo_inurba_marseille","lat":43.29386,"lon":5.37864,"is_reserved":false,"is_disabled":true,"rental_uris":{"android":"levelo://app?vid=6c4cf459-9d91-4f06-98a0-e2caa263890b","ios":"levelo://app?vid=6c4cf459-9d91-4f06-98a0-e2caa263890b"},"vehicle_type_id":"4","last_reported":1773174121,"current_range_meters":27200,"station_id":"ce4bgjh2rcd13ifvqbf0","pricing_plan_id":"cebpf4jnsgd1na2vs0mg"},{"bike_id":"5f535282-3087-43da-aac9-b72a2da83281","system_id":"levelo_inurba_marseille","lat":43.25505,"lon":5.37676,"is_reserved":false,"is_disabled":false,"rental_uris":{"android":"levelo://app?vid=5f535282-3087-43da-aac9-b72a2da83281","ios":"levelo://app?vid=5f535282-3087-43da-aac9-b72a2da83281"},"vehicle_type_id":"4","last_reported":1773174121,"current_range_meters":39200,"station_id":"ce4bhh12rcd13ifvqff0","pricing_plan_id":"cebpf4jnsgd1na2vs0mg"},{"bike_id":"ac9c6184-0173-4088-80bd-ad4bbe1b6da2","system_id":"levelo_inurba_marseille","lat":43.29546,"lon":5.39046,"is_reserved":false,"is_disabled":false,"rental_uris":{"android":"levelo://app?vid=ac9c6184-0173-4088-80bd-ad4bbe1b6da2","ios":"levelo://app?vid=ac9c6184-0173-4088-80bd-ad4bbe1b6da2"},"vehicle_type_id":"4","last_reported":1773174121,"current_range_meters":17200,"station_id":"ce4bh3p2rcd13ifvqdp0","pricing_plan_id":"cebpf4jnsgd1na2vs0mg"},{"bike_id":"a46ec52b-d72c-4d5e-9590-aa33ef1b423c","system_id":"levelo_inurba_marseille","lat":43.27985,"lon":5.41662,"is_reserved":false,"is_disabled":false,"rental_uris":{"android":"levelo://app?vid=a46ec52b-d72c-4d5e-9590-aa33ef1b423c","ios":"levelo://app?vid=a46ec52b-d72c-4d5e-9590-aa33ef1b423c"},"vehicle_type_id":"4","last_reported":1773174121,"current_range_meters":33600,"station_id":"ce4bho12rcd13ifvqh1g","pricing_plan_id":"cebpf4jnsgd1na2vs0mg"},{"bike_id":"c40b3250-133e-48f3-a6f8-1f7561b4b5ba","system_id":"levelo_inurba_marseille","lat":43.24822,"lon":5.37455,"is_reserved":false,"is_disabled":false,"rental_uris":{"android":"levelo://app?vid=c40b3250-133e-48f3-a6f8-1f7561b4b5ba","ios":"levelo://app?vid=c40b3250-133e-48f3-a6f8-1f7561b4b5ba"},"vehicle_type_id":"4","last_reported":1773174121,"current_range_meters":33600,"station_id":"ce4bhgh2rcd13ifvqfb0","pricing_plan_id":"cebpf4jnsgd1na2vs0mg"},{"bike_id":"6e3c00fb-3daa-4ca6-8229-81d9411f3b98","system_id":"levelo_inurba_marseille","lat":43.28079,"lon":5.39666,"is_reserved":false,"is_disabled":false,"rental_uris":{"android":"levelo://app?vid=6e3c00fb-3daa-4ca6-8229-81d9411f3b98","ios":"levelo://app?vid=6e3c00fb-3daa-4ca6-8229-81d9411f3b98"},"vehicle_type_id":"4","last_reported":1773174121,"current_range_meters":24800,"station_id":"ce4bho12rcd13ifvqh2g","pricing_plan_id":"cebpf4jnsgd1na2vs0mg"},{"bike_id":"f62cbee2-12e5-4cdd-bfbc-04088f9f32fa","system_id":"levelo_inurba_marseille","lat":43.28477,"lon":5.48392,"is_reserved":false,"is_disabled":false,"rental_uris":{"android":"levelo://app?vid=f62cbee2-12e5-4cdd-bfbc-04088f9f32fa","ios":"levelo://app?vid=f62cbee2-12e5-4cdd-bfbc-04088f9f32fa"},"vehicle_type_id":"4","last_reported":1773174121,"current_range_meters":24800,"station_id":"","pricing_plan_id":"cebpf4jnsgd1na2vs0mg"},{"bike_id":"c85195ac-1ccf-49e2-93a4-ac161248e975","system_id":"levelo_inurba_marseille","lat":43.29732,"lon":5.37679,"is_reserved":false,"is_disabled":false,"rental_uris":{"android":"levelo://app?vid=c85195ac-1ccf-49e2-93a4-ac161248e975","ios":"levelo://app?vid=c85195ac-1ccf-49e2-93a4-ac161248e975"},"vehicle_type_id":"4","last_reported":1773174121,"current_range_meters":35200,"station_id":"ce4bgkh2rcd13ifvqbl0","pricing_plan_id":"cebpf4jnsgd1na2vs0mg"},{"bike_id":"721ea8ff-84b6-4ff4-a19d-161d9eb55804","system_id":"levelo_inurba_marseille","lat":43.29611,"lon":5.37715,"is_reserved":false,"is_disabled":false,"rental_uris":{"android":"levelo://app?vid=721ea8ff-84b6-4ff4-a19d-161d9eb55804","ios":"levelo://app?vid=721ea8ff-84b6-4ff4-a19d-161d9eb55804"},"vehicle_type_id":"4","last_reported":1773174121,"current_range_meters":10800,"station_id":"ce4bgi92rcd13ifvqb90","pricing_plan_id":"cebpf4jnsgd1na2vs0mg"},{"bike_id":"5b070995-8e0f-42bd-af61-5eb8056a24da","system_id":"levelo_inurba_marseille","lat":43.308,"lon":5.38158,"is_reserved":false,"is_disabled":false,"rental_uris":{"android":"levelo://app?vid=5b070995-8e0f-42bd-af61-5eb8056a24da","ios":"levelo://app?vid=5b070995-8e0f-42bd-af61-5eb8056a24da"},"vehicle_type_id":"4","last_reported":1773174121,"current_range_meters":36400,"station_id":"ce4bgt12rcd13ifvqce0","pricing_plan_id":"cebpf4jnsgd1na2vs0mg"},{"bike_id":"4ddf6107-bd9d-4d60-bbe1-44b17ca01c09","system_id":"levelo_inurba_marseille","lat":43.30145,"lon":5.37406,"is_reserved":false,"is_disabled":true,"rental_uris":{"android":"levelo://app?vid=4ddf6107-bd9d-4d60-bbe1-44b17ca01c09","ios":"levelo://app?vid=4ddf6107-bd9d-4d60-bbe1-44b17ca01c09"},"vehicle_type_id":"4","last_reported":1773174121,"current_range_meters":28400,"station_id":"ce4bgs92rcd13ifvqcc0","pricing_plan_id":"cebpf4jnsgd1na2vs0mg"},{"bike_id":"ba3a231f-10a0-4302-b0e7-08f11861cd04","system_id":"levelo_inurba_marseille","lat":43.28481,"lon":5.4839,"is_reserved":false,"is_disabled":false,"rental_uris":{"android":"levelo://app?vid=ba3a231f-10a0-4302-b0e7-08f11861cd04","ios":"levelo://app?vid=ba3a231f-10a0-4302-b0e7-08f11861cd04"},"vehicle_type_id":"4","last_reported":1773174121,"current_range_meters":4000,"station_id":"","pricing_plan_id":"cebpf4jnsgd1na2vs0mg"},{"bike_id":"0b3a6178-c659-4afa-a1c1-935435363474","system_id":"levelo_inurba_marseille","lat":43.23966,"lon":5.36632,"is_reserved":false,"is_disabled":false,"rental_uris":{"android":"levelo://app?vid=0b3a6178-c659-4afa-a1c1-935435363474","ios":"levelo://app?vid=0b3a6178-c659-4afa-a1c1-935435363474"},"vehicle_type_id":"4","last_reported":1773174121,"current_range_meters":29600,"station_id":"ce4bhi12rcd13ifvqfp0","pricing_plan_id":"cebpf4jnsgd1na2vs0mg"},{"bike_id":"c4127bf1-754a-4c52-a275-55f16ba90528","system_id":"levelo_inurba_marseille","lat":43.27919,"lon":5.41045,"is_reserved":false,"is_disabled":false,"rental_uris":{"android":"levelo://app?vid=c4127bf1-754a-4c52-a275-55f16ba90528","ios":"levelo://app?vid=c4127bf1-754a-4c52-a275-55f16ba90528"},"vehicle_type_id":"4","last_reported":1773174121,"current_range_meters":28000,"station_id":"ce4bhnp2rcd13ifvqh0g","pricing_plan_id":"cebpf4jnsgd1na2vs0mg"},{"bike_id":"352c9f7d-89b4-42e5-9e2e-76d972a274bd","system_id":"levelo_inurba_marseille","lat":43.29703,"lon":5.4254,"is_reserved":false,"is_disabled":false,"rental_uris":{"android":"levelo://app?vid=352c9f7d-89b4-42e5-9e2e-76d972a274bd","ios":"levelo://app?vid=352c9f7d-89b4-42e5-9e2e-76d972a274bd"},"vehicle_type_id":"4","last_reported":1773174121,"current_range_meters":14000,"station_id":"","pricing_plan_id":"cebpf4jnsgd1na2vs0mg"},{"bike_id":"bfee60c3-8b74-4c9f-aef3-67f690ec877a","system_id":"levelo_inurba_marseille","lat":43.30312,"lon":5.36896,"is_reserved":false,"is_disabled":false,"rental_uris":{"android":"levelo://app?vid=bfee60c3-8b74-4c9f-aef3-67f690ec877a","ios":"levelo://app?vid=bfee60c3-8b74-4c9f-aef3-67f690ec877a"},"vehicle_type_id":"4","last_reported":1773174121,"current_range_meters":16800,"station_id":"ce4bgqh2rcd13ifvqc5g","pricing_plan_id":"cebpf4jnsgd1na2vs0mg"},{"bike_id":"c59a5209-1b70-42df-8250-859beecf23e1","system_id":"levelo_inurba_marseille","lat":43.23209,"lon":5.35546,"is_reserved":false,"is_disabled":false,"rental_uris":{"android":"levelo://app?vid=c59a5209-1b70-42df-8250-859beecf23e1","ios":"levelo://app?vid=c59a5209-1b70-42df-8250-859beecf23e1"},"vehicle_type_id":"4","last_reported":1773174121,"current_range_meters":38000,"station_id":"ce4bhu92rcd13ifvqi70","pricing_plan_id":"cebpf4jnsgd1na2vs0mg"},{"bike_id":"e309c0de-c44d-4d33-8dac-96754e8fa3cc","system_id":"levelo_inurba_marseille","lat":43.31331,"lon":5.39723,"is_reserved":false,"is_disabled":false,"rental_uris":{"android":"levelo://app?vid=e309c0de-c44d-4d33-8dac-96754e8fa3cc","ios":"levelo://app?vid=e309c0de-c44d-4d33-8dac-96754e8fa3cc"},"vehicle_type_id":"4","last_reported":1773174121,"current_range_meters":36000,"station_id":"ce4bgvp2rcd13ifvqcu0","pricing_plan_id":"cebpf4jnsgd1na2vs0mg"},{"bike_id":"fed428a6-a508-4132-94d7-783075e10fe3","system_id":"levelo_inurba_marseille","lat":43.32356,"lon":5.36741,"is_reserved":false,"is_disabled":false,"rental_uris":{"android":"levelo://app?vid=fed428a6-a508-4132-94d7-783075e10fe3","ios":"levelo://app?vid=fed428a6-a508-4132-94d7-783075e10fe3"},"vehicle_type_id":"4","last_reported":1773174121,"current_range_meters":38000,"station_id":"ce4bhsh2rcd13ifvqi2g","pricing_plan_id":"cebpf4jnsgd1na2vs0mg"},{"bike_id":"ca43889d-8e99-4e52-8010-23aa6d2f466d","system_id":"levelo_inurba_marseille","lat":43.29271,"lon":5.38442,"is_reserved":false,"is_disabled":false,"rental_uris":{"android":"levelo://app?vid=ca43889d-8e99-4e52-8010-23aa6d2f466d","ios":"levelo://app?vid=ca43889d-8e99-4e52-8010-23aa6d2f466d"},"vehicle_type_id":"4","last_reported":1773174121,"current_range_meters":29600,"station_id":"ce4bh692rcd13ifvqea0","pricing_plan_id":"cebpf4jnsgd1na2vs0mg"},{"bike_id":"b77fb604-0801-47d9-99a2-3844aa44df9a","system_id":"levelo_inurba_marseille","lat":43.25333,"lon":5.42179,"is_reserved":false,"is_disabled":false,"rental_uris":{"android":"levelo://app?vid=b77fb604-0801-47d9-99a2-3844aa44df9a","ios":"levelo://app?vid=b77fb604-0801-47d9-99a2-3844aa44df9a"},"vehicle_type_id":"4","last_reported":1773174121,"current_range_meters":30400,"station_id":"st_d2m65c5bi1j21697t3ng","pricing_plan_id":"cebpf4jnsgd1na2vs0mg"},{"bike_id":"dcad9259-a4d3-4cc7-94fc-0c8a7321317d","system_id":"levelo_inurba_marseille","lat":43.27106,"lon":5.38284,"is_reserved":false,"is_disabled":false,"rental_uris":{"android":"levelo://app?vid=dcad9259-a4d3-4cc7-94fc-0c8a7321317d","ios":"levelo://app?vid=dcad9259-a4d3-4cc7-94fc-0c8a7321317d"},"vehicle_type_id":"4","last_reported":1773174121,"current_range_meters":32800,"station_id":"st_d3n2fo6cfp8s73cte1j0","pricing_plan_id":"cebpf4jnsgd1na2vs0mg"},{"bike_id":"54dedf02-9946-4658-9e75-e2e8b7cf4198","system_id":"levelo_inurba_marseille","lat":43.24158,"lon":5.36406,"is_reserved":false,"is_disabled":false,"rental_uris":{"android":"levelo://app?vid=54dedf02-9946-4658-9e75-e2e8b7cf4198","ios":"levelo://app?vid=54dedf02-9946-4658-9e75-e2e8b7cf4198"},"vehicle_type_id":"4","last_reported":1773174121,"current_range_meters":20000,"station_id":"cpo36qri1sfpv3e86is0","pricing_plan_id":"cebpf4jnsgd1na2vs0mg"},{"bike_id":"a68f7044-0e54-417d-a997-2dd84d77e2ba","system_id":"levelo_inurba_marseille","lat":43.27563,"lon":5.39623,"is_reserved":false,"is_disabled":false,"rental_uris":{"android":"levelo://app?vid=a68f7044-0e54-417d-a997-2dd84d77e2ba","ios":"levelo://app?vid=a68f7044-0e54-417d-a997-2dd84d77e2ba"},"vehicle_type_id":"4","last_reported":1773174121,"current_range_meters":26800,"station_id":"","pricing_plan_id":"cebpf4jnsgd1na2vs0mg"},{"bike_id":"853d54ba-396f-4604-bb19-6d260a4870cf","system_id":"levelo_inurba_marseille","lat":43.2439,"lon":5.3705,"is_reserved":false,"is_disabled":false,"rental_uris":{"android":"levelo://app?vid=853d54ba-396f-4604-bb19-6d260a4870cf","ios":"levelo://app?vid=853d54ba-396f-4604-bb19-6d260a4870cf"},"vehicle_type_id":"4","last_reported":1773174121,"current_range_meters":11600,"station_id":"ce4bhhh2rcd13ifvqfk0","pricing_plan_id":"cebpf4jnsgd1na2vs0mg"},{"bike_id":"0bd65bd6-432d-4f03-9bc1-a502b4962690","system_id":"levelo_inurba_marseille","lat":43.29288,"lon":5.37427,"is_reserved":false,"is_disabled":false,"rental_uris":{"android":"levelo://app?vid=0bd65bd6-432d-4f03-9bc1-a502b4962690","ios":"levelo://app?vid=0bd65bd6-432d-4f03-9bc1-a502b4962690"},"vehicle_type_id":"4","last_reported":1773174121,"current_range_meters":28000,"station_id":"ce4bgi12rcd13ifvqb70","pricing_plan_id":"cebpf4jnsgd1na2vs0mg"},{"bike_id":"b6942993-6967-4f6c-b7e8-d4ca854e4d0e","system_id":"levelo_inurba_marseille","lat":43.24999,"lon":5.3896,"is_reserved":false,"is_disabled":false,"rental_uris":{"android":"levelo://app?vid=b6942993-6967-4f6c-b7e8-d4ca854e4d0e","ios":"levelo://app?vid=b6942993-6967-4f6c-b7e8-d4ca854e4d0e"},"vehicle_type_id":"4","last_reported":1773174121,"current_range_meters":39200,"station_id":"ce4bhgp2rcd13ifvqfd0","pricing_plan_id":"cebpf4jnsgd1na2vs0mg"},{"bike_id":"a3f661a0-e0b9-4cb0-b14e-dcaf0d7cced4","system_id":"levelo_inurba_marseille","lat":43.30555,"lon":5.36707,"is_reserved":false,"is_disabled":false,"rental_uris":{"android":"levelo://app?vid=a3f661a0-e0b9-4cb0-b14e-dcaf0d7cced4","ios":"levelo://app?vid=a3f661a0-e0b9-4cb0-b14e-dcaf0d7cced4"},"vehicle_type_id":"4","last_reported":1773174121,"current_range_meters":11600,"station_id":"ce4bgrp2rcd13ifvqc9g","pricing_plan_id":"cebpf4jnsgd1na2vs0mg"},{"bike_id":"a540b441-3928-4042-84dc-78cbd8de6fd0","system_id":"levelo_inurba_marseille","lat":43.24385,"lon":5.37064,"is_reserved":false,"is_disabled":false,"rental_uris":{"android":"levelo://app?vid=a540b441-3928-4042-84dc-78cbd8de6fd0","ios":"levelo://app?vid=a540b441-3928-4042-84dc-78cbd8de6fd0"},"vehicle_type_id":"4","last_reported":1773174121,"current_range_meters":36800,"station_id":"ce4bhhh2rcd13ifvqfk0","pricing_plan_id":"cebpf4jnsgd1na2vs0mg"},{"bike_id":"6cfdbc08-aee4-4c12-a1c3-a07efd50da2b","system_id":"levelo_inurba_marseille","lat":43.27953,"lon":5.41053,"is_reserved":false,"is_disabled":false,"rental_uris":{"android":"levelo://app?vid=6cfdbc08-aee4-4c12-a1c3-a07efd50da2b","ios":"levelo://app?vid=6cfdbc08-aee4-4c12-a1c3-a07efd50da2b"},"vehicle_type_id":"4","last_reported":1773174121,"current_range_meters":4800,"station_id":"ce4bhnp2rcd13ifvqh0g","pricing_plan_id":"cebpf4jnsgd1na2vs0mg"},{"bike_id":"d2a1bddb-abc2-4ccc-9c5f-dc2c9be0a497","system_id":"levelo_inurba_marseille","lat":43.29755,"lon":5.42731,"is_reserved":false,"is_disabled":false,"rental_uris":{"android":"levelo://app?vid=d2a1bddb-abc2-4ccc-9c5f-dc2c9be0a497","ios":"levelo://app?vid=d2a1bddb-abc2-4ccc-9c5f-dc2c9be0a497"},"vehicle_type_id":"4","last_reported":1773174121,"current_range_meters":3600,"station_id":"st_d3md5207bmas73dh9klg","pricing_plan_id":"cebpf4jnsgd1na2vs0mg"},{"bike_id":"dab334e7-a2a6-4a95-aea0-00ba8c9b639d","system_id":"levelo_inurba_marseille","lat":43.28414,"lon":5.35009,"is_reserved":false,"is_disabled":true,"rental_uris":{"android":"levelo://app?vid=dab334e7-a2a6-4a95-aea0-00ba8c9b639d","ios":"levelo://app?vid=dab334e7-a2a6-4a95-aea0-00ba8c9b639d"},"vehicle_type_id":"4","last_reported":1773174121,"current_range_meters":9200,"station_id":"ce4bhbh2rcd13ifvqepg","pricing_plan_id":"cebpf4jnsgd1na2vs0mg"},{"bike_id":"d8c6e0f3-6a1d-4b44-ab46-83b2eab81619","system_id":"levelo_inurba_marseille","lat":43.32387,"lon":5.36695,"is_reserved":false,"is_disabled":false,"rental_uris":{"android":"levelo://app?vid=d8c6e0f3-6a1d-4b44-ab46-83b2eab81619","ios":"levelo://app?vid=d8c6e0f3-6a1d-4b44-ab46-83b2eab81619"},"vehicle_type_id":"4","last_reported":1773174121,"current_range_meters":3600,"station_id":"","pricing_plan_id":"cebpf4jnsgd1na2vs0mg"},{"bike_id":"e0553987-86c9-48db-9bc0-f9ec0cbe7005","system_id":"levelo_inurba_marseille","lat":43.28858,"lon":5.35844,"is_reserved":false,"is_disabled":false,"rental_uris":{"android":"levelo://app?vid=e0553987-86c9-48db-9bc0-f9ec0cbe7005","ios":"levelo://app?vid=e0553987-86c9-48db-9bc0-f9ec0cbe7005"},"vehicle_type_id":"4","last_reported":1773174121,"current_range_meters":36000,"station_id":"ce4bhb12rcd13ifvqem0","pricing_plan_id":"cebpf4jnsgd1na2vs0mg"},{"bike_id":"2ac129ef-0500-4e15-8179-6818cd0eb7ac","system_id":"levelo_inurba_marseille","lat":43.27064,"lon":5.42284,"is_reserved":false,"is_disabled":false,"rental_uris":{"android":"levelo://app?vid=2ac129ef-0500-4e15-8179-6818cd0eb7ac","ios":"levelo://app?vid=2ac129ef-0500-4e15-8179-6818cd0eb7ac"},"vehicle_type_id":"4","last_reported":1773174121,"current_range_meters":10000,"station_id":"ce4bhk92rcd13ifvqgb0","pricing_plan_id":"cebpf4jnsgd1na2vs0mg"},{"bike_id":"09b51f1e-4608-4273-bc57-8753e2939ff2","system_id":"levelo_inurba_marseille","lat":43.29927,"lon":5.36508,"is_reserved":false,"is_disabled":false,"rental_uris":{"android":"levelo://app?vid=09b51f1e-4608-4273-bc57-8753e2939ff2","ios":"levelo://app?vid=09b51f1e-4608-4273-bc57-8753e2939ff2"},"vehicle_type_id":"4","last_reported":1773174121,"current_range_meters":35600,"station_id":"ce4bgm92rcd13ifvqbr0","pricing_plan_id":"cebpf4jnsgd1na2vs0mg"},{"bike_id":"5f0e7184-fed8-4cb0-829a-1d0642fad04a","system_id":"levelo_inurba_marseille","lat":43.28008,"lon":5.40023,"is_reserved":false,"is_disabled":false,"rental_uris":{"android":"levelo://app?vid=5f0e7184-fed8-4cb0-829a-1d0642fad04a","ios":"levelo://app?vid=5f0e7184-fed8-4cb0-829a-1d0642fad04a"},"vehicle_type_id":"4","last_reported":1773174121,"current_range_meters":25200,"station_id":"ce4bho92rcd13ifvqh4g","pricing_plan_id":"cebpf4jnsgd1na2vs0mg"},{"bike_id":"35ed67b0-af27-45b0-9449-08f2206c145b","system_id":"levelo_inurba_marseille","lat":43.279694,"lon":5.387333,"is_reserved":false,"is_disabled":false,"rental_uris":{"android":"levelo://app?vid=35ed67b0-af27-45b0-9449-08f2206c145b","ios":"levelo://app?vid=35ed67b0-af27-45b0-9449-08f2206c145b"},"vehicle_type_id":"4","last_reported":1773174121,"current_range_meters":17200,"station_id":"ce4bhg12rcd13ifvqf80","pricing_plan_id":"cebpf4jnsgd1na2vs0mg"},{"bike_id":"3ce17650-5b3e-4584-9602-c494ebe16e37","system_id":"levelo_inurba_marseille","lat":43.30265,"lon":5.40067,"is_reserved":false,"is_disabled":false,"rental_uris":{"android":"levelo://app?vid=3ce17650-5b3e-4584-9602-c494ebe16e37","ios":"levelo://app?vid=3ce17650-5b3e-4584-9602-c494ebe16e37"},"vehicle_type_id":"4","last_reported":1773174121,"current_range_meters":4000,"station_id":"ce4bgvh2rcd13ifvqcs0","pricing_plan_id":"cebpf4jnsgd1na2vs0mg"},{"bike_id":"ea2b5425-627c-410f-8b17-3b8ea575ed82","system_id":"levelo_inurba_marseille","lat":43.23198,"lon":5.39968,"is_reserved":false,"is_disabled":false,"rental_uris":{"android":"levelo://app?vid=ea2b5425-627c-410f-8b17-3b8ea575ed82","ios":"levelo://app?vid=ea2b5425-627c-410f-8b17-3b8ea575ed82"},"vehicle_type_id":"4","last_reported":1773174121,"current_range_meters":34800,"station_id":"ce4bhn12rcd13ifvqgqg","pricing_plan_id":"cebpf4jnsgd1na2vs0mg"},{"bike_id":"2176c0d4-49a6-4a15-8768-18770c42831e","system_id":"levelo_inurba_marseille","lat":43.25127,"lon":5.40332,"is_reserved":false,"is_disabled":false,"rental_uris":{"android":"levelo://app?vid=2176c0d4-49a6-4a15-8768-18770c42831e","ios":"levelo://app?vid=2176c0d4-49a6-4a15-8768-18770c42831e"},"vehicle_type_id":"4","last_reported":1773174121,"current_range_meters":10800,"station_id":"ce4bhlh2rcd13ifvqgig","pricing_plan_id":"cebpf4jnsgd1na2vs0mg"},{"bike_id":"2c8b1630-d1d7-44de-8d8e-741bee7b5957","system_id":"levelo_inurba_marseille","lat":43.27809,"lon":5.40665,"is_reserved":false,"is_disabled":false,"rental_uris":{"android":"levelo://app?vid=2c8b1630-d1d7-44de-8d8e-741bee7b5957","ios":"levelo://app?vid=2c8b1630-d1d7-44de-8d8e-741bee7b5957"},"vehicle_type_id":"4","last_reported":1773174121,"current_range_meters":27200,"station_id":"ce4bhnh2rcd13ifvqgtg","pricing_plan_id":"cebpf4jnsgd1na2vs0mg"},{"bike_id":"d8d31a39-9375-4cb9-b36f-abb996ba218b","system_id":"levelo_inurba_marseille","lat":43.29272,"lon":5.38442,"is_reserved":false,"is_disabled":false,"rental_uris":{"android":"levelo://app?vid=d8d31a39-9375-4cb9-b36f-abb996ba218b","ios":"levelo://app?vid=d8d31a39-9375-4cb9-b36f-abb996ba218b"},"vehicle_type_id":"4","last_reported":1773174121,"current_range_meters":39200,"station_id":"ce4bh692rcd13ifvqea0","pricing_plan_id":"cebpf4jnsgd1na2vs0mg"},{"bike_id":"0a2f9b28-6219-4106-b011-3026133a767c","system_id":"levelo_inurba_marseille","lat":43.296,"lon":5.38109,"is_reserved":false,"is_disabled":true,"rental_uris":{"android":"levelo://app?vid=0a2f9b28-6219-4106-b011-3026133a767c","ios":"levelo://app?vid=0a2f9b28-6219-4106-b011-3026133a767c"},"vehicle_type_id":"4","last_reported":1773174121,"current_range_meters":24400,"station_id":"ce4bgl12rcd13ifvqbo0","pricing_plan_id":"cebpf4jnsgd1na2vs0mg"},{"bike_id":"a3d84ca1-bdd2-40b3-81e8-c9df3d12f6c1","system_id":"levelo_inurba_marseille","lat":43.29518,"lon":5.3906,"is_reserved":false,"is_disabled":false,"rental_uris":{"android":"levelo://app?vid=a3d84ca1-bdd2-40b3-81e8-c9df3d12f6c1","ios":"levelo://app?vid=a3d84ca1-bdd2-40b3-81e8-c9df3d12f6c1"},"vehicle_type_id":"4","last_reported":1773174121,"current_range_meters":25600,"station_id":"ce4bh3p2rcd13ifvqdp0","pricing_plan_id":"cebpf4jnsgd1na2vs0mg"},{"bike_id":"333c1115-21ab-4cac-9273-ad709bdfe532","system_id":"levelo_inurba_marseille","lat":43.27487,"lon":5.42451,"is_reserved":false,"is_disabled":false,"rental_uris":{"android":"levelo://app?vid=333c1115-21ab-4cac-9273-ad709bdfe532","ios":"levelo://app?vid=333c1115-21ab-4cac-9273-ad709bdfe532"},"vehicle_type_id":"4","last_reported":1773174121,"current_range_meters":30800,"station_id":"ce4bhn92rcd13ifvqgrg","pricing_plan_id":"cebpf4jnsgd1na2vs0mg"},{"bike_id":"5db3c18b-50a7-4754-a03e-ef4eb3949dd5","system_id":"levelo_inurba_marseille","lat":43.29253,"lon":5.36865,"is_reserved":false,"is_disabled":false,"rental_uris":{"android":"levelo://app?vid=5db3c18b-50a7-4754-a03e-ef4eb3949dd5","ios":"levelo://app?vid=5db3c18b-50a7-4754-a03e-ef4eb3949dd5"},"vehicle_type_id":"4","last_reported":1773174121,"current_range_meters":10000,"station_id":"ce4bhbp2rcd13ifvqesg","pricing_plan_id":"cebpf4jnsgd1na2vs0mg"},{"bike_id":"474db209-38e8-4330-b23e-0b51d90d5f0a","system_id":"levelo_inurba_marseille","lat":43.29555,"lon":5.4229,"is_reserved":false,"is_disabled":false,"rental_uris":{"android":"levelo://app?vid=474db209-38e8-4330-b23e-0b51d90d5f0a","ios":"levelo://app?vid=474db209-38e8-4330-b23e-0b51d90d5f0a"},"vehicle_type_id":"4","last_reported":1773174121,"current_range_meters":25200,"station_id":"ce4bhph2rcd13ifvqhdg","pricing_plan_id":"cebpf4jnsgd1na2vs0mg"},{"bike_id":"53ac44cb-67bd-4fe8-b47b-110b609c7a81","system_id":"levelo_inurba_marseille","lat":43.25092,"lon":5.39526,"is_reserved":false,"is_disabled":false,"rental_uris":{"android":"levelo://app?vid=53ac44cb-67bd-4fe8-b47b-110b609c7a81","ios":"levelo://app?vid=53ac44cb-67bd-4fe8-b47b-110b609c7a81"},"vehicle_type_id":"4","last_reported":1773174121,"current_range_meters":39200,"station_id":"ce4bhm12rcd13ifvqgkg","pricing_plan_id":"cebpf4jnsgd1na2vs0mg"},{"bike_id":"de41fd44-36e4-4949-a72f-8ebd158d5853","system_id":"levelo_inurba_marseille","lat":43.28463,"lon":5.35865,"is_reserved":false,"is_disabled":false,"rental_uris":{"android":"levelo://app?vid=de41fd44-36e4-4949-a72f-8ebd158d5853","ios":"levelo://app?vid=de41fd44-36e4-4949-a72f-8ebd158d5853"},"vehicle_type_id":"4","last_reported":1773174121,"current_range_meters":17200,"station_id":"ce4bhah2rcd13ifvqei0","pricing_plan_id":"cebpf4jnsgd1na2vs0mg"},{"bike_id":"7c18f0e4-d362-4e80-b231-56179e94cd0a","system_id":"levelo_inurba_marseille","lat":43.27817,"lon":5.40738,"is_reserved":false,"is_disabled":false,"rental_uris":{"android":"levelo://app?vid=7c18f0e4-d362-4e80-b231-56179e94cd0a","ios":"levelo://app?vid=7c18f0e4-d362-4e80-b231-56179e94cd0a"},"vehicle_type_id":"4","last_reported":1773174121,"current_range_meters":11600,"station_id":"ce4bhnh2rcd13ifvqgtg","pricing_plan_id":"cebpf4jnsgd1na2vs0mg"},{"bike_id":"db6c5e44-badd-4aab-bfd1-70d9c79ea856","system_id":"levelo_inurba_marseille","lat":43.23776,"lon":5.36637,"is_reserved":false,"is_disabled":false,"rental_uris":{"android":"levelo://app?vid=db6c5e44-badd-4aab-bfd1-70d9c79ea856","ios":"levelo://app?vid=db6c5e44-badd-4aab-bfd1-70d9c79ea856"},"vehicle_type_id":"4","last_reported":1773174121,"current_range_meters":34000,"station_id":"st_d3nk18o9ro0c73en2l3g","pricing_plan_id":"cebpf4jnsgd1na2vs0mg"},{"bike_id":"6512892c-51a2-4377-8eb6-95ab7c73e940","system_id":"levelo_inurba_marseille","lat":43.30304,"lon":5.39211,"is_reserved":false,"is_disabled":false,"rental_uris":{"android":"levelo://app?vid=6512892c-51a2-4377-8eb6-95ab7c73e940","ios":"levelo://app?vid=6512892c-51a2-4377-8eb6-95ab7c73e940"},"vehicle_type_id":"4","last_reported":1773174121,"current_range_meters":30400,"station_id":"ce4bgkh2rcd13ifvqbk0","pricing_plan_id":"cebpf4jnsgd1na2vs0mg"},{"bike_id":"818705b7-2e92-4008-8c9b-fd47324c18ba","system_id":"levelo_inurba_marseille","lat":43.25008,"lon":5.38955,"is_reserved":false,"is_disabled":false,"rental_uris":{"android":"levelo://app?vid=818705b7-2e92-4008-8c9b-fd47324c18ba","ios":"levelo://app?vid=818705b7-2e92-4008-8c9b-fd47324c18ba"},"vehicle_type_id":"4","last_reported":1773174121,"current_range_meters":28400,"station_id":"ce4bhgp2rcd13ifvqfd0","pricing_plan_id":"cebpf4jnsgd1na2vs0mg"},{"bike_id":"ebd6088d-ab52-4b6d-b6be-62de3fd47906","system_id":"levelo_inurba_marseille","lat":43.30149,"lon":5.39908,"is_reserved":false,"is_disabled":true,"rental_uris":{"android":"levelo://app?vid=ebd6088d-ab52-4b6d-b6be-62de3fd47906","ios":"levelo://app?vid=ebd6088d-ab52-4b6d-b6be-62de3fd47906"},"vehicle_type_id":"4","last_reported":1773174121,"current_range_meters":24000,"station_id":"ce4bh0h2rcd13ifvqd40","pricing_plan_id":"cebpf4jnsgd1na2vs0mg"},{"bike_id":"64e0acbc-b730-4e0b-a273-d856c435e134","system_id":"levelo_inurba_marseille","lat":43.29512,"lon":5.38547,"is_reserved":false,"is_disabled":false,"rental_uris":{"android":"levelo://app?vid=64e0acbc-b730-4e0b-a273-d856c435e134","ios":"levelo://app?vid=64e0acbc-b730-4e0b-a273-d856c435e134"},"vehicle_type_id":"4","last_reported":1773174121,"current_range_meters":21600,"station_id":"ce4bgih2rcd13ifvqba0","pricing_plan_id":"cebpf4jnsgd1na2vs0mg"},{"bike_id":"76fe0ede-51ac-4485-88ad-82138e6f8a98","system_id":"levelo_inurba_marseille","lat":43.29545,"lon":5.38531,"is_reserved":false,"is_disabled":false,"rental_uris":{"android":"levelo://app?vid=76fe0ede-51ac-4485-88ad-82138e6f8a98","ios":"levelo://app?vid=76fe0ede-51ac-4485-88ad-82138e6f8a98"},"vehicle_type_id":"4","last_reported":1773174121,"current_range_meters":35600,"station_id":"ce4bgih2rcd13ifvqba0","pricing_plan_id":"cebpf4jnsgd1na2vs0mg"},{"bike_id":"552527b2-3992-442f-8023-61651bb7b9e6","system_id":"levelo_inurba_marseille","lat":43.24513,"lon":5.39519,"is_reserved":false,"is_disabled":true,"rental_uris":{"android":"levelo://app?vid=552527b2-3992-442f-8023-61651bb7b9e6","ios":"levelo://app?vid=552527b2-3992-442f-8023-61651bb7b9e6"},"vehicle_type_id":"4","last_reported":1773174121,"current_range_meters":30400,"station_id":"ce4bhlp2rcd13ifvqgjg","pricing_plan_id":"cebpf4jnsgd1na2vs0mg"},{"bike_id":"aa3cc47b-6ceb-40fd-b3e7-3a801026af0e","system_id":"levelo_inurba_marseille","lat":43.30883,"lon":5.39653,"is_reserved":false,"is_disabled":false,"rental_uris":{"android":"levelo://app?vid=aa3cc47b-6ceb-40fd-b3e7-3a801026af0e","ios":"levelo://app?vid=aa3cc47b-6ceb-40fd-b3e7-3a801026af0e"},"vehicle_type_id":"4","last_reported":1773174121,"current_range_meters":18000,"station_id":"ce4bh012rcd13ifvqcv0","pricing_plan_id":"cebpf4jnsgd1na2vs0mg"},{"bike_id":"138d701b-4f88-4348-91ce-225d2f57e3bc","system_id":"levelo_inurba_marseille","lat":43.24042,"lon":5.37734,"is_reserved":false,"is_disabled":false,"rental_uris":{"android":"levelo://app?vid=138d701b-4f88-4348-91ce-225d2f57e3bc","ios":"levelo://app?vid=138d701b-4f88-4348-91ce-225d2f57e3bc"},"vehicle_type_id":"4","last_reported":1773174121,"current_range_meters":4800,"station_id":"ce4bhnp2rcd13ifvqgvg","pricing_plan_id":"cebpf4jnsgd1na2vs0mg"},{"bike_id":"9ac109f9-3abb-4c6d-9e12-91b43115c9b5","system_id":"levelo_inurba_marseille","lat":43.29291,"lon":5.3684,"is_reserved":false,"is_disabled":false,"rental_uris":{"android":"levelo://app?vid=9ac109f9-3abb-4c6d-9e12-91b43115c9b5","ios":"levelo://app?vid=9ac109f9-3abb-4c6d-9e12-91b43115c9b5"},"vehicle_type_id":"4","last_reported":1773174121,"current_range_meters":6400,"station_id":"ce4bhbp2rcd13ifvqesg","pricing_plan_id":"cebpf4jnsgd1na2vs0mg"},{"bike_id":"4198a94b-b036-48d2-a0ce-1c96a42b9197","system_id":"levelo_inurba_marseille","lat":43.28413,"lon":5.34999,"is_reserved":false,"is_disabled":false,"rental_uris":{"android":"levelo://app?vid=4198a94b-b036-48d2-a0ce-1c96a42b9197","ios":"levelo://app?vid=4198a94b-b036-48d2-a0ce-1c96a42b9197"},"vehicle_type_id":"4","last_reported":1773174121,"current_range_meters":32800,"station_id":"ce4bhbh2rcd13ifvqepg","pricing_plan_id":"cebpf4jnsgd1na2vs0mg"},{"bike_id":"116884d9-4a07-439b-9337-8d3d77ac1c8e","system_id":"levelo_inurba_marseille","lat":43.26053,"lon":5.39386,"is_reserved":false,"is_disabled":false,"rental_uris":{"android":"levelo://app?vid=116884d9-4a07-439b-9337-8d3d77ac1c8e","ios":"levelo://app?vid=116884d9-4a07-439b-9337-8d3d77ac1c8e"},"vehicle_type_id":"4","last_reported":1773174121,"current_range_meters":39200,"station_id":"ce4bhh92rcd13ifvqfj0","pricing_plan_id":"cebpf4jnsgd1na2vs0mg"},{"bike_id":"e50d48ed-53b5-42aa-8d06-2635f15d8cc9","system_id":"levelo_inurba_marseille","lat":43.28464,"lon":5.35899,"is_reserved":false,"is_disabled":true,"rental_uris":{"android":"levelo://app?vid=e50d48ed-53b5-42aa-8d06-2635f15d8cc9","ios":"levelo://app?vid=e50d48ed-53b5-42aa-8d06-2635f15d8cc9"},"vehicle_type_id":"4","last_reported":1773174121,"current_range_meters":3200,"station_id":"ce4bhah2rcd13ifvqei0","pricing_plan_id":"cebpf4jnsgd1na2vs0mg"},{"bike_id":"8617eb9a-d411-493c-b1fc-2b5d158e9757","system_id":"levelo_inurba_marseille","lat":43.26233,"lon":5.40434,"is_reserved":false,"is_disabled":false,"rental_uris":{"android":"levelo://app?vid=8617eb9a-d411-493c-b1fc-2b5d158e9757","ios":"levelo://app?vid=8617eb9a-d411-493c-b1fc-2b5d158e9757"},"vehicle_type_id":"4","last_reported":1773174121,"current_range_meters":10000,"station_id":"ce4bhmh2rcd13ifvqgmg","pricing_plan_id":"cebpf4jnsgd1na2vs0mg"},{"bike_id":"23abd777-1ea1-4551-9cdb-9e7c7fae5c18","system_id":"levelo_inurba_marseille","lat":43.30787,"lon":5.38151,"is_reserved":false,"is_disabled":false,"rental_uris":{"android":"levelo://app?vid=23abd777-1ea1-4551-9cdb-9e7c7fae5c18","ios":"levelo://app?vid=23abd777-1ea1-4551-9cdb-9e7c7fae5c18"},"vehicle_type_id":"4","last_reported":1773174121,"current_range_meters":31200,"station_id":"ce4bgt12rcd13ifvqce0","pricing_plan_id":"cebpf4jnsgd1na2vs0mg"},{"bike_id":"a63d22a1-9803-47da-97c5-9eb5069b8019","system_id":"levelo_inurba_marseille","lat":43.25829,"lon":5.39431,"is_reserved":false,"is_disabled":false,"rental_uris":{"android":"levelo://app?vid=a63d22a1-9803-47da-97c5-9eb5069b8019","ios":"levelo://app?vid=a63d22a1-9803-47da-97c5-9eb5069b8019"},"vehicle_type_id":"4","last_reported":1773174121,"current_range_meters":39200,"station_id":"ce4bhip2rcd13ifvqft0","pricing_plan_id":"cebpf4jnsgd1na2vs0mg"},{"bike_id":"2a742de9-c952-4962-9f6a-5c6c22c800ed","system_id":"levelo_inurba_marseille","lat":43.31503,"lon":5.37306,"is_reserved":false,"is_disabled":false,"rental_uris":{"android":"levelo://app?vid=2a742de9-c952-4962-9f6a-5c6c22c800ed","ios":"levelo://app?vid=2a742de9-c952-4962-9f6a-5c6c22c800ed"},"vehicle_type_id":"4","last_reported":1773174121,"current_range_meters":30800,"station_id":"ce4bgt12rcd13ifvqcd0","pricing_plan_id":"cebpf4jnsgd1na2vs0mg"},{"bike_id":"66bcaef7-970d-40e2-9705-c85f3aeb11c5","system_id":"levelo_inurba_marseille","lat":43.30606,"lon":5.3935,"is_reserved":false,"is_disabled":false,"rental_uris":{"android":"levelo://app?vid=66bcaef7-970d-40e2-9705-c85f3aeb11c5","ios":"levelo://app?vid=66bcaef7-970d-40e2-9705-c85f3aeb11c5"},"vehicle_type_id":"4","last_reported":1773174121,"current_range_meters":8000,"station_id":"ce4bh0p2rcd13ifvqd80","pricing_plan_id":"cebpf4jnsgd1na2vs0mg"},{"bike_id":"eeb25118-f8a5-4d14-a24a-4292e25dba9a","system_id":"levelo_inurba_marseille","lat":43.29517,"lon":5.3851,"is_reserved":false,"is_disabled":false,"rental_uris":{"android":"levelo://app?vid=eeb25118-f8a5-4d14-a24a-4292e25dba9a","ios":"levelo://app?vid=eeb25118-f8a5-4d14-a24a-4292e25dba9a"},"vehicle_type_id":"4","last_reported":1773174121,"current_range_meters":22800,"station_id":"ce4bgih2rcd13ifvqba0","pricing_plan_id":"cebpf4jnsgd1na2vs0mg"},{"bike_id":"3346350d-c579-4be3-824a-1adc8dc2759b","system_id":"levelo_inurba_marseille","lat":43.29939,"lon":5.3655,"is_reserved":false,"is_disabled":false,"rental_uris":{"android":"levelo://app?vid=3346350d-c579-4be3-824a-1adc8dc2759b","ios":"levelo://app?vid=3346350d-c579-4be3-824a-1adc8dc2759b"},"vehicle_type_id":"4","last_reported":1773174121,"current_range_meters":3200,"station_id":"ce4bgm92rcd13ifvqbr0","pricing_plan_id":"cebpf4jnsgd1na2vs0mg"},{"bike_id":"8b2e521b-1101-44fe-9d4a-0344f080c81c","system_id":"levelo_inurba_marseille","lat":43.28467,"lon":5.48413,"is_reserved":false,"is_disabled":false,"rental_uris":{"android":"levelo://app?vid=8b2e521b-1101-44fe-9d4a-0344f080c81c","ios":"levelo://app?vid=8b2e521b-1101-44fe-9d4a-0344f080c81c"},"vehicle_type_id":"4","last_reported":1773174121,"current_range_meters":38400,"station_id":"","pricing_plan_id":"cebpf4jnsgd1na2vs0mg"},{"bike_id":"1697678c-c8a4-4c47-ade7-901915c540a8","system_id":"levelo_inurba_marseille","lat":43.29592,"lon":5.38081,"is_reserved":false,"is_disabled":true,"rental_uris":{"android":"levelo://app?vid=1697678c-c8a4-4c47-ade7-901915c540a8","ios":"levelo://app?vid=1697678c-c8a4-4c47-ade7-901915c540a8"},"vehicle_type_id":"4","last_reported":1773174121,"current_range_meters":8800,"station_id":"ce4bgl12rcd13ifvqbo0","pricing_plan_id":"cebpf4jnsgd1na2vs0mg"},{"bike_id":"3d8fac76-12aa-46a9-b037-5c9c7d6403da","system_id":"levelo_inurba_marseille","lat":43.29726,"lon":5.37697,"is_reserved":false,"is_disabled":false,"rental_uris":{"android":"levelo://app?vid=3d8fac76-12aa-46a9-b037-5c9c7d6403da","ios":"levelo://app?vid=3d8fac76-12aa-46a9-b037-5c9c7d6403da"},"vehicle_type_id":"4","last_reported":1773174121,"current_range_meters":37600,"station_id":"ce4bgkh2rcd13ifvqbl0","pricing_plan_id":"cebpf4jnsgd1na2vs0mg"},{"bike_id":"da234e48-5f69-4b53-b37b-4873fdeddaa9","system_id":"levelo_inurba_marseille","lat":43.29265,"lon":5.40921,"is_reserved":false,"is_disabled":false,"rental_uris":{"android":"levelo://app?vid=da234e48-5f69-4b53-b37b-4873fdeddaa9","ios":"levelo://app?vid=da234e48-5f69-4b53-b37b-4873fdeddaa9"},"vehicle_type_id":"4","last_reported":1773174121,"current_range_meters":33200,"station_id":"ce4bh192rcd13ifvqdc0","pricing_plan_id":"cebpf4jnsgd1na2vs0mg"},{"bike_id":"db8d078e-42eb-4ad3-93fc-b2a69084043d","system_id":"levelo_inurba_marseille","lat":43.27815,"lon":5.40699,"is_reserved":false,"is_disabled":false,"rental_uris":{"android":"levelo://app?vid=db8d078e-42eb-4ad3-93fc-b2a69084043d","ios":"levelo://app?vid=db8d078e-42eb-4ad3-93fc-b2a69084043d"},"vehicle_type_id":"4","last_reported":1773174121,"current_range_meters":39200,"station_id":"ce4bhnh2rcd13ifvqgtg","pricing_plan_id":"cebpf4jnsgd1na2vs0mg"},{"bike_id":"c0156d5c-e369-4e87-b55f-43098af8fa12","system_id":"levelo_inurba_marseille","lat":43.29691,"lon":5.38823,"is_reserved":false,"is_disabled":false,"rental_uris":{"android":"levelo://app?vid=c0156d5c-e369-4e87-b55f-43098af8fa12","ios":"levelo://app?vid=c0156d5c-e369-4e87-b55f-43098af8fa12"},"vehicle_type_id":"4","last_reported":1773174121,"current_range_meters":8400,"station_id":"","pricing_plan_id":"cebpf4jnsgd1na2vs0mg"},{"bike_id":"b5d9d350-fef4-4aa5-a3ec-0bcf4fca99ef","system_id":"levelo_inurba_marseille","lat":43.24812,"lon":5.37464,"is_reserved":false,"is_disabled":false,"rental_uris":{"android":"levelo://app?vid=b5d9d350-fef4-4aa5-a3ec-0bcf4fca99ef","ios":"levelo://app?vid=b5d9d350-fef4-4aa5-a3ec-0bcf4fca99ef"},"vehicle_type_id":"4","last_reported":1773174121,"current_range_meters":16000,"station_id":"ce4bhgh2rcd13ifvqfb0","pricing_plan_id":"cebpf4jnsgd1na2vs0mg"},{"bike_id":"2436638b-fa42-4103-b807-af930e438fa3","system_id":"levelo_inurba_marseille","lat":43.24643,"lon":5.389,"is_reserved":false,"is_disabled":false,"rental_uris":{"android":"levelo://app?vid=2436638b-fa42-4103-b807-af930e438fa3","ios":"levelo://app?vid=2436638b-fa42-4103-b807-af930e438fa3"},"vehicle_type_id":"4","last_reported":1773174121,"current_range_meters":16800,"station_id":"ce4bhg12rcd13ifvqf60","pricing_plan_id":"cebpf4jnsgd1na2vs0mg"},{"bike_id":"2517752c-015d-4861-8ec6-0c42be062106","system_id":"levelo_inurba_marseille","lat":43.2794,"lon":5.41034,"is_reserved":false,"is_disabled":false,"rental_uris":{"android":"levelo://app?vid=2517752c-015d-4861-8ec6-0c42be062106","ios":"levelo://app?vid=2517752c-015d-4861-8ec6-0c42be062106"},"vehicle_type_id":"4","last_reported":1773174121,"current_range_meters":36400,"station_id":"ce4bhnp2rcd13ifvqh0g","pricing_plan_id":"cebpf4jnsgd1na2vs0mg"},{"bike_id":"d7e967dd-3d0e-468b-9aa6-ae763cc10bf8","system_id":"levelo_inurba_marseille","lat":43.29807,"lon":5.3808,"is_reserved":false,"is_disabled":false,"rental_uris":{"android":"levelo://app?vid=d7e967dd-3d0e-468b-9aa6-ae763cc10bf8","ios":"levelo://app?vid=d7e967dd-3d0e-468b-9aa6-ae763cc10bf8"},"vehicle_type_id":"4","last_reported":1773174121,"current_range_meters":36800,"station_id":"ce4bgip2rcd13ifvqbb0","pricing_plan_id":"cebpf4jnsgd1na2vs0mg"},{"bike_id":"00830d39-a0de-45b8-b9f1-d048e1ac5700","system_id":"levelo_inurba_marseille","lat":43.28407,"lon":5.35022,"is_reserved":false,"is_disabled":false,"rental_uris":{"android":"levelo://app?vid=00830d39-a0de-45b8-b9f1-d048e1ac5700","ios":"levelo://app?vid=00830d39-a0de-45b8-b9f1-d048e1ac5700"},"vehicle_type_id":"4","last_reported":1773174121,"current_range_meters":28800,"station_id":"ce4bhbh2rcd13ifvqepg","pricing_plan_id":"cebpf4jnsgd1na2vs0mg"},{"bike_id":"629a5b04-9225-42cf-b2f9-d31afe3f11aa","system_id":"levelo_inurba_marseille","lat":43.26543,"lon":5.37302,"is_reserved":false,"is_disabled":false,"rental_uris":{"android":"levelo://app?vid=629a5b04-9225-42cf-b2f9-d31afe3f11aa","ios":"levelo://app?vid=629a5b04-9225-42cf-b2f9-d31afe3f11aa"},"vehicle_type_id":"4","last_reported":1773174121,"current_range_meters":38000,"station_id":"ce4bhg12rcd13ifvqf70","pricing_plan_id":"cebpf4jnsgd1na2vs0mg"},{"bike_id":"d4e2833b-d854-419b-bf1d-f4634f66a2cc","system_id":"levelo_inurba_marseille","lat":43.298968,"lon":5.386645,"is_reserved":false,"is_disabled":false,"rental_uris":{"android":"levelo://app?vid=d4e2833b-d854-419b-bf1d-f4634f66a2cc","ios":"levelo://app?vid=d4e2833b-d854-419b-bf1d-f4634f66a2cc"},"vehicle_type_id":"4","last_reported":1773174121,"current_range_meters":32400,"station_id":"","pricing_plan_id":"cebpf4jnsgd1na2vs0mg"},{"bike_id":"c0f412de-40e6-4a94-a5dd-7c358ceb2433","system_id":"levelo_inurba_marseille","lat":43.23186,"lon":5.40004,"is_reserved":false,"is_disabled":false,"rental_uris":{"android":"levelo://app?vid=c0f412de-40e6-4a94-a5dd-7c358ceb2433","ios":"levelo://app?vid=c0f412de-40e6-4a94-a5dd-7c358ceb2433"},"vehicle_type_id":"4","last_reported":1773174121,"current_range_meters":39200,"station_id":"ce4bhn12rcd13ifvqgqg","pricing_plan_id":"cebpf4jnsgd1na2vs0mg"},{"bike_id":"3e52c83b-27e9-4e8b-a149-44039cc5a910","system_id":"levelo_inurba_marseille","lat":43.29561,"lon":5.3755,"is_reserved":false,"is_disabled":false,"rental_uris":{"android":"levelo://app?vid=3e52c83b-27e9-4e8b-a149-44039cc5a910","ios":"levelo://app?vid=3e52c83b-27e9-4e8b-a149-44039cc5a910"},"vehicle_type_id":"4","last_reported":1773174121,"current_range_meters":27600,"station_id":"ce4bgh92rcd13ifvqb50","pricing_plan_id":"cebpf4jnsgd1na2vs0mg"},{"bike_id":"59078b86-d101-4d08-9dab-b6f2a351f16a","system_id":"levelo_inurba_marseille","lat":43.27818,"lon":5.40682,"is_reserved":false,"is_disabled":false,"rental_uris":{"android":"levelo://app?vid=59078b86-d101-4d08-9dab-b6f2a351f16a","ios":"levelo://app?vid=59078b86-d101-4d08-9dab-b6f2a351f16a"},"vehicle_type_id":"4","last_reported":1773174121,"current_range_meters":16800,"station_id":"ce4bhnh2rcd13ifvqgtg","pricing_plan_id":"cebpf4jnsgd1na2vs0mg"},{"bike_id":"b794eabf-85f8-4e9c-b080-d478935fa77f","system_id":"levelo_inurba_marseille","lat":43.29017,"lon":5.3865,"is_reserved":false,"is_disabled":false,"rental_uris":{"android":"levelo://app?vid=b794eabf-85f8-4e9c-b080-d478935fa77f","ios":"levelo://app?vid=b794eabf-85f8-4e9c-b080-d478935fa77f"},"vehicle_type_id":"4","last_reported":1773174121,"current_range_meters":35600,"station_id":"ce4bh4p2rcd13ifvqe0g","pricing_plan_id":"cebpf4jnsgd1na2vs0mg"},{"bike_id":"231581b3-46e8-4052-85e7-dfb6a3c34fca","system_id":"levelo_inurba_marseille","lat":43.31911,"lon":5.40725,"is_reserved":false,"is_disabled":true,"rental_uris":{"android":"levelo://app?vid=231581b3-46e8-4052-85e7-dfb6a3c34fca","ios":"levelo://app?vid=231581b3-46e8-4052-85e7-dfb6a3c34fca"},"vehicle_type_id":"4","last_reported":1773174121,"current_range_meters":38000,"station_id":"ce4bhq12rcd13ifvqhig","pricing_plan_id":"cebpf4jnsgd1na2vs0mg"},{"bike_id":"b2789f77-ca7c-4be0-8e9e-4687d69a3f51","system_id":"levelo_inurba_marseille","lat":43.29713,"lon":5.37704,"is_reserved":false,"is_disabled":false,"rental_uris":{"android":"levelo://app?vid=b2789f77-ca7c-4be0-8e9e-4687d69a3f51","ios":"levelo://app?vid=b2789f77-ca7c-4be0-8e9e-4687d69a3f51"},"vehicle_type_id":"4","last_reported":1773174121,"current_range_meters":38800,"station_id":"ce4bgkh2rcd13ifvqbl0","pricing_plan_id":"cebpf4jnsgd1na2vs0mg"},{"bike_id":"cf50413e-d557-48f5-8d39-6a833f04326b","system_id":"levelo_inurba_marseille","lat":43.3032,"lon":5.40431,"is_reserved":false,"is_disabled":false,"rental_uris":{"android":"levelo://app?vid=cf50413e-d557-48f5-8d39-6a833f04326b","ios":"levelo://app?vid=cf50413e-d557-48f5-8d39-6a833f04326b"},"vehicle_type_id":"4","last_reported":1773174121,"current_range_meters":22400,"station_id":"ce4bh012rcd13ifvqd10","pricing_plan_id":"cebpf4jnsgd1na2vs0mg"},{"bike_id":"208e77d7-12ce-4d68-ad29-6d45eaf722f6","system_id":"levelo_inurba_marseille","lat":43.2852,"lon":5.48379,"is_reserved":false,"is_disabled":false,"rental_uris":{"android":"levelo://app?vid=208e77d7-12ce-4d68-ad29-6d45eaf722f6","ios":"levelo://app?vid=208e77d7-12ce-4d68-ad29-6d45eaf722f6"},"vehicle_type_id":"4","last_reported":1773174121,"current_range_meters":10000,"station_id":"st_d3svhcjqgbts73a3dn0g","pricing_plan_id":"cebpf4jnsgd1na2vs0mg"},{"bike_id":"a1b269cd-6814-4b75-adbd-82c649db5c6d","system_id":"levelo_inurba_marseille","lat":43.31181,"lon":5.3684,"is_reserved":false,"is_disabled":false,"rental_uris":{"android":"levelo://app?vid=a1b269cd-6814-4b75-adbd-82c649db5c6d","ios":"levelo://app?vid=a1b269cd-6814-4b75-adbd-82c649db5c6d"},