{"last_updated":1752992155,"ttl":60,"version":"2.2","data":{"bikes":[{"bike_id":"53b742a7-31ae-4272-9bba-7740339e2a2f","system_id":"levelo_inurba_marseille","lat":43.33747,"lon":5.37463,"is_reserved":false,"is_disabled":false,"rental_uris":{"android":"levelo://app?vid=53b742a7-31ae-4272-9bba-7740339e2a2f","ios":"levelo://app?vid=53b742a7-31ae-4272-9bba-7740339e2a2f"},"vehicle_type_id":"1","last_reported":1752992155,"current_range_meters":12000,"station_id":"","pricing_plan_id":"cebpf4jnsgd1na2vs0mg"},{"bike_id":"0a00f4f9-a211-44ad-966d-9585ce4c57e3","system_id":"levelo_inurba_marseille","lat":43.31714,"lon":5.43695,"is_reserved":false,"is_disabled":false,"rental_uris":{"android":"levelo://app?vid=0a00f4f9-a211-44ad-966d-9585ce4c57e3","ios":"levelo://app?vid=0a00f4f9-a211-44ad-966d-9585ce4c57e3"},"vehicle_type_id":"4","last_reported":1752992155,"current_range_meters":2800,"station_id":"ce4bhp92rcd13ifvqhcg","pricing_plan_id":"cebpf4jnsgd1na2vs0mg"},{"bike_id":"2d95b47d-d06f-40a4-bb6e-c13e954e3c8f","system_id":"levelo_inurba_marseille","lat":43.27753,"lon":5.41426,"is_reserved":false,"is_disabled":false,"rental_uris":{"android":"levelo://app?vid=2d95b47d-d06f-40a4-bb6e-c13e954e3c8f","ios":"levelo://app?vid=2d95b47d-d06f-40a4-bb6e-c13e954e3c8f"},"vehicle_type_id":"4","last_reported":1752992155,"current_range_meters":2800,"station_id":"","pricing_plan_id":"cebpf4jnsgd1na2vs0mg"},{"bike_id":"4108938b-6cb1-49cf-9b34-f5aba76f8c8e","system_id":"levelo_inurba_marseille","lat":43.258741,"lon":5.398954,"is_reserved":false,"is_disabled":true,"rental_uris":{"android":"levelo://app?vid=4108938b-6cb1-49cf-9b34-f5aba76f8c8e","ios":"levelo://app?vid=4108938b-6cb1-49cf-9b34-f5aba76f8c8e"},"vehicle_type_id":"4","last_reported":1752992155,"current_range_meters":2800,"station_id":"ce4bhl92rcd13ifvqghg","pricing_plan_id":"cebpf4jnsgd1na2vs0mg"},{"bike_id":"d8b42eed-215a-46f1-a073-c131522c2ffd","system_id":"levelo_inurba_marseille","lat":43.30808,"lon":5.38154,"is_reserved":false,"is_disabled":false,"rental_uris":{"android":"levelo://app?vid=d8b42eed-215a-46f1-a073-c131522c2ffd","ios":"levelo://app?vid=d8b42eed-215a-46f1-a073-c131522c2ffd"},"vehicle_type_id":"4","last_reported":1752992155,"current_range_meters":3200,"station_id":"ce4bgt12rcd13ifvqce0","pricing_plan_id":"cebpf4jnsgd1na2vs0mg"},{"bike_id":"fcd6e5ef-cd43-4b5e-9081-d442dcc72d92","system_id":"levelo_inurba_marseille","lat":43.30888,"lon":5.39593,"is_reserved":false,"is_disabled":false,"rental_uris":{"android":"levelo://app?vid=fcd6e5ef-cd43-4b5e-9081-d442dcc72d92","ios":"levelo://app?vid=fcd6e5ef-cd43-4b5e-9081-d442dcc72d92"},"vehicle_type_id":"4","last_reported":1752992155,"current_range_meters":3600,"station_id":"ce4bh012rcd13ifvqcv0","pricing_plan_id":"cebpf4jnsgd1na2vs0mg"},{"bike_id":"44b73254-6d5b-42ec-9e3a-52236fbf71fc","system_id":"levelo_inurba_marseille","lat":43.33362,"lon":5.39815,"is_reserved":false,"is_disabled":false,"rental_uris":{"android":"levelo://app?vid=44b73254-6d5b-42ec-9e3a-52236fbf71fc","ios":"levelo://app?vid=44b73254-6d5b-42ec-9e3a-52236fbf71fc"},"vehicle_type_id":"4","last_reported":1752992155,"current_range_meters":3600,"station_id":"","pricing_plan_id":"cebpf4jnsgd1na2vs0mg"},{"bike_id":"da891840-0cec-4ccc-961c-48903736c6fa","system_id":"levelo_inurba_marseille","lat":43.31139,"lon":5.37692,"is_reserved":false,"is_disabled":false,"rental_uris":{"android":"levelo://app?vid=da891840-0cec-4ccc-961c-48903736c6fa","ios":"levelo://app?vid=da891840-0cec-4ccc-961c-48903736c6fa"},"vehicle_type_id":"4","last_reported":1752992155,"current_range_meters":3600,"station_id":"","pricing_plan_id":"cebpf4jnsgd1na2vs0mg"},{"bike_id":"cfb17d82-eb22-4eea-a7ca-3aec60bfa030","system_id":"levelo_inurba_marseille","lat":43.31375,"lon":5.38487,"is_reserved":false,"is_disabled":false,"rental_uris":{"android":"levelo://app?vid=cfb17d82-eb22-4eea-a7ca-3aec60bfa030","ios":"levelo://app?vid=cfb17d82-eb22-4eea-a7ca-3aec60bfa030"},"vehicle_type_id":"4","last_reported":1752992155,"current_range_meters":3600,"station_id":"ce4bgt92rcd13ifvqcf0","pricing_plan_id":"cebpf4jnsgd1na2vs0mg"},{"bike_id":"c090550e-4570-46fa-a4db-ccf7e16ae90b","system_id":"levelo_inurba_marseille","lat":43.26558,"lon":5.37279,"is_reserved":false,"is_disabled":true,"rental_uris":{"android":"levelo://app?vid=c090550e-4570-46fa-a4db-ccf7e16ae90b","ios":"levelo://app?vid=c090550e-4570-46fa-a4db-ccf7e16ae90b"},"vehicle_type_id":"4","last_reported":1752992155,"current_range_meters":3600,"station_id":"ce4bhg12rcd13ifvqf70","pricing_plan_id":"cebpf4jnsgd1na2vs0mg"},{"bike_id":"12957499-c3c8-4e9e-9181-2a2087409d90","system_id":"levelo_inurba_marseille","lat":43.284856,"lon":5.384281,"is_reserved":false,"is_disabled":false,"rental_uris":{"android":"levelo://app?vid=12957499-c3c8-4e9e-9181-2a2087409d90","ios":"levelo://app?vid=12957499-c3c8-4e9e-9181-2a2087409d90"},"vehicle_type_id":"4","last_reported":1752992155,"current_range_meters":3600,"station_id":"","pricing_plan_id":"cebpf4jnsgd1na2vs0mg"},{"bike_id":"415ff839-3eb5-42b6-8141-99c745448c01","system_id":"levelo_inurba_marseille","lat":43.26586,"lon":5.38668,"is_reserved":false,"is_disabled":false,"rental_uris":{"android":"levelo://app?vid=415ff839-3eb5-42b6-8141-99c745448c01","ios":"levelo://app?vid=415ff839-3eb5-42b6-8141-99c745448c01"},"vehicle_type_id":"4","last_reported":1752992155,"current_range_meters":3600,"station_id":"","pricing_plan_id":"cebpf4jnsgd1na2vs0mg"},{"bike_id":"eb49a487-22e6-436d-8e19-4e4ec7c5b729","system_id":"levelo_inurba_marseille","lat":43.29546,"lon":5.42281,"is_reserved":false,"is_disabled":false,"rental_uris":{"android":"levelo://app?vid=eb49a487-22e6-436d-8e19-4e4ec7c5b729","ios":"levelo://app?vid=eb49a487-22e6-436d-8e19-4e4ec7c5b729"},"vehicle_type_id":"4","last_reported":1752992155,"current_range_meters":4400,"station_id":"ce4bhph2rcd13ifvqhdg","pricing_plan_id":"cebpf4jnsgd1na2vs0mg"},{"bike_id":"aee412bb-1410-4e5e-9ce7-7d4dc5894092","system_id":"levelo_inurba_marseille","lat":43.30595,"lon":5.37214,"is_reserved":false,"is_disabled":false,"rental_uris":{"android":"levelo://app?vid=aee412bb-1410-4e5e-9ce7-7d4dc5894092","ios":"levelo://app?vid=aee412bb-1410-4e5e-9ce7-7d4dc5894092"},"vehicle_type_id":"4","last_reported":1752992155,"current_range_meters":4400,"station_id":"ce4bgqh2rcd13ifvqc4g","pricing_plan_id":"cebpf4jnsgd1na2vs0mg"},{"bike_id":"bebe1450-b301-4f53-95e4-f8eb9f50ffdf","system_id":"levelo_inurba_marseille","lat":43.33593,"lon":5.40998,"is_reserved":false,"is_disabled":false,"rental_uris":{"android":"levelo://app?vid=bebe1450-b301-4f53-95e4-f8eb9f50ffdf","ios":"levelo://app?vid=bebe1450-b301-4f53-95e4-f8eb9f50ffdf"},"vehicle_type_id":"4","last_reported":1752992155,"current_range_meters":4400,"station_id":"ce4bhqh2rcd13ifvqhmg","pricing_plan_id":"cebpf4jnsgd1na2vs0mg"},{"bike_id":"6883df58-6737-4f53-a438-d17fca741ba6","system_id":"levelo_inurba_marseille","lat":43.330353,"lon":5.393756,"is_reserved":false,"is_disabled":false,"rental_uris":{"android":"levelo://app?vid=6883df58-6737-4f53-a438-d17fca741ba6","ios":"levelo://app?vid=6883df58-6737-4f53-a438-d17fca741ba6"},"vehicle_type_id":"4","last_reported":1752992155,"current_range_meters":4400,"station_id":"","pricing_plan_id":"cebpf4jnsgd1na2vs0mg"},{"bike_id":"07aeb5da-15b1-4b73-9d17-70e8acd75061","system_id":"levelo_inurba_marseille","lat":43.22504,"lon":5.3477,"is_reserved":false,"is_disabled":false,"rental_uris":{"android":"levelo://app?vid=07aeb5da-15b1-4b73-9d17-70e8acd75061","ios":"levelo://app?vid=07aeb5da-15b1-4b73-9d17-70e8acd75061"},"vehicle_type_id":"4","last_reported":1752992155,"current_range_meters":4800,"station_id":"st_cvj5dfep6f1abm77gieg","pricing_plan_id":"cebpf4jnsgd1na2vs0mg"},{"bike_id":"ce7bd25b-5213-4881-a28b-f582e6a1d712","system_id":"levelo_inurba_marseille","lat":43.31387,"lon":5.36699,"is_reserved":false,"is_disabled":true,"rental_uris":{"android":"levelo://app?vid=ce7bd25b-5213-4881-a28b-f582e6a1d712","ios":"levelo://app?vid=ce7bd25b-5213-4881-a28b-f582e6a1d712"},"vehicle_type_id":"4","last_reported":1752992155,"current_range_meters":4800,"station_id":"","pricing_plan_id":"cebpf4jnsgd1na2vs0mg"},{"bike_id":"8a8de0eb-d172-4378-9552-544c6cc04c48","system_id":"levelo_inurba_marseille","lat":43.24524,"lon":5.36925,"is_reserved":false,"is_disabled":false,"rental_uris":{"android":"levelo://app?vid=8a8de0eb-d172-4378-9552-544c6cc04c48","ios":"levelo://app?vid=8a8de0eb-d172-4378-9552-544c6cc04c48"},"vehicle_type_id":"4","last_reported":1752992155,"current_range_meters":4800,"station_id":"","pricing_plan_id":"cebpf4jnsgd1na2vs0mg"},{"bike_id":"72acce2b-2249-45a2-be91-c8268f8a11e8","system_id":"levelo_inurba_marseille","lat":43.225067,"lon":5.347838,"is_reserved":false,"is_disabled":false,"rental_uris":{"android":"levelo://app?vid=72acce2b-2249-45a2-be91-c8268f8a11e8","ios":"levelo://app?vid=72acce2b-2249-45a2-be91-c8268f8a11e8"},"vehicle_type_id":"4","last_reported":1752992155,"current_range_meters":5600,"station_id":"st_cvj5dfep6f1abm77gieg","pricing_plan_id":"cebpf4jnsgd1na2vs0mg"},{"bike_id":"7ba80774-b11e-4526-b36d-edd358abb392","system_id":"levelo_inurba_marseille","lat":43.22532,"lon":5.34769,"is_reserved":false,"is_disabled":false,"rental_uris":{"android":"levelo://app?vid=7ba80774-b11e-4526-b36d-edd358abb392","ios":"levelo://app?vid=7ba80774-b11e-4526-b36d-edd358abb392"},"vehicle_type_id":"4","last_reported":1752992155,"current_range_meters":5600,"station_id":"st_cvj5dfep6f1abm77gieg","pricing_plan_id":"cebpf4jnsgd1na2vs0mg"},{"bike_id":"80c0a52e-cc0f-402a-b6fb-fbcf98e37854","system_id":"levelo_inurba_marseille","lat":43.28556,"lon":5.39519,"is_reserved":false,"is_disabled":false,"rental_uris":{"android":"levelo://app?vid=80c0a52e-cc0f-402a-b6fb-fbcf98e37854","ios":"levelo://app?vid=80c0a52e-cc0f-402a-b6fb-fbcf98e37854"},"vehicle_type_id":"4","last_reported":1752992155,"current_range_meters":5600,"station_id":"ce4bh292rcd13ifvqdg0","pricing_plan_id":"cebpf4jnsgd1na2vs0mg"},{"bike_id":"7ffd9e26-ecd8-4e36-acc8-10a7267d2295","system_id":"levelo_inurba_marseille","lat":43.24386,"lon":5.37062,"is_reserved":false,"is_disabled":false,"rental_uris":{"android":"levelo://app?vid=7ffd9e26-ecd8-4e36-acc8-10a7267d2295","ios":"levelo://app?vid=7ffd9e26-ecd8-4e36-acc8-10a7267d2295"},"vehicle_type_id":"4","last_reported":1752992155,"current_range_meters":4800,"station_id":"ce4bhhh2rcd13ifvqfk0","pricing_plan_id":"cebpf4jnsgd1na2vs0mg"},{"bike_id":"eed2e13c-6519-4a15-931c-c57aa52fb312","system_id":"levelo_inurba_marseille","lat":43.31707,"lon":5.43704,"is_reserved":false,"is_disabled":false,"rental_uris":{"android":"levelo://app?vid=eed2e13c-6519-4a15-931c-c57aa52fb312","ios":"levelo://app?vid=eed2e13c-6519-4a15-931c-c57aa52fb312"},"vehicle_type_id":"4","last_reported":1752992155,"current_range_meters":6000,"station_id":"ce4bhp92rcd13ifvqhcg","pricing_plan_id":"cebpf4jnsgd1na2vs0mg"},{"bike_id":"c6db0f6a-96fe-4e1d-8ded-c2ef38c9bab4","system_id":"levelo_inurba_marseille","lat":43.305688,"lon":5.418387,"is_reserved":false,"is_disabled":true,"rental_uris":{"android":"levelo://app?vid=c6db0f6a-96fe-4e1d-8ded-c2ef38c9bab4","ios":"levelo://app?vid=c6db0f6a-96fe-4e1d-8ded-c2ef38c9bab4"},"vehicle_type_id":"4","last_reported":1752992155,"current_range_meters":6000,"station_id":"ce4bht12rcd13ifvqi60","pricing_plan_id":"cebpf4jnsgd1na2vs0mg"},{"bike_id":"53e58c75-2cdd-4335-ba51-6aa54bf7878e","system_id":"levelo_inurba_marseille","lat":43.308,"lon":5.38144,"is_reserved":false,"is_disabled":false,"rental_uris":{"android":"levelo://app?vid=53e58c75-2cdd-4335-ba51-6aa54bf7878e","ios":"levelo://app?vid=53e58c75-2cdd-4335-ba51-6aa54bf7878e"},"vehicle_type_id":"4","last_reported":1752992155,"current_range_meters":5600,"station_id":"ce4bgt12rcd13ifvqce0","pricing_plan_id":"cebpf4jnsgd1na2vs0mg"},{"bike_id":"2e532954-91d6-45d0-820d-bd93ef877e83","system_id":"levelo_inurba_marseille","lat":43.303243,"lon":5.394574,"is_reserved":false,"is_disabled":true,"rental_uris":{"android":"levelo://app?vid=2e532954-91d6-45d0-820d-bd93ef877e83","ios":"levelo://app?vid=2e532954-91d6-45d0-820d-bd93ef877e83"},"vehicle_type_id":"4","last_reported":1752992155,"current_range_meters":6000,"station_id":"","pricing_plan_id":"cebpf4jnsgd1na2vs0mg"},{"bike_id":"3c5b3813-8d32-45fe-a2e4-8ed50f680d4e","system_id":"levelo_inurba_marseille","lat":43.24164,"lon":5.3639,"is_reserved":false,"is_disabled":false,"rental_uris":{"android":"levelo://app?vid=3c5b3813-8d32-45fe-a2e4-8ed50f680d4e","ios":"levelo://app?vid=3c5b3813-8d32-45fe-a2e4-8ed50f680d4e"},"vehicle_type_id":"4","last_reported":1752992155,"current_range_meters":6400,"station_id":"cpo36qri1sfpv3e86is0","pricing_plan_id":"cebpf4jnsgd1na2vs0mg"},{"bike_id":"a7ff47d8-2c14-4742-b5b2-cdd020ebcb54","system_id":"levelo_inurba_marseille","lat":43.29912,"lon":5.38142,"is_reserved":false,"is_disabled":false,"rental_uris":{"android":"levelo://app?vid=a7ff47d8-2c14-4742-b5b2-cdd020ebcb54","ios":"levelo://app?vid=a7ff47d8-2c14-4742-b5b2-cdd020ebcb54"},"vehicle_type_id":"4","last_reported":1752992155,"current_range_meters":6400,"station_id":"ce4bgj12rcd13ifvqbc0","pricing_plan_id":"cebpf4jnsgd1na2vs0mg"},{"bike_id":"68de1490-3703-428a-87ac-e125e462fb93","system_id":"levelo_inurba_marseille","lat":43.29038,"lon":5.35906,"is_reserved":false,"is_disabled":false,"rental_uris":{"android":"levelo://app?vid=68de1490-3703-428a-87ac-e125e462fb93","ios":"levelo://app?vid=68de1490-3703-428a-87ac-e125e462fb93"},"vehicle_type_id":"4","last_reported":1752992155,"current_range_meters":6800,"station_id":"ce4bha92rcd13ifvqeg0","pricing_plan_id":"cebpf4jnsgd1na2vs0mg"},{"bike_id":"45cf9306-0d74-4de8-9bdc-f4117e43c06c","system_id":"levelo_inurba_marseille","lat":43.27998,"lon":5.41665,"is_reserved":false,"is_disabled":false,"rental_uris":{"android":"levelo://app?vid=45cf9306-0d74-4de8-9bdc-f4117e43c06c","ios":"levelo://app?vid=45cf9306-0d74-4de8-9bdc-f4117e43c06c"},"vehicle_type_id":"4","last_reported":1752992155,"current_range_meters":6400,"station_id":"ce4bho12rcd13ifvqh1g","pricing_plan_id":"cebpf4jnsgd1na2vs0mg"},{"bike_id":"043e137b-ff44-4cf1-95f5-28205300bd42","system_id":"levelo_inurba_marseille","lat":43.30461,"lon":5.37906,"is_reserved":false,"is_disabled":false,"rental_uris":{"android":"levelo://app?vid=043e137b-ff44-4cf1-95f5-28205300bd42","ios":"levelo://app?vid=043e137b-ff44-4cf1-95f5-28205300bd42"},"vehicle_type_id":"4","last_reported":1752992155,"current_range_meters":7200,"station_id":"ce4bgup2rcd13ifvqcn0","pricing_plan_id":"cebpf4jnsgd1na2vs0mg"},{"bike_id":"19c42209-a8b2-41c4-b3ff-b1f88a767776","system_id":"levelo_inurba_marseille","lat":43.304015,"lon":5.430102,"is_reserved":false,"is_disabled":false,"rental_uris":{"android":"levelo://app?vid=19c42209-a8b2-41c4-b3ff-b1f88a767776","ios":"levelo://app?vid=19c42209-a8b2-41c4-b3ff-b1f88a767776"},"vehicle_type_id":"4","last_reported":1752992155,"current_range_meters":8000,"station_id":"","pricing_plan_id":"cebpf4jnsgd1na2vs0mg"},{"bike_id":"fd4e9036-29a1-40b7-ab16-1ca097deb316","system_id":"levelo_inurba_marseille","lat":43.28575,"lon":5.39494,"is_reserved":false,"is_disabled":false,"rental_uris":{"android":"levelo://app?vid=fd4e9036-29a1-40b7-ab16-1ca097deb316","ios":"levelo://app?vid=fd4e9036-29a1-40b7-ab16-1ca097deb316"},"vehicle_type_id":"4","last_reported":1752992155,"current_range_meters":8000,"station_id":"ce4bh292rcd13ifvqdg0","pricing_plan_id":"cebpf4jnsgd1na2vs0mg"},{"bike_id":"4776a76a-6320-46cb-bc23-a728cd74972c","system_id":"levelo_inurba_marseille","lat":43.29971,"lon":5.37179,"is_reserved":false,"is_disabled":false,"rental_uris":{"android":"levelo://app?vid=4776a76a-6320-46cb-bc23-a728cd74972c","ios":"levelo://app?vid=4776a76a-6320-46cb-bc23-a728cd74972c"},"vehicle_type_id":"4","last_reported":1752992155,"current_range_meters":8000,"station_id":"ce4bgr92rcd13ifvqc7g","pricing_plan_id":"cebpf4jnsgd1na2vs0mg"},{"bike_id":"6919ffef-c495-4917-a554-896a3b3c492c","system_id":"levelo_inurba_marseille","lat":43.323634,"lon":5.367394,"is_reserved":false,"is_disabled":false,"rental_uris":{"android":"levelo://app?vid=6919ffef-c495-4917-a554-896a3b3c492c","ios":"levelo://app?vid=6919ffef-c495-4917-a554-896a3b3c492c"},"vehicle_type_id":"4","last_reported":1752992155,"current_range_meters":8000,"station_id":"ce4bhsh2rcd13ifvqi2g","pricing_plan_id":"cebpf4jnsgd1na2vs0mg"},{"bike_id":"aa4f0721-e11d-48ec-9083-b19212131222","system_id":"levelo_inurba_marseille","lat":43.30177,"lon":5.36631,"is_reserved":false,"is_disabled":false,"rental_uris":{"android":"levelo://app?vid=aa4f0721-e11d-48ec-9083-b19212131222","ios":"levelo://app?vid=aa4f0721-e11d-48ec-9083-b19212131222"},"vehicle_type_id":"4","last_reported":1752992155,"current_range_meters":8000,"station_id":"ce4bgrh2rcd13ifvqc8g","pricing_plan_id":"cebpf4jnsgd1na2vs0mg"},{"bike_id":"6f18ab1b-0c74-47b1-bed8-837677176207","system_id":"levelo_inurba_marseille","lat":43.32055,"lon":5.4095,"is_reserved":false,"is_disabled":false,"rental_uris":{"android":"levelo://app?vid=6f18ab1b-0c74-47b1-bed8-837677176207","ios":"levelo://app?vid=6f18ab1b-0c74-47b1-bed8-837677176207"},"vehicle_type_id":"4","last_reported":1752992155,"current_range_meters":8000,"station_id":"","pricing_plan_id":"cebpf4jnsgd1na2vs0mg"},{"bike_id":"73bb7299-7eec-459a-b845-da49d8821559","system_id":"levelo_inurba_marseille","lat":43.30655,"lon":5.40061,"is_reserved":false,"is_disabled":false,"rental_uris":{"android":"levelo://app?vid=73bb7299-7eec-459a-b845-da49d8821559","ios":"levelo://app?vid=73bb7299-7eec-459a-b845-da49d8821559"},"vehicle_type_id":"4","last_reported":1752992155,"current_range_meters":8400,"station_id":"ce4bh112rcd13ifvqda0","pricing_plan_id":"cebpf4jnsgd1na2vs0mg"},{"bike_id":"aee76189-ab2c-4cbb-a955-c4d9c0b5b8fb","system_id":"levelo_inurba_marseille","lat":43.327317,"lon":5.409213,"is_reserved":false,"is_disabled":false,"rental_uris":{"android":"levelo://app?vid=aee76189-ab2c-4cbb-a955-c4d9c0b5b8fb","ios":"levelo://app?vid=aee76189-ab2c-4cbb-a955-c4d9c0b5b8fb"},"vehicle_type_id":"4","last_reported":1752992155,"current_range_meters":8400,"station_id":"","pricing_plan_id":"cebpf4jnsgd1na2vs0mg"},{"bike_id":"2d5426b7-c5ef-4761-9a4a-28e19dac621a","system_id":"levelo_inurba_marseille","lat":43.30424,"lon":5.41274,"is_reserved":false,"is_disabled":true,"rental_uris":{"android":"levelo://app?vid=2d5426b7-c5ef-4761-9a4a-28e19dac621a","ios":"levelo://app?vid=2d5426b7-c5ef-4761-9a4a-28e19dac621a"},"vehicle_type_id":"4","last_reported":1752992155,"current_range_meters":8400,"station_id":"ce4bhop2rcd13ifvqh8g","pricing_plan_id":"cebpf4jnsgd1na2vs0mg"},{"bike_id":"29247416-5f9e-4613-b01a-c9f676d33b82","system_id":"levelo_inurba_marseille","lat":43.2848,"lon":5.38572,"is_reserved":false,"is_disabled":false,"rental_uris":{"android":"levelo://app?vid=29247416-5f9e-4613-b01a-c9f676d33b82","ios":"levelo://app?vid=29247416-5f9e-4613-b01a-c9f676d33b82"},"vehicle_type_id":"4","last_reported":1752992155,"current_range_meters":8400,"station_id":"ce4bh8p2rcd13ifvqeb0","pricing_plan_id":"cebpf4jnsgd1na2vs0mg"},{"bike_id":"6675b6e8-16ff-4caf-a778-c87c4e30e856","system_id":"levelo_inurba_marseille","lat":43.30106,"lon":5.39883,"is_reserved":false,"is_disabled":false,"rental_uris":{"android":"levelo://app?vid=6675b6e8-16ff-4caf-a778-c87c4e30e856","ios":"levelo://app?vid=6675b6e8-16ff-4caf-a778-c87c4e30e856"},"vehicle_type_id":"4","last_reported":1752992155,"current_range_meters":8400,"station_id":"ce4bh0h2rcd13ifvqd40","pricing_plan_id":"cebpf4jnsgd1na2vs0mg"},{"bike_id":"ec32d022-e872-49b5-bd4f-54d6f32b82ae","system_id":"levelo_inurba_marseille","lat":43.311174,"lon":5.377747,"is_reserved":false,"is_disabled":false,"rental_uris":{"android":"levelo://app?vid=ec32d022-e872-49b5-bd4f-54d6f32b82ae","ios":"levelo://app?vid=ec32d022-e872-49b5-bd4f-54d6f32b82ae"},"vehicle_type_id":"4","last_reported":1752992155,"current_range_meters":8400,"station_id":"","pricing_plan_id":"cebpf4jnsgd1na2vs0mg"},{"bike_id":"6acf6616-5bc2-413d-b8a9-de0cef45b2d4","system_id":"levelo_inurba_marseille","lat":43.24844,"lon":5.37481,"is_reserved":false,"is_disabled":true,"rental_uris":{"android":"levelo://app?vid=6acf6616-5bc2-413d-b8a9-de0cef45b2d4","ios":"levelo://app?vid=6acf6616-5bc2-413d-b8a9-de0cef45b2d4"},"vehicle_type_id":"4","last_reported":1752992155,"current_range_meters":8400,"station_id":"ce4bhgh2rcd13ifvqfb0","pricing_plan_id":"cebpf4jnsgd1na2vs0mg"},{"bike_id":"8d590dba-9871-4ea4-bf5c-7a0545a88075","system_id":"levelo_inurba_marseille","lat":43.25934,"lon":5.40888,"is_reserved":false,"is_disabled":false,"rental_uris":{"android":"levelo://app?vid=8d590dba-9871-4ea4-bf5c-7a0545a88075","ios":"levelo://app?vid=8d590dba-9871-4ea4-bf5c-7a0545a88075"},"vehicle_type_id":"4","last_reported":1752992155,"current_range_meters":8800,"station_id":"ce4bhm92rcd13ifvqglg","pricing_plan_id":"cebpf4jnsgd1na2vs0mg"},{"bike_id":"169248a3-cde9-4071-9264-00cf9e30c46e","system_id":"levelo_inurba_marseille","lat":43.32925,"lon":5.37973,"is_reserved":false,"is_disabled":false,"rental_uris":{"android":"levelo://app?vid=169248a3-cde9-4071-9264-00cf9e30c46e","ios":"levelo://app?vid=169248a3-cde9-4071-9264-00cf9e30c46e"},"vehicle_type_id":"4","last_reported":1752992155,"current_range_meters":8800,"station_id":"","pricing_plan_id":"cebpf4jnsgd1na2vs0mg"},{"bike_id":"bb0a3f3f-d2ef-48d0-918a-e8c09e22fadb","system_id":"levelo_inurba_marseille","lat":43.24059,"lon":5.37753,"is_reserved":false,"is_disabled":false,"rental_uris":{"android":"levelo://app?vid=bb0a3f3f-d2ef-48d0-918a-e8c09e22fadb","ios":"levelo://app?vid=bb0a3f3f-d2ef-48d0-918a-e8c09e22fadb"},"vehicle_type_id":"4","last_reported":1752992155,"current_range_meters":8800,"station_id":"ce4bhnp2rcd13ifvqgvg","pricing_plan_id":"cebpf4jnsgd1na2vs0mg"},{"bike_id":"4b0ce299-727c-48ce-b95a-b67cdf638733","system_id":"levelo_inurba_marseille","lat":43.2248,"lon":5.34806,"is_reserved":false,"is_disabled":false,"rental_uris":{"android":"levelo://app?vid=4b0ce299-727c-48ce-b95a-b67cdf638733","ios":"levelo://app?vid=4b0ce299-727c-48ce-b95a-b67cdf638733"},"vehicle_type_id":"4","last_reported":1752992155,"current_range_meters":9200,"station_id":"st_cvj5dfep6f1abm77gieg","pricing_plan_id":"cebpf4jnsgd1na2vs0mg"},{"bike_id":"475b9799-8c28-49d7-a2bd-b989a871d401","system_id":"levelo_inurba_marseille","lat":43.240742,"lon":5.377536,"is_reserved":false,"is_disabled":true,"rental_uris":{"android":"levelo://app?vid=475b9799-8c28-49d7-a2bd-b989a871d401","ios":"levelo://app?vid=475b9799-8c28-49d7-a2bd-b989a871d401"},"vehicle_type_id":"4","last_reported":1752992155,"current_range_meters":9200,"station_id":"ce4bhnp2rcd13ifvqgvg","pricing_plan_id":"cebpf4jnsgd1na2vs0mg"},{"bike_id":"9bcc75c8-ba52-4ca3-89cc-71e6c24420e4","system_id":"levelo_inurba_marseille","lat":43.3213,"lon":5.36753,"is_reserved":false,"is_disabled":false,"rental_uris":{"android":"levelo://app?vid=9bcc75c8-ba52-4ca3-89cc-71e6c24420e4","ios":"levelo://app?vid=9bcc75c8-ba52-4ca3-89cc-71e6c24420e4"},"vehicle_type_id":"4","last_reported":1752992155,"current_range_meters":9200,"station_id":"ce4bhrh2rcd13ifvqhug","pricing_plan_id":"cebpf4jnsgd1na2vs0mg"},{"bike_id":"13158acd-6b2c-4b1d-ba27-59ad10b9c96d","system_id":"levelo_inurba_marseille","lat":43.288516,"lon":5.358534,"is_reserved":false,"is_disabled":false,"rental_uris":{"android":"levelo://app?vid=13158acd-6b2c-4b1d-ba27-59ad10b9c96d","ios":"levelo://app?vid=13158acd-6b2c-4b1d-ba27-59ad10b9c96d"},"vehicle_type_id":"4","last_reported":1752992155,"current_range_meters":9200,"station_id":"ce4bhb12rcd13ifvqem0","pricing_plan_id":"cebpf4jnsgd1na2vs0mg"},{"bike_id":"21d64047-729c-4bda-a9e1-48c680fa91bf","system_id":"levelo_inurba_marseille","lat":43.306494,"lon":5.400882,"is_reserved":false,"is_disabled":false,"rental_uris":{"android":"levelo://app?vid=21d64047-729c-4bda-a9e1-48c680fa91bf","ios":"levelo://app?vid=21d64047-729c-4bda-a9e1-48c680fa91bf"},"vehicle_type_id":"4","last_reported":1752992155,"current_range_meters":9200,"station_id":"ce4bh112rcd13ifvqda0","pricing_plan_id":"cebpf4jnsgd1na2vs0mg"},{"bike_id":"bb5fbe16-dabe-4ab0-a585-5067c1687587","system_id":"levelo_inurba_marseille","lat":43.31715,"lon":5.40472,"is_reserved":false,"is_disabled":false,"rental_uris":{"android":"levelo://app?vid=bb5fbe16-dabe-4ab0-a585-5067c1687587","ios":"levelo://app?vid=bb5fbe16-dabe-4ab0-a585-5067c1687587"},"vehicle_type_id":"4","last_reported":1752992155,"current_range_meters":9200,"station_id":"ce4bh012rcd13ifvqd00","pricing_plan_id":"cebpf4jnsgd1na2vs0mg"},{"bike_id":"d7149a46-fb39-4935-aa6a-50600ec45c29","system_id":"levelo_inurba_marseille","lat":43.21745,"lon":5.346,"is_reserved":false,"is_disabled":true,"rental_uris":{"android":"levelo://app?vid=d7149a46-fb39-4935-aa6a-50600ec45c29","ios":"levelo://app?vid=d7149a46-fb39-4935-aa6a-50600ec45c29"},"vehicle_type_id":"4","last_reported":1752992155,"current_range_meters":9600,"station_id":"st_cvj6r9ubvosntc0bgbag","pricing_plan_id":"cebpf4jnsgd1na2vs0mg"},{"bike_id":"98dffb83-3442-4354-acac-cfad41b661bd","system_id":"levelo_inurba_marseille","lat":43.3169,"lon":5.43647,"is_reserved":false,"is_disabled":false,"rental_uris":{"android":"levelo://app?vid=98dffb83-3442-4354-acac-cfad41b661bd","ios":"levelo://app?vid=98dffb83-3442-4354-acac-cfad41b661bd"},"vehicle_type_id":"4","last_reported":1752992155,"current_range_meters":10000,"station_id":"","pricing_plan_id":"cebpf4jnsgd1na2vs0mg"},{"bike_id":"b87c62a1-548b-4547-98b7-de4c8a18fa53","system_id":"levelo_inurba_marseille","lat":43.28412,"lon":5.37528,"is_reserved":false,"is_disabled":false,"rental_uris":{"android":"levelo://app?vid=b87c62a1-548b-4547-98b7-de4c8a18fa53","ios":"levelo://app?vid=b87c62a1-548b-4547-98b7-de4c8a18fa53"},"vehicle_type_id":"4","last_reported":1752992155,"current_range_meters":10000,"station_id":"ce4bh412rcd13ifvqds0","pricing_plan_id":"cebpf4jnsgd1na2vs0mg"},{"bike_id":"aa8a56ac-048f-4507-9f36-bc424cc1653a","system_id":"levelo_inurba_marseille","lat":43.31535,"lon":5.38638,"is_reserved":false,"is_disabled":false,"rental_uris":{"android":"levelo://app?vid=aa8a56ac-048f-4507-9f36-bc424cc1653a","ios":"levelo://app?vid=aa8a56ac-048f-4507-9f36-bc424cc1653a"},"vehicle_type_id":"4","last_reported":1752992155,"current_range_meters":10000,"station_id":"","pricing_plan_id":"cebpf4jnsgd1na2vs0mg"},{"bike_id":"d1e9c72e-7489-4052-b944-813b64bc55b4","system_id":"levelo_inurba_marseille","lat":43.31608,"lon":5.38934,"is_reserved":false,"is_disabled":false,"rental_uris":{"android":"levelo://app?vid=d1e9c72e-7489-4052-b944-813b64bc55b4","ios":"levelo://app?vid=d1e9c72e-7489-4052-b944-813b64bc55b4"},"vehicle_type_id":"4","last_reported":1752992155,"current_range_meters":10000,"station_id":"","pricing_plan_id":"cebpf4jnsgd1na2vs0mg"},{"bike_id":"6d8fc4b5-e278-4fa2-a3b5-d12b0228cfd4","system_id":"levelo_inurba_marseille","lat":43.30891,"lon":5.37195,"is_reserved":false,"is_disabled":false,"rental_uris":{"android":"levelo://app?vid=6d8fc4b5-e278-4fa2-a3b5-d12b0228cfd4","ios":"levelo://app?vid=6d8fc4b5-e278-4fa2-a3b5-d12b0228cfd4"},"vehicle_type_id":"4","last_reported":1752992155,"current_range_meters":10000,"station_id":"ce4bguh2rcd13ifvqckg","pricing_plan_id":"cebpf4jnsgd1na2vs0mg"},{"bike_id":"94c07cb2-0943-4d24-99f2-97bdab47aa3f","system_id":"levelo_inurba_marseille","lat":43.337444,"lon":5.374475,"is_reserved":false,"is_disabled":false,"rental_uris":{"android":"levelo://app?vid=94c07cb2-0943-4d24-99f2-97bdab47aa3f","ios":"levelo://app?vid=94c07cb2-0943-4d24-99f2-97bdab47aa3f"},"vehicle_type_id":"4","last_reported":1752992155,"current_range_meters":10000,"station_id":"","pricing_plan_id":"cebpf4jnsgd1na2vs0mg"},{"bike_id":"cd128983-a454-4c13-94ae-fcd144bb2a06","system_id":"levelo_inurba_marseille","lat":43.32348,"lon":5.36708,"is_reserved":false,"is_disabled":false,"rental_uris":{"android":"levelo://app?vid=cd128983-a454-4c13-94ae-fcd144bb2a06","ios":"levelo://app?vid=cd128983-a454-4c13-94ae-fcd144bb2a06"},"vehicle_type_id":"4","last_reported":1752992155,"current_range_meters":10800,"station_id":"ce4bhsh2rcd13ifvqi2g","pricing_plan_id":"cebpf4jnsgd1na2vs0mg"},{"bike_id":"8dfcb722-ab6c-4880-803a-abe06bb28356","system_id":"levelo_inurba_marseille","lat":43.302604,"lon":5.400505,"is_reserved":false,"is_disabled":false,"rental_uris":{"android":"levelo://app?vid=8dfcb722-ab6c-4880-803a-abe06bb28356","ios":"levelo://app?vid=8dfcb722-ab6c-4880-803a-abe06bb28356"},"vehicle_type_id":"4","last_reported":1752992155,"current_range_meters":10800,"station_id":"ce4bgvh2rcd13ifvqcs0","pricing_plan_id":"cebpf4jnsgd1na2vs0mg"},{"bike_id":"9f96b854-e027-4c40-b573-f426a572ccbf","system_id":"levelo_inurba_marseille","lat":43.329988,"lon":5.398115,"is_reserved":false,"is_disabled":false,"rental_uris":{"android":"levelo://app?vid=9f96b854-e027-4c40-b573-f426a572ccbf","ios":"levelo://app?vid=9f96b854-e027-4c40-b573-f426a572ccbf"},"vehicle_type_id":"4","last_reported":1752992155,"current_range_meters":10800,"station_id":"","pricing_plan_id":"cebpf4jnsgd1na2vs0mg"},{"bike_id":"b9fced18-9d1a-4197-85f4-d3fcdf201017","system_id":"levelo_inurba_marseille","lat":43.29868,"lon":5.39734,"is_reserved":false,"is_disabled":false,"rental_uris":{"android":"levelo://app?vid=b9fced18-9d1a-4197-85f4-d3fcdf201017","ios":"levelo://app?vid=b9fced18-9d1a-4197-85f4-d3fcdf201017"},"vehicle_type_id":"4","last_reported":1752992155,"current_range_meters":10800,"station_id":"","pricing_plan_id":"cebpf4jnsgd1na2vs0mg"},{"bike_id":"dbe3f53f-5cf1-428e-b135-1e976ecdd9e1","system_id":"levelo_inurba_marseille","lat":43.229295,"lon":5.353761,"is_reserved":false,"is_disabled":false,"rental_uris":{"android":"levelo://app?vid=dbe3f53f-5cf1-428e-b135-1e976ecdd9e1","ios":"levelo://app?vid=dbe3f53f-5cf1-428e-b135-1e976ecdd9e1"},"vehicle_type_id":"4","last_reported":1752992155,"current_range_meters":10800,"station_id":"","pricing_plan_id":"cebpf4jnsgd1na2vs0mg"},{"bike_id":"7aa7d212-bfaa-41e7-a0f3-41240270c15f","system_id":"levelo_inurba_marseille","lat":43.29566,"lon":5.42281,"is_reserved":false,"is_disabled":false,"rental_uris":{"android":"levelo://app?vid=7aa7d212-bfaa-41e7-a0f3-41240270c15f","ios":"levelo://app?vid=7aa7d212-bfaa-41e7-a0f3-41240270c15f"},"vehicle_type_id":"4","last_reported":1752992155,"current_range_meters":11200,"station_id":"ce4bhph2rcd13ifvqhdg","pricing_plan_id":"cebpf4jnsgd1na2vs0mg"},{"bike_id":"0fd02cf6-67fb-4589-807f-241dd50b7e1a","system_id":"levelo_inurba_marseille","lat":43.299026,"lon":5.436622,"is_reserved":false,"is_disabled":true,"rental_uris":{"android":"levelo://app?vid=0fd02cf6-67fb-4589-807f-241dd50b7e1a","ios":"levelo://app?vid=0fd02cf6-67fb-4589-807f-241dd50b7e1a"},"vehicle_type_id":"4","last_reported":1752992155,"current_range_meters":11200,"station_id":"ce4bhpp2rcd13ifvqhfg","pricing_plan_id":"cebpf4jnsgd1na2vs0mg"},{"bike_id":"4f2b6192-210f-4283-b30b-e3c56cdf020f","system_id":"levelo_inurba_marseille","lat":43.31069,"lon":5.38363,"is_reserved":false,"is_disabled":false,"rental_uris":{"android":"levelo://app?vid=4f2b6192-210f-4283-b30b-e3c56cdf020f","ios":"levelo://app?vid=4f2b6192-210f-4283-b30b-e3c56cdf020f"},"vehicle_type_id":"4","last_reported":1752992155,"current_range_meters":11200,"station_id":"ce4bgv92rcd13ifvqcr0","pricing_plan_id":"cebpf4jnsgd1na2vs0mg"},{"bike_id":"646bd144-4ffa-49b8-a08d-6b47ca08200f","system_id":"levelo_inurba_marseille","lat":43.254963,"lon":5.376529,"is_reserved":false,"is_disabled":true,"rental_uris":{"android":"levelo://app?vid=646bd144-4ffa-49b8-a08d-6b47ca08200f","ios":"levelo://app?vid=646bd144-4ffa-49b8-a08d-6b47ca08200f"},"vehicle_type_id":"4","last_reported":1752992155,"current_range_meters":11200,"station_id":"ce4bhh12rcd13ifvqff0","pricing_plan_id":"cebpf4jnsgd1na2vs0mg"},{"bike_id":"9d53c91c-536a-4f94-a849-843cab85794b","system_id":"levelo_inurba_marseille","lat":43.287174,"lon":5.360854,"is_reserved":false,"is_disabled":false,"rental_uris":{"android":"levelo://app?vid=9d53c91c-536a-4f94-a849-843cab85794b","ios":"levelo://app?vid=9d53c91c-536a-4f94-a849-843cab85794b"},"vehicle_type_id":"4","last_reported":1752992155,"current_range_meters":11200,"station_id":"cki0cbj6b192h4jlfktg","pricing_plan_id":"cebpf4jnsgd1na2vs0mg"},{"bike_id":"aff5b30e-99dc-4ae1-bd58-54a311d8a1f5","system_id":"levelo_inurba_marseille","lat":43.29987,"lon":5.37188,"is_reserved":false,"is_disabled":true,"rental_uris":{"android":"levelo://app?vid=aff5b30e-99dc-4ae1-bd58-54a311d8a1f5","ios":"levelo://app?vid=aff5b30e-99dc-4ae1-bd58-54a311d8a1f5"},"vehicle_type_id":"4","last_reported":1752992155,"current_range_meters":11600,"station_id":"ce4bgr92rcd13ifvqc7g","pricing_plan_id":"cebpf4jnsgd1na2vs0mg"},{"bike_id":"e1a27484-d933-49a5-adb5-ce1233dc02e0","system_id":"levelo_inurba_marseille","lat":43.24184,"lon":5.39719,"is_reserved":false,"is_disabled":false,"rental_uris":{"android":"levelo://app?vid=e1a27484-d933-49a5-adb5-ce1233dc02e0","ios":"levelo://app?vid=e1a27484-d933-49a5-adb5-ce1233dc02e0"},"vehicle_type_id":"4","last_reported":1752992155,"current_range_meters":11600,"station_id":"ce4bhn12rcd13ifvqgpg","pricing_plan_id":"cebpf4jnsgd1na2vs0mg"},{"bike_id":"9ca3e00b-43dc-46fd-9037-6c83260b90ba","system_id":"levelo_inurba_marseille","lat":43.31138,"lon":5.3773,"is_reserved":false,"is_disabled":false,"rental_uris":{"android":"levelo://app?vid=9ca3e00b-43dc-46fd-9037-6c83260b90ba","ios":"levelo://app?vid=9ca3e00b-43dc-46fd-9037-6c83260b90ba"},"vehicle_type_id":"4","last_reported":1752992155,"current_range_meters":11600,"station_id":"ce4bgt92rcd13ifvqcg0","pricing_plan_id":"cebpf4jnsgd1na2vs0mg"},{"bike_id":"48a3aabe-42c8-4428-a5da-c66709a678c0","system_id":"levelo_inurba_marseille","lat":43.251233,"lon":5.403188,"is_reserved":false,"is_disabled":false,"rental_uris":{"android":"levelo://app?vid=48a3aabe-42c8-4428-a5da-c66709a678c0","ios":"levelo://app?vid=48a3aabe-42c8-4428-a5da-c66709a678c0"},"vehicle_type_id":"4","last_reported":1752992155,"current_range_meters":11600,"station_id":"ce4bhlh2rcd13ifvqgig","pricing_plan_id":"cebpf4jnsgd1na2vs0mg"},{"bike_id":"ac141403-2eff-454e-8bd1-3d400d40ed2b","system_id":"levelo_inurba_marseille","lat":43.33134,"lon":5.4003,"is_reserved":false,"is_disabled":false,"rental_uris":{"android":"levelo://app?vid=ac141403-2eff-454e-8bd1-3d400d40ed2b","ios":"levelo://app?vid=ac141403-2eff-454e-8bd1-3d400d40ed2b"},"vehicle_type_id":"4","last_reported":1752992155,"current_range_meters":11600,"station_id":"","pricing_plan_id":"cebpf4jnsgd1na2vs0mg"},{"bike_id":"64f40d21-11c6-4844-b393-aa62bbdc4667","system_id":"levelo_inurba_marseille","lat":43.28346,"lon":5.38101,"is_reserved":false,"is_disabled":false,"rental_uris":{"android":"levelo://app?vid=64f40d21-11c6-4844-b393-aa62bbdc4667","ios":"levelo://app?vid=64f40d21-11c6-4844-b393-aa62bbdc4667"},"vehicle_type_id":"4","last_reported":1752992155,"current_range_meters":11600,"station_id":"ce4bh412rcd13ifvqdr0","pricing_plan_id":"cebpf4jnsgd1na2vs0mg"},{"bike_id":"df505bec-05da-4366-bd92-8ada640ac6cf","system_id":"levelo_inurba_marseille","lat":43.27946,"lon":5.41035,"is_reserved":false,"is_disabled":false,"rental_uris":{"android":"levelo://app?vid=df505bec-05da-4366-bd92-8ada640ac6cf","ios":"levelo://app?vid=df505bec-05da-4366-bd92-8ada640ac6cf"},"vehicle_type_id":"4","last_reported":1752992155,"current_range_meters":11600,"station_id":"ce4bhnp2rcd13ifvqh0g","pricing_plan_id":"cebpf4jnsgd1na2vs0mg"},{"bike_id":"7709863d-0898-4ef3-b0e6-7f6907c5b470","system_id":"levelo_inurba_marseille","lat":43.2174,"lon":5.34605,"is_reserved":false,"is_disabled":false,"rental_uris":{"android":"levelo://app?vid=7709863d-0898-4ef3-b0e6-7f6907c5b470","ios":"levelo://app?vid=7709863d-0898-4ef3-b0e6-7f6907c5b470"},"vehicle_type_id":"4","last_reported":1752992155,"current_range_meters":11600,"station_id":"st_cvj6r9ubvosntc0bgbag","pricing_plan_id":"cebpf4jnsgd1na2vs0mg"},{"bike_id":"0f0220a6-e7a6-42bd-9130-aa4708a93223","system_id":"levelo_inurba_marseille","lat":43.2998,"lon":5.37175,"is_reserved":false,"is_disabled":false,"rental_uris":{"android":"levelo://app?vid=0f0220a6-e7a6-42bd-9130-aa4708a93223","ios":"levelo://app?vid=0f0220a6-e7a6-42bd-9130-aa4708a93223"},"vehicle_type_id":"4","last_reported":1752992155,"current_range_meters":12000,"station_id":"ce4bgr92rcd13ifvqc7g","pricing_plan_id":"cebpf4jnsgd1na2vs0mg"},{"bike_id":"c9319e1c-ae3c-4acb-b55c-246e4908743c","system_id":"levelo_inurba_marseille","lat":43.29902,"lon":5.43667,"is_reserved":false,"is_disabled":false,"rental_uris":{"android":"levelo://app?vid=c9319e1c-ae3c-4acb-b55c-246e4908743c","ios":"levelo://app?vid=c9319e1c-ae3c-4acb-b55c-246e4908743c"},"vehicle_type_id":"4","last_reported":1752992155,"current_range_meters":11600,"station_id":"ce4bhpp2rcd13ifvqhfg","pricing_plan_id":"cebpf4jnsgd1na2vs0mg"},{"bike_id":"1a76fd71-d593-43f8-b80f-f67738112130","system_id":"levelo_inurba_marseille","lat":43.29612,"lon":5.37732,"is_reserved":false,"is_disabled":false,"rental_uris":{"android":"levelo://app?vid=1a76fd71-d593-43f8-b80f-f67738112130","ios":"levelo://app?vid=1a76fd71-d593-43f8-b80f-f67738112130"},"vehicle_type_id":"4","last_reported":1752992155,"current_range_meters":11600,"station_id":"ce4bgi92rcd13ifvqb90","pricing_plan_id":"cebpf4jnsgd1na2vs0mg"},{"bike_id":"31244b47-c9c9-4bbc-9c1a-8583865c17ad","system_id":"levelo_inurba_marseille","lat":43.28739,"lon":5.36066,"is_reserved":false,"is_disabled":false,"rental_uris":{"android":"levelo://app?vid=31244b47-c9c9-4bbc-9c1a-8583865c17ad","ios":"levelo://app?vid=31244b47-c9c9-4bbc-9c1a-8583865c17ad"},"vehicle_type_id":"4","last_reported":1752992155,"current_range_meters":11600,"station_id":"cki0cbj6b192h4jlfktg","pricing_plan_id":"cebpf4jnsgd1na2vs0mg"},{"bike_id":"79f9c85e-941f-48a2-86a9-be04690aac8d","system_id":"levelo_inurba_marseille","lat":43.30651,"lon":5.40084,"is_reserved":false,"is_disabled":false,"rental_uris":{"android":"levelo://app?vid=79f9c85e-941f-48a2-86a9-be04690aac8d","ios":"levelo://app?vid=79f9c85e-941f-48a2-86a9-be04690aac8d"},"vehicle_type_id":"4","last_reported":1752992155,"current_range_meters":12000,"station_id":"ce4bh112rcd13ifvqda0","pricing_plan_id":"cebpf4jnsgd1na2vs0mg"},{"bike_id":"d421927e-7ddd-40a0-904f-5b4ff0266a72","system_id":"levelo_inurba_marseille","lat":43.319184,"lon":5.401517,"is_reserved":false,"is_disabled":false,"rental_uris":{"android":"levelo://app?vid=d421927e-7ddd-40a0-904f-5b4ff0266a72","ios":"levelo://app?vid=d421927e-7ddd-40a0-904f-5b4ff0266a72"},"vehicle_type_id":"4","last_reported":1752992155,"current_range_meters":12000,"station_id":"","pricing_plan_id":"cebpf4jnsgd1na2vs0mg"},{"bike_id":"cf9f7b6f-b252-45aa-bd41-e7b8a5947e88","system_id":"levelo_inurba_marseille","lat":43.26951,"lon":5.40265,"is_reserved":false,"is_disabled":true,"rental_uris":{"android":"levelo://app?vid=cf9f7b6f-b252-45aa-bd41-e7b8a5947e88","ios":"levelo://app?vid=cf9f7b6f-b252-45aa-bd41-e7b8a5947e88"},"vehicle_type_id":"4","last_reported":1752992155,"current_range_meters":12000,"station_id":"cjm6bp8fraef2m0cb0m0","pricing_plan_id":"cebpf4jnsgd1na2vs0mg"},{"bike_id":"0ff9b298-32e2-4a22-a8be-d7f20e53bc11","system_id":"levelo_inurba_marseille","lat":43.23181,"lon":5.39986,"is_reserved":false,"is_disabled":false,"rental_uris":{"android":"levelo://app?vid=0ff9b298-32e2-4a22-a8be-d7f20e53bc11","ios":"levelo://app?vid=0ff9b298-32e2-4a22-a8be-d7f20e53bc11"},"vehicle_type_id":"4","last_reported":1752992155,"current_range_meters":12000,"station_id":"ce4bhn12rcd13ifvqgqg","pricing_plan_id":"cebpf4jnsgd1na2vs0mg"},{"bike_id":"5acd3033-34f3-42b1-9b90-0c5a37384f1c","system_id":"levelo_inurba_marseille","lat":43.29978,"lon":5.37192,"is_reserved":false,"is_disabled":false,"rental_uris":{"android":"levelo://app?vid=5acd3033-34f3-42b1-9b90-0c5a37384f1c","ios":"levelo://app?vid=5acd3033-34f3-42b1-9b90-0c5a37384f1c"},"vehicle_type_id":"4","last_reported":1752992155,"current_range_meters":12000,"station_id":"ce4bgr92rcd13ifvqc7g","pricing_plan_id":"cebpf4jnsgd1na2vs0mg"},{"bike_id":"93301aca-c2c0-493e-a567-7195bb3fc61b","system_id":"levelo_inurba_marseille","lat":43.2829,"lon":5.35058,"is_reserved":false,"is_disabled":true,"rental_uris":{"android":"levelo://app?vid=93301aca-c2c0-493e-a567-7195bb3fc61b","ios":"levelo://app?vid=93301aca-c2c0-493e-a567-7195bb3fc61b"},"vehicle_type_id":"4","last_reported":1752992155,"current_range_meters":12000,"station_id":"ce4bhbp2rcd13ifvqerg","pricing_plan_id":"cebpf4jnsgd1na2vs0mg"},{"bike_id":"6a193f41-f336-48d3-a5d0-a6fca3bf067e","system_id":"levelo_inurba_marseille","lat":43.24694,"lon":5.38145,"is_reserved":false,"is_disabled":false,"rental_uris":{"android":"levelo://app?vid=6a193f41-f336-48d3-a5d0-a6fca3bf067e","ios":"levelo://app?vid=6a193f41-f336-48d3-a5d0-a6fca3bf067e"},"vehicle_type_id":"4","last_reported":1752992155,"current_range_meters":12000,"station_id":"ce4bhih2rcd13ifvqfr0","pricing_plan_id":"cebpf4jnsgd1na2vs0mg"},{"bike_id":"f49b299d-35c0-49c5-b7bc-03b5b182892b","system_id":"levelo_inurba_marseille","lat":43.31783,"lon":5.38983,"is_reserved":false,"is_disabled":false,"rental_uris":{"android":"levelo://app?vid=f49b299d-35c0-49c5-b7bc-03b5b182892b","ios":"levelo://app?vid=f49b299d-35c0-49c5-b7bc-03b5b182892b"},"vehicle_type_id":"4","last_reported":1752992155,"current_range_meters":12000,"station_id":"ce4bhqp2rcd13ifvqhng","pricing_plan_id":"cebpf4jnsgd1na2vs0mg"},{"bike_id":"5a570911-22d0-41b1-a776-0fe138c4bdc4","system_id":"levelo_inurba_marseille","lat":43.211935,"lon":5.350738,"is_reserved":false,"is_disabled":false,"rental_uris":{"android":"levelo://app?vid=5a570911-22d0-41b1-a776-0fe138c4bdc4","ios":"levelo://app?vid=5a570911-22d0-41b1-a776-0fe138c4bdc4"},"vehicle_type_id":"4","last_reported":1752992155,"current_range_meters":12000,"station_id":"st_cvj6sg6p6f1abm77japg","pricing_plan_id":"cebpf4jnsgd1na2vs0mg"},{"bike_id":"c9ffd04b-c3a5-49bc-9896-054acbb108c7","system_id":"levelo_inurba_marseille","lat":43.22505,"lon":5.34773,"is_reserved":false,"is_disabled":false,"rental_uris":{"android":"levelo://app?vid=c9ffd04b-c3a5-49bc-9896-054acbb108c7","ios":"levelo://app?vid=c9ffd04b-c3a5-49bc-9896-054acbb108c7"},"vehicle_type_id":"4","last_reported":1752992155,"current_range_meters":12000,"station_id":"st_cvj5dfep6f1abm77gieg","pricing_plan_id":"cebpf4jnsgd1na2vs0mg"},{"bike_id":"f64d4495-c6c3-4047-b421-2e9c29951567","system_id":"levelo_inurba_marseille","lat":43.22506,"lon":5.34756,"is_reserved":false,"is_disabled":false,"rental_uris":{"android":"levelo://app?vid=f64d4495-c6c3-4047-b421-2e9c29951567","ios":"levelo://app?vid=f64d4495-c6c3-4047-b421-2e9c29951567"},"vehicle_type_id":"4","last_reported":1752992155,"current_range_meters":12400,"station_id":"st_cvj5dfep6f1abm77gieg","pricing_plan_id":"cebpf4jnsgd1na2vs0mg"},{"bike_id":"cbd7089c-9d2d-42db-a268-faaaa69d7343","system_id":"levelo_inurba_marseille","lat":43.26219,"lon":5.37423,"is_reserved":false,"is_disabled":true,"rental_uris":{"android":"levelo://app?vid=cbd7089c-9d2d-42db-a268-faaaa69d7343","ios":"levelo://app?vid=cbd7089c-9d2d-42db-a268-faaaa69d7343"},"vehicle_type_id":"4","last_reported":1752992155,"current_range_meters":12400,"station_id":"","pricing_plan_id":"cebpf4jnsgd1na2vs0mg"},{"bike_id":"892e06aa-05f6-415f-96f6-13455b0802de","system_id":"levelo_inurba_marseille","lat":43.295764,"lon":5.375044,"is_reserved":false,"is_disabled":true,"rental_uris":{"android":"levelo://app?vid=892e06aa-05f6-415f-96f6-13455b0802de","ios":"levelo://app?vid=892e06aa-05f6-415f-96f6-13455b0802de"},"vehicle_type_id":"4","last_reported":1752992155,"current_range_meters":12400,"station_id":"ce4bgh92rcd13ifvqb50","pricing_plan_id":"cebpf4jnsgd1na2vs0mg"},{"bike_id":"7592d3b0-727d-4107-ba81-a2966cdc2b34","system_id":"levelo_inurba_marseille","lat":43.26231,"lon":5.40452,"is_reserved":false,"is_disabled":false,"rental_uris":{"android":"levelo://app?vid=7592d3b0-727d-4107-ba81-a2966cdc2b34","ios":"levelo://app?vid=7592d3b0-727d-4107-ba81-a2966cdc2b34"},"vehicle_type_id":"4","last_reported":1752992155,"current_range_meters":12400,"station_id":"ce4bhmh2rcd13ifvqgmg","pricing_plan_id":"cebpf4jnsgd1na2vs0mg"},{"bike_id":"7da69f3d-17ea-45bd-8065-f715d544d5a5","system_id":"levelo_inurba_marseille","lat":43.27065,"lon":5.42263,"is_reserved":false,"is_disabled":false,"rental_uris":{"android":"levelo://app?vid=7da69f3d-17ea-45bd-8065-f715d544d5a5","ios":"levelo://app?vid=7da69f3d-17ea-45bd-8065-f715d544d5a5"},"vehicle_type_id":"4","last_reported":1752992155,"current_range_meters":12800,"station_id":"ce4bhk92rcd13ifvqgb0","pricing_plan_id":"cebpf4jnsgd1na2vs0mg"},{"bike_id":"45dea0eb-918d-49f1-8341-001e35c226f0","system_id":"levelo_inurba_marseille","lat":43.21171,"lon":5.35106,"is_reserved":false,"is_disabled":false,"rental_uris":{"android":"levelo://app?vid=45dea0eb-918d-49f1-8341-001e35c226f0","ios":"levelo://app?vid=45dea0eb-918d-49f1-8341-001e35c226f0"},"vehicle_type_id":"4","last_reported":1752992155,"current_range_meters":12800,"station_id":"st_cvj6sg6p6f1abm77japg","pricing_plan_id":"cebpf4jnsgd1na2vs0mg"},{"bike_id":"a6de290b-5c15-427b-bc37-8301607e1735","system_id":"levelo_inurba_marseille","lat":43.337444,"lon":5.374475,"is_reserved":false,"is_disabled":false,"rental_uris":{"android":"levelo://app?vid=a6de290b-5c15-427b-bc37-8301607e1735","ios":"levelo://app?vid=a6de290b-5c15-427b-bc37-8301607e1735"},"vehicle_type_id":"4","last_reported":1752992155,"current_range_meters":12800,"station_id":"","pricing_plan_id":"cebpf4jnsgd1na2vs0mg"},{"bike_id":"77e5d396-9f38-43c2-ae33-ac1f85df337d","system_id":"levelo_inurba_marseille","lat":43.29553,"lon":5.42275,"is_reserved":false,"is_disabled":false,"rental_uris":{"android":"levelo://app?vid=77e5d396-9f38-43c2-ae33-ac1f85df337d","ios":"levelo://app?vid=77e5d396-9f38-43c2-ae33-ac1f85df337d"},"vehicle_type_id":"4","last_reported":1752992155,"current_range_meters":12800,"station_id":"ce4bhph2rcd13ifvqhdg","pricing_plan_id":"cebpf4jnsgd1na2vs0mg"},{"bike_id":"471dc3d5-ac0c-4fb1-b8ed-9304c84605d1","system_id":"levelo_inurba_marseille","lat":43.301333,"lon":5.398591,"is_reserved":false,"is_disabled":false,"rental_uris":{"android":"levelo://app?vid=471dc3d5-ac0c-4fb1-b8ed-9304c84605d1","ios":"levelo://app?vid=471dc3d5-ac0c-4fb1-b8ed-9304c84605d1"},"vehicle_type_id":"4","last_reported":1752992155,"current_range_meters":12800,"station_id":"ce4bh0h2rcd13ifvqd40","pricing_plan_id":"cebpf4jnsgd1na2vs0mg"},{"bike_id":"d916997f-1b3d-4d99-bec2-f22f10a49844","system_id":"levelo_inurba_marseille","lat":43.251146,"lon":5.403219,"is_reserved":false,"is_disabled":false,"rental_uris":{"android":"levelo://app?vid=d916997f-1b3d-4d99-bec2-f22f10a49844","ios":"levelo://app?vid=d916997f-1b3d-4d99-bec2-f22f10a49844"},"vehicle_type_id":"4","last_reported":1752992155,"current_range_meters":12800,"station_id":"ce4bhlh2rcd13ifvqgig","pricing_plan_id":"cebpf4jnsgd1na2vs0mg"},{"bike_id":"dd12eefc-9090-488f-8382-d877f7eeafe4","system_id":"levelo_inurba_marseille","lat":43.253935,"lon":5.419058,"is_reserved":false,"is_disabled":false,"rental_uris":{"android":"levelo://app?vid=dd12eefc-9090-488f-8382-d877f7eeafe4","ios":"levelo://app?vid=dd12eefc-9090-488f-8382-d877f7eeafe4"},"vehicle_type_id":"4","last_reported":1752992155,"current_range_meters":13600,"station_id":"","pricing_plan_id":"cebpf4jnsgd1na2vs0mg"},{"bike_id":"b9246e48-e9f8-4924-bbb9-8c633997abe7","system_id":"levelo_inurba_marseille","lat":43.225092,"lon":5.347839,"is_reserved":false,"is_disabled":false,"rental_uris":{"android":"levelo://app?vid=b9246e48-e9f8-4924-bbb9-8c633997abe7","ios":"levelo://app?vid=b9246e48-e9f8-4924-bbb9-8c633997abe7"},"vehicle_type_id":"4","last_reported":1752992155,"current_range_meters":13600,"station_id":"st_cvj5dfep6f1abm77gieg","pricing_plan_id":"cebpf4jnsgd1na2vs0mg"},{"bike_id":"48e613f6-6bd8-4b0f-a051-5c53bb25b33b","system_id":"levelo_inurba_marseille","lat":43.28467,"lon":5.35871,"is_reserved":false,"is_disabled":false,"rental_uris":{"android":"levelo://app?vid=48e613f6-6bd8-4b0f-a051-5c53bb25b33b","ios":"levelo://app?vid=48e613f6-6bd8-4b0f-a051-5c53bb25b33b"},"vehicle_type_id":"4","last_reported":1752992155,"current_range_meters":13600,"station_id":"ce4bhah2rcd13ifvqei0","pricing_plan_id":"cebpf4jnsgd1na2vs0mg"},{"bike_id":"3ba08430-c242-462c-b3c2-1c2cdcac9121","system_id":"levelo_inurba_marseille","lat":43.27048,"lon":5.4027,"is_reserved":false,"is_disabled":false,"rental_uris":{"android":"levelo://app?vid=3ba08430-c242-462c-b3c2-1c2cdcac9121","ios":"levelo://app?vid=3ba08430-c242-462c-b3c2-1c2cdcac9121"},"vehicle_type_id":"4","last_reported":1752992155,"current_range_meters":13600,"station_id":"ce4bhk92rcd13ifvqgc0","pricing_plan_id":"cebpf4jnsgd1na2vs0mg"},{"bike_id":"7a2e1cf8-de90-4b24-ade1-9d8b3a17f052","system_id":"levelo_inurba_marseille","lat":43.25183,"lon":5.37572,"is_reserved":false,"is_disabled":false,"rental_uris":{"android":"levelo://app?vid=7a2e1cf8-de90-4b24-ade1-9d8b3a17f052","ios":"levelo://app?vid=7a2e1cf8-de90-4b24-ade1-9d8b3a17f052"},"vehicle_type_id":"4","last_reported":1752992155,"current_range_meters":13600,"station_id":"","pricing_plan_id":"cebpf4jnsgd1na2vs0mg"},{"bike_id":"dd126016-9444-4363-8af1-5f5415bc32e9","system_id":"levelo_inurba_marseille","lat":43.275629,"lon":5.384144,"is_reserved":false,"is_disabled":false,"rental_uris":{"android":"levelo://app?vid=dd126016-9444-4363-8af1-5f5415bc32e9","ios":"levelo://app?vid=dd126016-9444-4363-8af1-5f5415bc32e9"},"vehicle_type_id":"4","last_reported":1752992155,"current_range_meters":13600,"station_id":"ce4bhh92rcd13ifvqfi0","pricing_plan_id":"cebpf4jnsgd1na2vs0mg"},{"bike_id":"f11d5853-771f-43df-bd89-c14a78847538","system_id":"levelo_inurba_marseille","lat":43.31131,"lon":5.37764,"is_reserved":false,"is_disabled":false,"rental_uris":{"android":"levelo://app?vid=f11d5853-771f-43df-bd89-c14a78847538","ios":"levelo://app?vid=f11d5853-771f-43df-bd89-c14a78847538"},"vehicle_type_id":"4","last_reported":1752992155,"current_range_meters":13600,"station_id":"ce4bgt92rcd13ifvqcg0","pricing_plan_id":"cebpf4jnsgd1na2vs0mg"},{"bike_id":"7d91d34c-95ba-419a-8d0b-21d2aeaa83ad","system_id":"levelo_inurba_marseille","lat":43.254919,"lon":5.376474,"is_reserved":false,"is_disabled":true,"rental_uris":{"android":"levelo://app?vid=7d91d34c-95ba-419a-8d0b-21d2aeaa83ad","ios":"levelo://app?vid=7d91d34c-95ba-419a-8d0b-21d2aeaa83ad"},"vehicle_type_id":"4","last_reported":1752992155,"current_range_meters":13600,"station_id":"ce4bhh12rcd13ifvqff0","pricing_plan_id":"cebpf4jnsgd1na2vs0mg"},{"bike_id":"3f34cbef-2df9-4d33-b87e-ee079fd255a1","system_id":"levelo_inurba_marseille","lat":43.307962,"lon":5.435277,"is_reserved":false,"is_disabled":false,"rental_uris":{"android":"levelo://app?vid=3f34cbef-2df9-4d33-b87e-ee079fd255a1","ios":"levelo://app?vid=3f34cbef-2df9-4d33-b87e-ee079fd255a1"},"vehicle_type_id":"4","last_reported":1752992155,"current_range_meters":14000,"station_id":"ce4bhph2rcd13ifvqheg","pricing_plan_id":"cebpf4jnsgd1na2vs0mg"},{"bike_id":"d451dd23-12be-4a6e-a243-566a354b0b6f","system_id":"levelo_inurba_marseille","lat":43.30145,"lon":5.381,"is_reserved":false,"is_disabled":false,"rental_uris":{"android":"levelo://app?vid=d451dd23-12be-4a6e-a243-566a354b0b6f","ios":"levelo://app?vid=d451dd23-12be-4a6e-a243-566a354b0b6f"},"vehicle_type_id":"4","last_reported":1752992155,"current_range_meters":13600,"station_id":"ce4bgjp2rcd13ifvqbh0","pricing_plan_id":"cebpf4jnsgd1na2vs0mg"},{"bike_id":"2f3273dc-4e4b-4efb-940a-bf15b84d9848","system_id":"levelo_inurba_marseille","lat":43.28485,"lon":5.38419,"is_reserved":false,"is_disabled":false,"rental_uris":{"android":"levelo://app?vid=2f3273dc-4e4b-4efb-940a-bf15b84d9848","ios":"levelo://app?vid=2f3273dc-4e4b-4efb-940a-bf15b84d9848"},"vehicle_type_id":"4","last_reported":1752992155,"current_range_meters":14000,"station_id":"ce4bh512rcd13ifvqe3g","pricing_plan_id":"cebpf4jnsgd1na2vs0mg"},{"bike_id":"7cdfcfe6-ef51-4866-99c7-245d49f34f21","system_id":"levelo_inurba_marseille","lat":43.31367,"lon":5.38495,"is_reserved":false,"is_disabled":false,"rental_uris":{"android":"levelo://app?vid=7cdfcfe6-ef51-4866-99c7-245d49f34f21","ios":"levelo://app?vid=7cdfcfe6-ef51-4866-99c7-245d49f34f21"},"vehicle_type_id":"4","last_reported":1752992155,"current_range_meters":13600,"station_id":"ce4bgt92rcd13ifvqcf0","pricing_plan_id":"cebpf4jnsgd1na2vs0mg"},{"bike_id":"d25b3b74-1eb0-48d4-998a-10d14228da57","system_id":"levelo_inurba_marseille","lat":43.29701,"lon":5.36794,"is_reserved":false,"is_disabled":false,"rental_uris":{"android":"levelo://app?vid=d25b3b74-1eb0-48d4-998a-10d14228da57","ios":"levelo://app?vid=d25b3b74-1eb0-48d4-998a-10d14228da57"},"vehicle_type_id":"4","last_reported":1752992155,"current_range_meters":14400,"station_id":"","pricing_plan_id":"cebpf4jnsgd1na2vs0mg"},{"bike_id":"6fb131dd-8bae-4bc0-b0c0-17992306572f","system_id":"levelo_inurba_marseille","lat":43.2958,"lon":5.42281,"is_reserved":false,"is_disabled":false,"rental_uris":{"android":"levelo://app?vid=6fb131dd-8bae-4bc0-b0c0-17992306572f","ios":"levelo://app?vid=6fb131dd-8bae-4bc0-b0c0-17992306572f"},"vehicle_type_id":"4","last_reported":1752992155,"current_range_meters":14400,"station_id":"ce4bhph2rcd13ifvqhdg","pricing_plan_id":"cebpf4jnsgd1na2vs0mg"},{"bike_id":"5032a8bb-e6e3-431e-b320-13195f3c8ae0","system_id":"levelo_inurba_marseille","lat":43.29967,"lon":5.41316,"is_reserved":false,"is_disabled":false,"rental_uris":{"android":"levelo://app?vid=5032a8bb-e6e3-431e-b320-13195f3c8ae0","ios":"levelo://app?vid=5032a8bb-e6e3-431e-b320-13195f3c8ae0"},"vehicle_type_id":"4","last_reported":1752992155,"current_range_meters":14400,"station_id":"ce4bhp12rcd13ifvqh9g","pricing_plan_id":"cebpf4jnsgd1na2vs0mg"},{"bike_id":"50817c71-c433-41db-8588-f3f5b56e9306","system_id":"levelo_inurba_marseille","lat":43.225,"lon":5.34779,"is_reserved":false,"is_disabled":false,"rental_uris":{"android":"levelo://app?vid=50817c71-c433-41db-8588-f3f5b56e9306","ios":"levelo://app?vid=50817c71-c433-41db-8588-f3f5b56e9306"},"vehicle_type_id":"4","last_reported":1752992155,"current_range_meters":14400,"station_id":"st_cvj5dfep6f1abm77gieg","pricing_plan_id":"cebpf4jnsgd1na2vs0mg"},{"bike_id":"8c4acb55-241b-4545-8165-6d1b2681375e","system_id":"levelo_inurba_marseille","lat":43.27803,"lon":5.40706,"is_reserved":false,"is_disabled":false,"rental_uris":{"android":"levelo://app?vid=8c4acb55-241b-4545-8165-6d1b2681375e","ios":"levelo://app?vid=8c4acb55-241b-4545-8165-6d1b2681375e"},"vehicle_type_id":"4","last_reported":1752992155,"current_range_meters":14400,"station_id":"ce4bhnh2rcd13ifvqgtg","pricing_plan_id":"cebpf4jnsgd1na2vs0mg"},{"bike_id":"4756c3e0-fc87-4647-b159-7725acd8ef8b","system_id":"levelo_inurba_marseille","lat":43.217407,"lon":5.346096,"is_reserved":false,"is_disabled":false,"rental_uris":{"android":"levelo://app?vid=4756c3e0-fc87-4647-b159-7725acd8ef8b","ios":"levelo://app?vid=4756c3e0-fc87-4647-b159-7725acd8ef8b"},"vehicle_type_id":"4","last_reported":1752992155,"current_range_meters":14800,"station_id":"st_cvj6r9ubvosntc0bgbag","pricing_plan_id":"cebpf4jnsgd1na2vs0mg"},{"bike_id":"0f865e27-a5de-4ea4-a204-00f00c2fcde7","system_id":"levelo_inurba_marseille","lat":43.306439,"lon":5.400819,"is_reserved":false,"is_disabled":false,"rental_uris":{"android":"levelo://app?vid=0f865e27-a5de-4ea4-a204-00f00c2fcde7","ios":"levelo://app?vid=0f865e27-a5de-4ea4-a204-00f00c2fcde7"},"vehicle_type_id":"4","last_reported":1752992155,"current_range_meters":14800,"station_id":"ce4bh112rcd13ifvqda0","pricing_plan_id":"cebpf4jnsgd1na2vs0mg"},{"bike_id":"5f3c2d82-aa89-4640-8e4b-7048aefb28e4","system_id":"levelo_inurba_marseille","lat":43.30906,"lon":5.37191,"is_reserved":false,"is_disabled":false,"rental_uris":{"android":"levelo://app?vid=5f3c2d82-aa89-4640-8e4b-7048aefb28e4","ios":"levelo://app?vid=5f3c2d82-aa89-4640-8e4b-7048aefb28e4"},"vehicle_type_id":"4","last_reported":1752992155,"current_range_meters":14800,"station_id":"ce4bguh2rcd13ifvqckg","pricing_plan_id":"cebpf4jnsgd1na2vs0mg"},{"bike_id":"580b6a41-a908-46b8-8f58-b1def557df32","system_id":"levelo_inurba_marseille","lat":43.23166,"lon":5.43718,"is_reserved":false,"is_disabled":false,"rental_uris":{"android":"levelo://app?vid=580b6a41-a908-46b8-8f58-b1def557df32","ios":"levelo://app?vid=580b6a41-a908-46b8-8f58-b1def557df32"},"vehicle_type_id":"4","last_reported":1752992155,"current_range_meters":14800,"station_id":"ce4bhmp2rcd13ifvqgog","pricing_plan_id":"cebpf4jnsgd1na2vs0mg"},{"bike_id":"4268961c-8e3c-4bac-891f-a8846cba533f","system_id":"levelo_inurba_marseille","lat":43.324675,"lon":5.365567,"is_reserved":false,"is_disabled":false,"rental_uris":{"android":"levelo://app?vid=4268961c-8e3c-4bac-891f-a8846cba533f","ios":"levelo://app?vid=4268961c-8e3c-4bac-891f-a8846cba533f"},"vehicle_type_id":"4","last_reported":1752992155,"current_range_meters":14800,"station_id":"ce4bhs12rcd13ifvqhvg","pricing_plan_id":"cebpf4jnsgd1na2vs0mg"},{"bike_id":"aaa60820-80fd-4afd-9d4a-de02de98b358","system_id":"levelo_inurba_marseille","lat":43.21186,"lon":5.35092,"is_reserved":false,"is_disabled":false,"rental_uris":{"android":"levelo://app?vid=aaa60820-80fd-4afd-9d4a-de02de98b358","ios":"levelo://app?vid=aaa60820-80fd-4afd-9d4a-de02de98b358"},"vehicle_type_id":"4","last_reported":1752992155,"current_range_meters":14800,"station_id":"","pricing_plan_id":"cebpf4jnsgd1na2vs0mg"},{"bike_id":"95b5bcfa-54af-48c0-bd18-8f73f959ce2b","system_id":"levelo_inurba_marseille","lat":43.31935,"lon":5.37313,"is_reserved":false,"is_disabled":false,"rental_uris":{"android":"levelo://app?vid=95b5bcfa-54af-48c0-bd18-8f73f959ce2b","ios":"levelo://app?vid=95b5bcfa-54af-48c0-bd18-8f73f959ce2b"},"vehicle_type_id":"4","last_reported":1752992155,"current_range_meters":14800,"station_id":"","pricing_plan_id":"cebpf4jnsgd1na2vs0mg"},{"bike_id":"61859880-43d2-42e3-b5ae-94daf88d36a7","system_id":"levelo_inurba_marseille","lat":43.30888,"lon":5.39628,"is_reserved":false,"is_disabled":false,"rental_uris":{"android":"levelo://app?vid=61859880-43d2-42e3-b5ae-94daf88d36a7","ios":"levelo://app?vid=61859880-43d2-42e3-b5ae-94daf88d36a7"},"vehicle_type_id":"4","last_reported":1752992155,"current_range_meters":15200,"station_id":"ce4bh012rcd13ifvqcv0","pricing_plan_id":"cebpf4jnsgd1na2vs0mg"},{"bike_id":"7eaefe95-a918-4dff-a447-29114f8d3c22","system_id":"levelo_inurba_marseille","lat":43.28734,"lon":5.39984,"is_reserved":false,"is_disabled":true,"rental_uris":{"android":"levelo://app?vid=7eaefe95-a918-4dff-a447-29114f8d3c22","ios":"levelo://app?vid=7eaefe95-a918-4dff-a447-29114f8d3c22"},"vehicle_type_id":"4","last_reported":1752992155,"current_range_meters":15200,"station_id":"ce4bho92rcd13ifvqh3g","pricing_plan_id":"cebpf4jnsgd1na2vs0mg"},{"bike_id":"beb14892-a851-4f8e-b873-cbd3d15ad0a9","system_id":"levelo_inurba_marseille","lat":43.237587,"lon":5.361945,"is_reserved":false,"is_disabled":false,"rental_uris":{"android":"levelo://app?vid=beb14892-a851-4f8e-b873-cbd3d15ad0a9","ios":"levelo://app?vid=beb14892-a851-4f8e-b873-cbd3d15ad0a9"},"vehicle_type_id":"4","last_reported":1752992155,"current_range_meters":15200,"station_id":"","pricing_plan_id":"cebpf4jnsgd1na2vs0mg"},{"bike_id":"25147b35-b612-4ad3-bdc8-4f33774a34b4","system_id":"levelo_inurba_marseille","lat":43.31517,"lon":5.37272,"is_reserved":false,"is_disabled":false,"rental_uris":{"android":"levelo://app?vid=25147b35-b612-4ad3-bdc8-4f33774a34b4","ios":"levelo://app?vid=25147b35-b612-4ad3-bdc8-4f33774a34b4"},"vehicle_type_id":"4","last_reported":1752992155,"current_range_meters":15200,"station_id":"ce4bgt12rcd13ifvqcd0","pricing_plan_id":"cebpf4jnsgd1na2vs0mg"},{"bike_id":"c9695da4-3048-4cfc-83f0-62c3fac1ccbe","system_id":"levelo_inurba_marseille","lat":43.23061,"lon":5.35492,"is_reserved":false,"is_disabled":true,"rental_uris":{"android":"levelo://app?vid=c9695da4-3048-4cfc-83f0-62c3fac1ccbe","ios":"levelo://app?vid=c9695da4-3048-4cfc-83f0-62c3fac1ccbe"},"vehicle_type_id":"4","last_reported":1752992155,"current_range_meters":16000,"station_id":"cpo3342slgdg3j2ifvpg","pricing_plan_id":"cebpf4jnsgd1na2vs0mg"},{"bike_id":"e4d40cc6-06be-4413-a09d-0c3b322f384f","system_id":"levelo_inurba_marseille","lat":43.28431,"lon":5.39195,"is_reserved":false,"is_disabled":false,"rental_uris":{"android":"levelo://app?vid=e4d40cc6-06be-4413-a09d-0c3b322f384f","ios":"levelo://app?vid=e4d40cc6-06be-4413-a09d-0c3b322f384f"},"vehicle_type_id":"4","last_reported":1752992155,"current_range_meters":16000,"station_id":"ce4bhoh2rcd13ifvqh5g","pricing_plan_id":"cebpf4jnsgd1na2vs0mg"},{"bike_id":"64c4e8fb-d681-4de2-854c-3b8c6a5bafd9","system_id":"levelo_inurba_marseille","lat":43.2407,"lon":5.37751,"is_reserved":false,"is_disabled":false,"rental_uris":{"android":"levelo://app?vid=64c4e8fb-d681-4de2-854c-3b8c6a5bafd9","ios":"levelo://app?vid=64c4e8fb-d681-4de2-854c-3b8c6a5bafd9"},"vehicle_type_id":"4","last_reported":1752992155,"current_range_meters":16000,"station_id":"ce4bhnp2rcd13ifvqgvg","pricing_plan_id":"cebpf4jnsgd1na2vs0mg"},{"bike_id":"707af16a-3189-4d92-b010-ef53c9012e98","system_id":"levelo_inurba_marseille","lat":43.217498,"lon":5.346106,"is_reserved":false,"is_disabled":false,"rental_uris":{"android":"levelo://app?vid=707af16a-3189-4d92-b010-ef53c9012e98","ios":"levelo://app?vid=707af16a-3189-4d92-b010-ef53c9012e98"},"vehicle_type_id":"4","last_reported":1752992155,"current_range_meters":16000,"station_id":"","pricing_plan_id":"cebpf4jnsgd1na2vs0mg"},{"bike_id":"d3aca52a-4e64-461a-8fd1-e9a035bafbdf","system_id":"levelo_inurba_marseille","lat":43.257213,"lon":5.411019,"is_reserved":false,"is_disabled":false,"rental_uris":{"android":"levelo://app?vid=d3aca52a-4e64-461a-8fd1-e9a035bafbdf","ios":"levelo://app?vid=d3aca52a-4e64-461a-8fd1-e9a035bafbdf"},"vehicle_type_id":"4","last_reported":1752992155,"current_range_meters":16000,"station_id":"","pricing_plan_id":"cebpf4jnsgd1na2vs0mg"},{"bike_id":"e50ad253-cbd4-4a94-9b59-64dacc1f0adf","system_id":"levelo_inurba_marseille","lat":43.24058,"lon":5.37751,"is_reserved":false,"is_disabled":false,"rental_uris":{"android":"levelo://app?vid=e50ad253-cbd4-4a94-9b59-64dacc1f0adf","ios":"levelo://app?vid=e50ad253-cbd4-4a94-9b59-64dacc1f0adf"},"vehicle_type_id":"4","last_reported":1752992155,"current_range_meters":16000,"station_id":"ce4bhnp2rcd13ifvqgvg","pricing_plan_id":"cebpf4jnsgd1na2vs0mg"},{"bike_id":"7023c9df-34ea-4be8-bb08-ef9e6e748e73","system_id":"levelo_inurba_marseille","lat":43.24169,"lon":5.39706,"is_reserved":false,"is_disabled":false,"rental_uris":{"android":"levelo://app?vid=7023c9df-34ea-4be8-bb08-ef9e6e748e73","ios":"levelo://app?vid=7023c9df-34ea-4be8-bb08-ef9e6e748e73"},"vehicle_type_id":"4","last_reported":1752992155,"current_range_meters":16000,"station_id":"ce4bhn12rcd13ifvqgpg","pricing_plan_id":"cebpf4jnsgd1na2vs0mg"},{"bike_id":"e2c791c6-30c6-436d-bd6b-5e6bf59b084a","system_id":"levelo_inurba_marseille","lat":43.29785,"lon":5.38068,"is_reserved":false,"is_disabled":false,"rental_uris":{"android":"levelo://app?vid=e2c791c6-30c6-436d-bd6b-5e6bf59b084a","ios":"levelo://app?vid=e2c791c6-30c6-436d-bd6b-5e6bf59b084a"},"vehicle_type_id":"4","last_reported":1752992155,"current_range_meters":16000,"station_id":"ce4bgip2rcd13ifvqbb0","pricing_plan_id":"cebpf4jnsgd1na2vs0mg"},{"bike_id":"4183af83-8bde-4bf5-a3ca-3a18515a2e28","system_id":"levelo_inurba_marseille","lat":43.26577,"lon":5.38974,"is_reserved":false,"is_disabled":false,"rental_uris":{"android":"levelo://app?vid=4183af83-8bde-4bf5-a3ca-3a18515a2e28","ios":"levelo://app?vid=4183af83-8bde-4bf5-a3ca-3a18515a2e28"},"vehicle_type_id":"4","last_reported":1752992155,"current_range_meters":16000,"station_id":"ce4bhe12rcd13ifvqf30","pricing_plan_id":"cebpf4jnsgd1na2vs0mg"},{"bike_id":"b3176209-c9b0-4949-926f-6c63990cfd9f","system_id":"levelo_inurba_marseille","lat":43.33603,"lon":5.41026,"is_reserved":false,"is_disabled":false,"rental_uris":{"android":"levelo://app?vid=b3176209-c9b0-4949-926f-6c63990cfd9f","ios":"levelo://app?vid=b3176209-c9b0-4949-926f-6c63990cfd9f"},"vehicle_type_id":"4","last_reported":1752992155,"current_range_meters":16000,"station_id":"ce4bhqh2rcd13ifvqhmg","pricing_plan_id":"cebpf4jnsgd1na2vs0mg"},{"bike_id":"299ec8a6-d5a7-41ea-8121-1c7f792257d2","system_id":"levelo_inurba_marseille","lat":43.27375,"lon":5.36253,"is_reserved":false,"is_disabled":true,"rental_uris":{"android":"levelo://app?vid=299ec8a6-d5a7-41ea-8121-1c7f792257d2","ios":"levelo://app?vid=299ec8a6-d5a7-41ea-8121-1c7f792257d2"},"vehicle_type_id":"4","last_reported":1752992155,"current_range_meters":16400,"station_id":"ce4bhbh2rcd13ifvqeo0","pricing_plan_id":"cebpf4jnsgd1na2vs0mg"},{"bike_id":"920d521b-627a-4156-9d85-f42e44a38fc8","system_id":"levelo_inurba_marseille","lat":43.28352,"lon":5.38069,"is_reserved":false,"is_disabled":false,"rental_uris":{"android":"levelo://app?vid=920d521b-627a-4156-9d85-f42e44a38fc8","ios":"levelo://app?vid=920d521b-627a-4156-9d85-f42e44a38fc8"},"vehicle_type_id":"4","last_reported":1752992155,"current_range_meters":16400,"station_id":"ce4bh412rcd13ifvqdr0","pricing_plan_id":"cebpf4jnsgd1na2vs0mg"},{"bike_id":"03c06480-1eaf-4ccf-96ff-18423cbc8b58","system_id":"levelo_inurba_marseille","lat":43.22502,"lon":5.34781,"is_reserved":false,"is_disabled":false,"rental_uris":{"android":"levelo://app?vid=03c06480-1eaf-4ccf-96ff-18423cbc8b58","ios":"levelo://app?vid=03c06480-1eaf-4ccf-96ff-18423cbc8b58"},"vehicle_type_id":"4","last_reported":1752992155,"current_range_meters":16400,"station_id":"st_cvj5dfep6f1abm77gieg","pricing_plan_id":"cebpf4jnsgd1na2vs0mg"},{"bike_id":"2d204ae1-a432-454a-839c-4d383ae2825d","system_id":"levelo_inurba_marseille","lat":43.31034,"lon":5.40041,"is_reserved":false,"is_disabled":false,"rental_uris":{"android":"levelo://app?vid=2d204ae1-a432-454a-839c-4d383ae2825d","ios":"levelo://app?vid=2d204ae1-a432-454a-839c-4d383ae2825d"},"vehicle_type_id":"4","last_reported":1752992155,"current_range_meters":16400,"station_id":"","pricing_plan_id":"cebpf4jnsgd1na2vs0mg"},{"bike_id":"96793585-b370-4499-97b5-55297e845c8f","system_id":"levelo_inurba_marseille","lat":43.217442,"lon":5.346069,"is_reserved":false,"is_disabled":false,"rental_uris":{"android":"levelo://app?vid=96793585-b370-4499-97b5-55297e845c8f","ios":"levelo://app?vid=96793585-b370-4499-97b5-55297e845c8f"},"vehicle_type_id":"4","last_reported":1752992155,"current_range_meters":16400,"station_id":"st_cvj6r9ubvosntc0bgbag","pricing_plan_id":"cebpf4jnsgd1na2vs0mg"},{"bike_id":"6495480c-5f8a-4219-a135-9b8d9a0caa47","system_id":"levelo_inurba_marseille","lat":43.29985,"lon":5.3848,"is_reserved":false,"is_disabled":false,"rental_uris":{"android":"levelo://app?vid=6495480c-5f8a-4219-a135-9b8d9a0caa47","ios":"levelo://app?vid=6495480c-5f8a-4219-a135-9b8d9a0caa47"},"vehicle_type_id":"4","last_reported":1752992155,"current_range_meters":16400,"station_id":"ce4bgj92rcd13ifvqbd0","pricing_plan_id":"cebpf4jnsgd1na2vs0mg"},{"bike_id":"20597f8e-6c1b-4a51-9e3f-8ecf88381375","system_id":"levelo_inurba_marseille","lat":43.30308,"lon":5.39196,"is_reserved":false,"is_disabled":true,"rental_uris":{"android":"levelo://app?vid=20597f8e-6c1b-4a51-9e3f-8ecf88381375","ios":"levelo://app?vid=20597f8e-6c1b-4a51-9e3f-8ecf88381375"},"vehicle_type_id":"4","last_reported":1752992155,"current_range_meters":16400,"station_id":"ce4bgkh2rcd13ifvqbk0","pricing_plan_id":"cebpf4jnsgd1na2vs0mg"},{"bike_id":"5267efb4-e657-4a83-8409-23b383da5f37","system_id":"levelo_inurba_marseille","lat":43.22935,"lon":5.35372,"is_reserved":false,"is_disabled":false,"rental_uris":{"android":"levelo://app?vid=5267efb4-e657-4a83-8409-23b383da5f37","ios":"levelo://app?vid=5267efb4-e657-4a83-8409-23b383da5f37"},"vehicle_type_id":"4","last_reported":1752992155,"current_range_meters":16400,"station_id":"cpo3532slgdg3j2ikp40","pricing_plan_id":"cebpf4jnsgd1na2vs0mg"},{"bike_id":"f335eb8b-f2b0-48df-963c-2425602f9038","system_id":"levelo_inurba_marseille","lat":43.270101,"lon":5.401372,"is_reserved":false,"is_disabled":true,"rental_uris":{"android":"levelo://app?vid=f335eb8b-f2b0-48df-963c-2425602f9038","ios":"levelo://app?vid=f335eb8b-f2b0-48df-963c-2425602f9038"},"vehicle_type_id":"4","last_reported":1752992155,"current_range_meters":16800,"station_id":"","pricing_plan_id":"cebpf4jnsgd1na2vs0mg"},{"bike_id":"6f530211-2d31-4918-b78d-6fbc7b6302a4","system_id":"levelo_inurba_marseille","lat":43.23578,"lon":5.36136,"is_reserved":false,"is_disabled":false,"rental_uris":{"android":"levelo://app?vid=6f530211-2d31-4918-b78d-6fbc7b6302a4","ios":"levelo://app?vid=6f530211-2d31-4918-b78d-6fbc7b6302a4"},"vehicle_type_id":"4","last_reported":1752992155,"current_range_meters":16800,"station_id":"","pricing_plan_id":"cebpf4jnsgd1na2vs0mg"},{"bike_id":"7f98c65c-6593-4352-858e-be8fe24c31fc","system_id":"levelo_inurba_marseille","lat":43.22506,"lon":5.34782,"is_reserved":false,"is_disabled":false,"rental_uris":{"android":"levelo://app?vid=7f98c65c-6593-4352-858e-be8fe24c31fc","ios":"levelo://app?vid=7f98c65c-6593-4352-858e-be8fe24c31fc"},"vehicle_type_id":"4","last_reported":1752992155,"current_range_meters":16800,"station_id":"st_cvj5dfep6f1abm77gieg","pricing_plan_id":"cebpf4jnsgd1na2vs0mg"},{"bike_id":"7cb87117-19f1-4d48-84b2-bec6ac38464c","system_id":"levelo_inurba_marseille","lat":43.29545,"lon":5.42278,"is_reserved":false,"is_disabled":false,"rental_uris":{"android":"levelo://app?vid=7cb87117-19f1-4d48-84b2-bec6ac38464c","ios":"levelo://app?vid=7cb87117-19f1-4d48-84b2-bec6ac38464c"},"vehicle_type_id":"4","last_reported":1752992155,"current_range_meters":16800,"station_id":"ce4bhph2rcd13ifvqhdg","pricing_plan_id":"cebpf4jnsgd1na2vs0mg"},{"bike_id":"12cc632f-1bd8-4aad-b981-4f9d22374684","system_id":"levelo_inurba_marseille","lat":43.29272,"lon":5.36844,"is_reserved":false,"is_disabled":false,"rental_uris":{"android":"levelo://app?vid=12cc632f-1bd8-4aad-b981-4f9d22374684","ios":"levelo://app?vid=12cc632f-1bd8-4aad-b981-4f9d22374684"},"vehicle_type_id":"4","last_reported":1752992155,"current_range_meters":16800,"station_id":"ce4bhbp2rcd13ifvqesg","pricing_plan_id":"cebpf4jnsgd1na2vs0mg"},{"bike_id":"8d0a7d48-821b-45fd-b0ae-14054183a777","system_id":"levelo_inurba_marseille","lat":43.2973,"lon":5.37673,"is_reserved":false,"is_disabled":false,"rental_uris":{"android":"levelo://app?vid=8d0a7d48-821b-45fd-b0ae-14054183a777","ios":"levelo://app?vid=8d0a7d48-821b-45fd-b0ae-14054183a777"},"vehicle_type_id":"4","last_reported":1752992155,"current_range_meters":16800,"station_id":"ce4bgkh2rcd13ifvqbl0","pricing_plan_id":"cebpf4jnsgd1na2vs0mg"},{"bike_id":"40b14cc7-5cb2-4bbb-97a9-030d8df69756","system_id":"levelo_inurba_marseille","lat":43.30146,"lon":5.39883,"is_reserved":false,"is_disabled":false,"rental_uris":{"android":"levelo://app?vid=40b14cc7-5cb2-4bbb-97a9-030d8df69756","ios":"levelo://app?vid=40b14cc7-5cb2-4bbb-97a9-030d8df69756"},"vehicle_type_id":"4","last_reported":1752992155,"current_range_meters":16800,"station_id":"ce4bh0h2rcd13ifvqd40","pricing_plan_id":"cebpf4jnsgd1na2vs0mg"},{"bike_id":"cc84ef0b-8aa0-412e-855f-1f9b9adabeeb","system_id":"levelo_inurba_marseille","lat":43.31224,"lon":5.36855,"is_reserved":false,"is_disabled":false,"rental_uris":{"android":"levelo://app?vid=cc84ef0b-8aa0-412e-855f-1f9b9adabeeb","ios":"levelo://app?vid=cc84ef0b-8aa0-412e-855f-1f9b9adabeeb"},"vehicle_type_id":"4","last_reported":1752992155,"current_range_meters":16800,"station_id":"ce4bgl92rcd13ifvqbq0","pricing_plan_id":"cebpf4jnsgd1na2vs0mg"},{"bike_id":"48e69793-16ac-4572-b823-acf9aeb88904","system_id":"levelo_inurba_marseille","lat":43.30147,"lon":5.38089,"is_reserved":false,"is_disabled":false,"rental_uris":{"android":"levelo://app?vid=48e69793-16ac-4572-b823-acf9aeb88904","ios":"levelo://app?vid=48e69793-16ac-4572-b823-acf9aeb88904"},"vehicle_type_id":"4","last_reported":1752992155,"current_range_meters":17200,"station_id":"ce4bgjp2rcd13ifvqbh0","pricing_plan_id":"cebpf4jnsgd1na2vs0mg"},{"bike_id":"7b53909a-d089-478b-9727-7bcf163d661e","system_id":"levelo_inurba_marseille","lat":43.23068,"lon":5.35486,"is_reserved":false,"is_disabled":true,"rental_uris":{"android":"levelo://app?vid=7b53909a-d089-478b-9727-7bcf163d661e","ios":"levelo://app?vid=7b53909a-d089-478b-9727-7bcf163d661e"},"vehicle_type_id":"4","last_reported":1752992155,"current_range_meters":17200,"station_id":"cpo3342slgdg3j2ifvpg","pricing_plan_id":"cebpf4jnsgd1na2vs0mg"},{"bike_id":"8ee23ce4-35c8-476f-8816-b80e4ca2c6f4","system_id":"levelo_inurba_marseille","lat":43.25116,"lon":5.40316,"is_reserved":false,"is_disabled":false,"rental_uris":{"android":"levelo://app?vid=8ee23ce4-35c8-476f-8816-b80e4ca2c6f4","ios":"levelo://app?vid=8ee23ce4-35c8-476f-8816-b80e4ca2c6f4"},"vehicle_type_id":"4","last_reported":1752992155,"current_range_meters":17200,"station_id":"ce4bhlh2rcd13ifvqgig","pricing_plan_id":"cebpf4jnsgd1na2vs0mg"},{"bike_id":"284cf330-577a-4932-8f14-cf3cdaa65655","system_id":"levelo_inurba_marseille","lat":43.308,"lon":5.43512,"is_reserved":false,"is_disabled":false,"rental_uris":{"android":"levelo://app?vid=284cf330-577a-4932-8f14-cf3cdaa65655","ios":"levelo://app?vid=284cf330-577a-4932-8f14-cf3cdaa65655"},"vehicle_type_id":"4","last_reported":1752992155,"current_range_meters":17200,"station_id":"ce4bhph2rcd13ifvqheg","pricing_plan_id":"cebpf4jnsgd1na2vs0mg"},{"bike_id":"053762ef-2967-4c03-83aa-9c21c06b9aed","system_id":"levelo_inurba_marseille","lat":43.240805,"lon":5.377426,"is_reserved":false,"is_disabled":false,"rental_uris":{"android":"levelo://app?vid=053762ef-2967-4c03-83aa-9c21c06b9aed","ios":"levelo://app?vid=053762ef-2967-4c03-83aa-9c21c06b9aed"},"vehicle_type_id":"4","last_reported":1752992155,"current_range_meters":17200,"station_id":"ce4bhnp2rcd13ifvqgvg","pricing_plan_id":"cebpf4jnsgd1na2vs0mg"},{"bike_id":"c0891025-8c5b-4eaa-a169-f1586fcfd554","system_id":"levelo_inurba_marseille","lat":43.27806,"lon":5.40735,"is_reserved":false,"is_disabled":false,"rental_uris":{"android":"levelo://app?vid=c0891025-8c5b-4eaa-a169-f1586fcfd554","ios":"levelo://app?vid=c0891025-8c5b-4eaa-a169-f1586fcfd554"},"vehicle_type_id":"4","last_reported":1752992155,"current_range_meters":17200,"station_id":"ce4bhnh2rcd13ifvqgtg","pricing_plan_id":"cebpf4jnsgd1na2vs0mg"},{"bike_id":"65ff5782-b039-4149-bf35-dfa9471f596f","system_id":"levelo_inurba_marseille","lat":43.298866,"lon":5.397409,"is_reserved":false,"is_disabled":false,"rental_uris":{"android":"levelo://app?vid=65ff5782-b039-4149-bf35-dfa9471f596f","ios":"levelo://app?vid=65ff5782-b039-4149-bf35-dfa9471f596f"},"vehicle_type_id":"4","last_reported":1752992155,"current_range_meters":17600,"station_id":"ce4bh0h2rcd13ifvqd50","pricing_plan_id":"cebpf4jnsgd1na2vs0mg"},{"bike_id":"5a5b8354-1700-489d-856d-d3a744e380d7","system_id":"levelo_inurba_marseille","lat":43.30643,"lon":5.40066,"is_reserved":false,"is_disabled":false,"rental_uris":{"android":"levelo://app?vid=5a5b8354-1700-489d-856d-d3a744e380d7","ios":"levelo://app?vid=5a5b8354-1700-489d-856d-d3a744e380d7"},"vehicle_type_id":"4","last_reported":1752992155,"current_range_meters":17600,"station_id":"ce4bh112rcd13ifvqda0","pricing_plan_id":"cebpf4jnsgd1na2vs0mg"},{"bike_id":"16d832d8-5275-4ead-a5ea-40d543d8611a","system_id":"levelo_inurba_marseille","lat":43.29721,"lon":5.37686,"is_reserved":false,"is_disabled":false,"rental_uris":{"android":"levelo://app?vid=16d832d8-5275-4ead-a5ea-40d543d8611a","ios":"levelo://app?vid=16d832d8-5275-4ead-a5ea-40d543d8611a"},"vehicle_type_id":"4","last_reported":1752992155,"current_range_meters":17600,"station_id":"ce4bgkh2rcd13ifvqbl0","pricing_plan_id":"cebpf4jnsgd1na2vs0mg"},{"bike_id":"ff304561-c8ce-4ac1-9008-9c7fa7a2d85b","system_id":"levelo_inurba_marseille","lat":43.29233,"lon":5.38438,"is_reserved":false,"is_disabled":true,"rental_uris":{"android":"levelo://app?vid=ff304561-c8ce-4ac1-9008-9c7fa7a2d85b","ios":"levelo://app?vid=ff304561-c8ce-4ac1-9008-9c7fa7a2d85b"},"vehicle_type_id":"4","last_reported":1752992155,"current_range_meters":17600,"station_id":"ce4bh692rcd13ifvqea0","pricing_plan_id":"cebpf4jnsgd1na2vs0mg"},{"bike_id":"b862303e-1b88-4ff6-923a-6de878d2c4e1","system_id":"levelo_inurba_marseille","lat":43.270683,"lon":5.422822,"is_reserved":false,"is_disabled":false,"rental_uris":{"android":"levelo://app?vid=b862303e-1b88-4ff6-923a-6de878d2c4e1","ios":"levelo://app?vid=b862303e-1b88-4ff6-923a-6de878d2c4e1"},"vehicle_type_id":"4","last_reported":1752992155,"current_range_meters":17600,"station_id":"ce4bhk92rcd13ifvqgb0","pricing_plan_id":"cebpf4jnsgd1na2vs0mg"},{"bike_id":"c1e6057c-ff5a-4477-a9f1-93444a633642","system_id":"levelo_inurba_marseille","lat":43.271619,"lon":5.390536,"is_reserved":false,"is_disabled":false,"rental_uris":{"android":"levelo://app?vid=c1e6057c-ff5a-4477-a9f1-93444a633642","ios":"levelo://app?vid=c1e6057c-ff5a-4477-a9f1-93444a633642"},"vehicle_type_id":"4","last_reported":1752992155,"current_range_meters":17600,"station_id":"","pricing_plan_id":"cebpf4jnsgd1na2vs0mg"},{"bike_id":"cb331a89-56a6-4651-9865-7241cd4ca587","system_id":"levelo_inurba_marseille","lat":43.3249,"lon":5.36553,"is_reserved":false,"is_disabled":false,"rental_uris":{"android":"levelo://app?vid=cb331a89-56a6-4651-9865-7241cd4ca587","ios":"levelo://app?vid=cb331a89-56a6-4651-9865-7241cd4ca587"},"vehicle_type_id":"4","last_reported":1752992155,"current_range_meters":17600,"station_id":"ce4bhs12rcd13ifvqhvg","pricing_plan_id":"cebpf4jnsgd1na2vs0mg"},{"bike_id":"693973c9-2f1f-4e4a-a074-0ba274f6c0e8","system_id":"levelo_inurba_marseille","lat":43.29792,"lon":5.38089,"is_reserved":false,"is_disabled":false,"rental_uris":{"android":"levelo://app?vid=693973c9-2f1f-4e4a-a074-0ba274f6c0e8","ios":"levelo://app?vid=693973c9-2f1f-4e4a-a074-0ba274f6c0e8"},"vehicle_type_id":"4","last_reported":1752992155,"current_range_meters":17600,"station_id":"ce4bgip2rcd13ifvqbb0","pricing_plan_id":"cebpf4jnsgd1na2vs0mg"},{"bike_id":"db74d068-ca07-4b0e-bfd7-c6560a63dd2d","system_id":"levelo_inurba_marseille","lat":43.30644,"lon":5.40051,"is_reserved":false,"is_disabled":false,"rental_uris":{"android":"levelo://app?vid=db74d068-ca07-4b0e-bfd7-c6560a63dd2d","ios":"levelo://app?vid=db74d068-ca07-4b0e-bfd7-c6560a63dd2d"},"vehicle_type_id":"4","last_reported":1752992155,"current_range_meters":17600,"station_id":"ce4bh112rcd13ifvqda0","pricing_plan_id":"cebpf4jnsgd1na2vs0mg"},{"bike_id":"91faf937-6768-4101-98da-411036d125c4","system_id":"levelo_inurba_marseille","lat":43.225,"lon":5.34774,"is_reserved":false,"is_disabled":false,"rental_uris":{"android":"levelo://app?vid=91faf937-6768-4101-98da-411036d125c4","ios":"levelo://app?vid=91faf937-6768-4101-98da-411036d125c4"},"vehicle_type_id":"4","last_reported":1752992155,"current_range_meters":17600,"station_id":"","pricing_plan_id":"cebpf4jnsgd1na2vs0mg"},{"bike_id":"dc654502-b68b-426b-b6bf-8516fdc04d31","system_id":"levelo_inurba_marseille","lat":43.28073,"lon":5.39665,"is_reserved":false,"is_disabled":false,"rental_uris":{"android":"levelo://app?vid=dc654502-b68b-426b-b6bf-8516fdc04d31","ios":"levelo://app?vid=dc654502-b68b-426b-b6bf-8516fdc04d31"},"vehicle_type_id":"4","last_reported":1752992155,"current_range_meters":17600,"station_id":"ce4bho12rcd13ifvqh2g","pricing_plan_id":"cebpf4jnsgd1na2vs0mg"},{"bike_id":"50f8d88d-d50c-4811-b545-597a88c8b60d","system_id":"levelo_inurba_marseille","lat":43.29313,"lon":5.36959,"is_reserved":false,"is_disabled":false,"rental_uris":{"android":"levelo://app?vid=50f8d88d-d50c-4811-b545-597a88c8b60d","ios":"levelo://app?vid=50f8d88d-d50c-4811-b545-597a88c8b60d"},"vehicle_type_id":"4","last_reported":1752992155,"current_range_meters":17600,"station_id":"","pricing_plan_id":"cebpf4jnsgd1na2vs0mg"},{"bike_id":"012b2150-ccb1-4936-b812-26ea727675b5","system_id":"levelo_inurba_marseille","lat":43.27951,"lon":5.41028,"is_reserved":false,"is_disabled":false,"rental_uris":{"android":"levelo://app?vid=012b2150-ccb1-4936-b812-26ea727675b5","ios":"levelo://app?vid=012b2150-ccb1-4936-b812-26ea727675b5"},"vehicle_type_id":"4","last_reported":1752992155,"current_range_meters":17600,"station_id":"ce4bhnp2rcd13ifvqh0g","pricing_plan_id":"cebpf4jnsgd1na2vs0mg"},{"bike_id":"4355836e-ae99-4039-b85f-c4e239c9dca5","system_id":"levelo_inurba_marseille","lat":43.29903,"lon":5.43668,"is_reserved":false,"is_disabled":false,"rental_uris":{"android":"levelo://app?vid=4355836e-ae99-4039-b85f-c4e239c9dca5","ios":"levelo://app?vid=4355836e-ae99-4039-b85f-c4e239c9dca5"},"vehicle_type_id":"4","last_reported":1752992155,"current_range_meters":18000,"station_id":"ce4bhpp2rcd13ifvqhfg","pricing_plan_id":"cebpf4jnsgd1na2vs0mg"},{"bike_id":"4c8283f7-9214-4f90-b93f-b371d5ff3abb","system_id":"levelo_inurba_marseille","lat":43.21188,"lon":5.3508,"is_reserved":false,"is_disabled":false,"rental_uris":{"android":"levelo://app?vid=4c8283f7-9214-4f90-b93f-b371d5ff3abb","ios":"levelo://app?vid=4c8283f7-9214-4f90-b93f-b371d5ff3abb"},"vehicle_type_id":"4","last_reported":1752992155,"current_range_meters":18000,"station_id":"st_cvj6sg6p6f1abm77japg","pricing_plan_id":"cebpf4jnsgd1na2vs0mg"},{"bike_id":"f3f581c3-7fd6-46b6-b25c-df950de01306","system_id":"levelo_inurba_marseille","lat":43.28716,"lon":5.39986,"is_reserved":false,"is_disabled":true,"rental_uris":{"android":"levelo://app?vid=f3f581c3-7fd6-46b6-b25c-df950de01306","ios":"levelo://app?vid=f3f581c3-7fd6-46b6-b25c-df950de01306"},"vehicle_type_id":"4","last_reported":1752992155,"current_range_meters":18000,"station_id":"ce4bho92rcd13ifvqh3g","pricing_plan_id":"cebpf4jnsgd1na2vs0mg"},{"bike_id":"92ef1c6c-cbe6-4c33-8f5c-15685f5b6493","system_id":"levelo_inurba_marseille","lat":43.306517,"lon":5.400777,"is_reserved":false,"is_disabled":false,"rental_uris":{"android":"levelo://app?vid=92ef1c6c-cbe6-4c33-8f5c-15685f5b6493","ios":"levelo://app?vid=92ef1c6c-cbe6-4c33-8f5c-15685f5b6493"},"vehicle_type_id":"4","last_reported":1752992155,"current_range_meters":18000,"station_id":"ce4bh112rcd13ifvqda0","pricing_plan_id":"cebpf4jnsgd1na2vs0mg"},{"bike_id":"65f134b7-ec0b-4f93-a212-e1c8c785da98","system_id":"levelo_inurba_marseille","lat":43.28694,"lon":5.37415,"is_reserved":false,"is_disabled":false,"rental_uris":{"android":"levelo://app?vid=65f134b7-ec0b-4f93-a212-e1c8c785da98","ios":"levelo://app?vid=65f134b7-ec0b-4f93-a212-e1c8c785da98"},"vehicle_type_id":"4","last_reported":1752992155,"current_range_meters":18000,"station_id":"ce4bh3p2rcd13ifvqdq0","pricing_plan_id":"cebpf4jnsgd1na2vs0mg"},{"bike_id":"53cb4f43-b1af-4efe-9f40-e0338804f4d4","system_id":"levelo_inurba_marseille","lat":43.31268,"lon":5.39021,"is_reserved":false,"is_disabled":false,"rental_uris":{"android":"levelo://app?vid=53cb4f43-b1af-4efe-9f40-e0338804f4d4","ios":"levelo://app?vid=53cb4f43-b1af-4efe-9f40-e0338804f4d4"},"vehicle_type_id":"4","last_reported":1752992155,"current_range_meters":18000,"station_id":"","pricing_plan_id":"cebpf4jnsgd1na2vs0mg"},{"bike_id":"42689d30-d9b9-4e0f-81c6-05fe3630c5bd","system_id":"levelo_inurba_marseille","lat":43.2794,"lon":5.41036,"is_reserved":false,"is_disabled":false,"rental_uris":{"android":"levelo://app?vid=42689d30-d9b9-4e0f-81c6-05fe3630c5bd","ios":"levelo://app?vid=42689d30-d9b9-4e0f-81c6-05fe3630c5bd"},"vehicle_type_id":"4","last_reported":1752992155,"current_range_meters":18000,"station_id":"ce4bhnp2rcd13ifvqh0g","pricing_plan_id":"cebpf4jnsgd1na2vs0mg"},{"bike_id":"5ccf6fcb-646f-4acf-9fbc-c7f16de7c973","system_id":"levelo_inurba_marseille","lat":43.32636,"lon":5.42382,"is_reserved":false,"is_disabled":false,"rental_uris":{"android":"levelo://app?vid=5ccf6fcb-646f-4acf-9fbc-c7f16de7c973","ios":"levelo://app?vid=5ccf6fcb-646f-4acf-9fbc-c7f16de7c973"},"vehicle_type_id":"4","last_reported":1752992155,"current_range_meters":18000,"station_id":"","pricing_plan_id":"cebpf4jnsgd1na2vs0mg"},{"bike_id":"8979afbb-d831-492b-8bd1-2b5d774796f7","system_id":"levelo_inurba_marseille","lat":43.27067,"lon":5.42282,"is_reserved":false,"is_disabled":false,"rental_uris":{"android":"levelo://app?vid=8979afbb-d831-492b-8bd1-2b5d774796f7","ios":"levelo://app?vid=8979afbb-d831-492b-8bd1-2b5d774796f7"},"vehicle_type_id":"4","last_reported":1752992155,"current_range_meters":18000,"station_id":"ce4bhk92rcd13ifvqgb0","pricing_plan_id":"cebpf4jnsgd1na2vs0mg"},{"bike_id":"fb34a4b1-7800-4261-8e1b-5255044d1839","system_id":"levelo_inurba_marseille","lat":43.308841,"lon":5.3964,"is_reserved":false,"is_disabled":false,"rental_uris":{"android":"levelo://app?vid=fb34a4b1-7800-4261-8e1b-5255044d1839","ios":"levelo://app?vid=fb34a4b1-7800-4261-8e1b-5255044d1839"},"vehicle_type_id":"4","last_reported":1752992155,"current_range_meters":18000,"station_id":"ce4bh012rcd13ifvqcv0","pricing_plan_id":"cebpf4jnsgd1na2vs0mg"},{"bike_id":"47c42873-a005-478e-953d-7fdb4918ff42","system_id":"levelo_inurba_marseille","lat":43.27991,"lon":5.416616,"is_reserved":false,"is_disabled":false,"rental_uris":{"android":"levelo://app?vid=47c42873-a005-478e-953d-7fdb4918ff42","ios":"levelo://app?vid=47c42873-a005-478e-953d-7fdb4918ff42"},"vehicle_type_id":"4","last_reported":1752992155,"current_range_meters":18000,"station_id":"ce4bho12rcd13ifvqh1g","pricing_plan_id":"cebpf4jnsgd1na2vs0mg"},{"bike_id":"e1fc8003-5085-4a7f-a635-4b1964c67b70","system_id":"levelo_inurba_marseille","lat":43.28469,"lon":5.3843,"is_reserved":false,"is_disabled":false,"rental_uris":{"android":"levelo://app?vid=e1fc8003-5085-4a7f-a635-4b1964c67b70","ios":"levelo://app?vid=e1fc8003-5085-4a7f-a635-4b1964c67b70"},"vehicle_type_id":"4","last_reported":1752992155,"current_range_meters":18000,"station_id":"ce4bh512rcd13ifvqe3g","pricing_plan_id":"cebpf4jnsgd1na2vs0mg"},{"bike_id":"42752829-3ee2-4e84-849d-429017304915","system_id":"levelo_inurba_marseille","lat":43.28483,"lon":5.35874,"is_reserved":false,"is_disabled":true,"rental_uris":{"android":"levelo://app?vid=42752829-3ee2-4e84-849d-429017304915","ios":"levelo://app?vid=42752829-3ee2-4e84-849d-429017304915"},"vehicle_type_id":"4","last_reported":1752992155,"current_range_meters":18000,"station_id":"ce4bhah2rcd13ifvqei0","pricing_plan_id":"cebpf4jnsgd1na2vs0mg"},{"bike_id":"3a0ad0b3-730c-4b6f-afc8-d25401cb7d69","system_id":"levelo_inurba_marseille","lat":43.24662,"lon":5.3815,"is_reserved":false,"is_disabled":false,"rental_uris":{"android":"levelo://app?vid=3a0ad0b3-730c-4b6f-afc8-d25401cb7d69","ios":"levelo://app?vid=3a0ad0b3-730c-4b6f-afc8-d25401cb7d69"},"vehicle_type_id":"4","last_reported":1752992155,"current_range_meters":18000,"station_id":"ce4bhih2rcd13ifvqfr0","pricing_plan_id":"cebpf4jnsgd1na2vs0mg"},{"bike_id":"8e49fe63-ad1b-4407-9b4f-77d4434f8cbe","system_id":"levelo_inurba_marseille","lat":43.30165,"lon":5.38077,"is_reserved":false,"is_disabled":false,"rental_uris":{"android":"levelo://app?vid=8e49fe63-ad1b-4407-9b4f-77d4434f8cbe","ios":"levelo://app?vid=8e49fe63-ad1b-4407-9b4f-77d4434f8cbe"},"vehicle_type_id":"4","last_reported":1752992155,"current_range_meters":18000,"station_id":"ce4bgjp2rcd13ifvqbh0","pricing_plan_id":"cebpf4jnsgd1na2vs0mg"},{"bike_id":"139faf0b-839b-488e-a9fc-ddb492762d02","system_id":"levelo_inurba_marseille","lat":43.26066,"lon":5.39394,"is_reserved":false,"is_disabled":false,"rental_uris":{"android":"levelo://app?vid=139faf0b-839b-488e-a9fc-ddb492762d02","ios":"levelo://app?vid=139faf0b-839b-488e-a9fc-ddb492762d02"},"vehicle_type_id":"4","last_reported":1752992155,"current_range_meters":17600,"station_id":"ce4bhh92rcd13ifvqfj0","pricing_plan_id":"cebpf4jnsgd1na2vs0mg"},{"bike_id":"57f20548-4295-4a6c-8b6e-ed57eb793ca5","system_id":"levelo_inurba_marseille","lat":43.30739,"lon":5.42436,"is_reserved":false,"is_disabled":false,"rental_uris":{"android":"levelo://app?vid=57f20548-4295-4a6c-8b6e-ed57eb793ca5","ios":"levelo://app?vid=57f20548-4295-4a6c-8b6e-ed57eb793ca5"},"vehicle_type_id":"4","last_reported":1752992155,"current_range_meters":18800,"station_id":"st_cvj6ca6bvosntc0bfgr0","pricing_plan_id":"cebpf4jnsgd1na2vs0mg"},{"bike_id":"6da7ca7d-6633-429b-9803-313dc5de4c11","system_id":"levelo_inurba_marseille","lat":43.22507,"lon":5.34783,"is_reserved":false,"is_disabled":false,"rental_uris":{"android":"levelo://app?vid=6da7ca7d-6633-429b-9803-313dc5de4c11","ios":"levelo://app?vid=6da7ca7d-6633-429b-9803-313dc5de4c11"},"vehicle_type_id":"4","last_reported":1752992155,"current_range_meters":18800,"station_id":"st_cvj5dfep6f1abm77gieg","pricing_plan_id":"cebpf4jnsgd1na2vs0mg"},{"bike_id":"ebd2b1bf-0ea2-4316-b168-5f0a5f017e31","system_id":"levelo_inurba_marseille","lat":43.32324,"lon":5.40609,"is_reserved":false,"is_disabled":false,"rental_uris":{"android":"levelo://app?vid=ebd2b1bf-0ea2-4316-b168-5f0a5f017e31","ios":"levelo://app?vid=ebd2b1bf-0ea2-4316-b168-5f0a5f017e31"},"vehicle_type_id":"4","last_reported":1752992155,"current_range_meters":18800,"station_id":"ce4bhq92rcd13ifvqhjg","pricing_plan_id":"cebpf4jnsgd1na2vs0mg"},{"bike_id":"35dce746-9cde-485b-a425-bee7818fb38c","system_id":"levelo_inurba_marseille","lat":43.30781,"lon":5.37658,"is_reserved":false,"is_disabled":false,"rental_uris":{"android":"levelo://app?vid=35dce746-9cde-485b-a425-bee7818fb38c","ios":"levelo://app?vid=35dce746-9cde-485b-a425-bee7818fb38c"},"vehicle_type_id":"4","last_reported":1752992155,"current_range_meters":18800,"station_id":"ce4bgv92rcd13ifvqcq0","pricing_plan_id":"cebpf4jnsgd1na2vs0mg"},{"bike_id":"01ef6f38-0cb9-4831-9c9a-0f76f326e484","system_id":"levelo_inurba_marseille","lat":43.2899,"lon":5.3561,"is_reserved":false,"is_disabled":true,"rental_uris":{"android":"levelo://app?vid=01ef6f38-0cb9-4831-9c9a-0f76f326e484","ios":"levelo://app?vid=01ef6f38-0cb9-4831-9c9a-0f76f326e484"},"vehicle_type_id":"4","last_reported":1752992155,"current_range_meters":18800,"station_id":"ce4bhb92rcd13ifvqen0","pricing_plan_id":"cebpf4jnsgd1na2vs0mg"},{"bike_id":"a9596b79-d564-411a-9d5a-b0c406370b53","system_id":"levelo_inurba_marseille","lat":43.29527,"lon":5.38538,"is_reserved":false,"is_disabled":false,"rental_uris":{"android":"levelo://app?vid=a9596b79-d564-411a-9d5a-b0c406370b53","ios":"levelo://app?vid=a9596b79-d564-411a-9d5a-b0c406370b53"},"vehicle_type_id":"4","last_reported":1752992155,"current_range_meters":18000,"station_id":"ce4bgih2rcd13ifvqba0","pricing_plan_id":"cebpf4jnsgd1na2vs0mg"},{"bike_id":"685f2120-221e-452d-95f5-ad6ef7024cb8","system_id":"levelo_inurba_marseille","lat":43.30828,"lon":5.43516,"is_reserved":false,"is_disabled":false,"rental_uris":{"android":"levelo://app?vid=685f2120-221e-452d-95f5-ad6ef7024cb8","ios":"levelo://app?vid=685f2120-221e-452d-95f5-ad6ef7024cb8"},"vehicle_type_id":"4","last_reported":1752992155,"current_range_meters":18800,"station_id":"ce4bhph2rcd13ifvqheg","pricing_plan_id":"cebpf4jnsgd1na2vs0mg"},{"bike_id":"c17e1af1-d49f-41db-8ac1-44ed28786385","system_id":"levelo_inurba_marseille","lat":43.310665,"lon":5.383576,"is_reserved":false,"is_disabled":false,"rental_uris":{"android":"levelo://app?vid=c17e1af1-d49f-41db-8ac1-44ed28786385","ios":"levelo://app?vid=c17e1af1-d49f-41db-8ac1-44ed28786385"},"vehicle_type_id":"4","last_reported":1752992155,"current_range_meters":18800,"station_id":"ce4bgv92rcd13ifvqcr0","pricing_plan_id":"cebpf4jnsgd1na2vs0mg"},{"bike_id":"ae2679a0-b2a2-4165-87f5-73851922f36f","system_id":"levelo_inurba_marseille","lat":43.24973,"lon":5.41637,"is_reserved":false,"is_disabled":false,"rental_uris":{"android":"levelo://app?vid=ae2679a0-b2a2-4165-87f5-73851922f36f","ios":"levelo://app?vid=ae2679a0-b2a2-4165-87f5-73851922f36f"},"vehicle_type_id":"4","last_reported":1752992155,"current_range_meters":18800,"station_id":"","pricing_plan_id":"cebpf4jnsgd1na2vs0mg"},{"bike_id":"e88f0305-2351-4f37-a6a2-061745afce45","system_id":"levelo_inurba_marseille","lat":43.24078,"lon":5.37764,"is_reserved":false,"is_disabled":false,"rental_uris":{"android":"levelo://app?vid=e88f0305-2351-4f37-a6a2-061745afce45","ios":"levelo://app?vid=e88f0305-2351-4f37-a6a2-061745afce45"},"vehicle_type_id":"4","last_reported":1752992155,"current_range_meters":18800,"station_id":"ce4bhnp2rcd13ifvqgvg","pricing_plan_id":"cebpf4jnsgd1na2vs0mg"},{"bike_id":"302bb4c0-dc1d-4f3f-af05-aa9b397ba02e","system_id":"levelo_inurba_marseille","lat":43.24179,"lon":5.39718,"is_reserved":false,"is_disabled":false,"rental_uris":{"android":"levelo://app?vid=302bb4c0-dc1d-4f3f-af05-aa9b397ba02e","ios":"levelo://app?vid=302bb4c0-dc1d-4f3f-af05-aa9b397ba02e"},"vehicle_type_id":"4","last_reported":1752992155,"current_range_meters":18800,"station_id":"ce4bhn12rcd13ifvqgpg","pricing_plan_id":"cebpf4jnsgd1na2vs0mg"},{"bike_id":"de9a47b5-edea-465f-9387-34f73bc29d46","system_id":"levelo_inurba_marseille","lat":43.22507,"lon":5.34802,"is_reserved":false,"is_disabled":false,"rental_uris":{"android":"levelo://app?vid=de9a47b5-edea-465f-9387-34f73bc29d46","ios":"levelo://app?vid=de9a47b5-edea-465f-9387-34f73bc29d46"},"vehicle_type_id":"4","last_reported":1752992155,"current_range_meters":18800,"station_id":"st_cvj5dfep6f1abm77gieg","pricing_plan_id":"cebpf4jnsgd1na2vs0mg"},{"bike_id":"d00332e4-2742-48c6-90d1-ab5a020d3e0e","system_id":"levelo_inurba_marseille","lat":43.299668,"lon":5.384679,"is_reserved":false,"is_disabled":false,"rental_uris":{"android":"levelo://app?vid=d00332e4-2742-48c6-90d1-ab5a020d3e0e","ios":"levelo://app?vid=d00332e4-2742-48c6-90d1-ab5a020d3e0e"},"vehicle_type_id":"4","last_reported":1752992155,"current_range_meters":18800,"station_id":"ce4bgj92rcd13ifvqbd0","pricing_plan_id":"cebpf4jnsgd1na2vs0mg"},{"bike_id":"1dc9d374-767e-472d-91d4-e51cc93adf0a","system_id":"levelo_inurba_marseille","lat":43.30877,"lon":5.39643,"is_reserved":false,"is_disabled":false,"rental_uris":{"android":"levelo://app?vid=1dc9d374-767e-472d-91d4-e51cc93adf0a","ios":"levelo://app?vid=1dc9d374-767e-472d-91d4-e51cc93adf0a"},"vehicle_type_id":"4","last_reported":1752992155,"current_range_meters":19200,"station_id":"ce4bh012rcd13ifvqcv0","pricing_plan_id":"cebpf4jnsgd1na2vs0mg"},{"bike_id":"d007a63b-662c-4b54-b17f-51fadf0cd81e","system_id":"levelo_inurba_marseille","lat":43.22501,"lon":5.34782,"is_reserved":false,"is_disabled":false,"rental_uris":{"android":"levelo://app?vid=d007a63b-662c-4b54-b17f-51fadf0cd81e","ios":"levelo://app?vid=d007a63b-662c-4b54-b17f-51fadf0cd81e"},"vehicle_type_id":"4","last_reported":1752992155,"current_range_meters":19200,"station_id":"st_cvj5dfep6f1abm77gieg","pricing_plan_id":"cebpf4jnsgd1na2vs0mg"},{"bike_id":"4c319678-95f1-4981-b0ec-e1b9c7462a70","system_id":"levelo_inurba_marseille","lat":43.30536,"lon":5.36534,"is_reserved":false,"is_disabled":false,"rental_uris":{"android":"levelo://app?vid=4c319678-95f1-4981-b0ec-e1b9c7462a70","ios":"levelo://app?vid=4c319678-95f1-4981-b0ec-e1b9c7462a70"},"vehicle_type_id":"4","last_reported":1752992155,"current_range_meters":18800,"station_id":"ce4bgs12rcd13ifvqcag","pricing_plan_id":"cebpf4jnsgd1na2vs0mg"},{"bike_id":"3d36c590-bfb3-4f3d-a821-3b0275041fa7","system_id":"levelo_inurba_marseille","lat":43.30426,"lon":5.41311,"is_reserved":false,"is_disabled":false,"rental_uris":{"android":"levelo://app?vid=3d36c590-bfb3-4f3d-a821-3b0275041fa7","ios":"levelo://app?vid=3d36c590-bfb3-4f3d-a821-3b0275041fa7"},"vehicle_type_id":"4","last_reported":1752992155,"current_range_meters":19200,"station_id":"ce4bhop2rcd13ifvqh8g","pricing_plan_id":"cebpf4jnsgd1na2vs0mg"},{"bike_id":"fb51e2c6-0f26-4a4b-8578-6d900e45b299","system_id":"levelo_inurba_marseille","lat":43.29967,"lon":5.371657,"is_reserved":false,"is_disabled":false,"rental_uris":{"android":"levelo://app?vid=fb51e2c6-0f26-4a4b-8578-6d900e45b299","ios":"levelo://app?vid=fb51e2c6-0f26-4a4b-8578-6d900e45b299"},"vehicle_type_id":"4","last_reported":1752992155,"current_range_meters":19200,"station_id":"ce4bgr92rcd13ifvqc7g","pricing_plan_id":"cebpf4jnsgd1na2vs0mg"},{"bike_id":"f4060b56-2254-4534-a1d5-8f84c31b85ec","system_id":"levelo_inurba_marseille","lat":43.28623,"lon":5.3822,"is_reserved":false,"is_disabled":false,"rental_uris":{"android":"levelo://app?vid=f4060b56-2254-4534-a1d5-8f84c31b85ec","ios":"levelo://app?vid=f4060b56-2254-4534-a1d5-8f84c31b85ec"},"vehicle_type_id":"4","last_reported":1752992155,"current_range_meters":19200,"station_id":"","pricing_plan_id":"cebpf4jnsgd1na2vs0mg"},{"bike_id":"2a6520b8-14a4-40d1-808b-4ae697cfdaab","system_id":"levelo_inurba_marseille","lat":43.307922,"lon":5.376531,"is_reserved":false,"is_disabled":false,"rental_uris":{"android":"levelo://app?vid=2a6520b8-14a4-40d1-808b-4ae697cfdaab","ios":"levelo://app?vid=2a6520b8-14a4-40d1-808b-4ae697cfdaab"},"vehicle_type_id":"4","last_reported":1752992155,"current_range_meters":19200,"station_id":"ce4bgv92rcd13ifvqcq0","pricing_plan_id":"cebpf4jnsgd1na2vs0mg"},{"bike_id":"054459cc-5be1-4b82-9260-a4f74104380f","system_id":"levelo_inurba_marseille","lat":43.29552,"lon":5.42298,"is_reserved":false,"is_disabled":false,"rental_uris":{"android":"levelo://app?vid=054459cc-5be1-4b82-9260-a4f74104380f","ios":"levelo://app?vid=054459cc-5be1-4b82-9260-a4f74104380f"},"vehicle_type_id":"4","last_reported":1752992155,"current_range_meters":19200,"station_id":"ce4bhph2rcd13ifvqhdg","pricing_plan_id":"cebpf4jnsgd1na2vs0mg"},{"bike_id":"969359d5-14db-40cb-9aa1-bd271157e733","system_id":"levelo_inurba_marseille","lat":43.28117,"lon":5.37847,"is_reserved":false,"is_disabled":false,"rental_uris":{"android":"levelo://app?vid=969359d5-14db-40cb-9aa1-bd271157e733","ios":"levelo://app?vid=969359d5-14db-40cb-9aa1-bd271157e733"},"vehicle_type_id":"4","last_reported":1752992155,"current_range_meters":19200,"station_id":"ce4bha12rcd13ifvqee0","pricing_plan_id":"cebpf4jnsgd1na2vs0mg"},{"bike_id":"02a92174-f388-4305-9367-108df8ee8e39","system_id":"levelo_inurba_marseille","lat":43.251161,"lon":5.403247,"is_reserved":false,"is_disabled":false,"rental_uris":{"android":"levelo://app?vid=02a92174-f388-4305-9367-108df8ee8e39","ios":"levelo://app?vid=02a92174-f388-4305-9367-108df8ee8e39"},"vehicle_type_id":"4","last_reported":1752992155,"current_range_meters":19200,"station_id":"ce4bhlh2rcd13ifvqgig","pricing_plan_id":"cebpf4jnsgd1na2vs0mg"},{"bike_id":"e9af8538-caea-496c-9f46-eb73552ae361","system_id":"levelo_inurba_marseille","lat":43.28477,"lon":5.38423,"is_reserved":false,"is_disabled":false,"rental_uris":{"android":"levelo://app?vid=e9af8538-caea-496c-9f46-eb73552ae361","ios":"levelo://app?vid=e9af8538-caea-496c-9f46-eb73552ae361"},"vehicle_type_id":"4","last_reported":1752992155,"current_range_meters":19200,"station_id":"ce4bh512rcd13ifvqe3g","pricing_plan_id":"cebpf4jnsgd1na2vs0mg"},{"bike_id":"c6f13c59-2793-4a1e-87aa-6f0d71252623","system_id":"levelo_inurba_marseille","lat":43.298984,"lon":5.436691,"is_reserved":false,"is_disabled":false,"rental_uris":{"android":"levelo://app?vid=c6f13c59-2793-4a1e-87aa-6f0d71252623","ios":"levelo://app?vid=c6f13c59-2793-4a1e-87aa-6f0d71252623"},"vehicle_type_id":"4","last_reported":1752992155,"current_range_meters":19600,"station_id":"ce4bhpp2rcd13ifvqhfg","pricing_plan_id":"cebpf4jnsgd1na2vs0mg"},{"bike_id":"0281a9fa-a6a3-4d96-bbdb-496f4ad0d92c","system_id":"levelo_inurba_marseille","lat":43.23187,"lon":5.39973,"is_reserved":false,"is_disabled":false,"rental_uris":{"android":"levelo://app?vid=0281a9fa-a6a3-4d96-bbdb-496f4ad0d92c","ios":"levelo://app?vid=0281a9fa-a6a3-4d96-bbdb-496f4ad0d92c"},"vehicle_type_id":"4","last_reported":1752992155,"current_range_meters":19600,"station_id":"ce4bhn12rcd13ifvqgqg","pricing_plan_id":"cebpf4jnsgd1na2vs0mg"},{"bike_id":"d100812f-9e77-4b3a-a11b-18211b570584","system_id":"levelo_inurba_marseille","lat":43.32505,"lon":5.36581,"is_reserved":false,"is_disabled":false,"rental_uris":{"android":"levelo://app?vid=d100812f-9e77-4b3a-a11b-18211b570584","ios":"levelo://app?vid=d100812f-9e77-4b3a-a11b-18211b570584"},"vehicle_type_id":"4","last_reported":1752992155,"current_range_meters":19600,"station_id":"ce4bhs12rcd13ifvqhvg","pricing_plan_id":"cebpf4jnsgd1na2vs0mg"},{"bike_id":"ecdd5e30-1286-47e3-8757-f5bc3e32c5cf","system_id":"levelo_inurba_marseille","lat":43.29004,"lon":5.35614,"is_reserved":false,"is_disabled":false,"rental_uris":{"android":"levelo://app?vid=ecdd5e30-1286-47e3-8757-f5bc3e32c5cf","ios":"levelo://app?vid=ecdd5e30-1286-47e3-8757-f5bc3e32c5cf"},"vehicle_type_id":"4","last_reported":1752992155,"current_range_meters":19600,"station_id":"ce4bhb92rcd13ifvqen0","pricing_plan_id":"cebpf4jnsgd1na2vs0mg"},