{"last_updated":1752534638,"ttl":60,"version":"2.2","data":{"bikes":[{"bike_id":"feb1ed1d-b0db-45cc-9e1b-7311a8d72058","system_id":"levelo_inurba_marseille","lat":43.33747,"lon":5.37463,"is_reserved":false,"is_disabled":false,"rental_uris":{"android":"levelo://app?vid=feb1ed1d-b0db-45cc-9e1b-7311a8d72058","ios":"levelo://app?vid=feb1ed1d-b0db-45cc-9e1b-7311a8d72058"},"vehicle_type_id":"1","last_reported":1752534638,"current_range_meters":36000,"station_id":"","pricing_plan_id":"cebpf4jnsgd1na2vs0mg"},{"bike_id":"77794ff1-13f2-4ca2-a9a2-c9713305d70c","system_id":"levelo_inurba_marseille","lat":43.28603,"lon":5.37048,"is_reserved":false,"is_disabled":true,"rental_uris":{"android":"levelo://app?vid=77794ff1-13f2-4ca2-a9a2-c9713305d70c","ios":"levelo://app?vid=77794ff1-13f2-4ca2-a9a2-c9713305d70c"},"vehicle_type_id":"4","last_reported":1752534638,"current_range_meters":2800,"station_id":"ce4bht12rcd13ifvqi60","pricing_plan_id":"cebpf4jnsgd1na2vs0mg"},{"bike_id":"8bfcabd2-2c3a-455f-8283-89367fdb540b","system_id":"levelo_inurba_marseille","lat":43.27915,"lon":5.39586,"is_reserved":false,"is_disabled":false,"rental_uris":{"android":"levelo://app?vid=8bfcabd2-2c3a-455f-8283-89367fdb540b","ios":"levelo://app?vid=8bfcabd2-2c3a-455f-8283-89367fdb540b"},"vehicle_type_id":"4","last_reported":1752534638,"current_range_meters":2800,"station_id":"ce4bhf92rcd13ifvqf40","pricing_plan_id":"cebpf4jnsgd1na2vs0mg"},{"bike_id":"8ecd88a4-6230-4255-851a-e0ef5915e61d","system_id":"levelo_inurba_marseille","lat":43.28845,"lon":5.38436,"is_reserved":false,"is_disabled":false,"rental_uris":{"android":"levelo://app?vid=8ecd88a4-6230-4255-851a-e0ef5915e61d","ios":"levelo://app?vid=8ecd88a4-6230-4255-851a-e0ef5915e61d"},"vehicle_type_id":"4","last_reported":1752534638,"current_range_meters":2800,"station_id":"","pricing_plan_id":"cebpf4jnsgd1na2vs0mg"},{"bike_id":"0abe3817-244e-4ba5-9c4f-12985ec6e571","system_id":"levelo_inurba_marseille","lat":43.29709,"lon":5.36615,"is_reserved":false,"is_disabled":false,"rental_uris":{"android":"levelo://app?vid=0abe3817-244e-4ba5-9c4f-12985ec6e571","ios":"levelo://app?vid=0abe3817-244e-4ba5-9c4f-12985ec6e571"},"vehicle_type_id":"4","last_reported":1752534638,"current_range_meters":2800,"station_id":"ce4bgn12rcd13ifvqbt0","pricing_plan_id":"cebpf4jnsgd1na2vs0mg"},{"bike_id":"a402b987-ce83-4da0-b4f6-e6b6c481bfbf","system_id":"levelo_inurba_marseille","lat":43.29563,"lon":5.39976,"is_reserved":false,"is_disabled":false,"rental_uris":{"android":"levelo://app?vid=a402b987-ce83-4da0-b4f6-e6b6c481bfbf","ios":"levelo://app?vid=a402b987-ce83-4da0-b4f6-e6b6c481bfbf"},"vehicle_type_id":"4","last_reported":1752534638,"current_range_meters":3200,"station_id":"ce4bh312rcd13ifvqdj0","pricing_plan_id":"cebpf4jnsgd1na2vs0mg"},{"bike_id":"91ecf729-eb7b-4f07-8c1d-55d0f329a189","system_id":"levelo_inurba_marseille","lat":43.26803,"lon":5.40264,"is_reserved":false,"is_disabled":false,"rental_uris":{"android":"levelo://app?vid=91ecf729-eb7b-4f07-8c1d-55d0f329a189","ios":"levelo://app?vid=91ecf729-eb7b-4f07-8c1d-55d0f329a189"},"vehicle_type_id":"4","last_reported":1752534638,"current_range_meters":3200,"station_id":"ce501612rcd8frsf0b60","pricing_plan_id":"cebpf4jnsgd1na2vs0mg"},{"bike_id":"b7b82335-3ff8-485f-b9a0-2b90a13543a3","system_id":"levelo_inurba_marseille","lat":43.27259,"lon":5.41125,"is_reserved":false,"is_disabled":false,"rental_uris":{"android":"levelo://app?vid=b7b82335-3ff8-485f-b9a0-2b90a13543a3","ios":"levelo://app?vid=b7b82335-3ff8-485f-b9a0-2b90a13543a3"},"vehicle_type_id":"4","last_reported":1752534638,"current_range_meters":3200,"station_id":"","pricing_plan_id":"cebpf4jnsgd1na2vs0mg"},{"bike_id":"44dd919c-32df-4fe9-8b1c-c9988fb68d5b","system_id":"levelo_inurba_marseille","lat":43.26983,"lon":5.40257,"is_reserved":false,"is_disabled":true,"rental_uris":{"android":"levelo://app?vid=44dd919c-32df-4fe9-8b1c-c9988fb68d5b","ios":"levelo://app?vid=44dd919c-32df-4fe9-8b1c-c9988fb68d5b"},"vehicle_type_id":"4","last_reported":1752534638,"current_range_meters":3600,"station_id":"cjm6bp8fraef2m0cb0m0","pricing_plan_id":"cebpf4jnsgd1na2vs0mg"},{"bike_id":"a9dc6b5c-66c6-469c-8b2a-d14693b17d11","system_id":"levelo_inurba_marseille","lat":43.3042,"lon":5.39735,"is_reserved":false,"is_disabled":false,"rental_uris":{"android":"levelo://app?vid=a9dc6b5c-66c6-469c-8b2a-d14693b17d11","ios":"levelo://app?vid=a9dc6b5c-66c6-469c-8b2a-d14693b17d11"},"vehicle_type_id":"4","last_reported":1752534638,"current_range_meters":3600,"station_id":"ce4bh092rcd13ifvqd20","pricing_plan_id":"cebpf4jnsgd1na2vs0mg"},{"bike_id":"470d1e9d-8c05-40b8-a6b2-039f183b9f6a","system_id":"levelo_inurba_marseille","lat":43.23184,"lon":5.3556,"is_reserved":false,"is_disabled":true,"rental_uris":{"android":"levelo://app?vid=470d1e9d-8c05-40b8-a6b2-039f183b9f6a","ios":"levelo://app?vid=470d1e9d-8c05-40b8-a6b2-039f183b9f6a"},"vehicle_type_id":"4","last_reported":1752534638,"current_range_meters":3600,"station_id":"ce4bhu92rcd13ifvqi70","pricing_plan_id":"cebpf4jnsgd1na2vs0mg"},{"bike_id":"9efb8360-8563-45b9-96b2-a06e314abdb2","system_id":"levelo_inurba_marseille","lat":43.21183,"lon":5.35082,"is_reserved":false,"is_disabled":false,"rental_uris":{"android":"levelo://app?vid=9efb8360-8563-45b9-96b2-a06e314abdb2","ios":"levelo://app?vid=9efb8360-8563-45b9-96b2-a06e314abdb2"},"vehicle_type_id":"4","last_reported":1752534638,"current_range_meters":3600,"station_id":"st_cvj6sg6p6f1abm77japg","pricing_plan_id":"cebpf4jnsgd1na2vs0mg"},{"bike_id":"6e0e2f23-6c02-4390-9409-f61e67d0abc9","system_id":"levelo_inurba_marseille","lat":43.28528,"lon":5.37152,"is_reserved":false,"is_disabled":false,"rental_uris":{"android":"levelo://app?vid=6e0e2f23-6c02-4390-9409-f61e67d0abc9","ios":"levelo://app?vid=6e0e2f23-6c02-4390-9409-f61e67d0abc9"},"vehicle_type_id":"4","last_reported":1752534638,"current_range_meters":4000,"station_id":"","pricing_plan_id":"cebpf4jnsgd1na2vs0mg"},{"bike_id":"79d189a6-cfe1-4f39-80c7-75128a06db7e","system_id":"levelo_inurba_marseille","lat":43.25122,"lon":5.40319,"is_reserved":false,"is_disabled":false,"rental_uris":{"android":"levelo://app?vid=79d189a6-cfe1-4f39-80c7-75128a06db7e","ios":"levelo://app?vid=79d189a6-cfe1-4f39-80c7-75128a06db7e"},"vehicle_type_id":"4","last_reported":1752534638,"current_range_meters":4400,"station_id":"ce4bhlh2rcd13ifvqgig","pricing_plan_id":"cebpf4jnsgd1na2vs0mg"},{"bike_id":"b6677646-8030-4979-b903-f9dd7b3b07fe","system_id":"levelo_inurba_marseille","lat":43.28106,"lon":5.37845,"is_reserved":false,"is_disabled":false,"rental_uris":{"android":"levelo://app?vid=b6677646-8030-4979-b903-f9dd7b3b07fe","ios":"levelo://app?vid=b6677646-8030-4979-b903-f9dd7b3b07fe"},"vehicle_type_id":"4","last_reported":1752534638,"current_range_meters":4400,"station_id":"ce4bha12rcd13ifvqee0","pricing_plan_id":"cebpf4jnsgd1na2vs0mg"},{"bike_id":"9099e6ad-edc6-4691-b49b-c7eec1e28124","system_id":"levelo_inurba_marseille","lat":43.26586,"lon":5.39023,"is_reserved":false,"is_disabled":false,"rental_uris":{"android":"levelo://app?vid=9099e6ad-edc6-4691-b49b-c7eec1e28124","ios":"levelo://app?vid=9099e6ad-edc6-4691-b49b-c7eec1e28124"},"vehicle_type_id":"4","last_reported":1752534638,"current_range_meters":5600,"station_id":"ce4bhe12rcd13ifvqf30","pricing_plan_id":"cebpf4jnsgd1na2vs0mg"},{"bike_id":"ab3d8b52-2cc7-4310-8601-0a3d306d5dc9","system_id":"levelo_inurba_marseille","lat":43.30931,"lon":5.40144,"is_reserved":false,"is_disabled":false,"rental_uris":{"android":"levelo://app?vid=ab3d8b52-2cc7-4310-8601-0a3d306d5dc9","ios":"levelo://app?vid=ab3d8b52-2cc7-4310-8601-0a3d306d5dc9"},"vehicle_type_id":"4","last_reported":1752534638,"current_range_meters":5600,"station_id":"ce4bgvp2rcd13ifvqct0","pricing_plan_id":"cebpf4jnsgd1na2vs0mg"},{"bike_id":"664993c5-21a0-46af-8648-94cd232db10b","system_id":"levelo_inurba_marseille","lat":43.32355,"lon":5.36759,"is_reserved":false,"is_disabled":false,"rental_uris":{"android":"levelo://app?vid=664993c5-21a0-46af-8648-94cd232db10b","ios":"levelo://app?vid=664993c5-21a0-46af-8648-94cd232db10b"},"vehicle_type_id":"4","last_reported":1752534638,"current_range_meters":5600,"station_id":"ce4bhsh2rcd13ifvqi2g","pricing_plan_id":"cebpf4jnsgd1na2vs0mg"},{"bike_id":"9c9d500b-2316-4a90-b23c-942efb7e1b2a","system_id":"levelo_inurba_marseille","lat":43.26197,"lon":5.37933,"is_reserved":false,"is_disabled":false,"rental_uris":{"android":"levelo://app?vid=9c9d500b-2316-4a90-b23c-942efb7e1b2a","ios":"levelo://app?vid=9c9d500b-2316-4a90-b23c-942efb7e1b2a"},"vehicle_type_id":"4","last_reported":1752534638,"current_range_meters":6000,"station_id":"ce4bhjp2rcd13ifvqg90","pricing_plan_id":"cebpf4jnsgd1na2vs0mg"},{"bike_id":"2f22bd65-209f-4888-bbbc-5d3e5833619e","system_id":"levelo_inurba_marseille","lat":43.324783,"lon":5.41512,"is_reserved":false,"is_disabled":false,"rental_uris":{"android":"levelo://app?vid=2f22bd65-209f-4888-bbbc-5d3e5833619e","ios":"levelo://app?vid=2f22bd65-209f-4888-bbbc-5d3e5833619e"},"vehicle_type_id":"4","last_reported":1752534638,"current_range_meters":5600,"station_id":"ce4bhq12rcd13ifvqhhg","pricing_plan_id":"cebpf4jnsgd1na2vs0mg"},{"bike_id":"c5fe914d-a9c4-4784-aa86-5f55fad6ba5d","system_id":"levelo_inurba_marseille","lat":43.31053,"lon":5.38357,"is_reserved":false,"is_disabled":true,"rental_uris":{"android":"levelo://app?vid=c5fe914d-a9c4-4784-aa86-5f55fad6ba5d","ios":"levelo://app?vid=c5fe914d-a9c4-4784-aa86-5f55fad6ba5d"},"vehicle_type_id":"4","last_reported":1752534638,"current_range_meters":6400,"station_id":"ce4bgv92rcd13ifvqcr0","pricing_plan_id":"cebpf4jnsgd1na2vs0mg"},{"bike_id":"fc402b86-896a-4fa0-8c4f-86b09c40cb8e","system_id":"levelo_inurba_marseille","lat":43.313013,"lon":5.38532,"is_reserved":false,"is_disabled":false,"rental_uris":{"android":"levelo://app?vid=fc402b86-896a-4fa0-8c4f-86b09c40cb8e","ios":"levelo://app?vid=fc402b86-896a-4fa0-8c4f-86b09c40cb8e"},"vehicle_type_id":"4","last_reported":1752534638,"current_range_meters":6400,"station_id":"","pricing_plan_id":"cebpf4jnsgd1na2vs0mg"},{"bike_id":"6d5ef5c3-c9e8-48e5-9224-616dc961f132","system_id":"levelo_inurba_marseille","lat":43.29256,"lon":5.40151,"is_reserved":false,"is_disabled":false,"rental_uris":{"android":"levelo://app?vid=6d5ef5c3-c9e8-48e5-9224-616dc961f132","ios":"levelo://app?vid=6d5ef5c3-c9e8-48e5-9224-616dc961f132"},"vehicle_type_id":"4","last_reported":1752534638,"current_range_meters":6400,"station_id":"ce4bh312rcd13ifvqdk0","pricing_plan_id":"cebpf4jnsgd1na2vs0mg"},{"bike_id":"3e820b7c-4efa-4d5e-b32a-9c7ac21cf446","system_id":"levelo_inurba_marseille","lat":43.287364,"lon":5.399905,"is_reserved":false,"is_disabled":false,"rental_uris":{"android":"levelo://app?vid=3e820b7c-4efa-4d5e-b32a-9c7ac21cf446","ios":"levelo://app?vid=3e820b7c-4efa-4d5e-b32a-9c7ac21cf446"},"vehicle_type_id":"4","last_reported":1752534638,"current_range_meters":6400,"station_id":"ce4bh492rcd13ifvqdug","pricing_plan_id":"cebpf4jnsgd1na2vs0mg"},{"bike_id":"f23760ff-ab61-4853-aa67-28aac93822c1","system_id":"levelo_inurba_marseille","lat":43.337444,"lon":5.374475,"is_reserved":false,"is_disabled":false,"rental_uris":{"android":"levelo://app?vid=f23760ff-ab61-4853-aa67-28aac93822c1","ios":"levelo://app?vid=f23760ff-ab61-4853-aa67-28aac93822c1"},"vehicle_type_id":"4","last_reported":1752534638,"current_range_meters":6400,"station_id":"","pricing_plan_id":"cebpf4jnsgd1na2vs0mg"},{"bike_id":"485d8907-7a49-4dcc-ab0d-07a83cf9dfd3","system_id":"levelo_inurba_marseille","lat":43.28716,"lon":5.37934,"is_reserved":false,"is_disabled":false,"rental_uris":{"android":"levelo://app?vid=485d8907-7a49-4dcc-ab0d-07a83cf9dfd3","ios":"levelo://app?vid=485d8907-7a49-4dcc-ab0d-07a83cf9dfd3"},"vehicle_type_id":"4","last_reported":1752534638,"current_range_meters":4400,"station_id":"ce4bh9p2rcd13ifvqec0","pricing_plan_id":"cebpf4jnsgd1na2vs0mg"},{"bike_id":"b1ec984c-81bc-43d5-9f6d-c30672f1c029","system_id":"levelo_inurba_marseille","lat":43.26505,"lon":5.39534,"is_reserved":false,"is_disabled":false,"rental_uris":{"android":"levelo://app?vid=b1ec984c-81bc-43d5-9f6d-c30672f1c029","ios":"levelo://app?vid=b1ec984c-81bc-43d5-9f6d-c30672f1c029"},"vehicle_type_id":"4","last_reported":1752534638,"current_range_meters":6800,"station_id":"ce4bhi12rcd13ifvqfq0","pricing_plan_id":"cebpf4jnsgd1na2vs0mg"},{"bike_id":"7e435c41-890e-4d23-9c5f-05a7d0e68433","system_id":"levelo_inurba_marseille","lat":43.2962,"lon":5.40614,"is_reserved":false,"is_disabled":false,"rental_uris":{"android":"levelo://app?vid=7e435c41-890e-4d23-9c5f-05a7d0e68433","ios":"levelo://app?vid=7e435c41-890e-4d23-9c5f-05a7d0e68433"},"vehicle_type_id":"4","last_reported":1752534638,"current_range_meters":6800,"station_id":"ce4bh0h2rcd13ifvqd60","pricing_plan_id":"cebpf4jnsgd1na2vs0mg"},{"bike_id":"86442b80-8515-426d-bf53-caef3087f4ca","system_id":"levelo_inurba_marseille","lat":43.29255,"lon":5.40905,"is_reserved":false,"is_disabled":false,"rental_uris":{"android":"levelo://app?vid=86442b80-8515-426d-bf53-caef3087f4ca","ios":"levelo://app?vid=86442b80-8515-426d-bf53-caef3087f4ca"},"vehicle_type_id":"4","last_reported":1752534638,"current_range_meters":6800,"station_id":"ce4bh192rcd13ifvqdc0","pricing_plan_id":"cebpf4jnsgd1na2vs0mg"},{"bike_id":"f4da7ccf-9342-4e90-87af-9107015ae7b4","system_id":"levelo_inurba_marseille","lat":43.28412,"lon":5.375157,"is_reserved":false,"is_disabled":false,"rental_uris":{"android":"levelo://app?vid=f4da7ccf-9342-4e90-87af-9107015ae7b4","ios":"levelo://app?vid=f4da7ccf-9342-4e90-87af-9107015ae7b4"},"vehicle_type_id":"4","last_reported":1752534638,"current_range_meters":7200,"station_id":"ce4bh412rcd13ifvqds0","pricing_plan_id":"cebpf4jnsgd1na2vs0mg"},{"bike_id":"560f858e-4654-4d3a-b2ea-58d09df71cbf","system_id":"levelo_inurba_marseille","lat":43.3133,"lon":5.39696,"is_reserved":false,"is_disabled":false,"rental_uris":{"android":"levelo://app?vid=560f858e-4654-4d3a-b2ea-58d09df71cbf","ios":"levelo://app?vid=560f858e-4654-4d3a-b2ea-58d09df71cbf"},"vehicle_type_id":"4","last_reported":1752534638,"current_range_meters":7200,"station_id":"ce4bgvp2rcd13ifvqcu0","pricing_plan_id":"cebpf4jnsgd1na2vs0mg"},{"bike_id":"d148d3a6-a8d7-40ca-acb9-8508427174f8","system_id":"levelo_inurba_marseille","lat":43.27315,"lon":5.39073,"is_reserved":false,"is_disabled":false,"rental_uris":{"android":"levelo://app?vid=d148d3a6-a8d7-40ca-acb9-8508427174f8","ios":"levelo://app?vid=d148d3a6-a8d7-40ca-acb9-8508427174f8"},"vehicle_type_id":"4","last_reported":1752534638,"current_range_meters":7200,"station_id":"ce4bhgp2rcd13ifvqfe0","pricing_plan_id":"cebpf4jnsgd1na2vs0mg"},{"bike_id":"8a03bb38-8a60-494a-992c-4f369a92fc55","system_id":"levelo_inurba_marseille","lat":43.3042,"lon":5.4129,"is_reserved":false,"is_disabled":false,"rental_uris":{"android":"levelo://app?vid=8a03bb38-8a60-494a-992c-4f369a92fc55","ios":"levelo://app?vid=8a03bb38-8a60-494a-992c-4f369a92fc55"},"vehicle_type_id":"4","last_reported":1752534638,"current_range_meters":7200,"station_id":"ce4bhop2rcd13ifvqh8g","pricing_plan_id":"cebpf4jnsgd1na2vs0mg"},{"bike_id":"96be654d-532c-4e1a-b517-4f378df84a30","system_id":"levelo_inurba_marseille","lat":43.29276,"lon":5.40132,"is_reserved":false,"is_disabled":false,"rental_uris":{"android":"levelo://app?vid=96be654d-532c-4e1a-b517-4f378df84a30","ios":"levelo://app?vid=96be654d-532c-4e1a-b517-4f378df84a30"},"vehicle_type_id":"4","last_reported":1752534638,"current_range_meters":7200,"station_id":"ce4bh312rcd13ifvqdk0","pricing_plan_id":"cebpf4jnsgd1na2vs0mg"},{"bike_id":"958a80c8-4ef3-4722-8fab-8b7900193b39","system_id":"levelo_inurba_marseille","lat":43.31899,"lon":5.4075,"is_reserved":false,"is_disabled":true,"rental_uris":{"android":"levelo://app?vid=958a80c8-4ef3-4722-8fab-8b7900193b39","ios":"levelo://app?vid=958a80c8-4ef3-4722-8fab-8b7900193b39"},"vehicle_type_id":"4","last_reported":1752534638,"current_range_meters":7200,"station_id":"ce4bhq12rcd13ifvqhig","pricing_plan_id":"cebpf4jnsgd1na2vs0mg"},{"bike_id":"6a8389cc-c82f-4619-bcb3-faa8289844fa","system_id":"levelo_inurba_marseille","lat":43.27831,"lon":5.39215,"is_reserved":false,"is_disabled":false,"rental_uris":{"android":"levelo://app?vid=6a8389cc-c82f-4619-bcb3-faa8289844fa","ios":"levelo://app?vid=6a8389cc-c82f-4619-bcb3-faa8289844fa"},"vehicle_type_id":"4","last_reported":1752534638,"current_range_meters":7200,"station_id":"ce4bhjp2rcd13ifvqga0","pricing_plan_id":"cebpf4jnsgd1na2vs0mg"},{"bike_id":"1b77525f-4f6a-4ca3-a7ab-8d0604ab265c","system_id":"levelo_inurba_marseille","lat":43.23156,"lon":5.43709,"is_reserved":false,"is_disabled":false,"rental_uris":{"android":"levelo://app?vid=1b77525f-4f6a-4ca3-a7ab-8d0604ab265c","ios":"levelo://app?vid=1b77525f-4f6a-4ca3-a7ab-8d0604ab265c"},"vehicle_type_id":"4","last_reported":1752534638,"current_range_meters":7200,"station_id":"ce4bhmp2rcd13ifvqgog","pricing_plan_id":"cebpf4jnsgd1na2vs0mg"},{"bike_id":"7203c0d5-ea15-46c1-805c-8ecc9fe7f557","system_id":"levelo_inurba_marseille","lat":43.22498,"lon":5.34782,"is_reserved":false,"is_disabled":false,"rental_uris":{"android":"levelo://app?vid=7203c0d5-ea15-46c1-805c-8ecc9fe7f557","ios":"levelo://app?vid=7203c0d5-ea15-46c1-805c-8ecc9fe7f557"},"vehicle_type_id":"4","last_reported":1752534638,"current_range_meters":8000,"station_id":"st_cvj5dfep6f1abm77gieg","pricing_plan_id":"cebpf4jnsgd1na2vs0mg"},{"bike_id":"a3dbdfc7-2d78-435e-861b-8b6c27305f8e","system_id":"levelo_inurba_marseille","lat":43.28695,"lon":5.39982,"is_reserved":false,"is_disabled":false,"rental_uris":{"android":"levelo://app?vid=a3dbdfc7-2d78-435e-861b-8b6c27305f8e","ios":"levelo://app?vid=a3dbdfc7-2d78-435e-861b-8b6c27305f8e"},"vehicle_type_id":"4","last_reported":1752534638,"current_range_meters":7200,"station_id":"ce4bho92rcd13ifvqh3g","pricing_plan_id":"cebpf4jnsgd1na2vs0mg"},{"bike_id":"78698c4b-5c7a-489c-9f94-d7d8b6c6c9cb","system_id":"levelo_inurba_marseille","lat":43.27569,"lon":5.38425,"is_reserved":false,"is_disabled":false,"rental_uris":{"android":"levelo://app?vid=78698c4b-5c7a-489c-9f94-d7d8b6c6c9cb","ios":"levelo://app?vid=78698c4b-5c7a-489c-9f94-d7d8b6c6c9cb"},"vehicle_type_id":"4","last_reported":1752534638,"current_range_meters":8000,"station_id":"ce4bhh92rcd13ifvqfi0","pricing_plan_id":"cebpf4jnsgd1na2vs0mg"},{"bike_id":"f7b0c85f-dcef-48aa-947f-58d6aca30307","system_id":"levelo_inurba_marseille","lat":43.33607,"lon":5.41036,"is_reserved":false,"is_disabled":false,"rental_uris":{"android":"levelo://app?vid=f7b0c85f-dcef-48aa-947f-58d6aca30307","ios":"levelo://app?vid=f7b0c85f-dcef-48aa-947f-58d6aca30307"},"vehicle_type_id":"4","last_reported":1752534638,"current_range_meters":8000,"station_id":"ce4bhqh2rcd13ifvqhmg","pricing_plan_id":"cebpf4jnsgd1na2vs0mg"},{"bike_id":"60c6798a-960d-4584-abf4-fedb01611721","system_id":"levelo_inurba_marseille","lat":43.301401,"lon":5.387713,"is_reserved":false,"is_disabled":false,"rental_uris":{"android":"levelo://app?vid=60c6798a-960d-4584-abf4-fedb01611721","ios":"levelo://app?vid=60c6798a-960d-4584-abf4-fedb01611721"},"vehicle_type_id":"4","last_reported":1752534638,"current_range_meters":8000,"station_id":"","pricing_plan_id":"cebpf4jnsgd1na2vs0mg"},{"bike_id":"093d88b0-c884-4b3d-9c85-70f15b88a520","system_id":"levelo_inurba_marseille","lat":43.28667,"lon":5.41239,"is_reserved":false,"is_disabled":true,"rental_uris":{"android":"levelo://app?vid=093d88b0-c884-4b3d-9c85-70f15b88a520","ios":"levelo://app?vid=093d88b0-c884-4b3d-9c85-70f15b88a520"},"vehicle_type_id":"4","last_reported":1752534638,"current_range_meters":8400,"station_id":"","pricing_plan_id":"cebpf4jnsgd1na2vs0mg"},{"bike_id":"07b80ba8-94f7-4006-b883-d44157aa02a8","system_id":"levelo_inurba_marseille","lat":43.21183,"lon":5.35077,"is_reserved":false,"is_disabled":false,"rental_uris":{"android":"levelo://app?vid=07b80ba8-94f7-4006-b883-d44157aa02a8","ios":"levelo://app?vid=07b80ba8-94f7-4006-b883-d44157aa02a8"},"vehicle_type_id":"4","last_reported":1752534638,"current_range_meters":8800,"station_id":"st_cvj6sg6p6f1abm77japg","pricing_plan_id":"cebpf4jnsgd1na2vs0mg"},{"bike_id":"c753679b-8903-4691-931a-728d063bd014","system_id":"levelo_inurba_marseille","lat":43.27797,"lon":5.39207,"is_reserved":false,"is_disabled":false,"rental_uris":{"android":"levelo://app?vid=c753679b-8903-4691-931a-728d063bd014","ios":"levelo://app?vid=c753679b-8903-4691-931a-728d063bd014"},"vehicle_type_id":"4","last_reported":1752534638,"current_range_meters":8800,"station_id":"ce4bhjp2rcd13ifvqga0","pricing_plan_id":"cebpf4jnsgd1na2vs0mg"},{"bike_id":"a95c6fdc-3c4d-46b1-8a87-d88e273d71b1","system_id":"levelo_inurba_marseille","lat":43.28953,"lon":5.364,"is_reserved":false,"is_disabled":true,"rental_uris":{"android":"levelo://app?vid=a95c6fdc-3c4d-46b1-8a87-d88e273d71b1","ios":"levelo://app?vid=a95c6fdc-3c4d-46b1-8a87-d88e273d71b1"},"vehicle_type_id":"4","last_reported":1752534638,"current_range_meters":8800,"station_id":"ce4bhc92rcd13ifvqetg","pricing_plan_id":"cebpf4jnsgd1na2vs0mg"},{"bike_id":"58375fde-ca97-4dab-be52-59caf98323d3","system_id":"levelo_inurba_marseille","lat":43.26409,"lon":5.37662,"is_reserved":false,"is_disabled":true,"rental_uris":{"android":"levelo://app?vid=58375fde-ca97-4dab-be52-59caf98323d3","ios":"levelo://app?vid=58375fde-ca97-4dab-be52-59caf98323d3"},"vehicle_type_id":"4","last_reported":1752534638,"current_range_meters":8800,"station_id":"","pricing_plan_id":"cebpf4jnsgd1na2vs0mg"},{"bike_id":"d544640d-e905-4f88-9156-759bbeb1fd17","system_id":"levelo_inurba_marseille","lat":43.32486,"lon":5.36562,"is_reserved":false,"is_disabled":false,"rental_uris":{"android":"levelo://app?vid=d544640d-e905-4f88-9156-759bbeb1fd17","ios":"levelo://app?vid=d544640d-e905-4f88-9156-759bbeb1fd17"},"vehicle_type_id":"4","last_reported":1752534638,"current_range_meters":8800,"station_id":"ce4bhs12rcd13ifvqhvg","pricing_plan_id":"cebpf4jnsgd1na2vs0mg"},{"bike_id":"81d0624b-cca4-4afc-9d72-494cca27b4fb","system_id":"levelo_inurba_marseille","lat":43.30231,"lon":5.40063,"is_reserved":false,"is_disabled":false,"rental_uris":{"android":"levelo://app?vid=81d0624b-cca4-4afc-9d72-494cca27b4fb","ios":"levelo://app?vid=81d0624b-cca4-4afc-9d72-494cca27b4fb"},"vehicle_type_id":"4","last_reported":1752534638,"current_range_meters":8800,"station_id":"","pricing_plan_id":"cebpf4jnsgd1na2vs0mg"},{"bike_id":"0179bf21-e753-4323-a63e-d69b5b2b3879","system_id":"levelo_inurba_marseille","lat":43.24638,"lon":5.38901,"is_reserved":false,"is_disabled":true,"rental_uris":{"android":"levelo://app?vid=0179bf21-e753-4323-a63e-d69b5b2b3879","ios":"levelo://app?vid=0179bf21-e753-4323-a63e-d69b5b2b3879"},"vehicle_type_id":"4","last_reported":1752534638,"current_range_meters":8800,"station_id":"ce4bhg12rcd13ifvqf60","pricing_plan_id":"cebpf4jnsgd1na2vs0mg"},{"bike_id":"03d1d790-f4a1-4958-b7a6-aa3decd22076","system_id":"levelo_inurba_marseille","lat":43.31308,"lon":5.39725,"is_reserved":false,"is_disabled":false,"rental_uris":{"android":"levelo://app?vid=03d1d790-f4a1-4958-b7a6-aa3decd22076","ios":"levelo://app?vid=03d1d790-f4a1-4958-b7a6-aa3decd22076"},"vehicle_type_id":"4","last_reported":1752534638,"current_range_meters":8800,"station_id":"ce4bgvp2rcd13ifvqcu0","pricing_plan_id":"cebpf4jnsgd1na2vs0mg"},{"bike_id":"6c28151a-b15f-4acc-9efc-89400b21dfe1","system_id":"levelo_inurba_marseille","lat":43.26054,"lon":5.37584,"is_reserved":false,"is_disabled":true,"rental_uris":{"android":"levelo://app?vid=6c28151a-b15f-4acc-9efc-89400b21dfe1","ios":"levelo://app?vid=6c28151a-b15f-4acc-9efc-89400b21dfe1"},"vehicle_type_id":"4","last_reported":1752534638,"current_range_meters":9200,"station_id":"ce4bhgh2rcd13ifvqfa0","pricing_plan_id":"cebpf4jnsgd1na2vs0mg"},{"bike_id":"03593e2c-a77c-4fd2-b4d0-fb945cd0fbd0","system_id":"levelo_inurba_marseille","lat":43.30886,"lon":5.4015,"is_reserved":false,"is_disabled":false,"rental_uris":{"android":"levelo://app?vid=03593e2c-a77c-4fd2-b4d0-fb945cd0fbd0","ios":"levelo://app?vid=03593e2c-a77c-4fd2-b4d0-fb945cd0fbd0"},"vehicle_type_id":"4","last_reported":1752534638,"current_range_meters":9200,"station_id":"","pricing_plan_id":"cebpf4jnsgd1na2vs0mg"},{"bike_id":"7e0c9e6e-f532-43a5-9d7e-c55e06ea5a86","system_id":"levelo_inurba_marseille","lat":43.28148,"lon":5.42643,"is_reserved":false,"is_disabled":false,"rental_uris":{"android":"levelo://app?vid=7e0c9e6e-f532-43a5-9d7e-c55e06ea5a86","ios":"levelo://app?vid=7e0c9e6e-f532-43a5-9d7e-c55e06ea5a86"},"vehicle_type_id":"4","last_reported":1752534638,"current_range_meters":9200,"station_id":"ce4bhnh2rcd13ifvqgug","pricing_plan_id":"cebpf4jnsgd1na2vs0mg"},{"bike_id":"052ed733-5b2e-470c-9103-88a731284825","system_id":"levelo_inurba_marseille","lat":43.26936,"lon":5.38674,"is_reserved":false,"is_disabled":false,"rental_uris":{"android":"levelo://app?vid=052ed733-5b2e-470c-9103-88a731284825","ios":"levelo://app?vid=052ed733-5b2e-470c-9103-88a731284825"},"vehicle_type_id":"4","last_reported":1752534638,"current_range_meters":9200,"station_id":"ce4bhh92rcd13ifvqfh0","pricing_plan_id":"cebpf4jnsgd1na2vs0mg"},{"bike_id":"930c144e-fb2b-4526-9386-3ed01e1c6cca","system_id":"levelo_inurba_marseille","lat":43.29663,"lon":5.40597,"is_reserved":false,"is_disabled":false,"rental_uris":{"android":"levelo://app?vid=930c144e-fb2b-4526-9386-3ed01e1c6cca","ios":"levelo://app?vid=930c144e-fb2b-4526-9386-3ed01e1c6cca"},"vehicle_type_id":"4","last_reported":1752534638,"current_range_meters":9200,"station_id":"ce4bh0h2rcd13ifvqd60","pricing_plan_id":"cebpf4jnsgd1na2vs0mg"},{"bike_id":"d916aace-830c-451e-a376-c1312f1fc6af","system_id":"levelo_inurba_marseille","lat":43.22524,"lon":5.34776,"is_reserved":false,"is_disabled":false,"rental_uris":{"android":"levelo://app?vid=d916aace-830c-451e-a376-c1312f1fc6af","ios":"levelo://app?vid=d916aace-830c-451e-a376-c1312f1fc6af"},"vehicle_type_id":"4","last_reported":1752534638,"current_range_meters":9200,"station_id":"","pricing_plan_id":"cebpf4jnsgd1na2vs0mg"},{"bike_id":"8ef6eb10-a80e-4d64-96ec-4e23e0505ee1","system_id":"levelo_inurba_marseille","lat":43.34142,"lon":5.4091,"is_reserved":false,"is_disabled":false,"rental_uris":{"android":"levelo://app?vid=8ef6eb10-a80e-4d64-96ec-4e23e0505ee1","ios":"levelo://app?vid=8ef6eb10-a80e-4d64-96ec-4e23e0505ee1"},"vehicle_type_id":"4","last_reported":1752534638,"current_range_meters":8800,"station_id":"ce4bhqh2rcd13ifvqhlg","pricing_plan_id":"cebpf4jnsgd1na2vs0mg"},{"bike_id":"47c1e2d6-f1bc-4352-897a-61b40cf8c4c1","system_id":"levelo_inurba_marseille","lat":43.28847,"lon":5.39318,"is_reserved":false,"is_disabled":false,"rental_uris":{"android":"levelo://app?vid=47c1e2d6-f1bc-4352-897a-61b40cf8c4c1","ios":"levelo://app?vid=47c1e2d6-f1bc-4352-897a-61b40cf8c4c1"},"vehicle_type_id":"4","last_reported":1752534638,"current_range_meters":9600,"station_id":"ce4bh2p2rcd13ifvqdi0","pricing_plan_id":"cebpf4jnsgd1na2vs0mg"},{"bike_id":"a26215aa-9cdf-47e4-a0de-c2e5eb0d8d4c","system_id":"levelo_inurba_marseille","lat":43.284058,"lon":5.37508,"is_reserved":false,"is_disabled":false,"rental_uris":{"android":"levelo://app?vid=a26215aa-9cdf-47e4-a0de-c2e5eb0d8d4c","ios":"levelo://app?vid=a26215aa-9cdf-47e4-a0de-c2e5eb0d8d4c"},"vehicle_type_id":"4","last_reported":1752534638,"current_range_meters":9600,"station_id":"","pricing_plan_id":"cebpf4jnsgd1na2vs0mg"},{"bike_id":"ea07ccd5-4bc0-429f-86b0-041e02908e66","system_id":"levelo_inurba_marseille","lat":43.29273,"lon":5.40145,"is_reserved":false,"is_disabled":false,"rental_uris":{"android":"levelo://app?vid=ea07ccd5-4bc0-429f-86b0-041e02908e66","ios":"levelo://app?vid=ea07ccd5-4bc0-429f-86b0-041e02908e66"},"vehicle_type_id":"4","last_reported":1752534638,"current_range_meters":9600,"station_id":"ce4bh312rcd13ifvqdk0","pricing_plan_id":"cebpf4jnsgd1na2vs0mg"},{"bike_id":"185e4ad4-b114-4192-92cd-875ebd7a148a","system_id":"levelo_inurba_marseille","lat":43.30958,"lon":5.40136,"is_reserved":false,"is_disabled":false,"rental_uris":{"android":"levelo://app?vid=185e4ad4-b114-4192-92cd-875ebd7a148a","ios":"levelo://app?vid=185e4ad4-b114-4192-92cd-875ebd7a148a"},"vehicle_type_id":"4","last_reported":1752534638,"current_range_meters":9600,"station_id":"ce4bgvp2rcd13ifvqct0","pricing_plan_id":"cebpf4jnsgd1na2vs0mg"},{"bike_id":"9698fc7f-0563-44be-b282-7d83e58026b8","system_id":"levelo_inurba_marseille","lat":43.28712,"lon":5.37384,"is_reserved":false,"is_disabled":false,"rental_uris":{"android":"levelo://app?vid=9698fc7f-0563-44be-b282-7d83e58026b8","ios":"levelo://app?vid=9698fc7f-0563-44be-b282-7d83e58026b8"},"vehicle_type_id":"4","last_reported":1752534638,"current_range_meters":9600,"station_id":"ce4bh3p2rcd13ifvqdq0","pricing_plan_id":"cebpf4jnsgd1na2vs0mg"},{"bike_id":"04b0912e-9afd-4748-b554-8e8b34939333","system_id":"levelo_inurba_marseille","lat":43.27933,"lon":5.38719,"is_reserved":false,"is_disabled":false,"rental_uris":{"android":"levelo://app?vid=04b0912e-9afd-4748-b554-8e8b34939333","ios":"levelo://app?vid=04b0912e-9afd-4748-b554-8e8b34939333"},"vehicle_type_id":"4","last_reported":1752534638,"current_range_meters":9200,"station_id":"ce4bhg12rcd13ifvqf80","pricing_plan_id":"cebpf4jnsgd1na2vs0mg"},{"bike_id":"1fbaf219-67be-45b8-aacc-64d6722df546","system_id":"levelo_inurba_marseille","lat":43.2903,"lon":5.38643,"is_reserved":false,"is_disabled":true,"rental_uris":{"android":"levelo://app?vid=1fbaf219-67be-45b8-aacc-64d6722df546","ios":"levelo://app?vid=1fbaf219-67be-45b8-aacc-64d6722df546"},"vehicle_type_id":"4","last_reported":1752534638,"current_range_meters":10000,"station_id":"ce4bh4p2rcd13ifvqe0g","pricing_plan_id":"cebpf4jnsgd1na2vs0mg"},{"bike_id":"39f26311-25a3-44ef-8923-c453831dd27b","system_id":"levelo_inurba_marseille","lat":43.29634,"lon":5.40611,"is_reserved":false,"is_disabled":false,"rental_uris":{"android":"levelo://app?vid=39f26311-25a3-44ef-8923-c453831dd27b","ios":"levelo://app?vid=39f26311-25a3-44ef-8923-c453831dd27b"},"vehicle_type_id":"4","last_reported":1752534638,"current_range_meters":10000,"station_id":"ce4bh0h2rcd13ifvqd60","pricing_plan_id":"cebpf4jnsgd1na2vs0mg"},{"bike_id":"c14947c2-7b5b-4c03-b04b-d7f22fccfd67","system_id":"levelo_inurba_marseille","lat":43.211947,"lon":5.350626,"is_reserved":false,"is_disabled":false,"rental_uris":{"android":"levelo://app?vid=c14947c2-7b5b-4c03-b04b-d7f22fccfd67","ios":"levelo://app?vid=c14947c2-7b5b-4c03-b04b-d7f22fccfd67"},"vehicle_type_id":"4","last_reported":1752534638,"current_range_meters":10000,"station_id":"st_cvj6sg6p6f1abm77japg","pricing_plan_id":"cebpf4jnsgd1na2vs0mg"},{"bike_id":"72b4d8a0-0112-4471-a44e-d07d993b73de","system_id":"levelo_inurba_marseille","lat":43.30774,"lon":5.37648,"is_reserved":false,"is_disabled":false,"rental_uris":{"android":"levelo://app?vid=72b4d8a0-0112-4471-a44e-d07d993b73de","ios":"levelo://app?vid=72b4d8a0-0112-4471-a44e-d07d993b73de"},"vehicle_type_id":"4","last_reported":1752534638,"current_range_meters":10000,"station_id":"ce4bgv92rcd13ifvqcq0","pricing_plan_id":"cebpf4jnsgd1na2vs0mg"},{"bike_id":"59a860e9-cc23-49cc-9147-79034be56af1","system_id":"levelo_inurba_marseille","lat":43.29297,"lon":5.37442,"is_reserved":false,"is_disabled":true,"rental_uris":{"android":"levelo://app?vid=59a860e9-cc23-49cc-9147-79034be56af1","ios":"levelo://app?vid=59a860e9-cc23-49cc-9147-79034be56af1"},"vehicle_type_id":"4","last_reported":1752534638,"current_range_meters":10000,"station_id":"ce4bgi12rcd13ifvqb70","pricing_plan_id":"cebpf4jnsgd1na2vs0mg"},{"bike_id":"856f2d23-2d4b-4e7d-9b18-dff24c595dd3","system_id":"levelo_inurba_marseille","lat":43.26778,"lon":5.39415,"is_reserved":false,"is_disabled":true,"rental_uris":{"android":"levelo://app?vid=856f2d23-2d4b-4e7d-9b18-dff24c595dd3","ios":"levelo://app?vid=856f2d23-2d4b-4e7d-9b18-dff24c595dd3"},"vehicle_type_id":"4","last_reported":1752534638,"current_range_meters":10000,"station_id":"ce4bhh12rcd13ifvqfg0","pricing_plan_id":"cebpf4jnsgd1na2vs0mg"},{"bike_id":"e2889e9a-9b1c-49d1-9c7c-e7e307ed1733","system_id":"levelo_inurba_marseille","lat":43.30426,"lon":5.3976,"is_reserved":false,"is_disabled":false,"rental_uris":{"android":"levelo://app?vid=e2889e9a-9b1c-49d1-9c7c-e7e307ed1733","ios":"levelo://app?vid=e2889e9a-9b1c-49d1-9c7c-e7e307ed1733"},"vehicle_type_id":"4","last_reported":1752534638,"current_range_meters":10000,"station_id":"ce4bh092rcd13ifvqd20","pricing_plan_id":"cebpf4jnsgd1na2vs0mg"},{"bike_id":"f5743c3c-bbb8-4a52-a86d-99c9f02990b6","system_id":"levelo_inurba_marseille","lat":43.311235,"lon":5.377686,"is_reserved":false,"is_disabled":false,"rental_uris":{"android":"levelo://app?vid=f5743c3c-bbb8-4a52-a86d-99c9f02990b6","ios":"levelo://app?vid=f5743c3c-bbb8-4a52-a86d-99c9f02990b6"},"vehicle_type_id":"4","last_reported":1752534638,"current_range_meters":10800,"station_id":"ce4bgt92rcd13ifvqcg0","pricing_plan_id":"cebpf4jnsgd1na2vs0mg"},{"bike_id":"d960247e-fcb0-4551-a66f-dd83895a31f6","system_id":"levelo_inurba_marseille","lat":43.32301,"lon":5.38265,"is_reserved":false,"is_disabled":true,"rental_uris":{"android":"levelo://app?vid=d960247e-fcb0-4551-a66f-dd83895a31f6","ios":"levelo://app?vid=d960247e-fcb0-4551-a66f-dd83895a31f6"},"vehicle_type_id":"4","last_reported":1752534638,"current_range_meters":10800,"station_id":"ce4bhr12rcd13ifvqhqg","pricing_plan_id":"cebpf4jnsgd1na2vs0mg"},{"bike_id":"9fce1b76-6a5b-447e-9a75-9acfd4eb229b","system_id":"levelo_inurba_marseille","lat":43.31362,"lon":5.38497,"is_reserved":false,"is_disabled":false,"rental_uris":{"android":"levelo://app?vid=9fce1b76-6a5b-447e-9a75-9acfd4eb229b","ios":"levelo://app?vid=9fce1b76-6a5b-447e-9a75-9acfd4eb229b"},"vehicle_type_id":"4","last_reported":1752534638,"current_range_meters":10800,"station_id":"ce4bgt92rcd13ifvqcf0","pricing_plan_id":"cebpf4jnsgd1na2vs0mg"},{"bike_id":"a0483223-acdf-493e-83be-fc3e9911c586","system_id":"levelo_inurba_marseille","lat":43.29578,"lon":5.39984,"is_reserved":false,"is_disabled":false,"rental_uris":{"android":"levelo://app?vid=a0483223-acdf-493e-83be-fc3e9911c586","ios":"levelo://app?vid=a0483223-acdf-493e-83be-fc3e9911c586"},"vehicle_type_id":"4","last_reported":1752534638,"current_range_meters":10800,"station_id":"ce4bh312rcd13ifvqdj0","pricing_plan_id":"cebpf4jnsgd1na2vs0mg"},{"bike_id":"8a01e88a-8371-4085-9838-47ae11897cd3","system_id":"levelo_inurba_marseille","lat":43.28164,"lon":5.42642,"is_reserved":false,"is_disabled":true,"rental_uris":{"android":"levelo://app?vid=8a01e88a-8371-4085-9838-47ae11897cd3","ios":"levelo://app?vid=8a01e88a-8371-4085-9838-47ae11897cd3"},"vehicle_type_id":"4","last_reported":1752534638,"current_range_meters":10800,"station_id":"ce4bhnh2rcd13ifvqgug","pricing_plan_id":"cebpf4jnsgd1na2vs0mg"},{"bike_id":"1236ee90-f1b5-412c-9703-d46c62e5f6c6","system_id":"levelo_inurba_marseille","lat":43.29562,"lon":5.39977,"is_reserved":false,"is_disabled":false,"rental_uris":{"android":"levelo://app?vid=1236ee90-f1b5-412c-9703-d46c62e5f6c6","ios":"levelo://app?vid=1236ee90-f1b5-412c-9703-d46c62e5f6c6"},"vehicle_type_id":"4","last_reported":1752534638,"current_range_meters":10000,"station_id":"ce4bh312rcd13ifvqdj0","pricing_plan_id":"cebpf4jnsgd1na2vs0mg"},{"bike_id":"088e6b1d-8a81-47e0-9ad0-36233ed399c0","system_id":"levelo_inurba_marseille","lat":43.279226,"lon":5.395679,"is_reserved":false,"is_disabled":true,"rental_uris":{"android":"levelo://app?vid=088e6b1d-8a81-47e0-9ad0-36233ed399c0","ios":"levelo://app?vid=088e6b1d-8a81-47e0-9ad0-36233ed399c0"},"vehicle_type_id":"4","last_reported":1752534638,"current_range_meters":10800,"station_id":"ce4bhf92rcd13ifvqf40","pricing_plan_id":"cebpf4jnsgd1na2vs0mg"},{"bike_id":"ffa5ccb4-905c-4e50-802b-1c1f9b2cbe03","system_id":"levelo_inurba_marseille","lat":43.21221,"lon":5.35062,"is_reserved":false,"is_disabled":false,"rental_uris":{"android":"levelo://app?vid=ffa5ccb4-905c-4e50-802b-1c1f9b2cbe03","ios":"levelo://app?vid=ffa5ccb4-905c-4e50-802b-1c1f9b2cbe03"},"vehicle_type_id":"4","last_reported":1752534638,"current_range_meters":11200,"station_id":"","pricing_plan_id":"cebpf4jnsgd1na2vs0mg"},{"bike_id":"59c7831b-d54f-4045-a5fc-83662693acab","system_id":"levelo_inurba_marseille","lat":43.279123,"lon":5.395828,"is_reserved":false,"is_disabled":false,"rental_uris":{"android":"levelo://app?vid=59c7831b-d54f-4045-a5fc-83662693acab","ios":"levelo://app?vid=59c7831b-d54f-4045-a5fc-83662693acab"},"vehicle_type_id":"4","last_reported":1752534638,"current_range_meters":11200,"station_id":"","pricing_plan_id":"cebpf4jnsgd1na2vs0mg"},{"bike_id":"e91ced2f-2041-4b38-8446-0d5d97adec95","system_id":"levelo_inurba_marseille","lat":43.25569,"lon":5.38224,"is_reserved":false,"is_disabled":true,"rental_uris":{"android":"levelo://app?vid=e91ced2f-2041-4b38-8446-0d5d97adec95","ios":"levelo://app?vid=e91ced2f-2041-4b38-8446-0d5d97adec95"},"vehicle_type_id":"4","last_reported":1752534638,"current_range_meters":11200,"station_id":"ce4bhih2rcd13ifvqfs0","pricing_plan_id":"cebpf4jnsgd1na2vs0mg"},{"bike_id":"26c57933-10b3-416e-9bce-57e9400249fd","system_id":"levelo_inurba_marseille","lat":43.32082,"lon":5.3683,"is_reserved":false,"is_disabled":false,"rental_uris":{"android":"levelo://app?vid=26c57933-10b3-416e-9bce-57e9400249fd","ios":"levelo://app?vid=26c57933-10b3-416e-9bce-57e9400249fd"},"vehicle_type_id":"4","last_reported":1752534638,"current_range_meters":11200,"station_id":"ce4bhrh2rcd13ifvqhug","pricing_plan_id":"cebpf4jnsgd1na2vs0mg"},{"bike_id":"c8c4de1a-846f-4f5b-aace-9fb14bf7ad52","system_id":"levelo_inurba_marseille","lat":43.21198,"lon":5.35071,"is_reserved":false,"is_disabled":false,"rental_uris":{"android":"levelo://app?vid=c8c4de1a-846f-4f5b-aace-9fb14bf7ad52","ios":"levelo://app?vid=c8c4de1a-846f-4f5b-aace-9fb14bf7ad52"},"vehicle_type_id":"4","last_reported":1752534638,"current_range_meters":11200,"station_id":"st_cvj6sg6p6f1abm77japg","pricing_plan_id":"cebpf4jnsgd1na2vs0mg"},{"bike_id":"9b1afee0-5d71-42b1-bfb3-0f11fa1e097d","system_id":"levelo_inurba_marseille","lat":43.292534,"lon":5.376396,"is_reserved":false,"is_disabled":false,"rental_uris":{"android":"levelo://app?vid=9b1afee0-5d71-42b1-bfb3-0f11fa1e097d","ios":"levelo://app?vid=9b1afee0-5d71-42b1-bfb3-0f11fa1e097d"},"vehicle_type_id":"4","last_reported":1752534638,"current_range_meters":11600,"station_id":"","pricing_plan_id":"cebpf4jnsgd1na2vs0mg"},{"bike_id":"1b4d9e77-9315-417c-ac48-a9fb2e6775e5","system_id":"levelo_inurba_marseille","lat":43.30419,"lon":5.41277,"is_reserved":false,"is_disabled":false,"rental_uris":{"android":"levelo://app?vid=1b4d9e77-9315-417c-ac48-a9fb2e6775e5","ios":"levelo://app?vid=1b4d9e77-9315-417c-ac48-a9fb2e6775e5"},"vehicle_type_id":"4","last_reported":1752534638,"current_range_meters":11200,"station_id":"ce4bhop2rcd13ifvqh8g","pricing_plan_id":"cebpf4jnsgd1na2vs0mg"},{"bike_id":"4e058aa0-cf33-4c89-b60f-c4aa161574b8","system_id":"levelo_inurba_marseille","lat":43.27502,"lon":5.4244,"is_reserved":false,"is_disabled":false,"rental_uris":{"android":"levelo://app?vid=4e058aa0-cf33-4c89-b60f-c4aa161574b8","ios":"levelo://app?vid=4e058aa0-cf33-4c89-b60f-c4aa161574b8"},"vehicle_type_id":"4","last_reported":1752534638,"current_range_meters":11600,"station_id":"ce4bhn92rcd13ifvqgrg","pricing_plan_id":"cebpf4jnsgd1na2vs0mg"},{"bike_id":"a4d07f45-19f9-4df9-9728-be6623530a64","system_id":"levelo_inurba_marseille","lat":43.23737,"lon":5.38866,"is_reserved":false,"is_disabled":false,"rental_uris":{"android":"levelo://app?vid=a4d07f45-19f9-4df9-9728-be6623530a64","ios":"levelo://app?vid=a4d07f45-19f9-4df9-9728-be6623530a64"},"vehicle_type_id":"4","last_reported":1752534638,"current_range_meters":11600,"station_id":"","pricing_plan_id":"cebpf4jnsgd1na2vs0mg"},{"bike_id":"5f2eb0d0-bf7b-4daf-bca6-ead9755d559f","system_id":"levelo_inurba_marseille","lat":43.28411,"lon":5.37506,"is_reserved":false,"is_disabled":false,"rental_uris":{"android":"levelo://app?vid=5f2eb0d0-bf7b-4daf-bca6-ead9755d559f","ios":"levelo://app?vid=5f2eb0d0-bf7b-4daf-bca6-ead9755d559f"},"vehicle_type_id":"4","last_reported":1752534638,"current_range_meters":11600,"station_id":"ce4bh412rcd13ifvqds0","pricing_plan_id":"cebpf4jnsgd1na2vs0mg"},{"bike_id":"697d5fc4-b988-4a4e-8323-c1ce5ed61a61","system_id":"levelo_inurba_marseille","lat":43.21177,"lon":5.35061,"is_reserved":false,"is_disabled":false,"rental_uris":{"android":"levelo://app?vid=697d5fc4-b988-4a4e-8323-c1ce5ed61a61","ios":"levelo://app?vid=697d5fc4-b988-4a4e-8323-c1ce5ed61a61"},"vehicle_type_id":"4","last_reported":1752534638,"current_range_meters":12000,"station_id":"st_cvj6sg6p6f1abm77japg","pricing_plan_id":"cebpf4jnsgd1na2vs0mg"},{"bike_id":"89a72ab1-b5ce-4f11-9357-9a63c5c22300","system_id":"levelo_inurba_marseille","lat":43.26959,"lon":5.38662,"is_reserved":false,"is_disabled":false,"rental_uris":{"android":"levelo://app?vid=89a72ab1-b5ce-4f11-9357-9a63c5c22300","ios":"levelo://app?vid=89a72ab1-b5ce-4f11-9357-9a63c5c22300"},"vehicle_type_id":"4","last_reported":1752534638,"current_range_meters":12000,"station_id":"ce4bhh92rcd13ifvqfh0","pricing_plan_id":"cebpf4jnsgd1na2vs0mg"},{"bike_id":"cf3a7949-0323-41bf-b31d-ffd8d73fac53","system_id":"levelo_inurba_marseille","lat":43.275627,"lon":5.384207,"is_reserved":false,"is_disabled":false,"rental_uris":{"android":"levelo://app?vid=cf3a7949-0323-41bf-b31d-ffd8d73fac53","ios":"levelo://app?vid=cf3a7949-0323-41bf-b31d-ffd8d73fac53"},"vehicle_type_id":"4","last_reported":1752534638,"current_range_meters":12000,"station_id":"ce4bhh92rcd13ifvqfi0","pricing_plan_id":"cebpf4jnsgd1na2vs0mg"},{"bike_id":"4a19e4ee-cbbe-4fd8-9e6c-310afa6ee6c9","system_id":"levelo_inurba_marseille","lat":43.23174,"lon":5.39995,"is_reserved":false,"is_disabled":true,"rental_uris":{"android":"levelo://app?vid=4a19e4ee-cbbe-4fd8-9e6c-310afa6ee6c9","ios":"levelo://app?vid=4a19e4ee-cbbe-4fd8-9e6c-310afa6ee6c9"},"vehicle_type_id":"4","last_reported":1752534638,"current_range_meters":12000,"station_id":"ce4bhn12rcd13ifvqgqg","pricing_plan_id":"cebpf4jnsgd1na2vs0mg"},{"bike_id":"f83ab5f8-537f-4add-838c-741a759ed6a0","system_id":"levelo_inurba_marseille","lat":43.27559,"lon":5.38433,"is_reserved":false,"is_disabled":false,"rental_uris":{"android":"levelo://app?vid=f83ab5f8-537f-4add-838c-741a759ed6a0","ios":"levelo://app?vid=f83ab5f8-537f-4add-838c-741a759ed6a0"},"vehicle_type_id":"4","last_reported":1752534638,"current_range_meters":12000,"station_id":"ce4bhh92rcd13ifvqfi0","pricing_plan_id":"cebpf4jnsgd1na2vs0mg"},{"bike_id":"f5a47db5-6fb2-46bd-a2de-efa4ad13bf60","system_id":"levelo_inurba_marseille","lat":43.21194,"lon":5.35075,"is_reserved":false,"is_disabled":false,"rental_uris":{"android":"levelo://app?vid=f5a47db5-6fb2-46bd-a2de-efa4ad13bf60","ios":"levelo://app?vid=f5a47db5-6fb2-46bd-a2de-efa4ad13bf60"},"vehicle_type_id":"4","last_reported":1752534638,"current_range_meters":12000,"station_id":"st_cvj6sg6p6f1abm77japg","pricing_plan_id":"cebpf4jnsgd1na2vs0mg"},{"bike_id":"b63b037b-47a4-450a-b6f4-921cbebe4edd","system_id":"levelo_inurba_marseille","lat":43.2572,"lon":5.41115,"is_reserved":false,"is_disabled":false,"rental_uris":{"android":"levelo://app?vid=b63b037b-47a4-450a-b6f4-921cbebe4edd","ios":"levelo://app?vid=b63b037b-47a4-450a-b6f4-921cbebe4edd"},"vehicle_type_id":"4","last_reported":1752534638,"current_range_meters":11600,"station_id":"ce4bhkp2rcd13ifvqgd0","pricing_plan_id":"cebpf4jnsgd1na2vs0mg"},{"bike_id":"27b32ee6-1858-4231-b033-f5885fb4efdf","system_id":"levelo_inurba_marseille","lat":43.28461,"lon":5.35891,"is_reserved":false,"is_disabled":false,"rental_uris":{"android":"levelo://app?vid=27b32ee6-1858-4231-b033-f5885fb4efdf","ios":"levelo://app?vid=27b32ee6-1858-4231-b033-f5885fb4efdf"},"vehicle_type_id":"4","last_reported":1752534638,"current_range_meters":12000,"station_id":"ce4bhah2rcd13ifvqei0","pricing_plan_id":"cebpf4jnsgd1na2vs0mg"},{"bike_id":"10515eba-80be-4942-bc42-9e4dc0b36ef1","system_id":"levelo_inurba_marseille","lat":43.29249,"lon":5.40912,"is_reserved":false,"is_disabled":false,"rental_uris":{"android":"levelo://app?vid=10515eba-80be-4942-bc42-9e4dc0b36ef1","ios":"levelo://app?vid=10515eba-80be-4942-bc42-9e4dc0b36ef1"},"vehicle_type_id":"4","last_reported":1752534638,"current_range_meters":12000,"station_id":"ce4bh192rcd13ifvqdc0","pricing_plan_id":"cebpf4jnsgd1na2vs0mg"},{"bike_id":"50420eb7-9e2e-4d24-9307-703296f6eab5","system_id":"levelo_inurba_marseille","lat":43.30596,"lon":5.37215,"is_reserved":false,"is_disabled":false,"rental_uris":{"android":"levelo://app?vid=50420eb7-9e2e-4d24-9307-703296f6eab5","ios":"levelo://app?vid=50420eb7-9e2e-4d24-9307-703296f6eab5"},"vehicle_type_id":"4","last_reported":1752534638,"current_range_meters":11600,"station_id":"ce4bgqh2rcd13ifvqc4g","pricing_plan_id":"cebpf4jnsgd1na2vs0mg"},{"bike_id":"2a0aedde-7f30-493f-9aae-d292c759cf7c","system_id":"levelo_inurba_marseille","lat":43.27922,"lon":5.39583,"is_reserved":false,"is_disabled":false,"rental_uris":{"android":"levelo://app?vid=2a0aedde-7f30-493f-9aae-d292c759cf7c","ios":"levelo://app?vid=2a0aedde-7f30-493f-9aae-d292c759cf7c"},"vehicle_type_id":"4","last_reported":1752534638,"current_range_meters":12000,"station_id":"ce4bhf92rcd13ifvqf40","pricing_plan_id":"cebpf4jnsgd1na2vs0mg"},{"bike_id":"c5cc6be2-de31-45bb-ac38-e8bc875ef104","system_id":"levelo_inurba_marseille","lat":43.30935,"lon":5.40177,"is_reserved":false,"is_disabled":false,"rental_uris":{"android":"levelo://app?vid=c5cc6be2-de31-45bb-ac38-e8bc875ef104","ios":"levelo://app?vid=c5cc6be2-de31-45bb-ac38-e8bc875ef104"},"vehicle_type_id":"4","last_reported":1752534638,"current_range_meters":12400,"station_id":"ce4bgvp2rcd13ifvqct0","pricing_plan_id":"cebpf4jnsgd1na2vs0mg"},{"bike_id":"df737b47-6e09-4542-8d35-f3681d0e6a4d","system_id":"levelo_inurba_marseille","lat":43.276159,"lon":5.361014,"is_reserved":false,"is_disabled":true,"rental_uris":{"android":"levelo://app?vid=df737b47-6e09-4542-8d35-f3681d0e6a4d","ios":"levelo://app?vid=df737b47-6e09-4542-8d35-f3681d0e6a4d"},"vehicle_type_id":"4","last_reported":1752534638,"current_range_meters":12400,"station_id":"ce4bgj92rcd13ifvqbe0","pricing_plan_id":"cebpf4jnsgd1na2vs0mg"},{"bike_id":"e1442ff3-c767-4bb3-901d-e5f60873ad13","system_id":"levelo_inurba_marseille","lat":43.23183,"lon":5.39997,"is_reserved":false,"is_disabled":false,"rental_uris":{"android":"levelo://app?vid=e1442ff3-c767-4bb3-901d-e5f60873ad13","ios":"levelo://app?vid=e1442ff3-c767-4bb3-901d-e5f60873ad13"},"vehicle_type_id":"4","last_reported":1752534638,"current_range_meters":12400,"station_id":"ce4bhn12rcd13ifvqgqg","pricing_plan_id":"cebpf4jnsgd1na2vs0mg"},{"bike_id":"a8b417d8-3e0b-4a82-8223-597c65d58448","system_id":"levelo_inurba_marseille","lat":43.25863,"lon":5.39901,"is_reserved":false,"is_disabled":false,"rental_uris":{"android":"levelo://app?vid=a8b417d8-3e0b-4a82-8223-597c65d58448","ios":"levelo://app?vid=a8b417d8-3e0b-4a82-8223-597c65d58448"},"vehicle_type_id":"4","last_reported":1752534638,"current_range_meters":12400,"station_id":"ce4bhl92rcd13ifvqghg","pricing_plan_id":"cebpf4jnsgd1na2vs0mg"},{"bike_id":"6ac174d4-75c5-4a9c-9699-97cd631c6e65","system_id":"levelo_inurba_marseille","lat":43.25397,"lon":5.40157,"is_reserved":false,"is_disabled":false,"rental_uris":{"android":"levelo://app?vid=6ac174d4-75c5-4a9c-9699-97cd631c6e65","ios":"levelo://app?vid=6ac174d4-75c5-4a9c-9699-97cd631c6e65"},"vehicle_type_id":"4","last_reported":1752534638,"current_range_meters":12400,"station_id":"","pricing_plan_id":"cebpf4jnsgd1na2vs0mg"},{"bike_id":"08dbf31c-b540-4ca6-b57d-3481ea73d97b","system_id":"levelo_inurba_marseille","lat":43.22509,"lon":5.34779,"is_reserved":false,"is_disabled":false,"rental_uris":{"android":"levelo://app?vid=08dbf31c-b540-4ca6-b57d-3481ea73d97b","ios":"levelo://app?vid=08dbf31c-b540-4ca6-b57d-3481ea73d97b"},"vehicle_type_id":"4","last_reported":1752534638,"current_range_meters":12400,"station_id":"st_cvj5dfep6f1abm77gieg","pricing_plan_id":"cebpf4jnsgd1na2vs0mg"},{"bike_id":"6d6db659-213e-47cd-9c24-369ce1444f70","system_id":"levelo_inurba_marseille","lat":43.26949,"lon":5.38627,"is_reserved":false,"is_disabled":false,"rental_uris":{"android":"levelo://app?vid=6d6db659-213e-47cd-9c24-369ce1444f70","ios":"levelo://app?vid=6d6db659-213e-47cd-9c24-369ce1444f70"},"vehicle_type_id":"4","last_reported":1752534638,"current_range_meters":12000,"station_id":"ce4bhh92rcd13ifvqfh0","pricing_plan_id":"cebpf4jnsgd1na2vs0mg"},{"bike_id":"51cd20e2-eeba-4787-b9f9-634f599370d2","system_id":"levelo_inurba_marseille","lat":43.31321,"lon":5.39694,"is_reserved":false,"is_disabled":false,"rental_uris":{"android":"levelo://app?vid=51cd20e2-eeba-4787-b9f9-634f599370d2","ios":"levelo://app?vid=51cd20e2-eeba-4787-b9f9-634f599370d2"},"vehicle_type_id":"4","last_reported":1752534638,"current_range_meters":12400,"station_id":"ce4bgvp2rcd13ifvqcu0","pricing_plan_id":"cebpf4jnsgd1na2vs0mg"},{"bike_id":"7ea577e7-1080-4e3d-9ece-a825e8e18d5b","system_id":"levelo_inurba_marseille","lat":43.306441,"lon":5.400954,"is_reserved":false,"is_disabled":false,"rental_uris":{"android":"levelo://app?vid=7ea577e7-1080-4e3d-9ece-a825e8e18d5b","ios":"levelo://app?vid=7ea577e7-1080-4e3d-9ece-a825e8e18d5b"},"vehicle_type_id":"4","last_reported":1752534638,"current_range_meters":12400,"station_id":"ce4bh112rcd13ifvqda0","pricing_plan_id":"cebpf4jnsgd1na2vs0mg"},{"bike_id":"60399d95-c52d-4ad8-bb15-c813f4b8a24e","system_id":"levelo_inurba_marseille","lat":43.30807,"lon":5.38159,"is_reserved":false,"is_disabled":false,"rental_uris":{"android":"levelo://app?vid=60399d95-c52d-4ad8-bb15-c813f4b8a24e","ios":"levelo://app?vid=60399d95-c52d-4ad8-bb15-c813f4b8a24e"},"vehicle_type_id":"4","last_reported":1752534638,"current_range_meters":12800,"station_id":"ce4bgt12rcd13ifvqce0","pricing_plan_id":"cebpf4jnsgd1na2vs0mg"},{"bike_id":"70b23b48-5fc0-4f37-805f-42d20a84c43a","system_id":"levelo_inurba_marseille","lat":43.34138,"lon":5.40912,"is_reserved":false,"is_disabled":false,"rental_uris":{"android":"levelo://app?vid=70b23b48-5fc0-4f37-805f-42d20a84c43a","ios":"levelo://app?vid=70b23b48-5fc0-4f37-805f-42d20a84c43a"},"vehicle_type_id":"4","last_reported":1752534638,"current_range_meters":12800,"station_id":"ce4bhqh2rcd13ifvqhlg","pricing_plan_id":"cebpf4jnsgd1na2vs0mg"},{"bike_id":"37cf8e09-e87a-4191-8687-e4c6c10aabb8","system_id":"levelo_inurba_marseille","lat":43.248152,"lon":5.374341,"is_reserved":false,"is_disabled":true,"rental_uris":{"android":"levelo://app?vid=37cf8e09-e87a-4191-8687-e4c6c10aabb8","ios":"levelo://app?vid=37cf8e09-e87a-4191-8687-e4c6c10aabb8"},"vehicle_type_id":"4","last_reported":1752534638,"current_range_meters":12800,"station_id":"ce4bhgh2rcd13ifvqfb0","pricing_plan_id":"cebpf4jnsgd1na2vs0mg"},{"bike_id":"e39d72a8-1c3e-4dce-a3c9-7069cc0fb06f","system_id":"levelo_inurba_marseille","lat":43.27946,"lon":5.41043,"is_reserved":false,"is_disabled":false,"rental_uris":{"android":"levelo://app?vid=e39d72a8-1c3e-4dce-a3c9-7069cc0fb06f","ios":"levelo://app?vid=e39d72a8-1c3e-4dce-a3c9-7069cc0fb06f"},"vehicle_type_id":"4","last_reported":1752534638,"current_range_meters":12800,"station_id":"ce4bhnp2rcd13ifvqh0g","pricing_plan_id":"cebpf4jnsgd1na2vs0mg"},{"bike_id":"ed74f810-226b-4edb-a7d8-2c9a86d071a4","system_id":"levelo_inurba_marseille","lat":43.2119,"lon":5.3507,"is_reserved":false,"is_disabled":false,"rental_uris":{"android":"levelo://app?vid=ed74f810-226b-4edb-a7d8-2c9a86d071a4","ios":"levelo://app?vid=ed74f810-226b-4edb-a7d8-2c9a86d071a4"},"vehicle_type_id":"4","last_reported":1752534638,"current_range_meters":12800,"station_id":"st_cvj6sg6p6f1abm77japg","pricing_plan_id":"cebpf4jnsgd1na2vs0mg"},{"bike_id":"eeaaa9c8-1241-44b2-bb2d-03b53f340747","system_id":"levelo_inurba_marseille","lat":43.28686,"lon":5.38661,"is_reserved":false,"is_disabled":false,"rental_uris":{"android":"levelo://app?vid=eeaaa9c8-1241-44b2-bb2d-03b53f340747","ios":"levelo://app?vid=eeaaa9c8-1241-44b2-bb2d-03b53f340747"},"vehicle_type_id":"4","last_reported":1752534638,"current_range_meters":12800,"station_id":"ce4bh492rcd13ifvqdug","pricing_plan_id":"cebpf4jnsgd1na2vs0mg"},{"bike_id":"4026c91c-d6e8-4686-b762-11d3714cecf8","system_id":"levelo_inurba_marseille","lat":43.29208,"lon":5.35976,"is_reserved":false,"is_disabled":true,"rental_uris":{"android":"levelo://app?vid=4026c91c-d6e8-4686-b762-11d3714cecf8","ios":"levelo://app?vid=4026c91c-d6e8-4686-b762-11d3714cecf8"},"vehicle_type_id":"4","last_reported":1752534638,"current_range_meters":13600,"station_id":"","pricing_plan_id":"cebpf4jnsgd1na2vs0mg"},{"bike_id":"a292e92d-e826-4960-8d86-023a1166220b","system_id":"levelo_inurba_marseille","lat":43.30601,"lon":5.39351,"is_reserved":false,"is_disabled":false,"rental_uris":{"android":"levelo://app?vid=a292e92d-e826-4960-8d86-023a1166220b","ios":"levelo://app?vid=a292e92d-e826-4960-8d86-023a1166220b"},"vehicle_type_id":"4","last_reported":1752534638,"current_range_meters":13600,"station_id":"ce4bh0p2rcd13ifvqd80","pricing_plan_id":"cebpf4jnsgd1na2vs0mg"},{"bike_id":"b132f4f3-515c-4d18-ae2c-5d88fff80a67","system_id":"levelo_inurba_marseille","lat":43.30657,"lon":5.4008,"is_reserved":false,"is_disabled":false,"rental_uris":{"android":"levelo://app?vid=b132f4f3-515c-4d18-ae2c-5d88fff80a67","ios":"levelo://app?vid=b132f4f3-515c-4d18-ae2c-5d88fff80a67"},"vehicle_type_id":"4","last_reported":1752534638,"current_range_meters":13600,"station_id":"ce4bh112rcd13ifvqda0","pricing_plan_id":"cebpf4jnsgd1na2vs0mg"},{"bike_id":"68271f2c-d116-4bee-8e06-9f87e5a7a022","system_id":"levelo_inurba_marseille","lat":43.29277,"lon":5.401241,"is_reserved":false,"is_disabled":false,"rental_uris":{"android":"levelo://app?vid=68271f2c-d116-4bee-8e06-9f87e5a7a022","ios":"levelo://app?vid=68271f2c-d116-4bee-8e06-9f87e5a7a022"},"vehicle_type_id":"4","last_reported":1752534638,"current_range_meters":13600,"station_id":"ce4bh312rcd13ifvqdk0","pricing_plan_id":"cebpf4jnsgd1na2vs0mg"},{"bike_id":"d6be7a33-3ebf-46de-9066-e00a0e74a66f","system_id":"levelo_inurba_marseille","lat":43.245438,"lon":5.395206,"is_reserved":false,"is_disabled":false,"rental_uris":{"android":"levelo://app?vid=d6be7a33-3ebf-46de-9066-e00a0e74a66f","ios":"levelo://app?vid=d6be7a33-3ebf-46de-9066-e00a0e74a66f"},"vehicle_type_id":"4","last_reported":1752534638,"current_range_meters":12800,"station_id":"ce4bhlp2rcd13ifvqgjg","pricing_plan_id":"cebpf4jnsgd1na2vs0mg"},{"bike_id":"4c76198d-1aae-4431-8262-3646eb86ee0c","system_id":"levelo_inurba_marseille","lat":43.32338,"lon":5.40626,"is_reserved":false,"is_disabled":false,"rental_uris":{"android":"levelo://app?vid=4c76198d-1aae-4431-8262-3646eb86ee0c","ios":"levelo://app?vid=4c76198d-1aae-4431-8262-3646eb86ee0c"},"vehicle_type_id":"4","last_reported":1752534638,"current_range_meters":13600,"station_id":"ce4bhq92rcd13ifvqhjg","pricing_plan_id":"cebpf4jnsgd1na2vs0mg"},{"bike_id":"396fa1c4-d4d6-4b79-a51f-bd30b2cf1050","system_id":"levelo_inurba_marseille","lat":43.24996,"lon":5.38934,"is_reserved":false,"is_disabled":false,"rental_uris":{"android":"levelo://app?vid=396fa1c4-d4d6-4b79-a51f-bd30b2cf1050","ios":"levelo://app?vid=396fa1c4-d4d6-4b79-a51f-bd30b2cf1050"},"vehicle_type_id":"4","last_reported":1752534638,"current_range_meters":12800,"station_id":"ce4bhgp2rcd13ifvqfd0","pricing_plan_id":"cebpf4jnsgd1na2vs0mg"},{"bike_id":"b17bf045-5559-435c-a31e-2c9a4d5a0fdb","system_id":"levelo_inurba_marseille","lat":43.23959,"lon":5.36634,"is_reserved":false,"is_disabled":false,"rental_uris":{"android":"levelo://app?vid=b17bf045-5559-435c-a31e-2c9a4d5a0fdb","ios":"levelo://app?vid=b17bf045-5559-435c-a31e-2c9a4d5a0fdb"},"vehicle_type_id":"4","last_reported":1752534638,"current_range_meters":13600,"station_id":"ce4bhi12rcd13ifvqfp0","pricing_plan_id":"cebpf4jnsgd1na2vs0mg"},{"bike_id":"26916293-248f-4a60-b24d-48fd4c7c0747","system_id":"levelo_inurba_marseille","lat":43.26926,"lon":5.38922,"is_reserved":false,"is_disabled":false,"rental_uris":{"android":"levelo://app?vid=26916293-248f-4a60-b24d-48fd4c7c0747","ios":"levelo://app?vid=26916293-248f-4a60-b24d-48fd4c7c0747"},"vehicle_type_id":"4","last_reported":1752534638,"current_range_meters":13600,"station_id":"ce4bhhh2rcd13ifvqfl0","pricing_plan_id":"cebpf4jnsgd1na2vs0mg"},{"bike_id":"9c8b64c5-83e8-46b9-904e-eb730e906b77","system_id":"levelo_inurba_marseille","lat":43.29892,"lon":5.39746,"is_reserved":false,"is_disabled":false,"rental_uris":{"android":"levelo://app?vid=9c8b64c5-83e8-46b9-904e-eb730e906b77","ios":"levelo://app?vid=9c8b64c5-83e8-46b9-904e-eb730e906b77"},"vehicle_type_id":"4","last_reported":1752534638,"current_range_meters":13600,"station_id":"ce4bh0h2rcd13ifvqd50","pricing_plan_id":"cebpf4jnsgd1na2vs0mg"},{"bike_id":"06e58a03-6e9a-4572-becf-9507cdf0a57d","system_id":"levelo_inurba_marseille","lat":43.28156,"lon":5.4265,"is_reserved":false,"is_disabled":false,"rental_uris":{"android":"levelo://app?vid=06e58a03-6e9a-4572-becf-9507cdf0a57d","ios":"levelo://app?vid=06e58a03-6e9a-4572-becf-9507cdf0a57d"},"vehicle_type_id":"4","last_reported":1752534638,"current_range_meters":13600,"station_id":"ce4bhnh2rcd13ifvqgug","pricing_plan_id":"cebpf4jnsgd1na2vs0mg"},{"bike_id":"035a80a0-4c0f-4627-9ca2-a0121fdb60e7","system_id":"levelo_inurba_marseille","lat":43.28551,"lon":5.39496,"is_reserved":false,"is_disabled":false,"rental_uris":{"android":"levelo://app?vid=035a80a0-4c0f-4627-9ca2-a0121fdb60e7","ios":"levelo://app?vid=035a80a0-4c0f-4627-9ca2-a0121fdb60e7"},"vehicle_type_id":"4","last_reported":1752534638,"current_range_meters":12800,"station_id":"ce4bh292rcd13ifvqdg0","pricing_plan_id":"cebpf4jnsgd1na2vs0mg"},{"bike_id":"8053f077-b52b-4691-8d72-af68fa753bbf","system_id":"levelo_inurba_marseille","lat":43.302508,"lon":5.400677,"is_reserved":false,"is_disabled":false,"rental_uris":{"android":"levelo://app?vid=8053f077-b52b-4691-8d72-af68fa753bbf","ios":"levelo://app?vid=8053f077-b52b-4691-8d72-af68fa753bbf"},"vehicle_type_id":"4","last_reported":1752534638,"current_range_meters":14000,"station_id":"ce4bgvh2rcd13ifvqcs0","pricing_plan_id":"cebpf4jnsgd1na2vs0mg"},{"bike_id":"7a241db5-b7c0-4a3a-8fc8-493d39a61928","system_id":"levelo_inurba_marseille","lat":43.25818,"lon":5.394478,"is_reserved":false,"is_disabled":false,"rental_uris":{"android":"levelo://app?vid=7a241db5-b7c0-4a3a-8fc8-493d39a61928","ios":"levelo://app?vid=7a241db5-b7c0-4a3a-8fc8-493d39a61928"},"vehicle_type_id":"4","last_reported":1752534638,"current_range_meters":14000,"station_id":"ce4bhip2rcd13ifvqft0","pricing_plan_id":"cebpf4jnsgd1na2vs0mg"},{"bike_id":"61ccd7e5-2d18-42f3-a0dc-a80ef4380d7e","system_id":"levelo_inurba_marseille","lat":43.24999,"lon":5.38928,"is_reserved":false,"is_disabled":false,"rental_uris":{"android":"levelo://app?vid=61ccd7e5-2d18-42f3-a0dc-a80ef4380d7e","ios":"levelo://app?vid=61ccd7e5-2d18-42f3-a0dc-a80ef4380d7e"},"vehicle_type_id":"4","last_reported":1752534638,"current_range_meters":14000,"station_id":"ce4bhgp2rcd13ifvqfd0","pricing_plan_id":"cebpf4jnsgd1na2vs0mg"},{"bike_id":"1e52cfe4-daa6-4f6d-b89a-ac2b466be504","system_id":"levelo_inurba_marseille","lat":43.287018,"lon":5.39986,"is_reserved":false,"is_disabled":false,"rental_uris":{"android":"levelo://app?vid=1e52cfe4-daa6-4f6d-b89a-ac2b466be504","ios":"levelo://app?vid=1e52cfe4-daa6-4f6d-b89a-ac2b466be504"},"vehicle_type_id":"4","last_reported":1752534638,"current_range_meters":14000,"station_id":"ce4bho92rcd13ifvqh3g","pricing_plan_id":"cebpf4jnsgd1na2vs0mg"},{"bike_id":"7cbad297-5ffd-4c4b-942f-f29161424c4d","system_id":"levelo_inurba_marseille","lat":43.27942,"lon":5.41051,"is_reserved":false,"is_disabled":false,"rental_uris":{"android":"levelo://app?vid=7cbad297-5ffd-4c4b-942f-f29161424c4d","ios":"levelo://app?vid=7cbad297-5ffd-4c4b-942f-f29161424c4d"},"vehicle_type_id":"4","last_reported":1752534638,"current_range_meters":14000,"station_id":"ce4bhnp2rcd13ifvqh0g","pricing_plan_id":"cebpf4jnsgd1na2vs0mg"},{"bike_id":"92abda49-3ab7-4993-a4ee-dad11c1651fb","system_id":"levelo_inurba_marseille","lat":43.27807,"lon":5.4072,"is_reserved":false,"is_disabled":false,"rental_uris":{"android":"levelo://app?vid=92abda49-3ab7-4993-a4ee-dad11c1651fb","ios":"levelo://app?vid=92abda49-3ab7-4993-a4ee-dad11c1651fb"},"vehicle_type_id":"4","last_reported":1752534638,"current_range_meters":14000,"station_id":"ce4bhnh2rcd13ifvqgtg","pricing_plan_id":"cebpf4jnsgd1na2vs0mg"},{"bike_id":"47be2d0f-247f-4168-8434-9c41a69e5f6f","system_id":"levelo_inurba_marseille","lat":43.258642,"lon":5.398999,"is_reserved":false,"is_disabled":false,"rental_uris":{"android":"levelo://app?vid=47be2d0f-247f-4168-8434-9c41a69e5f6f","ios":"levelo://app?vid=47be2d0f-247f-4168-8434-9c41a69e5f6f"},"vehicle_type_id":"4","last_reported":1752534638,"current_range_meters":14000,"station_id":"ce4bhl92rcd13ifvqghg","pricing_plan_id":"cebpf4jnsgd1na2vs0mg"},{"bike_id":"41e47ab4-31d6-4e54-b9bb-9741e0f94162","system_id":"levelo_inurba_marseille","lat":43.229296,"lon":5.353784,"is_reserved":false,"is_disabled":false,"rental_uris":{"android":"levelo://app?vid=41e47ab4-31d6-4e54-b9bb-9741e0f94162","ios":"levelo://app?vid=41e47ab4-31d6-4e54-b9bb-9741e0f94162"},"vehicle_type_id":"4","last_reported":1752534638,"current_range_meters":14400,"station_id":"cpo3532slgdg3j2ikp40","pricing_plan_id":"cebpf4jnsgd1na2vs0mg"},{"bike_id":"444a2545-9fe1-4670-a5c2-0b973281bb2b","system_id":"levelo_inurba_marseille","lat":43.30237,"lon":5.40072,"is_reserved":false,"is_disabled":false,"rental_uris":{"android":"levelo://app?vid=444a2545-9fe1-4670-a5c2-0b973281bb2b","ios":"levelo://app?vid=444a2545-9fe1-4670-a5c2-0b973281bb2b"},"vehicle_type_id":"4","last_reported":1752534638,"current_range_meters":14400,"station_id":"ce4bgvh2rcd13ifvqcs0","pricing_plan_id":"cebpf4jnsgd1na2vs0mg"},{"bike_id":"af1eb9db-514d-4b8f-85e5-450ef4483445","system_id":"levelo_inurba_marseille","lat":43.29608,"lon":5.39093,"is_reserved":false,"is_disabled":false,"rental_uris":{"android":"levelo://app?vid=af1eb9db-514d-4b8f-85e5-450ef4483445","ios":"levelo://app?vid=af1eb9db-514d-4b8f-85e5-450ef4483445"},"vehicle_type_id":"4","last_reported":1752534638,"current_range_meters":12800,"station_id":"","pricing_plan_id":"cebpf4jnsgd1na2vs0mg"},{"bike_id":"c4394d8c-8102-4300-bdb5-758262918af2","system_id":"levelo_inurba_marseille","lat":43.309257,"lon":5.40145,"is_reserved":false,"is_disabled":true,"rental_uris":{"android":"levelo://app?vid=c4394d8c-8102-4300-bdb5-758262918af2","ios":"levelo://app?vid=c4394d8c-8102-4300-bdb5-758262918af2"},"vehicle_type_id":"4","last_reported":1752534638,"current_range_meters":14400,"station_id":"","pricing_plan_id":"cebpf4jnsgd1na2vs0mg"},{"bike_id":"10a5af44-d560-4a41-8597-b2a4576cc179","system_id":"levelo_inurba_marseille","lat":43.23153,"lon":5.43705,"is_reserved":false,"is_disabled":false,"rental_uris":{"android":"levelo://app?vid=10a5af44-d560-4a41-8597-b2a4576cc179","ios":"levelo://app?vid=10a5af44-d560-4a41-8597-b2a4576cc179"},"vehicle_type_id":"4","last_reported":1752534638,"current_range_meters":14400,"station_id":"ce4bhmp2rcd13ifvqgog","pricing_plan_id":"cebpf4jnsgd1na2vs0mg"},{"bike_id":"96404d04-512d-4e45-b57c-350a79134d38","system_id":"levelo_inurba_marseille","lat":43.21192,"lon":5.35074,"is_reserved":false,"is_disabled":false,"rental_uris":{"android":"levelo://app?vid=96404d04-512d-4e45-b57c-350a79134d38","ios":"levelo://app?vid=96404d04-512d-4e45-b57c-350a79134d38"},"vehicle_type_id":"4","last_reported":1752534638,"current_range_meters":14400,"station_id":"st_cvj6sg6p6f1abm77japg","pricing_plan_id":"cebpf4jnsgd1na2vs0mg"},{"bike_id":"b98a711e-034d-43be-84fc-6ada57242358","system_id":"levelo_inurba_marseille","lat":43.2557,"lon":5.38248,"is_reserved":false,"is_disabled":false,"rental_uris":{"android":"levelo://app?vid=b98a711e-034d-43be-84fc-6ada57242358","ios":"levelo://app?vid=b98a711e-034d-43be-84fc-6ada57242358"},"vehicle_type_id":"4","last_reported":1752534638,"current_range_meters":14400,"station_id":"ce4bhih2rcd13ifvqfs0","pricing_plan_id":"cebpf4jnsgd1na2vs0mg"},{"bike_id":"39bda38f-2629-4ae3-89b7-a0cdea6bdae8","system_id":"levelo_inurba_marseille","lat":43.27916,"lon":5.39607,"is_reserved":false,"is_disabled":false,"rental_uris":{"android":"levelo://app?vid=39bda38f-2629-4ae3-89b7-a0cdea6bdae8","ios":"levelo://app?vid=39bda38f-2629-4ae3-89b7-a0cdea6bdae8"},"vehicle_type_id":"4","last_reported":1752534638,"current_range_meters":14800,"station_id":"ce4bhf92rcd13ifvqf40","pricing_plan_id":"cebpf4jnsgd1na2vs0mg"},{"bike_id":"44e10618-e1b8-4569-bc24-980853c4bf04","system_id":"levelo_inurba_marseille","lat":43.22923,"lon":5.35382,"is_reserved":false,"is_disabled":true,"rental_uris":{"android":"levelo://app?vid=44e10618-e1b8-4569-bc24-980853c4bf04","ios":"levelo://app?vid=44e10618-e1b8-4569-bc24-980853c4bf04"},"vehicle_type_id":"4","last_reported":1752534638,"current_range_meters":14800,"station_id":"cpo3532slgdg3j2ikp40","pricing_plan_id":"cebpf4jnsgd1na2vs0mg"},{"bike_id":"040071ac-8221-44b8-9802-a9a819218150","system_id":"levelo_inurba_marseille","lat":43.26933,"lon":5.40259,"is_reserved":false,"is_disabled":false,"rental_uris":{"android":"levelo://app?vid=040071ac-8221-44b8-9802-a9a819218150","ios":"levelo://app?vid=040071ac-8221-44b8-9802-a9a819218150"},"vehicle_type_id":"4","last_reported":1752534638,"current_range_meters":14800,"station_id":"cjm6bp8fraef2m0cb0m0","pricing_plan_id":"cebpf4jnsgd1na2vs0mg"},{"bike_id":"909003b7-f7cf-4ca8-8afd-79d4b8a17122","system_id":"levelo_inurba_marseille","lat":43.23967,"lon":5.36626,"is_reserved":false,"is_disabled":false,"rental_uris":{"android":"levelo://app?vid=909003b7-f7cf-4ca8-8afd-79d4b8a17122","ios":"levelo://app?vid=909003b7-f7cf-4ca8-8afd-79d4b8a17122"},"vehicle_type_id":"4","last_reported":1752534638,"current_range_meters":14800,"station_id":"ce4bhi12rcd13ifvqfp0","pricing_plan_id":"cebpf4jnsgd1na2vs0mg"},{"bike_id":"459f21fb-410d-45c7-bf60-9f57d1ac5b1b","system_id":"levelo_inurba_marseille","lat":43.3127,"lon":5.40171,"is_reserved":false,"is_disabled":false,"rental_uris":{"android":"levelo://app?vid=459f21fb-410d-45c7-bf60-9f57d1ac5b1b","ios":"levelo://app?vid=459f21fb-410d-45c7-bf60-9f57d1ac5b1b"},"vehicle_type_id":"4","last_reported":1752534638,"current_range_meters":14800,"station_id":"ce4bh092rcd13ifvqd30","pricing_plan_id":"cebpf4jnsgd1na2vs0mg"},{"bike_id":"9500fa94-fc5b-4efa-8a35-8626fa5c4517","system_id":"levelo_inurba_marseille","lat":43.255798,"lon":5.38235,"is_reserved":false,"is_disabled":false,"rental_uris":{"android":"levelo://app?vid=9500fa94-fc5b-4efa-8a35-8626fa5c4517","ios":"levelo://app?vid=9500fa94-fc5b-4efa-8a35-8626fa5c4517"},"vehicle_type_id":"4","last_reported":1752534638,"current_range_meters":15200,"station_id":"ce4bhih2rcd13ifvqfs0","pricing_plan_id":"cebpf4jnsgd1na2vs0mg"},{"bike_id":"1e893d1c-0142-4ecb-aff9-46308c98c984","system_id":"levelo_inurba_marseille","lat":43.28427,"lon":5.39203,"is_reserved":false,"is_disabled":false,"rental_uris":{"android":"levelo://app?vid=1e893d1c-0142-4ecb-aff9-46308c98c984","ios":"levelo://app?vid=1e893d1c-0142-4ecb-aff9-46308c98c984"},"vehicle_type_id":"4","last_reported":1752534638,"current_range_meters":15200,"station_id":"ce4bhoh2rcd13ifvqh5g","pricing_plan_id":"cebpf4jnsgd1na2vs0mg"},{"bike_id":"d0f90c24-dd03-411b-9731-55305f76b7c8","system_id":"levelo_inurba_marseille","lat":43.211926,"lon":5.350753,"is_reserved":false,"is_disabled":false,"rental_uris":{"android":"levelo://app?vid=d0f90c24-dd03-411b-9731-55305f76b7c8","ios":"levelo://app?vid=d0f90c24-dd03-411b-9731-55305f76b7c8"},"vehicle_type_id":"4","last_reported":1752534638,"current_range_meters":15200,"station_id":"st_cvj6sg6p6f1abm77japg","pricing_plan_id":"cebpf4jnsgd1na2vs0mg"},{"bike_id":"9abe87a0-4ff8-4da3-9ef8-ba0f0e19ecb1","system_id":"levelo_inurba_marseille","lat":43.302521,"lon":5.400704,"is_reserved":false,"is_disabled":false,"rental_uris":{"android":"levelo://app?vid=9abe87a0-4ff8-4da3-9ef8-ba0f0e19ecb1","ios":"levelo://app?vid=9abe87a0-4ff8-4da3-9ef8-ba0f0e19ecb1"},"vehicle_type_id":"4","last_reported":1752534638,"current_range_meters":15200,"station_id":"ce4bgvh2rcd13ifvqcs0","pricing_plan_id":"cebpf4jnsgd1na2vs0mg"},{"bike_id":"9ffc56f6-9961-4065-9576-a4bb167a9715","system_id":"levelo_inurba_marseille","lat":43.30233,"lon":5.40067,"is_reserved":false,"is_disabled":false,"rental_uris":{"android":"levelo://app?vid=9ffc56f6-9961-4065-9576-a4bb167a9715","ios":"levelo://app?vid=9ffc56f6-9961-4065-9576-a4bb167a9715"},"vehicle_type_id":"4","last_reported":1752534638,"current_range_meters":15200,"station_id":"ce4bgvh2rcd13ifvqcs0","pricing_plan_id":"cebpf4jnsgd1na2vs0mg"},{"bike_id":"403880bc-8bea-46f6-8a81-b7f6860118ac","system_id":"levelo_inurba_marseille","lat":43.29243,"lon":5.38438,"is_reserved":false,"is_disabled":true,"rental_uris":{"android":"levelo://app?vid=403880bc-8bea-46f6-8a81-b7f6860118ac","ios":"levelo://app?vid=403880bc-8bea-46f6-8a81-b7f6860118ac"},"vehicle_type_id":"4","last_reported":1752534638,"current_range_meters":15200,"station_id":"ce4bh692rcd13ifvqea0","pricing_plan_id":"cebpf4jnsgd1na2vs0mg"},{"bike_id":"01beb3f2-c54f-4f68-af15-b28ae7c75196","system_id":"levelo_inurba_marseille","lat":43.30104,"lon":5.39864,"is_reserved":false,"is_disabled":true,"rental_uris":{"android":"levelo://app?vid=01beb3f2-c54f-4f68-af15-b28ae7c75196","ios":"levelo://app?vid=01beb3f2-c54f-4f68-af15-b28ae7c75196"},"vehicle_type_id":"4","last_reported":1752534638,"current_range_meters":16000,"station_id":"ce4bh0h2rcd13ifvqd40","pricing_plan_id":"cebpf4jnsgd1na2vs0mg"},{"bike_id":"9d0d1c4b-37ab-4f92-bb3b-44fcb8911a10","system_id":"levelo_inurba_marseille","lat":43.27809,"lon":5.40716,"is_reserved":false,"is_disabled":false,"rental_uris":{"android":"levelo://app?vid=9d0d1c4b-37ab-4f92-bb3b-44fcb8911a10","ios":"levelo://app?vid=9d0d1c4b-37ab-4f92-bb3b-44fcb8911a10"},"vehicle_type_id":"4","last_reported":1752534638,"current_range_meters":15200,"station_id":"ce4bhnh2rcd13ifvqgtg","pricing_plan_id":"cebpf4jnsgd1na2vs0mg"},{"bike_id":"eed1cff4-06e3-49f8-94e7-01af05866813","system_id":"levelo_inurba_marseille","lat":43.296297,"lon":5.40592,"is_reserved":false,"is_disabled":false,"rental_uris":{"android":"levelo://app?vid=eed1cff4-06e3-49f8-94e7-01af05866813","ios":"levelo://app?vid=eed1cff4-06e3-49f8-94e7-01af05866813"},"vehicle_type_id":"4","last_reported":1752534638,"current_range_meters":16000,"station_id":"ce4bh0h2rcd13ifvqd60","pricing_plan_id":"cebpf4jnsgd1na2vs0mg"},{"bike_id":"5cd7a037-73db-4474-b111-3689964aa045","system_id":"levelo_inurba_marseille","lat":43.2731,"lon":5.391,"is_reserved":false,"is_disabled":false,"rental_uris":{"android":"levelo://app?vid=5cd7a037-73db-4474-b111-3689964aa045","ios":"levelo://app?vid=5cd7a037-73db-4474-b111-3689964aa045"},"vehicle_type_id":"4","last_reported":1752534638,"current_range_meters":15200,"station_id":"ce4bhgp2rcd13ifvqfe0","pricing_plan_id":"cebpf4jnsgd1na2vs0mg"},{"bike_id":"6c6d4d9a-6141-481c-9c1a-8e61054bdc43","system_id":"levelo_inurba_marseille","lat":43.247798,"lon":5.417652,"is_reserved":false,"is_disabled":false,"rental_uris":{"android":"levelo://app?vid=6c6d4d9a-6141-481c-9c1a-8e61054bdc43","ios":"levelo://app?vid=6c6d4d9a-6141-481c-9c1a-8e61054bdc43"},"vehicle_type_id":"4","last_reported":1752534638,"current_range_meters":16000,"station_id":"","pricing_plan_id":"cebpf4jnsgd1na2vs0mg"},{"bike_id":"de7e1b86-b3c4-4c8d-a751-a8243938ad64","system_id":"levelo_inurba_marseille","lat":43.23187,"lon":5.39984,"is_reserved":false,"is_disabled":false,"rental_uris":{"android":"levelo://app?vid=de7e1b86-b3c4-4c8d-a751-a8243938ad64","ios":"levelo://app?vid=de7e1b86-b3c4-4c8d-a751-a8243938ad64"},"vehicle_type_id":"4","last_reported":1752534638,"current_range_meters":15200,"station_id":"ce4bhn12rcd13ifvqgqg","pricing_plan_id":"cebpf4jnsgd1na2vs0mg"},{"bike_id":"84155743-2e22-49c1-ab9f-db323ea2108b","system_id":"levelo_inurba_marseille","lat":43.30844,"lon":5.38148,"is_reserved":false,"is_disabled":false,"rental_uris":{"android":"levelo://app?vid=84155743-2e22-49c1-ab9f-db323ea2108b","ios":"levelo://app?vid=84155743-2e22-49c1-ab9f-db323ea2108b"},"vehicle_type_id":"4","last_reported":1752534638,"current_range_meters":16000,"station_id":"ce4bgt12rcd13ifvqce0","pricing_plan_id":"cebpf4jnsgd1na2vs0mg"},{"bike_id":"f10941ce-d19a-4475-b0ba-1c38d332727e","system_id":"levelo_inurba_marseille","lat":43.32148,"lon":5.38717,"is_reserved":false,"is_disabled":false,"rental_uris":{"android":"levelo://app?vid=f10941ce-d19a-4475-b0ba-1c38d332727e","ios":"levelo://app?vid=f10941ce-d19a-4475-b0ba-1c38d332727e"},"vehicle_type_id":"4","last_reported":1752534638,"current_range_meters":16000,"station_id":"","pricing_plan_id":"cebpf4jnsgd1na2vs0mg"},{"bike_id":"a9169505-65b5-4384-aac6-07a12936117d","system_id":"levelo_inurba_marseille","lat":43.29188,"lon":5.38452,"is_reserved":false,"is_disabled":false,"rental_uris":{"android":"levelo://app?vid=a9169505-65b5-4384-aac6-07a12936117d","ios":"levelo://app?vid=a9169505-65b5-4384-aac6-07a12936117d"},"vehicle_type_id":"4","last_reported":1752534638,"current_range_meters":16000,"station_id":"","pricing_plan_id":"cebpf4jnsgd1na2vs0mg"},{"bike_id":"48a72147-d63a-4fad-9403-9184689656c8","system_id":"levelo_inurba_marseille","lat":43.24374,"lon":5.37095,"is_reserved":false,"is_disabled":true,"rental_uris":{"android":"levelo://app?vid=48a72147-d63a-4fad-9403-9184689656c8","ios":"levelo://app?vid=48a72147-d63a-4fad-9403-9184689656c8"},"vehicle_type_id":"4","last_reported":1752534638,"current_range_meters":16000,"station_id":"ce4bhhh2rcd13ifvqfk0","pricing_plan_id":"cebpf4jnsgd1na2vs0mg"},{"bike_id":"e604067d-3800-4ac2-9860-8fea46e837e8","system_id":"levelo_inurba_marseille","lat":43.26584,"lon":5.40313,"is_reserved":false,"is_disabled":true,"rental_uris":{"android":"levelo://app?vid=e604067d-3800-4ac2-9860-8fea46e837e8","ios":"levelo://app?vid=e604067d-3800-4ac2-9860-8fea46e837e8"},"vehicle_type_id":"4","last_reported":1752534638,"current_range_meters":16000,"station_id":"","pricing_plan_id":"cebpf4jnsgd1na2vs0mg"},{"bike_id":"b55543d7-2027-4e49-9180-ad1422aa0afe","system_id":"levelo_inurba_marseille","lat":43.30951,"lon":5.39057,"is_reserved":false,"is_disabled":false,"rental_uris":{"android":"levelo://app?vid=b55543d7-2027-4e49-9180-ad1422aa0afe","ios":"levelo://app?vid=b55543d7-2027-4e49-9180-ad1422aa0afe"},"vehicle_type_id":"4","last_reported":1752534638,"current_range_meters":16000,"station_id":"ce4bgup2rcd13ifvqco0","pricing_plan_id":"cebpf4jnsgd1na2vs0mg"},{"bike_id":"979ec8af-ee2f-48be-b5f9-3f6684c1696e","system_id":"levelo_inurba_marseille","lat":43.301423,"lon":5.398788,"is_reserved":false,"is_disabled":false,"rental_uris":{"android":"levelo://app?vid=979ec8af-ee2f-48be-b5f9-3f6684c1696e","ios":"levelo://app?vid=979ec8af-ee2f-48be-b5f9-3f6684c1696e"},"vehicle_type_id":"4","last_reported":1752534638,"current_range_meters":16000,"station_id":"ce4bh0h2rcd13ifvqd40","pricing_plan_id":"cebpf4jnsgd1na2vs0mg"},{"bike_id":"37626eea-b4cd-413b-9338-cfc83a688dd1","system_id":"levelo_inurba_marseille","lat":43.28938,"lon":5.39636,"is_reserved":false,"is_disabled":false,"rental_uris":{"android":"levelo://app?vid=37626eea-b4cd-413b-9338-cfc83a688dd1","ios":"levelo://app?vid=37626eea-b4cd-413b-9338-cfc83a688dd1"},"vehicle_type_id":"4","last_reported":1752534638,"current_range_meters":16000,"station_id":"ce4bh3h2rcd13ifvqdn0","pricing_plan_id":"cebpf4jnsgd1na2vs0mg"},{"bike_id":"8017085f-d27f-49fc-a294-412551452c92","system_id":"levelo_inurba_marseille","lat":43.24644,"lon":5.38906,"is_reserved":false,"is_disabled":false,"rental_uris":{"android":"levelo://app?vid=8017085f-d27f-49fc-a294-412551452c92","ios":"levelo://app?vid=8017085f-d27f-49fc-a294-412551452c92"},"vehicle_type_id":"4","last_reported":1752534638,"current_range_meters":16400,"station_id":"ce4bhg12rcd13ifvqf60","pricing_plan_id":"cebpf4jnsgd1na2vs0mg"},{"bike_id":"f4a31c7a-7463-4205-aa02-aaaaf824cb91","system_id":"levelo_inurba_marseille","lat":43.30426,"lon":5.39755,"is_reserved":false,"is_disabled":false,"rental_uris":{"android":"levelo://app?vid=f4a31c7a-7463-4205-aa02-aaaaf824cb91","ios":"levelo://app?vid=f4a31c7a-7463-4205-aa02-aaaaf824cb91"},"vehicle_type_id":"4","last_reported":1752534638,"current_range_meters":16400,"station_id":"ce4bh092rcd13ifvqd20","pricing_plan_id":"cebpf4jnsgd1na2vs0mg"},{"bike_id":"2a74c118-5915-42ae-a5b6-acad51f5ceb5","system_id":"levelo_inurba_marseille","lat":43.27531,"lon":5.38434,"is_reserved":false,"is_disabled":true,"rental_uris":{"android":"levelo://app?vid=2a74c118-5915-42ae-a5b6-acad51f5ceb5","ios":"levelo://app?vid=2a74c118-5915-42ae-a5b6-acad51f5ceb5"},"vehicle_type_id":"4","last_reported":1752534638,"current_range_meters":16400,"station_id":"ce4bhh92rcd13ifvqfi0","pricing_plan_id":"cebpf4jnsgd1na2vs0mg"},{"bike_id":"d7112c54-f9dc-425f-acf8-196623bf4ba2","system_id":"levelo_inurba_marseille","lat":43.2406,"lon":5.37759,"is_reserved":false,"is_disabled":false,"rental_uris":{"android":"levelo://app?vid=d7112c54-f9dc-425f-acf8-196623bf4ba2","ios":"levelo://app?vid=d7112c54-f9dc-425f-acf8-196623bf4ba2"},"vehicle_type_id":"4","last_reported":1752534638,"current_range_meters":16400,"station_id":"ce4bhnp2rcd13ifvqgvg","pricing_plan_id":"cebpf4jnsgd1na2vs0mg"},{"bike_id":"e4cc9422-b66a-4b54-b535-b17a3b695b97","system_id":"levelo_inurba_marseille","lat":43.28354,"lon":5.37391,"is_reserved":false,"is_disabled":false,"rental_uris":{"android":"levelo://app?vid=e4cc9422-b66a-4b54-b535-b17a3b695b97","ios":"levelo://app?vid=e4cc9422-b66a-4b54-b535-b17a3b695b97"},"vehicle_type_id":"4","last_reported":1752534638,"current_range_meters":16400,"station_id":"","pricing_plan_id":"cebpf4jnsgd1na2vs0mg"},{"bike_id":"c3eb31c9-e106-4cd2-bb91-f2d0ee3e7a6f","system_id":"levelo_inurba_marseille","lat":43.240146,"lon":5.362556,"is_reserved":false,"is_disabled":false,"rental_uris":{"android":"levelo://app?vid=c3eb31c9-e106-4cd2-bb91-f2d0ee3e7a6f","ios":"levelo://app?vid=c3eb31c9-e106-4cd2-bb91-f2d0ee3e7a6f"},"vehicle_type_id":"4","last_reported":1752534638,"current_range_meters":16400,"station_id":"","pricing_plan_id":"cebpf4jnsgd1na2vs0mg"},{"bike_id":"ed2e0e1c-5686-47bd-89b3-af42f629970d","system_id":"levelo_inurba_marseille","lat":43.2918,"lon":5.3931,"is_reserved":false,"is_disabled":false,"rental_uris":{"android":"levelo://app?vid=ed2e0e1c-5686-47bd-89b3-af42f629970d","ios":"levelo://app?vid=ed2e0e1c-5686-47bd-89b3-af42f629970d"},"vehicle_type_id":"4","last_reported":1752534638,"current_range_meters":16400,"station_id":"ce4bh192rcd13ifvqdd0","pricing_plan_id":"cebpf4jnsgd1na2vs0mg"},{"bike_id":"e7694aae-87cd-4d01-8385-5e25413145a6","system_id":"levelo_inurba_marseille","lat":43.3131,"lon":5.40099,"is_reserved":false,"is_disabled":false,"rental_uris":{"android":"levelo://app?vid=e7694aae-87cd-4d01-8385-5e25413145a6","ios":"levelo://app?vid=e7694aae-87cd-4d01-8385-5e25413145a6"},"vehicle_type_id":"4","last_reported":1752534638,"current_range_meters":16800,"station_id":"","pricing_plan_id":"cebpf4jnsgd1na2vs0mg"},{"bike_id":"a726d9cf-327f-4be1-a12d-2ef4391eff8d","system_id":"levelo_inurba_marseille","lat":43.31187,"lon":5.38706,"is_reserved":false,"is_disabled":false,"rental_uris":{"android":"levelo://app?vid=a726d9cf-327f-4be1-a12d-2ef4391eff8d","ios":"levelo://app?vid=a726d9cf-327f-4be1-a12d-2ef4391eff8d"},"vehicle_type_id":"4","last_reported":1752534638,"current_range_meters":16800,"station_id":"ce4bgv12rcd13ifvqcp0","pricing_plan_id":"cebpf4jnsgd1na2vs0mg"},{"bike_id":"edc03305-420e-4467-b1c8-30fa0c8d7888","system_id":"levelo_inurba_marseille","lat":43.305394,"lon":5.38428,"is_reserved":false,"is_disabled":false,"rental_uris":{"android":"levelo://app?vid=edc03305-420e-4467-b1c8-30fa0c8d7888","ios":"levelo://app?vid=edc03305-420e-4467-b1c8-30fa0c8d7888"},"vehicle_type_id":"4","last_reported":1752534638,"current_range_meters":16800,"station_id":"ce4bgg92rcd13ifvqb30","pricing_plan_id":"cebpf4jnsgd1na2vs0mg"},{"bike_id":"3be7fe04-c061-4e14-8732-723ce4fb3a5e","system_id":"levelo_inurba_marseille","lat":43.30235,"lon":5.40066,"is_reserved":false,"is_disabled":false,"rental_uris":{"android":"levelo://app?vid=3be7fe04-c061-4e14-8732-723ce4fb3a5e","ios":"levelo://app?vid=3be7fe04-c061-4e14-8732-723ce4fb3a5e"},"vehicle_type_id":"4","last_reported":1752534638,"current_range_meters":16800,"station_id":"ce4bgvh2rcd13ifvqcs0","pricing_plan_id":"cebpf4jnsgd1na2vs0mg"},{"bike_id":"f0fe41d6-0866-46cf-9931-71e6d2939ce1","system_id":"levelo_inurba_marseille","lat":43.30133,"lon":5.39863,"is_reserved":false,"is_disabled":false,"rental_uris":{"android":"levelo://app?vid=f0fe41d6-0866-46cf-9931-71e6d2939ce1","ios":"levelo://app?vid=f0fe41d6-0866-46cf-9931-71e6d2939ce1"},"vehicle_type_id":"4","last_reported":1752534638,"current_range_meters":16800,"station_id":"ce4bh0h2rcd13ifvqd40","pricing_plan_id":"cebpf4jnsgd1na2vs0mg"},{"bike_id":"4c870332-d305-4911-b11e-97de461434d6","system_id":"levelo_inurba_marseille","lat":43.2815,"lon":5.42652,"is_reserved":false,"is_disabled":false,"rental_uris":{"android":"levelo://app?vid=4c870332-d305-4911-b11e-97de461434d6","ios":"levelo://app?vid=4c870332-d305-4911-b11e-97de461434d6"},"vehicle_type_id":"4","last_reported":1752534638,"current_range_meters":16800,"station_id":"ce4bhnh2rcd13ifvqgug","pricing_plan_id":"cebpf4jnsgd1na2vs0mg"},{"bike_id":"6a5bdfb5-44e8-42af-a1d8-aada0ea5cffd","system_id":"levelo_inurba_marseille","lat":43.292735,"lon":5.401375,"is_reserved":false,"is_disabled":false,"rental_uris":{"android":"levelo://app?vid=6a5bdfb5-44e8-42af-a1d8-aada0ea5cffd","ios":"levelo://app?vid=6a5bdfb5-44e8-42af-a1d8-aada0ea5cffd"},"vehicle_type_id":"4","last_reported":1752534638,"current_range_meters":16800,"station_id":"ce4bh312rcd13ifvqdk0","pricing_plan_id":"cebpf4jnsgd1na2vs0mg"},{"bike_id":"7633c823-f2dc-41dd-b029-cb3884896e43","system_id":"levelo_inurba_marseille","lat":43.292969,"lon":5.374511,"is_reserved":false,"is_disabled":false,"rental_uris":{"android":"levelo://app?vid=7633c823-f2dc-41dd-b029-cb3884896e43","ios":"levelo://app?vid=7633c823-f2dc-41dd-b029-cb3884896e43"},"vehicle_type_id":"4","last_reported":1752534638,"current_range_meters":16800,"station_id":"ce4bgi12rcd13ifvqb70","pricing_plan_id":"cebpf4jnsgd1na2vs0mg"},{"bike_id":"d7159adf-94a3-498c-948b-458c9b026277","system_id":"levelo_inurba_marseille","lat":43.22541,"lon":5.34769,"is_reserved":false,"is_disabled":false,"rental_uris":{"android":"levelo://app?vid=d7159adf-94a3-498c-948b-458c9b026277","ios":"levelo://app?vid=d7159adf-94a3-498c-948b-458c9b026277"},"vehicle_type_id":"4","last_reported":1752534638,"current_range_meters":16800,"station_id":"","pricing_plan_id":"cebpf4jnsgd1na2vs0mg"},{"bike_id":"18059574-f419-4b53-987d-800aa8e823e7","system_id":"levelo_inurba_marseille","lat":43.30926,"lon":5.40142,"is_reserved":false,"is_disabled":false,"rental_uris":{"android":"levelo://app?vid=18059574-f419-4b53-987d-800aa8e823e7","ios":"levelo://app?vid=18059574-f419-4b53-987d-800aa8e823e7"},"vehicle_type_id":"4","last_reported":1752534638,"current_range_meters":16800,"station_id":"ce4bgvp2rcd13ifvqct0","pricing_plan_id":"cebpf4jnsgd1na2vs0mg"},{"bike_id":"89a7fd2d-69f1-48ce-925c-1f3a3bb3f8c4","system_id":"levelo_inurba_marseille","lat":43.30879,"lon":5.39634,"is_reserved":false,"is_disabled":false,"rental_uris":{"android":"levelo://app?vid=89a7fd2d-69f1-48ce-925c-1f3a3bb3f8c4","ios":"levelo://app?vid=89a7fd2d-69f1-48ce-925c-1f3a3bb3f8c4"},"vehicle_type_id":"4","last_reported":1752534638,"current_range_meters":16800,"station_id":"ce4bh012rcd13ifvqcv0","pricing_plan_id":"cebpf4jnsgd1na2vs0mg"},{"bike_id":"5fceb865-9f63-4758-bb9a-77e5459eebf8","system_id":"levelo_inurba_marseille","lat":43.29871,"lon":5.39743,"is_reserved":false,"is_disabled":false,"rental_uris":{"android":"levelo://app?vid=5fceb865-9f63-4758-bb9a-77e5459eebf8","ios":"levelo://app?vid=5fceb865-9f63-4758-bb9a-77e5459eebf8"},"vehicle_type_id":"4","last_reported":1752534638,"current_range_meters":16400,"station_id":"ce4bh0h2rcd13ifvqd50","pricing_plan_id":"cebpf4jnsgd1na2vs0mg"},{"bike_id":"e0070fba-f314-48ae-b771-3d56ca082b74","system_id":"levelo_inurba_marseille","lat":43.27313,"lon":5.39093,"is_reserved":false,"is_disabled":false,"rental_uris":{"android":"levelo://app?vid=e0070fba-f314-48ae-b771-3d56ca082b74","ios":"levelo://app?vid=e0070fba-f314-48ae-b771-3d56ca082b74"},"vehicle_type_id":"4","last_reported":1752534638,"current_range_meters":17200,"station_id":"ce4bhgp2rcd13ifvqfe0","pricing_plan_id":"cebpf4jnsgd1na2vs0mg"},{"bike_id":"d199b05c-bf49-40ff-8185-8d98f4140722","system_id":"levelo_inurba_marseille","lat":43.331489,"lon":5.381668,"is_reserved":false,"is_disabled":false,"rental_uris":{"android":"levelo://app?vid=d199b05c-bf49-40ff-8185-8d98f4140722","ios":"levelo://app?vid=d199b05c-bf49-40ff-8185-8d98f4140722"},"vehicle_type_id":"4","last_reported":1752534638,"current_range_meters":17200,"station_id":"","pricing_plan_id":"cebpf4jnsgd1na2vs0mg"},{"bike_id":"cc078f22-342f-4a6e-b156-6dbca5db6df2","system_id":"levelo_inurba_marseille","lat":43.25117,"lon":5.40314,"is_reserved":false,"is_disabled":false,"rental_uris":{"android":"levelo://app?vid=cc078f22-342f-4a6e-b156-6dbca5db6df2","ios":"levelo://app?vid=cc078f22-342f-4a6e-b156-6dbca5db6df2"},"vehicle_type_id":"4","last_reported":1752534638,"current_range_meters":17200,"station_id":"ce4bhlh2rcd13ifvqgig","pricing_plan_id":"cebpf4jnsgd1na2vs0mg"},{"bike_id":"08e381b5-40e5-49fb-a425-a67d3d51f283","system_id":"levelo_inurba_marseille","lat":43.30593,"lon":5.39349,"is_reserved":false,"is_disabled":false,"rental_uris":{"android":"levelo://app?vid=08e381b5-40e5-49fb-a425-a67d3d51f283","ios":"levelo://app?vid=08e381b5-40e5-49fb-a425-a67d3d51f283"},"vehicle_type_id":"4","last_reported":1752534638,"current_range_meters":17200,"station_id":"ce4bh0p2rcd13ifvqd80","pricing_plan_id":"cebpf4jnsgd1na2vs0mg"},{"bike_id":"590e8a59-7dcc-42c4-80cd-31312d6a701b","system_id":"levelo_inurba_marseille","lat":43.23187,"lon":5.35557,"is_reserved":false,"is_disabled":true,"rental_uris":{"android":"levelo://app?vid=590e8a59-7dcc-42c4-80cd-31312d6a701b","ios":"levelo://app?vid=590e8a59-7dcc-42c4-80cd-31312d6a701b"},"vehicle_type_id":"4","last_reported":1752534638,"current_range_meters":17200,"station_id":"ce4bhu92rcd13ifvqi70","pricing_plan_id":"cebpf4jnsgd1na2vs0mg"},{"bike_id":"825ecf09-c6ac-4d28-98b9-0ce26c037406","system_id":"levelo_inurba_marseille","lat":43.30876,"lon":5.39659,"is_reserved":false,"is_disabled":false,"rental_uris":{"android":"levelo://app?vid=825ecf09-c6ac-4d28-98b9-0ce26c037406","ios":"levelo://app?vid=825ecf09-c6ac-4d28-98b9-0ce26c037406"},"vehicle_type_id":"4","last_reported":1752534638,"current_range_meters":17200,"station_id":"ce4bh012rcd13ifvqcv0","pricing_plan_id":"cebpf4jnsgd1na2vs0mg"},{"bike_id":"21e1bc4c-5588-4ae3-baf2-8693b7586027","system_id":"levelo_inurba_marseille","lat":43.28853,"lon":5.39333,"is_reserved":false,"is_disabled":false,"rental_uris":{"android":"levelo://app?vid=21e1bc4c-5588-4ae3-baf2-8693b7586027","ios":"levelo://app?vid=21e1bc4c-5588-4ae3-baf2-8693b7586027"},"vehicle_type_id":"4","last_reported":1752534638,"current_range_meters":17200,"station_id":"ce4bh2p2rcd13ifvqdi0","pricing_plan_id":"cebpf4jnsgd1na2vs0mg"},{"bike_id":"6b665749-5d83-4001-bfa6-ddbce97a8df7","system_id":"levelo_inurba_marseille","lat":43.23962,"lon":5.36623,"is_reserved":false,"is_disabled":false,"rental_uris":{"android":"levelo://app?vid=6b665749-5d83-4001-bfa6-ddbce97a8df7","ios":"levelo://app?vid=6b665749-5d83-4001-bfa6-ddbce97a8df7"},"vehicle_type_id":"4","last_reported":1752534638,"current_range_meters":17200,"station_id":"ce4bhi12rcd13ifvqfp0","pricing_plan_id":"cebpf4jnsgd1na2vs0mg"},{"bike_id":"dfc6908e-e444-4286-b864-c30928a6a945","system_id":"levelo_inurba_marseille","lat":43.290421,"lon":5.359118,"is_reserved":false,"is_disabled":false,"rental_uris":{"android":"levelo://app?vid=dfc6908e-e444-4286-b864-c30928a6a945","ios":"levelo://app?vid=dfc6908e-e444-4286-b864-c30928a6a945"},"vehicle_type_id":"4","last_reported":1752534638,"current_range_meters":17200,"station_id":"","pricing_plan_id":"cebpf4jnsgd1na2vs0mg"},{"bike_id":"fe38fcda-be18-4a6d-9386-5071ca1609b6","system_id":"levelo_inurba_marseille","lat":43.23181,"lon":5.35562,"is_reserved":false,"is_disabled":true,"rental_uris":{"android":"levelo://app?vid=fe38fcda-be18-4a6d-9386-5071ca1609b6","ios":"levelo://app?vid=fe38fcda-be18-4a6d-9386-5071ca1609b6"},"vehicle_type_id":"4","last_reported":1752534638,"current_range_meters":17200,"station_id":"ce4bhu92rcd13ifvqi70","pricing_plan_id":"cebpf4jnsgd1na2vs0mg"},{"bike_id":"de3c7479-ad03-448f-a78e-88898eddd51a","system_id":"levelo_inurba_marseille","lat":43.32993,"lon":5.39729,"is_reserved":false,"is_disabled":false,"rental_uris":{"android":"levelo://app?vid=de3c7479-ad03-448f-a78e-88898eddd51a","ios":"levelo://app?vid=de3c7479-ad03-448f-a78e-88898eddd51a"},"vehicle_type_id":"4","last_reported":1752534638,"current_range_meters":17600,"station_id":"","pricing_plan_id":"cebpf4jnsgd1na2vs0mg"},{"bike_id":"098415e8-2c0a-419c-a4f0-2e88bf115951","system_id":"levelo_inurba_marseille","lat":43.287045,"lon":5.379685,"is_reserved":false,"is_disabled":false,"rental_uris":{"android":"levelo://app?vid=098415e8-2c0a-419c-a4f0-2e88bf115951","ios":"levelo://app?vid=098415e8-2c0a-419c-a4f0-2e88bf115951"},"vehicle_type_id":"4","last_reported":1752534638,"current_range_meters":17600,"station_id":"ce4bh9p2rcd13ifvqec0","pricing_plan_id":"cebpf4jnsgd1na2vs0mg"},{"bike_id":"903197e4-3da2-471b-9537-d88bae7e31c4","system_id":"levelo_inurba_marseille","lat":43.265,"lon":5.39555,"is_reserved":false,"is_disabled":true,"rental_uris":{"android":"levelo://app?vid=903197e4-3da2-471b-9537-d88bae7e31c4","ios":"levelo://app?vid=903197e4-3da2-471b-9537-d88bae7e31c4"},"vehicle_type_id":"4","last_reported":1752534638,"current_range_meters":17600,"station_id":"ce4bhi12rcd13ifvqfq0","pricing_plan_id":"cebpf4jnsgd1na2vs0mg"},{"bike_id":"8c13824d-337d-4a6c-afdf-ac2b2456af5d","system_id":"levelo_inurba_marseille","lat":43.27926,"lon":5.39593,"is_reserved":false,"is_disabled":false,"rental_uris":{"android":"levelo://app?vid=8c13824d-337d-4a6c-afdf-ac2b2456af5d","ios":"levelo://app?vid=8c13824d-337d-4a6c-afdf-ac2b2456af5d"},"vehicle_type_id":"4","last_reported":1752534638,"current_range_meters":17600,"station_id":"ce4bhf92rcd13ifvqf40","pricing_plan_id":"cebpf4jnsgd1na2vs0mg"},{"bike_id":"90d8578f-7619-4279-84b6-4ed88aa377e2","system_id":"levelo_inurba_marseille","lat":43.21188,"lon":5.35069,"is_reserved":false,"is_disabled":false,"rental_uris":{"android":"levelo://app?vid=90d8578f-7619-4279-84b6-4ed88aa377e2","ios":"levelo://app?vid=90d8578f-7619-4279-84b6-4ed88aa377e2"},"vehicle_type_id":"4","last_reported":1752534638,"current_range_meters":17600,"station_id":"st_cvj6sg6p6f1abm77japg","pricing_plan_id":"cebpf4jnsgd1na2vs0mg"},{"bike_id":"8a9f8ceb-0274-4ada-8a43-1bc35cd2deb7","system_id":"levelo_inurba_marseille","lat":43.28941,"lon":5.36628,"is_reserved":false,"is_disabled":true,"rental_uris":{"android":"levelo://app?vid=8a9f8ceb-0274-4ada-8a43-1bc35cd2deb7","ios":"levelo://app?vid=8a9f8ceb-0274-4ada-8a43-1bc35cd2deb7"},"vehicle_type_id":"4","last_reported":1752534638,"current_range_meters":17600,"station_id":"ce4bhap2rcd13ifvqek0","pricing_plan_id":"cebpf4jnsgd1na2vs0mg"},{"bike_id":"fb441169-3df6-43a5-b587-47812da4b7c8","system_id":"levelo_inurba_marseille","lat":43.31475,"lon":5.37145,"is_reserved":false,"is_disabled":false,"rental_uris":{"android":"levelo://app?vid=fb441169-3df6-43a5-b587-47812da4b7c8","ios":"levelo://app?vid=fb441169-3df6-43a5-b587-47812da4b7c8"},"vehicle_type_id":"4","last_reported":1752534638,"current_range_meters":18000,"station_id":"","pricing_plan_id":"cebpf4jnsgd1na2vs0mg"},{"bike_id":"8b177061-82ea-4f79-a3dc-8136851d927e","system_id":"levelo_inurba_marseille","lat":43.26058,"lon":5.39394,"is_reserved":false,"is_disabled":false,"rental_uris":{"android":"levelo://app?vid=8b177061-82ea-4f79-a3dc-8136851d927e","ios":"levelo://app?vid=8b177061-82ea-4f79-a3dc-8136851d927e"},"vehicle_type_id":"4","last_reported":1752534638,"current_range_meters":17600,"station_id":"ce4bhh92rcd13ifvqfj0","pricing_plan_id":"cebpf4jnsgd1na2vs0mg"},{"bike_id":"c26b5803-1934-443f-a178-b5a6c19165be","system_id":"levelo_inurba_marseille","lat":43.299025,"lon":5.381368,"is_reserved":false,"is_disabled":true,"rental_uris":{"android":"levelo://app?vid=c26b5803-1934-443f-a178-b5a6c19165be","ios":"levelo://app?vid=c26b5803-1934-443f-a178-b5a6c19165be"},"vehicle_type_id":"4","last_reported":1752534638,"current_range_meters":17600,"station_id":"ce4bgj12rcd13ifvqbc0","pricing_plan_id":"cebpf4jnsgd1na2vs0mg"},{"bike_id":"335a6393-c462-46cb-a178-4bde2ae5809d","system_id":"levelo_inurba_marseille","lat":43.26573,"lon":5.39039,"is_reserved":false,"is_disabled":false,"rental_uris":{"android":"levelo://app?vid=335a6393-c462-46cb-a178-4bde2ae5809d","ios":"levelo://app?vid=335a6393-c462-46cb-a178-4bde2ae5809d"},"vehicle_type_id":"4","last_reported":1752534638,"current_range_meters":17600,"station_id":"ce4bhe12rcd13ifvqf30","pricing_plan_id":"cebpf4jnsgd1na2vs0mg"},{"bike_id":"da29be3c-81ee-41d8-95eb-47bda3d4de6c","system_id":"levelo_inurba_marseille","lat":43.27561,"lon":5.38414,"is_reserved":false,"is_disabled":false,"rental_uris":{"android":"levelo://app?vid=da29be3c-81ee-41d8-95eb-47bda3d4de6c","ios":"levelo://app?vid=da29be3c-81ee-41d8-95eb-47bda3d4de6c"},"vehicle_type_id":"4","last_reported":1752534638,"current_range_meters":17600,"station_id":"ce4bhh92rcd13ifvqfi0","pricing_plan_id":"cebpf4jnsgd1na2vs0mg"},{"bike_id":"e5efa8ab-520d-4d7d-b449-17ab56a985cc","system_id":"levelo_inurba_marseille","lat":43.27856,"lon":5.39186,"is_reserved":false,"is_disabled":false,"rental_uris":{"android":"levelo://app?vid=e5efa8ab-520d-4d7d-b449-17ab56a985cc","ios":"levelo://app?vid=e5efa8ab-520d-4d7d-b449-17ab56a985cc"},"vehicle_type_id":"4","last_reported":1752534638,"current_range_meters":17600,"station_id":"ce4bhjp2rcd13ifvqga0","pricing_plan_id":"cebpf4jnsgd1na2vs0mg"},{"bike_id":"7bce7a34-5113-458d-9330-3d00164f4612","system_id":"levelo_inurba_marseille","lat":43.21193,"lon":5.35075,"is_reserved":false,"is_disabled":false,"rental_uris":{"android":"levelo://app?vid=7bce7a34-5113-458d-9330-3d00164f4612","ios":"levelo://app?vid=7bce7a34-5113-458d-9330-3d00164f4612"},"vehicle_type_id":"4","last_reported":1752534638,"current_range_meters":17600,"station_id":"st_cvj6sg6p6f1abm77japg","pricing_plan_id":"cebpf4jnsgd1na2vs0mg"},{"bike_id":"df0527da-c1eb-410d-9133-b6454f909497","system_id":"levelo_inurba_marseille","lat":43.279527,"lon":5.391683,"is_reserved":false,"is_disabled":false,"rental_uris":{"android":"levelo://app?vid=df0527da-c1eb-410d-9133-b6454f909497","ios":"levelo://app?vid=df0527da-c1eb-410d-9133-b6454f909497"},"vehicle_type_id":"4","last_reported":1752534638,"current_range_meters":17600,"station_id":"","pricing_plan_id":"cebpf4jnsgd1na2vs0mg"},{"bike_id":"2bcc0ed5-261b-4e84-bfe4-ce2479b810f6","system_id":"levelo_inurba_marseille","lat":43.28415,"lon":5.37535,"is_reserved":false,"is_disabled":true,"rental_uris":{"android":"levelo://app?vid=2bcc0ed5-261b-4e84-bfe4-ce2479b810f6","ios":"levelo://app?vid=2bcc0ed5-261b-4e84-bfe4-ce2479b810f6"},"vehicle_type_id":"4","last_reported":1752534638,"current_range_meters":17600,"station_id":"ce4bh412rcd13ifvqds0","pricing_plan_id":"cebpf4jnsgd1na2vs0mg"},{"bike_id":"36fe69a3-bcb1-4181-8ed6-b93e807e4e94","system_id":"levelo_inurba_marseille","lat":43.31695,"lon":5.40427,"is_reserved":false,"is_disabled":false,"rental_uris":{"android":"levelo://app?vid=36fe69a3-bcb1-4181-8ed6-b93e807e4e94","ios":"levelo://app?vid=36fe69a3-bcb1-4181-8ed6-b93e807e4e94"},"vehicle_type_id":"4","last_reported":1752534638,"current_range_meters":17600,"station_id":"ce4bh012rcd13ifvqd00","pricing_plan_id":"cebpf4jnsgd1na2vs0mg"},{"bike_id":"9401489b-1dbd-41fd-bf28-67219a0b7501","system_id":"levelo_inurba_marseille","lat":43.278376,"lon":5.392077,"is_reserved":false,"is_disabled":false,"rental_uris":{"android":"levelo://app?vid=9401489b-1dbd-41fd-bf28-67219a0b7501","ios":"levelo://app?vid=9401489b-1dbd-41fd-bf28-67219a0b7501"},"vehicle_type_id":"4","last_reported":1752534638,"current_range_meters":17600,"station_id":"ce4bhjp2rcd13ifvqga0","pricing_plan_id":"cebpf4jnsgd1na2vs0mg"},{"bike_id":"04e508ae-4496-4618-a0ed-ecd12fb2765f","system_id":"levelo_inurba_marseille","lat":43.29193,"lon":5.39308,"is_reserved":false,"is_disabled":false,"rental_uris":{"android":"levelo://app?vid=04e508ae-4496-4618-a0ed-ecd12fb2765f","ios":"levelo://app?vid=04e508ae-4496-4618-a0ed-ecd12fb2765f"},"vehicle_type_id":"4","last_reported":1752534638,"current_range_meters":17200,"station_id":"ce4bh192rcd13ifvqdd0","pricing_plan_id":"cebpf4jnsgd1na2vs0mg"},{"bike_id":"a043714e-0ca7-4bd2-9fac-0a949ab5c01f","system_id":"levelo_inurba_marseille","lat":43.28169,"lon":5.42361,"is_reserved":false,"is_disabled":false,"rental_uris":{"android":"levelo://app?vid=a043714e-0ca7-4bd2-9fac-0a949ab5c01f","ios":"levelo://app?vid=a043714e-0ca7-4bd2-9fac-0a949ab5c01f"},"vehicle_type_id":"4","last_reported":1752534638,"current_range_meters":17600,"station_id":"","pricing_plan_id":"cebpf4jnsgd1na2vs0mg"},{"bike_id":"7a271961-db8d-4ea5-868f-8baf660bfc39","system_id":"levelo_inurba_marseille","lat":43.28563,"lon":5.39504,"is_reserved":false,"is_disabled":false,"rental_uris":{"android":"levelo://app?vid=7a271961-db8d-4ea5-868f-8baf660bfc39","ios":"levelo://app?vid=7a271961-db8d-4ea5-868f-8baf660bfc39"},"vehicle_type_id":"4","last_reported":1752534638,"current_range_meters":17600,"station_id":"ce4bh292rcd13ifvqdg0","pricing_plan_id":"cebpf4jnsgd1na2vs0mg"},{"bike_id":"277581c9-02e8-4d56-838d-c73954e3b9c5","system_id":"levelo_inurba_marseille","lat":43.26997,"lon":5.38757,"is_reserved":false,"is_disabled":false,"rental_uris":{"android":"levelo://app?vid=277581c9-02e8-4d56-838d-c73954e3b9c5","ios":"levelo://app?vid=277581c9-02e8-4d56-838d-c73954e3b9c5"},"vehicle_type_id":"4","last_reported":1752534638,"current_range_meters":17600,"station_id":"","pricing_plan_id":"cebpf4jnsgd1na2vs0mg"},{"bike_id":"90fdae33-039d-4324-8b81-cd40caa7ab64","system_id":"levelo_inurba_marseille","lat":43.30607,"lon":5.37228,"is_reserved":false,"is_disabled":false,"rental_uris":{"android":"levelo://app?vid=90fdae33-039d-4324-8b81-cd40caa7ab64","ios":"levelo://app?vid=90fdae33-039d-4324-8b81-cd40caa7ab64"},"vehicle_type_id":"4","last_reported":1752534638,"current_range_meters":17600,"station_id":"ce4bgqh2rcd13ifvqc4g","pricing_plan_id":"cebpf4jnsgd1na2vs0mg"},{"bike_id":"09a93a64-fbb1-49a9-be1f-f86a34310e71","system_id":"levelo_inurba_marseille","lat":43.21189,"lon":5.35075,"is_reserved":false,"is_disabled":false,"rental_uris":{"android":"levelo://app?vid=09a93a64-fbb1-49a9-be1f-f86a34310e71","ios":"levelo://app?vid=09a93a64-fbb1-49a9-be1f-f86a34310e71"},"vehicle_type_id":"4","last_reported":1752534638,"current_range_meters":17600,"station_id":"st_cvj6sg6p6f1abm77japg","pricing_plan_id":"cebpf4jnsgd1na2vs0mg"},{"bike_id":"ac928612-476b-4e4b-8c2b-a3f75e53d945","system_id":"levelo_inurba_marseille","lat":43.22507,"lon":5.34781,"is_reserved":false,"is_disabled":false,"rental_uris":{"android":"levelo://app?vid=ac928612-476b-4e4b-8c2b-a3f75e53d945","ios":"levelo://app?vid=ac928612-476b-4e4b-8c2b-a3f75e53d945"},"vehicle_type_id":"4","last_reported":1752534638,"current_range_meters":18000,"station_id":"st_cvj5dfep6f1abm77gieg","pricing_plan_id":"cebpf4jnsgd1na2vs0mg"},{"bike_id":"598acfed-e9e7-4c9e-841e-b5d5f4bff1f1","system_id":"levelo_inurba_marseille","lat":43.284908,"lon":5.380147,"is_reserved":false,"is_disabled":false,"rental_uris":{"android":"levelo://app?vid=598acfed-e9e7-4c9e-841e-b5d5f4bff1f1","ios":"levelo://app?vid=598acfed-e9e7-4c9e-841e-b5d5f4bff1f1"},"vehicle_type_id":"4","last_reported":1752534638,"current_range_meters":18000,"station_id":"ce4bh412rcd13ifvqdr0","pricing_plan_id":"cebpf4jnsgd1na2vs0mg"},{"bike_id":"a36a508a-0db8-43ee-831f-8f3ea0ed388b","system_id":"levelo_inurba_marseille","lat":43.28072,"lon":5.3966,"is_reserved":false,"is_disabled":false,"rental_uris":{"android":"levelo://app?vid=a36a508a-0db8-43ee-831f-8f3ea0ed388b","ios":"levelo://app?vid=a36a508a-0db8-43ee-831f-8f3ea0ed388b"},"vehicle_type_id":"4","last_reported":1752534638,"current_range_meters":17600,"station_id":"ce4bho12rcd13ifvqh2g","pricing_plan_id":"cebpf4jnsgd1na2vs0mg"},