{"last_updated":1685131584,"ttl":30,"version":"2.2","data":{"bikes":[{"bike_id":"dae14076-258d-4f26-a508-60c5cece88b9","system_id":"levelo_inurba_marseille","lat":43.31224,"lon":5.36842,"is_reserved":false,"is_disabled":false,"rental_uris":{"android":"levelo://app?vid=dae14076-258d-4f26-a508-60c5cece88b9","ios":"levelo://app?vid=dae14076-258d-4f26-a508-60c5cece88b9"},"vehicle_type_id":"4","last_reported":1685131585,"current_range_meters":0,"station_id":"ce4bgl92rcd13ifvqbq0","pricing_plan_id":"free"},{"bike_id":"4a3eaee6-4a57-4b94-8492-46080f5b7b0d","system_id":"levelo_inurba_marseille","lat":43.312239,"lon":5.368562,"is_reserved":false,"is_disabled":false,"rental_uris":{"android":"levelo://app?vid=4a3eaee6-4a57-4b94-8492-46080f5b7b0d","ios":"levelo://app?vid=4a3eaee6-4a57-4b94-8492-46080f5b7b0d"},"vehicle_type_id":"4","last_reported":1685131585,"current_range_meters":26400,"station_id":"ce4bgl92rcd13ifvqbq0","pricing_plan_id":"free"},{"bike_id":"27ebec05-7d83-41c9-93fd-057314bd90e5","system_id":"levelo_inurba_marseille","lat":43.312239,"lon":5.368562,"is_reserved":false,"is_disabled":false,"rental_uris":{"android":"levelo://app?vid=27ebec05-7d83-41c9-93fd-057314bd90e5","ios":"levelo://app?vid=27ebec05-7d83-41c9-93fd-057314bd90e5"},"vehicle_type_id":"4","last_reported":1685131585,"current_range_meters":28400,"station_id":"ce4bgl92rcd13ifvqbq0","pricing_plan_id":"free"},{"bike_id":"8d8b581d-1788-460b-b79c-fd60b3cf7b2a","system_id":"levelo_inurba_marseille","lat":43.309076,"lon":5.368465,"is_reserved":false,"is_disabled":false,"rental_uris":{"android":"levelo://app?vid=8d8b581d-1788-460b-b79c-fd60b3cf7b2a","ios":"levelo://app?vid=8d8b581d-1788-460b-b79c-fd60b3cf7b2a"},"vehicle_type_id":"4","last_reported":1685131585,"current_range_meters":12400,"station_id":"ce4bgn92rcd13ifvqbvg","pricing_plan_id":"free"},{"bike_id":"0e22ce3b-c4bd-4856-919d-fede1ee8e798","system_id":"levelo_inurba_marseille","lat":43.305368,"lon":5.367343,"is_reserved":false,"is_disabled":false,"rental_uris":{"android":"levelo://app?vid=0e22ce3b-c4bd-4856-919d-fede1ee8e798","ios":"levelo://app?vid=0e22ce3b-c4bd-4856-919d-fede1ee8e798"},"vehicle_type_id":"4","last_reported":1685131585,"current_range_meters":2800,"station_id":"ce4bgrp2rcd13ifvqc9g","pricing_plan_id":"free"},{"bike_id":"5141ee90-58ff-4f07-959a-76fc7817d892","system_id":"levelo_inurba_marseille","lat":43.305368,"lon":5.367343,"is_reserved":false,"is_disabled":false,"rental_uris":{"android":"levelo://app?vid=5141ee90-58ff-4f07-959a-76fc7817d892","ios":"levelo://app?vid=5141ee90-58ff-4f07-959a-76fc7817d892"},"vehicle_type_id":"4","last_reported":1685131585,"current_range_meters":0,"station_id":"ce4bgrp2rcd13ifvqc9g","pricing_plan_id":"free"},{"bike_id":"2c71a046-da47-4e0c-a963-6e84c7a13208","system_id":"levelo_inurba_marseille","lat":43.305706,"lon":5.365654,"is_reserved":false,"is_disabled":false,"rental_uris":{"android":"levelo://app?vid=2c71a046-da47-4e0c-a963-6e84c7a13208","ios":"levelo://app?vid=2c71a046-da47-4e0c-a963-6e84c7a13208"},"vehicle_type_id":"4","last_reported":1685131585,"current_range_meters":0,"station_id":"ce4bgs12rcd13ifvqcag","pricing_plan_id":"free"},{"bike_id":"fcb519ff-c7d9-44ad-a204-f596f98d92ef","system_id":"levelo_inurba_marseille","lat":43.305989,"lon":5.37225,"is_reserved":false,"is_disabled":false,"rental_uris":{"android":"levelo://app?vid=fcb519ff-c7d9-44ad-a204-f596f98d92ef","ios":"levelo://app?vid=fcb519ff-c7d9-44ad-a204-f596f98d92ef"},"vehicle_type_id":"4","last_reported":1685131585,"current_range_meters":2400,"station_id":"ce4bgqh2rcd13ifvqc4g","pricing_plan_id":"free"},{"bike_id":"89a0f6f3-70ed-4b40-87df-4fc070cd4d25","system_id":"levelo_inurba_marseille","lat":43.311131,"lon":5.377651,"is_reserved":false,"is_disabled":false,"rental_uris":{"android":"levelo://app?vid=89a0f6f3-70ed-4b40-87df-4fc070cd4d25","ios":"levelo://app?vid=89a0f6f3-70ed-4b40-87df-4fc070cd4d25"},"vehicle_type_id":"4","last_reported":1685131585,"current_range_meters":15600,"station_id":"ce4bgt92rcd13ifvqcg0","pricing_plan_id":"free"},{"bike_id":"997056f7-fed7-4cfe-819d-e5562d02d8da","system_id":"levelo_inurba_marseille","lat":43.305989,"lon":5.37225,"is_reserved":false,"is_disabled":false,"rental_uris":{"android":"levelo://app?vid=997056f7-fed7-4cfe-819d-e5562d02d8da","ios":"levelo://app?vid=997056f7-fed7-4cfe-819d-e5562d02d8da"},"vehicle_type_id":"4","last_reported":1685131585,"current_range_meters":26800,"station_id":"ce4bgqh2rcd13ifvqc4g","pricing_plan_id":"free"},{"bike_id":"2bb8b507-b7ba-44f3-a76d-2006d60f55ba","system_id":"levelo_inurba_marseille","lat":43.311131,"lon":5.377651,"is_reserved":false,"is_disabled":false,"rental_uris":{"android":"levelo://app?vid=2bb8b507-b7ba-44f3-a76d-2006d60f55ba","ios":"levelo://app?vid=2bb8b507-b7ba-44f3-a76d-2006d60f55ba"},"vehicle_type_id":"4","last_reported":1685131585,"current_range_meters":4000,"station_id":"ce4bgt92rcd13ifvqcg0","pricing_plan_id":"free"},{"bike_id":"9228354f-aee1-4f6d-bf9a-8f82b491c6d3","system_id":"levelo_inurba_marseille","lat":43.31709,"lon":5.37739,"is_reserved":false,"is_disabled":false,"rental_uris":{"android":"levelo://app?vid=9228354f-aee1-4f6d-bf9a-8f82b491c6d3","ios":"levelo://app?vid=9228354f-aee1-4f6d-bf9a-8f82b491c6d3"},"vehicle_type_id":"4","last_reported":1685131585,"current_range_meters":14000,"station_id":"ce4bgth2rcd13ifvqch0","pricing_plan_id":"free"},{"bike_id":"f47b8c93-abbd-42bc-9979-f8f6f8e17204","system_id":"levelo_inurba_marseille","lat":43.31706,"lon":5.37751,"is_reserved":false,"is_disabled":false,"rental_uris":{"android":"levelo://app?vid=f47b8c93-abbd-42bc-9979-f8f6f8e17204","ios":"levelo://app?vid=f47b8c93-abbd-42bc-9979-f8f6f8e17204"},"vehicle_type_id":"4","last_reported":1685131585,"current_range_meters":12000,"station_id":"ce4bgth2rcd13ifvqch0","pricing_plan_id":"free"},{"bike_id":"c0b0d062-8275-40cf-8874-7d9d55ab7e88","system_id":"levelo_inurba_marseille","lat":43.31713,"lon":5.37832,"is_reserved":false,"is_disabled":false,"rental_uris":{"android":"levelo://app?vid=c0b0d062-8275-40cf-8874-7d9d55ab7e88","ios":"levelo://app?vid=c0b0d062-8275-40cf-8874-7d9d55ab7e88"},"vehicle_type_id":"4","last_reported":1685131585,"current_range_meters":23600,"station_id":"","pricing_plan_id":"free"},{"bike_id":"f3e7fce9-5edd-4b52-b2e3-b62fae0f14e7","system_id":"levelo_inurba_marseille","lat":43.315293,"lon":5.380349,"is_reserved":false,"is_disabled":false,"rental_uris":{"android":"levelo://app?vid=f3e7fce9-5edd-4b52-b2e3-b62fae0f14e7","ios":"levelo://app?vid=f3e7fce9-5edd-4b52-b2e3-b62fae0f14e7"},"vehicle_type_id":"4","last_reported":1685131585,"current_range_meters":23200,"station_id":"ce4bhsp2rcd13ifvqi50","pricing_plan_id":"free"},{"bike_id":"7e41a39b-fd31-406a-b842-0162b285e308","system_id":"levelo_inurba_marseille","lat":43.301939,"lon":5.366286,"is_reserved":false,"is_disabled":false,"rental_uris":{"android":"levelo://app?vid=7e41a39b-fd31-406a-b842-0162b285e308","ios":"levelo://app?vid=7e41a39b-fd31-406a-b842-0162b285e308"},"vehicle_type_id":"4","last_reported":1685131585,"current_range_meters":24400,"station_id":"ce4bgrh2rcd13ifvqc8g","pricing_plan_id":"free"},{"bike_id":"dcc9f276-d580-4c20-981b-5b95eaa3dd33","system_id":"levelo_inurba_marseille","lat":43.301939,"lon":5.366286,"is_reserved":false,"is_disabled":false,"rental_uris":{"android":"levelo://app?vid=dcc9f276-d580-4c20-981b-5b95eaa3dd33","ios":"levelo://app?vid=dcc9f276-d580-4c20-981b-5b95eaa3dd33"},"vehicle_type_id":"4","last_reported":1685131585,"current_range_meters":18000,"station_id":"ce4bgrh2rcd13ifvqc8g","pricing_plan_id":"free"},{"bike_id":"669313be-79e1-4b25-85fe-d8d42cbf4d9c","system_id":"levelo_inurba_marseille","lat":43.301939,"lon":5.366286,"is_reserved":false,"is_disabled":false,"rental_uris":{"android":"levelo://app?vid=669313be-79e1-4b25-85fe-d8d42cbf4d9c","ios":"levelo://app?vid=669313be-79e1-4b25-85fe-d8d42cbf4d9c"},"vehicle_type_id":"4","last_reported":1685131585,"current_range_meters":1600,"station_id":"ce4bgrh2rcd13ifvqc8g","pricing_plan_id":"free"},{"bike_id":"4cafb221-be1b-463f-96a9-3c0d4410c08e","system_id":"levelo_inurba_marseille","lat":43.304606,"lon":5.379026,"is_reserved":false,"is_disabled":false,"rental_uris":{"android":"levelo://app?vid=4cafb221-be1b-463f-96a9-3c0d4410c08e","ios":"levelo://app?vid=4cafb221-be1b-463f-96a9-3c0d4410c08e"},"vehicle_type_id":"4","last_reported":1685131585,"current_range_meters":0,"station_id":"ce4bgup2rcd13ifvqcn0","pricing_plan_id":"free"},{"bike_id":"9b1f372f-47c0-490e-a875-eb3740a72d12","system_id":"levelo_inurba_marseille","lat":43.30141,"lon":5.37408,"is_reserved":false,"is_disabled":false,"rental_uris":{"android":"levelo://app?vid=9b1f372f-47c0-490e-a875-eb3740a72d12","ios":"levelo://app?vid=9b1f372f-47c0-490e-a875-eb3740a72d12"},"vehicle_type_id":"4","last_reported":1685131585,"current_range_meters":0,"station_id":"","pricing_plan_id":"free"},{"bike_id":"15085faf-94d1-454c-8de1-c9482918e24b","system_id":"levelo_inurba_marseille","lat":43.31992,"lon":5.38151,"is_reserved":false,"is_disabled":false,"rental_uris":{"android":"levelo://app?vid=15085faf-94d1-454c-8de1-c9482918e24b","ios":"levelo://app?vid=15085faf-94d1-454c-8de1-c9482918e24b"},"vehicle_type_id":"4","last_reported":1685131585,"current_range_meters":7600,"station_id":"ce4bhr12rcd13ifvqhpg","pricing_plan_id":"free"},{"bike_id":"e5571f58-adb6-49b7-8c86-2d757ae8e1a0","system_id":"levelo_inurba_marseille","lat":43.31998,"lon":5.38148,"is_reserved":false,"is_disabled":false,"rental_uris":{"android":"levelo://app?vid=e5571f58-adb6-49b7-8c86-2d757ae8e1a0","ios":"levelo://app?vid=e5571f58-adb6-49b7-8c86-2d757ae8e1a0"},"vehicle_type_id":"4","last_reported":1685131585,"current_range_meters":17200,"station_id":"ce4bhr12rcd13ifvqhpg","pricing_plan_id":"free"},{"bike_id":"46349676-80ed-44a7-9bea-3a55a4175303","system_id":"levelo_inurba_marseille","lat":43.31992,"lon":5.38156,"is_reserved":false,"is_disabled":false,"rental_uris":{"android":"levelo://app?vid=46349676-80ed-44a7-9bea-3a55a4175303","ios":"levelo://app?vid=46349676-80ed-44a7-9bea-3a55a4175303"},"vehicle_type_id":"4","last_reported":1685131585,"current_range_meters":8800,"station_id":"ce4bhr12rcd13ifvqhpg","pricing_plan_id":"free"},{"bike_id":"5f66b5c8-c13e-4e6a-af73-99f8edb1fe4e","system_id":"levelo_inurba_marseille","lat":43.31995,"lon":5.3816,"is_reserved":false,"is_disabled":false,"rental_uris":{"android":"levelo://app?vid=5f66b5c8-c13e-4e6a-af73-99f8edb1fe4e","ios":"levelo://app?vid=5f66b5c8-c13e-4e6a-af73-99f8edb1fe4e"},"vehicle_type_id":"4","last_reported":1685131585,"current_range_meters":19600,"station_id":"ce4bhr12rcd13ifvqhpg","pricing_plan_id":"free"},{"bike_id":"c54a9467-eb1a-467c-b99a-2911073c7cb1","system_id":"levelo_inurba_marseille","lat":43.313571,"lon":5.384829,"is_reserved":false,"is_disabled":false,"rental_uris":{"android":"levelo://app?vid=c54a9467-eb1a-467c-b99a-2911073c7cb1","ios":"levelo://app?vid=c54a9467-eb1a-467c-b99a-2911073c7cb1"},"vehicle_type_id":"4","last_reported":1685131585,"current_range_meters":5200,"station_id":"ce4bgt92rcd13ifvqcf0","pricing_plan_id":"free"},{"bike_id":"97b214bf-1b61-4e27-8be9-9ee88855c248","system_id":"levelo_inurba_marseille","lat":43.313571,"lon":5.384829,"is_reserved":false,"is_disabled":false,"rental_uris":{"android":"levelo://app?vid=97b214bf-1b61-4e27-8be9-9ee88855c248","ios":"levelo://app?vid=97b214bf-1b61-4e27-8be9-9ee88855c248"},"vehicle_type_id":"4","last_reported":1685131585,"current_range_meters":3600,"station_id":"ce4bgt92rcd13ifvqcf0","pricing_plan_id":"free"},{"bike_id":"ffa1a7ff-7b61-4070-a154-262cd92163d3","system_id":"levelo_inurba_marseille","lat":43.313571,"lon":5.384829,"is_reserved":false,"is_disabled":false,"rental_uris":{"android":"levelo://app?vid=ffa1a7ff-7b61-4070-a154-262cd92163d3","ios":"levelo://app?vid=ffa1a7ff-7b61-4070-a154-262cd92163d3"},"vehicle_type_id":"4","last_reported":1685131585,"current_range_meters":6400,"station_id":"ce4bgt92rcd13ifvqcf0","pricing_plan_id":"free"},{"bike_id":"7efe62c0-b2f0-4a0b-b673-f79ab860cb0d","system_id":"levelo_inurba_marseille","lat":43.313571,"lon":5.384829,"is_reserved":false,"is_disabled":false,"rental_uris":{"android":"levelo://app?vid=7efe62c0-b2f0-4a0b-b673-f79ab860cb0d","ios":"levelo://app?vid=7efe62c0-b2f0-4a0b-b673-f79ab860cb0d"},"vehicle_type_id":"4","last_reported":1685131585,"current_range_meters":4400,"station_id":"ce4bgt92rcd13ifvqcf0","pricing_plan_id":"free"},{"bike_id":"c4603a07-e82a-4229-9745-4da2a1337bb7","system_id":"levelo_inurba_marseille","lat":43.29848,"lon":5.36284,"is_reserved":false,"is_disabled":false,"rental_uris":{"android":"levelo://app?vid=c4603a07-e82a-4229-9745-4da2a1337bb7","ios":"levelo://app?vid=c4603a07-e82a-4229-9745-4da2a1337bb7"},"vehicle_type_id":"4","last_reported":1685131585,"current_range_meters":14800,"station_id":"ce4bgpp2rcd13ifvqc3g","pricing_plan_id":"free"},{"bike_id":"cc77fc87-f43a-4286-95c0-0f2d7bae821f","system_id":"levelo_inurba_marseille","lat":43.29848,"lon":5.36284,"is_reserved":false,"is_disabled":false,"rental_uris":{"android":"levelo://app?vid=cc77fc87-f43a-4286-95c0-0f2d7bae821f","ios":"levelo://app?vid=cc77fc87-f43a-4286-95c0-0f2d7bae821f"},"vehicle_type_id":"4","last_reported":1685131585,"current_range_meters":0,"station_id":"ce4bgpp2rcd13ifvqc3g","pricing_plan_id":"free"},{"bike_id":"5c0b346a-14d0-49c4-83b3-dd59d829d168","system_id":"levelo_inurba_marseille","lat":43.298433,"lon":5.362774,"is_reserved":false,"is_disabled":false,"rental_uris":{"android":"levelo://app?vid=5c0b346a-14d0-49c4-83b3-dd59d829d168","ios":"levelo://app?vid=5c0b346a-14d0-49c4-83b3-dd59d829d168"},"vehicle_type_id":"4","last_reported":1685131585,"current_range_meters":20000,"station_id":"ce4bgpp2rcd13ifvqc3g","pricing_plan_id":"free"},{"bike_id":"301cb53c-be5c-4cab-9130-219a197247a9","system_id":"levelo_inurba_marseille","lat":43.297774,"lon":5.370875,"is_reserved":false,"is_disabled":false,"rental_uris":{"android":"levelo://app?vid=301cb53c-be5c-4cab-9130-219a197247a9","ios":"levelo://app?vid=301cb53c-be5c-4cab-9130-219a197247a9"},"vehicle_type_id":"4","last_reported":1685131585,"current_range_meters":12800,"station_id":"ce4bgop2rcd13ifvqc1g","pricing_plan_id":"free"},{"bike_id":"9410c01f-eaeb-4f88-891b-bf0d0eeab61a","system_id":"levelo_inurba_marseille","lat":43.297774,"lon":5.370875,"is_reserved":false,"is_disabled":false,"rental_uris":{"android":"levelo://app?vid=9410c01f-eaeb-4f88-891b-bf0d0eeab61a","ios":"levelo://app?vid=9410c01f-eaeb-4f88-891b-bf0d0eeab61a"},"vehicle_type_id":"4","last_reported":1685131585,"current_range_meters":5200,"station_id":"ce4bgop2rcd13ifvqc1g","pricing_plan_id":"free"},{"bike_id":"ff7c3ed0-2f42-4b40-bf24-f1914474dfa6","system_id":"levelo_inurba_marseille","lat":43.328371,"lon":5.366909,"is_reserved":false,"is_disabled":false,"rental_uris":{"android":"levelo://app?vid=ff7c3ed0-2f42-4b40-bf24-f1914474dfa6","ios":"levelo://app?vid=ff7c3ed0-2f42-4b40-bf24-f1914474dfa6"},"vehicle_type_id":"4","last_reported":1685131585,"current_range_meters":18400,"station_id":"ce4bhs92rcd13ifvqi0g","pricing_plan_id":"free"},{"bike_id":"15bdd509-ac6b-486d-a3af-74b1c552f2cb","system_id":"levelo_inurba_marseille","lat":43.32835,"lon":5.36677,"is_reserved":false,"is_disabled":false,"rental_uris":{"android":"levelo://app?vid=15bdd509-ac6b-486d-a3af-74b1c552f2cb","ios":"levelo://app?vid=15bdd509-ac6b-486d-a3af-74b1c552f2cb"},"vehicle_type_id":"4","last_reported":1685131585,"current_range_meters":14400,"station_id":"ce4bhs92rcd13ifvqi0g","pricing_plan_id":"free"},{"bike_id":"fd2f7b4b-349a-4854-83fe-5b667e45995a","system_id":"levelo_inurba_marseille","lat":43.31506,"lon":5.3893,"is_reserved":false,"is_disabled":false,"rental_uris":{"android":"levelo://app?vid=fd2f7b4b-349a-4854-83fe-5b667e45995a","ios":"levelo://app?vid=fd2f7b4b-349a-4854-83fe-5b667e45995a"},"vehicle_type_id":"4","last_reported":1685131585,"current_range_meters":23200,"station_id":"","pricing_plan_id":"free"},{"bike_id":"52d80564-4611-4d14-9773-9379181f6b25","system_id":"levelo_inurba_marseille","lat":43.2968,"lon":5.37291,"is_reserved":false,"is_disabled":false,"rental_uris":{"android":"levelo://app?vid=52d80564-4611-4d14-9773-9379181f6b25","ios":"levelo://app?vid=52d80564-4611-4d14-9773-9379181f6b25"},"vehicle_type_id":"4","last_reported":1685131585,"current_range_meters":19200,"station_id":"ce4bgk12rcd13ifvqbj0","pricing_plan_id":"free"},{"bike_id":"3f0389c5-c52f-4777-bfe7-fbe3033660bb","system_id":"levelo_inurba_marseille","lat":43.2968,"lon":5.37291,"is_reserved":false,"is_disabled":false,"rental_uris":{"android":"levelo://app?vid=3f0389c5-c52f-4777-bfe7-fbe3033660bb","ios":"levelo://app?vid=3f0389c5-c52f-4777-bfe7-fbe3033660bb"},"vehicle_type_id":"4","last_reported":1685131585,"current_range_meters":17600,"station_id":"ce4bgk12rcd13ifvqbj0","pricing_plan_id":"free"},{"bike_id":"521a2ae4-946b-47bf-ba22-cf10bef5a9f9","system_id":"levelo_inurba_marseille","lat":43.29623,"lon":5.37149,"is_reserved":false,"is_disabled":false,"rental_uris":{"android":"levelo://app?vid=521a2ae4-946b-47bf-ba22-cf10bef5a9f9","ios":"levelo://app?vid=521a2ae4-946b-47bf-ba22-cf10bef5a9f9"},"vehicle_type_id":"4","last_reported":1685131585,"current_range_meters":13200,"station_id":"ce4bgk12rcd13ifvqbj0","pricing_plan_id":"free"},{"bike_id":"97eb8082-92c8-489e-94c5-523a902ff7a0","system_id":"levelo_inurba_marseille","lat":43.296129,"lon":5.370777,"is_reserved":false,"is_disabled":false,"rental_uris":{"android":"levelo://app?vid=97eb8082-92c8-489e-94c5-523a902ff7a0","ios":"levelo://app?vid=97eb8082-92c8-489e-94c5-523a902ff7a0"},"vehicle_type_id":"4","last_reported":1685131585,"current_range_meters":0,"station_id":"ce4bgnh2rcd13ifvqc0g","pricing_plan_id":"free"},{"bike_id":"c6a8ffb2-ee46-4e5a-91a7-c5b8aa4f6042","system_id":"levelo_inurba_marseille","lat":43.309589,"lon":5.390258,"is_reserved":false,"is_disabled":false,"rental_uris":{"android":"levelo://app?vid=c6a8ffb2-ee46-4e5a-91a7-c5b8aa4f6042","ios":"levelo://app?vid=c6a8ffb2-ee46-4e5a-91a7-c5b8aa4f6042"},"vehicle_type_id":"4","last_reported":1685131585,"current_range_meters":18800,"station_id":"ce4bgup2rcd13ifvqco0","pricing_plan_id":"free"},{"bike_id":"ea1996c1-c7ae-4f88-9221-3e314185f0b9","system_id":"levelo_inurba_marseille","lat":43.296131,"lon":5.370791,"is_reserved":false,"is_disabled":false,"rental_uris":{"android":"levelo://app?vid=ea1996c1-c7ae-4f88-9221-3e314185f0b9","ios":"levelo://app?vid=ea1996c1-c7ae-4f88-9221-3e314185f0b9"},"vehicle_type_id":"4","last_reported":1685131585,"current_range_meters":1600,"station_id":"ce4bgnh2rcd13ifvqc0g","pricing_plan_id":"free"},{"bike_id":"ca4404c3-0596-421b-8f40-3915ca3f66d4","system_id":"levelo_inurba_marseille","lat":43.296129,"lon":5.370777,"is_reserved":false,"is_disabled":false,"rental_uris":{"android":"levelo://app?vid=ca4404c3-0596-421b-8f40-3915ca3f66d4","ios":"levelo://app?vid=ca4404c3-0596-421b-8f40-3915ca3f66d4"},"vehicle_type_id":"4","last_reported":1685131585,"current_range_meters":6400,"station_id":"ce4bgnh2rcd13ifvqc0g","pricing_plan_id":"free"},{"bike_id":"137a623e-81e5-4790-812b-202bc5b35a38","system_id":"levelo_inurba_marseille","lat":43.29573,"lon":5.367355,"is_reserved":false,"is_disabled":false,"rental_uris":{"android":"levelo://app?vid=137a623e-81e5-4790-812b-202bc5b35a38","ios":"levelo://app?vid=137a623e-81e5-4790-812b-202bc5b35a38"},"vehicle_type_id":"4","last_reported":1685131585,"current_range_meters":7200,"station_id":"ce4bgph2rcd13ifvqc2g","pricing_plan_id":"free"},{"bike_id":"a0e7fd6f-7ee9-4e16-a32a-5ffeb2c473d0","system_id":"levelo_inurba_marseille","lat":43.309589,"lon":5.390258,"is_reserved":false,"is_disabled":false,"rental_uris":{"android":"levelo://app?vid=a0e7fd6f-7ee9-4e16-a32a-5ffeb2c473d0","ios":"levelo://app?vid=a0e7fd6f-7ee9-4e16-a32a-5ffeb2c473d0"},"vehicle_type_id":"4","last_reported":1685131585,"current_range_meters":13200,"station_id":"ce4bgup2rcd13ifvqco0","pricing_plan_id":"free"},{"bike_id":"d7f266a6-ce15-437e-86aa-7112b7a80e12","system_id":"levelo_inurba_marseille","lat":43.30959,"lon":5.39019,"is_reserved":false,"is_disabled":false,"rental_uris":{"android":"levelo://app?vid=d7f266a6-ce15-437e-86aa-7112b7a80e12","ios":"levelo://app?vid=d7f266a6-ce15-437e-86aa-7112b7a80e12"},"vehicle_type_id":"4","last_reported":1685131585,"current_range_meters":0,"station_id":"ce4bgup2rcd13ifvqco0","pricing_plan_id":"free"},{"bike_id":"5aba3953-27a1-4f42-8248-26f34594ec04","system_id":"levelo_inurba_marseille","lat":43.30942,"lon":5.39031,"is_reserved":false,"is_disabled":false,"rental_uris":{"android":"levelo://app?vid=5aba3953-27a1-4f42-8248-26f34594ec04","ios":"levelo://app?vid=5aba3953-27a1-4f42-8248-26f34594ec04"},"vehicle_type_id":"4","last_reported":1685131585,"current_range_meters":18000,"station_id":"ce4bgup2rcd13ifvqco0","pricing_plan_id":"free"},{"bike_id":"cf3fb89a-c959-4f23-8f03-a98d306de8af","system_id":"levelo_inurba_marseille","lat":43.317557,"lon":5.390173,"is_reserved":false,"is_disabled":false,"rental_uris":{"android":"levelo://app?vid=cf3fb89a-c959-4f23-8f03-a98d306de8af","ios":"levelo://app?vid=cf3fb89a-c959-4f23-8f03-a98d306de8af"},"vehicle_type_id":"4","last_reported":1685131585,"current_range_meters":23600,"station_id":"ce4bhqp2rcd13ifvqhng","pricing_plan_id":"free"},{"bike_id":"774ce504-2767-4c7f-b9b2-adba2127074c","system_id":"levelo_inurba_marseille","lat":43.317557,"lon":5.390173,"is_reserved":false,"is_disabled":false,"rental_uris":{"android":"levelo://app?vid=774ce504-2767-4c7f-b9b2-adba2127074c","ios":"levelo://app?vid=774ce504-2767-4c7f-b9b2-adba2127074c"},"vehicle_type_id":"4","last_reported":1685131585,"current_range_meters":24000,"station_id":"ce4bhqp2rcd13ifvqhng","pricing_plan_id":"free"},{"bike_id":"b760dc60-6d37-49c7-8dde-1a371397cdb8","system_id":"levelo_inurba_marseille","lat":43.317557,"lon":5.390173,"is_reserved":false,"is_disabled":false,"rental_uris":{"android":"levelo://app?vid=b760dc60-6d37-49c7-8dde-1a371397cdb8","ios":"levelo://app?vid=b760dc60-6d37-49c7-8dde-1a371397cdb8"},"vehicle_type_id":"4","last_reported":1685131585,"current_range_meters":26400,"station_id":"ce4bhqp2rcd13ifvqhng","pricing_plan_id":"free"},{"bike_id":"87c9aa2e-4325-4e7e-823f-6927a2cf8fa5","system_id":"levelo_inurba_marseille","lat":43.317557,"lon":5.390173,"is_reserved":false,"is_disabled":false,"rental_uris":{"android":"levelo://app?vid=87c9aa2e-4325-4e7e-823f-6927a2cf8fa5","ios":"levelo://app?vid=87c9aa2e-4325-4e7e-823f-6927a2cf8fa5"},"vehicle_type_id":"4","last_reported":1685131585,"current_range_meters":3600,"station_id":"ce4bhqp2rcd13ifvqhng","pricing_plan_id":"free"},{"bike_id":"0a80d5e9-ad49-415c-9ece-72c4359f066d","system_id":"levelo_inurba_marseille","lat":43.317557,"lon":5.390173,"is_reserved":false,"is_disabled":false,"rental_uris":{"android":"levelo://app?vid=0a80d5e9-ad49-415c-9ece-72c4359f066d","ios":"levelo://app?vid=0a80d5e9-ad49-415c-9ece-72c4359f066d"},"vehicle_type_id":"4","last_reported":1685131585,"current_range_meters":18800,"station_id":"ce4bhqp2rcd13ifvqhng","pricing_plan_id":"free"},{"bike_id":"503381e2-6ee7-48d6-9c66-bfe06fc0550c","system_id":"levelo_inurba_marseille","lat":43.29914,"lon":5.38274,"is_reserved":false,"is_disabled":false,"rental_uris":{"android":"levelo://app?vid=503381e2-6ee7-48d6-9c66-bfe06fc0550c","ios":"levelo://app?vid=503381e2-6ee7-48d6-9c66-bfe06fc0550c"},"vehicle_type_id":"4","last_reported":1685131585,"current_range_meters":12000,"station_id":"","pricing_plan_id":"free"},{"bike_id":"758b451c-1d59-4099-a1e0-947696e002c5","system_id":"levelo_inurba_marseille","lat":43.298037,"lon":5.381066,"is_reserved":false,"is_disabled":false,"rental_uris":{"android":"levelo://app?vid=758b451c-1d59-4099-a1e0-947696e002c5","ios":"levelo://app?vid=758b451c-1d59-4099-a1e0-947696e002c5"},"vehicle_type_id":"4","last_reported":1685131585,"current_range_meters":10000,"station_id":"ce4bgip2rcd13ifvqbb0","pricing_plan_id":"free"},{"bike_id":"df91832f-a107-4933-a292-0c102d2aeeaa","system_id":"levelo_inurba_marseille","lat":43.295748,"lon":5.37522,"is_reserved":false,"is_disabled":false,"rental_uris":{"android":"levelo://app?vid=df91832f-a107-4933-a292-0c102d2aeeaa","ios":"levelo://app?vid=df91832f-a107-4933-a292-0c102d2aeeaa"},"vehicle_type_id":"4","last_reported":1685131585,"current_range_meters":800,"station_id":"ce4bgh92rcd13ifvqb50","pricing_plan_id":"free"},{"bike_id":"5f80b239-8ebe-4ba9-80c3-a4ec8d49f838","system_id":"levelo_inurba_marseille","lat":43.298037,"lon":5.381066,"is_reserved":false,"is_disabled":false,"rental_uris":{"android":"levelo://app?vid=5f80b239-8ebe-4ba9-80c3-a4ec8d49f838","ios":"levelo://app?vid=5f80b239-8ebe-4ba9-80c3-a4ec8d49f838"},"vehicle_type_id":"4","last_reported":1685131585,"current_range_meters":5200,"station_id":"ce4bgip2rcd13ifvqbb0","pricing_plan_id":"free"},{"bike_id":"031dcaa2-f244-4b9a-878f-c747e5472adb","system_id":"levelo_inurba_marseille","lat":43.295748,"lon":5.37522,"is_reserved":false,"is_disabled":false,"rental_uris":{"android":"levelo://app?vid=031dcaa2-f244-4b9a-878f-c747e5472adb","ios":"levelo://app?vid=031dcaa2-f244-4b9a-878f-c747e5472adb"},"vehicle_type_id":"4","last_reported":1685131585,"current_range_meters":15600,"station_id":"ce4bgh92rcd13ifvqb50","pricing_plan_id":"free"},{"bike_id":"7d4bde4b-5fd2-4afd-b70c-ac35d041b5ad","system_id":"levelo_inurba_marseille","lat":43.299707,"lon":5.384859,"is_reserved":false,"is_disabled":false,"rental_uris":{"android":"levelo://app?vid=7d4bde4b-5fd2-4afd-b70c-ac35d041b5ad","ios":"levelo://app?vid=7d4bde4b-5fd2-4afd-b70c-ac35d041b5ad"},"vehicle_type_id":"4","last_reported":1685131585,"current_range_meters":800,"station_id":"ce4bgj92rcd13ifvqbd0","pricing_plan_id":"free"},{"bike_id":"f3f75752-d4c6-4e47-8899-b48750dd1fbf","system_id":"levelo_inurba_marseille","lat":43.299717,"lon":5.384845,"is_reserved":false,"is_disabled":false,"rental_uris":{"android":"levelo://app?vid=f3f75752-d4c6-4e47-8899-b48750dd1fbf","ios":"levelo://app?vid=f3f75752-d4c6-4e47-8899-b48750dd1fbf"},"vehicle_type_id":"4","last_reported":1685131585,"current_range_meters":2000,"station_id":"ce4bgj92rcd13ifvqbd0","pricing_plan_id":"free"},{"bike_id":"bbdb65c6-801b-496f-b3d9-143c5c659a59","system_id":"levelo_inurba_marseille","lat":43.299724,"lon":5.384848,"is_reserved":false,"is_disabled":false,"rental_uris":{"android":"levelo://app?vid=bbdb65c6-801b-496f-b3d9-143c5c659a59","ios":"levelo://app?vid=bbdb65c6-801b-496f-b3d9-143c5c659a59"},"vehicle_type_id":"4","last_reported":1685131585,"current_range_meters":0,"station_id":"ce4bgj92rcd13ifvqbd0","pricing_plan_id":"free"},{"bike_id":"1e17cf3d-9333-4d6b-ad5b-f53ea58dcbaa","system_id":"levelo_inurba_marseille","lat":43.29602,"lon":5.381084,"is_reserved":false,"is_disabled":false,"rental_uris":{"android":"levelo://app?vid=1e17cf3d-9333-4d6b-ad5b-f53ea58dcbaa","ios":"levelo://app?vid=1e17cf3d-9333-4d6b-ad5b-f53ea58dcbaa"},"vehicle_type_id":"4","last_reported":1685131585,"current_range_meters":1200,"station_id":"ce4bgl12rcd13ifvqbo0","pricing_plan_id":"free"},{"bike_id":"245fe48c-e084-433d-883b-66eb919622de","system_id":"levelo_inurba_marseille","lat":43.29602,"lon":5.381084,"is_reserved":false,"is_disabled":false,"rental_uris":{"android":"levelo://app?vid=245fe48c-e084-433d-883b-66eb919622de","ios":"levelo://app?vid=245fe48c-e084-433d-883b-66eb919622de"},"vehicle_type_id":"4","last_reported":1685131585,"current_range_meters":22400,"station_id":"ce4bgl12rcd13ifvqbo0","pricing_plan_id":"free"},{"bike_id":"955c6aba-6640-4049-9543-5af719928034","system_id":"levelo_inurba_marseille","lat":43.29588,"lon":5.38104,"is_reserved":false,"is_disabled":false,"rental_uris":{"android":"levelo://app?vid=955c6aba-6640-4049-9543-5af719928034","ios":"levelo://app?vid=955c6aba-6640-4049-9543-5af719928034"},"vehicle_type_id":"4","last_reported":1685131585,"current_range_meters":0,"station_id":"ce4bgl12rcd13ifvqbo0","pricing_plan_id":"free"},{"bike_id":"eb13b7ff-de27-4f05-9a3b-11ba2a8ac2f8","system_id":"levelo_inurba_marseille","lat":43.29292,"lon":5.37453,"is_reserved":false,"is_disabled":false,"rental_uris":{"android":"levelo://app?vid=eb13b7ff-de27-4f05-9a3b-11ba2a8ac2f8","ios":"levelo://app?vid=eb13b7ff-de27-4f05-9a3b-11ba2a8ac2f8"},"vehicle_type_id":"4","last_reported":1685131585,"current_range_meters":0,"station_id":"ce4bgi12rcd13ifvqb70","pricing_plan_id":"free"},{"bike_id":"3d694893-b3e1-4806-bd4b-e002195c2ada","system_id":"levelo_inurba_marseille","lat":43.2936,"lon":5.37835,"is_reserved":false,"is_disabled":false,"rental_uris":{"android":"levelo://app?vid=3d694893-b3e1-4806-bd4b-e002195c2ada","ios":"levelo://app?vid=3d694893-b3e1-4806-bd4b-e002195c2ada"},"vehicle_type_id":"4","last_reported":1685131585,"current_range_meters":0,"station_id":"ce4bgjh2rcd13ifvqbf0","pricing_plan_id":"free"},{"bike_id":"aadf27cc-5db4-42eb-8733-763857df27aa","system_id":"levelo_inurba_marseille","lat":43.300852,"lon":5.390859,"is_reserved":false,"is_disabled":false,"rental_uris":{"android":"levelo://app?vid=aadf27cc-5db4-42eb-8733-763857df27aa","ios":"levelo://app?vid=aadf27cc-5db4-42eb-8733-763857df27aa"},"vehicle_type_id":"4","last_reported":1685131585,"current_range_meters":0,"station_id":"ce4bh192rcd13ifvqdb0","pricing_plan_id":"free"},{"bike_id":"a0fccc18-1e81-42bd-886b-bcec239a2128","system_id":"levelo_inurba_marseille","lat":43.300852,"lon":5.390859,"is_reserved":false,"is_disabled":false,"rental_uris":{"android":"levelo://app?vid=a0fccc18-1e81-42bd-886b-bcec239a2128","ios":"levelo://app?vid=a0fccc18-1e81-42bd-886b-bcec239a2128"},"vehicle_type_id":"4","last_reported":1685131585,"current_range_meters":4800,"station_id":"ce4bh192rcd13ifvqdb0","pricing_plan_id":"free"},{"bike_id":"87ab9e32-3b68-4018-91f8-14b6e8a476fd","system_id":"levelo_inurba_marseille","lat":43.291671,"lon":5.371575,"is_reserved":false,"is_disabled":false,"rental_uris":{"android":"levelo://app?vid=87ab9e32-3b68-4018-91f8-14b6e8a476fd","ios":"levelo://app?vid=87ab9e32-3b68-4018-91f8-14b6e8a476fd"},"vehicle_type_id":"4","last_reported":1685131585,"current_range_meters":0,"station_id":"ce4bha92rcd13ifvqeh0","pricing_plan_id":"free"},{"bike_id":"3e04de69-fb8e-4e5a-b08c-ce4ce21d6d97","system_id":"levelo_inurba_marseille","lat":43.3133,"lon":5.39688,"is_reserved":false,"is_disabled":false,"rental_uris":{"android":"levelo://app?vid=3e04de69-fb8e-4e5a-b08c-ce4ce21d6d97","ios":"levelo://app?vid=3e04de69-fb8e-4e5a-b08c-ce4ce21d6d97"},"vehicle_type_id":"4","last_reported":1685131585,"current_range_meters":6000,"station_id":"ce4bgvp2rcd13ifvqcu0","pricing_plan_id":"free"},{"bike_id":"902f900b-40c8-4e8f-8130-ea5845de9aaf","system_id":"levelo_inurba_marseille","lat":43.31323,"lon":5.39692,"is_reserved":false,"is_disabled":false,"rental_uris":{"android":"levelo://app?vid=902f900b-40c8-4e8f-8130-ea5845de9aaf","ios":"levelo://app?vid=902f900b-40c8-4e8f-8130-ea5845de9aaf"},"vehicle_type_id":"4","last_reported":1685131585,"current_range_meters":2000,"station_id":"","pricing_plan_id":"free"},{"bike_id":"9b4e8208-6d52-4f13-8ec9-483de889b4d5","system_id":"levelo_inurba_marseille","lat":43.31319,"lon":5.39698,"is_reserved":false,"is_disabled":false,"rental_uris":{"android":"levelo://app?vid=9b4e8208-6d52-4f13-8ec9-483de889b4d5","ios":"levelo://app?vid=9b4e8208-6d52-4f13-8ec9-483de889b4d5"},"vehicle_type_id":"4","last_reported":1685131585,"current_range_meters":0,"station_id":"ce4bgvp2rcd13ifvqcu0","pricing_plan_id":"free"},{"bike_id":"b1f6764a-343c-4277-aa51-c2515d4916a2","system_id":"levelo_inurba_marseille","lat":43.294162,"lon":5.386292,"is_reserved":false,"is_disabled":false,"rental_uris":{"android":"levelo://app?vid=b1f6764a-343c-4277-aa51-c2515d4916a2","ios":"levelo://app?vid=b1f6764a-343c-4277-aa51-c2515d4916a2"},"vehicle_type_id":"4","last_reported":1685131585,"current_range_meters":17600,"station_id":"ce4bh2h2rcd13ifvqdh0","pricing_plan_id":"free"},{"bike_id":"255a869c-ee9e-4d59-9712-86d6bdb7a1c6","system_id":"levelo_inurba_marseille","lat":43.294162,"lon":5.386292,"is_reserved":false,"is_disabled":false,"rental_uris":{"android":"levelo://app?vid=255a869c-ee9e-4d59-9712-86d6bdb7a1c6","ios":"levelo://app?vid=255a869c-ee9e-4d59-9712-86d6bdb7a1c6"},"vehicle_type_id":"4","last_reported":1685131585,"current_range_meters":15600,"station_id":"ce4bh2h2rcd13ifvqdh0","pricing_plan_id":"free"},{"bike_id":"3c902091-a4dc-4f47-8c37-9166a0d853a4","system_id":"levelo_inurba_marseille","lat":43.294162,"lon":5.386292,"is_reserved":false,"is_disabled":false,"rental_uris":{"android":"levelo://app?vid=3c902091-a4dc-4f47-8c37-9166a0d853a4","ios":"levelo://app?vid=3c902091-a4dc-4f47-8c37-9166a0d853a4"},"vehicle_type_id":"4","last_reported":1685131585,"current_range_meters":0,"station_id":"ce4bh2h2rcd13ifvqdh0","pricing_plan_id":"free"},{"bike_id":"bce32459-5f17-4b6a-8afc-0eca7e8b6ae1","system_id":"levelo_inurba_marseille","lat":43.294162,"lon":5.386292,"is_reserved":false,"is_disabled":false,"rental_uris":{"android":"levelo://app?vid=bce32459-5f17-4b6a-8afc-0eca7e8b6ae1","ios":"levelo://app?vid=bce32459-5f17-4b6a-8afc-0eca7e8b6ae1"},"vehicle_type_id":"4","last_reported":1685131585,"current_range_meters":1200,"station_id":"ce4bh2h2rcd13ifvqdh0","pricing_plan_id":"free"},{"bike_id":"907022e9-1551-4e67-ba46-02c41b3975b5","system_id":"levelo_inurba_marseille","lat":43.294162,"lon":5.386292,"is_reserved":false,"is_disabled":false,"rental_uris":{"android":"levelo://app?vid=907022e9-1551-4e67-ba46-02c41b3975b5","ios":"levelo://app?vid=907022e9-1551-4e67-ba46-02c41b3975b5"},"vehicle_type_id":"4","last_reported":1685131585,"current_range_meters":2400,"station_id":"ce4bh2h2rcd13ifvqdh0","pricing_plan_id":"free"},{"bike_id":"ac83f50b-8fb9-4f5c-9ea9-e0889aceb4e4","system_id":"levelo_inurba_marseille","lat":43.294162,"lon":5.386292,"is_reserved":false,"is_disabled":false,"rental_uris":{"android":"levelo://app?vid=ac83f50b-8fb9-4f5c-9ea9-e0889aceb4e4","ios":"levelo://app?vid=ac83f50b-8fb9-4f5c-9ea9-e0889aceb4e4"},"vehicle_type_id":"4","last_reported":1685131585,"current_range_meters":30800,"station_id":"ce4bh2h2rcd13ifvqdh0","pricing_plan_id":"free"},{"bike_id":"41b49515-649f-4b19-89c0-f6140af2f7e1","system_id":"levelo_inurba_marseille","lat":43.294162,"lon":5.386292,"is_reserved":false,"is_disabled":false,"rental_uris":{"android":"levelo://app?vid=41b49515-649f-4b19-89c0-f6140af2f7e1","ios":"levelo://app?vid=41b49515-649f-4b19-89c0-f6140af2f7e1"},"vehicle_type_id":"4","last_reported":1685131585,"current_range_meters":2000,"station_id":"ce4bh2h2rcd13ifvqdh0","pricing_plan_id":"free"},{"bike_id":"b6f08510-392c-4000-af16-d7457d22965a","system_id":"levelo_inurba_marseille","lat":43.28939,"lon":5.36628,"is_reserved":false,"is_disabled":false,"rental_uris":{"android":"levelo://app?vid=b6f08510-392c-4000-af16-d7457d22965a","ios":"levelo://app?vid=b6f08510-392c-4000-af16-d7457d22965a"},"vehicle_type_id":"4","last_reported":1685131585,"current_range_meters":0,"station_id":"ce4bhap2rcd13ifvqek0","pricing_plan_id":"free"},{"bike_id":"683e5a10-3cec-4ae2-b86f-ec06fb2b5b6c","system_id":"levelo_inurba_marseille","lat":43.289184,"lon":5.366408,"is_reserved":false,"is_disabled":false,"rental_uris":{"android":"levelo://app?vid=683e5a10-3cec-4ae2-b86f-ec06fb2b5b6c","ios":"levelo://app?vid=683e5a10-3cec-4ae2-b86f-ec06fb2b5b6c"},"vehicle_type_id":"4","last_reported":1685131585,"current_range_meters":0,"station_id":"ce4bhap2rcd13ifvqek0","pricing_plan_id":"free"},{"bike_id":"2a667228-0406-43ec-ac44-1c5d352a5928","system_id":"levelo_inurba_marseille","lat":43.289184,"lon":5.366408,"is_reserved":false,"is_disabled":false,"rental_uris":{"android":"levelo://app?vid=2a667228-0406-43ec-ac44-1c5d352a5928","ios":"levelo://app?vid=2a667228-0406-43ec-ac44-1c5d352a5928"},"vehicle_type_id":"4","last_reported":1685131585,"current_range_meters":11600,"station_id":"ce4bhap2rcd13ifvqek0","pricing_plan_id":"free"},{"bike_id":"1def98d4-1744-4926-902d-391614b369f4","system_id":"levelo_inurba_marseille","lat":43.29134,"lon":5.38072,"is_reserved":false,"is_disabled":false,"rental_uris":{"android":"levelo://app?vid=1def98d4-1744-4926-902d-391614b369f4","ios":"levelo://app?vid=1def98d4-1744-4926-902d-391614b369f4"},"vehicle_type_id":"4","last_reported":1685131585,"current_range_meters":10400,"station_id":"","pricing_plan_id":"free"},{"bike_id":"88733e8e-f153-43e2-b570-4407cb085578","system_id":"levelo_inurba_marseille","lat":43.29013,"lon":5.35741,"is_reserved":false,"is_disabled":false,"rental_uris":{"android":"levelo://app?vid=88733e8e-f153-43e2-b570-4407cb085578","ios":"levelo://app?vid=88733e8e-f153-43e2-b570-4407cb085578"},"vehicle_type_id":"4","last_reported":1685131585,"current_range_meters":2800,"station_id":"","pricing_plan_id":"free"},{"bike_id":"203646b0-fdfb-45e6-8cf9-1b32dfe9fcd2","system_id":"levelo_inurba_marseille","lat":43.304296,"lon":5.397513,"is_reserved":false,"is_disabled":false,"rental_uris":{"android":"levelo://app?vid=203646b0-fdfb-45e6-8cf9-1b32dfe9fcd2","ios":"levelo://app?vid=203646b0-fdfb-45e6-8cf9-1b32dfe9fcd2"},"vehicle_type_id":"4","last_reported":1685131585,"current_range_meters":2400,"station_id":"ce4bh092rcd13ifvqd20","pricing_plan_id":"free"},{"bike_id":"351acc09-8a17-4508-bb95-e897624cde5b","system_id":"levelo_inurba_marseille","lat":43.33051,"lon":5.38912,"is_reserved":false,"is_disabled":false,"rental_uris":{"android":"levelo://app?vid=351acc09-8a17-4508-bb95-e897624cde5b","ios":"levelo://app?vid=351acc09-8a17-4508-bb95-e897624cde5b"},"vehicle_type_id":"4","last_reported":1685131585,"current_range_meters":7200,"station_id":"ce4bhr92rcd13ifvqhrg","pricing_plan_id":"free"},{"bike_id":"4f856f80-74b6-4e99-bacc-507ad4332803","system_id":"levelo_inurba_marseille","lat":43.290995,"lon":5.381361,"is_reserved":false,"is_disabled":false,"rental_uris":{"android":"levelo://app?vid=4f856f80-74b6-4e99-bacc-507ad4332803","ios":"levelo://app?vid=4f856f80-74b6-4e99-bacc-507ad4332803"},"vehicle_type_id":"4","last_reported":1685131585,"current_range_meters":0,"station_id":"ce4bh512rcd13ifvqe2g","pricing_plan_id":"free"},{"bike_id":"25a6f4aa-ea4b-4c84-96a9-d3dd75621ddc","system_id":"levelo_inurba_marseille","lat":43.297814,"lon":5.393513,"is_reserved":false,"is_disabled":false,"rental_uris":{"android":"levelo://app?vid=25a6f4aa-ea4b-4c84-96a9-d3dd75621ddc","ios":"levelo://app?vid=25a6f4aa-ea4b-4c84-96a9-d3dd75621ddc"},"vehicle_type_id":"4","last_reported":1685131585,"current_range_meters":0,"station_id":"chh1huq6cuj3fo74tm60","pricing_plan_id":"free"},{"bike_id":"a46d6651-0272-4083-9dec-cd3fd924b9cf","system_id":"levelo_inurba_marseille","lat":43.28856,"lon":5.358371,"is_reserved":false,"is_disabled":false,"rental_uris":{"android":"levelo://app?vid=a46d6651-0272-4083-9dec-cd3fd924b9cf","ios":"levelo://app?vid=a46d6651-0272-4083-9dec-cd3fd924b9cf"},"vehicle_type_id":"4","last_reported":1685131585,"current_range_meters":0,"station_id":"ce4bhb12rcd13ifvqem0","pricing_plan_id":"free"},{"bike_id":"141c14ea-594b-43ee-894e-8c44af1dcd73","system_id":"levelo_inurba_marseille","lat":43.33749,"lon":5.37448,"is_reserved":false,"is_disabled":false,"rental_uris":{"android":"levelo://app?vid=141c14ea-594b-43ee-894e-8c44af1dcd73","ios":"levelo://app?vid=141c14ea-594b-43ee-894e-8c44af1dcd73"},"vehicle_type_id":"4","last_reported":1685131585,"current_range_meters":14400,"station_id":"","pricing_plan_id":"free"},{"bike_id":"556c6db1-2600-4c2b-9521-aae8453517c1","system_id":"levelo_inurba_marseille","lat":43.33748,"lon":5.37456,"is_reserved":false,"is_disabled":false,"rental_uris":{"android":"levelo://app?vid=556c6db1-2600-4c2b-9521-aae8453517c1","ios":"levelo://app?vid=556c6db1-2600-4c2b-9521-aae8453517c1"},"vehicle_type_id":"4","last_reported":1685131585,"current_range_meters":20800,"station_id":"","pricing_plan_id":"free"},{"bike_id":"02362672-78e1-4667-9a77-d71f91f94365","system_id":"levelo_inurba_marseille","lat":43.33756,"lon":5.37441,"is_reserved":false,"is_disabled":false,"rental_uris":{"android":"levelo://app?vid=02362672-78e1-4667-9a77-d71f91f94365","ios":"levelo://app?vid=02362672-78e1-4667-9a77-d71f91f94365"},"vehicle_type_id":"4","last_reported":1685131585,"current_range_meters":18800,"station_id":"","pricing_plan_id":"free"},{"bike_id":"1490fad1-fe90-4399-a2f2-79545cf03a2b","system_id":"levelo_inurba_marseille","lat":43.337578,"lon":5.374791,"is_reserved":false,"is_disabled":false,"rental_uris":{"android":"levelo://app?vid=1490fad1-fe90-4399-a2f2-79545cf03a2b","ios":"levelo://app?vid=1490fad1-fe90-4399-a2f2-79545cf03a2b"},"vehicle_type_id":"4","last_reported":1685131585,"current_range_meters":30000,"station_id":"","pricing_plan_id":"free"},{"bike_id":"ac3aed2c-a61d-44dd-a922-2fccf17b4252","system_id":"levelo_inurba_marseille","lat":43.30651,"lon":5.40093,"is_reserved":false,"is_disabled":false,"rental_uris":{"android":"levelo://app?vid=ac3aed2c-a61d-44dd-a922-2fccf17b4252","ios":"levelo://app?vid=ac3aed2c-a61d-44dd-a922-2fccf17b4252"},"vehicle_type_id":"4","last_reported":1685131585,"current_range_meters":0,"station_id":"ce4bh112rcd13ifvqda0","pricing_plan_id":"free"},{"bike_id":"0f915385-1fd5-4f54-896c-f56a11a31d3d","system_id":"levelo_inurba_marseille","lat":43.33771,"lon":5.3743,"is_reserved":false,"is_disabled":false,"rental_uris":{"android":"levelo://app?vid=0f915385-1fd5-4f54-896c-f56a11a31d3d","ios":"levelo://app?vid=0f915385-1fd5-4f54-896c-f56a11a31d3d"},"vehicle_type_id":"4","last_reported":1685131585,"current_range_meters":22000,"station_id":"","pricing_plan_id":"free"},{"bike_id":"5bd96745-9a19-4fe7-b597-4db9cabdc957","system_id":"levelo_inurba_marseille","lat":43.33777,"lon":5.37416,"is_reserved":false,"is_disabled":false,"rental_uris":{"android":"levelo://app?vid=5bd96745-9a19-4fe7-b597-4db9cabdc957","ios":"levelo://app?vid=5bd96745-9a19-4fe7-b597-4db9cabdc957"},"vehicle_type_id":"4","last_reported":1685131585,"current_range_meters":28400,"station_id":"","pricing_plan_id":"free"},{"bike_id":"eb8ac404-8a95-4fc7-819a-ea19315069af","system_id":"levelo_inurba_marseille","lat":43.33789,"lon":5.37424,"is_reserved":false,"is_disabled":false,"rental_uris":{"android":"levelo://app?vid=eb8ac404-8a95-4fc7-819a-ea19315069af","ios":"levelo://app?vid=eb8ac404-8a95-4fc7-819a-ea19315069af"},"vehicle_type_id":"4","last_reported":1685131585,"current_range_meters":26800,"station_id":"","pricing_plan_id":"free"},{"bike_id":"5847663a-0e76-4807-9988-8c22aeddb5e8","system_id":"levelo_inurba_marseille","lat":43.286591,"lon":5.363346,"is_reserved":false,"is_disabled":false,"rental_uris":{"android":"levelo://app?vid=5847663a-0e76-4807-9988-8c22aeddb5e8","ios":"levelo://app?vid=5847663a-0e76-4807-9988-8c22aeddb5e8"},"vehicle_type_id":"4","last_reported":1685131585,"current_range_meters":5200,"station_id":"ce4bhah2rcd13ifvqej0","pricing_plan_id":"free"},{"bike_id":"55f82177-f9f4-41c2-af9f-9c7390fa52d6","system_id":"levelo_inurba_marseille","lat":43.286591,"lon":5.363346,"is_reserved":false,"is_disabled":false,"rental_uris":{"android":"levelo://app?vid=55f82177-f9f4-41c2-af9f-9c7390fa52d6","ios":"levelo://app?vid=55f82177-f9f4-41c2-af9f-9c7390fa52d6"},"vehicle_type_id":"4","last_reported":1685131585,"current_range_meters":7200,"station_id":"ce4bhah2rcd13ifvqej0","pricing_plan_id":"free"},{"bike_id":"0c6283c9-b090-49d8-8d06-0cc4201a9d2f","system_id":"levelo_inurba_marseille","lat":43.29531,"lon":5.39392,"is_reserved":false,"is_disabled":false,"rental_uris":{"android":"levelo://app?vid=0c6283c9-b090-49d8-8d06-0cc4201a9d2f","ios":"levelo://app?vid=0c6283c9-b090-49d8-8d06-0cc4201a9d2f"},"vehicle_type_id":"4","last_reported":1685131585,"current_range_meters":4000,"station_id":"ce4bh292rcd13ifvqdf0","pricing_plan_id":"free"},{"bike_id":"13b16b76-1446-47c5-8726-de68f333815f","system_id":"levelo_inurba_marseille","lat":43.3025,"lon":5.40042,"is_reserved":false,"is_disabled":false,"rental_uris":{"android":"levelo://app?vid=13b16b76-1446-47c5-8726-de68f333815f","ios":"levelo://app?vid=13b16b76-1446-47c5-8726-de68f333815f"},"vehicle_type_id":"4","last_reported":1685131585,"current_range_meters":25200,"station_id":"","pricing_plan_id":"free"},{"bike_id":"c90037cd-a76f-4d3e-8909-e4e10cbd2318","system_id":"levelo_inurba_marseille","lat":43.30244,"lon":5.40056,"is_reserved":false,"is_disabled":false,"rental_uris":{"android":"levelo://app?vid=c90037cd-a76f-4d3e-8909-e4e10cbd2318","ios":"levelo://app?vid=c90037cd-a76f-4d3e-8909-e4e10cbd2318"},"vehicle_type_id":"4","last_reported":1685131585,"current_range_meters":6400,"station_id":"","pricing_plan_id":"free"},{"bike_id":"e800c6ef-2dbd-409e-a3e8-a0928bbe22d4","system_id":"levelo_inurba_marseille","lat":43.302759,"lon":5.400793,"is_reserved":false,"is_disabled":false,"rental_uris":{"android":"levelo://app?vid=e800c6ef-2dbd-409e-a3e8-a0928bbe22d4","ios":"levelo://app?vid=e800c6ef-2dbd-409e-a3e8-a0928bbe22d4"},"vehicle_type_id":"4","last_reported":1685131585,"current_range_meters":21600,"station_id":"ce4bgvh2rcd13ifvqcs0","pricing_plan_id":"free"},{"bike_id":"90b92910-4b7b-44fd-936a-d0103a998c85","system_id":"levelo_inurba_marseille","lat":43.290336,"lon":5.386425,"is_reserved":false,"is_disabled":false,"rental_uris":{"android":"levelo://app?vid=90b92910-4b7b-44fd-936a-d0103a998c85","ios":"levelo://app?vid=90b92910-4b7b-44fd-936a-d0103a998c85"},"vehicle_type_id":"4","last_reported":1685131585,"current_range_meters":22000,"station_id":"ce4bh4p2rcd13ifvqe0g","pricing_plan_id":"free"},{"bike_id":"2792ccaa-5ead-4180-8e95-7dc35621dc14","system_id":"levelo_inurba_marseille","lat":43.302759,"lon":5.400793,"is_reserved":false,"is_disabled":false,"rental_uris":{"android":"levelo://app?vid=2792ccaa-5ead-4180-8e95-7dc35621dc14","ios":"levelo://app?vid=2792ccaa-5ead-4180-8e95-7dc35621dc14"},"vehicle_type_id":"4","last_reported":1685131585,"current_range_meters":2800,"station_id":"ce4bgvh2rcd13ifvqcs0","pricing_plan_id":"free"},{"bike_id":"7d94e762-08bf-43a6-94cf-ea85d277aa38","system_id":"levelo_inurba_marseille","lat":43.302759,"lon":5.400793,"is_reserved":false,"is_disabled":false,"rental_uris":{"android":"levelo://app?vid=7d94e762-08bf-43a6-94cf-ea85d277aa38","ios":"levelo://app?vid=7d94e762-08bf-43a6-94cf-ea85d277aa38"},"vehicle_type_id":"4","last_reported":1685131585,"current_range_meters":14000,"station_id":"ce4bgvh2rcd13ifvqcs0","pricing_plan_id":"free"},{"bike_id":"b20c2acb-fdb3-4a65-9340-4a591ee118b6","system_id":"levelo_inurba_marseille","lat":43.28616,"lon":5.37053,"is_reserved":false,"is_disabled":false,"rental_uris":{"android":"levelo://app?vid=b20c2acb-fdb3-4a65-9340-4a591ee118b6","ios":"levelo://app?vid=b20c2acb-fdb3-4a65-9340-4a591ee118b6"},"vehicle_type_id":"4","last_reported":1685131585,"current_range_meters":2400,"station_id":"ce4bht12rcd13ifvqi60","pricing_plan_id":"free"},{"bike_id":"22c0db54-01c4-4d39-9332-ab376f45a5c2","system_id":"levelo_inurba_marseille","lat":43.2861,"lon":5.3706,"is_reserved":false,"is_disabled":false,"rental_uris":{"android":"levelo://app?vid=22c0db54-01c4-4d39-9332-ab376f45a5c2","ios":"levelo://app?vid=22c0db54-01c4-4d39-9332-ab376f45a5c2"},"vehicle_type_id":"4","last_reported":1685131585,"current_range_meters":4400,"station_id":"ce4bht12rcd13ifvqi60","pricing_plan_id":"free"},{"bike_id":"13a0130d-2b02-4c0e-bd81-394213939214","system_id":"levelo_inurba_marseille","lat":43.28607,"lon":5.37062,"is_reserved":false,"is_disabled":false,"rental_uris":{"android":"levelo://app?vid=13a0130d-2b02-4c0e-bd81-394213939214","ios":"levelo://app?vid=13a0130d-2b02-4c0e-bd81-394213939214"},"vehicle_type_id":"4","last_reported":1685131585,"current_range_meters":2800,"station_id":"ce4bht12rcd13ifvqi60","pricing_plan_id":"free"},{"bike_id":"4ff15538-3b66-4e99-9c3d-d26e9d360096","system_id":"levelo_inurba_marseille","lat":43.291994,"lon":5.392907,"is_reserved":false,"is_disabled":false,"rental_uris":{"android":"levelo://app?vid=4ff15538-3b66-4e99-9c3d-d26e9d360096","ios":"levelo://app?vid=4ff15538-3b66-4e99-9c3d-d26e9d360096"},"vehicle_type_id":"4","last_reported":1685131585,"current_range_meters":3600,"station_id":"ce4bh192rcd13ifvqdd0","pricing_plan_id":"free"},{"bike_id":"ba964369-69fd-4811-9156-06cb022a6bd4","system_id":"levelo_inurba_marseille","lat":43.291994,"lon":5.392907,"is_reserved":false,"is_disabled":false,"rental_uris":{"android":"levelo://app?vid=ba964369-69fd-4811-9156-06cb022a6bd4","ios":"levelo://app?vid=ba964369-69fd-4811-9156-06cb022a6bd4"},"vehicle_type_id":"4","last_reported":1685131585,"current_range_meters":0,"station_id":"ce4bh192rcd13ifvqdd0","pricing_plan_id":"free"},{"bike_id":"36cfbe67-6c82-4c02-bfbf-90f24d4f7832","system_id":"levelo_inurba_marseille","lat":43.284534,"lon":5.358662,"is_reserved":false,"is_disabled":false,"rental_uris":{"android":"levelo://app?vid=36cfbe67-6c82-4c02-bfbf-90f24d4f7832","ios":"levelo://app?vid=36cfbe67-6c82-4c02-bfbf-90f24d4f7832"},"vehicle_type_id":"4","last_reported":1685131585,"current_range_meters":12000,"station_id":"ce4bhah2rcd13ifvqei0","pricing_plan_id":"free"},{"bike_id":"5dc4775d-740c-419c-9524-9c2ddd7af2e7","system_id":"levelo_inurba_marseille","lat":43.285848,"lon":5.350787,"is_reserved":false,"is_disabled":false,"rental_uris":{"android":"levelo://app?vid=5dc4775d-740c-419c-9524-9c2ddd7af2e7","ios":"levelo://app?vid=5dc4775d-740c-419c-9524-9c2ddd7af2e7"},"vehicle_type_id":"4","last_reported":1685131585,"current_range_meters":6400,"station_id":"ce4bhch2rcd13ifvqeug","pricing_plan_id":"free"},{"bike_id":"779446b8-2000-410b-a210-e0887c1d4d01","system_id":"levelo_inurba_marseille","lat":43.285848,"lon":5.350787,"is_reserved":false,"is_disabled":false,"rental_uris":{"android":"levelo://app?vid=779446b8-2000-410b-a210-e0887c1d4d01","ios":"levelo://app?vid=779446b8-2000-410b-a210-e0887c1d4d01"},"vehicle_type_id":"4","last_reported":1685131585,"current_range_meters":0,"station_id":"ce4bhch2rcd13ifvqeug","pricing_plan_id":"free"},{"bike_id":"f287bc34-5595-4b02-9a47-825dbcaa3c9d","system_id":"levelo_inurba_marseille","lat":43.295713,"lon":5.399639,"is_reserved":false,"is_disabled":false,"rental_uris":{"android":"levelo://app?vid=f287bc34-5595-4b02-9a47-825dbcaa3c9d","ios":"levelo://app?vid=f287bc34-5595-4b02-9a47-825dbcaa3c9d"},"vehicle_type_id":"4","last_reported":1685131585,"current_range_meters":5200,"station_id":"ce4bh312rcd13ifvqdj0","pricing_plan_id":"free"},{"bike_id":"244ef836-5884-43f8-9ebe-33b1aca54df8","system_id":"levelo_inurba_marseille","lat":43.286595,"lon":5.386795,"is_reserved":false,"is_disabled":false,"rental_uris":{"android":"levelo://app?vid=244ef836-5884-43f8-9ebe-33b1aca54df8","ios":"levelo://app?vid=244ef836-5884-43f8-9ebe-33b1aca54df8"},"vehicle_type_id":"4","last_reported":1685131585,"current_range_meters":0,"station_id":"ce4bh492rcd13ifvqdug","pricing_plan_id":"free"},{"bike_id":"ccb8866d-05a5-4766-a4e1-78bc9ce83a8e","system_id":"levelo_inurba_marseille","lat":43.323464,"lon":5.406297,"is_reserved":false,"is_disabled":false,"rental_uris":{"android":"levelo://app?vid=ccb8866d-05a5-4766-a4e1-78bc9ce83a8e","ios":"levelo://app?vid=ccb8866d-05a5-4766-a4e1-78bc9ce83a8e"},"vehicle_type_id":"4","last_reported":1685131585,"current_range_meters":15200,"station_id":"ce4bhq92rcd13ifvqhjg","pricing_plan_id":"free"},{"bike_id":"d5fd31a8-b7a4-48f5-9751-f4ba7b16e78e","system_id":"levelo_inurba_marseille","lat":43.323464,"lon":5.406297,"is_reserved":false,"is_disabled":false,"rental_uris":{"android":"levelo://app?vid=d5fd31a8-b7a4-48f5-9751-f4ba7b16e78e","ios":"levelo://app?vid=d5fd31a8-b7a4-48f5-9751-f4ba7b16e78e"},"vehicle_type_id":"4","last_reported":1685131585,"current_range_meters":31600,"station_id":"ce4bhq92rcd13ifvqhjg","pricing_plan_id":"free"},{"bike_id":"5371bbd7-c92f-4fd0-bddb-eca2c7cd5808","system_id":"levelo_inurba_marseille","lat":43.323464,"lon":5.406297,"is_reserved":false,"is_disabled":false,"rental_uris":{"android":"levelo://app?vid=5371bbd7-c92f-4fd0-bddb-eca2c7cd5808","ios":"levelo://app?vid=5371bbd7-c92f-4fd0-bddb-eca2c7cd5808"},"vehicle_type_id":"4","last_reported":1685131585,"current_range_meters":31200,"station_id":"ce4bhq92rcd13ifvqhjg","pricing_plan_id":"free"},{"bike_id":"e28a274d-67f0-472b-8b39-da84563c923e","system_id":"levelo_inurba_marseille","lat":43.323464,"lon":5.406297,"is_reserved":false,"is_disabled":false,"rental_uris":{"android":"levelo://app?vid=e28a274d-67f0-472b-8b39-da84563c923e","ios":"levelo://app?vid=e28a274d-67f0-472b-8b39-da84563c923e"},"vehicle_type_id":"4","last_reported":1685131585,"current_range_meters":31200,"station_id":"ce4bhq92rcd13ifvqhjg","pricing_plan_id":"free"},{"bike_id":"1a5c0294-9cdc-4bd4-b3e5-9be19181bb75","system_id":"levelo_inurba_marseille","lat":43.284787,"lon":5.384116,"is_reserved":false,"is_disabled":false,"rental_uris":{"android":"levelo://app?vid=1a5c0294-9cdc-4bd4-b3e5-9be19181bb75","ios":"levelo://app?vid=1a5c0294-9cdc-4bd4-b3e5-9be19181bb75"},"vehicle_type_id":"4","last_reported":1685131585,"current_range_meters":19200,"station_id":"ce4bh512rcd13ifvqe3g","pricing_plan_id":"free"},{"bike_id":"1db4cfd9-274b-45eb-90c9-65af65d87023","system_id":"levelo_inurba_marseille","lat":43.284219,"lon":5.3497,"is_reserved":false,"is_disabled":false,"rental_uris":{"android":"levelo://app?vid=1db4cfd9-274b-45eb-90c9-65af65d87023","ios":"levelo://app?vid=1db4cfd9-274b-45eb-90c9-65af65d87023"},"vehicle_type_id":"4","last_reported":1685131585,"current_range_meters":2000,"station_id":"ce4bhbh2rcd13ifvqepg","pricing_plan_id":"free"},{"bike_id":"32d46e86-922e-49ae-aa53-35a8ee07119f","system_id":"levelo_inurba_marseille","lat":43.28039,"lon":5.369297,"is_reserved":false,"is_disabled":false,"rental_uris":{"android":"levelo://app?vid=32d46e86-922e-49ae-aa53-35a8ee07119f","ios":"levelo://app?vid=32d46e86-922e-49ae-aa53-35a8ee07119f"},"vehicle_type_id":"4","last_reported":1685131585,"current_range_meters":5200,"station_id":"ce4bha12rcd13ifvqef0","pricing_plan_id":"free"},{"bike_id":"85bb6b45-781e-4cdf-9183-031fbacfbfae","system_id":"levelo_inurba_marseille","lat":43.280382,"lon":5.369291,"is_reserved":false,"is_disabled":false,"rental_uris":{"android":"levelo://app?vid=85bb6b45-781e-4cdf-9183-031fbacfbfae","ios":"levelo://app?vid=85bb6b45-781e-4cdf-9183-031fbacfbfae"},"vehicle_type_id":"4","last_reported":1685131585,"current_range_meters":13600,"station_id":"ce4bha12rcd13ifvqef0","pricing_plan_id":"free"},{"bike_id":"f9541dfa-274a-4870-b879-6f20d1bd61f5","system_id":"levelo_inurba_marseille","lat":43.28039,"lon":5.369297,"is_reserved":false,"is_disabled":false,"rental_uris":{"android":"levelo://app?vid=f9541dfa-274a-4870-b879-6f20d1bd61f5","ios":"levelo://app?vid=f9541dfa-274a-4870-b879-6f20d1bd61f5"},"vehicle_type_id":"4","last_reported":1685131585,"current_range_meters":5600,"station_id":"ce4bha12rcd13ifvqef0","pricing_plan_id":"free"},{"bike_id":"25992576-41f7-4641-82ad-e99f5b7bba13","system_id":"levelo_inurba_marseille","lat":43.28028,"lon":5.36942,"is_reserved":false,"is_disabled":false,"rental_uris":{"android":"levelo://app?vid=25992576-41f7-4641-82ad-e99f5b7bba13","ios":"levelo://app?vid=25992576-41f7-4641-82ad-e99f5b7bba13"},"vehicle_type_id":"4","last_reported":1685131585,"current_range_meters":12000,"station_id":"ce4bha12rcd13ifvqef0","pricing_plan_id":"free"},{"bike_id":"4d86ce40-e406-44d0-9e2e-59dcfae65e59","system_id":"levelo_inurba_marseille","lat":43.29041,"lon":5.39947,"is_reserved":false,"is_disabled":false,"rental_uris":{"android":"levelo://app?vid=4d86ce40-e406-44d0-9e2e-59dcfae65e59","ios":"levelo://app?vid=4d86ce40-e406-44d0-9e2e-59dcfae65e59"},"vehicle_type_id":"4","last_reported":1685131585,"current_range_meters":0,"station_id":"ce4bh392rcd13ifvqdm0","pricing_plan_id":"free"},{"bike_id":"12ed4811-d4f0-43aa-9a13-aa3cc3c6a097","system_id":"levelo_inurba_marseille","lat":43.283494,"lon":5.380945,"is_reserved":false,"is_disabled":false,"rental_uris":{"android":"levelo://app?vid=12ed4811-d4f0-43aa-9a13-aa3cc3c6a097","ios":"levelo://app?vid=12ed4811-d4f0-43aa-9a13-aa3cc3c6a097"},"vehicle_type_id":"4","last_reported":1685131585,"current_range_meters":400,"station_id":"ce4bh412rcd13ifvqdr0","pricing_plan_id":"free"},{"bike_id":"ac3963b2-be8c-498c-ae2f-09e027148ade","system_id":"levelo_inurba_marseille","lat":43.287061,"lon":5.399911,"is_reserved":false,"is_disabled":false,"rental_uris":{"android":"levelo://app?vid=ac3963b2-be8c-498c-ae2f-09e027148ade","ios":"levelo://app?vid=ac3963b2-be8c-498c-ae2f-09e027148ade"},"vehicle_type_id":"4","last_reported":1685131585,"current_range_meters":7600,"station_id":"","pricing_plan_id":"free"},{"bike_id":"b00f749f-3038-4537-b750-62b4aa0bd9ed","system_id":"levelo_inurba_marseille","lat":43.279742,"lon":5.38744,"is_reserved":false,"is_disabled":false,"rental_uris":{"android":"levelo://app?vid=b00f749f-3038-4537-b750-62b4aa0bd9ed","ios":"levelo://app?vid=b00f749f-3038-4537-b750-62b4aa0bd9ed"},"vehicle_type_id":"4","last_reported":1685131585,"current_range_meters":19200,"station_id":"ce4bhg12rcd13ifvqf80","pricing_plan_id":"free"},{"bike_id":"e205efbb-cf52-44f6-8578-e0f182f8fbab","system_id":"levelo_inurba_marseille","lat":43.292571,"lon":5.409107,"is_reserved":false,"is_disabled":false,"rental_uris":{"android":"levelo://app?vid=e205efbb-cf52-44f6-8578-e0f182f8fbab","ios":"levelo://app?vid=e205efbb-cf52-44f6-8578-e0f182f8fbab"},"vehicle_type_id":"4","last_reported":1685131585,"current_range_meters":9600,"station_id":"ce4bh192rcd13ifvqdc0","pricing_plan_id":"free"},{"bike_id":"03d97fca-c398-400c-85e1-67957eebc50a","system_id":"levelo_inurba_marseille","lat":43.27615,"lon":5.36105,"is_reserved":false,"is_disabled":false,"rental_uris":{"android":"levelo://app?vid=03d97fca-c398-400c-85e1-67957eebc50a","ios":"levelo://app?vid=03d97fca-c398-400c-85e1-67957eebc50a"},"vehicle_type_id":"4","last_reported":1685131585,"current_range_meters":13200,"station_id":"ce4bgj92rcd13ifvqbe0","pricing_plan_id":"free"},{"bike_id":"425d9893-ee29-4149-a98a-765782be0dc6","system_id":"levelo_inurba_marseille","lat":43.27618,"lon":5.361009,"is_reserved":false,"is_disabled":false,"rental_uris":{"android":"levelo://app?vid=425d9893-ee29-4149-a98a-765782be0dc6","ios":"levelo://app?vid=425d9893-ee29-4149-a98a-765782be0dc6"},"vehicle_type_id":"4","last_reported":1685131585,"current_range_meters":400,"station_id":"ce4bgj92rcd13ifvqbe0","pricing_plan_id":"free"},{"bike_id":"62280e16-a602-4519-8c6c-2941d2129897","system_id":"levelo_inurba_marseille","lat":43.27613,"lon":5.36111,"is_reserved":false,"is_disabled":false,"rental_uris":{"android":"levelo://app?vid=62280e16-a602-4519-8c6c-2941d2129897","ios":"levelo://app?vid=62280e16-a602-4519-8c6c-2941d2129897"},"vehicle_type_id":"4","last_reported":1685131585,"current_range_meters":6400,"station_id":"ce4bgj92rcd13ifvqbe0","pricing_plan_id":"free"},{"bike_id":"27477080-4773-435c-abe6-56bbe3450638","system_id":"levelo_inurba_marseille","lat":43.278401,"lon":5.392152,"is_reserved":false,"is_disabled":false,"rental_uris":{"android":"levelo://app?vid=27477080-4773-435c-abe6-56bbe3450638","ios":"levelo://app?vid=27477080-4773-435c-abe6-56bbe3450638"},"vehicle_type_id":"4","last_reported":1685131585,"current_range_meters":9200,"station_id":"ce4bhjp2rcd13ifvqga0","pricing_plan_id":"free"},{"bike_id":"6991f209-5fb3-48d7-aa03-820cb6dcd482","system_id":"levelo_inurba_marseille","lat":43.278399,"lon":5.392139,"is_reserved":false,"is_disabled":false,"rental_uris":{"android":"levelo://app?vid=6991f209-5fb3-48d7-aa03-820cb6dcd482","ios":"levelo://app?vid=6991f209-5fb3-48d7-aa03-820cb6dcd482"},"vehicle_type_id":"4","last_reported":1685131585,"current_range_meters":6000,"station_id":"ce4bhjp2rcd13ifvqga0","pricing_plan_id":"free"},{"bike_id":"b9c14919-5cec-48c8-a00e-72005876e407","system_id":"levelo_inurba_marseille","lat":43.273613,"lon":5.362705,"is_reserved":false,"is_disabled":false,"rental_uris":{"android":"levelo://app?vid=b9c14919-5cec-48c8-a00e-72005876e407","ios":"levelo://app?vid=b9c14919-5cec-48c8-a00e-72005876e407"},"vehicle_type_id":"4","last_reported":1685131585,"current_range_meters":0,"station_id":"ce4bhbh2rcd13ifvqeo0","pricing_plan_id":"free"},{"bike_id":"b14eb1b9-f254-43ed-8b17-c2b45fdf456d","system_id":"levelo_inurba_marseille","lat":43.273613,"lon":5.362705,"is_reserved":false,"is_disabled":false,"rental_uris":{"android":"levelo://app?vid=b14eb1b9-f254-43ed-8b17-c2b45fdf456d","ios":"levelo://app?vid=b14eb1b9-f254-43ed-8b17-c2b45fdf456d"},"vehicle_type_id":"4","last_reported":1685131585,"current_range_meters":0,"station_id":"ce4bhbh2rcd13ifvqeo0","pricing_plan_id":"free"},{"bike_id":"d68f8bbd-38c5-4208-a404-fbfe7cb1ea72","system_id":"levelo_inurba_marseille","lat":43.273613,"lon":5.362705,"is_reserved":false,"is_disabled":false,"rental_uris":{"android":"levelo://app?vid=d68f8bbd-38c5-4208-a404-fbfe7cb1ea72","ios":"levelo://app?vid=d68f8bbd-38c5-4208-a404-fbfe7cb1ea72"},"vehicle_type_id":"4","last_reported":1685131585,"current_range_meters":0,"station_id":"ce4bhbh2rcd13ifvqeo0","pricing_plan_id":"free"},{"bike_id":"da7c2559-0313-484b-b183-ff614021774a","system_id":"levelo_inurba_marseille","lat":43.273609,"lon":5.362708,"is_reserved":false,"is_disabled":false,"rental_uris":{"android":"levelo://app?vid=da7c2559-0313-484b-b183-ff614021774a","ios":"levelo://app?vid=da7c2559-0313-484b-b183-ff614021774a"},"vehicle_type_id":"4","last_reported":1685131585,"current_range_meters":8000,"station_id":"ce4bhbh2rcd13ifvqeo0","pricing_plan_id":"free"},{"bike_id":"917dcbf9-7e23-426a-82d1-96f7649be1c3","system_id":"levelo_inurba_marseille","lat":43.273609,"lon":5.362708,"is_reserved":false,"is_disabled":false,"rental_uris":{"android":"levelo://app?vid=917dcbf9-7e23-426a-82d1-96f7649be1c3","ios":"levelo://app?vid=917dcbf9-7e23-426a-82d1-96f7649be1c3"},"vehicle_type_id":"4","last_reported":1685131585,"current_range_meters":0,"station_id":"ce4bhbh2rcd13ifvqeo0","pricing_plan_id":"free"},{"bike_id":"959bf65e-fac0-4992-a582-2f91b5497d8d","system_id":"levelo_inurba_marseille","lat":43.317121,"lon":5.423936,"is_reserved":false,"is_disabled":false,"rental_uris":{"android":"levelo://app?vid=959bf65e-fac0-4992-a582-2f91b5497d8d","ios":"levelo://app?vid=959bf65e-fac0-4992-a582-2f91b5497d8d"},"vehicle_type_id":"4","last_reported":1685131585,"current_range_meters":23200,"station_id":"ce4bhp92rcd13ifvqhbg","pricing_plan_id":"free"},{"bike_id":"8924875d-c949-4a85-bd85-be15c0fdd64a","system_id":"levelo_inurba_marseille","lat":43.31725,"lon":5.42406,"is_reserved":false,"is_disabled":false,"rental_uris":{"android":"levelo://app?vid=8924875d-c949-4a85-bd85-be15c0fdd64a","ios":"levelo://app?vid=8924875d-c949-4a85-bd85-be15c0fdd64a"},"vehicle_type_id":"4","last_reported":1685131585,"current_range_meters":28000,"station_id":"ce4bhp92rcd13ifvqhbg","pricing_plan_id":"free"},{"bike_id":"1b3a9706-1d75-49da-b04f-a8d2d21f8a41","system_id":"levelo_inurba_marseille","lat":43.310785,"lon":5.424305,"is_reserved":false,"is_disabled":false,"rental_uris":{"android":"levelo://app?vid=1b3a9706-1d75-49da-b04f-a8d2d21f8a41","ios":"levelo://app?vid=1b3a9706-1d75-49da-b04f-a8d2d21f8a41"},"vehicle_type_id":"4","last_reported":1685131585,"current_range_meters":28000,"station_id":"ce4bhp92rcd13ifvqhag","pricing_plan_id":"free"},{"bike_id":"21433360-526c-46f0-93a8-cf37bed8ad70","system_id":"levelo_inurba_marseille","lat":43.304096,"lon":5.425385,"is_reserved":false,"is_disabled":false,"rental_uris":{"android":"levelo://app?vid=21433360-526c-46f0-93a8-cf37bed8ad70","ios":"levelo://app?vid=21433360-526c-46f0-93a8-cf37bed8ad70"},"vehicle_type_id":"4","last_reported":1685131585,"current_range_meters":31200,"station_id":"ce4bhoh2rcd13ifvqh6g","pricing_plan_id":"free"},{"bike_id":"6d713c6e-b9c6-4bb9-9970-dd3ec8ae03ba","system_id":"levelo_inurba_marseille","lat":43.295511,"lon":5.422926,"is_reserved":false,"is_disabled":false,"rental_uris":{"android":"levelo://app?vid=6d713c6e-b9c6-4bb9-9970-dd3ec8ae03ba","ios":"levelo://app?vid=6d713c6e-b9c6-4bb9-9970-dd3ec8ae03ba"},"vehicle_type_id":"4","last_reported":1685131585,"current_range_meters":5200,"station_id":"ce4bhph2rcd13ifvqhdg","pricing_plan_id":"free"},{"bike_id":"aa48024b-638e-4c91-8341-bb88b8e8aa05","system_id":"levelo_inurba_marseille","lat":43.295511,"lon":5.422926,"is_reserved":false,"is_disabled":false,"rental_uris":{"android":"levelo://app?vid=aa48024b-638e-4c91-8341-bb88b8e8aa05","ios":"levelo://app?vid=aa48024b-638e-4c91-8341-bb88b8e8aa05"},"vehicle_type_id":"4","last_reported":1685131585,"current_range_meters":0,"station_id":"ce4bhph2rcd13ifvqhdg","pricing_plan_id":"free"},{"bike_id":"17633826-d91b-4a70-86c6-45586fbc38d0","system_id":"levelo_inurba_marseille","lat":43.265714,"lon":5.372891,"is_reserved":false,"is_disabled":false,"rental_uris":{"android":"levelo://app?vid=17633826-d91b-4a70-86c6-45586fbc38d0","ios":"levelo://app?vid=17633826-d91b-4a70-86c6-45586fbc38d0"},"vehicle_type_id":"4","last_reported":1685131585,"current_range_meters":12000,"station_id":"ce4bhg12rcd13ifvqf70","pricing_plan_id":"free"},{"bike_id":"350360a5-9386-40bb-950d-edbdffde79ec","system_id":"levelo_inurba_marseille","lat":43.265714,"lon":5.372891,"is_reserved":false,"is_disabled":false,"rental_uris":{"android":"levelo://app?vid=350360a5-9386-40bb-950d-edbdffde79ec","ios":"levelo://app?vid=350360a5-9386-40bb-950d-edbdffde79ec"},"vehicle_type_id":"4","last_reported":1685131585,"current_range_meters":0,"station_id":"ce4bhg12rcd13ifvqf70","pricing_plan_id":"free"},{"bike_id":"54953897-ef0b-45ba-a3aa-03f48b1e50a9","system_id":"levelo_inurba_marseille","lat":43.265714,"lon":5.372891,"is_reserved":false,"is_disabled":false,"rental_uris":{"android":"levelo://app?vid=54953897-ef0b-45ba-a3aa-03f48b1e50a9","ios":"levelo://app?vid=54953897-ef0b-45ba-a3aa-03f48b1e50a9"},"vehicle_type_id":"4","last_reported":1685131585,"current_range_meters":9200,"station_id":"ce4bhg12rcd13ifvqf70","pricing_plan_id":"free"},{"bike_id":"f2bc5387-02ec-405c-83ac-3103a2a68ffa","system_id":"levelo_inurba_marseille","lat":43.265714,"lon":5.372891,"is_reserved":false,"is_disabled":false,"rental_uris":{"android":"levelo://app?vid=f2bc5387-02ec-405c-83ac-3103a2a68ffa","ios":"levelo://app?vid=f2bc5387-02ec-405c-83ac-3103a2a68ffa"},"vehicle_type_id":"4","last_reported":1685131585,"current_range_meters":10000,"station_id":"ce4bhg12rcd13ifvqf70","pricing_plan_id":"free"},{"bike_id":"c55545fe-c77e-4b90-8078-4b300a7933af","system_id":"levelo_inurba_marseille","lat":43.265714,"lon":5.372891,"is_reserved":false,"is_disabled":false,"rental_uris":{"android":"levelo://app?vid=c55545fe-c77e-4b90-8078-4b300a7933af","ios":"levelo://app?vid=c55545fe-c77e-4b90-8078-4b300a7933af"},"vehicle_type_id":"4","last_reported":1685131585,"current_range_meters":12000,"station_id":"ce4bhg12rcd13ifvqf70","pricing_plan_id":"free"},{"bike_id":"7f68148f-fe51-47ba-8149-dd7c9249a73a","system_id":"levelo_inurba_marseille","lat":43.28001,"lon":5.41664,"is_reserved":false,"is_disabled":false,"rental_uris":{"android":"levelo://app?vid=7f68148f-fe51-47ba-8149-dd7c9249a73a","ios":"levelo://app?vid=7f68148f-fe51-47ba-8149-dd7c9249a73a"},"vehicle_type_id":"4","last_reported":1685131585,"current_range_meters":25200,"station_id":"ce4bho12rcd13ifvqh1g","pricing_plan_id":"free"},{"bike_id":"b859bc2f-a9de-44ef-971f-755c7b475183","system_id":"levelo_inurba_marseille","lat":43.267966,"lon":5.393976,"is_reserved":false,"is_disabled":false,"rental_uris":{"android":"levelo://app?vid=b859bc2f-a9de-44ef-971f-755c7b475183","ios":"levelo://app?vid=b859bc2f-a9de-44ef-971f-755c7b475183"},"vehicle_type_id":"4","last_reported":1685131585,"current_range_meters":400,"station_id":"ce4bhh12rcd13ifvqfg0","pricing_plan_id":"free"},{"bike_id":"b35a7040-bbda-43db-9397-f046555e255b","system_id":"levelo_inurba_marseille","lat":43.30809,"lon":5.43522,"is_reserved":false,"is_disabled":false,"rental_uris":{"android":"levelo://app?vid=b35a7040-bbda-43db-9397-f046555e255b","ios":"levelo://app?vid=b35a7040-bbda-43db-9397-f046555e255b"},"vehicle_type_id":"4","last_reported":1685131585,"current_range_meters":22800,"station_id":"","pricing_plan_id":"free"},{"bike_id":"2e18f64f-160d-4cc2-ab99-cf430a92b7d9","system_id":"levelo_inurba_marseille","lat":43.30796,"lon":5.43521,"is_reserved":false,"is_disabled":false,"rental_uris":{"android":"levelo://app?vid=2e18f64f-160d-4cc2-ab99-cf430a92b7d9","ios":"levelo://app?vid=2e18f64f-160d-4cc2-ab99-cf430a92b7d9"},"vehicle_type_id":"4","last_reported":1685131585,"current_range_meters":0,"station_id":"","pricing_plan_id":"free"},{"bike_id":"eb1e7463-04a7-4eb1-b297-dd018c79d527","system_id":"levelo_inurba_marseille","lat":43.30799,"lon":5.43528,"is_reserved":false,"is_disabled":false,"rental_uris":{"android":"levelo://app?vid=eb1e7463-04a7-4eb1-b297-dd018c79d527","ios":"levelo://app?vid=eb1e7463-04a7-4eb1-b297-dd018c79d527"},"vehicle_type_id":"4","last_reported":1685131585,"current_range_meters":0,"station_id":"","pricing_plan_id":"free"},{"bike_id":"2e98ed7a-9ddb-40ce-b7c7-175b4a887600","system_id":"levelo_inurba_marseille","lat":43.261782,"lon":5.374515,"is_reserved":false,"is_disabled":false,"rental_uris":{"android":"levelo://app?vid=2e98ed7a-9ddb-40ce-b7c7-175b4a887600","ios":"levelo://app?vid=2e98ed7a-9ddb-40ce-b7c7-175b4a887600"},"vehicle_type_id":"4","last_reported":1685131585,"current_range_meters":26800,"station_id":"ce4bhgp2rcd13ifvqfc0","pricing_plan_id":"free"},{"bike_id":"97f92444-dc7f-4ac8-885e-43ac50454dc0","system_id":"levelo_inurba_marseille","lat":43.31709,"lon":5.43695,"is_reserved":false,"is_disabled":false,"rental_uris":{"android":"levelo://app?vid=97f92444-dc7f-4ac8-885e-43ac50454dc0","ios":"levelo://app?vid=97f92444-dc7f-4ac8-885e-43ac50454dc0"},"vehicle_type_id":"4","last_reported":1685131585,"current_range_meters":0,"station_id":"ce4bhp92rcd13ifvqhcg","pricing_plan_id":"free"},{"bike_id":"bb8daff0-5994-4de6-97ce-013dcedbf696","system_id":"levelo_inurba_marseille","lat":43.317104,"lon":5.436818,"is_reserved":false,"is_disabled":false,"rental_uris":{"android":"levelo://app?vid=bb8daff0-5994-4de6-97ce-013dcedbf696","ios":"levelo://app?vid=bb8daff0-5994-4de6-97ce-013dcedbf696"},"vehicle_type_id":"4","last_reported":1685131585,"current_range_meters":19600,"station_id":"ce4bhp92rcd13ifvqhcg","pricing_plan_id":"free"},{"bike_id":"16786191-0555-44c4-a2df-ac60ad6d3653","system_id":"levelo_inurba_marseille","lat":43.261782,"lon":5.374515,"is_reserved":false,"is_disabled":false,"rental_uris":{"android":"levelo://app?vid=16786191-0555-44c4-a2df-ac60ad6d3653","ios":"levelo://app?vid=16786191-0555-44c4-a2df-ac60ad6d3653"},"vehicle_type_id":"4","last_reported":1685131585,"current_range_meters":7200,"station_id":"ce4bhgp2rcd13ifvqfc0","pricing_plan_id":"free"},{"bike_id":"c90e69af-d782-41fc-8d05-125208b8b776","system_id":"levelo_inurba_marseille","lat":43.261782,"lon":5.374515,"is_reserved":false,"is_disabled":false,"rental_uris":{"android":"levelo://app?vid=c90e69af-d782-41fc-8d05-125208b8b776","ios":"levelo://app?vid=c90e69af-d782-41fc-8d05-125208b8b776"},"vehicle_type_id":"4","last_reported":1685131585,"current_range_meters":2000,"station_id":"ce4bhgp2rcd13ifvqfc0","pricing_plan_id":"free"},{"bike_id":"a40b814c-8d11-48f9-af9c-8f2d70505adb","system_id":"levelo_inurba_marseille","lat":43.31705,"lon":5.43705,"is_reserved":false,"is_disabled":false,"rental_uris":{"android":"levelo://app?vid=a40b814c-8d11-48f9-af9c-8f2d70505adb","ios":"levelo://app?vid=a40b814c-8d11-48f9-af9c-8f2d70505adb"},"vehicle_type_id":"4","last_reported":1685131585,"current_range_meters":25200,"station_id":"ce4bhp92rcd13ifvqhcg","pricing_plan_id":"free"},{"bike_id":"6caacd0e-46b0-41a9-8c62-afb29db7e6c7","system_id":"levelo_inurba_marseille","lat":43.317104,"lon":5.436818,"is_reserved":false,"is_disabled":false,"rental_uris":{"android":"levelo://app?vid=6caacd0e-46b0-41a9-8c62-afb29db7e6c7","ios":"levelo://app?vid=6caacd0e-46b0-41a9-8c62-afb29db7e6c7"},"vehicle_type_id":"4","last_reported":1685131585,"current_range_meters":31200,"station_id":"ce4bhp92rcd13ifvqhcg","pricing_plan_id":"free"},{"bike_id":"677fe151-801a-4d73-9e92-e9bc07905498","system_id":"levelo_inurba_marseille","lat":43.31718,"lon":5.43707,"is_reserved":false,"is_disabled":false,"rental_uris":{"android":"levelo://app?vid=677fe151-801a-4d73-9e92-e9bc07905498","ios":"levelo://app?vid=677fe151-801a-4d73-9e92-e9bc07905498"},"vehicle_type_id":"4","last_reported":1685131585,"current_range_meters":30400,"station_id":"ce4bhp92rcd13ifvqhcg","pricing_plan_id":"free"},{"bike_id":"ffba4be3-ca70-46ef-8228-16aa951b4cd6","system_id":"levelo_inurba_marseille","lat":43.317104,"lon":5.436818,"is_reserved":false,"is_disabled":false,"rental_uris":{"android":"levelo://app?vid=ffba4be3-ca70-46ef-8228-16aa951b4cd6","ios":"levelo://app?vid=ffba4be3-ca70-46ef-8228-16aa951b4cd6"},"vehicle_type_id":"4","last_reported":1685131585,"current_range_meters":31200,"station_id":"ce4bhp92rcd13ifvqhcg","pricing_plan_id":"free"},{"bike_id":"c0b1d61f-95d0-43f1-8852-8a7f67e94801","system_id":"levelo_inurba_marseille","lat":43.267959,"lon":5.402687,"is_reserved":false,"is_disabled":false,"rental_uris":{"android":"levelo://app?vid=c0b1d61f-95d0-43f1-8852-8a7f67e94801","ios":"levelo://app?vid=c0b1d61f-95d0-43f1-8852-8a7f67e94801"},"vehicle_type_id":"4","last_reported":1685131585,"current_range_meters":19200,"station_id":"ce501612rcd8frsf0b60","pricing_plan_id":"free"},{"bike_id":"cd412f4d-5ab3-4e7f-be1b-7cfb3566af2c","system_id":"levelo_inurba_marseille","lat":43.267959,"lon":5.402687,"is_reserved":false,"is_disabled":false,"rental_uris":{"android":"levelo://app?vid=cd412f4d-5ab3-4e7f-be1b-7cfb3566af2c","ios":"levelo://app?vid=cd412f4d-5ab3-4e7f-be1b-7cfb3566af2c"},"vehicle_type_id":"4","last_reported":1685131585,"current_range_meters":8000,"station_id":"ce501612rcd8frsf0b60","pricing_plan_id":"free"},{"bike_id":"4e1b86b6-b12c-441f-b5c1-ba0a90fca197","system_id":"levelo_inurba_marseille","lat":43.298768,"lon":5.43643,"is_reserved":false,"is_disabled":false,"rental_uris":{"android":"levelo://app?vid=4e1b86b6-b12c-441f-b5c1-ba0a90fca197","ios":"levelo://app?vid=4e1b86b6-b12c-441f-b5c1-ba0a90fca197"},"vehicle_type_id":"4","last_reported":1685131585,"current_range_meters":30800,"station_id":"ce4bhpp2rcd13ifvqhfg","pricing_plan_id":"free"},{"bike_id":"2bbf39e5-5485-4880-b9ce-9ba5fff1a707","system_id":"levelo_inurba_marseille","lat":43.29897,"lon":5.43662,"is_reserved":false,"is_disabled":false,"rental_uris":{"android":"levelo://app?vid=2bbf39e5-5485-4880-b9ce-9ba5fff1a707","ios":"levelo://app?vid=2bbf39e5-5485-4880-b9ce-9ba5fff1a707"},"vehicle_type_id":"4","last_reported":1685131585,"current_range_meters":16400,"station_id":"","pricing_plan_id":"free"},{"bike_id":"57572c88-3708-4036-891a-204b9f884608","system_id":"levelo_inurba_marseille","lat":43.29896,"lon":5.43662,"is_reserved":false,"is_disabled":false,"rental_uris":{"android":"levelo://app?vid=57572c88-3708-4036-891a-204b9f884608","ios":"levelo://app?vid=57572c88-3708-4036-891a-204b9f884608"},"vehicle_type_id":"4","last_reported":1685131585,"current_range_meters":12800,"station_id":"","pricing_plan_id":"free"},{"bike_id":"2bec87da-92f9-4fd1-a31d-4f8c41246cb1","system_id":"levelo_inurba_marseille","lat":43.29895,"lon":5.43662,"is_reserved":false,"is_disabled":false,"rental_uris":{"android":"levelo://app?vid=2bec87da-92f9-4fd1-a31d-4f8c41246cb1","ios":"levelo://app?vid=2bec87da-92f9-4fd1-a31d-4f8c41246cb1"},"vehicle_type_id":"4","last_reported":1685131585,"current_range_meters":6800,"station_id":"ce4bhpp2rcd13ifvqhfg","pricing_plan_id":"free"},{"bike_id":"a01b8269-cd6f-432a-9c44-37513ea96cd0","system_id":"levelo_inurba_marseille","lat":43.298768,"lon":5.43643,"is_reserved":false,"is_disabled":false,"rental_uris":{"android":"levelo://app?vid=a01b8269-cd6f-432a-9c44-37513ea96cd0","ios":"levelo://app?vid=a01b8269-cd6f-432a-9c44-37513ea96cd0"},"vehicle_type_id":"4","last_reported":1685131585,"current_range_meters":24400,"station_id":"ce4bhpp2rcd13ifvqhfg","pricing_plan_id":"free"},{"bike_id":"625cf51e-ab1a-4754-ae5a-a72655adf3ff","system_id":"levelo_inurba_marseille","lat":43.299,"lon":5.43666,"is_reserved":false,"is_disabled":false,"rental_uris":{"android":"levelo://app?vid=625cf51e-ab1a-4754-ae5a-a72655adf3ff","ios":"levelo://app?vid=625cf51e-ab1a-4754-ae5a-a72655adf3ff"},"vehicle_type_id":"4","last_reported":1685131585,"current_range_meters":10800,"station_id":"","pricing_plan_id":"free"},{"bike_id":"c8de2773-0f39-49ca-aaaa-0510f3608265","system_id":"levelo_inurba_marseille","lat":43.29899,"lon":5.43667,"is_reserved":false,"is_disabled":false,"rental_uris":{"android":"levelo://app?vid=c8de2773-0f39-49ca-aaaa-0510f3608265","ios":"levelo://app?vid=c8de2773-0f39-49ca-aaaa-0510f3608265"},"vehicle_type_id":"4","last_reported":1685131585,"current_range_meters":25200,"station_id":"","pricing_plan_id":"free"},{"bike_id":"608b499d-e068-453a-896b-74bff4555044","system_id":"levelo_inurba_marseille","lat":43.29899,"lon":5.43668,"is_reserved":false,"is_disabled":false,"rental_uris":{"android":"levelo://app?vid=608b499d-e068-453a-896b-74bff4555044","ios":"levelo://app?vid=608b499d-e068-453a-896b-74bff4555044"},"vehicle_type_id":"4","last_reported":1685131585,"current_range_meters":21200,"station_id":"","pricing_plan_id":"free"},{"bike_id":"dde9f2f0-56ac-4fd7-8d1e-ed84b13d9718","system_id":"levelo_inurba_marseille","lat":43.29903,"lon":5.4367,"is_reserved":false,"is_disabled":false,"rental_uris":{"android":"levelo://app?vid=dde9f2f0-56ac-4fd7-8d1e-ed84b13d9718","ios":"levelo://app?vid=dde9f2f0-56ac-4fd7-8d1e-ed84b13d9718"},"vehicle_type_id":"4","last_reported":1685131585,"current_range_meters":29600,"station_id":"ce4bhpp2rcd13ifvqhfg","pricing_plan_id":"free"},{"bike_id":"1522e6fe-e66c-4a0c-a606-391cd3d5a93b","system_id":"levelo_inurba_marseille","lat":43.298768,"lon":5.43643,"is_reserved":false,"is_disabled":false,"rental_uris":{"android":"levelo://app?vid=1522e6fe-e66c-4a0c-a606-391cd3d5a93b","ios":"levelo://app?vid=1522e6fe-e66c-4a0c-a606-391cd3d5a93b"},"vehicle_type_id":"4","last_reported":1685131585,"current_range_meters":18800,"station_id":"ce4bhpp2rcd13ifvqhfg","pricing_plan_id":"free"},{"bike_id":"10e908e4-3125-440e-9c39-2774d9966d9d","system_id":"levelo_inurba_marseille","lat":43.26031,"lon":5.3754,"is_reserved":false,"is_disabled":false,"rental_uris":{"android":"levelo://app?vid=10e908e4-3125-440e-9c39-2774d9966d9d","ios":"levelo://app?vid=10e908e4-3125-440e-9c39-2774d9966d9d"},"vehicle_type_id":"4","last_reported":1685131585,"current_range_meters":31200,"station_id":"ce4bhgh2rcd13ifvqfa0","pricing_plan_id":"free"},{"bike_id":"a26fca65-2d09-4e8e-bc35-dd4a1c5e65ca","system_id":"levelo_inurba_marseille","lat":43.26025,"lon":5.37545,"is_reserved":false,"is_disabled":false,"rental_uris":{"android":"levelo://app?vid=a26fca65-2d09-4e8e-bc35-dd4a1c5e65ca","ios":"levelo://app?vid=a26fca65-2d09-4e8e-bc35-dd4a1c5e65ca"},"vehicle_type_id":"4","last_reported":1685131585,"current_range_meters":5600,"station_id":"ce4bhgh2rcd13ifvqfa0","pricing_plan_id":"free"},{"bike_id":"d9cfb92c-48bd-4f17-b87b-eca62c898de3","system_id":"levelo_inurba_marseille","lat":43.255756,"lon":5.382303,"is_reserved":false,"is_disabled":false,"rental_uris":{"android":"levelo://app?vid=d9cfb92c-48bd-4f17-b87b-eca62c898de3","ios":"levelo://app?vid=d9cfb92c-48bd-4f17-b87b-eca62c898de3"},"vehicle_type_id":"4","last_reported":1685131585,"current_range_meters":11200,"station_id":"ce4bhih2rcd13ifvqfs0","pricing_plan_id":"free"},{"bike_id":"6e1093f1-eb35-4552-89ed-92f308880435","system_id":"levelo_inurba_marseille","lat":43.254947,"lon":5.376454,"is_reserved":false,"is_disabled":false,"rental_uris":{"android":"levelo://app?vid=6e1093f1-eb35-4552-89ed-92f308880435","ios":"levelo://app?vid=6e1093f1-eb35-4552-89ed-92f308880435"},"vehicle_type_id":"4","last_reported":1685131585,"current_range_meters":11600,"station_id":"ce4bhh12rcd13ifvqff0","pricing_plan_id":"free"},{"bike_id":"d610d048-c04c-4b56-93ce-91703f923bfd","system_id":"levelo_inurba_marseille","lat":43.254947,"lon":5.376454,"is_reserved":false,"is_disabled":false,"rental_uris":{"android":"levelo://app?vid=d610d048-c04c-4b56-93ce-91703f923bfd","ios":"levelo://app?vid=d610d048-c04c-4b56-93ce-91703f923bfd"},"vehicle_type_id":"4","last_reported":1685131585,"current_range_meters":4000,"station_id":"ce4bhh12rcd13ifvqff0","pricing_plan_id":"free"},{"bike_id":"60608084-3ee0-48f4-916a-4f871f8f30f3","system_id":"levelo_inurba_marseille","lat":43.25496,"lon":5.37652,"is_reserved":false,"is_disabled":false,"rental_uris":{"android":"levelo://app?vid=60608084-3ee0-48f4-916a-4f871f8f30f3","ios":"levelo://app?vid=60608084-3ee0-48f4-916a-4f871f8f30f3"},"vehicle_type_id":"4","last_reported":1685131585,"current_range_meters":2400,"station_id":"ce4bhh12rcd13ifvqff0","pricing_plan_id":"free"},{"bike_id":"21a94e83-2bcf-4902-8a6a-85407ac0d3c9","system_id":"levelo_inurba_marseille","lat":43.254952,"lon":5.376471,"is_reserved":false,"is_disabled":false,"rental_uris":{"android":"levelo://app?vid=21a94e83-2bcf-4902-8a6a-85407ac0d3c9","ios":"levelo://app?vid=21a94e83-2bcf-4902-8a6a-85407ac0d3c9"},"vehicle_type_id":"4","last_reported":1685131585,"current_range_meters":7200,"station_id":"","pricing_plan_id":"free"},{"bike_id":"04f0d200-5ec1-4da8-9f05-34a7796ee4b0","system_id":"levelo_inurba_marseille","lat":43.2707,"lon":5.42278,"is_reserved":false,"is_disabled":false,"rental_uris":{"android":"levelo://app?vid=04f0d200-5ec1-4da8-9f05-34a7796ee4b0","ios":"levelo://app?vid=04f0d200-5ec1-4da8-9f05-34a7796ee4b0"},"vehicle_type_id":"4","last_reported":1685131585,"current_range_meters":29200,"station_id":"ce4bhk92rcd13ifvqgb0","pricing_plan_id":"free"},{"bike_id":"fb391ea4-e81d-46d6-bf8b-15607b8eba32","system_id":"levelo_inurba_marseille","lat":43.2707,"lon":5.42279,"is_reserved":false,"is_disabled":false,"rental_uris":{"android":"levelo://app?vid=fb391ea4-e81d-46d6-bf8b-15607b8eba32","ios":"levelo://app?vid=fb391ea4-e81d-46d6-bf8b-15607b8eba32"},"vehicle_type_id":"4","last_reported":1685131585,"current_range_meters":24400,"station_id":"ce4bhk92rcd13ifvqgb0","pricing_plan_id":"free"},{"bike_id":"4d74e04a-b622-4f30-9b30-13f28b2a0887","system_id":"levelo_inurba_marseille","lat":43.270721,"lon":5.422764,"is_reserved":false,"is_disabled":false,"rental_uris":{"android":"levelo://app?vid=4d74e04a-b622-4f30-9b30-13f28b2a0887","ios":"levelo://app?vid=4d74e04a-b622-4f30-9b30-13f28b2a0887"},"vehicle_type_id":"4","last_reported":1685131585,"current_range_meters":31200,"station_id":"ce4bhk92rcd13ifvqgb0","pricing_plan_id":"free"},{"bike_id":"3583dbe0-433b-4cf5-8a78-02a3550f1dd8","system_id":"levelo_inurba_marseille","lat":43.27447,"lon":5.42947,"is_reserved":false,"is_disabled":false,"rental_uris":{"android":"levelo://app?vid=3583dbe0-433b-4cf5-8a78-02a3550f1dd8","ios":"levelo://app?vid=3583dbe0-433b-4cf5-8a78-02a3550f1dd8"},"vehicle_type_id":"4","last_reported":1685131585,"current_range_meters":1600,"station_id":"","pricing_plan_id":"free"},{"bike_id":"8cd1edb9-73fb-4fb4-bc90-5780c3d27624","system_id":"levelo_inurba_marseille","lat":43.2479,"lon":5.374457,"is_reserved":false,"is_disabled":false,"rental_uris":{"android":"levelo://app?vid=8cd1edb9-73fb-4fb4-bc90-5780c3d27624","ios":"levelo://app?vid=8cd1edb9-73fb-4fb4-bc90-5780c3d27624"},"vehicle_type_id":"4","last_reported":1685131585,"current_range_meters":12400,"station_id":"ce4bhgh2rcd13ifvqfb0","pricing_plan_id":"free"},{"bike_id":"5c7d4f96-5d8f-4c7b-acb5-e6450a92735e","system_id":"levelo_inurba_marseille","lat":43.2479,"lon":5.374457,"is_reserved":false,"is_disabled":false,"rental_uris":{"android":"levelo://app?vid=5c7d4f96-5d8f-4c7b-acb5-e6450a92735e","ios":"levelo://app?vid=5c7d4f96-5d8f-4c7b-acb5-e6450a92735e"},"vehicle_type_id":"4","last_reported":1685131585,"current_range_meters":6400,"station_id":"ce4bhgh2rcd13ifvqfb0","pricing_plan_id":"free"},{"bike_id":"c04d6376-4dc7-4b58-aa38-5cfd0328ed86","system_id":"levelo_inurba_marseille","lat":43.2479,"lon":5.374457,"is_reserved":false,"is_disabled":false,"rental_uris":{"android":"levelo://app?vid=c04d6376-4dc7-4b58-aa38-5cfd0328ed86","ios":"levelo://app?vid=c04d6376-4dc7-4b58-aa38-5cfd0328ed86"},"vehicle_type_id":"4","last_reported":1685131585,"current_range_meters":800,"station_id":"ce4bhgh2rcd13ifvqfb0","pricing_plan_id":"free"},{"bike_id":"2e07a4aa-1679-4a03-980d-7111139337a2","system_id":"levelo_inurba_marseille","lat":43.24693,"lon":5.382096,"is_reserved":false,"is_disabled":false,"rental_uris":{"android":"levelo://app?vid=2e07a4aa-1679-4a03-980d-7111139337a2","ios":"levelo://app?vid=2e07a4aa-1679-4a03-980d-7111139337a2"},"vehicle_type_id":"4","last_reported":1685131585,"current_range_meters":4800,"station_id":"ce4bhih2rcd13ifvqfr0","pricing_plan_id":"free"},{"bike_id":"5b82427d-45cb-4005-bb73-bceaa3b72b6e","system_id":"levelo_inurba_marseille","lat":43.246629,"lon":5.381738,"is_reserved":false,"is_disabled":false,"rental_uris":{"android":"levelo://app?vid=5b82427d-45cb-4005-bb73-bceaa3b72b6e","ios":"levelo://app?vid=5b82427d-45cb-4005-bb73-bceaa3b72b6e"},"vehicle_type_id":"4","last_reported":1685131585,"current_range_meters":22000,"station_id":"ce4bhih2rcd13ifvqfr0","pricing_plan_id":"free"},{"bike_id":"15d80bc9-c7af-4ef6-810d-52873ba0bc08","system_id":"levelo_inurba_marseille","lat":43.24693,"lon":5.382096,"is_reserved":false,"is_disabled":false,"rental_uris":{"android":"levelo://app?vid=15d80bc9-c7af-4ef6-810d-52873ba0bc08","ios":"levelo://app?vid=15d80bc9-c7af-4ef6-810d-52873ba0bc08"},"vehicle_type_id":"4","last_reported":1685131585,"current_range_meters":23600,"station_id":"ce4bhih2rcd13ifvqfr0","pricing_plan_id":"free"},{"bike_id":"a1e60ae8-d799-4fd3-925b-0aae66efc983","system_id":"levelo_inurba_marseille","lat":43.24392,"lon":5.3706,"is_reserved":false,"is_disabled":false,"rental_uris":{"android":"levelo://app?vid=a1e60ae8-d799-4fd3-925b-0aae66efc983","ios":"levelo://app?vid=a1e60ae8-d799-4fd3-925b-0aae66efc983"},"vehicle_type_id":"4","last_reported":1685131585,"current_range_meters":800,"station_id":"ce4bhhh2rcd13ifvqfk0","pricing_plan_id":"free"},{"bike_id":"70ec1b4a-8fed-4ed4-ab0b-e2b4f46e3912","system_id":"levelo_inurba_marseille","lat":43.243884,"lon":5.370736,"is_reserved":false,"is_disabled":false,"rental_uris":{"android":"levelo://app?vid=70ec1b4a-8fed-4ed4-ab0b-e2b4f46e3912","ios":"levelo://app?vid=70ec1b4a-8fed-4ed4-ab0b-e2b4f46e3912"},"vehicle_type_id":"4","last_reported":1685131585,"current_range_meters":27200,"station_id":"ce4bhhh2rcd13ifvqfk0","pricing_plan_id":"free"},{"bike_id":"c9a2d59b-1f95-44f0-a148-4d88b6d2b2c1","system_id":"levelo_inurba_marseille","lat":43.239588,"lon":5.366238,"is_reserved":false,"is_disabled":false,"rental_uris":{"android":"levelo://app?vid=c9a2d59b-1f95-44f0-a148-4d88b6d2b2c1","ios":"levelo://app?vid=c9a2d59b-1f95-44f0-a148-4d88b6d2b2c1"},"vehicle_type_id":"4","last_reported":1685131585,"current_range_meters":2800,"station_id":"ce4bhi12rcd13ifvqfp0","pricing_plan_id":"free"},{"bike_id":"017cbb90-9d16-469d-ab9b-008c01d90208","system_id":"levelo_inurba_marseille","lat":43.2389,"lon":5.38469,"is_reserved":false,"is_disabled":false,"rental_uris":{"android":"levelo://app?vid=017cbb90-9d16-469d-ab9b-008c01d90208","ios":"levelo://app?vid=017cbb90-9d16-469d-ab9b-008c01d90208"},"vehicle_type_id":"4","last_reported":1685131585,"current_range_meters":7600,"station_id":"","pricing_plan_id":"free"},{"bike_id":"c7cb603d-ddfc-4c94-b524-1cfb5ff60bff","system_id":"levelo_inurba_marseille","lat":43.23195,"lon":5.35555,"is_reserved":false,"is_disabled":false,"rental_uris":{"android":"levelo://app?vid=c7cb603d-ddfc-4c94-b524-1cfb5ff60bff","ios":"levelo://app?vid=c7cb603d-ddfc-4c94-b524-1cfb5ff60bff"},"vehicle_type_id":"4","last_reported":1685131585,"current_range_meters":23600,"station_id":"ce4bhu92rcd13ifvqi70","pricing_plan_id":"free"},{"bike_id":"0c88dc43-8cc2-42d6-985b-fa530b67f851","system_id":"levelo_inurba_marseille","lat":43.231919,"lon":5.355532,"is_reserved":false,"is_disabled":false,"rental_uris":{"android":"levelo://app?vid=0c88dc43-8cc2-42d6-985b-fa530b67f851","ios":"levelo://app?vid=0c88dc43-8cc2-42d6-985b-fa530b67f851"},"vehicle_type_id":"4","last_reported":1685131585,"current_range_meters":20400,"station_id":"ce4bhu92rcd13ifvqi70","pricing_plan_id":"free"},{"bike_id":"50387e49-f9cb-45f2-830b-f9804e09b35a","system_id":"levelo_inurba_marseille","lat":43.23193,"lon":5.35558,"is_reserved":false,"is_disabled":false,"rental_uris":{"android":"levelo://app?vid=50387e49-f9cb-45f2-830b-f9804e09b35a","ios":"levelo://app?vid=50387e49-f9cb-45f2-830b-f9804e09b35a"},"vehicle_type_id":"4","last_reported":1685131585,"current_range_meters":4400,"station_id":"ce4bhu92rcd13ifvqi70","pricing_plan_id":"free"},{"bike_id":"6ed80210-e865-4830-a64d-7a44325491b1","system_id":"levelo_inurba_marseille","lat":43.2319,"lon":5.35561,"is_reserved":false,"is_disabled":false,"rental_uris":{"android":"levelo://app?vid=6ed80210-e865-4830-a64d-7a44325491b1","ios":"levelo://app?vid=6ed80210-e865-4830-a64d-7a44325491b1"},"vehicle_type_id":"4","last_reported":1685131585,"current_range_meters":28400,"station_id":"ce4bhu92rcd13ifvqi70","pricing_plan_id":"free"},{"bike_id":"ba4d59a8-54c3-439d-b6ce-459d537c072d","system_id":"levelo_inurba_marseille","lat":43.2319,"lon":5.35555,"is_reserved":false,"is_disabled":false,"rental_uris":{"android":"levelo://app?vid=ba4d59a8-54c3-439d-b6ce-459d537c072d","ios":"levelo://app?vid=ba4d59a8-54c3-439d-b6ce-459d537c072d"},"vehicle_type_id":"4","last_reported":1685131585,"current_range_meters":12000,"station_id":"ce4bhu92rcd13ifvqi70","pricing_plan_id":"free"},{"bike_id":"81d4dcc7-3fc7-449d-ab1e-2ea2b47e5952","system_id":"levelo_inurba_marseille","lat":43.2319,"lon":5.35553,"is_reserved":false,"is_disabled":false,"rental_uris":{"android":"levelo://app?vid=81d4dcc7-3fc7-449d-ab1e-2ea2b47e5952","ios":"levelo://app?vid=81d4dcc7-3fc7-449d-ab1e-2ea2b47e5952"},"vehicle_type_id":"4","last_reported":1685131585,"current_range_meters":16800,"station_id":"ce4bhu92rcd13ifvqi70","pricing_plan_id":"free"},{"bike_id":"b3218611-a475-42a9-92c5-070141c073f0","system_id":"levelo_inurba_marseille","lat":43.23189,"lon":5.35561,"is_reserved":false,"is_disabled":false,"rental_uris":{"android":"levelo://app?vid=b3218611-a475-42a9-92c5-070141c073f0","ios":"levelo://app?vid=b3218611-a475-42a9-92c5-070141c073f0"},"vehicle_type_id":"4","last_reported":1685131585,"current_range_meters":25600,"station_id":"ce4bhu92rcd13ifvqi70","pricing_plan_id":"free"},{"bike_id":"06cc29fe-4669-4afc-bb35-a5e1af0a1bc4","system_id":"levelo_inurba_marseille","lat":43.23186,"lon":5.35562,"is_reserved":false,"is_disabled":false,"rental_uris":{"android":"levelo://app?vid=06cc29fe-4669-4afc-bb35-a5e1af0a1bc4","ios":"levelo://app?vid=06cc29fe-4669-4afc-bb35-a5e1af0a1bc4"},"vehicle_type_id":"4","last_reported":1685131585,"current_range_meters":4800,"station_id":"ce4bhu92rcd13ifvqi70","pricing_plan_id":"free"},{"bike_id":"5c272820-3a04-409e-a879-87b2d365273d","system_id":"levelo_inurba_marseille","lat":43.23123,"lon":5.35515,"is_reserved":false,"is_disabled":false,"rental_uris":{"android":"levelo://app?vid=5c272820-3a04-409e-a879-87b2d365273d","ios":"levelo://app?vid=5c272820-3a04-409e-a879-87b2d365273d"},"vehicle_type_id":"4","last_reported":1685131585,"current_range_meters":14800,"station_id":"","pricing_plan_id":"free"},{"bike_id":"bb1260c0-5c49-4590-8dc5-5c901bf3b31b","system_id":"levelo_inurba_marseille","lat":43.231793,"lon":5.400044,"is_reserved":false,"is_disabled":false,"rental_uris":{"android":"levelo://app?vid=bb1260c0-5c49-4590-8dc5-5c901bf3b31b","ios":"levelo://app?vid=bb1260c0-5c49-4590-8dc5-5c901bf3b31b"},"vehicle_type_id":"4","last_reported":1685131585,"current_range_meters":800,"station_id":"ce4bhn12rcd13ifvqgqg","pricing_plan_id":"free"},{"bike_id":"1e8bd4c3-40cb-4655-8b71-9004c0667763","system_id":"levelo_inurba_marseille","lat":43.231793,"lon":5.400044,"is_reserved":false,"is_disabled":false,"rental_uris":{"android":"levelo://app?vid=1e8bd4c3-40cb-4655-8b71-9004c0667763","ios":"levelo://app?vid=1e8bd4c3-40cb-4655-8b71-9004c0667763"},"vehicle_type_id":"4","last_reported":1685131585,"current_range_meters":20000,"station_id":"ce4bhn12rcd13ifvqgqg","pricing_plan_id":"free"},{"bike_id":"8c241283-b8ed-4c41-b054-8d4f0354626e","system_id":"levelo_inurba_marseille","lat":43.231793,"lon":5.400044,"is_reserved":false,"is_disabled":false,"rental_uris":{"android":"levelo://app?vid=8c241283-b8ed-4c41-b054-8d4f0354626e","ios":"levelo://app?vid=8c241283-b8ed-4c41-b054-8d4f0354626e"},"vehicle_type_id":"4","last_reported":1685131585,"current_range_meters":2800,"station_id":"ce4bhn12rcd13ifvqgqg","pricing_plan_id":"free"},{"bike_id":"6bf87b3f-2e5e-484d-9f73-d12a90c06e2e","system_id":"levelo_inurba_marseille","lat":43.231794,"lon":5.400052,"is_reserved":false,"is_disabled":false,"rental_uris":{"android":"levelo://app?vid=6bf87b3f-2e5e-484d-9f73-d12a90c06e2e","ios":"levelo://app?vid=6bf87b3f-2e5e-484d-9f73-d12a90c06e2e"},"vehicle_type_id":"4","last_reported":1685131585,"current_range_meters":31600,"station_id":"ce4bhn12rcd13ifvqgqg","pricing_plan_id":"free"},{"bike_id":"1420567d-5493-4112-adec-f09973b532e9","system_id":"levelo_inurba_marseille","lat":43.231793,"lon":5.400044,"is_reserved":false,"is_disabled":false,"rental_uris":{"android":"levelo://app?vid=1420567d-5493-4112-adec-f09973b532e9","ios":"levelo://app?vid=1420567d-5493-4112-adec-f09973b532e9"},"vehicle_type_id":"4","last_reported":1685131585,"current_range_meters":25200,"station_id":"ce4bhn12rcd13ifvqgqg","pricing_plan_id":"free"},{"bike_id":"a07f019b-9568-41d4-a110-5874a4b39346","system_id":"levelo_inurba_marseille","lat":43.231793,"lon":5.400044,"is_reserved":false,"is_disabled":false,"rental_uris":{"android":"levelo://app?vid=a07f019b-9568-41d4-a110-5874a4b39346","ios":"levelo://app?vid=a07f019b-9568-41d4-a110-5874a4b39346"},"vehicle_type_id":"4","last_reported":1685131585,"current_range_meters":31600,"station_id":"ce4bhn12rcd13ifvqgqg","pricing_plan_id":"free"},{"bike_id":"34abd7a2-e4aa-4639-88a1-75020959dd9f","system_id":"levelo_inurba_marseille","lat":43.231794,"lon":5.400052,"is_reserved":false,"is_disabled":false,"rental_uris":{"android":"levelo://app?vid=34abd7a2-e4aa-4639-88a1-75020959dd9f","ios":"levelo://app?vid=34abd7a2-e4aa-4639-88a1-75020959dd9f"},"vehicle_type_id":"4","last_reported":1685131585,"current_range_meters":31200,"station_id":"ce4bhn12rcd13ifvqgqg","pricing_plan_id":"free"},{"bike_id":"b8c47a34-ff34-4067-b87c-33640e964fbc","system_id":"levelo_inurba_marseille","lat":43.231794,"lon":5.400052,"is_reserved":false,"is_disabled":false,"rental_uris":{"android":"levelo://app?vid=b8c47a34-ff34-4067-b87c-33640e964fbc","ios":"levelo://app?vid=b8c47a34-ff34-4067-b87c-33640e964fbc"},"vehicle_type_id":"4","last_reported":1685131585,"current_range_meters":31200,"station_id":"ce4bhn12rcd13ifvqgqg","pricing_plan_id":"free"},{"bike_id":"fa025f6b-9b72-4047-81a2-78b1accb1a5e","system_id":"levelo_inurba_marseille","lat":43.231793,"lon":5.400044,"is_reserved":false,"is_disabled":false,"rental_uris":{"android":"levelo://app?vid=fa025f6b-9b72-4047-81a2-78b1accb1a5e","ios":"levelo://app?vid=fa025f6b-9b72-4047-81a2-78b1accb1a5e"},"vehicle_type_id":"4","last_reported":1685131585,"current_range_meters":14800,"station_id":"ce4bhn12rcd13ifvqgqg","pricing_plan_id":"free"},{"bike_id":"6909e9f4-7190-4de5-9454-7cc1785d277a","system_id":"levelo_inurba_marseille","lat":43.231794,"lon":5.400052,"is_reserved":false,"is_disabled":false,"rental_uris":{"android":"levelo://app?vid=6909e9f4-7190-4de5-9454-7cc1785d277a","ios":"levelo://app?vid=6909e9f4-7190-4de5-9454-7cc1785d277a"},"vehicle_type_id":"4","last_reported":1685131585,"current_range_meters":31600,"station_id":"ce4bhn12rcd13ifvqgqg","pricing_plan_id":"free"},{"bike_id":"67b77559-a903-49c5-9f37-4b2143617b52","system_id":"levelo_inurba_marseille","lat":43.231794,"lon":5.400052,"is_reserved":false,"is_disabled":false,"rental_uris":{"android":"levelo://app?vid=67b77559-a903-49c5-9f37-4b2143617b52","ios":"levelo://app?vid=67b77559-a903-49c5-9f37-4b2143617b52"},"vehicle_type_id":"4","last_reported":1685131585,"current_range_meters":7600,"station_id":"ce4bhn12rcd13ifvqgqg","pricing_plan_id":"free"},{"bike_id":"0098075c-728f-4919-85e5-a85abece1c10","system_id":"levelo_inurba_marseille","lat":43.231793,"lon":5.400044,"is_reserved":false,"is_disabled":false,"rental_uris":{"android":"levelo://app?vid=0098075c-728f-4919-85e5-a85abece1c10","ios":"levelo://app?vid=0098075c-728f-4919-85e5-a85abece1c10"},"vehicle_type_id":"4","last_reported":1685131585,"current_range_meters":2800,"station_id":"ce4bhn12rcd13ifvqgqg","pricing_plan_id":"free"},{"bike_id":"a7fbfb05-3a72-4dea-b5c9-12ad7997a8ad","system_id":"levelo_inurba_marseille","lat":43.231794,"lon":5.400052,"is_reserved":false,"is_disabled":false,"rental_uris":{"android":"levelo://app?vid=a7fbfb05-3a72-4dea-b5c9-12ad7997a8ad","ios":"levelo://app?vid=a7fbfb05-3a72-4dea-b5c9-12ad7997a8ad"},"vehicle_type_id":"4","last_reported":1685131585,"current_range_meters":19200,"station_id":"ce4bhn12rcd13ifvqgqg","pricing_plan_id":"free"},{"bike_id":"b10c561f-d3c4-4914-b7f7-f4a5a2a5d820","system_id":"levelo_inurba_marseille","lat":43.231793,"lon":5.400044,"is_reserved":false,"is_disabled":false,"rental_uris":{"android":"levelo://app?vid=b10c561f-d3c4-4914-b7f7-f4a5a2a5d820","ios":"levelo://app?vid=b10c561f-d3c4-4914-b7f7-f4a5a2a5d820"},"vehicle_type_id":"4","last_reported":1685131585,"current_range_meters":24000,"station_id":"ce4bhn12rcd13ifvqgqg","pricing_plan_id":"free"}]}}