{"last_updated":1721097263,"ttl":30,"version":"2.2","data":{"bikes":[{"bike_id":"0c8ebce2-7877-4486-ba6a-7eaafe8518f6","system_id":"levelo_inurba_marseille","lat":43.312239,"lon":5.368562,"is_reserved":false,"is_disabled":false,"rental_uris":{"android":"levelo://app?vid=0c8ebce2-7877-4486-ba6a-7eaafe8518f6","ios":"levelo://app?vid=0c8ebce2-7877-4486-ba6a-7eaafe8518f6"},"vehicle_type_id":"4","last_reported":1721097263,"current_range_meters":30400,"station_id":"ce4bgl92rcd13ifvqbq0","pricing_plan_id":"cebpf4jnsgd1na2vs0mg"},{"bike_id":"bdbff069-733d-4462-804a-703d4a6bda6d","system_id":"levelo_inurba_marseille","lat":43.309076,"lon":5.368465,"is_reserved":false,"is_disabled":false,"rental_uris":{"android":"levelo://app?vid=bdbff069-733d-4462-804a-703d4a6bda6d","ios":"levelo://app?vid=bdbff069-733d-4462-804a-703d4a6bda6d"},"vehicle_type_id":"4","last_reported":1721097263,"current_range_meters":27200,"station_id":"ce4bgn92rcd13ifvqbvg","pricing_plan_id":"cebpf4jnsgd1na2vs0mg"},{"bike_id":"5445f2c8-b63f-4fa7-9b8c-3b09c5b7ba6e","system_id":"levelo_inurba_marseille","lat":43.309076,"lon":5.368465,"is_reserved":false,"is_disabled":false,"rental_uris":{"android":"levelo://app?vid=5445f2c8-b63f-4fa7-9b8c-3b09c5b7ba6e","ios":"levelo://app?vid=5445f2c8-b63f-4fa7-9b8c-3b09c5b7ba6e"},"vehicle_type_id":"4","last_reported":1721097263,"current_range_meters":28000,"station_id":"ce4bgn92rcd13ifvqbvg","pricing_plan_id":"cebpf4jnsgd1na2vs0mg"},{"bike_id":"f42a502c-933b-458f-839f-349c35b01b40","system_id":"levelo_inurba_marseille","lat":43.314811,"lon":5.373104,"is_reserved":false,"is_disabled":false,"rental_uris":{"android":"levelo://app?vid=f42a502c-933b-458f-839f-349c35b01b40","ios":"levelo://app?vid=f42a502c-933b-458f-839f-349c35b01b40"},"vehicle_type_id":"4","last_reported":1721097263,"current_range_meters":800,"station_id":"ce4bgt12rcd13ifvqcd0","pricing_plan_id":"cebpf4jnsgd1na2vs0mg"},{"bike_id":"9e2c1f27-a71c-4aa1-9f86-c4872a8f673c","system_id":"levelo_inurba_marseille","lat":43.31487,"lon":5.373,"is_reserved":false,"is_disabled":false,"rental_uris":{"android":"levelo://app?vid=9e2c1f27-a71c-4aa1-9f86-c4872a8f673c","ios":"levelo://app?vid=9e2c1f27-a71c-4aa1-9f86-c4872a8f673c"},"vehicle_type_id":"4","last_reported":1721097263,"current_range_meters":10800,"station_id":"ce4bgt12rcd13ifvqcd0","pricing_plan_id":"cebpf4jnsgd1na2vs0mg"},{"bike_id":"72bd24e5-94dc-4da6-96f7-0c625dfe57cb","system_id":"levelo_inurba_marseille","lat":43.314811,"lon":5.373103,"is_reserved":false,"is_disabled":false,"rental_uris":{"android":"levelo://app?vid=72bd24e5-94dc-4da6-96f7-0c625dfe57cb","ios":"levelo://app?vid=72bd24e5-94dc-4da6-96f7-0c625dfe57cb"},"vehicle_type_id":"4","last_reported":1721097263,"current_range_meters":7600,"station_id":"ce4bgt12rcd13ifvqcd0","pricing_plan_id":"cebpf4jnsgd1na2vs0mg"},{"bike_id":"7c208877-72b0-4680-8174-a285b6c01371","system_id":"levelo_inurba_marseille","lat":43.314811,"lon":5.373103,"is_reserved":false,"is_disabled":false,"rental_uris":{"android":"levelo://app?vid=7c208877-72b0-4680-8174-a285b6c01371","ios":"levelo://app?vid=7c208877-72b0-4680-8174-a285b6c01371"},"vehicle_type_id":"4","last_reported":1721097263,"current_range_meters":20400,"station_id":"ce4bgt12rcd13ifvqcd0","pricing_plan_id":"cebpf4jnsgd1na2vs0mg"},{"bike_id":"722e5447-786f-4a73-9c5a-288641fb0f70","system_id":"levelo_inurba_marseille","lat":43.314811,"lon":5.373103,"is_reserved":false,"is_disabled":false,"rental_uris":{"android":"levelo://app?vid=722e5447-786f-4a73-9c5a-288641fb0f70","ios":"levelo://app?vid=722e5447-786f-4a73-9c5a-288641fb0f70"},"vehicle_type_id":"4","last_reported":1721097263,"current_range_meters":23200,"station_id":"ce4bgt12rcd13ifvqcd0","pricing_plan_id":"cebpf4jnsgd1na2vs0mg"},{"bike_id":"3b3cbb6e-5f17-4bc7-91c3-32e35c1f90c9","system_id":"levelo_inurba_marseille","lat":43.314811,"lon":5.373103,"is_reserved":false,"is_disabled":false,"rental_uris":{"android":"levelo://app?vid=3b3cbb6e-5f17-4bc7-91c3-32e35c1f90c9","ios":"levelo://app?vid=3b3cbb6e-5f17-4bc7-91c3-32e35c1f90c9"},"vehicle_type_id":"4","last_reported":1721097263,"current_range_meters":31200,"station_id":"ce4bgt12rcd13ifvqcd0","pricing_plan_id":"cebpf4jnsgd1na2vs0mg"},{"bike_id":"e07fa989-904b-4db5-83ab-98e896258c0e","system_id":"levelo_inurba_marseille","lat":43.314811,"lon":5.373104,"is_reserved":false,"is_disabled":false,"rental_uris":{"android":"levelo://app?vid=e07fa989-904b-4db5-83ab-98e896258c0e","ios":"levelo://app?vid=e07fa989-904b-4db5-83ab-98e896258c0e"},"vehicle_type_id":"4","last_reported":1721097263,"current_range_meters":32000,"station_id":"ce4bgt12rcd13ifvqcd0","pricing_plan_id":"cebpf4jnsgd1na2vs0mg"},{"bike_id":"843a8ab6-55af-4d07-a62a-c84457b268a7","system_id":"levelo_inurba_marseille","lat":43.314811,"lon":5.373104,"is_reserved":false,"is_disabled":false,"rental_uris":{"android":"levelo://app?vid=843a8ab6-55af-4d07-a62a-c84457b268a7","ios":"levelo://app?vid=843a8ab6-55af-4d07-a62a-c84457b268a7"},"vehicle_type_id":"4","last_reported":1721097263,"current_range_meters":0,"station_id":"ce4bgt12rcd13ifvqcd0","pricing_plan_id":"cebpf4jnsgd1na2vs0mg"},{"bike_id":"bb960901-dba4-46ca-8f99-97d17d541fa1","system_id":"levelo_inurba_marseille","lat":43.314811,"lon":5.373103,"is_reserved":false,"is_disabled":false,"rental_uris":{"android":"levelo://app?vid=bb960901-dba4-46ca-8f99-97d17d541fa1","ios":"levelo://app?vid=bb960901-dba4-46ca-8f99-97d17d541fa1"},"vehicle_type_id":"4","last_reported":1721097263,"current_range_meters":31200,"station_id":"ce4bgt12rcd13ifvqcd0","pricing_plan_id":"cebpf4jnsgd1na2vs0mg"},{"bike_id":"9e9fea04-600a-41ed-8db4-6c280a82e964","system_id":"levelo_inurba_marseille","lat":43.314811,"lon":5.373103,"is_reserved":false,"is_disabled":false,"rental_uris":{"android":"levelo://app?vid=9e9fea04-600a-41ed-8db4-6c280a82e964","ios":"levelo://app?vid=9e9fea04-600a-41ed-8db4-6c280a82e964"},"vehicle_type_id":"4","last_reported":1721097263,"current_range_meters":6800,"station_id":"ce4bgt12rcd13ifvqcd0","pricing_plan_id":"cebpf4jnsgd1na2vs0mg"},{"bike_id":"aa844c85-d41c-4373-b25c-41fe04b05751","system_id":"levelo_inurba_marseille","lat":43.314811,"lon":5.373103,"is_reserved":false,"is_disabled":false,"rental_uris":{"android":"levelo://app?vid=aa844c85-d41c-4373-b25c-41fe04b05751","ios":"levelo://app?vid=aa844c85-d41c-4373-b25c-41fe04b05751"},"vehicle_type_id":"4","last_reported":1721097263,"current_range_meters":20800,"station_id":"ce4bgt12rcd13ifvqcd0","pricing_plan_id":"cebpf4jnsgd1na2vs0mg"},{"bike_id":"893d4110-b81e-4f57-bd73-cbd5f22c4472","system_id":"levelo_inurba_marseille","lat":43.314811,"lon":5.373103,"is_reserved":false,"is_disabled":false,"rental_uris":{"android":"levelo://app?vid=893d4110-b81e-4f57-bd73-cbd5f22c4472","ios":"levelo://app?vid=893d4110-b81e-4f57-bd73-cbd5f22c4472"},"vehicle_type_id":"4","last_reported":1721097263,"current_range_meters":13600,"station_id":"ce4bgt12rcd13ifvqcd0","pricing_plan_id":"cebpf4jnsgd1na2vs0mg"},{"bike_id":"39f3a8ec-9956-461d-b2db-39cfcec2f726","system_id":"levelo_inurba_marseille","lat":43.314811,"lon":5.373103,"is_reserved":false,"is_disabled":false,"rental_uris":{"android":"levelo://app?vid=39f3a8ec-9956-461d-b2db-39cfcec2f726","ios":"levelo://app?vid=39f3a8ec-9956-461d-b2db-39cfcec2f726"},"vehicle_type_id":"4","last_reported":1721097263,"current_range_meters":8800,"station_id":"ce4bgt12rcd13ifvqcd0","pricing_plan_id":"cebpf4jnsgd1na2vs0mg"},{"bike_id":"4e973694-f1d2-4c05-ab69-d8c701ef4d42","system_id":"levelo_inurba_marseille","lat":43.314811,"lon":5.373103,"is_reserved":false,"is_disabled":false,"rental_uris":{"android":"levelo://app?vid=4e973694-f1d2-4c05-ab69-d8c701ef4d42","ios":"levelo://app?vid=4e973694-f1d2-4c05-ab69-d8c701ef4d42"},"vehicle_type_id":"4","last_reported":1721097263,"current_range_meters":11200,"station_id":"ce4bgt12rcd13ifvqcd0","pricing_plan_id":"cebpf4jnsgd1na2vs0mg"},{"bike_id":"cc92a96c-9a0b-4b19-a5de-1bc9a49c560c","system_id":"levelo_inurba_marseille","lat":43.314811,"lon":5.373103,"is_reserved":false,"is_disabled":false,"rental_uris":{"android":"levelo://app?vid=cc92a96c-9a0b-4b19-a5de-1bc9a49c560c","ios":"levelo://app?vid=cc92a96c-9a0b-4b19-a5de-1bc9a49c560c"},"vehicle_type_id":"4","last_reported":1721097263,"current_range_meters":23200,"station_id":"ce4bgt12rcd13ifvqcd0","pricing_plan_id":"cebpf4jnsgd1na2vs0mg"},{"bike_id":"3f3b8307-fd36-43f2-b7c3-e1a23474a523","system_id":"levelo_inurba_marseille","lat":43.309039,"lon":5.371797,"is_reserved":false,"is_disabled":false,"rental_uris":{"android":"levelo://app?vid=3f3b8307-fd36-43f2-b7c3-e1a23474a523","ios":"levelo://app?vid=3f3b8307-fd36-43f2-b7c3-e1a23474a523"},"vehicle_type_id":"4","last_reported":1721097263,"current_range_meters":10400,"station_id":"ce4bguh2rcd13ifvqckg","pricing_plan_id":"cebpf4jnsgd1na2vs0mg"},{"bike_id":"a5691f48-9f49-4f51-9e59-a071ccafa7d2","system_id":"levelo_inurba_marseille","lat":43.308872,"lon":5.371983,"is_reserved":false,"is_disabled":false,"rental_uris":{"android":"levelo://app?vid=a5691f48-9f49-4f51-9e59-a071ccafa7d2","ios":"levelo://app?vid=a5691f48-9f49-4f51-9e59-a071ccafa7d2"},"vehicle_type_id":"4","last_reported":1721097263,"current_range_meters":10000,"station_id":"ce4bguh2rcd13ifvqckg","pricing_plan_id":"cebpf4jnsgd1na2vs0mg"},{"bike_id":"c25aa91d-67ee-45df-973b-dfa362928ba3","system_id":"levelo_inurba_marseille","lat":43.309034,"lon":5.371783,"is_reserved":false,"is_disabled":false,"rental_uris":{"android":"levelo://app?vid=c25aa91d-67ee-45df-973b-dfa362928ba3","ios":"levelo://app?vid=c25aa91d-67ee-45df-973b-dfa362928ba3"},"vehicle_type_id":"4","last_reported":1721097263,"current_range_meters":24400,"station_id":"ce4bguh2rcd13ifvqckg","pricing_plan_id":"cebpf4jnsgd1na2vs0mg"},{"bike_id":"be62853d-d6ca-4fff-a819-053f6edc1937","system_id":"levelo_inurba_marseille","lat":43.30537,"lon":5.367345,"is_reserved":false,"is_disabled":false,"rental_uris":{"android":"levelo://app?vid=be62853d-d6ca-4fff-a819-053f6edc1937","ios":"levelo://app?vid=be62853d-d6ca-4fff-a819-053f6edc1937"},"vehicle_type_id":"4","last_reported":1721097263,"current_range_meters":20800,"station_id":"ce4bgrp2rcd13ifvqc9g","pricing_plan_id":"cebpf4jnsgd1na2vs0mg"},{"bike_id":"65aaa0a3-707a-4bfb-aad9-32a2b6be8d43","system_id":"levelo_inurba_marseille","lat":43.30546,"lon":5.36539,"is_reserved":false,"is_disabled":false,"rental_uris":{"android":"levelo://app?vid=65aaa0a3-707a-4bfb-aad9-32a2b6be8d43","ios":"levelo://app?vid=65aaa0a3-707a-4bfb-aad9-32a2b6be8d43"},"vehicle_type_id":"4","last_reported":1721097263,"current_range_meters":21200,"station_id":"ce4bgs12rcd13ifvqcag","pricing_plan_id":"cebpf4jnsgd1na2vs0mg"},{"bike_id":"95ef4b4d-8051-4778-ba38-85d6f5afbfae","system_id":"levelo_inurba_marseille","lat":43.305989,"lon":5.37225,"is_reserved":false,"is_disabled":false,"rental_uris":{"android":"levelo://app?vid=95ef4b4d-8051-4778-ba38-85d6f5afbfae","ios":"levelo://app?vid=95ef4b4d-8051-4778-ba38-85d6f5afbfae"},"vehicle_type_id":"4","last_reported":1721097263,"current_range_meters":16800,"station_id":"ce4bgqh2rcd13ifvqc4g","pricing_plan_id":"cebpf4jnsgd1na2vs0mg"},{"bike_id":"2e680226-59d0-4a85-b35b-ffdc31d1e1ec","system_id":"levelo_inurba_marseille","lat":43.30601,"lon":5.37217,"is_reserved":false,"is_disabled":false,"rental_uris":{"android":"levelo://app?vid=2e680226-59d0-4a85-b35b-ffdc31d1e1ec","ios":"levelo://app?vid=2e680226-59d0-4a85-b35b-ffdc31d1e1ec"},"vehicle_type_id":"4","last_reported":1721097263,"current_range_meters":21600,"station_id":"ce4bgqh2rcd13ifvqc4g","pricing_plan_id":"cebpf4jnsgd1na2vs0mg"},{"bike_id":"74513644-ee36-4243-9c12-86dd7815d4a2","system_id":"levelo_inurba_marseille","lat":43.306,"lon":5.37229,"is_reserved":false,"is_disabled":false,"rental_uris":{"android":"levelo://app?vid=74513644-ee36-4243-9c12-86dd7815d4a2","ios":"levelo://app?vid=74513644-ee36-4243-9c12-86dd7815d4a2"},"vehicle_type_id":"4","last_reported":1721097263,"current_range_meters":17600,"station_id":"ce4bgqh2rcd13ifvqc4g","pricing_plan_id":"cebpf4jnsgd1na2vs0mg"},{"bike_id":"3390f83a-c792-405e-ae3d-69dc79de062e","system_id":"levelo_inurba_marseille","lat":43.305989,"lon":5.37225,"is_reserved":false,"is_disabled":false,"rental_uris":{"android":"levelo://app?vid=3390f83a-c792-405e-ae3d-69dc79de062e","ios":"levelo://app?vid=3390f83a-c792-405e-ae3d-69dc79de062e"},"vehicle_type_id":"4","last_reported":1721097263,"current_range_meters":19200,"station_id":"ce4bgqh2rcd13ifvqc4g","pricing_plan_id":"cebpf4jnsgd1na2vs0mg"},{"bike_id":"2f1d3f20-b8be-458b-8a8d-ee49888de2e5","system_id":"levelo_inurba_marseille","lat":43.311125,"lon":5.377624,"is_reserved":false,"is_disabled":false,"rental_uris":{"android":"levelo://app?vid=2f1d3f20-b8be-458b-8a8d-ee49888de2e5","ios":"levelo://app?vid=2f1d3f20-b8be-458b-8a8d-ee49888de2e5"},"vehicle_type_id":"4","last_reported":1721097263,"current_range_meters":6800,"station_id":"ce4bgt92rcd13ifvqcg0","pricing_plan_id":"cebpf4jnsgd1na2vs0mg"},{"bike_id":"19e7646e-a112-4006-9e2a-1e4843f6cdec","system_id":"levelo_inurba_marseille","lat":43.311131,"lon":5.377651,"is_reserved":false,"is_disabled":false,"rental_uris":{"android":"levelo://app?vid=19e7646e-a112-4006-9e2a-1e4843f6cdec","ios":"levelo://app?vid=19e7646e-a112-4006-9e2a-1e4843f6cdec"},"vehicle_type_id":"4","last_reported":1721097263,"current_range_meters":14000,"station_id":"ce4bgt92rcd13ifvqcg0","pricing_plan_id":"cebpf4jnsgd1na2vs0mg"},{"bike_id":"99ab301e-835d-436d-a913-27351f697344","system_id":"levelo_inurba_marseille","lat":43.311125,"lon":5.377624,"is_reserved":false,"is_disabled":false,"rental_uris":{"android":"levelo://app?vid=99ab301e-835d-436d-a913-27351f697344","ios":"levelo://app?vid=99ab301e-835d-436d-a913-27351f697344"},"vehicle_type_id":"4","last_reported":1721097263,"current_range_meters":31200,"station_id":"ce4bgt92rcd13ifvqcg0","pricing_plan_id":"cebpf4jnsgd1na2vs0mg"},{"bike_id":"374b417a-6512-423f-8ef9-94d9cfd0e8b4","system_id":"levelo_inurba_marseille","lat":43.311131,"lon":5.377651,"is_reserved":false,"is_disabled":false,"rental_uris":{"android":"levelo://app?vid=374b417a-6512-423f-8ef9-94d9cfd0e8b4","ios":"levelo://app?vid=374b417a-6512-423f-8ef9-94d9cfd0e8b4"},"vehicle_type_id":"4","last_reported":1721097263,"current_range_meters":19200,"station_id":"ce4bgt92rcd13ifvqcg0","pricing_plan_id":"cebpf4jnsgd1na2vs0mg"},{"bike_id":"8c111b8b-8891-4e6e-96be-15cf74d016c3","system_id":"levelo_inurba_marseille","lat":43.311131,"lon":5.377651,"is_reserved":false,"is_disabled":false,"rental_uris":{"android":"levelo://app?vid=8c111b8b-8891-4e6e-96be-15cf74d016c3","ios":"levelo://app?vid=8c111b8b-8891-4e6e-96be-15cf74d016c3"},"vehicle_type_id":"4","last_reported":1721097263,"current_range_meters":13200,"station_id":"ce4bgt92rcd13ifvqcg0","pricing_plan_id":"cebpf4jnsgd1na2vs0mg"},{"bike_id":"ccca7927-d435-46a4-b228-46022db30510","system_id":"levelo_inurba_marseille","lat":43.311125,"lon":5.377624,"is_reserved":false,"is_disabled":false,"rental_uris":{"android":"levelo://app?vid=ccca7927-d435-46a4-b228-46022db30510","ios":"levelo://app?vid=ccca7927-d435-46a4-b228-46022db30510"},"vehicle_type_id":"4","last_reported":1721097263,"current_range_meters":10000,"station_id":"ce4bgt92rcd13ifvqcg0","pricing_plan_id":"cebpf4jnsgd1na2vs0mg"},{"bike_id":"79db0950-1107-4c61-a12c-bf46fe13687e","system_id":"levelo_inurba_marseille","lat":43.311131,"lon":5.377651,"is_reserved":false,"is_disabled":false,"rental_uris":{"android":"levelo://app?vid=79db0950-1107-4c61-a12c-bf46fe13687e","ios":"levelo://app?vid=79db0950-1107-4c61-a12c-bf46fe13687e"},"vehicle_type_id":"4","last_reported":1721097263,"current_range_meters":10800,"station_id":"ce4bgt92rcd13ifvqcg0","pricing_plan_id":"cebpf4jnsgd1na2vs0mg"},{"bike_id":"25e5d9ec-7701-444c-9fdb-9dd66fd354e3","system_id":"levelo_inurba_marseille","lat":43.31106,"lon":5.37767,"is_reserved":false,"is_disabled":false,"rental_uris":{"android":"levelo://app?vid=25e5d9ec-7701-444c-9fdb-9dd66fd354e3","ios":"levelo://app?vid=25e5d9ec-7701-444c-9fdb-9dd66fd354e3"},"vehicle_type_id":"4","last_reported":1721097263,"current_range_meters":30000,"station_id":"ce4bgt92rcd13ifvqcg0","pricing_plan_id":"cebpf4jnsgd1na2vs0mg"},{"bike_id":"a6fca662-90cb-4544-9b3e-d704bc82d59a","system_id":"levelo_inurba_marseille","lat":43.311131,"lon":5.377651,"is_reserved":false,"is_disabled":false,"rental_uris":{"android":"levelo://app?vid=a6fca662-90cb-4544-9b3e-d704bc82d59a","ios":"levelo://app?vid=a6fca662-90cb-4544-9b3e-d704bc82d59a"},"vehicle_type_id":"4","last_reported":1721097263,"current_range_meters":28400,"station_id":"ce4bgt92rcd13ifvqcg0","pricing_plan_id":"cebpf4jnsgd1na2vs0mg"},{"bike_id":"8b2d5d30-b20b-46b9-b8da-9d6e270c823d","system_id":"levelo_inurba_marseille","lat":43.307945,"lon":5.376487,"is_reserved":false,"is_disabled":false,"rental_uris":{"android":"levelo://app?vid=8b2d5d30-b20b-46b9-b8da-9d6e270c823d","ios":"levelo://app?vid=8b2d5d30-b20b-46b9-b8da-9d6e270c823d"},"vehicle_type_id":"4","last_reported":1721097263,"current_range_meters":9600,"station_id":"ce4bgv92rcd13ifvqcq0","pricing_plan_id":"cebpf4jnsgd1na2vs0mg"},{"bike_id":"82f127cf-4634-4bb2-a04a-a6c01bc969b1","system_id":"levelo_inurba_marseille","lat":43.307945,"lon":5.376487,"is_reserved":false,"is_disabled":false,"rental_uris":{"android":"levelo://app?vid=82f127cf-4634-4bb2-a04a-a6c01bc969b1","ios":"levelo://app?vid=82f127cf-4634-4bb2-a04a-a6c01bc969b1"},"vehicle_type_id":"4","last_reported":1721097263,"current_range_meters":24800,"station_id":"ce4bgv92rcd13ifvqcq0","pricing_plan_id":"cebpf4jnsgd1na2vs0mg"},{"bike_id":"73c298a8-f887-48fc-ae13-194b89f955b2","system_id":"levelo_inurba_marseille","lat":43.307945,"lon":5.376487,"is_reserved":false,"is_disabled":false,"rental_uris":{"android":"levelo://app?vid=73c298a8-f887-48fc-ae13-194b89f955b2","ios":"levelo://app?vid=73c298a8-f887-48fc-ae13-194b89f955b2"},"vehicle_type_id":"4","last_reported":1721097263,"current_range_meters":11600,"station_id":"ce4bgv92rcd13ifvqcq0","pricing_plan_id":"cebpf4jnsgd1na2vs0mg"},{"bike_id":"decbe911-7d9d-4e2b-97d7-5fe5b51811e7","system_id":"levelo_inurba_marseille","lat":43.307945,"lon":5.376487,"is_reserved":false,"is_disabled":false,"rental_uris":{"android":"levelo://app?vid=decbe911-7d9d-4e2b-97d7-5fe5b51811e7","ios":"levelo://app?vid=decbe911-7d9d-4e2b-97d7-5fe5b51811e7"},"vehicle_type_id":"4","last_reported":1721097263,"current_range_meters":28000,"station_id":"ce4bgv92rcd13ifvqcq0","pricing_plan_id":"cebpf4jnsgd1na2vs0mg"},{"bike_id":"20edaf75-751a-4ec3-97f3-e2c435980499","system_id":"levelo_inurba_marseille","lat":43.307945,"lon":5.376487,"is_reserved":false,"is_disabled":false,"rental_uris":{"android":"levelo://app?vid=20edaf75-751a-4ec3-97f3-e2c435980499","ios":"levelo://app?vid=20edaf75-751a-4ec3-97f3-e2c435980499"},"vehicle_type_id":"4","last_reported":1721097263,"current_range_meters":13200,"station_id":"ce4bgv92rcd13ifvqcq0","pricing_plan_id":"cebpf4jnsgd1na2vs0mg"},{"bike_id":"6917cb64-a3e3-4bc3-9ff6-862397fbdf30","system_id":"levelo_inurba_marseille","lat":43.307945,"lon":5.376487,"is_reserved":false,"is_disabled":false,"rental_uris":{"android":"levelo://app?vid=6917cb64-a3e3-4bc3-9ff6-862397fbdf30","ios":"levelo://app?vid=6917cb64-a3e3-4bc3-9ff6-862397fbdf30"},"vehicle_type_id":"4","last_reported":1721097263,"current_range_meters":24400,"station_id":"ce4bgv92rcd13ifvqcq0","pricing_plan_id":"cebpf4jnsgd1na2vs0mg"},{"bike_id":"d9cf28cf-e51a-41df-8e1c-3e4b3fdbc366","system_id":"levelo_inurba_marseille","lat":43.307945,"lon":5.376487,"is_reserved":false,"is_disabled":false,"rental_uris":{"android":"levelo://app?vid=d9cf28cf-e51a-41df-8e1c-3e4b3fdbc366","ios":"levelo://app?vid=d9cf28cf-e51a-41df-8e1c-3e4b3fdbc366"},"vehicle_type_id":"4","last_reported":1721097263,"current_range_meters":24400,"station_id":"ce4bgv92rcd13ifvqcq0","pricing_plan_id":"cebpf4jnsgd1na2vs0mg"},{"bike_id":"f026ac1c-980d-4b16-9535-67f549b66b73","system_id":"levelo_inurba_marseille","lat":43.307945,"lon":5.376487,"is_reserved":false,"is_disabled":false,"rental_uris":{"android":"levelo://app?vid=f026ac1c-980d-4b16-9535-67f549b66b73","ios":"levelo://app?vid=f026ac1c-980d-4b16-9535-67f549b66b73"},"vehicle_type_id":"4","last_reported":1721097263,"current_range_meters":18000,"station_id":"ce4bgv92rcd13ifvqcq0","pricing_plan_id":"cebpf4jnsgd1na2vs0mg"},{"bike_id":"1d07da05-e912-4dc0-a7ec-a4d19f6b2502","system_id":"levelo_inurba_marseille","lat":43.307945,"lon":5.376487,"is_reserved":false,"is_disabled":false,"rental_uris":{"android":"levelo://app?vid=1d07da05-e912-4dc0-a7ec-a4d19f6b2502","ios":"levelo://app?vid=1d07da05-e912-4dc0-a7ec-a4d19f6b2502"},"vehicle_type_id":"4","last_reported":1721097263,"current_range_meters":24800,"station_id":"ce4bgv92rcd13ifvqcq0","pricing_plan_id":"cebpf4jnsgd1na2vs0mg"},{"bike_id":"d3e784d8-2492-4d3d-bf60-2b4326dd2a43","system_id":"levelo_inurba_marseille","lat":43.307945,"lon":5.376487,"is_reserved":false,"is_disabled":false,"rental_uris":{"android":"levelo://app?vid=d3e784d8-2492-4d3d-bf60-2b4326dd2a43","ios":"levelo://app?vid=d3e784d8-2492-4d3d-bf60-2b4326dd2a43"},"vehicle_type_id":"4","last_reported":1721097263,"current_range_meters":9600,"station_id":"ce4bgv92rcd13ifvqcq0","pricing_plan_id":"cebpf4jnsgd1na2vs0mg"},{"bike_id":"8fd79771-36f7-49ac-95eb-9d8a7ff54fe1","system_id":"levelo_inurba_marseille","lat":43.307945,"lon":5.376487,"is_reserved":false,"is_disabled":false,"rental_uris":{"android":"levelo://app?vid=8fd79771-36f7-49ac-95eb-9d8a7ff54fe1","ios":"levelo://app?vid=8fd79771-36f7-49ac-95eb-9d8a7ff54fe1"},"vehicle_type_id":"4","last_reported":1721097263,"current_range_meters":12800,"station_id":"ce4bgv92rcd13ifvqcq0","pricing_plan_id":"cebpf4jnsgd1na2vs0mg"},{"bike_id":"8bf317be-905c-43d5-bad1-3f79fa2fb5d4","system_id":"levelo_inurba_marseille","lat":43.307945,"lon":5.376487,"is_reserved":false,"is_disabled":false,"rental_uris":{"android":"levelo://app?vid=8bf317be-905c-43d5-bad1-3f79fa2fb5d4","ios":"levelo://app?vid=8bf317be-905c-43d5-bad1-3f79fa2fb5d4"},"vehicle_type_id":"4","last_reported":1721097263,"current_range_meters":29600,"station_id":"ce4bgv92rcd13ifvqcq0","pricing_plan_id":"cebpf4jnsgd1na2vs0mg"},{"bike_id":"22c9b20a-cdd5-4c00-afe3-87237314006d","system_id":"levelo_inurba_marseille","lat":43.307945,"lon":5.376487,"is_reserved":false,"is_disabled":false,"rental_uris":{"android":"levelo://app?vid=22c9b20a-cdd5-4c00-afe3-87237314006d","ios":"levelo://app?vid=22c9b20a-cdd5-4c00-afe3-87237314006d"},"vehicle_type_id":"4","last_reported":1721097263,"current_range_meters":21200,"station_id":"ce4bgv92rcd13ifvqcq0","pricing_plan_id":"cebpf4jnsgd1na2vs0mg"},{"bike_id":"dd1d9c2d-8988-4e8b-82ca-da711a04c968","system_id":"levelo_inurba_marseille","lat":43.307945,"lon":5.376487,"is_reserved":false,"is_disabled":false,"rental_uris":{"android":"levelo://app?vid=dd1d9c2d-8988-4e8b-82ca-da711a04c968","ios":"levelo://app?vid=dd1d9c2d-8988-4e8b-82ca-da711a04c968"},"vehicle_type_id":"4","last_reported":1721097263,"current_range_meters":15600,"station_id":"ce4bgv92rcd13ifvqcq0","pricing_plan_id":"cebpf4jnsgd1na2vs0mg"},{"bike_id":"72aa4645-c93c-41ea-8239-793a21f75069","system_id":"levelo_inurba_marseille","lat":43.317075,"lon":5.377367,"is_reserved":false,"is_disabled":false,"rental_uris":{"android":"levelo://app?vid=72aa4645-c93c-41ea-8239-793a21f75069","ios":"levelo://app?vid=72aa4645-c93c-41ea-8239-793a21f75069"},"vehicle_type_id":"4","last_reported":1721097263,"current_range_meters":28400,"station_id":"ce4bgth2rcd13ifvqch0","pricing_plan_id":"cebpf4jnsgd1na2vs0mg"},{"bike_id":"91f6dccc-2bab-4984-9068-f3e8ab744ff4","system_id":"levelo_inurba_marseille","lat":43.317075,"lon":5.377367,"is_reserved":false,"is_disabled":false,"rental_uris":{"android":"levelo://app?vid=91f6dccc-2bab-4984-9068-f3e8ab744ff4","ios":"levelo://app?vid=91f6dccc-2bab-4984-9068-f3e8ab744ff4"},"vehicle_type_id":"4","last_reported":1721097263,"current_range_meters":24800,"station_id":"ce4bgth2rcd13ifvqch0","pricing_plan_id":"cebpf4jnsgd1na2vs0mg"},{"bike_id":"b452d273-b6cc-4d42-8716-7997002e87eb","system_id":"levelo_inurba_marseille","lat":43.317075,"lon":5.377367,"is_reserved":false,"is_disabled":false,"rental_uris":{"android":"levelo://app?vid=b452d273-b6cc-4d42-8716-7997002e87eb","ios":"levelo://app?vid=b452d273-b6cc-4d42-8716-7997002e87eb"},"vehicle_type_id":"4","last_reported":1721097263,"current_range_meters":28800,"station_id":"ce4bgth2rcd13ifvqch0","pricing_plan_id":"cebpf4jnsgd1na2vs0mg"},{"bike_id":"aa3a391c-f53b-485a-8587-5800605bda1a","system_id":"levelo_inurba_marseille","lat":43.317075,"lon":5.377367,"is_reserved":false,"is_disabled":false,"rental_uris":{"android":"levelo://app?vid=aa3a391c-f53b-485a-8587-5800605bda1a","ios":"levelo://app?vid=aa3a391c-f53b-485a-8587-5800605bda1a"},"vehicle_type_id":"4","last_reported":1721097263,"current_range_meters":18800,"station_id":"ce4bgth2rcd13ifvqch0","pricing_plan_id":"cebpf4jnsgd1na2vs0mg"},{"bike_id":"6bdb53c8-e94c-43d8-a135-ae62ec296e92","system_id":"levelo_inurba_marseille","lat":43.315297,"lon":5.380238,"is_reserved":false,"is_disabled":false,"rental_uris":{"android":"levelo://app?vid=6bdb53c8-e94c-43d8-a135-ae62ec296e92","ios":"levelo://app?vid=6bdb53c8-e94c-43d8-a135-ae62ec296e92"},"vehicle_type_id":"4","last_reported":1721097263,"current_range_meters":5200,"station_id":"ce4bhsp2rcd13ifvqi50","pricing_plan_id":"cebpf4jnsgd1na2vs0mg"},{"bike_id":"4cf66bbe-286e-4b6a-ab1d-990eac9587f7","system_id":"levelo_inurba_marseille","lat":43.315323,"lon":5.380258,"is_reserved":false,"is_disabled":false,"rental_uris":{"android":"levelo://app?vid=4cf66bbe-286e-4b6a-ab1d-990eac9587f7","ios":"levelo://app?vid=4cf66bbe-286e-4b6a-ab1d-990eac9587f7"},"vehicle_type_id":"4","last_reported":1721097263,"current_range_meters":6400,"station_id":"ce4bhsp2rcd13ifvqi50","pricing_plan_id":"cebpf4jnsgd1na2vs0mg"},{"bike_id":"418e82b2-b3b4-4a92-a087-b0ed70ccd482","system_id":"levelo_inurba_marseille","lat":43.315221,"lon":5.380297,"is_reserved":false,"is_disabled":false,"rental_uris":{"android":"levelo://app?vid=418e82b2-b3b4-4a92-a087-b0ed70ccd482","ios":"levelo://app?vid=418e82b2-b3b4-4a92-a087-b0ed70ccd482"},"vehicle_type_id":"4","last_reported":1721097263,"current_range_meters":16400,"station_id":"ce4bhsp2rcd13ifvqi50","pricing_plan_id":"cebpf4jnsgd1na2vs0mg"},{"bike_id":"cfa0175f-8623-4822-97ef-b2e90841dc77","system_id":"levelo_inurba_marseille","lat":43.315304,"lon":5.380272,"is_reserved":false,"is_disabled":false,"rental_uris":{"android":"levelo://app?vid=cfa0175f-8623-4822-97ef-b2e90841dc77","ios":"levelo://app?vid=cfa0175f-8623-4822-97ef-b2e90841dc77"},"vehicle_type_id":"4","last_reported":1721097263,"current_range_meters":19200,"station_id":"ce4bhsp2rcd13ifvqi50","pricing_plan_id":"cebpf4jnsgd1na2vs0mg"},{"bike_id":"6e24554d-6600-424e-a66e-b739266a6e23","system_id":"levelo_inurba_marseille","lat":43.31667,"lon":5.37983,"is_reserved":false,"is_disabled":false,"rental_uris":{"android":"levelo://app?vid=6e24554d-6600-424e-a66e-b739266a6e23","ios":"levelo://app?vid=6e24554d-6600-424e-a66e-b739266a6e23"},"vehicle_type_id":"4","last_reported":1721097263,"current_range_meters":24800,"station_id":"","pricing_plan_id":"cebpf4jnsgd1na2vs0mg"},{"bike_id":"7702b476-7dc6-4b6f-b125-fc5c1f253ad9","system_id":"levelo_inurba_marseille","lat":43.301939,"lon":5.366286,"is_reserved":false,"is_disabled":false,"rental_uris":{"android":"levelo://app?vid=7702b476-7dc6-4b6f-b125-fc5c1f253ad9","ios":"levelo://app?vid=7702b476-7dc6-4b6f-b125-fc5c1f253ad9"},"vehicle_type_id":"4","last_reported":1721097263,"current_range_meters":28400,"station_id":"ce4bgrh2rcd13ifvqc8g","pricing_plan_id":"cebpf4jnsgd1na2vs0mg"},{"bike_id":"3cb96e2a-3b4e-4a44-985b-40edef8d3917","system_id":"levelo_inurba_marseille","lat":43.301939,"lon":5.366286,"is_reserved":false,"is_disabled":false,"rental_uris":{"android":"levelo://app?vid=3cb96e2a-3b4e-4a44-985b-40edef8d3917","ios":"levelo://app?vid=3cb96e2a-3b4e-4a44-985b-40edef8d3917"},"vehicle_type_id":"4","last_reported":1721097263,"current_range_meters":27200,"station_id":"ce4bgrh2rcd13ifvqc8g","pricing_plan_id":"cebpf4jnsgd1na2vs0mg"},{"bike_id":"77377d8c-9c42-456f-9fac-c8745585c492","system_id":"levelo_inurba_marseille","lat":43.301939,"lon":5.366286,"is_reserved":false,"is_disabled":false,"rental_uris":{"android":"levelo://app?vid=77377d8c-9c42-456f-9fac-c8745585c492","ios":"levelo://app?vid=77377d8c-9c42-456f-9fac-c8745585c492"},"vehicle_type_id":"4","last_reported":1721097263,"current_range_meters":26800,"station_id":"ce4bgrh2rcd13ifvqc8g","pricing_plan_id":"cebpf4jnsgd1na2vs0mg"},{"bike_id":"7fb85377-0ff9-432d-9c4e-ffe500816a69","system_id":"levelo_inurba_marseille","lat":43.301939,"lon":5.366286,"is_reserved":false,"is_disabled":false,"rental_uris":{"android":"levelo://app?vid=7fb85377-0ff9-432d-9c4e-ffe500816a69","ios":"levelo://app?vid=7fb85377-0ff9-432d-9c4e-ffe500816a69"},"vehicle_type_id":"4","last_reported":1721097263,"current_range_meters":11200,"station_id":"ce4bgrh2rcd13ifvqc8g","pricing_plan_id":"cebpf4jnsgd1na2vs0mg"},{"bike_id":"ad829df6-80bd-47de-ba78-027a43de40d4","system_id":"levelo_inurba_marseille","lat":43.30798,"lon":5.381453,"is_reserved":false,"is_disabled":false,"rental_uris":{"android":"levelo://app?vid=ad829df6-80bd-47de-ba78-027a43de40d4","ios":"levelo://app?vid=ad829df6-80bd-47de-ba78-027a43de40d4"},"vehicle_type_id":"4","last_reported":1721097263,"current_range_meters":22800,"station_id":"ce4bgt12rcd13ifvqce0","pricing_plan_id":"cebpf4jnsgd1na2vs0mg"},{"bike_id":"78763668-9861-4f99-90da-c985e69c86e5","system_id":"levelo_inurba_marseille","lat":43.308012,"lon":5.381511,"is_reserved":false,"is_disabled":false,"rental_uris":{"android":"levelo://app?vid=78763668-9861-4f99-90da-c985e69c86e5","ios":"levelo://app?vid=78763668-9861-4f99-90da-c985e69c86e5"},"vehicle_type_id":"4","last_reported":1721097263,"current_range_meters":17200,"station_id":"ce4bgt12rcd13ifvqce0","pricing_plan_id":"cebpf4jnsgd1na2vs0mg"},{"bike_id":"cac7336c-ab1e-4289-bdd4-e9476c1730f9","system_id":"levelo_inurba_marseille","lat":43.308012,"lon":5.381511,"is_reserved":false,"is_disabled":false,"rental_uris":{"android":"levelo://app?vid=cac7336c-ab1e-4289-bdd4-e9476c1730f9","ios":"levelo://app?vid=cac7336c-ab1e-4289-bdd4-e9476c1730f9"},"vehicle_type_id":"4","last_reported":1721097263,"current_range_meters":31200,"station_id":"ce4bgt12rcd13ifvqce0","pricing_plan_id":"cebpf4jnsgd1na2vs0mg"},{"bike_id":"b4b2583b-fe96-4992-b151-9c65df8a0f22","system_id":"levelo_inurba_marseille","lat":43.30799,"lon":5.38148,"is_reserved":false,"is_disabled":false,"rental_uris":{"android":"levelo://app?vid=b4b2583b-fe96-4992-b151-9c65df8a0f22","ios":"levelo://app?vid=b4b2583b-fe96-4992-b151-9c65df8a0f22"},"vehicle_type_id":"4","last_reported":1721097263,"current_range_meters":29600,"station_id":"ce4bgt12rcd13ifvqce0","pricing_plan_id":"cebpf4jnsgd1na2vs0mg"},{"bike_id":"a1fc0e0e-21c1-454e-bf38-9c34ac26d467","system_id":"levelo_inurba_marseille","lat":43.308012,"lon":5.381511,"is_reserved":false,"is_disabled":false,"rental_uris":{"android":"levelo://app?vid=a1fc0e0e-21c1-454e-bf38-9c34ac26d467","ios":"levelo://app?vid=a1fc0e0e-21c1-454e-bf38-9c34ac26d467"},"vehicle_type_id":"4","last_reported":1721097263,"current_range_meters":22800,"station_id":"ce4bgt12rcd13ifvqce0","pricing_plan_id":"cebpf4jnsgd1na2vs0mg"},{"bike_id":"6690fcea-b366-4775-bea5-5c223c6ce45a","system_id":"levelo_inurba_marseille","lat":43.308038,"lon":5.381514,"is_reserved":false,"is_disabled":false,"rental_uris":{"android":"levelo://app?vid=6690fcea-b366-4775-bea5-5c223c6ce45a","ios":"levelo://app?vid=6690fcea-b366-4775-bea5-5c223c6ce45a"},"vehicle_type_id":"4","last_reported":1721097263,"current_range_meters":18800,"station_id":"ce4bgt12rcd13ifvqce0","pricing_plan_id":"cebpf4jnsgd1na2vs0mg"},{"bike_id":"c402fcf1-ac33-4b4c-8f88-62ca33921c2c","system_id":"levelo_inurba_marseille","lat":43.307977,"lon":5.381531,"is_reserved":false,"is_disabled":false,"rental_uris":{"android":"levelo://app?vid=c402fcf1-ac33-4b4c-8f88-62ca33921c2c","ios":"levelo://app?vid=c402fcf1-ac33-4b4c-8f88-62ca33921c2c"},"vehicle_type_id":"4","last_reported":1721097263,"current_range_meters":20400,"station_id":"ce4bgt12rcd13ifvqce0","pricing_plan_id":"cebpf4jnsgd1na2vs0mg"},{"bike_id":"e3b48580-6462-436e-ba49-dd056c9ed181","system_id":"levelo_inurba_marseille","lat":43.308012,"lon":5.381511,"is_reserved":false,"is_disabled":false,"rental_uris":{"android":"levelo://app?vid=e3b48580-6462-436e-ba49-dd056c9ed181","ios":"levelo://app?vid=e3b48580-6462-436e-ba49-dd056c9ed181"},"vehicle_type_id":"4","last_reported":1721097263,"current_range_meters":29200,"station_id":"ce4bgt12rcd13ifvqce0","pricing_plan_id":"cebpf4jnsgd1na2vs0mg"},{"bike_id":"f31b19bc-23ae-413f-8df5-95aa1d48ec26","system_id":"levelo_inurba_marseille","lat":43.308012,"lon":5.381511,"is_reserved":false,"is_disabled":false,"rental_uris":{"android":"levelo://app?vid=f31b19bc-23ae-413f-8df5-95aa1d48ec26","ios":"levelo://app?vid=f31b19bc-23ae-413f-8df5-95aa1d48ec26"},"vehicle_type_id":"4","last_reported":1721097263,"current_range_meters":28000,"station_id":"ce4bgt12rcd13ifvqce0","pricing_plan_id":"cebpf4jnsgd1na2vs0mg"},{"bike_id":"195e04b7-a3b2-46bb-9a6d-b49c5081e0aa","system_id":"levelo_inurba_marseille","lat":43.308012,"lon":5.381511,"is_reserved":false,"is_disabled":false,"rental_uris":{"android":"levelo://app?vid=195e04b7-a3b2-46bb-9a6d-b49c5081e0aa","ios":"levelo://app?vid=195e04b7-a3b2-46bb-9a6d-b49c5081e0aa"},"vehicle_type_id":"4","last_reported":1721097263,"current_range_meters":18800,"station_id":"ce4bgt12rcd13ifvqce0","pricing_plan_id":"cebpf4jnsgd1na2vs0mg"},{"bike_id":"0c231e2e-81c6-4321-bb14-12915551a1c3","system_id":"levelo_inurba_marseille","lat":43.308012,"lon":5.381511,"is_reserved":false,"is_disabled":false,"rental_uris":{"android":"levelo://app?vid=0c231e2e-81c6-4321-bb14-12915551a1c3","ios":"levelo://app?vid=0c231e2e-81c6-4321-bb14-12915551a1c3"},"vehicle_type_id":"4","last_reported":1721097263,"current_range_meters":32000,"station_id":"ce4bgt12rcd13ifvqce0","pricing_plan_id":"cebpf4jnsgd1na2vs0mg"},{"bike_id":"19ce3b06-56d4-4d37-9be6-d8c51ec6d1c0","system_id":"levelo_inurba_marseille","lat":43.308005,"lon":5.381587,"is_reserved":false,"is_disabled":false,"rental_uris":{"android":"levelo://app?vid=19ce3b06-56d4-4d37-9be6-d8c51ec6d1c0","ios":"levelo://app?vid=19ce3b06-56d4-4d37-9be6-d8c51ec6d1c0"},"vehicle_type_id":"4","last_reported":1721097263,"current_range_meters":6000,"station_id":"ce4bgt12rcd13ifvqce0","pricing_plan_id":"cebpf4jnsgd1na2vs0mg"},{"bike_id":"fa739a03-c0c2-4817-9784-d544aba8bbc9","system_id":"levelo_inurba_marseille","lat":43.308012,"lon":5.381511,"is_reserved":false,"is_disabled":false,"rental_uris":{"android":"levelo://app?vid=fa739a03-c0c2-4817-9784-d544aba8bbc9","ios":"levelo://app?vid=fa739a03-c0c2-4817-9784-d544aba8bbc9"},"vehicle_type_id":"4","last_reported":1721097263,"current_range_meters":25600,"station_id":"ce4bgt12rcd13ifvqce0","pricing_plan_id":"cebpf4jnsgd1na2vs0mg"},{"bike_id":"6754ee26-800f-4de4-8b38-0b96b2558ffb","system_id":"levelo_inurba_marseille","lat":43.304606,"lon":5.379026,"is_reserved":false,"is_disabled":false,"rental_uris":{"android":"levelo://app?vid=6754ee26-800f-4de4-8b38-0b96b2558ffb","ios":"levelo://app?vid=6754ee26-800f-4de4-8b38-0b96b2558ffb"},"vehicle_type_id":"4","last_reported":1721097263,"current_range_meters":18000,"station_id":"ce4bgup2rcd13ifvqcn0","pricing_plan_id":"cebpf4jnsgd1na2vs0mg"},{"bike_id":"764565c7-bdf8-4a8b-be7d-69d97a4e292f","system_id":"levelo_inurba_marseille","lat":43.304606,"lon":5.379026,"is_reserved":false,"is_disabled":false,"rental_uris":{"android":"levelo://app?vid=764565c7-bdf8-4a8b-be7d-69d97a4e292f","ios":"levelo://app?vid=764565c7-bdf8-4a8b-be7d-69d97a4e292f"},"vehicle_type_id":"4","last_reported":1721097263,"current_range_meters":29200,"station_id":"ce4bgup2rcd13ifvqcn0","pricing_plan_id":"cebpf4jnsgd1na2vs0mg"},{"bike_id":"7d95a6f0-8761-4dae-9d12-3a26b3d508e1","system_id":"levelo_inurba_marseille","lat":43.304606,"lon":5.379026,"is_reserved":false,"is_disabled":false,"rental_uris":{"android":"levelo://app?vid=7d95a6f0-8761-4dae-9d12-3a26b3d508e1","ios":"levelo://app?vid=7d95a6f0-8761-4dae-9d12-3a26b3d508e1"},"vehicle_type_id":"4","last_reported":1721097263,"current_range_meters":8800,"station_id":"ce4bgup2rcd13ifvqcn0","pricing_plan_id":"cebpf4jnsgd1na2vs0mg"},{"bike_id":"aa9c4fad-f1f3-46cc-8f7c-ffba3a3e8a1f","system_id":"levelo_inurba_marseille","lat":43.304606,"lon":5.379026,"is_reserved":false,"is_disabled":false,"rental_uris":{"android":"levelo://app?vid=aa9c4fad-f1f3-46cc-8f7c-ffba3a3e8a1f","ios":"levelo://app?vid=aa9c4fad-f1f3-46cc-8f7c-ffba3a3e8a1f"},"vehicle_type_id":"4","last_reported":1721097263,"current_range_meters":12800,"station_id":"ce4bgup2rcd13ifvqcn0","pricing_plan_id":"cebpf4jnsgd1na2vs0mg"},{"bike_id":"5870aa94-ff5e-486c-b082-8f3af5f7df10","system_id":"levelo_inurba_marseille","lat":43.30476,"lon":5.37913,"is_reserved":false,"is_disabled":false,"rental_uris":{"android":"levelo://app?vid=5870aa94-ff5e-486c-b082-8f3af5f7df10","ios":"levelo://app?vid=5870aa94-ff5e-486c-b082-8f3af5f7df10"},"vehicle_type_id":"4","last_reported":1721097263,"current_range_meters":13600,"station_id":"ce4bgup2rcd13ifvqcn0","pricing_plan_id":"cebpf4jnsgd1na2vs0mg"},{"bike_id":"cc53c1e2-fd55-4630-8cdf-205fbb2dea8f","system_id":"levelo_inurba_marseille","lat":43.304606,"lon":5.379026,"is_reserved":false,"is_disabled":false,"rental_uris":{"android":"levelo://app?vid=cc53c1e2-fd55-4630-8cdf-205fbb2dea8f","ios":"levelo://app?vid=cc53c1e2-fd55-4630-8cdf-205fbb2dea8f"},"vehicle_type_id":"4","last_reported":1721097263,"current_range_meters":20800,"station_id":"ce4bgup2rcd13ifvqcn0","pricing_plan_id":"cebpf4jnsgd1na2vs0mg"},{"bike_id":"a0039c70-58b8-4b43-95e0-efa936b28d30","system_id":"levelo_inurba_marseille","lat":43.30473,"lon":5.37913,"is_reserved":false,"is_disabled":false,"rental_uris":{"android":"levelo://app?vid=a0039c70-58b8-4b43-95e0-efa936b28d30","ios":"levelo://app?vid=a0039c70-58b8-4b43-95e0-efa936b28d30"},"vehicle_type_id":"4","last_reported":1721097263,"current_range_meters":22800,"station_id":"ce4bgup2rcd13ifvqcn0","pricing_plan_id":"cebpf4jnsgd1na2vs0mg"},{"bike_id":"92e9a702-39d4-4841-bdde-7231881887c1","system_id":"levelo_inurba_marseille","lat":43.304706,"lon":5.379119,"is_reserved":false,"is_disabled":false,"rental_uris":{"android":"levelo://app?vid=92e9a702-39d4-4841-bdde-7231881887c1","ios":"levelo://app?vid=92e9a702-39d4-4841-bdde-7231881887c1"},"vehicle_type_id":"4","last_reported":1721097263,"current_range_meters":31200,"station_id":"ce4bgup2rcd13ifvqcn0","pricing_plan_id":"cebpf4jnsgd1na2vs0mg"},{"bike_id":"4e536106-2515-44be-9a9d-73bd86026574","system_id":"levelo_inurba_marseille","lat":43.304606,"lon":5.379026,"is_reserved":false,"is_disabled":false,"rental_uris":{"android":"levelo://app?vid=4e536106-2515-44be-9a9d-73bd86026574","ios":"levelo://app?vid=4e536106-2515-44be-9a9d-73bd86026574"},"vehicle_type_id":"4","last_reported":1721097263,"current_range_meters":20400,"station_id":"ce4bgup2rcd13ifvqcn0","pricing_plan_id":"cebpf4jnsgd1na2vs0mg"},{"bike_id":"fb211bd2-a12d-4deb-8262-cac4c3190ef5","system_id":"levelo_inurba_marseille","lat":43.304606,"lon":5.379026,"is_reserved":false,"is_disabled":false,"rental_uris":{"android":"levelo://app?vid=fb211bd2-a12d-4deb-8262-cac4c3190ef5","ios":"levelo://app?vid=fb211bd2-a12d-4deb-8262-cac4c3190ef5"},"vehicle_type_id":"4","last_reported":1721097263,"current_range_meters":22800,"station_id":"ce4bgup2rcd13ifvqcn0","pricing_plan_id":"cebpf4jnsgd1na2vs0mg"},{"bike_id":"7c23fbe7-304d-4488-8506-a782bca07648","system_id":"levelo_inurba_marseille","lat":43.304606,"lon":5.379026,"is_reserved":false,"is_disabled":false,"rental_uris":{"android":"levelo://app?vid=7c23fbe7-304d-4488-8506-a782bca07648","ios":"levelo://app?vid=7c23fbe7-304d-4488-8506-a782bca07648"},"vehicle_type_id":"4","last_reported":1721097263,"current_range_meters":27600,"station_id":"ce4bgup2rcd13ifvqcn0","pricing_plan_id":"cebpf4jnsgd1na2vs0mg"},{"bike_id":"b7e01773-01de-42ed-bc3b-96829e736153","system_id":"levelo_inurba_marseille","lat":43.324771,"lon":5.36557,"is_reserved":false,"is_disabled":false,"rental_uris":{"android":"levelo://app?vid=b7e01773-01de-42ed-bc3b-96829e736153","ios":"levelo://app?vid=b7e01773-01de-42ed-bc3b-96829e736153"},"vehicle_type_id":"4","last_reported":1721097263,"current_range_meters":16000,"station_id":"ce4bhs12rcd13ifvqhvg","pricing_plan_id":"cebpf4jnsgd1na2vs0mg"},{"bike_id":"0b033a9a-ba65-4abc-b007-594a854ee66f","system_id":"levelo_inurba_marseille","lat":43.32482,"lon":5.36567,"is_reserved":false,"is_disabled":false,"rental_uris":{"android":"levelo://app?vid=0b033a9a-ba65-4abc-b007-594a854ee66f","ios":"levelo://app?vid=0b033a9a-ba65-4abc-b007-594a854ee66f"},"vehicle_type_id":"4","last_reported":1721097263,"current_range_meters":30800,"station_id":"ce4bhs12rcd13ifvqhvg","pricing_plan_id":"cebpf4jnsgd1na2vs0mg"},{"bike_id":"5d635596-97ac-42e0-99d4-5cc2c06bf0ba","system_id":"levelo_inurba_marseille","lat":43.324771,"lon":5.36557,"is_reserved":false,"is_disabled":false,"rental_uris":{"android":"levelo://app?vid=5d635596-97ac-42e0-99d4-5cc2c06bf0ba","ios":"levelo://app?vid=5d635596-97ac-42e0-99d4-5cc2c06bf0ba"},"vehicle_type_id":"4","last_reported":1721097263,"current_range_meters":31600,"station_id":"ce4bhs12rcd13ifvqhvg","pricing_plan_id":"cebpf4jnsgd1na2vs0mg"},{"bike_id":"88c493e8-6d91-4c76-806e-ea0d5298f638","system_id":"levelo_inurba_marseille","lat":43.324855,"lon":5.365629,"is_reserved":false,"is_disabled":false,"rental_uris":{"android":"levelo://app?vid=88c493e8-6d91-4c76-806e-ea0d5298f638","ios":"levelo://app?vid=88c493e8-6d91-4c76-806e-ea0d5298f638"},"vehicle_type_id":"4","last_reported":1721097263,"current_range_meters":25600,"station_id":"ce4bhs12rcd13ifvqhvg","pricing_plan_id":"cebpf4jnsgd1na2vs0mg"},{"bike_id":"5bf8e5bf-bc72-4aa4-93a4-ef0941cae1a2","system_id":"levelo_inurba_marseille","lat":43.324771,"lon":5.36557,"is_reserved":false,"is_disabled":false,"rental_uris":{"android":"levelo://app?vid=5bf8e5bf-bc72-4aa4-93a4-ef0941cae1a2","ios":"levelo://app?vid=5bf8e5bf-bc72-4aa4-93a4-ef0941cae1a2"},"vehicle_type_id":"4","last_reported":1721097263,"current_range_meters":31600,"station_id":"ce4bhs12rcd13ifvqhvg","pricing_plan_id":"cebpf4jnsgd1na2vs0mg"},{"bike_id":"163daee7-2a1c-45bc-95af-70742057f812","system_id":"levelo_inurba_marseille","lat":43.324771,"lon":5.36557,"is_reserved":false,"is_disabled":false,"rental_uris":{"android":"levelo://app?vid=163daee7-2a1c-45bc-95af-70742057f812","ios":"levelo://app?vid=163daee7-2a1c-45bc-95af-70742057f812"},"vehicle_type_id":"4","last_reported":1721097263,"current_range_meters":18800,"station_id":"ce4bhs12rcd13ifvqhvg","pricing_plan_id":"cebpf4jnsgd1na2vs0mg"},{"bike_id":"7245a261-5039-4baf-a8d0-5dfe0f39e0ff","system_id":"levelo_inurba_marseille","lat":43.31052,"lon":5.38339,"is_reserved":false,"is_disabled":false,"rental_uris":{"android":"levelo://app?vid=7245a261-5039-4baf-a8d0-5dfe0f39e0ff","ios":"levelo://app?vid=7245a261-5039-4baf-a8d0-5dfe0f39e0ff"},"vehicle_type_id":"4","last_reported":1721097263,"current_range_meters":8000,"station_id":"ce4bgv92rcd13ifvqcr0","pricing_plan_id":"cebpf4jnsgd1na2vs0mg"},{"bike_id":"b34c5333-45b0-493a-bb72-d6052fd4526c","system_id":"levelo_inurba_marseille","lat":43.31076,"lon":5.38347,"is_reserved":false,"is_disabled":false,"rental_uris":{"android":"levelo://app?vid=b34c5333-45b0-493a-bb72-d6052fd4526c","ios":"levelo://app?vid=b34c5333-45b0-493a-bb72-d6052fd4526c"},"vehicle_type_id":"4","last_reported":1721097263,"current_range_meters":20400,"station_id":"ce4bgv92rcd13ifvqcr0","pricing_plan_id":"cebpf4jnsgd1na2vs0mg"},{"bike_id":"13336b80-ccbb-4a2f-bb33-05a9f2767fd7","system_id":"levelo_inurba_marseille","lat":43.310804,"lon":5.38359,"is_reserved":false,"is_disabled":false,"rental_uris":{"android":"levelo://app?vid=13336b80-ccbb-4a2f-bb33-05a9f2767fd7","ios":"levelo://app?vid=13336b80-ccbb-4a2f-bb33-05a9f2767fd7"},"vehicle_type_id":"4","last_reported":1721097263,"current_range_meters":4000,"station_id":"ce4bgv92rcd13ifvqcr0","pricing_plan_id":"cebpf4jnsgd1na2vs0mg"},{"bike_id":"4062547e-d87e-47f9-9b91-218d9c735ac5","system_id":"levelo_inurba_marseille","lat":43.310804,"lon":5.38359,"is_reserved":false,"is_disabled":false,"rental_uris":{"android":"levelo://app?vid=4062547e-d87e-47f9-9b91-218d9c735ac5","ios":"levelo://app?vid=4062547e-d87e-47f9-9b91-218d9c735ac5"},"vehicle_type_id":"4","last_reported":1721097263,"current_range_meters":21600,"station_id":"ce4bgv92rcd13ifvqcr0","pricing_plan_id":"cebpf4jnsgd1na2vs0mg"},{"bike_id":"9fe536b6-8cca-4bc9-9f47-aab04cb707a9","system_id":"levelo_inurba_marseille","lat":43.310804,"lon":5.38359,"is_reserved":false,"is_disabled":false,"rental_uris":{"android":"levelo://app?vid=9fe536b6-8cca-4bc9-9f47-aab04cb707a9","ios":"levelo://app?vid=9fe536b6-8cca-4bc9-9f47-aab04cb707a9"},"vehicle_type_id":"4","last_reported":1721097263,"current_range_meters":15600,"station_id":"ce4bgv92rcd13ifvqcr0","pricing_plan_id":"cebpf4jnsgd1na2vs0mg"},{"bike_id":"aca447c8-b091-40a0-b211-25f2376e9741","system_id":"levelo_inurba_marseille","lat":43.302784,"lon":5.377158,"is_reserved":false,"is_disabled":false,"rental_uris":{"android":"levelo://app?vid=aca447c8-b091-40a0-b211-25f2376e9741","ios":"levelo://app?vid=aca447c8-b091-40a0-b211-25f2376e9741"},"vehicle_type_id":"4","last_reported":1721097263,"current_range_meters":3600,"station_id":"ce4bguh2rcd13ifvqcj0","pricing_plan_id":"cebpf4jnsgd1na2vs0mg"},{"bike_id":"530fb8ca-4d75-4ae0-811b-c980186ee1a6","system_id":"levelo_inurba_marseille","lat":43.31048,"lon":5.38357,"is_reserved":false,"is_disabled":false,"rental_uris":{"android":"levelo://app?vid=530fb8ca-4d75-4ae0-811b-c980186ee1a6","ios":"levelo://app?vid=530fb8ca-4d75-4ae0-811b-c980186ee1a6"},"vehicle_type_id":"4","last_reported":1721097263,"current_range_meters":0,"station_id":"ce4bgv92rcd13ifvqcr0","pricing_plan_id":"cebpf4jnsgd1na2vs0mg"},{"bike_id":"97be4092-66c1-4ea2-96e8-072c01b13aaa","system_id":"levelo_inurba_marseille","lat":43.310804,"lon":5.38359,"is_reserved":false,"is_disabled":false,"rental_uris":{"android":"levelo://app?vid=97be4092-66c1-4ea2-96e8-072c01b13aaa","ios":"levelo://app?vid=97be4092-66c1-4ea2-96e8-072c01b13aaa"},"vehicle_type_id":"4","last_reported":1721097263,"current_range_meters":3200,"station_id":"ce4bgv92rcd13ifvqcr0","pricing_plan_id":"cebpf4jnsgd1na2vs0mg"},{"bike_id":"f08bce90-bb2c-45ba-9942-3101a5b62fbd","system_id":"levelo_inurba_marseille","lat":43.310804,"lon":5.38359,"is_reserved":false,"is_disabled":false,"rental_uris":{"android":"levelo://app?vid=f08bce90-bb2c-45ba-9942-3101a5b62fbd","ios":"levelo://app?vid=f08bce90-bb2c-45ba-9942-3101a5b62fbd"},"vehicle_type_id":"4","last_reported":1721097263,"current_range_meters":13200,"station_id":"ce4bgv92rcd13ifvqcr0","pricing_plan_id":"cebpf4jnsgd1na2vs0mg"},{"bike_id":"d22490bd-f0d4-4c7e-a182-1b03b916b3b3","system_id":"levelo_inurba_marseille","lat":43.30143,"lon":5.37413,"is_reserved":false,"is_disabled":false,"rental_uris":{"android":"levelo://app?vid=d22490bd-f0d4-4c7e-a182-1b03b916b3b3","ios":"levelo://app?vid=d22490bd-f0d4-4c7e-a182-1b03b916b3b3"},"vehicle_type_id":"4","last_reported":1721097263,"current_range_meters":22000,"station_id":"ce4bgs92rcd13ifvqcc0","pricing_plan_id":"cebpf4jnsgd1na2vs0mg"},{"bike_id":"5cc76555-63e5-488d-b754-526b831eac19","system_id":"levelo_inurba_marseille","lat":43.301429,"lon":5.37413,"is_reserved":false,"is_disabled":false,"rental_uris":{"android":"levelo://app?vid=5cc76555-63e5-488d-b754-526b831eac19","ios":"levelo://app?vid=5cc76555-63e5-488d-b754-526b831eac19"},"vehicle_type_id":"4","last_reported":1721097263,"current_range_meters":19600,"station_id":"ce4bgs92rcd13ifvqcc0","pricing_plan_id":"cebpf4jnsgd1na2vs0mg"},{"bike_id":"c064cd0b-ff1c-40de-8b9d-eefd3435dcf1","system_id":"levelo_inurba_marseille","lat":43.305894,"lon":5.381833,"is_reserved":false,"is_disabled":false,"rental_uris":{"android":"levelo://app?vid=c064cd0b-ff1c-40de-8b9d-eefd3435dcf1","ios":"levelo://app?vid=c064cd0b-ff1c-40de-8b9d-eefd3435dcf1"},"vehicle_type_id":"4","last_reported":1721097263,"current_range_meters":17600,"station_id":"","pricing_plan_id":"cebpf4jnsgd1na2vs0mg"},{"bike_id":"42481903-b071-425f-84b6-931f78ac2128","system_id":"levelo_inurba_marseille","lat":43.313571,"lon":5.384829,"is_reserved":false,"is_disabled":false,"rental_uris":{"android":"levelo://app?vid=42481903-b071-425f-84b6-931f78ac2128","ios":"levelo://app?vid=42481903-b071-425f-84b6-931f78ac2128"},"vehicle_type_id":"4","last_reported":1721097263,"current_range_meters":31600,"station_id":"ce4bgt92rcd13ifvqcf0","pricing_plan_id":"cebpf4jnsgd1na2vs0mg"},{"bike_id":"1f7bbd90-80b7-4864-8f33-7013a801c86f","system_id":"levelo_inurba_marseille","lat":43.313571,"lon":5.384829,"is_reserved":false,"is_disabled":false,"rental_uris":{"android":"levelo://app?vid=1f7bbd90-80b7-4864-8f33-7013a801c86f","ios":"levelo://app?vid=1f7bbd90-80b7-4864-8f33-7013a801c86f"},"vehicle_type_id":"4","last_reported":1721097263,"current_range_meters":32000,"station_id":"ce4bgt92rcd13ifvqcf0","pricing_plan_id":"cebpf4jnsgd1na2vs0mg"},{"bike_id":"f17bb34d-ee49-4976-9514-4f6e8b3f3301","system_id":"levelo_inurba_marseille","lat":43.313571,"lon":5.384829,"is_reserved":false,"is_disabled":false,"rental_uris":{"android":"levelo://app?vid=f17bb34d-ee49-4976-9514-4f6e8b3f3301","ios":"levelo://app?vid=f17bb34d-ee49-4976-9514-4f6e8b3f3301"},"vehicle_type_id":"4","last_reported":1721097263,"current_range_meters":28400,"station_id":"ce4bgt92rcd13ifvqcf0","pricing_plan_id":"cebpf4jnsgd1na2vs0mg"},{"bike_id":"131e1527-3d15-4b97-8a89-a8e89cd1b43c","system_id":"levelo_inurba_marseille","lat":43.313623,"lon":5.384927,"is_reserved":false,"is_disabled":false,"rental_uris":{"android":"levelo://app?vid=131e1527-3d15-4b97-8a89-a8e89cd1b43c","ios":"levelo://app?vid=131e1527-3d15-4b97-8a89-a8e89cd1b43c"},"vehicle_type_id":"4","last_reported":1721097263,"current_range_meters":17600,"station_id":"ce4bgt92rcd13ifvqcf0","pricing_plan_id":"cebpf4jnsgd1na2vs0mg"},{"bike_id":"75d83904-94ee-4c41-a9b3-440e1c4379f5","system_id":"levelo_inurba_marseille","lat":43.313571,"lon":5.384829,"is_reserved":false,"is_disabled":false,"rental_uris":{"android":"levelo://app?vid=75d83904-94ee-4c41-a9b3-440e1c4379f5","ios":"levelo://app?vid=75d83904-94ee-4c41-a9b3-440e1c4379f5"},"vehicle_type_id":"4","last_reported":1721097263,"current_range_meters":27600,"station_id":"ce4bgt92rcd13ifvqcf0","pricing_plan_id":"cebpf4jnsgd1na2vs0mg"},{"bike_id":"1e649ff8-8fd2-4398-9c53-521a494f840f","system_id":"levelo_inurba_marseille","lat":43.313578,"lon":5.384958,"is_reserved":false,"is_disabled":false,"rental_uris":{"android":"levelo://app?vid=1e649ff8-8fd2-4398-9c53-521a494f840f","ios":"levelo://app?vid=1e649ff8-8fd2-4398-9c53-521a494f840f"},"vehicle_type_id":"4","last_reported":1721097263,"current_range_meters":26400,"station_id":"ce4bgt92rcd13ifvqcf0","pricing_plan_id":"cebpf4jnsgd1na2vs0mg"},{"bike_id":"4f0a0056-bd49-420a-b9df-f419d93a1707","system_id":"levelo_inurba_marseille","lat":43.313569,"lon":5.384978,"is_reserved":false,"is_disabled":false,"rental_uris":{"android":"levelo://app?vid=4f0a0056-bd49-420a-b9df-f419d93a1707","ios":"levelo://app?vid=4f0a0056-bd49-420a-b9df-f419d93a1707"},"vehicle_type_id":"4","last_reported":1721097263,"current_range_meters":30000,"station_id":"ce4bgt92rcd13ifvqcf0","pricing_plan_id":"cebpf4jnsgd1na2vs0mg"},{"bike_id":"891a3d81-9ca9-4fc9-9cfd-ba133cf5bd8c","system_id":"levelo_inurba_marseille","lat":43.31361,"lon":5.38501,"is_reserved":false,"is_disabled":false,"rental_uris":{"android":"levelo://app?vid=891a3d81-9ca9-4fc9-9cfd-ba133cf5bd8c","ios":"levelo://app?vid=891a3d81-9ca9-4fc9-9cfd-ba133cf5bd8c"},"vehicle_type_id":"4","last_reported":1721097263,"current_range_meters":4800,"station_id":"ce4bgt92rcd13ifvqcf0","pricing_plan_id":"cebpf4jnsgd1na2vs0mg"},{"bike_id":"9c73eeb7-07ab-4f7f-90b6-16a8780a0b09","system_id":"levelo_inurba_marseille","lat":43.31364,"lon":5.38504,"is_reserved":false,"is_disabled":false,"rental_uris":{"android":"levelo://app?vid=9c73eeb7-07ab-4f7f-90b6-16a8780a0b09","ios":"levelo://app?vid=9c73eeb7-07ab-4f7f-90b6-16a8780a0b09"},"vehicle_type_id":"4","last_reported":1721097263,"current_range_meters":22400,"station_id":"ce4bgt92rcd13ifvqcf0","pricing_plan_id":"cebpf4jnsgd1na2vs0mg"},{"bike_id":"4db63350-4e4b-413d-9a50-5fc3a0f837bb","system_id":"levelo_inurba_marseille","lat":43.313609,"lon":5.385064,"is_reserved":false,"is_disabled":false,"rental_uris":{"android":"levelo://app?vid=4db63350-4e4b-413d-9a50-5fc3a0f837bb","ios":"levelo://app?vid=4db63350-4e4b-413d-9a50-5fc3a0f837bb"},"vehicle_type_id":"4","last_reported":1721097263,"current_range_meters":30400,"station_id":"ce4bgt92rcd13ifvqcf0","pricing_plan_id":"cebpf4jnsgd1na2vs0mg"},{"bike_id":"e1b4dea0-c06b-4425-8914-e30e21d03e1a","system_id":"levelo_inurba_marseille","lat":43.299724,"lon":5.371829,"is_reserved":false,"is_disabled":false,"rental_uris":{"android":"levelo://app?vid=e1b4dea0-c06b-4425-8914-e30e21d03e1a","ios":"levelo://app?vid=e1b4dea0-c06b-4425-8914-e30e21d03e1a"},"vehicle_type_id":"4","last_reported":1721097263,"current_range_meters":31600,"station_id":"ce4bgr92rcd13ifvqc7g","pricing_plan_id":"cebpf4jnsgd1na2vs0mg"},{"bike_id":"fe6582e0-f714-4eee-91b1-dec7cda4ac0c","system_id":"levelo_inurba_marseille","lat":43.299724,"lon":5.371829,"is_reserved":false,"is_disabled":false,"rental_uris":{"android":"levelo://app?vid=fe6582e0-f714-4eee-91b1-dec7cda4ac0c","ios":"levelo://app?vid=fe6582e0-f714-4eee-91b1-dec7cda4ac0c"},"vehicle_type_id":"4","last_reported":1721097263,"current_range_meters":28400,"station_id":"ce4bgr92rcd13ifvqc7g","pricing_plan_id":"cebpf4jnsgd1na2vs0mg"},{"bike_id":"2685a053-16f8-4f4e-bdd9-2459a34947ab","system_id":"levelo_inurba_marseille","lat":43.299222,"lon":5.365554,"is_reserved":false,"is_disabled":false,"rental_uris":{"android":"levelo://app?vid=2685a053-16f8-4f4e-bdd9-2459a34947ab","ios":"levelo://app?vid=2685a053-16f8-4f4e-bdd9-2459a34947ab"},"vehicle_type_id":"4","last_reported":1721097263,"current_range_meters":18000,"station_id":"ce4bgm92rcd13ifvqbr0","pricing_plan_id":"cebpf4jnsgd1na2vs0mg"},{"bike_id":"901b1096-07fb-44e0-85f0-fe590ab4644a","system_id":"levelo_inurba_marseille","lat":43.305364,"lon":5.384119,"is_reserved":false,"is_disabled":false,"rental_uris":{"android":"levelo://app?vid=901b1096-07fb-44e0-85f0-fe590ab4644a","ios":"levelo://app?vid=901b1096-07fb-44e0-85f0-fe590ab4644a"},"vehicle_type_id":"4","last_reported":1721097263,"current_range_meters":17200,"station_id":"ce4bgg92rcd13ifvqb30","pricing_plan_id":"cebpf4jnsgd1na2vs0mg"},{"bike_id":"74954e57-a2c6-47e9-80f4-aa1d94e259dc","system_id":"levelo_inurba_marseille","lat":43.305364,"lon":5.384119,"is_reserved":false,"is_disabled":false,"rental_uris":{"android":"levelo://app?vid=74954e57-a2c6-47e9-80f4-aa1d94e259dc","ios":"levelo://app?vid=74954e57-a2c6-47e9-80f4-aa1d94e259dc"},"vehicle_type_id":"4","last_reported":1721097263,"current_range_meters":5600,"station_id":"ce4bgg92rcd13ifvqb30","pricing_plan_id":"cebpf4jnsgd1na2vs0mg"},{"bike_id":"cb3f5b99-6615-4f23-b1c4-031652c15936","system_id":"levelo_inurba_marseille","lat":43.305364,"lon":5.384119,"is_reserved":false,"is_disabled":false,"rental_uris":{"android":"levelo://app?vid=cb3f5b99-6615-4f23-b1c4-031652c15936","ios":"levelo://app?vid=cb3f5b99-6615-4f23-b1c4-031652c15936"},"vehicle_type_id":"4","last_reported":1721097263,"current_range_meters":31200,"station_id":"ce4bgg92rcd13ifvqb30","pricing_plan_id":"cebpf4jnsgd1na2vs0mg"},{"bike_id":"39041024-356f-4c3a-83d7-782b2a001de1","system_id":"levelo_inurba_marseille","lat":43.305364,"lon":5.384119,"is_reserved":false,"is_disabled":false,"rental_uris":{"android":"levelo://app?vid=39041024-356f-4c3a-83d7-782b2a001de1","ios":"levelo://app?vid=39041024-356f-4c3a-83d7-782b2a001de1"},"vehicle_type_id":"4","last_reported":1721097263,"current_range_meters":26800,"station_id":"ce4bgg92rcd13ifvqb30","pricing_plan_id":"cebpf4jnsgd1na2vs0mg"},{"bike_id":"c3cc9b4f-14c7-4c15-8efb-f69b018017c3","system_id":"levelo_inurba_marseille","lat":43.311722,"lon":5.387247,"is_reserved":false,"is_disabled":false,"rental_uris":{"android":"levelo://app?vid=c3cc9b4f-14c7-4c15-8efb-f69b018017c3","ios":"levelo://app?vid=c3cc9b4f-14c7-4c15-8efb-f69b018017c3"},"vehicle_type_id":"4","last_reported":1721097263,"current_range_meters":29600,"station_id":"ce4bgv12rcd13ifvqcp0","pricing_plan_id":"cebpf4jnsgd1na2vs0mg"},{"bike_id":"5601aee7-f8b7-4436-8382-32c10db18493","system_id":"levelo_inurba_marseille","lat":43.311722,"lon":5.387247,"is_reserved":false,"is_disabled":false,"rental_uris":{"android":"levelo://app?vid=5601aee7-f8b7-4436-8382-32c10db18493","ios":"levelo://app?vid=5601aee7-f8b7-4436-8382-32c10db18493"},"vehicle_type_id":"4","last_reported":1721097263,"current_range_meters":20400,"station_id":"ce4bgv12rcd13ifvqcp0","pricing_plan_id":"cebpf4jnsgd1na2vs0mg"},{"bike_id":"d831ac9d-cea9-4aa1-bb41-d9f58c4944f6","system_id":"levelo_inurba_marseille","lat":43.311722,"lon":5.387247,"is_reserved":false,"is_disabled":false,"rental_uris":{"android":"levelo://app?vid=d831ac9d-cea9-4aa1-bb41-d9f58c4944f6","ios":"levelo://app?vid=d831ac9d-cea9-4aa1-bb41-d9f58c4944f6"},"vehicle_type_id":"4","last_reported":1721097263,"current_range_meters":25200,"station_id":"ce4bgv12rcd13ifvqcp0","pricing_plan_id":"cebpf4jnsgd1na2vs0mg"},{"bike_id":"4a4046f0-7dab-42a5-b3bf-7a5a04403dd7","system_id":"levelo_inurba_marseille","lat":43.311722,"lon":5.387247,"is_reserved":false,"is_disabled":false,"rental_uris":{"android":"levelo://app?vid=4a4046f0-7dab-42a5-b3bf-7a5a04403dd7","ios":"levelo://app?vid=4a4046f0-7dab-42a5-b3bf-7a5a04403dd7"},"vehicle_type_id":"4","last_reported":1721097263,"current_range_meters":29200,"station_id":"ce4bgv12rcd13ifvqcp0","pricing_plan_id":"cebpf4jnsgd1na2vs0mg"},{"bike_id":"b4feb958-0c25-450b-8d45-937f57d52758","system_id":"levelo_inurba_marseille","lat":43.311722,"lon":5.387247,"is_reserved":false,"is_disabled":false,"rental_uris":{"android":"levelo://app?vid=b4feb958-0c25-450b-8d45-937f57d52758","ios":"levelo://app?vid=b4feb958-0c25-450b-8d45-937f57d52758"},"vehicle_type_id":"4","last_reported":1721097263,"current_range_meters":31200,"station_id":"ce4bgv12rcd13ifvqcp0","pricing_plan_id":"cebpf4jnsgd1na2vs0mg"},{"bike_id":"a941d34e-a9df-4695-9262-9129ad138e22","system_id":"levelo_inurba_marseille","lat":43.311722,"lon":5.387205,"is_reserved":false,"is_disabled":false,"rental_uris":{"android":"levelo://app?vid=a941d34e-a9df-4695-9262-9129ad138e22","ios":"levelo://app?vid=a941d34e-a9df-4695-9262-9129ad138e22"},"vehicle_type_id":"4","last_reported":1721097263,"current_range_meters":1600,"station_id":"ce4bgv12rcd13ifvqcp0","pricing_plan_id":"cebpf4jnsgd1na2vs0mg"},{"bike_id":"d56066bc-5717-44c8-b004-bb75d6307e71","system_id":"levelo_inurba_marseille","lat":43.311722,"lon":5.387247,"is_reserved":false,"is_disabled":false,"rental_uris":{"android":"levelo://app?vid=d56066bc-5717-44c8-b004-bb75d6307e71","ios":"levelo://app?vid=d56066bc-5717-44c8-b004-bb75d6307e71"},"vehicle_type_id":"4","last_reported":1721097263,"current_range_meters":27600,"station_id":"ce4bgv12rcd13ifvqcp0","pricing_plan_id":"cebpf4jnsgd1na2vs0mg"},{"bike_id":"9435fc55-28b7-4a1b-87aa-d7448463bad9","system_id":"levelo_inurba_marseille","lat":43.322872,"lon":5.382756,"is_reserved":false,"is_disabled":false,"rental_uris":{"android":"levelo://app?vid=9435fc55-28b7-4a1b-87aa-d7448463bad9","ios":"levelo://app?vid=9435fc55-28b7-4a1b-87aa-d7448463bad9"},"vehicle_type_id":"4","last_reported":1721097263,"current_range_meters":27600,"station_id":"ce4bhr12rcd13ifvqhqg","pricing_plan_id":"cebpf4jnsgd1na2vs0mg"},{"bike_id":"530f80c8-1f2a-487e-8a1c-82e848e7f28e","system_id":"levelo_inurba_marseille","lat":43.322872,"lon":5.382756,"is_reserved":false,"is_disabled":false,"rental_uris":{"android":"levelo://app?vid=530f80c8-1f2a-487e-8a1c-82e848e7f28e","ios":"levelo://app?vid=530f80c8-1f2a-487e-8a1c-82e848e7f28e"},"vehicle_type_id":"4","last_reported":1721097263,"current_range_meters":32000,"station_id":"ce4bhr12rcd13ifvqhqg","pricing_plan_id":"cebpf4jnsgd1na2vs0mg"},{"bike_id":"d270f9a5-07f1-4b2c-baf6-6fb04a081afc","system_id":"levelo_inurba_marseille","lat":43.322872,"lon":5.382756,"is_reserved":false,"is_disabled":false,"rental_uris":{"android":"levelo://app?vid=d270f9a5-07f1-4b2c-baf6-6fb04a081afc","ios":"levelo://app?vid=d270f9a5-07f1-4b2c-baf6-6fb04a081afc"},"vehicle_type_id":"4","last_reported":1721097263,"current_range_meters":31600,"station_id":"ce4bhr12rcd13ifvqhqg","pricing_plan_id":"cebpf4jnsgd1na2vs0mg"},{"bike_id":"d8d87370-43f5-4bcc-a293-b6d2a59bd372","system_id":"levelo_inurba_marseille","lat":43.322872,"lon":5.382756,"is_reserved":false,"is_disabled":false,"rental_uris":{"android":"levelo://app?vid=d8d87370-43f5-4bcc-a293-b6d2a59bd372","ios":"levelo://app?vid=d8d87370-43f5-4bcc-a293-b6d2a59bd372"},"vehicle_type_id":"4","last_reported":1721097263,"current_range_meters":29600,"station_id":"ce4bhr12rcd13ifvqhqg","pricing_plan_id":"cebpf4jnsgd1na2vs0mg"},{"bike_id":"5fe18430-f94a-4d0a-8899-cd884db5c80f","system_id":"levelo_inurba_marseille","lat":43.322872,"lon":5.382756,"is_reserved":false,"is_disabled":false,"rental_uris":{"android":"levelo://app?vid=5fe18430-f94a-4d0a-8899-cd884db5c80f","ios":"levelo://app?vid=5fe18430-f94a-4d0a-8899-cd884db5c80f"},"vehicle_type_id":"4","last_reported":1721097263,"current_range_meters":28400,"station_id":"ce4bhr12rcd13ifvqhqg","pricing_plan_id":"cebpf4jnsgd1na2vs0mg"},{"bike_id":"41ed59aa-98c0-4a56-a8af-81906a09064a","system_id":"levelo_inurba_marseille","lat":43.297163,"lon":5.365866,"is_reserved":false,"is_disabled":false,"rental_uris":{"android":"levelo://app?vid=41ed59aa-98c0-4a56-a8af-81906a09064a","ios":"levelo://app?vid=41ed59aa-98c0-4a56-a8af-81906a09064a"},"vehicle_type_id":"4","last_reported":1721097263,"current_range_meters":29600,"station_id":"ce4bgn12rcd13ifvqbt0","pricing_plan_id":"cebpf4jnsgd1na2vs0mg"},{"bike_id":"33864e3d-ac11-46b1-9990-56825fd6f1d9","system_id":"levelo_inurba_marseille","lat":43.296851,"lon":5.373071,"is_reserved":false,"is_disabled":false,"rental_uris":{"android":"levelo://app?vid=33864e3d-ac11-46b1-9990-56825fd6f1d9","ios":"levelo://app?vid=33864e3d-ac11-46b1-9990-56825fd6f1d9"},"vehicle_type_id":"4","last_reported":1721097263,"current_range_meters":15200,"station_id":"","pricing_plan_id":"cebpf4jnsgd1na2vs0mg"},{"bike_id":"1fcc2fb1-de36-40dc-b5bc-f2624d1e5af1","system_id":"levelo_inurba_marseille","lat":43.296935,"lon":5.376544,"is_reserved":false,"is_disabled":false,"rental_uris":{"android":"levelo://app?vid=1fcc2fb1-de36-40dc-b5bc-f2624d1e5af1","ios":"levelo://app?vid=1fcc2fb1-de36-40dc-b5bc-f2624d1e5af1"},"vehicle_type_id":"4","last_reported":1721097263,"current_range_meters":11600,"station_id":"ce4bgkh2rcd13ifvqbl0","pricing_plan_id":"cebpf4jnsgd1na2vs0mg"},{"bike_id":"479ba25a-a7d9-43ab-a965-2d1c28d586ed","system_id":"levelo_inurba_marseille","lat":43.309589,"lon":5.390258,"is_reserved":false,"is_disabled":false,"rental_uris":{"android":"levelo://app?vid=479ba25a-a7d9-43ab-a965-2d1c28d586ed","ios":"levelo://app?vid=479ba25a-a7d9-43ab-a965-2d1c28d586ed"},"vehicle_type_id":"4","last_reported":1721097263,"current_range_meters":0,"station_id":"ce4bgup2rcd13ifvqco0","pricing_plan_id":"cebpf4jnsgd1na2vs0mg"},{"bike_id":"242cdb34-61d2-48bc-bd0e-5f387f740dd5","system_id":"levelo_inurba_marseille","lat":43.309589,"lon":5.390258,"is_reserved":false,"is_disabled":false,"rental_uris":{"android":"levelo://app?vid=242cdb34-61d2-48bc-bd0e-5f387f740dd5","ios":"levelo://app?vid=242cdb34-61d2-48bc-bd0e-5f387f740dd5"},"vehicle_type_id":"4","last_reported":1721097263,"current_range_meters":13200,"station_id":"ce4bgup2rcd13ifvqco0","pricing_plan_id":"cebpf4jnsgd1na2vs0mg"},{"bike_id":"b1134af3-9322-44b2-8bf3-d4bd59ef2f4c","system_id":"levelo_inurba_marseille","lat":43.317574,"lon":5.390132,"is_reserved":false,"is_disabled":false,"rental_uris":{"android":"levelo://app?vid=b1134af3-9322-44b2-8bf3-d4bd59ef2f4c","ios":"levelo://app?vid=b1134af3-9322-44b2-8bf3-d4bd59ef2f4c"},"vehicle_type_id":"4","last_reported":1721097263,"current_range_meters":22400,"station_id":"ce4bhqp2rcd13ifvqhng","pricing_plan_id":"cebpf4jnsgd1na2vs0mg"},{"bike_id":"3ce0019d-24d1-4f05-81e2-0f0e896a976b","system_id":"levelo_inurba_marseille","lat":43.31764,"lon":5.39012,"is_reserved":false,"is_disabled":false,"rental_uris":{"android":"levelo://app?vid=3ce0019d-24d1-4f05-81e2-0f0e896a976b","ios":"levelo://app?vid=3ce0019d-24d1-4f05-81e2-0f0e896a976b"},"vehicle_type_id":"4","last_reported":1721097263,"current_range_meters":20800,"station_id":"ce4bhqp2rcd13ifvqhng","pricing_plan_id":"cebpf4jnsgd1na2vs0mg"},{"bike_id":"3829e722-981d-4be5-9eba-ad76adb6eca0","system_id":"levelo_inurba_marseille","lat":43.317557,"lon":5.390173,"is_reserved":false,"is_disabled":false,"rental_uris":{"android":"levelo://app?vid=3829e722-981d-4be5-9eba-ad76adb6eca0","ios":"levelo://app?vid=3829e722-981d-4be5-9eba-ad76adb6eca0"},"vehicle_type_id":"4","last_reported":1721097263,"current_range_meters":27200,"station_id":"ce4bhqp2rcd13ifvqhng","pricing_plan_id":"cebpf4jnsgd1na2vs0mg"},{"bike_id":"4663f8c1-5898-4a2e-a0e4-ab131bcc2440","system_id":"levelo_inurba_marseille","lat":43.3176,"lon":5.39022,"is_reserved":false,"is_disabled":false,"rental_uris":{"android":"levelo://app?vid=4663f8c1-5898-4a2e-a0e4-ab131bcc2440","ios":"levelo://app?vid=4663f8c1-5898-4a2e-a0e4-ab131bcc2440"},"vehicle_type_id":"4","last_reported":1721097263,"current_range_meters":29200,"station_id":"ce4bhqp2rcd13ifvqhng","pricing_plan_id":"cebpf4jnsgd1na2vs0mg"},{"bike_id":"8add3d49-eb9d-4357-9b6f-5c0420bcce5e","system_id":"levelo_inurba_marseille","lat":43.31756,"lon":5.39033,"is_reserved":false,"is_disabled":false,"rental_uris":{"android":"levelo://app?vid=8add3d49-eb9d-4357-9b6f-5c0420bcce5e","ios":"levelo://app?vid=8add3d49-eb9d-4357-9b6f-5c0420bcce5e"},"vehicle_type_id":"4","last_reported":1721097263,"current_range_meters":6400,"station_id":"ce4bhqp2rcd13ifvqhng","pricing_plan_id":"cebpf4jnsgd1na2vs0mg"},{"bike_id":"ec224a06-0602-42cb-b2ef-1ca516d9de87","system_id":"levelo_inurba_marseille","lat":43.298037,"lon":5.381066,"is_reserved":false,"is_disabled":false,"rental_uris":{"android":"levelo://app?vid=ec224a06-0602-42cb-b2ef-1ca516d9de87","ios":"levelo://app?vid=ec224a06-0602-42cb-b2ef-1ca516d9de87"},"vehicle_type_id":"4","last_reported":1721097263,"current_range_meters":19600,"station_id":"ce4bgip2rcd13ifvqbb0","pricing_plan_id":"cebpf4jnsgd1na2vs0mg"},{"bike_id":"8d958db8-172e-4471-b04b-74cd121b2b4d","system_id":"levelo_inurba_marseille","lat":43.304274,"lon":5.388873,"is_reserved":false,"is_disabled":false,"rental_uris":{"android":"levelo://app?vid=8d958db8-172e-4471-b04b-74cd121b2b4d","ios":"levelo://app?vid=8d958db8-172e-4471-b04b-74cd121b2b4d"},"vehicle_type_id":"4","last_reported":1721097263,"current_range_meters":26400,"station_id":"ce4bgk12rcd13ifvqbi0","pricing_plan_id":"cebpf4jnsgd1na2vs0mg"},{"bike_id":"96dfa67a-75b3-4e40-a7cf-ce2020f4addc","system_id":"levelo_inurba_marseille","lat":43.304274,"lon":5.388873,"is_reserved":false,"is_disabled":false,"rental_uris":{"android":"levelo://app?vid=96dfa67a-75b3-4e40-a7cf-ce2020f4addc","ios":"levelo://app?vid=96dfa67a-75b3-4e40-a7cf-ce2020f4addc"},"vehicle_type_id":"4","last_reported":1721097263,"current_range_meters":24400,"station_id":"ce4bgk12rcd13ifvqbi0","pricing_plan_id":"cebpf4jnsgd1na2vs0mg"},{"bike_id":"d600f613-c810-4a82-b767-832934c0fe4a","system_id":"levelo_inurba_marseille","lat":43.304274,"lon":5.388873,"is_reserved":false,"is_disabled":false,"rental_uris":{"android":"levelo://app?vid=d600f613-c810-4a82-b767-832934c0fe4a","ios":"levelo://app?vid=d600f613-c810-4a82-b767-832934c0fe4a"},"vehicle_type_id":"4","last_reported":1721097263,"current_range_meters":20400,"station_id":"ce4bgk12rcd13ifvqbi0","pricing_plan_id":"cebpf4jnsgd1na2vs0mg"},{"bike_id":"285a4959-2787-424e-9db1-fe24277cb41a","system_id":"levelo_inurba_marseille","lat":43.304274,"lon":5.388873,"is_reserved":false,"is_disabled":false,"rental_uris":{"android":"levelo://app?vid=285a4959-2787-424e-9db1-fe24277cb41a","ios":"levelo://app?vid=285a4959-2787-424e-9db1-fe24277cb41a"},"vehicle_type_id":"4","last_reported":1721097263,"current_range_meters":12400,"station_id":"ce4bgk12rcd13ifvqbi0","pricing_plan_id":"cebpf4jnsgd1na2vs0mg"},{"bike_id":"cc856544-63d2-456d-8d04-7216effc2ce8","system_id":"levelo_inurba_marseille","lat":43.304278,"lon":5.388868,"is_reserved":false,"is_disabled":false,"rental_uris":{"android":"levelo://app?vid=cc856544-63d2-456d-8d04-7216effc2ce8","ios":"levelo://app?vid=cc856544-63d2-456d-8d04-7216effc2ce8"},"vehicle_type_id":"4","last_reported":1721097263,"current_range_meters":30000,"station_id":"ce4bgk12rcd13ifvqbi0","pricing_plan_id":"cebpf4jnsgd1na2vs0mg"},{"bike_id":"761f7303-259c-432d-beb3-ecd8ee51ed9d","system_id":"levelo_inurba_marseille","lat":43.304274,"lon":5.388873,"is_reserved":false,"is_disabled":false,"rental_uris":{"android":"levelo://app?vid=761f7303-259c-432d-beb3-ecd8ee51ed9d","ios":"levelo://app?vid=761f7303-259c-432d-beb3-ecd8ee51ed9d"},"vehicle_type_id":"4","last_reported":1721097263,"current_range_meters":6000,"station_id":"ce4bgk12rcd13ifvqbi0","pricing_plan_id":"cebpf4jnsgd1na2vs0mg"},{"bike_id":"212faba3-05d9-43a2-b49b-ecd0e1f7b27a","system_id":"levelo_inurba_marseille","lat":43.304278,"lon":5.388868,"is_reserved":false,"is_disabled":false,"rental_uris":{"android":"levelo://app?vid=212faba3-05d9-43a2-b49b-ecd0e1f7b27a","ios":"levelo://app?vid=212faba3-05d9-43a2-b49b-ecd0e1f7b27a"},"vehicle_type_id":"4","last_reported":1721097263,"current_range_meters":31200,"station_id":"ce4bgk12rcd13ifvqbi0","pricing_plan_id":"cebpf4jnsgd1na2vs0mg"},{"bike_id":"c58d9cdb-ba76-44a5-a0f3-c5ad6922fd36","system_id":"levelo_inurba_marseille","lat":43.299717,"lon":5.384845,"is_reserved":false,"is_disabled":false,"rental_uris":{"android":"levelo://app?vid=c58d9cdb-ba76-44a5-a0f3-c5ad6922fd36","ios":"levelo://app?vid=c58d9cdb-ba76-44a5-a0f3-c5ad6922fd36"},"vehicle_type_id":"4","last_reported":1721097263,"current_range_meters":8400,"station_id":"ce4bgj92rcd13ifvqbd0","pricing_plan_id":"cebpf4jnsgd1na2vs0mg"},{"bike_id":"239e0100-b84f-4d5b-85c7-945abfb4d8fa","system_id":"levelo_inurba_marseille","lat":43.29553,"lon":5.37723,"is_reserved":false,"is_disabled":false,"rental_uris":{"android":"levelo://app?vid=239e0100-b84f-4d5b-85c7-945abfb4d8fa","ios":"levelo://app?vid=239e0100-b84f-4d5b-85c7-945abfb4d8fa"},"vehicle_type_id":"4","last_reported":1721097263,"current_range_meters":7600,"station_id":"","pricing_plan_id":"cebpf4jnsgd1na2vs0mg"},{"bike_id":"bd8335ce-ce7a-4f7f-8c35-9fd817f3eb6a","system_id":"levelo_inurba_marseille","lat":43.32363,"lon":5.38883,"is_reserved":false,"is_disabled":false,"rental_uris":{"android":"levelo://app?vid=bd8335ce-ce7a-4f7f-8c35-9fd817f3eb6a","ios":"levelo://app?vid=bd8335ce-ce7a-4f7f-8c35-9fd817f3eb6a"},"vehicle_type_id":"4","last_reported":1721097263,"current_range_meters":30000,"station_id":"ce4bhqp2rcd13ifvqhog","pricing_plan_id":"cebpf4jnsgd1na2vs0mg"},{"bike_id":"e548bb99-2451-4ed6-a8a2-2bd139b86511","system_id":"levelo_inurba_marseille","lat":43.32367,"lon":5.388836,"is_reserved":false,"is_disabled":false,"rental_uris":{"android":"levelo://app?vid=e548bb99-2451-4ed6-a8a2-2bd139b86511","ios":"levelo://app?vid=e548bb99-2451-4ed6-a8a2-2bd139b86511"},"vehicle_type_id":"4","last_reported":1721097263,"current_range_meters":30800,"station_id":"ce4bhqp2rcd13ifvqhog","pricing_plan_id":"cebpf4jnsgd1na2vs0mg"},{"bike_id":"7df6c00c-a701-40b1-9d28-fcdf635a8ac3","system_id":"levelo_inurba_marseille","lat":43.32367,"lon":5.388836,"is_reserved":false,"is_disabled":false,"rental_uris":{"android":"levelo://app?vid=7df6c00c-a701-40b1-9d28-fcdf635a8ac3","ios":"levelo://app?vid=7df6c00c-a701-40b1-9d28-fcdf635a8ac3"},"vehicle_type_id":"4","last_reported":1721097263,"current_range_meters":30800,"station_id":"ce4bhqp2rcd13ifvqhog","pricing_plan_id":"cebpf4jnsgd1na2vs0mg"},{"bike_id":"550af3a8-d87c-4a30-83c8-7de2b6ceb888","system_id":"levelo_inurba_marseille","lat":43.32367,"lon":5.388836,"is_reserved":false,"is_disabled":false,"rental_uris":{"android":"levelo://app?vid=550af3a8-d87c-4a30-83c8-7de2b6ceb888","ios":"levelo://app?vid=550af3a8-d87c-4a30-83c8-7de2b6ceb888"},"vehicle_type_id":"4","last_reported":1721097263,"current_range_meters":30800,"station_id":"ce4bhqp2rcd13ifvqhog","pricing_plan_id":"cebpf4jnsgd1na2vs0mg"},{"bike_id":"e971135c-c4ad-4d15-a60d-ce9efc23f60c","system_id":"levelo_inurba_marseille","lat":43.32367,"lon":5.388836,"is_reserved":false,"is_disabled":false,"rental_uris":{"android":"levelo://app?vid=e971135c-c4ad-4d15-a60d-ce9efc23f60c","ios":"levelo://app?vid=e971135c-c4ad-4d15-a60d-ce9efc23f60c"},"vehicle_type_id":"4","last_reported":1721097263,"current_range_meters":31200,"station_id":"ce4bhqp2rcd13ifvqhog","pricing_plan_id":"cebpf4jnsgd1na2vs0mg"},{"bike_id":"b867e9c5-8d7d-4a65-938b-639f66e7ca80","system_id":"levelo_inurba_marseille","lat":43.29602,"lon":5.381084,"is_reserved":false,"is_disabled":false,"rental_uris":{"android":"levelo://app?vid=b867e9c5-8d7d-4a65-938b-639f66e7ca80","ios":"levelo://app?vid=b867e9c5-8d7d-4a65-938b-639f66e7ca80"},"vehicle_type_id":"4","last_reported":1721097263,"current_range_meters":24800,"station_id":"ce4bgl12rcd13ifvqbo0","pricing_plan_id":"cebpf4jnsgd1na2vs0mg"},{"bike_id":"0fa7c678-0145-4eec-bd25-8ca281a6ea4f","system_id":"levelo_inurba_marseille","lat":43.292749,"lon":5.368402,"is_reserved":false,"is_disabled":false,"rental_uris":{"android":"levelo://app?vid=0fa7c678-0145-4eec-bd25-8ca281a6ea4f","ios":"levelo://app?vid=0fa7c678-0145-4eec-bd25-8ca281a6ea4f"},"vehicle_type_id":"4","last_reported":1721097263,"current_range_meters":24800,"station_id":"ce4bhbp2rcd13ifvqesg","pricing_plan_id":"cebpf4jnsgd1na2vs0mg"},{"bike_id":"647dd0ce-3396-4f08-b16a-4676e7db3c5a","system_id":"levelo_inurba_marseille","lat":43.293259,"lon":5.371586,"is_reserved":false,"is_disabled":false,"rental_uris":{"android":"levelo://app?vid=647dd0ce-3396-4f08-b16a-4676e7db3c5a","ios":"levelo://app?vid=647dd0ce-3396-4f08-b16a-4676e7db3c5a"},"vehicle_type_id":"4","last_reported":1721097263,"current_range_meters":29600,"station_id":"ce4bgh92rcd13ifvqb40","pricing_plan_id":"cebpf4jnsgd1na2vs0mg"},{"bike_id":"2ee21ace-dd4d-4142-9167-fb97341f5b78","system_id":"levelo_inurba_marseille","lat":43.292749,"lon":5.368402,"is_reserved":false,"is_disabled":false,"rental_uris":{"android":"levelo://app?vid=2ee21ace-dd4d-4142-9167-fb97341f5b78","ios":"levelo://app?vid=2ee21ace-dd4d-4142-9167-fb97341f5b78"},"vehicle_type_id":"4","last_reported":1721097263,"current_range_meters":26000,"station_id":"ce4bhbp2rcd13ifvqesg","pricing_plan_id":"cebpf4jnsgd1na2vs0mg"},{"bike_id":"6cc42c03-c840-43f0-9072-cdf004db71d2","system_id":"levelo_inurba_marseille","lat":43.292749,"lon":5.368402,"is_reserved":false,"is_disabled":false,"rental_uris":{"android":"levelo://app?vid=6cc42c03-c840-43f0-9072-cdf004db71d2","ios":"levelo://app?vid=6cc42c03-c840-43f0-9072-cdf004db71d2"},"vehicle_type_id":"4","last_reported":1721097263,"current_range_meters":9600,"station_id":"ce4bhbp2rcd13ifvqesg","pricing_plan_id":"cebpf4jnsgd1na2vs0mg"},{"bike_id":"590324dc-eb70-4e16-80d0-1e9e5b5e6b99","system_id":"levelo_inurba_marseille","lat":43.292749,"lon":5.368402,"is_reserved":false,"is_disabled":false,"rental_uris":{"android":"levelo://app?vid=590324dc-eb70-4e16-80d0-1e9e5b5e6b99","ios":"levelo://app?vid=590324dc-eb70-4e16-80d0-1e9e5b5e6b99"},"vehicle_type_id":"4","last_reported":1721097263,"current_range_meters":22800,"station_id":"ce4bhbp2rcd13ifvqesg","pricing_plan_id":"cebpf4jnsgd1na2vs0mg"},{"bike_id":"90a54896-0560-441a-9eac-7422e5fef75d","system_id":"levelo_inurba_marseille","lat":43.305994,"lon":5.393687,"is_reserved":false,"is_disabled":false,"rental_uris":{"android":"levelo://app?vid=90a54896-0560-441a-9eac-7422e5fef75d","ios":"levelo://app?vid=90a54896-0560-441a-9eac-7422e5fef75d"},"vehicle_type_id":"4","last_reported":1721097263,"current_range_meters":27200,"station_id":"ce4bh0p2rcd13ifvqd80","pricing_plan_id":"cebpf4jnsgd1na2vs0mg"},{"bike_id":"b64c7c1e-df4a-4d57-bec7-843ecefd84df","system_id":"levelo_inurba_marseille","lat":43.305994,"lon":5.393687,"is_reserved":false,"is_disabled":false,"rental_uris":{"android":"levelo://app?vid=b64c7c1e-df4a-4d57-bec7-843ecefd84df","ios":"levelo://app?vid=b64c7c1e-df4a-4d57-bec7-843ecefd84df"},"vehicle_type_id":"4","last_reported":1721097263,"current_range_meters":19600,"station_id":"ce4bh0p2rcd13ifvqd80","pricing_plan_id":"cebpf4jnsgd1na2vs0mg"},{"bike_id":"dc551221-c237-4a1b-9c4e-ec6f0b5c8fa4","system_id":"levelo_inurba_marseille","lat":43.305985,"lon":5.393586,"is_reserved":false,"is_disabled":false,"rental_uris":{"android":"levelo://app?vid=dc551221-c237-4a1b-9c4e-ec6f0b5c8fa4","ios":"levelo://app?vid=dc551221-c237-4a1b-9c4e-ec6f0b5c8fa4"},"vehicle_type_id":"4","last_reported":1721097263,"current_range_meters":16400,"station_id":"ce4bh0p2rcd13ifvqd80","pricing_plan_id":"cebpf4jnsgd1na2vs0mg"},{"bike_id":"d28b1918-e34b-4ff9-bae8-77ffd4af424d","system_id":"levelo_inurba_marseille","lat":43.305994,"lon":5.393687,"is_reserved":false,"is_disabled":false,"rental_uris":{"android":"levelo://app?vid=d28b1918-e34b-4ff9-bae8-77ffd4af424d","ios":"levelo://app?vid=d28b1918-e34b-4ff9-bae8-77ffd4af424d"},"vehicle_type_id":"4","last_reported":1721097263,"current_range_meters":10800,"station_id":"ce4bh0p2rcd13ifvqd80","pricing_plan_id":"cebpf4jnsgd1na2vs0mg"},{"bike_id":"85aecc78-4150-445a-be4b-0ba22eaa04cd","system_id":"levelo_inurba_marseille","lat":43.305994,"lon":5.393687,"is_reserved":false,"is_disabled":false,"rental_uris":{"android":"levelo://app?vid=85aecc78-4150-445a-be4b-0ba22eaa04cd","ios":"levelo://app?vid=85aecc78-4150-445a-be4b-0ba22eaa04cd"},"vehicle_type_id":"4","last_reported":1721097263,"current_range_meters":17600,"station_id":"ce4bh0p2rcd13ifvqd80","pricing_plan_id":"cebpf4jnsgd1na2vs0mg"},{"bike_id":"72183b87-253a-4a63-8154-3a05ecf13ea1","system_id":"levelo_inurba_marseille","lat":43.303002,"lon":5.392142,"is_reserved":false,"is_disabled":false,"rental_uris":{"android":"levelo://app?vid=72183b87-253a-4a63-8154-3a05ecf13ea1","ios":"levelo://app?vid=72183b87-253a-4a63-8154-3a05ecf13ea1"},"vehicle_type_id":"4","last_reported":1721097263,"current_range_meters":18800,"station_id":"ce4bgkh2rcd13ifvqbk0","pricing_plan_id":"cebpf4jnsgd1na2vs0mg"},{"bike_id":"dc96e1f7-089b-4876-9dc9-9bef66320880","system_id":"levelo_inurba_marseille","lat":43.2936,"lon":5.37835,"is_reserved":false,"is_disabled":false,"rental_uris":{"android":"levelo://app?vid=dc96e1f7-089b-4876-9dc9-9bef66320880","ios":"levelo://app?vid=dc96e1f7-089b-4876-9dc9-9bef66320880"},"vehicle_type_id":"4","last_reported":1721097263,"current_range_meters":26800,"station_id":"ce4bgjh2rcd13ifvqbf0","pricing_plan_id":"cebpf4jnsgd1na2vs0mg"},{"bike_id":"cc1b7c3a-7dc9-4ac9-b445-d8e97449f262","system_id":"levelo_inurba_marseille","lat":43.303002,"lon":5.392142,"is_reserved":false,"is_disabled":false,"rental_uris":{"android":"levelo://app?vid=cc1b7c3a-7dc9-4ac9-b445-d8e97449f262","ios":"levelo://app?vid=cc1b7c3a-7dc9-4ac9-b445-d8e97449f262"},"vehicle_type_id":"4","last_reported":1721097263,"current_range_meters":11600,"station_id":"ce4bgkh2rcd13ifvqbk0","pricing_plan_id":"cebpf4jnsgd1na2vs0mg"},{"bike_id":"9452bd7d-7341-4e61-88fe-3ac608a5dfc0","system_id":"levelo_inurba_marseille","lat":43.302992,"lon":5.392136,"is_reserved":false,"is_disabled":false,"rental_uris":{"android":"levelo://app?vid=9452bd7d-7341-4e61-88fe-3ac608a5dfc0","ios":"levelo://app?vid=9452bd7d-7341-4e61-88fe-3ac608a5dfc0"},"vehicle_type_id":"4","last_reported":1721097263,"current_range_meters":31200,"station_id":"ce4bgkh2rcd13ifvqbk0","pricing_plan_id":"cebpf4jnsgd1na2vs0mg"},{"bike_id":"085f9c36-1ac9-4a06-affb-d65bc38a8659","system_id":"levelo_inurba_marseille","lat":43.300852,"lon":5.390859,"is_reserved":false,"is_disabled":false,"rental_uris":{"android":"levelo://app?vid=085f9c36-1ac9-4a06-affb-d65bc38a8659","ios":"levelo://app?vid=085f9c36-1ac9-4a06-affb-d65bc38a8659"},"vehicle_type_id":"4","last_reported":1721097263,"current_range_meters":21200,"station_id":"ce4bh192rcd13ifvqdb0","pricing_plan_id":"cebpf4jnsgd1na2vs0mg"},{"bike_id":"61165eb7-e6a1-49e8-8238-85691aa3b791","system_id":"levelo_inurba_marseille","lat":43.30085,"lon":5.390856,"is_reserved":false,"is_disabled":false,"rental_uris":{"android":"levelo://app?vid=61165eb7-e6a1-49e8-8238-85691aa3b791","ios":"levelo://app?vid=61165eb7-e6a1-49e8-8238-85691aa3b791"},"vehicle_type_id":"4","last_reported":1721097263,"current_range_meters":31200,"station_id":"ce4bh192rcd13ifvqdb0","pricing_plan_id":"cebpf4jnsgd1na2vs0mg"},{"bike_id":"1f580630-281f-4934-88e6-2a0d48fa364f","system_id":"levelo_inurba_marseille","lat":43.30085,"lon":5.390856,"is_reserved":false,"is_disabled":false,"rental_uris":{"android":"levelo://app?vid=1f580630-281f-4934-88e6-2a0d48fa364f","ios":"levelo://app?vid=1f580630-281f-4934-88e6-2a0d48fa364f"},"vehicle_type_id":"4","last_reported":1721097263,"current_range_meters":10800,"station_id":"ce4bh192rcd13ifvqdb0","pricing_plan_id":"cebpf4jnsgd1na2vs0mg"},{"bike_id":"124c20f8-4a9d-46bd-9aad-6753a4dbb826","system_id":"levelo_inurba_marseille","lat":43.300852,"lon":5.390859,"is_reserved":false,"is_disabled":false,"rental_uris":{"android":"levelo://app?vid=124c20f8-4a9d-46bd-9aad-6753a4dbb826","ios":"levelo://app?vid=124c20f8-4a9d-46bd-9aad-6753a4dbb826"},"vehicle_type_id":"4","last_reported":1721097263,"current_range_meters":24000,"station_id":"ce4bh192rcd13ifvqdb0","pricing_plan_id":"cebpf4jnsgd1na2vs0mg"},{"bike_id":"171ce34d-d21a-4c5a-8003-a90a6d1dbdb9","system_id":"levelo_inurba_marseille","lat":43.30085,"lon":5.390856,"is_reserved":false,"is_disabled":false,"rental_uris":{"android":"levelo://app?vid=171ce34d-d21a-4c5a-8003-a90a6d1dbdb9","ios":"levelo://app?vid=171ce34d-d21a-4c5a-8003-a90a6d1dbdb9"},"vehicle_type_id":"4","last_reported":1721097263,"current_range_meters":16400,"station_id":"ce4bh192rcd13ifvqdb0","pricing_plan_id":"cebpf4jnsgd1na2vs0mg"},{"bike_id":"2274ce3d-5383-482a-a76e-da9b3663b7d2","system_id":"levelo_inurba_marseille","lat":43.30085,"lon":5.390856,"is_reserved":false,"is_disabled":false,"rental_uris":{"android":"levelo://app?vid=2274ce3d-5383-482a-a76e-da9b3663b7d2","ios":"levelo://app?vid=2274ce3d-5383-482a-a76e-da9b3663b7d2"},"vehicle_type_id":"4","last_reported":1721097263,"current_range_meters":30400,"station_id":"ce4bh192rcd13ifvqdb0","pricing_plan_id":"cebpf4jnsgd1na2vs0mg"},{"bike_id":"2dc1aa96-6a49-4795-ad4f-bcea7db2e530","system_id":"levelo_inurba_marseille","lat":43.292311,"lon":5.360731,"is_reserved":false,"is_disabled":false,"rental_uris":{"android":"levelo://app?vid=2dc1aa96-6a49-4795-ad4f-bcea7db2e530","ios":"levelo://app?vid=2dc1aa96-6a49-4795-ad4f-bcea7db2e530"},"vehicle_type_id":"4","last_reported":1721097263,"current_range_meters":1200,"station_id":"ce4bhbh2rcd13ifvqeqg","pricing_plan_id":"cebpf4jnsgd1na2vs0mg"},{"bike_id":"82ae0eec-4054-4771-919e-52c96cfc89e6","system_id":"levelo_inurba_marseille","lat":43.291675,"lon":5.371583,"is_reserved":false,"is_disabled":false,"rental_uris":{"android":"levelo://app?vid=82ae0eec-4054-4771-919e-52c96cfc89e6","ios":"levelo://app?vid=82ae0eec-4054-4771-919e-52c96cfc89e6"},"vehicle_type_id":"4","last_reported":1721097263,"current_range_meters":29200,"station_id":"ce4bha92rcd13ifvqeh0","pricing_plan_id":"cebpf4jnsgd1na2vs0mg"},{"bike_id":"f4915f57-9778-4614-b561-6e7af0d93ca2","system_id":"levelo_inurba_marseille","lat":43.298764,"lon":5.388973,"is_reserved":false,"is_disabled":false,"rental_uris":{"android":"levelo://app?vid=f4915f57-9778-4614-b561-6e7af0d93ca2","ios":"levelo://app?vid=f4915f57-9778-4614-b561-6e7af0d93ca2"},"vehicle_type_id":"4","last_reported":1721097263,"current_range_meters":29200,"station_id":"ce4bh392rcd13ifvqdl0","pricing_plan_id":"cebpf4jnsgd1na2vs0mg"},{"bike_id":"6a43d500-5805-4c4d-a71a-aba69d423610","system_id":"levelo_inurba_marseille","lat":43.2987,"lon":5.389107,"is_reserved":false,"is_disabled":false,"rental_uris":{"android":"levelo://app?vid=6a43d500-5805-4c4d-a71a-aba69d423610","ios":"levelo://app?vid=6a43d500-5805-4c4d-a71a-aba69d423610"},"vehicle_type_id":"4","last_reported":1721097263,"current_range_meters":28000,"station_id":"ce4bh392rcd13ifvqdl0","pricing_plan_id":"cebpf4jnsgd1na2vs0mg"},{"bike_id":"004462bb-f5fb-442b-9b82-26f6093c53fd","system_id":"levelo_inurba_marseille","lat":43.29233,"lon":5.37638,"is_reserved":false,"is_disabled":false,"rental_uris":{"android":"levelo://app?vid=004462bb-f5fb-442b-9b82-26f6093c53fd","ios":"levelo://app?vid=004462bb-f5fb-442b-9b82-26f6093c53fd"},"vehicle_type_id":"4","last_reported":1721097263,"current_range_meters":26000,"station_id":"ce4bgi12rcd13ifvqb80","pricing_plan_id":"cebpf4jnsgd1na2vs0mg"},{"bike_id":"4fb44b51-6f77-49bf-9b99-45a5414ee471","system_id":"levelo_inurba_marseille","lat":43.308903,"lon":5.396216,"is_reserved":false,"is_disabled":false,"rental_uris":{"android":"levelo://app?vid=4fb44b51-6f77-49bf-9b99-45a5414ee471","ios":"levelo://app?vid=4fb44b51-6f77-49bf-9b99-45a5414ee471"},"vehicle_type_id":"4","last_reported":1721097263,"current_range_meters":20400,"station_id":"ce4bh012rcd13ifvqcv0","pricing_plan_id":"cebpf4jnsgd1na2vs0mg"},{"bike_id":"104a4ac4-6c08-4caf-816d-3c4e1693364b","system_id":"levelo_inurba_marseille","lat":43.308727,"lon":5.396285,"is_reserved":false,"is_disabled":false,"rental_uris":{"android":"levelo://app?vid=104a4ac4-6c08-4caf-816d-3c4e1693364b","ios":"levelo://app?vid=104a4ac4-6c08-4caf-816d-3c4e1693364b"},"vehicle_type_id":"4","last_reported":1721097263,"current_range_meters":29200,"station_id":"ce4bh012rcd13ifvqcv0","pricing_plan_id":"cebpf4jnsgd1na2vs0mg"},{"bike_id":"698cb30f-9942-48cc-b19b-90bf2537b4e6","system_id":"levelo_inurba_marseille","lat":43.308841,"lon":5.396365,"is_reserved":false,"is_disabled":false,"rental_uris":{"android":"levelo://app?vid=698cb30f-9942-48cc-b19b-90bf2537b4e6","ios":"levelo://app?vid=698cb30f-9942-48cc-b19b-90bf2537b4e6"},"vehicle_type_id":"4","last_reported":1721097263,"current_range_meters":8000,"station_id":"ce4bh012rcd13ifvqcv0","pricing_plan_id":"cebpf4jnsgd1na2vs0mg"},{"bike_id":"967ce508-55dc-4ac2-92bc-68b244007e65","system_id":"levelo_inurba_marseille","lat":43.30885,"lon":5.39638,"is_reserved":false,"is_disabled":false,"rental_uris":{"android":"levelo://app?vid=967ce508-55dc-4ac2-92bc-68b244007e65","ios":"levelo://app?vid=967ce508-55dc-4ac2-92bc-68b244007e65"},"vehicle_type_id":"4","last_reported":1721097263,"current_range_meters":24000,"station_id":"ce4bh012rcd13ifvqcv0","pricing_plan_id":"cebpf4jnsgd1na2vs0mg"},{"bike_id":"37a7e664-5481-4f93-9945-d1961a02ea43","system_id":"levelo_inurba_marseille","lat":43.31329,"lon":5.39689,"is_reserved":false,"is_disabled":false,"rental_uris":{"android":"levelo://app?vid=37a7e664-5481-4f93-9945-d1961a02ea43","ios":"levelo://app?vid=37a7e664-5481-4f93-9945-d1961a02ea43"},"vehicle_type_id":"4","last_reported":1721097263,"current_range_meters":6800,"station_id":"ce4bgvp2rcd13ifvqcu0","pricing_plan_id":"cebpf4jnsgd1na2vs0mg"},{"bike_id":"f4cb58ef-b92c-4b77-9265-d854d1ac1c15","system_id":"levelo_inurba_marseille","lat":43.309047,"lon":5.396551,"is_reserved":false,"is_disabled":false,"rental_uris":{"android":"levelo://app?vid=f4cb58ef-b92c-4b77-9265-d854d1ac1c15","ios":"levelo://app?vid=f4cb58ef-b92c-4b77-9265-d854d1ac1c15"},"vehicle_type_id":"4","last_reported":1721097263,"current_range_meters":31600,"station_id":"ce4bh012rcd13ifvqcv0","pricing_plan_id":"cebpf4jnsgd1na2vs0mg"},{"bike_id":"2154a989-cc0d-4d85-80a5-b9bb25934103","system_id":"levelo_inurba_marseille","lat":43.309038,"lon":5.396546,"is_reserved":false,"is_disabled":false,"rental_uris":{"android":"levelo://app?vid=2154a989-cc0d-4d85-80a5-b9bb25934103","ios":"levelo://app?vid=2154a989-cc0d-4d85-80a5-b9bb25934103"},"vehicle_type_id":"4","last_reported":1721097263,"current_range_meters":32000,"station_id":"ce4bh012rcd13ifvqcv0","pricing_plan_id":"cebpf4jnsgd1na2vs0mg"},{"bike_id":"bfabd9d4-9dbf-49f1-b31d-143a21fd61d7","system_id":"levelo_inurba_marseille","lat":43.30881,"lon":5.396419,"is_reserved":false,"is_disabled":false,"rental_uris":{"android":"levelo://app?vid=bfabd9d4-9dbf-49f1-b31d-143a21fd61d7","ios":"levelo://app?vid=bfabd9d4-9dbf-49f1-b31d-143a21fd61d7"},"vehicle_type_id":"4","last_reported":1721097263,"current_range_meters":30800,"station_id":"ce4bh012rcd13ifvqcv0","pricing_plan_id":"cebpf4jnsgd1na2vs0mg"},{"bike_id":"23a5c049-faf7-41a3-a1b2-cf0773576bbb","system_id":"levelo_inurba_marseille","lat":43.308838,"lon":5.396429,"is_reserved":false,"is_disabled":false,"rental_uris":{"android":"levelo://app?vid=23a5c049-faf7-41a3-a1b2-cf0773576bbb","ios":"levelo://app?vid=23a5c049-faf7-41a3-a1b2-cf0773576bbb"},"vehicle_type_id":"4","last_reported":1721097263,"current_range_meters":1600,"station_id":"ce4bh012rcd13ifvqcv0","pricing_plan_id":"cebpf4jnsgd1na2vs0mg"},{"bike_id":"9c207268-727b-4232-b428-bffbad0f30ef","system_id":"levelo_inurba_marseille","lat":43.309038,"lon":5.396546,"is_reserved":false,"is_disabled":false,"rental_uris":{"android":"levelo://app?vid=9c207268-727b-4232-b428-bffbad0f30ef","ios":"levelo://app?vid=9c207268-727b-4232-b428-bffbad0f30ef"},"vehicle_type_id":"4","last_reported":1721097263,"current_range_meters":30800,"station_id":"ce4bh012rcd13ifvqcv0","pricing_plan_id":"cebpf4jnsgd1na2vs0mg"},{"bike_id":"02eb45c4-e1b5-4763-b465-e856ca7464b5","system_id":"levelo_inurba_marseille","lat":43.309038,"lon":5.396546,"is_reserved":false,"is_disabled":false,"rental_uris":{"android":"levelo://app?vid=02eb45c4-e1b5-4763-b465-e856ca7464b5","ios":"levelo://app?vid=02eb45c4-e1b5-4763-b465-e856ca7464b5"},"vehicle_type_id":"4","last_reported":1721097263,"current_range_meters":0,"station_id":"ce4bh012rcd13ifvqcv0","pricing_plan_id":"cebpf4jnsgd1na2vs0mg"},{"bike_id":"7be13641-09d4-457a-b8c2-d6b3a008df69","system_id":"levelo_inurba_marseille","lat":43.313243,"lon":5.396916,"is_reserved":false,"is_disabled":false,"rental_uris":{"android":"levelo://app?vid=7be13641-09d4-457a-b8c2-d6b3a008df69","ios":"levelo://app?vid=7be13641-09d4-457a-b8c2-d6b3a008df69"},"vehicle_type_id":"4","last_reported":1721097263,"current_range_meters":0,"station_id":"ce4bgvp2rcd13ifvqcu0","pricing_plan_id":"cebpf4jnsgd1na2vs0mg"},{"bike_id":"fd7e9e54-86d1-4c0e-9eb6-37c6edb6045f","system_id":"levelo_inurba_marseille","lat":43.313287,"lon":5.396916,"is_reserved":false,"is_disabled":false,"rental_uris":{"android":"levelo://app?vid=fd7e9e54-86d1-4c0e-9eb6-37c6edb6045f","ios":"levelo://app?vid=fd7e9e54-86d1-4c0e-9eb6-37c6edb6045f"},"vehicle_type_id":"4","last_reported":1721097263,"current_range_meters":5200,"station_id":"ce4bgvp2rcd13ifvqcu0","pricing_plan_id":"cebpf4jnsgd1na2vs0mg"},{"bike_id":"6f62c608-3bae-4623-aa5f-5e3d8b12d101","system_id":"levelo_inurba_marseille","lat":43.313291,"lon":5.396838,"is_reserved":false,"is_disabled":false,"rental_uris":{"android":"levelo://app?vid=6f62c608-3bae-4623-aa5f-5e3d8b12d101","ios":"levelo://app?vid=6f62c608-3bae-4623-aa5f-5e3d8b12d101"},"vehicle_type_id":"4","last_reported":1721097263,"current_range_meters":28400,"station_id":"ce4bgvp2rcd13ifvqcu0","pricing_plan_id":"cebpf4jnsgd1na2vs0mg"},{"bike_id":"bccef985-28e6-4ca3-ab2b-1446deea4b78","system_id":"levelo_inurba_marseille","lat":43.308842,"lon":5.396445,"is_reserved":false,"is_disabled":false,"rental_uris":{"android":"levelo://app?vid=bccef985-28e6-4ca3-ab2b-1446deea4b78","ios":"levelo://app?vid=bccef985-28e6-4ca3-ab2b-1446deea4b78"},"vehicle_type_id":"4","last_reported":1721097263,"current_range_meters":24800,"station_id":"","pricing_plan_id":"cebpf4jnsgd1na2vs0mg"},{"bike_id":"4ede3fd9-0f8c-4d92-a65d-a0102a05398c","system_id":"levelo_inurba_marseille","lat":43.313283,"lon":5.396924,"is_reserved":false,"is_disabled":false,"rental_uris":{"android":"levelo://app?vid=4ede3fd9-0f8c-4d92-a65d-a0102a05398c","ios":"levelo://app?vid=4ede3fd9-0f8c-4d92-a65d-a0102a05398c"},"vehicle_type_id":"4","last_reported":1721097263,"current_range_meters":23600,"station_id":"ce4bgvp2rcd13ifvqcu0","pricing_plan_id":"cebpf4jnsgd1na2vs0mg"},{"bike_id":"8c1f648c-b7e4-485c-8dc4-a6a969bd0951","system_id":"levelo_inurba_marseille","lat":43.309038,"lon":5.396546,"is_reserved":false,"is_disabled":false,"rental_uris":{"android":"levelo://app?vid=8c1f648c-b7e4-485c-8dc4-a6a969bd0951","ios":"levelo://app?vid=8c1f648c-b7e4-485c-8dc4-a6a969bd0951"},"vehicle_type_id":"4","last_reported":1721097263,"current_range_meters":31200,"station_id":"ce4bh012rcd13ifvqcv0","pricing_plan_id":"cebpf4jnsgd1na2vs0mg"},{"bike_id":"c72cecce-c1bc-4a37-ab5d-57911cde1d07","system_id":"levelo_inurba_marseille","lat":43.313272,"lon":5.396929,"is_reserved":false,"is_disabled":false,"rental_uris":{"android":"levelo://app?vid=c72cecce-c1bc-4a37-ab5d-57911cde1d07","ios":"levelo://app?vid=c72cecce-c1bc-4a37-ab5d-57911cde1d07"},"vehicle_type_id":"4","last_reported":1721097263,"current_range_meters":8800,"station_id":"ce4bgvp2rcd13ifvqcu0","pricing_plan_id":"cebpf4jnsgd1na2vs0mg"},{"bike_id":"d1834e08-a01a-404e-8d3a-05f5c48c1598","system_id":"levelo_inurba_marseille","lat":43.309038,"lon":5.396546,"is_reserved":false,"is_disabled":false,"rental_uris":{"android":"levelo://app?vid=d1834e08-a01a-404e-8d3a-05f5c48c1598","ios":"levelo://app?vid=d1834e08-a01a-404e-8d3a-05f5c48c1598"},"vehicle_type_id":"4","last_reported":1721097263,"current_range_meters":31600,"station_id":"ce4bh012rcd13ifvqcv0","pricing_plan_id":"cebpf4jnsgd1na2vs0mg"},{"bike_id":"a4a2aad7-942e-4e81-b5d0-685b4014624c","system_id":"levelo_inurba_marseille","lat":43.308844,"lon":5.396456,"is_reserved":false,"is_disabled":false,"rental_uris":{"android":"levelo://app?vid=a4a2aad7-942e-4e81-b5d0-685b4014624c","ios":"levelo://app?vid=a4a2aad7-942e-4e81-b5d0-685b4014624c"},"vehicle_type_id":"4","last_reported":1721097263,"current_range_meters":2400,"station_id":"ce4bh012rcd13ifvqcv0","pricing_plan_id":"cebpf4jnsgd1na2vs0mg"},{"bike_id":"e123f535-8ee2-4389-9e42-aedb46dcba55","system_id":"levelo_inurba_marseille","lat":43.308846,"lon":5.396476,"is_reserved":false,"is_disabled":false,"rental_uris":{"android":"levelo://app?vid=e123f535-8ee2-4389-9e42-aedb46dcba55","ios":"levelo://app?vid=e123f535-8ee2-4389-9e42-aedb46dcba55"},"vehicle_type_id":"4","last_reported":1721097263,"current_range_meters":29600,"station_id":"ce4bh012rcd13ifvqcv0","pricing_plan_id":"cebpf4jnsgd1na2vs0mg"},{"bike_id":"1b991b1a-888c-4fcf-bb18-ddca30d642e7","system_id":"levelo_inurba_marseille","lat":43.31331,"lon":5.39695,"is_reserved":false,"is_disabled":false,"rental_uris":{"android":"levelo://app?vid=1b991b1a-888c-4fcf-bb18-ddca30d642e7","ios":"levelo://app?vid=1b991b1a-888c-4fcf-bb18-ddca30d642e7"},"vehicle_type_id":"4","last_reported":1721097263,"current_range_meters":1600,"station_id":"ce4bgvp2rcd13ifvqcu0","pricing_plan_id":"cebpf4jnsgd1na2vs0mg"},{"bike_id":"d33af72b-54cf-41f7-a26c-1977ef9e41e4","system_id":"levelo_inurba_marseille","lat":43.31334,"lon":5.39695,"is_reserved":false,"is_disabled":false,"rental_uris":{"android":"levelo://app?vid=d33af72b-54cf-41f7-a26c-1977ef9e41e4","ios":"levelo://app?vid=d33af72b-54cf-41f7-a26c-1977ef9e41e4"},"vehicle_type_id":"4","last_reported":1721097263,"current_range_meters":12400,"station_id":"ce4bgvp2rcd13ifvqcu0","pricing_plan_id":"cebpf4jnsgd1na2vs0mg"},{"bike_id":"bc0c974c-38e1-4d8b-8d00-ceb1771ab1cf","system_id":"levelo_inurba_marseille","lat":43.309038,"lon":5.396546,"is_reserved":false,"is_disabled":false,"rental_uris":{"android":"levelo://app?vid=bc0c974c-38e1-4d8b-8d00-ceb1771ab1cf","ios":"levelo://app?vid=bc0c974c-38e1-4d8b-8d00-ceb1771ab1cf"},"vehicle_type_id":"4","last_reported":1721097263,"current_range_meters":19600,"station_id":"ce4bh012rcd13ifvqcv0","pricing_plan_id":"cebpf4jnsgd1na2vs0mg"},{"bike_id":"ab72602b-27cc-4f00-b0fd-ec6dad9e6451","system_id":"levelo_inurba_marseille","lat":43.309038,"lon":5.396546,"is_reserved":false,"is_disabled":false,"rental_uris":{"android":"levelo://app?vid=ab72602b-27cc-4f00-b0fd-ec6dad9e6451","ios":"levelo://app?vid=ab72602b-27cc-4f00-b0fd-ec6dad9e6451"},"vehicle_type_id":"4","last_reported":1721097263,"current_range_meters":31200,"station_id":"ce4bh012rcd13ifvqcv0","pricing_plan_id":"cebpf4jnsgd1na2vs0mg"},{"bike_id":"0143d4f8-8534-4317-9eb7-b31e6c7ee6b5","system_id":"levelo_inurba_marseille","lat":43.309038,"lon":5.396546,"is_reserved":false,"is_disabled":false,"rental_uris":{"android":"levelo://app?vid=0143d4f8-8534-4317-9eb7-b31e6c7ee6b5","ios":"levelo://app?vid=0143d4f8-8534-4317-9eb7-b31e6c7ee6b5"},"vehicle_type_id":"4","last_reported":1721097263,"current_range_meters":14400,"station_id":"ce4bh012rcd13ifvqcv0","pricing_plan_id":"cebpf4jnsgd1na2vs0mg"},{"bike_id":"7d58c90f-18e8-431e-a20b-2c0fa203c41a","system_id":"levelo_inurba_marseille","lat":43.31326,"lon":5.39698,"is_reserved":false,"is_disabled":false,"rental_uris":{"android":"levelo://app?vid=7d58c90f-18e8-431e-a20b-2c0fa203c41a","ios":"levelo://app?vid=7d58c90f-18e8-431e-a20b-2c0fa203c41a"},"vehicle_type_id":"4","last_reported":1721097263,"current_range_meters":9600,"station_id":"ce4bgvp2rcd13ifvqcu0","pricing_plan_id":"cebpf4jnsgd1na2vs0mg"},{"bike_id":"ce9fa89b-0808-4d8b-b14f-9135efcfa466","system_id":"levelo_inurba_marseille","lat":43.309038,"lon":5.396546,"is_reserved":false,"is_disabled":false,"rental_uris":{"android":"levelo://app?vid=ce9fa89b-0808-4d8b-b14f-9135efcfa466","ios":"levelo://app?vid=ce9fa89b-0808-4d8b-b14f-9135efcfa466"},"vehicle_type_id":"4","last_reported":1721097263,"current_range_meters":24000,"station_id":"ce4bh012rcd13ifvqcv0","pricing_plan_id":"cebpf4jnsgd1na2vs0mg"},{"bike_id":"b7fbeaaf-2a09-4e43-825f-c705aafab3e8","system_id":"levelo_inurba_marseille","lat":43.309038,"lon":5.396546,"is_reserved":false,"is_disabled":false,"rental_uris":{"android":"levelo://app?vid=b7fbeaaf-2a09-4e43-825f-c705aafab3e8","ios":"levelo://app?vid=b7fbeaaf-2a09-4e43-825f-c705aafab3e8"},"vehicle_type_id":"4","last_reported":1721097263,"current_range_meters":11600,"station_id":"ce4bh012rcd13ifvqcv0","pricing_plan_id":"cebpf4jnsgd1na2vs0mg"},{"bike_id":"f4356f1e-c080-49cb-b37f-5e15a4b1e6fd","system_id":"levelo_inurba_marseille","lat":43.313301,"lon":5.396999,"is_reserved":false,"is_disabled":false,"rental_uris":{"android":"levelo://app?vid=f4356f1e-c080-49cb-b37f-5e15a4b1e6fd","ios":"levelo://app?vid=f4356f1e-c080-49cb-b37f-5e15a4b1e6fd"},"vehicle_type_id":"4","last_reported":1721097263,"current_range_meters":15200,"station_id":"ce4bgvp2rcd13ifvqcu0","pricing_plan_id":"cebpf4jnsgd1na2vs0mg"},{"bike_id":"65030d18-15b3-48e1-b1ee-821af4016a92","system_id":"levelo_inurba_marseille","lat":43.309038,"lon":5.396546,"is_reserved":false,"is_disabled":false,"rental_uris":{"android":"levelo://app?vid=65030d18-15b3-48e1-b1ee-821af4016a92","ios":"levelo://app?vid=65030d18-15b3-48e1-b1ee-821af4016a92"},"vehicle_type_id":"4","last_reported":1721097263,"current_range_meters":14800,"station_id":"ce4bh012rcd13ifvqcv0","pricing_plan_id":"cebpf4jnsgd1na2vs0mg"},{"bike_id":"12432770-09d0-4745-a675-1a6b4c1344e2","system_id":"levelo_inurba_marseille","lat":43.309038,"lon":5.396546,"is_reserved":false,"is_disabled":false,"rental_uris":{"android":"levelo://app?vid=12432770-09d0-4745-a675-1a6b4c1344e2","ios":"levelo://app?vid=12432770-09d0-4745-a675-1a6b4c1344e2"},"vehicle_type_id":"4","last_reported":1721097263,"current_range_meters":21600,"station_id":"ce4bh012rcd13ifvqcv0","pricing_plan_id":"cebpf4jnsgd1na2vs0mg"},{"bike_id":"cedf6c75-92c5-4e29-add3-f4f1f6faa02c","system_id":"levelo_inurba_marseille","lat":43.31331,"lon":5.3972,"is_reserved":false,"is_disabled":false,"rental_uris":{"android":"levelo://app?vid=cedf6c75-92c5-4e29-add3-f4f1f6faa02c","ios":"levelo://app?vid=cedf6c75-92c5-4e29-add3-f4f1f6faa02c"},"vehicle_type_id":"4","last_reported":1721097263,"current_range_meters":15600,"station_id":"ce4bgvp2rcd13ifvqcu0","pricing_plan_id":"cebpf4jnsgd1na2vs0mg"},