{"last_updated":1738263998,"ttl":60,"version":"2.2","data":{"bikes":[{"bike_id":"56219279-1c5e-4efe-819b-8ac0b6caa470","system_id":"levelo_inurba_marseille","lat":43.30353,"lon":5.41869,"is_reserved":false,"is_disabled":false,"rental_uris":{"android":"levelo://app?vid=56219279-1c5e-4efe-819b-8ac0b6caa470","ios":"levelo://app?vid=56219279-1c5e-4efe-819b-8ac0b6caa470"},"vehicle_type_id":"4","last_reported":1738263998,"current_range_meters":39200,"station_id":"ce4bhop2rcd13ifvqh7g","pricing_plan_id":"cebpf4jnsgd1na2vs0mg"},{"bike_id":"0d72069c-12f4-4000-a8ca-84be6d2ccbcd","system_id":"levelo_inurba_marseille","lat":43.29864,"lon":5.36189,"is_reserved":false,"is_disabled":false,"rental_uris":{"android":"levelo://app?vid=0d72069c-12f4-4000-a8ca-84be6d2ccbcd","ios":"levelo://app?vid=0d72069c-12f4-4000-a8ca-84be6d2ccbcd"},"vehicle_type_id":"4","last_reported":1738263998,"current_range_meters":39200,"station_id":"ce4bgpp2rcd13ifvqc3g","pricing_plan_id":"cebpf4jnsgd1na2vs0mg"},{"bike_id":"31d85194-52b6-491a-8972-0a24f6ccd8d1","system_id":"levelo_inurba_marseille","lat":43.28456,"lon":5.3587,"is_reserved":false,"is_disabled":false,"rental_uris":{"android":"levelo://app?vid=31d85194-52b6-491a-8972-0a24f6ccd8d1","ios":"levelo://app?vid=31d85194-52b6-491a-8972-0a24f6ccd8d1"},"vehicle_type_id":"4","last_reported":1738263998,"current_range_meters":32800,"station_id":"ce4bhah2rcd13ifvqei0","pricing_plan_id":"cebpf4jnsgd1na2vs0mg"},{"bike_id":"9318d1b2-9ecf-46cb-80b7-4c5da1fb88a7","system_id":"levelo_inurba_marseille","lat":43.26775,"lon":5.39425,"is_reserved":false,"is_disabled":false,"rental_uris":{"android":"levelo://app?vid=9318d1b2-9ecf-46cb-80b7-4c5da1fb88a7","ios":"levelo://app?vid=9318d1b2-9ecf-46cb-80b7-4c5da1fb88a7"},"vehicle_type_id":"4","last_reported":1738263998,"current_range_meters":38800,"station_id":"ce4bhh12rcd13ifvqfg0","pricing_plan_id":"cebpf4jnsgd1na2vs0mg"},{"bike_id":"cb9d80aa-16db-41d4-803e-3ee5f31ea85e","system_id":"levelo_inurba_marseille","lat":43.30442,"lon":5.36523,"is_reserved":false,"is_disabled":false,"rental_uris":{"android":"levelo://app?vid=cb9d80aa-16db-41d4-803e-3ee5f31ea85e","ios":"levelo://app?vid=cb9d80aa-16db-41d4-803e-3ee5f31ea85e"},"vehicle_type_id":"4","last_reported":1738263998,"current_range_meters":38000,"station_id":"ce4bgs12rcd13ifvqcag","pricing_plan_id":"cebpf4jnsgd1na2vs0mg"},{"bike_id":"2d4740cb-6a71-4b1b-b8cc-957d982cc81f","system_id":"levelo_inurba_marseille","lat":43.279907,"lon":5.416635,"is_reserved":false,"is_disabled":false,"rental_uris":{"android":"levelo://app?vid=2d4740cb-6a71-4b1b-b8cc-957d982cc81f","ios":"levelo://app?vid=2d4740cb-6a71-4b1b-b8cc-957d982cc81f"},"vehicle_type_id":"4","last_reported":1738263998,"current_range_meters":17600,"station_id":"ce4bho12rcd13ifvqh1g","pricing_plan_id":"cebpf4jnsgd1na2vs0mg"},{"bike_id":"f585901b-e03f-4e75-ada2-2b9da652a0ed","system_id":"levelo_inurba_marseille","lat":43.29235,"lon":5.39265,"is_reserved":false,"is_disabled":false,"rental_uris":{"android":"levelo://app?vid=f585901b-e03f-4e75-ada2-2b9da652a0ed","ios":"levelo://app?vid=f585901b-e03f-4e75-ada2-2b9da652a0ed"},"vehicle_type_id":"4","last_reported":1738263998,"current_range_meters":26800,"station_id":"ce4bh312rcd13ifvqdj0","pricing_plan_id":"cebpf4jnsgd1na2vs0mg"},{"bike_id":"f7f8117f-03ef-415e-85c6-2eeaf165e4f2","system_id":"levelo_inurba_marseille","lat":43.26171,"lon":5.40451,"is_reserved":false,"is_disabled":true,"rental_uris":{"android":"levelo://app?vid=f7f8117f-03ef-415e-85c6-2eeaf165e4f2","ios":"levelo://app?vid=f7f8117f-03ef-415e-85c6-2eeaf165e4f2"},"vehicle_type_id":"4","last_reported":1738263998,"current_range_meters":24800,"station_id":"","pricing_plan_id":"cebpf4jnsgd1na2vs0mg"},{"bike_id":"76b57816-ff84-4ecb-88e6-16904dfc9a1a","system_id":"levelo_inurba_marseille","lat":43.29909,"lon":5.39744,"is_reserved":false,"is_disabled":false,"rental_uris":{"android":"levelo://app?vid=76b57816-ff84-4ecb-88e6-16904dfc9a1a","ios":"levelo://app?vid=76b57816-ff84-4ecb-88e6-16904dfc9a1a"},"vehicle_type_id":"4","last_reported":1738263998,"current_range_meters":39200,"station_id":"ce4bh0h2rcd13ifvqd50","pricing_plan_id":"cebpf4jnsgd1na2vs0mg"},{"bike_id":"b29776bc-bced-4494-b0b8-f1096e29c4f6","system_id":"levelo_inurba_marseille","lat":43.30392,"lon":5.36471,"is_reserved":false,"is_disabled":false,"rental_uris":{"android":"levelo://app?vid=b29776bc-bced-4494-b0b8-f1096e29c4f6","ios":"levelo://app?vid=b29776bc-bced-4494-b0b8-f1096e29c4f6"},"vehicle_type_id":"4","last_reported":1738263998,"current_range_meters":36800,"station_id":"","pricing_plan_id":"cebpf4jnsgd1na2vs0mg"},{"bike_id":"c638a1eb-b4d3-4a47-88f5-4ffd2e894e36","system_id":"levelo_inurba_marseille","lat":43.28106,"lon":5.37838,"is_reserved":false,"is_disabled":false,"rental_uris":{"android":"levelo://app?vid=c638a1eb-b4d3-4a47-88f5-4ffd2e894e36","ios":"levelo://app?vid=c638a1eb-b4d3-4a47-88f5-4ffd2e894e36"},"vehicle_type_id":"4","last_reported":1738263998,"current_range_meters":35600,"station_id":"ce4bha12rcd13ifvqee0","pricing_plan_id":"cebpf4jnsgd1na2vs0mg"},{"bike_id":"0baa1483-1bd9-4e02-ab05-61cbf4d9e6e6","system_id":"levelo_inurba_marseille","lat":43.290677,"lon":5.371603,"is_reserved":false,"is_disabled":true,"rental_uris":{"android":"levelo://app?vid=0baa1483-1bd9-4e02-ab05-61cbf4d9e6e6","ios":"levelo://app?vid=0baa1483-1bd9-4e02-ab05-61cbf4d9e6e6"},"vehicle_type_id":"4","last_reported":1738263998,"current_range_meters":16800,"station_id":"ce4bh5p2rcd13ifvqe4g","pricing_plan_id":"cebpf4jnsgd1na2vs0mg"},{"bike_id":"fa90cb4b-e496-4f14-b492-c9095cf23d3f","system_id":"levelo_inurba_marseille","lat":43.29894,"lon":5.3812,"is_reserved":false,"is_disabled":true,"rental_uris":{"android":"levelo://app?vid=fa90cb4b-e496-4f14-b492-c9095cf23d3f","ios":"levelo://app?vid=fa90cb4b-e496-4f14-b492-c9095cf23d3f"},"vehicle_type_id":"4","last_reported":1738263998,"current_range_meters":28400,"station_id":"ce4bgj12rcd13ifvqbc0","pricing_plan_id":"cebpf4jnsgd1na2vs0mg"},{"bike_id":"822a7f1b-473a-4d4a-b724-bbeba6da2ce3","system_id":"levelo_inurba_marseille","lat":43.29028,"lon":5.38638,"is_reserved":false,"is_disabled":false,"rental_uris":{"android":"levelo://app?vid=822a7f1b-473a-4d4a-b724-bbeba6da2ce3","ios":"levelo://app?vid=822a7f1b-473a-4d4a-b724-bbeba6da2ce3"},"vehicle_type_id":"4","last_reported":1738263998,"current_range_meters":32000,"station_id":"ce4bh4p2rcd13ifvqe0g","pricing_plan_id":"cebpf4jnsgd1na2vs0mg"},{"bike_id":"b2296238-b501-4540-aa71-fd1ef7b4a20a","system_id":"levelo_inurba_marseille","lat":43.24544,"lon":5.3952,"is_reserved":false,"is_disabled":false,"rental_uris":{"android":"levelo://app?vid=b2296238-b501-4540-aa71-fd1ef7b4a20a","ios":"levelo://app?vid=b2296238-b501-4540-aa71-fd1ef7b4a20a"},"vehicle_type_id":"4","last_reported":1738263998,"current_range_meters":25200,"station_id":"ce4bhlp2rcd13ifvqgjg","pricing_plan_id":"cebpf4jnsgd1na2vs0mg"},{"bike_id":"9f830b7b-7d74-4866-a497-14a99e91b63c","system_id":"levelo_inurba_marseille","lat":43.315278,"lon":5.380375,"is_reserved":false,"is_disabled":false,"rental_uris":{"android":"levelo://app?vid=9f830b7b-7d74-4866-a497-14a99e91b63c","ios":"levelo://app?vid=9f830b7b-7d74-4866-a497-14a99e91b63c"},"vehicle_type_id":"4","last_reported":1738263998,"current_range_meters":6000,"station_id":"ce4bhsp2rcd13ifvqi50","pricing_plan_id":"cebpf4jnsgd1na2vs0mg"},{"bike_id":"ca2fce3d-df4e-4367-b9ef-43ae3724ace7","system_id":"levelo_inurba_marseille","lat":43.25118,"lon":5.40325,"is_reserved":false,"is_disabled":false,"rental_uris":{"android":"levelo://app?vid=ca2fce3d-df4e-4367-b9ef-43ae3724ace7","ios":"levelo://app?vid=ca2fce3d-df4e-4367-b9ef-43ae3724ace7"},"vehicle_type_id":"4","last_reported":1738263998,"current_range_meters":31200,"station_id":"ce4bhlh2rcd13ifvqgig","pricing_plan_id":"cebpf4jnsgd1na2vs0mg"},{"bike_id":"ad76e067-a03e-432a-9871-15f122ff4ba5","system_id":"levelo_inurba_marseille","lat":43.29539,"lon":5.38532,"is_reserved":false,"is_disabled":false,"rental_uris":{"android":"levelo://app?vid=ad76e067-a03e-432a-9871-15f122ff4ba5","ios":"levelo://app?vid=ad76e067-a03e-432a-9871-15f122ff4ba5"},"vehicle_type_id":"4","last_reported":1738263998,"current_range_meters":34000,"station_id":"ce4bgih2rcd13ifvqba0","pricing_plan_id":"cebpf4jnsgd1na2vs0mg"},{"bike_id":"17167602-09b8-4e11-b218-9e2729739dbf","system_id":"levelo_inurba_marseille","lat":43.28934,"lon":5.38402,"is_reserved":false,"is_disabled":false,"rental_uris":{"android":"levelo://app?vid=17167602-09b8-4e11-b218-9e2729739dbf","ios":"levelo://app?vid=17167602-09b8-4e11-b218-9e2729739dbf"},"vehicle_type_id":"4","last_reported":1738263998,"current_range_meters":39200,"station_id":"ce4bh612rcd13ifvqe6g","pricing_plan_id":"cebpf4jnsgd1na2vs0mg"},{"bike_id":"bcbfba59-c457-4dcd-806f-852d15b674e7","system_id":"levelo_inurba_marseille","lat":43.2937,"lon":5.37863,"is_reserved":false,"is_disabled":false,"rental_uris":{"android":"levelo://app?vid=bcbfba59-c457-4dcd-806f-852d15b674e7","ios":"levelo://app?vid=bcbfba59-c457-4dcd-806f-852d15b674e7"},"vehicle_type_id":"4","last_reported":1738263998,"current_range_meters":9600,"station_id":"ce4bgjh2rcd13ifvqbf0","pricing_plan_id":"cebpf4jnsgd1na2vs0mg"},{"bike_id":"32c2be47-5997-40f8-b9d1-340939e2797c","system_id":"levelo_inurba_marseille","lat":43.27824,"lon":5.40664,"is_reserved":false,"is_disabled":false,"rental_uris":{"android":"levelo://app?vid=32c2be47-5997-40f8-b9d1-340939e2797c","ios":"levelo://app?vid=32c2be47-5997-40f8-b9d1-340939e2797c"},"vehicle_type_id":"4","last_reported":1738263998,"current_range_meters":23200,"station_id":"ce4bhnh2rcd13ifvqgtg","pricing_plan_id":"cebpf4jnsgd1na2vs0mg"},{"bike_id":"a9a12b57-7eb7-49fb-ba95-6c00f1b23d00","system_id":"levelo_inurba_marseille","lat":43.28078,"lon":5.379,"is_reserved":false,"is_disabled":false,"rental_uris":{"android":"levelo://app?vid=a9a12b57-7eb7-49fb-ba95-6c00f1b23d00","ios":"levelo://app?vid=a9a12b57-7eb7-49fb-ba95-6c00f1b23d00"},"vehicle_type_id":"4","last_reported":1738263998,"current_range_meters":19600,"station_id":"","pricing_plan_id":"cebpf4jnsgd1na2vs0mg"},{"bike_id":"1fbf3f20-0930-4b85-8900-561217e5a0eb","system_id":"levelo_inurba_marseille","lat":43.30415,"lon":5.41288,"is_reserved":false,"is_disabled":false,"rental_uris":{"android":"levelo://app?vid=1fbf3f20-0930-4b85-8900-561217e5a0eb","ios":"levelo://app?vid=1fbf3f20-0930-4b85-8900-561217e5a0eb"},"vehicle_type_id":"4","last_reported":1738263998,"current_range_meters":30800,"station_id":"ce4bhop2rcd13ifvqh8g","pricing_plan_id":"cebpf4jnsgd1na2vs0mg"},{"bike_id":"831e0ea3-ab83-4f66-99d0-dda423134a30","system_id":"levelo_inurba_marseille","lat":43.29805,"lon":5.38088,"is_reserved":false,"is_disabled":false,"rental_uris":{"android":"levelo://app?vid=831e0ea3-ab83-4f66-99d0-dda423134a30","ios":"levelo://app?vid=831e0ea3-ab83-4f66-99d0-dda423134a30"},"vehicle_type_id":"4","last_reported":1738263998,"current_range_meters":39200,"station_id":"ce4bgip2rcd13ifvqbb0","pricing_plan_id":"cebpf4jnsgd1na2vs0mg"},{"bike_id":"086c7782-679f-4d19-9aaa-d696ab0b8c4e","system_id":"levelo_inurba_marseille","lat":43.27821,"lon":5.40709,"is_reserved":false,"is_disabled":true,"rental_uris":{"android":"levelo://app?vid=086c7782-679f-4d19-9aaa-d696ab0b8c4e","ios":"levelo://app?vid=086c7782-679f-4d19-9aaa-d696ab0b8c4e"},"vehicle_type_id":"4","last_reported":1738263998,"current_range_meters":28800,"station_id":"ce4bhnh2rcd13ifvqgtg","pricing_plan_id":"cebpf4jnsgd1na2vs0mg"},{"bike_id":"5ec3d04b-f2c7-48c0-9c3b-aac07a26ef3b","system_id":"levelo_inurba_marseille","lat":43.25108,"lon":5.40323,"is_reserved":false,"is_disabled":false,"rental_uris":{"android":"levelo://app?vid=5ec3d04b-f2c7-48c0-9c3b-aac07a26ef3b","ios":"levelo://app?vid=5ec3d04b-f2c7-48c0-9c3b-aac07a26ef3b"},"vehicle_type_id":"4","last_reported":1738263998,"current_range_meters":18800,"station_id":"ce4bhlh2rcd13ifvqgig","pricing_plan_id":"cebpf4jnsgd1na2vs0mg"},{"bike_id":"c349d5a0-7e3a-4241-90d0-e04cbc6de789","system_id":"levelo_inurba_marseille","lat":43.29604,"lon":5.38105,"is_reserved":false,"is_disabled":false,"rental_uris":{"android":"levelo://app?vid=c349d5a0-7e3a-4241-90d0-e04cbc6de789","ios":"levelo://app?vid=c349d5a0-7e3a-4241-90d0-e04cbc6de789"},"vehicle_type_id":"4","last_reported":1738263998,"current_range_meters":28000,"station_id":"ce4bgl12rcd13ifvqbo0","pricing_plan_id":"cebpf4jnsgd1na2vs0mg"},{"bike_id":"4d04043b-d19f-4ba5-869b-e465e7c6903f","system_id":"levelo_inurba_marseille","lat":43.24071,"lon":5.37764,"is_reserved":false,"is_disabled":false,"rental_uris":{"android":"levelo://app?vid=4d04043b-d19f-4ba5-869b-e465e7c6903f","ios":"levelo://app?vid=4d04043b-d19f-4ba5-869b-e465e7c6903f"},"vehicle_type_id":"4","last_reported":1738263998,"current_range_meters":11200,"station_id":"ce4bhnp2rcd13ifvqgvg","pricing_plan_id":"cebpf4jnsgd1na2vs0mg"},{"bike_id":"2bcaae5b-22e9-4453-b556-b658bccc2477","system_id":"levelo_inurba_marseille","lat":43.25004,"lon":5.39625,"is_reserved":false,"is_disabled":false,"rental_uris":{"android":"levelo://app?vid=2bcaae5b-22e9-4453-b556-b658bccc2477","ios":"levelo://app?vid=2bcaae5b-22e9-4453-b556-b658bccc2477"},"vehicle_type_id":"4","last_reported":1738263998,"current_range_meters":36000,"station_id":"ce4bhm12rcd13ifvqgkg","pricing_plan_id":"cebpf4jnsgd1na2vs0mg"},{"bike_id":"e42ec138-4b8a-433e-86f4-196f56e8640a","system_id":"levelo_inurba_marseille","lat":43.2587,"lon":5.39895,"is_reserved":false,"is_disabled":false,"rental_uris":{"android":"levelo://app?vid=e42ec138-4b8a-433e-86f4-196f56e8640a","ios":"levelo://app?vid=e42ec138-4b8a-433e-86f4-196f56e8640a"},"vehicle_type_id":"4","last_reported":1738263998,"current_range_meters":2800,"station_id":"ce4bhl92rcd13ifvqghg","pricing_plan_id":"cebpf4jnsgd1na2vs0mg"},{"bike_id":"a2c2f7f6-53e1-41aa-a1bb-36c8d98a1715","system_id":"levelo_inurba_marseille","lat":43.27819,"lon":5.40717,"is_reserved":false,"is_disabled":false,"rental_uris":{"android":"levelo://app?vid=a2c2f7f6-53e1-41aa-a1bb-36c8d98a1715","ios":"levelo://app?vid=a2c2f7f6-53e1-41aa-a1bb-36c8d98a1715"},"vehicle_type_id":"4","last_reported":1738263998,"current_range_meters":10800,"station_id":"ce4bhnh2rcd13ifvqgtg","pricing_plan_id":"cebpf4jnsgd1na2vs0mg"},{"bike_id":"91eeaabf-de38-4655-8d4f-f32a3b88d88e","system_id":"levelo_inurba_marseille","lat":43.29258,"lon":5.38438,"is_reserved":false,"is_disabled":true,"rental_uris":{"android":"levelo://app?vid=91eeaabf-de38-4655-8d4f-f32a3b88d88e","ios":"levelo://app?vid=91eeaabf-de38-4655-8d4f-f32a3b88d88e"},"vehicle_type_id":"4","last_reported":1738263998,"current_range_meters":23200,"station_id":"ce4bh692rcd13ifvqea0","pricing_plan_id":"cebpf4jnsgd1na2vs0mg"},{"bike_id":"ab0ec696-ce2c-4f7f-a964-2e9c9f313854","system_id":"levelo_inurba_marseille","lat":43.23957,"lon":5.36641,"is_reserved":false,"is_disabled":false,"rental_uris":{"android":"levelo://app?vid=ab0ec696-ce2c-4f7f-a964-2e9c9f313854","ios":"levelo://app?vid=ab0ec696-ce2c-4f7f-a964-2e9c9f313854"},"vehicle_type_id":"4","last_reported":1738263998,"current_range_meters":32000,"station_id":"ce4bhi12rcd13ifvqfp0","pricing_plan_id":"cebpf4jnsgd1na2vs0mg"},{"bike_id":"1c63fa7b-8bb3-4da5-8267-9c40ab75cc0b","system_id":"levelo_inurba_marseille","lat":43.33773,"lon":5.39177,"is_reserved":false,"is_disabled":false,"rental_uris":{"android":"levelo://app?vid=1c63fa7b-8bb3-4da5-8267-9c40ab75cc0b","ios":"levelo://app?vid=1c63fa7b-8bb3-4da5-8267-9c40ab75cc0b"},"vehicle_type_id":"4","last_reported":1738263998,"current_range_meters":38800,"station_id":"ce4bhr92rcd13ifvqhsg","pricing_plan_id":"cebpf4jnsgd1na2vs0mg"},{"bike_id":"e99c90aa-e079-42e2-a963-1534829ba9c7","system_id":"levelo_inurba_marseille","lat":43.26269,"lon":5.37392,"is_reserved":false,"is_disabled":false,"rental_uris":{"android":"levelo://app?vid=e99c90aa-e079-42e2-a963-1534829ba9c7","ios":"levelo://app?vid=e99c90aa-e079-42e2-a963-1534829ba9c7"},"vehicle_type_id":"4","last_reported":1738263998,"current_range_meters":35600,"station_id":"ce4bhgp2rcd13ifvqfc0","pricing_plan_id":"cebpf4jnsgd1na2vs0mg"},{"bike_id":"d908ef3b-09f1-43ac-a5bc-eb4b647015c1","system_id":"levelo_inurba_marseille","lat":43.29207,"lon":5.3608,"is_reserved":false,"is_disabled":false,"rental_uris":{"android":"levelo://app?vid=d908ef3b-09f1-43ac-a5bc-eb4b647015c1","ios":"levelo://app?vid=d908ef3b-09f1-43ac-a5bc-eb4b647015c1"},"vehicle_type_id":"4","last_reported":1738263998,"current_range_meters":11600,"station_id":"ce4bhbh2rcd13ifvqeqg","pricing_plan_id":"cebpf4jnsgd1na2vs0mg"},{"bike_id":"472815ce-dd78-4e4c-82e8-cea31da48d22","system_id":"levelo_inurba_marseille","lat":43.33729,"lon":5.39193,"is_reserved":false,"is_disabled":false,"rental_uris":{"android":"levelo://app?vid=472815ce-dd78-4e4c-82e8-cea31da48d22","ios":"levelo://app?vid=472815ce-dd78-4e4c-82e8-cea31da48d22"},"vehicle_type_id":"4","last_reported":1738263998,"current_range_meters":39200,"station_id":"ce4bhr92rcd13ifvqhsg","pricing_plan_id":"cebpf4jnsgd1na2vs0mg"},{"bike_id":"cc47836a-b908-432f-8e0e-2f793407f141","system_id":"levelo_inurba_marseille","lat":43.22927,"lon":5.35375,"is_reserved":false,"is_disabled":false,"rental_uris":{"android":"levelo://app?vid=cc47836a-b908-432f-8e0e-2f793407f141","ios":"levelo://app?vid=cc47836a-b908-432f-8e0e-2f793407f141"},"vehicle_type_id":"4","last_reported":1738263998,"current_range_meters":14400,"station_id":"cpo3532slgdg3j2ikp40","pricing_plan_id":"cebpf4jnsgd1na2vs0mg"},{"bike_id":"ff3f903a-ad3e-4df0-b3cc-5480f5b8f953","system_id":"levelo_inurba_marseille","lat":43.29892,"lon":5.397214,"is_reserved":false,"is_disabled":false,"rental_uris":{"android":"levelo://app?vid=ff3f903a-ad3e-4df0-b3cc-5480f5b8f953","ios":"levelo://app?vid=ff3f903a-ad3e-4df0-b3cc-5480f5b8f953"},"vehicle_type_id":"4","last_reported":1738263998,"current_range_meters":34800,"station_id":"ce4bh0h2rcd13ifvqd50","pricing_plan_id":"cebpf4jnsgd1na2vs0mg"},{"bike_id":"a946f0c8-5b31-4951-824f-b594ccdc5bd6","system_id":"levelo_inurba_marseille","lat":43.28274,"lon":5.35062,"is_reserved":false,"is_disabled":false,"rental_uris":{"android":"levelo://app?vid=a946f0c8-5b31-4951-824f-b594ccdc5bd6","ios":"levelo://app?vid=a946f0c8-5b31-4951-824f-b594ccdc5bd6"},"vehicle_type_id":"4","last_reported":1738263998,"current_range_meters":22000,"station_id":"ce4bhbp2rcd13ifvqerg","pricing_plan_id":"cebpf4jnsgd1na2vs0mg"},{"bike_id":"f6afaadc-8a64-4520-9e68-285b035334db","system_id":"levelo_inurba_marseille","lat":43.30543,"lon":5.36698,"is_reserved":false,"is_disabled":false,"rental_uris":{"android":"levelo://app?vid=f6afaadc-8a64-4520-9e68-285b035334db","ios":"levelo://app?vid=f6afaadc-8a64-4520-9e68-285b035334db"},"vehicle_type_id":"4","last_reported":1738263998,"current_range_meters":6800,"station_id":"ce4bgrp2rcd13ifvqc9g","pricing_plan_id":"cebpf4jnsgd1na2vs0mg"},{"bike_id":"05de9b4b-daf6-4851-b548-339626763482","system_id":"levelo_inurba_marseille","lat":43.28855,"lon":5.39304,"is_reserved":false,"is_disabled":false,"rental_uris":{"android":"levelo://app?vid=05de9b4b-daf6-4851-b548-339626763482","ios":"levelo://app?vid=05de9b4b-daf6-4851-b548-339626763482"},"vehicle_type_id":"4","last_reported":1738263998,"current_range_meters":37600,"station_id":"ce4bh2p2rcd13ifvqdi0","pricing_plan_id":"cebpf4jnsgd1na2vs0mg"},{"bike_id":"7f0c4ddc-7112-417e-84e0-aac0c2a58765","system_id":"levelo_inurba_marseille","lat":43.280787,"lon":5.396605,"is_reserved":false,"is_disabled":false,"rental_uris":{"android":"levelo://app?vid=7f0c4ddc-7112-417e-84e0-aac0c2a58765","ios":"levelo://app?vid=7f0c4ddc-7112-417e-84e0-aac0c2a58765"},"vehicle_type_id":"4","last_reported":1738263998,"current_range_meters":38800,"station_id":"ce4bho12rcd13ifvqh2g","pricing_plan_id":"cebpf4jnsgd1na2vs0mg"},{"bike_id":"7fbc607b-e12b-47bd-a53f-1c18ac62adfd","system_id":"levelo_inurba_marseille","lat":43.27832,"lon":5.40736,"is_reserved":false,"is_disabled":false,"rental_uris":{"android":"levelo://app?vid=7fbc607b-e12b-47bd-a53f-1c18ac62adfd","ios":"levelo://app?vid=7fbc607b-e12b-47bd-a53f-1c18ac62adfd"},"vehicle_type_id":"4","last_reported":1738263998,"current_range_meters":36800,"station_id":"ce4bhnh2rcd13ifvqgtg","pricing_plan_id":"cebpf4jnsgd1na2vs0mg"},{"bike_id":"6fa785de-00ee-4c86-94dc-dd42c2cac451","system_id":"levelo_inurba_marseille","lat":43.25091,"lon":5.39525,"is_reserved":false,"is_disabled":false,"rental_uris":{"android":"levelo://app?vid=6fa785de-00ee-4c86-94dc-dd42c2cac451","ios":"levelo://app?vid=6fa785de-00ee-4c86-94dc-dd42c2cac451"},"vehicle_type_id":"4","last_reported":1738263998,"current_range_meters":33600,"station_id":"ce4bhm12rcd13ifvqgkg","pricing_plan_id":"cebpf4jnsgd1na2vs0mg"},{"bike_id":"f34fcd93-0f66-400a-8f07-aa08bfa23861","system_id":"levelo_inurba_marseille","lat":43.25951,"lon":5.40869,"is_reserved":false,"is_disabled":true,"rental_uris":{"android":"levelo://app?vid=f34fcd93-0f66-400a-8f07-aa08bfa23861","ios":"levelo://app?vid=f34fcd93-0f66-400a-8f07-aa08bfa23861"},"vehicle_type_id":"4","last_reported":1738263998,"current_range_meters":800,"station_id":"ce4bhm92rcd13ifvqglg","pricing_plan_id":"cebpf4jnsgd1na2vs0mg"},{"bike_id":"606053f9-3da2-4594-b4df-8e24b5fa812c","system_id":"levelo_inurba_marseille","lat":43.26931,"lon":5.40252,"is_reserved":false,"is_disabled":false,"rental_uris":{"android":"levelo://app?vid=606053f9-3da2-4594-b4df-8e24b5fa812c","ios":"levelo://app?vid=606053f9-3da2-4594-b4df-8e24b5fa812c"},"vehicle_type_id":"4","last_reported":1738263998,"current_range_meters":38800,"station_id":"cjm6bp8fraef2m0cb0m0","pricing_plan_id":"cebpf4jnsgd1na2vs0mg"},{"bike_id":"a6513b0a-da2e-4123-9272-d5bcd52ef731","system_id":"levelo_inurba_marseille","lat":43.30299,"lon":5.36896,"is_reserved":false,"is_disabled":false,"rental_uris":{"android":"levelo://app?vid=a6513b0a-da2e-4123-9272-d5bcd52ef731","ios":"levelo://app?vid=a6513b0a-da2e-4123-9272-d5bcd52ef731"},"vehicle_type_id":"4","last_reported":1738263998,"current_range_meters":20400,"station_id":"ce4bgqh2rcd13ifvqc5g","pricing_plan_id":"cebpf4jnsgd1na2vs0mg"},{"bike_id":"98ce8ffc-5472-474d-a279-9cd781a6aa87","system_id":"levelo_inurba_marseille","lat":43.34156,"lon":5.409,"is_reserved":false,"is_disabled":false,"rental_uris":{"android":"levelo://app?vid=98ce8ffc-5472-474d-a279-9cd781a6aa87","ios":"levelo://app?vid=98ce8ffc-5472-474d-a279-9cd781a6aa87"},"vehicle_type_id":"4","last_reported":1738263998,"current_range_meters":22400,"station_id":"ce4bhqh2rcd13ifvqhlg","pricing_plan_id":"cebpf4jnsgd1na2vs0mg"},{"bike_id":"7bf0b083-5d7a-408e-adaa-18c38cfadd6e","system_id":"levelo_inurba_marseille","lat":43.229244,"lon":5.353859,"is_reserved":false,"is_disabled":false,"rental_uris":{"android":"levelo://app?vid=7bf0b083-5d7a-408e-adaa-18c38cfadd6e","ios":"levelo://app?vid=7bf0b083-5d7a-408e-adaa-18c38cfadd6e"},"vehicle_type_id":"4","last_reported":1738263998,"current_range_meters":16400,"station_id":"cpo3532slgdg3j2ikp40","pricing_plan_id":"cebpf4jnsgd1na2vs0mg"},{"bike_id":"c52ee0d8-fc14-4a91-ad24-eeec1e8e0625","system_id":"levelo_inurba_marseille","lat":43.26199,"lon":5.374507,"is_reserved":false,"is_disabled":false,"rental_uris":{"android":"levelo://app?vid=c52ee0d8-fc14-4a91-ad24-eeec1e8e0625","ios":"levelo://app?vid=c52ee0d8-fc14-4a91-ad24-eeec1e8e0625"},"vehicle_type_id":"4","last_reported":1738263998,"current_range_meters":38800,"station_id":"ce4bhgp2rcd13ifvqfc0","pricing_plan_id":"cebpf4jnsgd1na2vs0mg"},{"bike_id":"db14cd8a-5ba9-45f6-b197-f717b13b5230","system_id":"levelo_inurba_marseille","lat":43.2984,"lon":5.36264,"is_reserved":false,"is_disabled":false,"rental_uris":{"android":"levelo://app?vid=db14cd8a-5ba9-45f6-b197-f717b13b5230","ios":"levelo://app?vid=db14cd8a-5ba9-45f6-b197-f717b13b5230"},"vehicle_type_id":"4","last_reported":1738263998,"current_range_meters":39200,"station_id":"ce4bgpp2rcd13ifvqc3g","pricing_plan_id":"cebpf4jnsgd1na2vs0mg"},{"bike_id":"3ba6bc4a-d126-4ae0-857b-3371c2cc759e","system_id":"levelo_inurba_marseille","lat":43.26945,"lon":5.40272,"is_reserved":false,"is_disabled":false,"rental_uris":{"android":"levelo://app?vid=3ba6bc4a-d126-4ae0-857b-3371c2cc759e","ios":"levelo://app?vid=3ba6bc4a-d126-4ae0-857b-3371c2cc759e"},"vehicle_type_id":"4","last_reported":1738263998,"current_range_meters":37600,"station_id":"cjm6bp8fraef2m0cb0m0","pricing_plan_id":"cebpf4jnsgd1na2vs0mg"},{"bike_id":"720742d2-419d-457a-ab4d-f4f9f5327356","system_id":"levelo_inurba_marseille","lat":43.27932,"lon":5.39602,"is_reserved":false,"is_disabled":false,"rental_uris":{"android":"levelo://app?vid=720742d2-419d-457a-ab4d-f4f9f5327356","ios":"levelo://app?vid=720742d2-419d-457a-ab4d-f4f9f5327356"},"vehicle_type_id":"4","last_reported":1738263998,"current_range_meters":37600,"station_id":"ce4bhf92rcd13ifvqf40","pricing_plan_id":"cebpf4jnsgd1na2vs0mg"},{"bike_id":"10d31094-e8d4-4e9d-bf6f-3c654bea52c2","system_id":"levelo_inurba_marseille","lat":43.28136,"lon":5.42629,"is_reserved":false,"is_disabled":false,"rental_uris":{"android":"levelo://app?vid=10d31094-e8d4-4e9d-bf6f-3c654bea52c2","ios":"levelo://app?vid=10d31094-e8d4-4e9d-bf6f-3c654bea52c2"},"vehicle_type_id":"4","last_reported":1738263998,"current_range_meters":8000,"station_id":"ce4bhnh2rcd13ifvqgug","pricing_plan_id":"cebpf4jnsgd1na2vs0mg"},{"bike_id":"d1cd839a-b534-45a5-82d8-f67c212b7493","system_id":"levelo_inurba_marseille","lat":43.29719,"lon":5.36614,"is_reserved":false,"is_disabled":false,"rental_uris":{"android":"levelo://app?vid=d1cd839a-b534-45a5-82d8-f67c212b7493","ios":"levelo://app?vid=d1cd839a-b534-45a5-82d8-f67c212b7493"},"vehicle_type_id":"4","last_reported":1738263998,"current_range_meters":37600,"station_id":"ce4bgn12rcd13ifvqbt0","pricing_plan_id":"cebpf4jnsgd1na2vs0mg"},{"bike_id":"64fdb9f5-3d86-48d8-98bb-4eebd885d039","system_id":"levelo_inurba_marseille","lat":43.2963,"lon":5.40595,"is_reserved":false,"is_disabled":false,"rental_uris":{"android":"levelo://app?vid=64fdb9f5-3d86-48d8-98bb-4eebd885d039","ios":"levelo://app?vid=64fdb9f5-3d86-48d8-98bb-4eebd885d039"},"vehicle_type_id":"4","last_reported":1738263998,"current_range_meters":30000,"station_id":"ce4bh0h2rcd13ifvqd60","pricing_plan_id":"cebpf4jnsgd1na2vs0mg"},{"bike_id":"9f7cbc3c-6e0b-4442-8c70-64c0b2a1452e","system_id":"levelo_inurba_marseille","lat":43.23052,"lon":5.35526,"is_reserved":false,"is_disabled":false,"rental_uris":{"android":"levelo://app?vid=9f7cbc3c-6e0b-4442-8c70-64c0b2a1452e","ios":"levelo://app?vid=9f7cbc3c-6e0b-4442-8c70-64c0b2a1452e"},"vehicle_type_id":"4","last_reported":1738263998,"current_range_meters":10800,"station_id":"cpo3342slgdg3j2ifvpg","pricing_plan_id":"cebpf4jnsgd1na2vs0mg"},{"bike_id":"c8a3a0ed-dff2-4f3c-87dc-2e6b47b1ad28","system_id":"levelo_inurba_marseille","lat":43.337444,"lon":5.374475,"is_reserved":false,"is_disabled":true,"rental_uris":{"android":"levelo://app?vid=c8a3a0ed-dff2-4f3c-87dc-2e6b47b1ad28","ios":"levelo://app?vid=c8a3a0ed-dff2-4f3c-87dc-2e6b47b1ad28"},"vehicle_type_id":"4","last_reported":1738263998,"current_range_meters":0,"station_id":"","pricing_plan_id":"cebpf4jnsgd1na2vs0mg"},{"bike_id":"0d6272be-a1c3-4d94-bd52-cdb6a527bb93","system_id":"levelo_inurba_marseille","lat":43.30106,"lon":5.3908,"is_reserved":false,"is_disabled":false,"rental_uris":{"android":"levelo://app?vid=0d6272be-a1c3-4d94-bd52-cdb6a527bb93","ios":"levelo://app?vid=0d6272be-a1c3-4d94-bd52-cdb6a527bb93"},"vehicle_type_id":"4","last_reported":1738263998,"current_range_meters":16000,"station_id":"ce4bh192rcd13ifvqdb0","pricing_plan_id":"cebpf4jnsgd1na2vs0mg"},{"bike_id":"cf9dea01-b245-4703-8d91-a0dab629d11e","system_id":"levelo_inurba_marseille","lat":43.29682,"lon":5.37169,"is_reserved":false,"is_disabled":false,"rental_uris":{"android":"levelo://app?vid=cf9dea01-b245-4703-8d91-a0dab629d11e","ios":"levelo://app?vid=cf9dea01-b245-4703-8d91-a0dab629d11e"},"vehicle_type_id":"4","last_reported":1738263998,"current_range_meters":39200,"station_id":"ce4bgnh2rcd13ifvqc0g","pricing_plan_id":"cebpf4jnsgd1na2vs0mg"},{"bike_id":"da181ccb-c372-41cb-8f8e-3cded55feeb5","system_id":"levelo_inurba_marseille","lat":43.29555,"lon":5.42275,"is_reserved":false,"is_disabled":false,"rental_uris":{"android":"levelo://app?vid=da181ccb-c372-41cb-8f8e-3cded55feeb5","ios":"levelo://app?vid=da181ccb-c372-41cb-8f8e-3cded55feeb5"},"vehicle_type_id":"4","last_reported":1738263998,"current_range_meters":38000,"station_id":"ce4bhph2rcd13ifvqhdg","pricing_plan_id":"cebpf4jnsgd1na2vs0mg"},{"bike_id":"7247902a-635d-4f06-9cf7-f11e089c2d38","system_id":"levelo_inurba_marseille","lat":43.26942,"lon":5.40253,"is_reserved":false,"is_disabled":false,"rental_uris":{"android":"levelo://app?vid=7247902a-635d-4f06-9cf7-f11e089c2d38","ios":"levelo://app?vid=7247902a-635d-4f06-9cf7-f11e089c2d38"},"vehicle_type_id":"4","last_reported":1738263998,"current_range_meters":38800,"station_id":"cjm6bp8fraef2m0cb0m0","pricing_plan_id":"cebpf4jnsgd1na2vs0mg"},{"bike_id":"6d86cfb7-423e-492c-9224-cfe7ec00bccb","system_id":"levelo_inurba_marseille","lat":43.28922,"lon":5.38385,"is_reserved":false,"is_disabled":false,"rental_uris":{"android":"levelo://app?vid=6d86cfb7-423e-492c-9224-cfe7ec00bccb","ios":"levelo://app?vid=6d86cfb7-423e-492c-9224-cfe7ec00bccb"},"vehicle_type_id":"4","last_reported":1738263998,"current_range_meters":38800,"station_id":"ce4bh612rcd13ifvqe6g","pricing_plan_id":"cebpf4jnsgd1na2vs0mg"},{"bike_id":"739e0950-a846-4651-8540-7eda5fbaf754","system_id":"levelo_inurba_marseille","lat":43.31212,"lon":5.36842,"is_reserved":false,"is_disabled":false,"rental_uris":{"android":"levelo://app?vid=739e0950-a846-4651-8540-7eda5fbaf754","ios":"levelo://app?vid=739e0950-a846-4651-8540-7eda5fbaf754"},"vehicle_type_id":"4","last_reported":1738263998,"current_range_meters":36000,"station_id":"ce4bgl92rcd13ifvqbq0","pricing_plan_id":"cebpf4jnsgd1na2vs0mg"},{"bike_id":"67bc6512-e550-4b02-a35f-fa00a80893a2","system_id":"levelo_inurba_marseille","lat":43.30971,"lon":5.37273,"is_reserved":false,"is_disabled":false,"rental_uris":{"android":"levelo://app?vid=67bc6512-e550-4b02-a35f-fa00a80893a2","ios":"levelo://app?vid=67bc6512-e550-4b02-a35f-fa00a80893a2"},"vehicle_type_id":"4","last_reported":1738263998,"current_range_meters":34800,"station_id":"","pricing_plan_id":"cebpf4jnsgd1na2vs0mg"},{"bike_id":"a6aa301a-1357-4370-a54e-76b50563d1bd","system_id":"levelo_inurba_marseille","lat":43.28706,"lon":5.37394,"is_reserved":false,"is_disabled":false,"rental_uris":{"android":"levelo://app?vid=a6aa301a-1357-4370-a54e-76b50563d1bd","ios":"levelo://app?vid=a6aa301a-1357-4370-a54e-76b50563d1bd"},"vehicle_type_id":"4","last_reported":1738263998,"current_range_meters":38800,"station_id":"ce4bh3p2rcd13ifvqdq0","pricing_plan_id":"cebpf4jnsgd1na2vs0mg"},{"bike_id":"05e57a95-2c98-4ceb-9388-74d754669e55","system_id":"levelo_inurba_marseille","lat":43.2587,"lon":5.39916,"is_reserved":false,"is_disabled":false,"rental_uris":{"android":"levelo://app?vid=05e57a95-2c98-4ceb-9388-74d754669e55","ios":"levelo://app?vid=05e57a95-2c98-4ceb-9388-74d754669e55"},"vehicle_type_id":"4","last_reported":1738263998,"current_range_meters":20000,"station_id":"ce4bhl92rcd13ifvqghg","pricing_plan_id":"cebpf4jnsgd1na2vs0mg"},{"bike_id":"32802d31-82e5-49aa-928e-45336ddb5e58","system_id":"levelo_inurba_marseille","lat":43.24998,"lon":5.38921,"is_reserved":false,"is_disabled":false,"rental_uris":{"android":"levelo://app?vid=32802d31-82e5-49aa-928e-45336ddb5e58","ios":"levelo://app?vid=32802d31-82e5-49aa-928e-45336ddb5e58"},"vehicle_type_id":"4","last_reported":1738263998,"current_range_meters":38800,"station_id":"ce4bhgp2rcd13ifvqfd0","pricing_plan_id":"cebpf4jnsgd1na2vs0mg"},{"bike_id":"d06240a3-8895-42e8-9212-5c068d44e9d2","system_id":"levelo_inurba_marseille","lat":43.28612,"lon":5.35113,"is_reserved":false,"is_disabled":false,"rental_uris":{"android":"levelo://app?vid=d06240a3-8895-42e8-9212-5c068d44e9d2","ios":"levelo://app?vid=d06240a3-8895-42e8-9212-5c068d44e9d2"},"vehicle_type_id":"4","last_reported":1738263998,"current_range_meters":28800,"station_id":"ce4bhch2rcd13ifvqeug","pricing_plan_id":"cebpf4jnsgd1na2vs0mg"},{"bike_id":"323795ea-b784-49f7-ad28-dfc256b8eaa4","system_id":"levelo_inurba_marseille","lat":43.30208,"lon":5.39484,"is_reserved":false,"is_disabled":true,"rental_uris":{"android":"levelo://app?vid=323795ea-b784-49f7-ad28-dfc256b8eaa4","ios":"levelo://app?vid=323795ea-b784-49f7-ad28-dfc256b8eaa4"},"vehicle_type_id":"4","last_reported":1738263998,"current_range_meters":18800,"station_id":"ce4bh0p2rcd13ifvqd70","pricing_plan_id":"cebpf4jnsgd1na2vs0mg"},{"bike_id":"fbb7db2a-08d6-4298-90e8-2db02f3fb4d9","system_id":"levelo_inurba_marseille","lat":43.29777,"lon":5.38069,"is_reserved":false,"is_disabled":false,"rental_uris":{"android":"levelo://app?vid=fbb7db2a-08d6-4298-90e8-2db02f3fb4d9","ios":"levelo://app?vid=fbb7db2a-08d6-4298-90e8-2db02f3fb4d9"},"vehicle_type_id":"4","last_reported":1738263998,"current_range_meters":6000,"station_id":"ce4bgip2rcd13ifvqbb0","pricing_plan_id":"cebpf4jnsgd1na2vs0mg"},{"bike_id":"d130db0a-48b7-47ee-b133-0a81904f0cda","system_id":"levelo_inurba_marseille","lat":43.28988,"lon":5.35608,"is_reserved":false,"is_disabled":true,"rental_uris":{"android":"levelo://app?vid=d130db0a-48b7-47ee-b133-0a81904f0cda","ios":"levelo://app?vid=d130db0a-48b7-47ee-b133-0a81904f0cda"},"vehicle_type_id":"4","last_reported":1738263998,"current_range_meters":36400,"station_id":"ce4bhb92rcd13ifvqen0","pricing_plan_id":"cebpf4jnsgd1na2vs0mg"},{"bike_id":"e7c51afb-1d3d-43ec-83fc-2cfca6dbae1c","system_id":"levelo_inurba_marseille","lat":43.28855,"lon":5.39293,"is_reserved":false,"is_disabled":false,"rental_uris":{"android":"levelo://app?vid=e7c51afb-1d3d-43ec-83fc-2cfca6dbae1c","ios":"levelo://app?vid=e7c51afb-1d3d-43ec-83fc-2cfca6dbae1c"},"vehicle_type_id":"4","last_reported":1738263998,"current_range_meters":9200,"station_id":"ce4bh2p2rcd13ifvqdi0","pricing_plan_id":"cebpf4jnsgd1na2vs0mg"},{"bike_id":"ccac701e-f436-4e99-b6a7-fb1cb78ac1e4","system_id":"levelo_inurba_marseille","lat":43.30928,"lon":5.36855,"is_reserved":false,"is_disabled":false,"rental_uris":{"android":"levelo://app?vid=ccac701e-f436-4e99-b6a7-fb1cb78ac1e4","ios":"levelo://app?vid=ccac701e-f436-4e99-b6a7-fb1cb78ac1e4"},"vehicle_type_id":"4","last_reported":1738263998,"current_range_meters":39200,"station_id":"ce4bgn92rcd13ifvqbvg","pricing_plan_id":"cebpf4jnsgd1na2vs0mg"},{"bike_id":"a36de8bd-2e3e-4fb2-8780-295adcb078f0","system_id":"levelo_inurba_marseille","lat":43.26562,"lon":5.37275,"is_reserved":false,"is_disabled":false,"rental_uris":{"android":"levelo://app?vid=a36de8bd-2e3e-4fb2-8780-295adcb078f0","ios":"levelo://app?vid=a36de8bd-2e3e-4fb2-8780-295adcb078f0"},"vehicle_type_id":"4","last_reported":1738263998,"current_range_meters":36400,"station_id":"ce4bhg12rcd13ifvqf70","pricing_plan_id":"cebpf4jnsgd1na2vs0mg"},{"bike_id":"9838cc78-2b53-49d3-ae13-82df62c4fd64","system_id":"levelo_inurba_marseille","lat":43.28412,"lon":5.40934,"is_reserved":false,"is_disabled":true,"rental_uris":{"android":"levelo://app?vid=9838cc78-2b53-49d3-ae13-82df62c4fd64","ios":"levelo://app?vid=9838cc78-2b53-49d3-ae13-82df62c4fd64"},"vehicle_type_id":"4","last_reported":1738263998,"current_range_meters":0,"station_id":"","pricing_plan_id":"cebpf4jnsgd1na2vs0mg"},{"bike_id":"b5e316c6-84ab-4e74-8a2e-84f5594c5ebd","system_id":"levelo_inurba_marseille","lat":43.28423,"lon":5.37502,"is_reserved":false,"is_disabled":true,"rental_uris":{"android":"levelo://app?vid=b5e316c6-84ab-4e74-8a2e-84f5594c5ebd","ios":"levelo://app?vid=b5e316c6-84ab-4e74-8a2e-84f5594c5ebd"},"vehicle_type_id":"4","last_reported":1738263998,"current_range_meters":12000,"station_id":"ce4bh412rcd13ifvqds0","pricing_plan_id":"cebpf4jnsgd1na2vs0mg"},{"bike_id":"0b1f4817-4c30-44b7-9201-5f8be66aeb19","system_id":"levelo_inurba_marseille","lat":43.28033,"lon":5.3694,"is_reserved":false,"is_disabled":false,"rental_uris":{"android":"levelo://app?vid=0b1f4817-4c30-44b7-9201-5f8be66aeb19","ios":"levelo://app?vid=0b1f4817-4c30-44b7-9201-5f8be66aeb19"},"vehicle_type_id":"4","last_reported":1738263998,"current_range_meters":38800,"station_id":"ce4bha12rcd13ifvqef0","pricing_plan_id":"cebpf4jnsgd1na2vs0mg"},{"bike_id":"1509c4ed-75ea-4503-8272-8bf929acd314","system_id":"levelo_inurba_marseille","lat":43.29968,"lon":5.38484,"is_reserved":false,"is_disabled":true,"rental_uris":{"android":"levelo://app?vid=1509c4ed-75ea-4503-8272-8bf929acd314","ios":"levelo://app?vid=1509c4ed-75ea-4503-8272-8bf929acd314"},"vehicle_type_id":"4","last_reported":1738263998,"current_range_meters":12400,"station_id":"ce4bgj92rcd13ifvqbd0","pricing_plan_id":"cebpf4jnsgd1na2vs0mg"},{"bike_id":"ca119d10-f080-455f-945a-8385acf1e7a8","system_id":"levelo_inurba_marseille","lat":43.29531,"lon":5.38539,"is_reserved":false,"is_disabled":false,"rental_uris":{"android":"levelo://app?vid=ca119d10-f080-455f-945a-8385acf1e7a8","ios":"levelo://app?vid=ca119d10-f080-455f-945a-8385acf1e7a8"},"vehicle_type_id":"4","last_reported":1738263998,"current_range_meters":26800,"station_id":"ce4bgih2rcd13ifvqba0","pricing_plan_id":"cebpf4jnsgd1na2vs0mg"},{"bike_id":"a6b336c6-34d6-4b26-bccf-abefa3771ff1","system_id":"levelo_inurba_marseille","lat":43.23154,"lon":5.43701,"is_reserved":false,"is_disabled":false,"rental_uris":{"android":"levelo://app?vid=a6b336c6-34d6-4b26-bccf-abefa3771ff1","ios":"levelo://app?vid=a6b336c6-34d6-4b26-bccf-abefa3771ff1"},"vehicle_type_id":"4","last_reported":1738263998,"current_range_meters":38800,"station_id":"ce4bhmp2rcd13ifvqgog","pricing_plan_id":"cebpf4jnsgd1na2vs0mg"},{"bike_id":"9f6c79b2-892b-47dd-b852-741b9f20e95f","system_id":"levelo_inurba_marseille","lat":43.25077,"lon":5.39518,"is_reserved":false,"is_disabled":false,"rental_uris":{"android":"levelo://app?vid=9f6c79b2-892b-47dd-b852-741b9f20e95f","ios":"levelo://app?vid=9f6c79b2-892b-47dd-b852-741b9f20e95f"},"vehicle_type_id":"4","last_reported":1738263998,"current_range_meters":39200,"station_id":"ce4bhm12rcd13ifvqgkg","pricing_plan_id":"cebpf4jnsgd1na2vs0mg"},{"bike_id":"05f09aa2-f717-402a-9dac-5621750079ab","system_id":"levelo_inurba_marseille","lat":43.3171,"lon":5.43704,"is_reserved":false,"is_disabled":false,"rental_uris":{"android":"levelo://app?vid=05f09aa2-f717-402a-9dac-5621750079ab","ios":"levelo://app?vid=05f09aa2-f717-402a-9dac-5621750079ab"},"vehicle_type_id":"4","last_reported":1738263998,"current_range_meters":12400,"station_id":"ce4bhp92rcd13ifvqhcg","pricing_plan_id":"cebpf4jnsgd1na2vs0mg"},{"bike_id":"4aa797ac-5f4f-475c-952d-c7f3a34b7726","system_id":"levelo_inurba_marseille","lat":43.29425,"lon":5.3862,"is_reserved":false,"is_disabled":false,"rental_uris":{"android":"levelo://app?vid=4aa797ac-5f4f-475c-952d-c7f3a34b7726","ios":"levelo://app?vid=4aa797ac-5f4f-475c-952d-c7f3a34b7726"},"vehicle_type_id":"4","last_reported":1738263998,"current_range_meters":27200,"station_id":"ce4bh2h2rcd13ifvqdh0","pricing_plan_id":"cebpf4jnsgd1na2vs0mg"},{"bike_id":"3d3683d0-6fa2-4625-8b79-882bbb185c30","system_id":"levelo_inurba_marseille","lat":43.32284,"lon":5.3828,"is_reserved":false,"is_disabled":false,"rental_uris":{"android":"levelo://app?vid=3d3683d0-6fa2-4625-8b79-882bbb185c30","ios":"levelo://app?vid=3d3683d0-6fa2-4625-8b79-882bbb185c30"},"vehicle_type_id":"4","last_reported":1738263998,"current_range_meters":30400,"station_id":"ce4bhr12rcd13ifvqhqg","pricing_plan_id":"cebpf4jnsgd1na2vs0mg"},{"bike_id":"ff8526f2-3c6e-469d-936f-156179ff4cdc","system_id":"levelo_inurba_marseille","lat":43.25081,"lon":5.3951,"is_reserved":false,"is_disabled":false,"rental_uris":{"android":"levelo://app?vid=ff8526f2-3c6e-469d-936f-156179ff4cdc","ios":"levelo://app?vid=ff8526f2-3c6e-469d-936f-156179ff4cdc"},"vehicle_type_id":"4","last_reported":1738263998,"current_range_meters":39200,"station_id":"ce4bhm12rcd13ifvqgkg","pricing_plan_id":"cebpf4jnsgd1na2vs0mg"},{"bike_id":"8316cb10-023d-4bec-a7d1-c688e60191c8","system_id":"levelo_inurba_marseille","lat":43.28162,"lon":5.42625,"is_reserved":false,"is_disabled":false,"rental_uris":{"android":"levelo://app?vid=8316cb10-023d-4bec-a7d1-c688e60191c8","ios":"levelo://app?vid=8316cb10-023d-4bec-a7d1-c688e60191c8"},"vehicle_type_id":"4","last_reported":1738263998,"current_range_meters":9200,"station_id":"ce4bhnh2rcd13ifvqgug","pricing_plan_id":"cebpf4jnsgd1na2vs0mg"},{"bike_id":"fa51714b-85e6-40ac-9424-6cd1a8b165d0","system_id":"levelo_inurba_marseille","lat":43.2919,"lon":5.3581,"is_reserved":false,"is_disabled":false,"rental_uris":{"android":"levelo://app?vid=fa51714b-85e6-40ac-9424-6cd1a8b165d0","ios":"levelo://app?vid=fa51714b-85e6-40ac-9424-6cd1a8b165d0"},"vehicle_type_id":"4","last_reported":1738263998,"current_range_meters":12400,"station_id":"ce4bhb12rcd13ifvqel0","pricing_plan_id":"cebpf4jnsgd1na2vs0mg"},{"bike_id":"463526cc-150c-40e2-9ccc-15416c96c811","system_id":"levelo_inurba_marseille","lat":43.31229,"lon":5.36863,"is_reserved":false,"is_disabled":false,"rental_uris":{"android":"levelo://app?vid=463526cc-150c-40e2-9ccc-15416c96c811","ios":"levelo://app?vid=463526cc-150c-40e2-9ccc-15416c96c811"},"vehicle_type_id":"4","last_reported":1738263998,"current_range_meters":8800,"station_id":"ce4bgl92rcd13ifvqbq0","pricing_plan_id":"cebpf4jnsgd1na2vs0mg"},{"bike_id":"2e6a6233-9e6a-4e1c-b0a7-7f49e84d42c0","system_id":"levelo_inurba_marseille","lat":43.2836,"lon":5.38113,"is_reserved":false,"is_disabled":false,"rental_uris":{"android":"levelo://app?vid=2e6a6233-9e6a-4e1c-b0a7-7f49e84d42c0","ios":"levelo://app?vid=2e6a6233-9e6a-4e1c-b0a7-7f49e84d42c0"},"vehicle_type_id":"4","last_reported":1738263998,"current_range_meters":34000,"station_id":"ce4bh412rcd13ifvqdr0","pricing_plan_id":"cebpf4jnsgd1na2vs0mg"},{"bike_id":"8522eb74-2313-4dfe-bb3f-8d2802ae8596","system_id":"levelo_inurba_marseille","lat":43.27054,"lon":5.40256,"is_reserved":false,"is_disabled":false,"rental_uris":{"android":"levelo://app?vid=8522eb74-2313-4dfe-bb3f-8d2802ae8596","ios":"levelo://app?vid=8522eb74-2313-4dfe-bb3f-8d2802ae8596"},"vehicle_type_id":"4","last_reported":1738263998,"current_range_meters":38800,"station_id":"ce4bhk92rcd13ifvqgc0","pricing_plan_id":"cebpf4jnsgd1na2vs0mg"},{"bike_id":"d979d8d2-ec65-47af-9229-e4270aab279a","system_id":"levelo_inurba_marseille","lat":43.23064,"lon":5.35499,"is_reserved":false,"is_disabled":false,"rental_uris":{"android":"levelo://app?vid=d979d8d2-ec65-47af-9229-e4270aab279a","ios":"levelo://app?vid=d979d8d2-ec65-47af-9229-e4270aab279a"},"vehicle_type_id":"4","last_reported":1738263998,"current_range_meters":12400,"station_id":"cpo3342slgdg3j2ifvpg","pricing_plan_id":"cebpf4jnsgd1na2vs0mg"},{"bike_id":"f10d9b40-8520-41ee-b039-cd6e7d066065","system_id":"levelo_inurba_marseille","lat":43.26214,"lon":5.37441,"is_reserved":false,"is_disabled":false,"rental_uris":{"android":"levelo://app?vid=f10d9b40-8520-41ee-b039-cd6e7d066065","ios":"levelo://app?vid=f10d9b40-8520-41ee-b039-cd6e7d066065"},"vehicle_type_id":"4","last_reported":1738263998,"current_range_meters":36400,"station_id":"ce4bhgp2rcd13ifvqfc0","pricing_plan_id":"cebpf4jnsgd1na2vs0mg"},{"bike_id":"e822248f-7036-4509-9b6d-11c8784172f8","system_id":"levelo_inurba_marseille","lat":43.29303,"lon":5.37163,"is_reserved":false,"is_disabled":false,"rental_uris":{"android":"levelo://app?vid=e822248f-7036-4509-9b6d-11c8784172f8","ios":"levelo://app?vid=e822248f-7036-4509-9b6d-11c8784172f8"},"vehicle_type_id":"4","last_reported":1738263998,"current_range_meters":20800,"station_id":"ce4bgh92rcd13ifvqb40","pricing_plan_id":"cebpf4jnsgd1na2vs0mg"},{"bike_id":"c29472cb-fa90-45f9-a123-f9325cfff80e","system_id":"levelo_inurba_marseille","lat":43.28477,"lon":5.38423,"is_reserved":false,"is_disabled":true,"rental_uris":{"android":"levelo://app?vid=c29472cb-fa90-45f9-a123-f9325cfff80e","ios":"levelo://app?vid=c29472cb-fa90-45f9-a123-f9325cfff80e"},"vehicle_type_id":"4","last_reported":1738263998,"current_range_meters":25600,"station_id":"ce4bh512rcd13ifvqe3g","pricing_plan_id":"cebpf4jnsgd1na2vs0mg"},{"bike_id":"8f982301-5907-46b6-b1e8-1b8abf5c682a","system_id":"levelo_inurba_marseille","lat":43.26211,"lon":5.37442,"is_reserved":false,"is_disabled":false,"rental_uris":{"android":"levelo://app?vid=8f982301-5907-46b6-b1e8-1b8abf5c682a","ios":"levelo://app?vid=8f982301-5907-46b6-b1e8-1b8abf5c682a"},"vehicle_type_id":"4","last_reported":1738263998,"current_range_meters":28400,"station_id":"ce4bhgp2rcd13ifvqfc0","pricing_plan_id":"cebpf4jnsgd1na2vs0mg"},{"bike_id":"4103f9ea-dc49-40ff-a855-96e33d24e922","system_id":"levelo_inurba_marseille","lat":43.26956,"lon":5.40242,"is_reserved":false,"is_disabled":false,"rental_uris":{"android":"levelo://app?vid=4103f9ea-dc49-40ff-a855-96e33d24e922","ios":"levelo://app?vid=4103f9ea-dc49-40ff-a855-96e33d24e922"},"vehicle_type_id":"4","last_reported":1738263998,"current_range_meters":38800,"station_id":"cjm6bp8fraef2m0cb0m0","pricing_plan_id":"cebpf4jnsgd1na2vs0mg"},{"bike_id":"7d6260ec-6d8c-4d5b-8950-1a493871014c","system_id":"levelo_inurba_marseille","lat":43.29897,"lon":5.43669,"is_reserved":false,"is_disabled":false,"rental_uris":{"android":"levelo://app?vid=7d6260ec-6d8c-4d5b-8950-1a493871014c","ios":"levelo://app?vid=7d6260ec-6d8c-4d5b-8950-1a493871014c"},"vehicle_type_id":"4","last_reported":1738263998,"current_range_meters":33200,"station_id":"ce4bhpp2rcd13ifvqhfg","pricing_plan_id":"cebpf4jnsgd1na2vs0mg"},{"bike_id":"a8db27aa-be5d-44fa-816a-f7d4150cc83e","system_id":"levelo_inurba_marseille","lat":43.27211,"lon":5.39185,"is_reserved":false,"is_disabled":false,"rental_uris":{"android":"levelo://app?vid=a8db27aa-be5d-44fa-816a-f7d4150cc83e","ios":"levelo://app?vid=a8db27aa-be5d-44fa-816a-f7d4150cc83e"},"vehicle_type_id":"4","last_reported":1738263998,"current_range_meters":38000,"station_id":"ce4bhhp2rcd13ifvqfm0","pricing_plan_id":"cebpf4jnsgd1na2vs0mg"},{"bike_id":"1b6fd190-21fa-4758-93db-00b7057d89a9","system_id":"levelo_inurba_marseille","lat":43.25722,"lon":5.41113,"is_reserved":false,"is_disabled":false,"rental_uris":{"android":"levelo://app?vid=1b6fd190-21fa-4758-93db-00b7057d89a9","ios":"levelo://app?vid=1b6fd190-21fa-4758-93db-00b7057d89a9"},"vehicle_type_id":"4","last_reported":1738263998,"current_range_meters":37600,"station_id":"ce4bhkp2rcd13ifvqgd0","pricing_plan_id":"cebpf4jnsgd1na2vs0mg"},{"bike_id":"9b42b29a-63bb-4c60-ada4-dbf9436c4724","system_id":"levelo_inurba_marseille","lat":43.303,"lon":5.39209,"is_reserved":false,"is_disabled":false,"rental_uris":{"android":"levelo://app?vid=9b42b29a-63bb-4c60-ada4-dbf9436c4724","ios":"levelo://app?vid=9b42b29a-63bb-4c60-ada4-dbf9436c4724"},"vehicle_type_id":"4","last_reported":1738263998,"current_range_meters":38800,"station_id":"ce4bgkh2rcd13ifvqbk0","pricing_plan_id":"cebpf4jnsgd1na2vs0mg"},{"bike_id":"cf8e57d9-ff02-4e22-9e01-0a3945aabc14","system_id":"levelo_inurba_marseille","lat":43.313272,"lon":5.396933,"is_reserved":false,"is_disabled":false,"rental_uris":{"android":"levelo://app?vid=cf8e57d9-ff02-4e22-9e01-0a3945aabc14","ios":"levelo://app?vid=cf8e57d9-ff02-4e22-9e01-0a3945aabc14"},"vehicle_type_id":"4","last_reported":1738263998,"current_range_meters":12800,"station_id":"ce4bgvp2rcd13ifvqcu0","pricing_plan_id":"cebpf4jnsgd1na2vs0mg"},{"bike_id":"c31ded60-21bc-4937-b5c7-a86c611f6740","system_id":"levelo_inurba_marseille","lat":43.3044,"lon":5.38891,"is_reserved":false,"is_disabled":true,"rental_uris":{"android":"levelo://app?vid=c31ded60-21bc-4937-b5c7-a86c611f6740","ios":"levelo://app?vid=c31ded60-21bc-4937-b5c7-a86c611f6740"},"vehicle_type_id":"4","last_reported":1738263998,"current_range_meters":30400,"station_id":"ce4bgk12rcd13ifvqbi0","pricing_plan_id":"cebpf4jnsgd1na2vs0mg"},{"bike_id":"d8b1c3f9-ff6e-4179-8423-4ba0d2a2af0e","system_id":"levelo_inurba_marseille","lat":43.33724,"lon":5.39193,"is_reserved":false,"is_disabled":false,"rental_uris":{"android":"levelo://app?vid=d8b1c3f9-ff6e-4179-8423-4ba0d2a2af0e","ios":"levelo://app?vid=d8b1c3f9-ff6e-4179-8423-4ba0d2a2af0e"},"vehicle_type_id":"4","last_reported":1738263998,"current_range_meters":38800,"station_id":"ce4bhr92rcd13ifvqhsg","pricing_plan_id":"cebpf4jnsgd1na2vs0mg"},{"bike_id":"d0f2cfcc-c336-4d7d-baf0-d36ca6bbf372","system_id":"levelo_inurba_marseille","lat":43.32343,"lon":5.40623,"is_reserved":false,"is_disabled":false,"rental_uris":{"android":"levelo://app?vid=d0f2cfcc-c336-4d7d-baf0-d36ca6bbf372","ios":"levelo://app?vid=d0f2cfcc-c336-4d7d-baf0-d36ca6bbf372"},"vehicle_type_id":"4","last_reported":1738263998,"current_range_meters":35200,"station_id":"ce4bhq92rcd13ifvqhjg","pricing_plan_id":"cebpf4jnsgd1na2vs0mg"},{"bike_id":"ba0dc6f2-b89b-479e-9712-43aaa6d3abd7","system_id":"levelo_inurba_marseille","lat":43.31076,"lon":5.383511,"is_reserved":false,"is_disabled":false,"rental_uris":{"android":"levelo://app?vid=ba0dc6f2-b89b-479e-9712-43aaa6d3abd7","ios":"levelo://app?vid=ba0dc6f2-b89b-479e-9712-43aaa6d3abd7"},"vehicle_type_id":"4","last_reported":1738263998,"current_range_meters":30800,"station_id":"ce4bgv92rcd13ifvqcr0","pricing_plan_id":"cebpf4jnsgd1na2vs0mg"},{"bike_id":"be61b086-f408-41a4-9660-19c16782002e","system_id":"levelo_inurba_marseille","lat":43.29537,"lon":5.39041,"is_reserved":false,"is_disabled":false,"rental_uris":{"android":"levelo://app?vid=be61b086-f408-41a4-9660-19c16782002e","ios":"levelo://app?vid=be61b086-f408-41a4-9660-19c16782002e"},"vehicle_type_id":"4","last_reported":1738263998,"current_range_meters":39200,"station_id":"ce4bh3p2rcd13ifvqdp0","pricing_plan_id":"cebpf4jnsgd1na2vs0mg"},{"bike_id":"69e507f4-57bf-40ef-8850-13f929b080c0","system_id":"levelo_inurba_marseille","lat":43.27232,"lon":5.39192,"is_reserved":false,"is_disabled":false,"rental_uris":{"android":"levelo://app?vid=69e507f4-57bf-40ef-8850-13f929b080c0","ios":"levelo://app?vid=69e507f4-57bf-40ef-8850-13f929b080c0"},"vehicle_type_id":"4","last_reported":1738263998,"current_range_meters":38400,"station_id":"ce4bhhp2rcd13ifvqfm0","pricing_plan_id":"cebpf4jnsgd1na2vs0mg"},{"bike_id":"37a316fb-b3fd-47c4-b337-ae3ed2613770","system_id":"levelo_inurba_marseille","lat":43.25855,"lon":5.39919,"is_reserved":false,"is_disabled":false,"rental_uris":{"android":"levelo://app?vid=37a316fb-b3fd-47c4-b337-ae3ed2613770","ios":"levelo://app?vid=37a316fb-b3fd-47c4-b337-ae3ed2613770"},"vehicle_type_id":"4","last_reported":1738263998,"current_range_meters":17200,"station_id":"ce4bhl92rcd13ifvqghg","pricing_plan_id":"cebpf4jnsgd1na2vs0mg"},{"bike_id":"f59a52a1-f98b-4178-bac3-629994714bef","system_id":"levelo_inurba_marseille","lat":43.30219,"lon":5.39465,"is_reserved":false,"is_disabled":false,"rental_uris":{"android":"levelo://app?vid=f59a52a1-f98b-4178-bac3-629994714bef","ios":"levelo://app?vid=f59a52a1-f98b-4178-bac3-629994714bef"},"vehicle_type_id":"4","last_reported":1738263998,"current_range_meters":37600,"station_id":"ce4bh0p2rcd13ifvqd70","pricing_plan_id":"cebpf4jnsgd1na2vs0mg"},{"bike_id":"07939967-b9b1-498c-aee6-8441d395c2e5","system_id":"levelo_inurba_marseille","lat":43.29029,"lon":5.38134,"is_reserved":false,"is_disabled":false,"rental_uris":{"android":"levelo://app?vid=07939967-b9b1-498c-aee6-8441d395c2e5","ios":"levelo://app?vid=07939967-b9b1-498c-aee6-8441d395c2e5"},"vehicle_type_id":"4","last_reported":1738263998,"current_range_meters":32400,"station_id":"ce4bh4p2rcd13ifvqe1g","pricing_plan_id":"cebpf4jnsgd1na2vs0mg"},{"bike_id":"285356f1-8dce-4cff-ae68-c1492f98ccd1","system_id":"levelo_inurba_marseille","lat":43.30132,"lon":5.39884,"is_reserved":false,"is_disabled":false,"rental_uris":{"android":"levelo://app?vid=285356f1-8dce-4cff-ae68-c1492f98ccd1","ios":"levelo://app?vid=285356f1-8dce-4cff-ae68-c1492f98ccd1"},"vehicle_type_id":"4","last_reported":1738263998,"current_range_meters":20000,"station_id":"ce4bh0h2rcd13ifvqd40","pricing_plan_id":"cebpf4jnsgd1na2vs0mg"},{"bike_id":"00b70da0-29fd-4675-aead-fc7b3cd9d56c","system_id":"levelo_inurba_marseille","lat":43.29618,"lon":5.36746,"is_reserved":false,"is_disabled":false,"rental_uris":{"android":"levelo://app?vid=00b70da0-29fd-4675-aead-fc7b3cd9d56c","ios":"levelo://app?vid=00b70da0-29fd-4675-aead-fc7b3cd9d56c"},"vehicle_type_id":"4","last_reported":1738263998,"current_range_meters":38400,"station_id":"ce4bgph2rcd13ifvqc2g","pricing_plan_id":"cebpf4jnsgd1na2vs0mg"},{"bike_id":"c85b401a-a814-4a87-a46f-45c2e25fb658","system_id":"levelo_inurba_marseille","lat":43.29373,"lon":5.37829,"is_reserved":false,"is_disabled":false,"rental_uris":{"android":"levelo://app?vid=c85b401a-a814-4a87-a46f-45c2e25fb658","ios":"levelo://app?vid=c85b401a-a814-4a87-a46f-45c2e25fb658"},"vehicle_type_id":"4","last_reported":1738263998,"current_range_meters":36400,"station_id":"ce4bgjh2rcd13ifvqbf0","pricing_plan_id":"cebpf4jnsgd1na2vs0mg"},{"bike_id":"e86a70d6-e151-47e4-8970-cedf6aefc409","system_id":"levelo_inurba_marseille","lat":43.26939,"lon":5.40249,"is_reserved":false,"is_disabled":false,"rental_uris":{"android":"levelo://app?vid=e86a70d6-e151-47e4-8970-cedf6aefc409","ios":"levelo://app?vid=e86a70d6-e151-47e4-8970-cedf6aefc409"},"vehicle_type_id":"4","last_reported":1738263998,"current_range_meters":4400,"station_id":"cjm6bp8fraef2m0cb0m0","pricing_plan_id":"cebpf4jnsgd1na2vs0mg"},{"bike_id":"ee2f7bfb-3705-464e-83a9-c7d8ae9c26d7","system_id":"levelo_inurba_marseille","lat":43.30292,"lon":5.3692,"is_reserved":false,"is_disabled":false,"rental_uris":{"android":"levelo://app?vid=ee2f7bfb-3705-464e-83a9-c7d8ae9c26d7","ios":"levelo://app?vid=ee2f7bfb-3705-464e-83a9-c7d8ae9c26d7"},"vehicle_type_id":"4","last_reported":1738263998,"current_range_meters":19600,"station_id":"ce4bgqh2rcd13ifvqc5g","pricing_plan_id":"cebpf4jnsgd1na2vs0mg"},{"bike_id":"fa2f1c21-3bfc-46ef-bcba-588774df180a","system_id":"levelo_inurba_marseille","lat":43.25866,"lon":5.39903,"is_reserved":false,"is_disabled":false,"rental_uris":{"android":"levelo://app?vid=fa2f1c21-3bfc-46ef-bcba-588774df180a","ios":"levelo://app?vid=fa2f1c21-3bfc-46ef-bcba-588774df180a"},"vehicle_type_id":"4","last_reported":1738263998,"current_range_meters":38800,"station_id":"ce4bhl92rcd13ifvqghg","pricing_plan_id":"cebpf4jnsgd1na2vs0mg"},{"bike_id":"93b4852a-b80c-4aa5-a82b-4c051575bbfa","system_id":"levelo_inurba_marseille","lat":43.24047,"lon":5.37726,"is_reserved":false,"is_disabled":false,"rental_uris":{"android":"levelo://app?vid=93b4852a-b80c-4aa5-a82b-4c051575bbfa","ios":"levelo://app?vid=93b4852a-b80c-4aa5-a82b-4c051575bbfa"},"vehicle_type_id":"4","last_reported":1738263998,"current_range_meters":17600,"station_id":"ce4bhnp2rcd13ifvqgvg","pricing_plan_id":"cebpf4jnsgd1na2vs0mg"},{"bike_id":"14f9660e-3c5a-472b-ad83-9a464b2976e9","system_id":"levelo_inurba_marseille","lat":43.31326,"lon":5.39683,"is_reserved":false,"is_disabled":false,"rental_uris":{"android":"levelo://app?vid=14f9660e-3c5a-472b-ad83-9a464b2976e9","ios":"levelo://app?vid=14f9660e-3c5a-472b-ad83-9a464b2976e9"},"vehicle_type_id":"4","last_reported":1738263998,"current_range_meters":30000,"station_id":"ce4bgvp2rcd13ifvqcu0","pricing_plan_id":"cebpf4jnsgd1na2vs0mg"},{"bike_id":"3e7ae16a-8dc5-4e6e-b0da-3f89c3a3dbf7","system_id":"levelo_inurba_marseille","lat":43.34137,"lon":5.40906,"is_reserved":false,"is_disabled":false,"rental_uris":{"android":"levelo://app?vid=3e7ae16a-8dc5-4e6e-b0da-3f89c3a3dbf7","ios":"levelo://app?vid=3e7ae16a-8dc5-4e6e-b0da-3f89c3a3dbf7"},"vehicle_type_id":"4","last_reported":1738263998,"current_range_meters":24000,"station_id":"ce4bhqh2rcd13ifvqhlg","pricing_plan_id":"cebpf4jnsgd1na2vs0mg"},{"bike_id":"472c513f-8a61-497a-a673-4b57d4b299b4","system_id":"levelo_inurba_marseille","lat":43.26796,"lon":5.39417,"is_reserved":false,"is_disabled":false,"rental_uris":{"android":"levelo://app?vid=472c513f-8a61-497a-a673-4b57d4b299b4","ios":"levelo://app?vid=472c513f-8a61-497a-a673-4b57d4b299b4"},"vehicle_type_id":"4","last_reported":1738263998,"current_range_meters":27600,"station_id":"ce4bhh12rcd13ifvqfg0","pricing_plan_id":"cebpf4jnsgd1na2vs0mg"},{"bike_id":"5eb22329-ff09-4a9e-b799-f89a32a3f708","system_id":"levelo_inurba_marseille","lat":43.301418,"lon":5.374146,"is_reserved":false,"is_disabled":false,"rental_uris":{"android":"levelo://app?vid=5eb22329-ff09-4a9e-b799-f89a32a3f708","ios":"levelo://app?vid=5eb22329-ff09-4a9e-b799-f89a32a3f708"},"vehicle_type_id":"4","last_reported":1738263998,"current_range_meters":38000,"station_id":"ce4bgs92rcd13ifvqcc0","pricing_plan_id":"cebpf4jnsgd1na2vs0mg"},{"bike_id":"4406a7f2-069c-498e-a724-8c5abb29aec4","system_id":"levelo_inurba_marseille","lat":43.2678,"lon":5.39427,"is_reserved":false,"is_disabled":false,"rental_uris":{"android":"levelo://app?vid=4406a7f2-069c-498e-a724-8c5abb29aec4","ios":"levelo://app?vid=4406a7f2-069c-498e-a724-8c5abb29aec4"},"vehicle_type_id":"4","last_reported":1738263998,"current_range_meters":20000,"station_id":"ce4bhh12rcd13ifvqfg0","pricing_plan_id":"cebpf4jnsgd1na2vs0mg"},{"bike_id":"39fda13f-0f56-4d84-bd3a-f99078c8032f","system_id":"levelo_inurba_marseille","lat":43.29847,"lon":5.36283,"is_reserved":false,"is_disabled":false,"rental_uris":{"android":"levelo://app?vid=39fda13f-0f56-4d84-bd3a-f99078c8032f","ios":"levelo://app?vid=39fda13f-0f56-4d84-bd3a-f99078c8032f"},"vehicle_type_id":"4","last_reported":1738263998,"current_range_meters":38800,"station_id":"ce4bgpp2rcd13ifvqc3g","pricing_plan_id":"cebpf4jnsgd1na2vs0mg"},{"bike_id":"9fd2b53c-c176-4281-adad-9fc6e73930a3","system_id":"levelo_inurba_marseille","lat":43.24078,"lon":5.37773,"is_reserved":false,"is_disabled":false,"rental_uris":{"android":"levelo://app?vid=9fd2b53c-c176-4281-adad-9fc6e73930a3","ios":"levelo://app?vid=9fd2b53c-c176-4281-adad-9fc6e73930a3"},"vehicle_type_id":"4","last_reported":1738263998,"current_range_meters":38800,"station_id":"ce4bhnp2rcd13ifvqgvg","pricing_plan_id":"cebpf4jnsgd1na2vs0mg"},{"bike_id":"f266d1fd-6ad3-42be-ad37-97755fdb3a73","system_id":"levelo_inurba_marseille","lat":43.29531,"lon":5.38531,"is_reserved":false,"is_disabled":false,"rental_uris":{"android":"levelo://app?vid=f266d1fd-6ad3-42be-ad37-97755fdb3a73","ios":"levelo://app?vid=f266d1fd-6ad3-42be-ad37-97755fdb3a73"},"vehicle_type_id":"4","last_reported":1738263998,"current_range_meters":34000,"station_id":"ce4bgih2rcd13ifvqba0","pricing_plan_id":"cebpf4jnsgd1na2vs0mg"},{"bike_id":"b91260f6-55cd-48e4-acb1-3fdd9369e97f","system_id":"levelo_inurba_marseille","lat":43.28622,"lon":5.35082,"is_reserved":false,"is_disabled":false,"rental_uris":{"android":"levelo://app?vid=b91260f6-55cd-48e4-acb1-3fdd9369e97f","ios":"levelo://app?vid=b91260f6-55cd-48e4-acb1-3fdd9369e97f"},"vehicle_type_id":"4","last_reported":1738263998,"current_range_meters":34800,"station_id":"ce4bhch2rcd13ifvqeug","pricing_plan_id":"cebpf4jnsgd1na2vs0mg"},{"bike_id":"5e995bf7-c9ed-4dac-99cc-dd1f81921bd9","system_id":"levelo_inurba_marseille","lat":43.26938,"lon":5.40262,"is_reserved":false,"is_disabled":false,"rental_uris":{"android":"levelo://app?vid=5e995bf7-c9ed-4dac-99cc-dd1f81921bd9","ios":"levelo://app?vid=5e995bf7-c9ed-4dac-99cc-dd1f81921bd9"},"vehicle_type_id":"4","last_reported":1738263998,"current_range_meters":39200,"station_id":"cjm6bp8fraef2m0cb0m0","pricing_plan_id":"cebpf4jnsgd1na2vs0mg"},{"bike_id":"cd6b353a-d9ae-47b8-9eb1-cf960e9a39fe","system_id":"levelo_inurba_marseille","lat":43.29259,"lon":5.36865,"is_reserved":false,"is_disabled":false,"rental_uris":{"android":"levelo://app?vid=cd6b353a-d9ae-47b8-9eb1-cf960e9a39fe","ios":"levelo://app?vid=cd6b353a-d9ae-47b8-9eb1-cf960e9a39fe"},"vehicle_type_id":"4","last_reported":1738263998,"current_range_meters":13600,"station_id":"ce4bhbp2rcd13ifvqesg","pricing_plan_id":"cebpf4jnsgd1na2vs0mg"},{"bike_id":"9061c30b-f0f7-46e3-8477-d3c2c36b1f53","system_id":"levelo_inurba_marseille","lat":43.28034,"lon":5.36957,"is_reserved":false,"is_disabled":true,"rental_uris":{"android":"levelo://app?vid=9061c30b-f0f7-46e3-8477-d3c2c36b1f53","ios":"levelo://app?vid=9061c30b-f0f7-46e3-8477-d3c2c36b1f53"},"vehicle_type_id":"4","last_reported":1738263998,"current_range_meters":36000,"station_id":"ce4bha12rcd13ifvqef0","pricing_plan_id":"cebpf4jnsgd1na2vs0mg"},{"bike_id":"b47546f7-90c4-40f8-abd8-4029ca471b85","system_id":"levelo_inurba_marseille","lat":43.27369,"lon":5.3625,"is_reserved":false,"is_disabled":false,"rental_uris":{"android":"levelo://app?vid=b47546f7-90c4-40f8-abd8-4029ca471b85","ios":"levelo://app?vid=b47546f7-90c4-40f8-abd8-4029ca471b85"},"vehicle_type_id":"4","last_reported":1738263998,"current_range_meters":38800,"station_id":"ce4bhbh2rcd13ifvqeo0","pricing_plan_id":"cebpf4jnsgd1na2vs0mg"},{"bike_id":"9c1aa31c-e9d4-4bb8-a178-314f6fce8298","system_id":"levelo_inurba_marseille","lat":43.30137,"lon":5.38824,"is_reserved":false,"is_disabled":false,"rental_uris":{"android":"levelo://app?vid=9c1aa31c-e9d4-4bb8-a178-314f6fce8298","ios":"levelo://app?vid=9c1aa31c-e9d4-4bb8-a178-314f6fce8298"},"vehicle_type_id":"4","last_reported":1738263998,"current_range_meters":38400,"station_id":"ce4bghh2rcd13ifvqb60","pricing_plan_id":"cebpf4jnsgd1na2vs0mg"},{"bike_id":"20bde5ed-a913-4b38-96b3-06e41b39699f","system_id":"levelo_inurba_marseille","lat":43.31753,"lon":5.39016,"is_reserved":false,"is_disabled":false,"rental_uris":{"android":"levelo://app?vid=20bde5ed-a913-4b38-96b3-06e41b39699f","ios":"levelo://app?vid=20bde5ed-a913-4b38-96b3-06e41b39699f"},"vehicle_type_id":"4","last_reported":1738263998,"current_range_meters":32800,"station_id":"ce4bhqp2rcd13ifvqhng","pricing_plan_id":"cebpf4jnsgd1na2vs0mg"},{"bike_id":"d18263de-e47d-41b0-b235-663da88af016","system_id":"levelo_inurba_marseille","lat":43.28436,"lon":5.39196,"is_reserved":false,"is_disabled":false,"rental_uris":{"android":"levelo://app?vid=d18263de-e47d-41b0-b235-663da88af016","ios":"levelo://app?vid=d18263de-e47d-41b0-b235-663da88af016"},"vehicle_type_id":"4","last_reported":1738263998,"current_range_meters":3200,"station_id":"ce4bhoh2rcd13ifvqh5g","pricing_plan_id":"cebpf4jnsgd1na2vs0mg"},{"bike_id":"ab2c796a-c23b-4a3a-9534-777b873d6a05","system_id":"levelo_inurba_marseille","lat":43.24167,"lon":5.36395,"is_reserved":false,"is_disabled":false,"rental_uris":{"android":"levelo://app?vid=ab2c796a-c23b-4a3a-9534-777b873d6a05","ios":"levelo://app?vid=ab2c796a-c23b-4a3a-9534-777b873d6a05"},"vehicle_type_id":"4","last_reported":1738263998,"current_range_meters":38800,"station_id":"cpo36qri1sfpv3e86is0","pricing_plan_id":"cebpf4jnsgd1na2vs0mg"},{"bike_id":"9d529811-8444-477d-9a82-57d5a87aec89","system_id":"levelo_inurba_marseille","lat":43.28466,"lon":5.35876,"is_reserved":false,"is_disabled":false,"rental_uris":{"android":"levelo://app?vid=9d529811-8444-477d-9a82-57d5a87aec89","ios":"levelo://app?vid=9d529811-8444-477d-9a82-57d5a87aec89"},"vehicle_type_id":"4","last_reported":1738263998,"current_range_meters":36400,"station_id":"ce4bhah2rcd13ifvqei0","pricing_plan_id":"cebpf4jnsgd1na2vs0mg"},{"bike_id":"58feef8f-17b5-470d-8151-c7a13f0dbe24","system_id":"levelo_inurba_marseille","lat":43.28408,"lon":5.37515,"is_reserved":false,"is_disabled":false,"rental_uris":{"android":"levelo://app?vid=58feef8f-17b5-470d-8151-c7a13f0dbe24","ios":"levelo://app?vid=58feef8f-17b5-470d-8151-c7a13f0dbe24"},"vehicle_type_id":"4","last_reported":1738263998,"current_range_meters":6000,"station_id":"ce4bh412rcd13ifvqds0","pricing_plan_id":"cebpf4jnsgd1na2vs0mg"},{"bike_id":"ac97a4d0-acde-4103-ad5d-60d32382410b","system_id":"levelo_inurba_marseille","lat":43.30577,"lon":5.39359,"is_reserved":false,"is_disabled":true,"rental_uris":{"android":"levelo://app?vid=ac97a4d0-acde-4103-ad5d-60d32382410b","ios":"levelo://app?vid=ac97a4d0-acde-4103-ad5d-60d32382410b"},"vehicle_type_id":"4","last_reported":1738263998,"current_range_meters":2000,"station_id":"ce4bh0p2rcd13ifvqd80","pricing_plan_id":"cebpf4jnsgd1na2vs0mg"},{"bike_id":"159196a2-dcc3-4df6-9914-9cbe59684748","system_id":"levelo_inurba_marseille","lat":43.29785,"lon":5.38096,"is_reserved":false,"is_disabled":false,"rental_uris":{"android":"levelo://app?vid=159196a2-dcc3-4df6-9914-9cbe59684748","ios":"levelo://app?vid=159196a2-dcc3-4df6-9914-9cbe59684748"},"vehicle_type_id":"4","last_reported":1738263998,"current_range_meters":39200,"station_id":"ce4bgip2rcd13ifvqbb0","pricing_plan_id":"cebpf4jnsgd1na2vs0mg"},{"bike_id":"59c84c8c-f740-4013-8df2-50bb9ed0c76d","system_id":"levelo_inurba_marseille","lat":43.25085,"lon":5.39515,"is_reserved":false,"is_disabled":false,"rental_uris":{"android":"levelo://app?vid=59c84c8c-f740-4013-8df2-50bb9ed0c76d","ios":"levelo://app?vid=59c84c8c-f740-4013-8df2-50bb9ed0c76d"},"vehicle_type_id":"4","last_reported":1738263998,"current_range_meters":32000,"station_id":"ce4bhm12rcd13ifvqgkg","pricing_plan_id":"cebpf4jnsgd1na2vs0mg"},{"bike_id":"349525db-a683-452e-a69d-a6cf21342dae","system_id":"levelo_inurba_marseille","lat":43.29582,"lon":5.36748,"is_reserved":false,"is_disabled":false,"rental_uris":{"android":"levelo://app?vid=349525db-a683-452e-a69d-a6cf21342dae","ios":"levelo://app?vid=349525db-a683-452e-a69d-a6cf21342dae"},"vehicle_type_id":"4","last_reported":1738263998,"current_range_meters":35200,"station_id":"ce4bgph2rcd13ifvqc2g","pricing_plan_id":"cebpf4jnsgd1na2vs0mg"},{"bike_id":"b3f9d40e-c6c3-4e70-a1cf-be32056d433c","system_id":"levelo_inurba_marseille","lat":43.24396,"lon":5.37066,"is_reserved":false,"is_disabled":true,"rental_uris":{"android":"levelo://app?vid=b3f9d40e-c6c3-4e70-a1cf-be32056d433c","ios":"levelo://app?vid=b3f9d40e-c6c3-4e70-a1cf-be32056d433c"},"vehicle_type_id":"4","last_reported":1738263998,"current_range_meters":0,"station_id":"ce4bhhh2rcd13ifvqfk0","pricing_plan_id":"cebpf4jnsgd1na2vs0mg"},{"bike_id":"d9ed5303-640c-4034-8a17-1ad90548a427","system_id":"levelo_inurba_marseille","lat":43.25086,"lon":5.3953,"is_reserved":false,"is_disabled":false,"rental_uris":{"android":"levelo://app?vid=d9ed5303-640c-4034-8a17-1ad90548a427","ios":"levelo://app?vid=d9ed5303-640c-4034-8a17-1ad90548a427"},"vehicle_type_id":"4","last_reported":1738263998,"current_range_meters":39200,"station_id":"ce4bhm12rcd13ifvqgkg","pricing_plan_id":"cebpf4jnsgd1na2vs0mg"},{"bike_id":"fc2dee61-6a5e-41ce-a75c-e2029dcb39bc","system_id":"levelo_inurba_marseille","lat":43.26546,"lon":5.37314,"is_reserved":false,"is_disabled":false,"rental_uris":{"android":"levelo://app?vid=fc2dee61-6a5e-41ce-a75c-e2029dcb39bc","ios":"levelo://app?vid=fc2dee61-6a5e-41ce-a75c-e2029dcb39bc"},"vehicle_type_id":"4","last_reported":1738263998,"current_range_meters":17600,"station_id":"ce4bhg12rcd13ifvqf70","pricing_plan_id":"cebpf4jnsgd1na2vs0mg"},{"bike_id":"98d3b3e4-cfb0-4926-8be8-90a8034d23db","system_id":"levelo_inurba_marseille","lat":43.28349,"lon":5.38112,"is_reserved":false,"is_disabled":false,"rental_uris":{"android":"levelo://app?vid=98d3b3e4-cfb0-4926-8be8-90a8034d23db","ios":"levelo://app?vid=98d3b3e4-cfb0-4926-8be8-90a8034d23db"},"vehicle_type_id":"4","last_reported":1738263998,"current_range_meters":20800,"station_id":"ce4bh412rcd13ifvqdr0","pricing_plan_id":"cebpf4jnsgd1na2vs0mg"},{"bike_id":"65b00ecc-57bc-459a-8ca5-936ebd0d28a4","system_id":"levelo_inurba_marseille","lat":43.29433,"lon":5.38643,"is_reserved":false,"is_disabled":false,"rental_uris":{"android":"levelo://app?vid=65b00ecc-57bc-459a-8ca5-936ebd0d28a4","ios":"levelo://app?vid=65b00ecc-57bc-459a-8ca5-936ebd0d28a4"},"vehicle_type_id":"4","last_reported":1738263998,"current_range_meters":34000,"station_id":"ce4bh2h2rcd13ifvqdh0","pricing_plan_id":"cebpf4jnsgd1na2vs0mg"},{"bike_id":"28e881d1-0d7a-445a-bd5a-bac2f44cfb8c","system_id":"levelo_inurba_marseille","lat":43.25929,"lon":5.40914,"is_reserved":false,"is_disabled":true,"rental_uris":{"android":"levelo://app?vid=28e881d1-0d7a-445a-bd5a-bac2f44cfb8c","ios":"levelo://app?vid=28e881d1-0d7a-445a-bd5a-bac2f44cfb8c"},"vehicle_type_id":"4","last_reported":1738263998,"current_range_meters":16000,"station_id":"ce4bhm92rcd13ifvqglg","pricing_plan_id":"cebpf4jnsgd1na2vs0mg"},{"bike_id":"e8e1f7c6-d773-4c38-bfcc-4a6d773355ce","system_id":"levelo_inurba_marseille","lat":43.229339,"lon":5.353846,"is_reserved":false,"is_disabled":false,"rental_uris":{"android":"levelo://app?vid=e8e1f7c6-d773-4c38-bfcc-4a6d773355ce","ios":"levelo://app?vid=e8e1f7c6-d773-4c38-bfcc-4a6d773355ce"},"vehicle_type_id":"4","last_reported":1738263998,"current_range_meters":38800,"station_id":"cpo3532slgdg3j2ikp40","pricing_plan_id":"cebpf4jnsgd1na2vs0mg"},{"bike_id":"57b7807f-dadf-4a68-98f3-8bb7398bbe27","system_id":"levelo_inurba_marseille","lat":43.26943,"lon":5.40255,"is_reserved":false,"is_disabled":false,"rental_uris":{"android":"levelo://app?vid=57b7807f-dadf-4a68-98f3-8bb7398bbe27","ios":"levelo://app?vid=57b7807f-dadf-4a68-98f3-8bb7398bbe27"},"vehicle_type_id":"4","last_reported":1738263998,"current_range_meters":25600,"station_id":"cjm6bp8fraef2m0cb0m0","pricing_plan_id":"cebpf4jnsgd1na2vs0mg"},{"bike_id":"9c577c7e-bb6a-4366-a029-5d396357d344","system_id":"levelo_inurba_marseille","lat":43.29597,"lon":5.36718,"is_reserved":false,"is_disabled":false,"rental_uris":{"android":"levelo://app?vid=9c577c7e-bb6a-4366-a029-5d396357d344","ios":"levelo://app?vid=9c577c7e-bb6a-4366-a029-5d396357d344"},"vehicle_type_id":"4","last_reported":1738263998,"current_range_meters":38800,"station_id":"ce4bgph2rcd13ifvqc2g","pricing_plan_id":"cebpf4jnsgd1na2vs0mg"},{"bike_id":"5bc08849-4511-4e00-bf2f-93fc4c9c78b0","system_id":"levelo_inurba_marseille","lat":43.29415,"lon":5.38624,"is_reserved":false,"is_disabled":false,"rental_uris":{"android":"levelo://app?vid=5bc08849-4511-4e00-bf2f-93fc4c9c78b0","ios":"levelo://app?vid=5bc08849-4511-4e00-bf2f-93fc4c9c78b0"},"vehicle_type_id":"4","last_reported":1738263998,"current_range_meters":36800,"station_id":"ce4bh2h2rcd13ifvqdh0","pricing_plan_id":"cebpf4jnsgd1na2vs0mg"},{"bike_id":"7b6d01c3-b9c6-4cae-b2e7-64fcc0baeeaa","system_id":"levelo_inurba_marseille","lat":43.255763,"lon":5.38196,"is_reserved":false,"is_disabled":false,"rental_uris":{"android":"levelo://app?vid=7b6d01c3-b9c6-4cae-b2e7-64fcc0baeeaa","ios":"levelo://app?vid=7b6d01c3-b9c6-4cae-b2e7-64fcc0baeeaa"},"vehicle_type_id":"4","last_reported":1738263998,"current_range_meters":16000,"station_id":"ce4bhih2rcd13ifvqfs0","pricing_plan_id":"cebpf4jnsgd1na2vs0mg"},{"bike_id":"17a1d8ce-e7f3-47ac-bfe8-07e94d2954bf","system_id":"levelo_inurba_marseille","lat":43.25583,"lon":5.38243,"is_reserved":false,"is_disabled":false,"rental_uris":{"android":"levelo://app?vid=17a1d8ce-e7f3-47ac-bfe8-07e94d2954bf","ios":"levelo://app?vid=17a1d8ce-e7f3-47ac-bfe8-07e94d2954bf"},"vehicle_type_id":"4","last_reported":1738263998,"current_range_meters":23200,"station_id":"ce4bhih2rcd13ifvqfs0","pricing_plan_id":"cebpf4jnsgd1na2vs0mg"},{"bike_id":"873603c6-e1ae-4482-bc98-660199611322","system_id":"levelo_inurba_marseille","lat":43.30895,"lon":5.39621,"is_reserved":false,"is_disabled":true,"rental_uris":{"android":"levelo://app?vid=873603c6-e1ae-4482-bc98-660199611322","ios":"levelo://app?vid=873603c6-e1ae-4482-bc98-660199611322"},"vehicle_type_id":"4","last_reported":1738263998,"current_range_meters":800,"station_id":"ce4bh012rcd13ifvqcv0","pricing_plan_id":"cebpf4jnsgd1na2vs0mg"},{"bike_id":"0aabbfa3-94c5-47b7-b9f2-f42eebf82384","system_id":"levelo_inurba_marseille","lat":43.31362,"lon":5.3849,"is_reserved":false,"is_disabled":false,"rental_uris":{"android":"levelo://app?vid=0aabbfa3-94c5-47b7-b9f2-f42eebf82384","ios":"levelo://app?vid=0aabbfa3-94c5-47b7-b9f2-f42eebf82384"},"vehicle_type_id":"4","last_reported":1738263998,"current_range_meters":30400,"station_id":"ce4bgt92rcd13ifvqcf0","pricing_plan_id":"cebpf4jnsgd1na2vs0mg"},{"bike_id":"732f4b8a-fcee-4b50-8f2e-6cacd504b5cf","system_id":"levelo_inurba_marseille","lat":43.31754,"lon":5.39014,"is_reserved":false,"is_disabled":false,"rental_uris":{"android":"levelo://app?vid=732f4b8a-fcee-4b50-8f2e-6cacd504b5cf","ios":"levelo://app?vid=732f4b8a-fcee-4b50-8f2e-6cacd504b5cf"},"vehicle_type_id":"4","last_reported":1738263998,"current_range_meters":38400,"station_id":"ce4bhqp2rcd13ifvqhng","pricing_plan_id":"cebpf4jnsgd1na2vs0mg"},{"bike_id":"0f6fbc83-3299-483e-a948-76efe049f2a7","system_id":"levelo_inurba_marseille","lat":43.30163,"lon":5.39884,"is_reserved":false,"is_disabled":false,"rental_uris":{"android":"levelo://app?vid=0f6fbc83-3299-483e-a948-76efe049f2a7","ios":"levelo://app?vid=0f6fbc83-3299-483e-a948-76efe049f2a7"},"vehicle_type_id":"4","last_reported":1738263998,"current_range_meters":20800,"station_id":"ce4bh0h2rcd13ifvqd40","pricing_plan_id":"cebpf4jnsgd1na2vs0mg"},{"bike_id":"f0adf01e-c67a-43c1-9c67-8fcdce9d0b14","system_id":"levelo_inurba_marseille","lat":43.29025,"lon":5.37571,"is_reserved":false,"is_disabled":false,"rental_uris":{"android":"levelo://app?vid=f0adf01e-c67a-43c1-9c67-8fcdce9d0b14","ios":"levelo://app?vid=f0adf01e-c67a-43c1-9c67-8fcdce9d0b14"},"vehicle_type_id":"4","last_reported":1738263998,"current_range_meters":28400,"station_id":"ce4bh692rcd13ifvqe90","pricing_plan_id":"cebpf4jnsgd1na2vs0mg"},{"bike_id":"ca03a9bf-828e-40d3-84b4-ade6bd64f51d","system_id":"levelo_inurba_marseille","lat":43.29792,"lon":5.38097,"is_reserved":false,"is_disabled":false,"rental_uris":{"android":"levelo://app?vid=ca03a9bf-828e-40d3-84b4-ade6bd64f51d","ios":"levelo://app?vid=ca03a9bf-828e-40d3-84b4-ade6bd64f51d"},"vehicle_type_id":"4","last_reported":1738263998,"current_range_meters":37600,"station_id":"ce4bgip2rcd13ifvqbb0","pricing_plan_id":"cebpf4jnsgd1na2vs0mg"},{"bike_id":"fa0e78db-e8b1-42c0-99ed-87dc0b435aee","system_id":"levelo_inurba_marseille","lat":43.31061,"lon":5.38348,"is_reserved":false,"is_disabled":false,"rental_uris":{"android":"levelo://app?vid=fa0e78db-e8b1-42c0-99ed-87dc0b435aee","ios":"levelo://app?vid=fa0e78db-e8b1-42c0-99ed-87dc0b435aee"},"vehicle_type_id":"4","last_reported":1738263998,"current_range_meters":28000,"station_id":"ce4bgv92rcd13ifvqcr0","pricing_plan_id":"cebpf4jnsgd1na2vs0mg"},{"bike_id":"e9ec24da-025a-4dfc-8c71-776f8271cad7","system_id":"levelo_inurba_marseille","lat":43.29588,"lon":5.36745,"is_reserved":false,"is_disabled":false,"rental_uris":{"android":"levelo://app?vid=e9ec24da-025a-4dfc-8c71-776f8271cad7","ios":"levelo://app?vid=e9ec24da-025a-4dfc-8c71-776f8271cad7"},"vehicle_type_id":"4","last_reported":1738263998,"current_range_meters":38800,"station_id":"ce4bgph2rcd13ifvqc2g","pricing_plan_id":"cebpf4jnsgd1na2vs0mg"},{"bike_id":"070218cf-5f55-4a87-b307-d0bbb1caf6f4","system_id":"levelo_inurba_marseille","lat":43.23191,"lon":5.39984,"is_reserved":false,"is_disabled":false,"rental_uris":{"android":"levelo://app?vid=070218cf-5f55-4a87-b307-d0bbb1caf6f4","ios":"levelo://app?vid=070218cf-5f55-4a87-b307-d0bbb1caf6f4"},"vehicle_type_id":"4","last_reported":1738263998,"current_range_meters":25600,"station_id":"ce4bhn12rcd13ifvqgqg","pricing_plan_id":"cebpf4jnsgd1na2vs0mg"},{"bike_id":"c0dd6acb-e111-4830-b706-614809304a0b","system_id":"levelo_inurba_marseille","lat":43.27505,"lon":5.42449,"is_reserved":false,"is_disabled":true,"rental_uris":{"android":"levelo://app?vid=c0dd6acb-e111-4830-b706-614809304a0b","ios":"levelo://app?vid=c0dd6acb-e111-4830-b706-614809304a0b"},"vehicle_type_id":"4","last_reported":1738263998,"current_range_meters":24400,"station_id":"ce4bhn92rcd13ifvqgrg","pricing_plan_id":"cebpf4jnsgd1na2vs0mg"},{"bike_id":"a1c5dd46-e4f3-4153-b476-2753b7d1343c","system_id":"levelo_inurba_marseille","lat":43.29194,"lon":5.35809,"is_reserved":false,"is_disabled":true,"rental_uris":{"android":"levelo://app?vid=a1c5dd46-e4f3-4153-b476-2753b7d1343c","ios":"levelo://app?vid=a1c5dd46-e4f3-4153-b476-2753b7d1343c"},"vehicle_type_id":"4","last_reported":1738263998,"current_range_meters":800,"station_id":"ce4bhb12rcd13ifvqel0","pricing_plan_id":"cebpf4jnsgd1na2vs0mg"},{"bike_id":"71f34f72-d3b7-46a5-9bd4-1fe057b3152f","system_id":"levelo_inurba_marseille","lat":43.229369,"lon":5.353768,"is_reserved":false,"is_disabled":false,"rental_uris":{"android":"levelo://app?vid=71f34f72-d3b7-46a5-9bd4-1fe057b3152f","ios":"levelo://app?vid=71f34f72-d3b7-46a5-9bd4-1fe057b3152f"},"vehicle_type_id":"4","last_reported":1738263998,"current_range_meters":38800,"station_id":"cpo3532slgdg3j2ikp40","pricing_plan_id":"cebpf4jnsgd1na2vs0mg"},{"bike_id":"b3057d36-f9c9-428e-bf09-af80f582e3b4","system_id":"levelo_inurba_marseille","lat":43.2511,"lon":5.40325,"is_reserved":false,"is_disabled":false,"rental_uris":{"android":"levelo://app?vid=b3057d36-f9c9-428e-bf09-af80f582e3b4","ios":"levelo://app?vid=b3057d36-f9c9-428e-bf09-af80f582e3b4"},"vehicle_type_id":"4","last_reported":1738263998,"current_range_meters":39200,"station_id":"ce4bhlh2rcd13ifvqgig","pricing_plan_id":"cebpf4jnsgd1na2vs0mg"},{"bike_id":"20029bdd-9f9c-4ff9-86e4-5ba6ed30f46a","system_id":"levelo_inurba_marseille","lat":43.23148,"lon":5.43705,"is_reserved":false,"is_disabled":true,"rental_uris":{"android":"levelo://app?vid=20029bdd-9f9c-4ff9-86e4-5ba6ed30f46a","ios":"levelo://app?vid=20029bdd-9f9c-4ff9-86e4-5ba6ed30f46a"},"vehicle_type_id":"4","last_reported":1738263998,"current_range_meters":0,"station_id":"ce4bhmp2rcd13ifvqgog","pricing_plan_id":"cebpf4jnsgd1na2vs0mg"},{"bike_id":"9a420f87-7d7e-4781-b326-9c09400ca210","system_id":"levelo_inurba_marseille","lat":43.26202,"lon":5.3744,"is_reserved":false,"is_disabled":false,"rental_uris":{"android":"levelo://app?vid=9a420f87-7d7e-4781-b326-9c09400ca210","ios":"levelo://app?vid=9a420f87-7d7e-4781-b326-9c09400ca210"},"vehicle_type_id":"4","last_reported":1738263998,"current_range_meters":16800,"station_id":"ce4bhgp2rcd13ifvqfc0","pricing_plan_id":"cebpf4jnsgd1na2vs0mg"},{"bike_id":"09e02aa6-ef08-4283-9fa9-95ba2a1b98df","system_id":"levelo_inurba_marseille","lat":43.29857,"lon":5.36262,"is_reserved":false,"is_disabled":false,"rental_uris":{"android":"levelo://app?vid=09e02aa6-ef08-4283-9fa9-95ba2a1b98df","ios":"levelo://app?vid=09e02aa6-ef08-4283-9fa9-95ba2a1b98df"},"vehicle_type_id":"4","last_reported":1738263998,"current_range_meters":18000,"station_id":"ce4bgpp2rcd13ifvqc3g","pricing_plan_id":"cebpf4jnsgd1na2vs0mg"},{"bike_id":"279becec-4a79-4c20-8a99-f00d2ae395c1","system_id":"levelo_inurba_marseille","lat":43.31122,"lon":5.38348,"is_reserved":false,"is_disabled":false,"rental_uris":{"android":"levelo://app?vid=279becec-4a79-4c20-8a99-f00d2ae395c1","ios":"levelo://app?vid=279becec-4a79-4c20-8a99-f00d2ae395c1"},"vehicle_type_id":"4","last_reported":1738263998,"current_range_meters":11200,"station_id":"ce4bgv92rcd13ifvqcr0","pricing_plan_id":"cebpf4jnsgd1na2vs0mg"},{"bike_id":"b021a9a9-263c-4ab1-9be0-16a2a519f9e9","system_id":"levelo_inurba_marseille","lat":43.26807,"lon":5.40271,"is_reserved":false,"is_disabled":false,"rental_uris":{"android":"levelo://app?vid=b021a9a9-263c-4ab1-9be0-16a2a519f9e9","ios":"levelo://app?vid=b021a9a9-263c-4ab1-9be0-16a2a519f9e9"},"vehicle_type_id":"4","last_reported":1738263998,"current_range_meters":6000,"station_id":"ce501612rcd8frsf0b60","pricing_plan_id":"cebpf4jnsgd1na2vs0mg"},{"bike_id":"7a8503ce-2278-4768-90d1-b87e022c42c6","system_id":"levelo_inurba_marseille","lat":43.28623,"lon":5.35103,"is_reserved":false,"is_disabled":false,"rental_uris":{"android":"levelo://app?vid=7a8503ce-2278-4768-90d1-b87e022c42c6","ios":"levelo://app?vid=7a8503ce-2278-4768-90d1-b87e022c42c6"},"vehicle_type_id":"4","last_reported":1738263998,"current_range_meters":30800,"station_id":"ce4bhch2rcd13ifvqeug","pricing_plan_id":"cebpf4jnsgd1na2vs0mg"},{"bike_id":"d649d8cd-72d8-4bc3-a5d9-8a769d480ddd","system_id":"levelo_inurba_marseille","lat":43.29275,"lon":5.36848,"is_reserved":false,"is_disabled":false,"rental_uris":{"android":"levelo://app?vid=d649d8cd-72d8-4bc3-a5d9-8a769d480ddd","ios":"levelo://app?vid=d649d8cd-72d8-4bc3-a5d9-8a769d480ddd"},"vehicle_type_id":"4","last_reported":1738263998,"current_range_meters":8800,"station_id":"ce4bhbp2rcd13ifvqesg","pricing_plan_id":"cebpf4jnsgd1na2vs0mg"},{"bike_id":"1f72ad71-ad7d-4852-b343-58bcd87c417a","system_id":"levelo_inurba_marseille","lat":43.26572,"lon":5.39014,"is_reserved":false,"is_disabled":false,"rental_uris":{"android":"levelo://app?vid=1f72ad71-ad7d-4852-b343-58bcd87c417a","ios":"levelo://app?vid=1f72ad71-ad7d-4852-b343-58bcd87c417a"},"vehicle_type_id":"4","last_reported":1738263998,"current_range_meters":24000,"station_id":"ce4bhe12rcd13ifvqf30","pricing_plan_id":"cebpf4jnsgd1na2vs0mg"},{"bike_id":"26bf92da-d481-4630-a4ae-31c3eafacf03","system_id":"levelo_inurba_marseille","lat":43.28,"lon":5.40023,"is_reserved":false,"is_disabled":false,"rental_uris":{"android":"levelo://app?vid=26bf92da-d481-4630-a4ae-31c3eafacf03","ios":"levelo://app?vid=26bf92da-d481-4630-a4ae-31c3eafacf03"},"vehicle_type_id":"4","last_reported":1738263998,"current_range_meters":38000,"station_id":"ce4bho92rcd13ifvqh4g","pricing_plan_id":"cebpf4jnsgd1na2vs0mg"},{"bike_id":"45fd4a2a-a5dc-4b7e-962f-4641aedb60dd","system_id":"levelo_inurba_marseille","lat":43.27974,"lon":5.41668,"is_reserved":false,"is_disabled":true,"rental_uris":{"android":"levelo://app?vid=45fd4a2a-a5dc-4b7e-962f-4641aedb60dd","ios":"levelo://app?vid=45fd4a2a-a5dc-4b7e-962f-4641aedb60dd"},"vehicle_type_id":"4","last_reported":1738263998,"current_range_meters":38800,"station_id":"ce4bho12rcd13ifvqh1g","pricing_plan_id":"cebpf4jnsgd1na2vs0mg"},{"bike_id":"bbd37f25-b511-4ba3-9ad8-9c3bb19bb776","system_id":"levelo_inurba_marseille","lat":43.30326,"lon":5.36913,"is_reserved":false,"is_disabled":false,"rental_uris":{"android":"levelo://app?vid=bbd37f25-b511-4ba3-9ad8-9c3bb19bb776","ios":"levelo://app?vid=bbd37f25-b511-4ba3-9ad8-9c3bb19bb776"},"vehicle_type_id":"4","last_reported":1738263998,"current_range_meters":22800,"station_id":"ce4bgqh2rcd13ifvqc5g","pricing_plan_id":"cebpf4jnsgd1na2vs0mg"},{"bike_id":"e48f10b1-cc5d-4620-a87e-54fa91fb9378","system_id":"levelo_inurba_marseille","lat":43.30905,"lon":5.36846,"is_reserved":false,"is_disabled":false,"rental_uris":{"android":"levelo://app?vid=e48f10b1-cc5d-4620-a87e-54fa91fb9378","ios":"levelo://app?vid=e48f10b1-cc5d-4620-a87e-54fa91fb9378"},"vehicle_type_id":"4","last_reported":1738263998,"current_range_meters":38000,"station_id":"ce4bgn92rcd13ifvqbvg","pricing_plan_id":"cebpf4jnsgd1na2vs0mg"},{"bike_id":"b8cd051c-73e4-43fa-b293-cd513636745c","system_id":"levelo_inurba_marseille","lat":43.29539,"lon":5.3854,"is_reserved":false,"is_disabled":true,"rental_uris":{"android":"levelo://app?vid=b8cd051c-73e4-43fa-b293-cd513636745c","ios":"levelo://app?vid=b8cd051c-73e4-43fa-b293-cd513636745c"},"vehicle_type_id":"4","last_reported":1738263998,"current_range_meters":30000,"station_id":"ce4bgih2rcd13ifvqba0","pricing_plan_id":"cebpf4jnsgd1na2vs0mg"},{"bike_id":"4d213e19-460b-4ffc-abf2-31a900d6c917","system_id":"levelo_inurba_marseille","lat":43.27623,"lon":5.36102,"is_reserved":false,"is_disabled":false,"rental_uris":{"android":"levelo://app?vid=4d213e19-460b-4ffc-abf2-31a900d6c917","ios":"levelo://app?vid=4d213e19-460b-4ffc-abf2-31a900d6c917"},"vehicle_type_id":"4","last_reported":1738263998,"current_range_meters":38800,"station_id":"ce4bgj92rcd13ifvqbe0","pricing_plan_id":"cebpf4jnsgd1na2vs0mg"},{"bike_id":"95aee25f-5c57-4ea4-ae9b-fd75ffb2acea","system_id":"levelo_inurba_marseille","lat":43.23179,"lon":5.39983,"is_reserved":false,"is_disabled":false,"rental_uris":{"android":"levelo://app?vid=95aee25f-5c57-4ea4-ae9b-fd75ffb2acea","ios":"levelo://app?vid=95aee25f-5c57-4ea4-ae9b-fd75ffb2acea"},"vehicle_type_id":"4","last_reported":1738263998,"current_range_meters":29600,"station_id":"ce4bhn12rcd13ifvqgqg","pricing_plan_id":"cebpf4jnsgd1na2vs0mg"},{"bike_id":"8c893236-4e50-4d74-9aae-eef51dda8b0f","system_id":"levelo_inurba_marseille","lat":43.28101,"lon":5.37839,"is_reserved":false,"is_disabled":false,"rental_uris":{"android":"levelo://app?vid=8c893236-4e50-4d74-9aae-eef51dda8b0f","ios":"levelo://app?vid=8c893236-4e50-4d74-9aae-eef51dda8b0f"},"vehicle_type_id":"4","last_reported":1738263998,"current_range_meters":8800,"station_id":"ce4bha12rcd13ifvqee0","pricing_plan_id":"cebpf4jnsgd1na2vs0mg"},{"bike_id":"528fe304-774b-4f5e-99b0-3a6df52f7bd5","system_id":"levelo_inurba_marseille","lat":43.26939,"lon":5.40253,"is_reserved":false,"is_disabled":false,"rental_uris":{"android":"levelo://app?vid=528fe304-774b-4f5e-99b0-3a6df52f7bd5","ios":"levelo://app?vid=528fe304-774b-4f5e-99b0-3a6df52f7bd5"},"vehicle_type_id":"4","last_reported":1738263998,"current_range_meters":28000,"station_id":"cjm6bp8fraef2m0cb0m0","pricing_plan_id":"cebpf4jnsgd1na2vs0mg"},{"bike_id":"cfcdd1f6-4c05-48b4-8d5d-1746e1f60912","system_id":"levelo_inurba_marseille","lat":43.29185,"lon":5.35785,"is_reserved":false,"is_disabled":false,"rental_uris":{"android":"levelo://app?vid=cfcdd1f6-4c05-48b4-8d5d-1746e1f60912","ios":"levelo://app?vid=cfcdd1f6-4c05-48b4-8d5d-1746e1f60912"},"vehicle_type_id":"4","last_reported":1738263998,"current_range_meters":36000,"station_id":"ce4bhb12rcd13ifvqel0","pricing_plan_id":"cebpf4jnsgd1na2vs0mg"},{"bike_id":"dbd1c3bf-64df-4ed4-8db9-8c2b6f2d3caf","system_id":"levelo_inurba_marseille","lat":43.27948,"lon":5.41049,"is_reserved":false,"is_disabled":false,"rental_uris":{"android":"levelo://app?vid=dbd1c3bf-64df-4ed4-8db9-8c2b6f2d3caf","ios":"levelo://app?vid=dbd1c3bf-64df-4ed4-8db9-8c2b6f2d3caf"},"vehicle_type_id":"4","last_reported":1738263998,"current_range_meters":8000,"station_id":"ce4bhnp2rcd13ifvqh0g","pricing_plan_id":"cebpf4jnsgd1na2vs0mg"},{"bike_id":"0883b683-1c58-4a5a-b73f-ff864686958e","system_id":"levelo_inurba_marseille","lat":43.26058,"lon":5.3939,"is_reserved":false,"is_disabled":false,"rental_uris":{"android":"levelo://app?vid=0883b683-1c58-4a5a-b73f-ff864686958e","ios":"levelo://app?vid=0883b683-1c58-4a5a-b73f-ff864686958e"},"vehicle_type_id":"4","last_reported":1738263998,"current_range_meters":38800,"station_id":"ce4bhh92rcd13ifvqfj0","pricing_plan_id":"cebpf4jnsgd1na2vs0mg"},{"bike_id":"3f3b38da-8d76-49d6-be17-984cf0fc3296","system_id":"levelo_inurba_marseille","lat":43.28685,"lon":5.37933,"is_reserved":false,"is_disabled":true,"rental_uris":{"android":"levelo://app?vid=3f3b38da-8d76-49d6-be17-984cf0fc3296","ios":"levelo://app?vid=3f3b38da-8d76-49d6-be17-984cf0fc3296"},"vehicle_type_id":"4","last_reported":1738263998,"current_range_meters":19600,"station_id":"ce4bh9p2rcd13ifvqec0","pricing_plan_id":"cebpf4jnsgd1na2vs0mg"},{"bike_id":"f1c1b4b2-886a-4032-9789-fafe9a004bd4","system_id":"levelo_inurba_marseille","lat":43.28447,"lon":5.3589,"is_reserved":false,"is_disabled":false,"rental_uris":{"android":"levelo://app?vid=f1c1b4b2-886a-4032-9789-fafe9a004bd4","ios":"levelo://app?vid=f1c1b4b2-886a-4032-9789-fafe9a004bd4"},"vehicle_type_id":"4","last_reported":1738263998,"current_range_meters":30400,"station_id":"ce4bhah2rcd13ifvqei0","pricing_plan_id":"cebpf4jnsgd1na2vs0mg"},{"bike_id":"6c6aee42-b35f-474d-8e8e-3e2db6e8b420","system_id":"levelo_inurba_marseille","lat":43.26225,"lon":5.37461,"is_reserved":false,"is_disabled":false,"rental_uris":{"android":"levelo://app?vid=6c6aee42-b35f-474d-8e8e-3e2db6e8b420","ios":"levelo://app?vid=6c6aee42-b35f-474d-8e8e-3e2db6e8b420"},"vehicle_type_id":"4","last_reported":1738263998,"current_range_meters":38400,"station_id":"","pricing_plan_id":"cebpf4jnsgd1na2vs0mg"},{"bike_id":"d6008e4b-c4fc-4e46-a6ec-9afe2ed04cfa","system_id":"levelo_inurba_marseille","lat":43.31323,"lon":5.39694,"is_reserved":false,"is_disabled":false,"rental_uris":{"android":"levelo://app?vid=d6008e4b-c4fc-4e46-a6ec-9afe2ed04cfa","ios":"levelo://app?vid=d6008e4b-c4fc-4e46-a6ec-9afe2ed04cfa"},"vehicle_type_id":"4","last_reported":1738263998,"current_range_meters":20000,"station_id":"ce4bgvp2rcd13ifvqcu0","pricing_plan_id":"cebpf4jnsgd1na2vs0mg"},{"bike_id":"e1cfa601-5685-461f-8b5b-34ca50626e82","system_id":"levelo_inurba_marseille","lat":43.28481,"lon":5.384,"is_reserved":false,"is_disabled":true,"rental_uris":{"android":"levelo://app?vid=e1cfa601-5685-461f-8b5b-34ca50626e82","ios":"levelo://app?vid=e1cfa601-5685-461f-8b5b-34ca50626e82"},"vehicle_type_id":"4","last_reported":1738263998,"current_range_meters":37600,"station_id":"ce4bh512rcd13ifvqe3g","pricing_plan_id":"cebpf4jnsgd1na2vs0mg"},{"bike_id":"dc573393-be08-4eee-bc29-61f0ae2cecd5","system_id":"levelo_inurba_marseille","lat":43.30878,"lon":5.39645,"is_reserved":false,"is_disabled":true,"rental_uris":{"android":"levelo://app?vid=dc573393-be08-4eee-bc29-61f0ae2cecd5","ios":"levelo://app?vid=dc573393-be08-4eee-bc29-61f0ae2cecd5"},"vehicle_type_id":"4","last_reported":1738263998,"current_range_meters":400,"station_id":"ce4bh012rcd13ifvqcv0","pricing_plan_id":"cebpf4jnsgd1na2vs0mg"},{"bike_id":"b85acd52-7afe-42a6-a0c7-8f8819191a5a","system_id":"levelo_inurba_marseille","lat":43.25873,"lon":5.39916,"is_reserved":false,"is_disabled":false,"rental_uris":{"android":"levelo://app?vid=b85acd52-7afe-42a6-a0c7-8f8819191a5a","ios":"levelo://app?vid=b85acd52-7afe-42a6-a0c7-8f8819191a5a"},"vehicle_type_id":"4","last_reported":1738263998,"current_range_meters":34000,"station_id":"ce4bhl92rcd13ifvqghg","pricing_plan_id":"cebpf4jnsgd1na2vs0mg"},{"bike_id":"2cf95841-bc69-4d76-bb4f-dd1068032a77","system_id":"levelo_inurba_marseille","lat":43.29218,"lon":5.36048,"is_reserved":false,"is_disabled":false,"rental_uris":{"android":"levelo://app?vid=2cf95841-bc69-4d76-bb4f-dd1068032a77","ios":"levelo://app?vid=2cf95841-bc69-4d76-bb4f-dd1068032a77"},"vehicle_type_id":"4","last_reported":1738263998,"current_range_meters":28000,"station_id":"ce4bhbh2rcd13ifvqeqg","pricing_plan_id":"cebpf4jnsgd1na2vs0mg"},{"bike_id":"6f62346f-c4bf-4514-9be6-2d454717edd7","system_id":"levelo_inurba_marseille","lat":43.30357,"lon":5.41884,"is_reserved":false,"is_disabled":false,"rental_uris":{"android":"levelo://app?vid=6f62346f-c4bf-4514-9be6-2d454717edd7","ios":"levelo://app?vid=6f62346f-c4bf-4514-9be6-2d454717edd7"},"vehicle_type_id":"4","last_reported":1738263998,"current_range_meters":36400,"station_id":"ce4bhop2rcd13ifvqh7g","pricing_plan_id":"cebpf4jnsgd1na2vs0mg"},{"bike_id":"f9d35a32-65b2-4842-bd83-8cbe10324274","system_id":"levelo_inurba_marseille","lat":43.28627,"lon":5.35122,"is_reserved":false,"is_disabled":false,"rental_uris":{"android":"levelo://app?vid=f9d35a32-65b2-4842-bd83-8cbe10324274","ios":"levelo://app?vid=f9d35a32-65b2-4842-bd83-8cbe10324274"},"vehicle_type_id":"4","last_reported":1738263998,"current_range_meters":16800,"station_id":"ce4bhch2rcd13ifvqeug","pricing_plan_id":"cebpf4jnsgd1na2vs0mg"},{"bike_id":"57ea5f77-abf9-41ff-8ffe-e281a2630bfe","system_id":"levelo_inurba_marseille","lat":43.28097,"lon":5.39644,"is_reserved":false,"is_disabled":true,"rental_uris":{"android":"levelo://app?vid=57ea5f77-abf9-41ff-8ffe-e281a2630bfe","ios":"levelo://app?vid=57ea5f77-abf9-41ff-8ffe-e281a2630bfe"},"vehicle_type_id":"4","last_reported":1738263998,"current_range_meters":38800,"station_id":"ce4bho12rcd13ifvqh2g","pricing_plan_id":"cebpf4jnsgd1na2vs0mg"},{"bike_id":"3f4f1f91-7543-4168-85da-037ac3e3f501","system_id":"levelo_inurba_marseille","lat":43.24544,"lon":5.3952,"is_reserved":false,"is_disabled":false,"rental_uris":{"android":"levelo://app?vid=3f4f1f91-7543-4168-85da-037ac3e3f501","ios":"levelo://app?vid=3f4f1f91-7543-4168-85da-037ac3e3f501"},"vehicle_type_id":"4","last_reported":1738263998,"current_range_meters":38000,"station_id":"ce4bhlp2rcd13ifvqgjg","pricing_plan_id":"cebpf4jnsgd1na2vs0mg"},{"bike_id":"0d28a302-3349-4b07-8963-8aef31c9e7a1","system_id":"levelo_inurba_marseille","lat":43.31985,"lon":5.38092,"is_reserved":false,"is_disabled":false,"rental_uris":{"android":"levelo://app?vid=0d28a302-3349-4b07-8963-8aef31c9e7a1","ios":"levelo://app?vid=0d28a302-3349-4b07-8963-8aef31c9e7a1"},"vehicle_type_id":"4","last_reported":1738263998,"current_range_meters":6800,"station_id":"ce4bhr12rcd13ifvqhpg","pricing_plan_id":"cebpf4jnsgd1na2vs0mg"},{"bike_id":"aecdacf5-379f-42fe-baf8-e46dc8f2d8b8","system_id":"levelo_inurba_marseille","lat":43.28425,"lon":5.37522,"is_reserved":false,"is_disabled":false,"rental_uris":{"android":"levelo://app?vid=aecdacf5-379f-42fe-baf8-e46dc8f2d8b8","ios":"levelo://app?vid=aecdacf5-379f-42fe-baf8-e46dc8f2d8b8"},"vehicle_type_id":"4","last_reported":1738263998,"current_range_meters":29600,"station_id":"ce4bh412rcd13ifvqds0","pricing_plan_id":"cebpf4jnsgd1na2vs0mg"},{"bike_id":"1133f0a4-d0e7-4e5f-86ab-a2501be23ec3","system_id":"levelo_inurba_marseille","lat":43.28451,"lon":5.35892,"is_reserved":false,"is_disabled":false,"rental_uris":{"android":"levelo://app?vid=1133f0a4-d0e7-4e5f-86ab-a2501be23ec3","ios":"levelo://app?vid=1133f0a4-d0e7-4e5f-86ab-a2501be23ec3"},"vehicle_type_id":"4","last_reported":1738263998,"current_range_meters":27600,"station_id":"ce4bhah2rcd13ifvqei0","pricing_plan_id":"cebpf4jnsgd1na2vs0mg"},{"bike_id":"522dae6a-995a-4ef2-8f7a-e4a50b9cb82d","system_id":"levelo_inurba_marseille","lat":43.30322,"lon":5.40439,"is_reserved":false,"is_disabled":false,"rental_uris":{"android":"levelo://app?vid=522dae6a-995a-4ef2-8f7a-e4a50b9cb82d","ios":"levelo://app?vid=522dae6a-995a-4ef2-8f7a-e4a50b9cb82d"},"vehicle_type_id":"4","last_reported":1738263998,"current_range_meters":29600,"station_id":"ce4bh012rcd13ifvqd10","pricing_plan_id":"cebpf4jnsgd1na2vs0mg"},{"bike_id":"4e539857-7783-4ad2-9fff-3042a1e0b08c","system_id":"levelo_inurba_marseille","lat":43.3108,"lon":5.42433,"is_reserved":false,"is_disabled":false,"rental_uris":{"android":"levelo://app?vid=4e539857-7783-4ad2-9fff-3042a1e0b08c","ios":"levelo://app?vid=4e539857-7783-4ad2-9fff-3042a1e0b08c"},"vehicle_type_id":"4","last_reported":1738263998,"current_range_meters":15200,"station_id":"ce4bhp92rcd13ifvqhag","pricing_plan_id":"cebpf4jnsgd1na2vs0mg"},{"bike_id":"56d6b97f-30a2-4c2a-8be6-a12a9fc19507","system_id":"levelo_inurba_marseille","lat":43.317572,"lon":5.390239,"is_reserved":false,"is_disabled":false,"rental_uris":{"android":"levelo://app?vid=56d6b97f-30a2-4c2a-8be6-a12a9fc19507","ios":"levelo://app?vid=56d6b97f-30a2-4c2a-8be6-a12a9fc19507"},"vehicle_type_id":"4","last_reported":1738263998,"current_range_meters":17200,"station_id":"ce4bhqp2rcd13ifvqhng","pricing_plan_id":"cebpf4jnsgd1na2vs0mg"},{"bike_id":"5ec4b11b-ebd7-4e59-a7cf-846cb2682e95","system_id":"levelo_inurba_marseille","lat":43.30095,"lon":5.39959,"is_reserved":false,"is_disabled":true,"rental_uris":{"android":"levelo://app?vid=5ec4b11b-ebd7-4e59-a7cf-846cb2682e95","ios":"levelo://app?vid=5ec4b11b-ebd7-4e59-a7cf-846cb2682e95"},"vehicle_type_id":"4","last_reported":1738263998,"current_range_meters":1200,"station_id":"","pricing_plan_id":"cebpf4jnsgd1na2vs0mg"},{"bike_id":"b598f5f2-4163-4e50-8109-eb2b0f157873","system_id":"levelo_inurba_marseille","lat":43.26511,"lon":5.39521,"is_reserved":false,"is_disabled":false,"rental_uris":{"android":"levelo://app?vid=b598f5f2-4163-4e50-8109-eb2b0f157873","ios":"levelo://app?vid=b598f5f2-4163-4e50-8109-eb2b0f157873"},"vehicle_type_id":"4","last_reported":1738263998,"current_range_meters":24800,"station_id":"ce4bhi12rcd13ifvqfq0","pricing_plan_id":"cebpf4jnsgd1na2vs0mg"},{"bike_id":"d2a61873-58f7-4bc8-abeb-3ce8c1c55c8d","system_id":"levelo_inurba_marseille","lat":43.2719,"lon":5.4098,"is_reserved":false,"is_disabled":false,"rental_uris":{"android":"levelo://app?vid=d2a61873-58f7-4bc8-abeb-3ce8c1c55c8d","ios":"levelo://app?vid=d2a61873-58f7-4bc8-abeb-3ce8c1c55c8d"},"vehicle_type_id":"4","last_reported":1738263998,"current_range_meters":15200,"station_id":"ce4bhl12rcd13ifvqgf0","pricing_plan_id":"cebpf4jnsgd1na2vs0mg"},{"bike_id":"cbb6251a-7583-4acf-a6bc-87e6ff497ee3","system_id":"levelo_inurba_marseille","lat":43.31313,"lon":5.39708,"is_reserved":false,"is_disabled":false,"rental_uris":{"android":"levelo://app?vid=cbb6251a-7583-4acf-a6bc-87e6ff497ee3","ios":"levelo://app?vid=cbb6251a-7583-4acf-a6bc-87e6ff497ee3"},"vehicle_type_id":"4","last_reported":1738263998,"current_range_meters":15200,"station_id":"ce4bgvp2rcd13ifvqcu0","pricing_plan_id":"cebpf4jnsgd1na2vs0mg"},{"bike_id":"9a30fe30-bf34-42c6-9e57-6103dee4c772","system_id":"levelo_inurba_marseille","lat":43.29282,"lon":5.40122,"is_reserved":false,"is_disabled":false,"rental_uris":{"android":"levelo://app?vid=9a30fe30-bf34-42c6-9e57-6103dee4c772","ios":"levelo://app?vid=9a30fe30-bf34-42c6-9e57-6103dee4c772"},"vehicle_type_id":"4","last_reported":1738263998,"current_range_meters":10000,"station_id":"ce4bh312rcd13ifvqdk0","pricing_plan_id":"cebpf4jnsgd1na2vs0mg"},{"bike_id":"463d2556-7f1d-4a79-b8b2-e0c1c692e866","system_id":"levelo_inurba_marseille","lat":43.28024,"lon":5.36942,"is_reserved":false,"is_disabled":false,"rental_uris":{"android":"levelo://app?vid=463d2556-7f1d-4a79-b8b2-e0c1c692e866","ios":"levelo://app?vid=463d2556-7f1d-4a79-b8b2-e0c1c692e866"},"vehicle_type_id":"4","last_reported":1738263998,"current_range_meters":22400,"station_id":"ce4bha12rcd13ifvqef0","pricing_plan_id":"cebpf4jnsgd1na2vs0mg"},{"bike_id":"6bef2781-ae86-4d27-ab5b-8461fe19be32","system_id":"levelo_inurba_marseille","lat":43.2815,"lon":5.42654,"is_reserved":false,"is_disabled":false,"rental_uris":{"android":"levelo://app?vid=6bef2781-ae86-4d27-ab5b-8461fe19be32","ios":"levelo://app?vid=6bef2781-ae86-4d27-ab5b-8461fe19be32"},"vehicle_type_id":"4","last_reported":1738263998,"current_range_meters":38800,"station_id":"ce4bhnh2rcd13ifvqgug","pricing_plan_id":"cebpf4jnsgd1na2vs0mg"},{"bike_id":"cfbb5204-c0e4-43d6-b3e4-9696e0ec11e8","system_id":"levelo_inurba_marseille","lat":43.25082,"lon":5.39512,"is_reserved":false,"is_disabled":false,"rental_uris":{"android":"levelo://app?vid=cfbb5204-c0e4-43d6-b3e4-9696e0ec11e8","ios":"levelo://app?vid=cfbb5204-c0e4-43d6-b3e4-9696e0ec11e8"},"vehicle_type_id":"4","last_reported":1738263998,"current_range_meters":17600,"station_id":"ce4bhm12rcd13ifvqgkg","pricing_plan_id":"cebpf4jnsgd1na2vs0mg"},{"bike_id":"8382186f-0d25-40e6-beca-2632cc8590f2","system_id":"levelo_inurba_marseille","lat":43.29557,"lon":5.42265,"is_reserved":false,"is_disabled":true,"rental_uris":{"android":"levelo://app?vid=8382186f-0d25-40e6-beca-2632cc8590f2","ios":"levelo://app?vid=8382186f-0d25-40e6-beca-2632cc8590f2"},"vehicle_type_id":"4","last_reported":1738263998,"current_range_meters":8000,"station_id":"ce4bhph2rcd13ifvqhdg","pricing_plan_id":"cebpf4jnsgd1na2vs0mg"},{"bike_id":"8e74cb8f-4450-403b-93af-67b02519d86a","system_id":"levelo_inurba_marseille","lat":43.27989,"lon":5.40025,"is_reserved":false,"is_disabled":false,"rental_uris":{"android":"levelo://app?vid=8e74cb8f-4450-403b-93af-67b02519d86a","ios":"levelo://app?vid=8e74cb8f-4450-403b-93af-67b02519d86a"},"vehicle_type_id":"4","last_reported":1738263998,"current_range_meters":31200,"station_id":"ce4bho92rcd13ifvqh4g","pricing_plan_id":"cebpf4jnsgd1na2vs0mg"},{"bike_id":"885c5725-7659-4cad-8fe3-84ae3a73f064","system_id":"levelo_inurba_marseille","lat":43.29546,"lon":5.37504,"is_reserved":false,"is_disabled":false,"rental_uris":{"android":"levelo://app?vid=885c5725-7659-4cad-8fe3-84ae3a73f064","ios":"levelo://app?vid=885c5725-7659-4cad-8fe3-84ae3a73f064"},"vehicle_type_id":"4","last_reported":1738263998,"current_range_meters":38800,"station_id":"ce4bgkp2rcd13ifvqbmg","pricing_plan_id":"cebpf4jnsgd1na2vs0mg"},{"bike_id":"76ff523d-b6c9-4d70-b791-8a7f7cb87cc9","system_id":"levelo_inurba_marseille","lat":43.29298,"lon":5.37444,"is_reserved":false,"is_disabled":false,"rental_uris":{"android":"levelo://app?vid=76ff523d-b6c9-4d70-b791-8a7f7cb87cc9","ios":"levelo://app?vid=76ff523d-b6c9-4d70-b791-8a7f7cb87cc9"},"vehicle_type_id":"4","last_reported":1738263998,"current_range_meters":36800,"station_id":"ce4bgi12rcd13ifvqb70","pricing_plan_id":"cebpf4jnsgd1na2vs0mg"},{"bike_id":"a9c07e51-91f7-447e-9fca-a0629f4dcbce","system_id":"levelo_inurba_marseille","lat":43.29557,"lon":5.42291,"is_reserved":false,"is_disabled":false,"rental_uris":{"android":"levelo://app?vid=a9c07e51-91f7-447e-9fca-a0629f4dcbce","ios":"levelo://app?vid=a9c07e51-91f7-447e-9fca-a0629f4dcbce"},"vehicle_type_id":"4","last_reported":1738263998,"current_range_meters":37600,"station_id":"ce4bhph2rcd13ifvqhdg","pricing_plan_id":"cebpf4jnsgd1na2vs0mg"},{"bike_id":"268b7364-7a94-40d7-9b24-bede754795e4","system_id":"levelo_inurba_marseille","lat":43.2809,"lon":5.37837,"is_reserved":false,"is_disabled":false,"rental_uris":{"android":"levelo://app?vid=268b7364-7a94-40d7-9b24-bede754795e4","ios":"levelo://app?vid=268b7364-7a94-40d7-9b24-bede754795e4"},"vehicle_type_id":"4","last_reported":1738263998,"current_range_meters":34800,"station_id":"ce4bha12rcd13ifvqee0","pricing_plan_id":"cebpf4jnsgd1na2vs0mg"},