{"last_updated":1714579762,"ttl":30,"version":"2.2","data":{"bikes":[{"bike_id":"2005949a-d288-4730-97e3-b25d197ce970","system_id":"levelo_inurba_marseille","lat":43.31341,"lon":5.367098,"is_reserved":false,"is_disabled":false,"rental_uris":{"android":"levelo://app?vid=2005949a-d288-4730-97e3-b25d197ce970","ios":"levelo://app?vid=2005949a-d288-4730-97e3-b25d197ce970"},"vehicle_type_id":"4","last_reported":1714579762,"current_range_meters":3600,"station_id":"ce4bgr92rcd13ifvqc6g","pricing_plan_id":"cebpf4jnsgd1na2vs0mg"},{"bike_id":"8020f1d2-fd8a-422a-8135-2bf9db879283","system_id":"levelo_inurba_marseille","lat":43.313391,"lon":5.36706,"is_reserved":false,"is_disabled":false,"rental_uris":{"android":"levelo://app?vid=8020f1d2-fd8a-422a-8135-2bf9db879283","ios":"levelo://app?vid=8020f1d2-fd8a-422a-8135-2bf9db879283"},"vehicle_type_id":"4","last_reported":1714579762,"current_range_meters":20800,"station_id":"ce4bgr92rcd13ifvqc6g","pricing_plan_id":"cebpf4jnsgd1na2vs0mg"},{"bike_id":"371445c8-a44f-485a-a7c2-f06d783d9390","system_id":"levelo_inurba_marseille","lat":43.31341,"lon":5.367098,"is_reserved":false,"is_disabled":false,"rental_uris":{"android":"levelo://app?vid=371445c8-a44f-485a-a7c2-f06d783d9390","ios":"levelo://app?vid=371445c8-a44f-485a-a7c2-f06d783d9390"},"vehicle_type_id":"4","last_reported":1714579762,"current_range_meters":23200,"station_id":"ce4bgr92rcd13ifvqc6g","pricing_plan_id":"cebpf4jnsgd1na2vs0mg"},{"bike_id":"70bf028e-f787-4cdf-91e3-65cf05eaabef","system_id":"levelo_inurba_marseille","lat":43.31341,"lon":5.367098,"is_reserved":false,"is_disabled":false,"rental_uris":{"android":"levelo://app?vid=70bf028e-f787-4cdf-91e3-65cf05eaabef","ios":"levelo://app?vid=70bf028e-f787-4cdf-91e3-65cf05eaabef"},"vehicle_type_id":"4","last_reported":1714579762,"current_range_meters":10800,"station_id":"ce4bgr92rcd13ifvqc6g","pricing_plan_id":"cebpf4jnsgd1na2vs0mg"},{"bike_id":"8bb11d24-7ba2-43fd-b2dc-b88255f25ec4","system_id":"levelo_inurba_marseille","lat":43.31341,"lon":5.367098,"is_reserved":false,"is_disabled":false,"rental_uris":{"android":"levelo://app?vid=8bb11d24-7ba2-43fd-b2dc-b88255f25ec4","ios":"levelo://app?vid=8bb11d24-7ba2-43fd-b2dc-b88255f25ec4"},"vehicle_type_id":"4","last_reported":1714579762,"current_range_meters":800,"station_id":"ce4bgr92rcd13ifvqc6g","pricing_plan_id":"cebpf4jnsgd1na2vs0mg"},{"bike_id":"b4e68743-8c81-4414-8c15-a413ebe65e71","system_id":"levelo_inurba_marseille","lat":43.31341,"lon":5.367098,"is_reserved":false,"is_disabled":false,"rental_uris":{"android":"levelo://app?vid=b4e68743-8c81-4414-8c15-a413ebe65e71","ios":"levelo://app?vid=b4e68743-8c81-4414-8c15-a413ebe65e71"},"vehicle_type_id":"4","last_reported":1714579762,"current_range_meters":30400,"station_id":"ce4bgr92rcd13ifvqc6g","pricing_plan_id":"cebpf4jnsgd1na2vs0mg"},{"bike_id":"9f801138-5d1e-4075-8cfb-ac3394e842a7","system_id":"levelo_inurba_marseille","lat":43.31341,"lon":5.367098,"is_reserved":false,"is_disabled":false,"rental_uris":{"android":"levelo://app?vid=9f801138-5d1e-4075-8cfb-ac3394e842a7","ios":"levelo://app?vid=9f801138-5d1e-4075-8cfb-ac3394e842a7"},"vehicle_type_id":"4","last_reported":1714579762,"current_range_meters":26000,"station_id":"ce4bgr92rcd13ifvqc6g","pricing_plan_id":"cebpf4jnsgd1na2vs0mg"},{"bike_id":"a27f2a16-099b-4550-8354-dfa89c452f99","system_id":"levelo_inurba_marseille","lat":43.31341,"lon":5.367098,"is_reserved":false,"is_disabled":false,"rental_uris":{"android":"levelo://app?vid=a27f2a16-099b-4550-8354-dfa89c452f99","ios":"levelo://app?vid=a27f2a16-099b-4550-8354-dfa89c452f99"},"vehicle_type_id":"4","last_reported":1714579762,"current_range_meters":26000,"station_id":"ce4bgr92rcd13ifvqc6g","pricing_plan_id":"cebpf4jnsgd1na2vs0mg"},{"bike_id":"7e77f73f-bd2a-4527-9341-c86471e12b61","system_id":"levelo_inurba_marseille","lat":43.31341,"lon":5.367098,"is_reserved":false,"is_disabled":false,"rental_uris":{"android":"levelo://app?vid=7e77f73f-bd2a-4527-9341-c86471e12b61","ios":"levelo://app?vid=7e77f73f-bd2a-4527-9341-c86471e12b61"},"vehicle_type_id":"4","last_reported":1714579762,"current_range_meters":22400,"station_id":"ce4bgr92rcd13ifvqc6g","pricing_plan_id":"cebpf4jnsgd1na2vs0mg"},{"bike_id":"9d60afea-2df3-49b7-b604-c84c724d2b48","system_id":"levelo_inurba_marseille","lat":43.313391,"lon":5.36706,"is_reserved":false,"is_disabled":false,"rental_uris":{"android":"levelo://app?vid=9d60afea-2df3-49b7-b604-c84c724d2b48","ios":"levelo://app?vid=9d60afea-2df3-49b7-b604-c84c724d2b48"},"vehicle_type_id":"4","last_reported":1714579762,"current_range_meters":30000,"station_id":"ce4bgr92rcd13ifvqc6g","pricing_plan_id":"cebpf4jnsgd1na2vs0mg"},{"bike_id":"18266c9b-436c-485b-9d02-c25f4c81f4af","system_id":"levelo_inurba_marseille","lat":43.31341,"lon":5.367098,"is_reserved":false,"is_disabled":false,"rental_uris":{"android":"levelo://app?vid=18266c9b-436c-485b-9d02-c25f4c81f4af","ios":"levelo://app?vid=18266c9b-436c-485b-9d02-c25f4c81f4af"},"vehicle_type_id":"4","last_reported":1714579762,"current_range_meters":19200,"station_id":"ce4bgr92rcd13ifvqc6g","pricing_plan_id":"cebpf4jnsgd1na2vs0mg"},{"bike_id":"bc390c9b-c947-4a83-b0c1-550ae33d310e","system_id":"levelo_inurba_marseille","lat":43.31341,"lon":5.367098,"is_reserved":false,"is_disabled":false,"rental_uris":{"android":"levelo://app?vid=bc390c9b-c947-4a83-b0c1-550ae33d310e","ios":"levelo://app?vid=bc390c9b-c947-4a83-b0c1-550ae33d310e"},"vehicle_type_id":"4","last_reported":1714579762,"current_range_meters":2800,"station_id":"ce4bgr92rcd13ifvqc6g","pricing_plan_id":"cebpf4jnsgd1na2vs0mg"},{"bike_id":"c5ce85b7-a720-4976-b0d9-d361e16c218f","system_id":"levelo_inurba_marseille","lat":43.31231,"lon":5.36849,"is_reserved":false,"is_disabled":false,"rental_uris":{"android":"levelo://app?vid=c5ce85b7-a720-4976-b0d9-d361e16c218f","ios":"levelo://app?vid=c5ce85b7-a720-4976-b0d9-d361e16c218f"},"vehicle_type_id":"4","last_reported":1714579762,"current_range_meters":12400,"station_id":"ce4bgl92rcd13ifvqbq0","pricing_plan_id":"cebpf4jnsgd1na2vs0mg"},{"bike_id":"a8a99bbd-22c8-4c78-82be-e8c5fc0d9a24","system_id":"levelo_inurba_marseille","lat":43.31224,"lon":5.36852,"is_reserved":false,"is_disabled":false,"rental_uris":{"android":"levelo://app?vid=a8a99bbd-22c8-4c78-82be-e8c5fc0d9a24","ios":"levelo://app?vid=a8a99bbd-22c8-4c78-82be-e8c5fc0d9a24"},"vehicle_type_id":"4","last_reported":1714579762,"current_range_meters":6400,"station_id":"ce4bgl92rcd13ifvqbq0","pricing_plan_id":"cebpf4jnsgd1na2vs0mg"},{"bike_id":"c7902e60-dba4-4305-a381-5bdff66d590b","system_id":"levelo_inurba_marseille","lat":43.312296,"lon":5.368566,"is_reserved":false,"is_disabled":false,"rental_uris":{"android":"levelo://app?vid=c7902e60-dba4-4305-a381-5bdff66d590b","ios":"levelo://app?vid=c7902e60-dba4-4305-a381-5bdff66d590b"},"vehicle_type_id":"4","last_reported":1714579762,"current_range_meters":20800,"station_id":"ce4bgl92rcd13ifvqbq0","pricing_plan_id":"cebpf4jnsgd1na2vs0mg"},{"bike_id":"7a714b4c-c244-428a-a2a9-c15df89ce676","system_id":"levelo_inurba_marseille","lat":43.31232,"lon":5.36859,"is_reserved":false,"is_disabled":false,"rental_uris":{"android":"levelo://app?vid=7a714b4c-c244-428a-a2a9-c15df89ce676","ios":"levelo://app?vid=7a714b4c-c244-428a-a2a9-c15df89ce676"},"vehicle_type_id":"4","last_reported":1714579762,"current_range_meters":14400,"station_id":"ce4bgl92rcd13ifvqbq0","pricing_plan_id":"cebpf4jnsgd1na2vs0mg"},{"bike_id":"92fc841d-6090-4431-b9cf-67ae45924af9","system_id":"levelo_inurba_marseille","lat":43.31231,"lon":5.36862,"is_reserved":false,"is_disabled":false,"rental_uris":{"android":"levelo://app?vid=92fc841d-6090-4431-b9cf-67ae45924af9","ios":"levelo://app?vid=92fc841d-6090-4431-b9cf-67ae45924af9"},"vehicle_type_id":"4","last_reported":1714579762,"current_range_meters":15600,"station_id":"ce4bgl92rcd13ifvqbq0","pricing_plan_id":"cebpf4jnsgd1na2vs0mg"},{"bike_id":"37d40662-408c-49bd-9265-0d60d93e6ac1","system_id":"levelo_inurba_marseille","lat":43.312239,"lon":5.368562,"is_reserved":false,"is_disabled":false,"rental_uris":{"android":"levelo://app?vid=37d40662-408c-49bd-9265-0d60d93e6ac1","ios":"levelo://app?vid=37d40662-408c-49bd-9265-0d60d93e6ac1"},"vehicle_type_id":"4","last_reported":1714579762,"current_range_meters":13600,"station_id":"ce4bgl92rcd13ifvqbq0","pricing_plan_id":"cebpf4jnsgd1na2vs0mg"},{"bike_id":"ff0cd6db-f420-4359-80ca-cca823744a4a","system_id":"levelo_inurba_marseille","lat":43.314811,"lon":5.373103,"is_reserved":false,"is_disabled":false,"rental_uris":{"android":"levelo://app?vid=ff0cd6db-f420-4359-80ca-cca823744a4a","ios":"levelo://app?vid=ff0cd6db-f420-4359-80ca-cca823744a4a"},"vehicle_type_id":"4","last_reported":1714579762,"current_range_meters":14400,"station_id":"ce4bgt12rcd13ifvqcd0","pricing_plan_id":"cebpf4jnsgd1na2vs0mg"},{"bike_id":"3c48b40a-3232-4609-b305-9685255dc3e1","system_id":"levelo_inurba_marseille","lat":43.314811,"lon":5.373103,"is_reserved":false,"is_disabled":false,"rental_uris":{"android":"levelo://app?vid=3c48b40a-3232-4609-b305-9685255dc3e1","ios":"levelo://app?vid=3c48b40a-3232-4609-b305-9685255dc3e1"},"vehicle_type_id":"4","last_reported":1714579762,"current_range_meters":10800,"station_id":"ce4bgt12rcd13ifvqcd0","pricing_plan_id":"cebpf4jnsgd1na2vs0mg"},{"bike_id":"4d448b38-c8b5-4fa0-a8aa-fa43abd03d59","system_id":"levelo_inurba_marseille","lat":43.314811,"lon":5.373103,"is_reserved":false,"is_disabled":false,"rental_uris":{"android":"levelo://app?vid=4d448b38-c8b5-4fa0-a8aa-fa43abd03d59","ios":"levelo://app?vid=4d448b38-c8b5-4fa0-a8aa-fa43abd03d59"},"vehicle_type_id":"4","last_reported":1714579762,"current_range_meters":14400,"station_id":"ce4bgt12rcd13ifvqcd0","pricing_plan_id":"cebpf4jnsgd1na2vs0mg"},{"bike_id":"cd3cdc97-c5f1-4121-83e7-811e6c05f82b","system_id":"levelo_inurba_marseille","lat":43.314984,"lon":5.372812,"is_reserved":false,"is_disabled":false,"rental_uris":{"android":"levelo://app?vid=cd3cdc97-c5f1-4121-83e7-811e6c05f82b","ios":"levelo://app?vid=cd3cdc97-c5f1-4121-83e7-811e6c05f82b"},"vehicle_type_id":"4","last_reported":1714579762,"current_range_meters":16800,"station_id":"ce4bgl92rcd13ifvqbq0","pricing_plan_id":"cebpf4jnsgd1na2vs0mg"},{"bike_id":"aa8b9589-b6a7-4ce3-903f-a658998d17b7","system_id":"levelo_inurba_marseille","lat":43.314811,"lon":5.373104,"is_reserved":false,"is_disabled":false,"rental_uris":{"android":"levelo://app?vid=aa8b9589-b6a7-4ce3-903f-a658998d17b7","ios":"levelo://app?vid=aa8b9589-b6a7-4ce3-903f-a658998d17b7"},"vehicle_type_id":"4","last_reported":1714579762,"current_range_meters":20000,"station_id":"ce4bgt12rcd13ifvqcd0","pricing_plan_id":"cebpf4jnsgd1na2vs0mg"},{"bike_id":"5c7b9608-8655-43b3-964f-eef4ad00249e","system_id":"levelo_inurba_marseille","lat":43.314811,"lon":5.373103,"is_reserved":false,"is_disabled":false,"rental_uris":{"android":"levelo://app?vid=5c7b9608-8655-43b3-964f-eef4ad00249e","ios":"levelo://app?vid=5c7b9608-8655-43b3-964f-eef4ad00249e"},"vehicle_type_id":"4","last_reported":1714579762,"current_range_meters":6400,"station_id":"ce4bgt12rcd13ifvqcd0","pricing_plan_id":"cebpf4jnsgd1na2vs0mg"},{"bike_id":"e9ee8b9b-4f7a-42b9-a46c-73df12d596d5","system_id":"levelo_inurba_marseille","lat":43.309039,"lon":5.371797,"is_reserved":false,"is_disabled":false,"rental_uris":{"android":"levelo://app?vid=e9ee8b9b-4f7a-42b9-a46c-73df12d596d5","ios":"levelo://app?vid=e9ee8b9b-4f7a-42b9-a46c-73df12d596d5"},"vehicle_type_id":"4","last_reported":1714579762,"current_range_meters":26400,"station_id":"ce4bguh2rcd13ifvqckg","pricing_plan_id":"cebpf4jnsgd1na2vs0mg"},{"bike_id":"30609b32-4cc5-4fc3-a2ca-fef958e0a571","system_id":"levelo_inurba_marseille","lat":43.309039,"lon":5.371797,"is_reserved":false,"is_disabled":false,"rental_uris":{"android":"levelo://app?vid=30609b32-4cc5-4fc3-a2ca-fef958e0a571","ios":"levelo://app?vid=30609b32-4cc5-4fc3-a2ca-fef958e0a571"},"vehicle_type_id":"4","last_reported":1714579762,"current_range_meters":2000,"station_id":"ce4bguh2rcd13ifvqckg","pricing_plan_id":"cebpf4jnsgd1na2vs0mg"},{"bike_id":"555ae906-1e10-49d4-ad24-d5f64aaf1b9b","system_id":"levelo_inurba_marseille","lat":43.309034,"lon":5.371783,"is_reserved":false,"is_disabled":false,"rental_uris":{"android":"levelo://app?vid=555ae906-1e10-49d4-ad24-d5f64aaf1b9b","ios":"levelo://app?vid=555ae906-1e10-49d4-ad24-d5f64aaf1b9b"},"vehicle_type_id":"4","last_reported":1714579762,"current_range_meters":26400,"station_id":"ce4bguh2rcd13ifvqckg","pricing_plan_id":"cebpf4jnsgd1na2vs0mg"},{"bike_id":"010f4cc7-b843-4eec-9a39-4d99a6097068","system_id":"levelo_inurba_marseille","lat":43.309034,"lon":5.371783,"is_reserved":false,"is_disabled":false,"rental_uris":{"android":"levelo://app?vid=010f4cc7-b843-4eec-9a39-4d99a6097068","ios":"levelo://app?vid=010f4cc7-b843-4eec-9a39-4d99a6097068"},"vehicle_type_id":"4","last_reported":1714579762,"current_range_meters":10800,"station_id":"ce4bguh2rcd13ifvqckg","pricing_plan_id":"cebpf4jnsgd1na2vs0mg"},{"bike_id":"0803de08-2fac-4592-892f-80540c9b4761","system_id":"levelo_inurba_marseille","lat":43.309034,"lon":5.371783,"is_reserved":false,"is_disabled":false,"rental_uris":{"android":"levelo://app?vid=0803de08-2fac-4592-892f-80540c9b4761","ios":"levelo://app?vid=0803de08-2fac-4592-892f-80540c9b4761"},"vehicle_type_id":"4","last_reported":1714579762,"current_range_meters":23600,"station_id":"ce4bguh2rcd13ifvqckg","pricing_plan_id":"cebpf4jnsgd1na2vs0mg"},{"bike_id":"e7fddd9c-e2af-49a8-9047-e51b91af69a7","system_id":"levelo_inurba_marseille","lat":43.305368,"lon":5.367343,"is_reserved":false,"is_disabled":false,"rental_uris":{"android":"levelo://app?vid=e7fddd9c-e2af-49a8-9047-e51b91af69a7","ios":"levelo://app?vid=e7fddd9c-e2af-49a8-9047-e51b91af69a7"},"vehicle_type_id":"4","last_reported":1714579762,"current_range_meters":11600,"station_id":"ce4bgrp2rcd13ifvqc9g","pricing_plan_id":"cebpf4jnsgd1na2vs0mg"},{"bike_id":"500dc1a7-16cc-4f80-a361-740f03979468","system_id":"levelo_inurba_marseille","lat":43.305714,"lon":5.365633,"is_reserved":false,"is_disabled":false,"rental_uris":{"android":"levelo://app?vid=500dc1a7-16cc-4f80-a361-740f03979468","ios":"levelo://app?vid=500dc1a7-16cc-4f80-a361-740f03979468"},"vehicle_type_id":"4","last_reported":1714579762,"current_range_meters":12000,"station_id":"ce4bgs12rcd13ifvqcag","pricing_plan_id":"cebpf4jnsgd1na2vs0mg"},{"bike_id":"8a39e379-e4ec-4b4c-a9de-c748e1388fb6","system_id":"levelo_inurba_marseille","lat":43.30545,"lon":5.36528,"is_reserved":false,"is_disabled":false,"rental_uris":{"android":"levelo://app?vid=8a39e379-e4ec-4b4c-a9de-c748e1388fb6","ios":"levelo://app?vid=8a39e379-e4ec-4b4c-a9de-c748e1388fb6"},"vehicle_type_id":"4","last_reported":1714579762,"current_range_meters":31200,"station_id":"ce4bgs12rcd13ifvqcag","pricing_plan_id":"cebpf4jnsgd1na2vs0mg"},{"bike_id":"e68b2fd6-943e-41b0-bbe9-1c444cd8017a","system_id":"levelo_inurba_marseille","lat":43.305706,"lon":5.365654,"is_reserved":false,"is_disabled":false,"rental_uris":{"android":"levelo://app?vid=e68b2fd6-943e-41b0-bbe9-1c444cd8017a","ios":"levelo://app?vid=e68b2fd6-943e-41b0-bbe9-1c444cd8017a"},"vehicle_type_id":"4","last_reported":1714579762,"current_range_meters":30400,"station_id":"ce4bgs12rcd13ifvqcag","pricing_plan_id":"cebpf4jnsgd1na2vs0mg"},{"bike_id":"9342317a-5d32-4f7c-aa79-578db10d9f37","system_id":"levelo_inurba_marseille","lat":43.305706,"lon":5.365654,"is_reserved":false,"is_disabled":false,"rental_uris":{"android":"levelo://app?vid=9342317a-5d32-4f7c-aa79-578db10d9f37","ios":"levelo://app?vid=9342317a-5d32-4f7c-aa79-578db10d9f37"},"vehicle_type_id":"4","last_reported":1714579762,"current_range_meters":26000,"station_id":"ce4bgs12rcd13ifvqcag","pricing_plan_id":"cebpf4jnsgd1na2vs0mg"},{"bike_id":"79ddf5d2-6901-4969-823c-3a9ecb1cd8d1","system_id":"levelo_inurba_marseille","lat":43.305714,"lon":5.365633,"is_reserved":false,"is_disabled":false,"rental_uris":{"android":"levelo://app?vid=79ddf5d2-6901-4969-823c-3a9ecb1cd8d1","ios":"levelo://app?vid=79ddf5d2-6901-4969-823c-3a9ecb1cd8d1"},"vehicle_type_id":"4","last_reported":1714579762,"current_range_meters":31200,"station_id":"ce4bgs12rcd13ifvqcag","pricing_plan_id":"cebpf4jnsgd1na2vs0mg"},{"bike_id":"7bb3837b-f72e-49af-80fc-109f6c1cf19d","system_id":"levelo_inurba_marseille","lat":43.305706,"lon":5.365654,"is_reserved":false,"is_disabled":false,"rental_uris":{"android":"levelo://app?vid=7bb3837b-f72e-49af-80fc-109f6c1cf19d","ios":"levelo://app?vid=7bb3837b-f72e-49af-80fc-109f6c1cf19d"},"vehicle_type_id":"4","last_reported":1714579762,"current_range_meters":3600,"station_id":"ce4bgs12rcd13ifvqcag","pricing_plan_id":"cebpf4jnsgd1na2vs0mg"},{"bike_id":"e78c970c-1f34-425e-8c4e-fc13e22b5ba6","system_id":"levelo_inurba_marseille","lat":43.311125,"lon":5.377624,"is_reserved":false,"is_disabled":false,"rental_uris":{"android":"levelo://app?vid=e78c970c-1f34-425e-8c4e-fc13e22b5ba6","ios":"levelo://app?vid=e78c970c-1f34-425e-8c4e-fc13e22b5ba6"},"vehicle_type_id":"4","last_reported":1714579762,"current_range_meters":17200,"station_id":"ce4bgt92rcd13ifvqcg0","pricing_plan_id":"cebpf4jnsgd1na2vs0mg"},{"bike_id":"9bf09cfe-c2db-4536-8936-c4f3bf375986","system_id":"levelo_inurba_marseille","lat":43.305706,"lon":5.365654,"is_reserved":false,"is_disabled":false,"rental_uris":{"android":"levelo://app?vid=9bf09cfe-c2db-4536-8936-c4f3bf375986","ios":"levelo://app?vid=9bf09cfe-c2db-4536-8936-c4f3bf375986"},"vehicle_type_id":"4","last_reported":1714579762,"current_range_meters":2000,"station_id":"ce4bgs12rcd13ifvqcag","pricing_plan_id":"cebpf4jnsgd1na2vs0mg"},{"bike_id":"8b63c0e8-1f4f-469d-85c7-9c9ccfef693e","system_id":"levelo_inurba_marseille","lat":43.305989,"lon":5.37225,"is_reserved":false,"is_disabled":false,"rental_uris":{"android":"levelo://app?vid=8b63c0e8-1f4f-469d-85c7-9c9ccfef693e","ios":"levelo://app?vid=8b63c0e8-1f4f-469d-85c7-9c9ccfef693e"},"vehicle_type_id":"4","last_reported":1714579762,"current_range_meters":2400,"station_id":"ce4bgqh2rcd13ifvqc4g","pricing_plan_id":"cebpf4jnsgd1na2vs0mg"},{"bike_id":"0aab3e67-6065-4895-a0ad-a43b641221e2","system_id":"levelo_inurba_marseille","lat":43.305706,"lon":5.365654,"is_reserved":false,"is_disabled":false,"rental_uris":{"android":"levelo://app?vid=0aab3e67-6065-4895-a0ad-a43b641221e2","ios":"levelo://app?vid=0aab3e67-6065-4895-a0ad-a43b641221e2"},"vehicle_type_id":"4","last_reported":1714579762,"current_range_meters":19200,"station_id":"ce4bgs12rcd13ifvqcag","pricing_plan_id":"cebpf4jnsgd1na2vs0mg"},{"bike_id":"bc5ba298-7309-488f-bd82-9b559df072c7","system_id":"levelo_inurba_marseille","lat":43.305989,"lon":5.37225,"is_reserved":false,"is_disabled":false,"rental_uris":{"android":"levelo://app?vid=bc5ba298-7309-488f-bd82-9b559df072c7","ios":"levelo://app?vid=bc5ba298-7309-488f-bd82-9b559df072c7"},"vehicle_type_id":"4","last_reported":1714579762,"current_range_meters":16800,"station_id":"ce4bgqh2rcd13ifvqc4g","pricing_plan_id":"cebpf4jnsgd1na2vs0mg"},{"bike_id":"f543dffb-cd43-4ba2-8011-f8f4dc8eee04","system_id":"levelo_inurba_marseille","lat":43.305989,"lon":5.37225,"is_reserved":false,"is_disabled":false,"rental_uris":{"android":"levelo://app?vid=f543dffb-cd43-4ba2-8011-f8f4dc8eee04","ios":"levelo://app?vid=f543dffb-cd43-4ba2-8011-f8f4dc8eee04"},"vehicle_type_id":"4","last_reported":1714579762,"current_range_meters":31200,"station_id":"ce4bgqh2rcd13ifvqc4g","pricing_plan_id":"cebpf4jnsgd1na2vs0mg"},{"bike_id":"ff34ce50-ec50-4427-8a65-8e58f1f59561","system_id":"levelo_inurba_marseille","lat":43.311125,"lon":5.377624,"is_reserved":false,"is_disabled":false,"rental_uris":{"android":"levelo://app?vid=ff34ce50-ec50-4427-8a65-8e58f1f59561","ios":"levelo://app?vid=ff34ce50-ec50-4427-8a65-8e58f1f59561"},"vehicle_type_id":"4","last_reported":1714579762,"current_range_meters":0,"station_id":"ce4bgt92rcd13ifvqcg0","pricing_plan_id":"cebpf4jnsgd1na2vs0mg"},{"bike_id":"6520f4c7-08a5-49eb-9213-9704f5a644e1","system_id":"levelo_inurba_marseille","lat":43.311125,"lon":5.377624,"is_reserved":false,"is_disabled":false,"rental_uris":{"android":"levelo://app?vid=6520f4c7-08a5-49eb-9213-9704f5a644e1","ios":"levelo://app?vid=6520f4c7-08a5-49eb-9213-9704f5a644e1"},"vehicle_type_id":"4","last_reported":1714579762,"current_range_meters":0,"station_id":"ce4bgt92rcd13ifvqcg0","pricing_plan_id":"cebpf4jnsgd1na2vs0mg"},{"bike_id":"6eb664b6-ee5e-4413-9dfc-54a13a020995","system_id":"levelo_inurba_marseille","lat":43.311125,"lon":5.377624,"is_reserved":false,"is_disabled":false,"rental_uris":{"android":"levelo://app?vid=6eb664b6-ee5e-4413-9dfc-54a13a020995","ios":"levelo://app?vid=6eb664b6-ee5e-4413-9dfc-54a13a020995"},"vehicle_type_id":"4","last_reported":1714579762,"current_range_meters":31200,"station_id":"ce4bgt92rcd13ifvqcg0","pricing_plan_id":"cebpf4jnsgd1na2vs0mg"},{"bike_id":"1231272b-a15c-4ef7-9a5f-dadb53f0a5fd","system_id":"levelo_inurba_marseille","lat":43.311125,"lon":5.377624,"is_reserved":false,"is_disabled":false,"rental_uris":{"android":"levelo://app?vid=1231272b-a15c-4ef7-9a5f-dadb53f0a5fd","ios":"levelo://app?vid=1231272b-a15c-4ef7-9a5f-dadb53f0a5fd"},"vehicle_type_id":"4","last_reported":1714579762,"current_range_meters":1600,"station_id":"ce4bgt92rcd13ifvqcg0","pricing_plan_id":"cebpf4jnsgd1na2vs0mg"},{"bike_id":"b0764856-54dd-4a22-b548-ac7a1afeefe1","system_id":"levelo_inurba_marseille","lat":43.305368,"lon":5.367343,"is_reserved":false,"is_disabled":false,"rental_uris":{"android":"levelo://app?vid=b0764856-54dd-4a22-b548-ac7a1afeefe1","ios":"levelo://app?vid=b0764856-54dd-4a22-b548-ac7a1afeefe1"},"vehicle_type_id":"4","last_reported":1714579762,"current_range_meters":14000,"station_id":"ce4bgrp2rcd13ifvqc9g","pricing_plan_id":"cebpf4jnsgd1na2vs0mg"},{"bike_id":"c8d8cf3e-2615-4a67-9c4b-28d0b05a3089","system_id":"levelo_inurba_marseille","lat":43.311125,"lon":5.377624,"is_reserved":false,"is_disabled":false,"rental_uris":{"android":"levelo://app?vid=c8d8cf3e-2615-4a67-9c4b-28d0b05a3089","ios":"levelo://app?vid=c8d8cf3e-2615-4a67-9c4b-28d0b05a3089"},"vehicle_type_id":"4","last_reported":1714579762,"current_range_meters":0,"station_id":"ce4bgt92rcd13ifvqcg0","pricing_plan_id":"cebpf4jnsgd1na2vs0mg"},{"bike_id":"79d0e348-0705-4972-8e80-ed7b56c87c03","system_id":"levelo_inurba_marseille","lat":43.307847,"lon":5.376459,"is_reserved":false,"is_disabled":false,"rental_uris":{"android":"levelo://app?vid=79d0e348-0705-4972-8e80-ed7b56c87c03","ios":"levelo://app?vid=79d0e348-0705-4972-8e80-ed7b56c87c03"},"vehicle_type_id":"4","last_reported":1714579762,"current_range_meters":12000,"station_id":"ce4bgv92rcd13ifvqcq0","pricing_plan_id":"cebpf4jnsgd1na2vs0mg"},{"bike_id":"3b843150-0aec-4412-bc87-32ea6be6b2cf","system_id":"levelo_inurba_marseille","lat":43.30784,"lon":5.3765,"is_reserved":false,"is_disabled":false,"rental_uris":{"android":"levelo://app?vid=3b843150-0aec-4412-bc87-32ea6be6b2cf","ios":"levelo://app?vid=3b843150-0aec-4412-bc87-32ea6be6b2cf"},"vehicle_type_id":"4","last_reported":1714579762,"current_range_meters":0,"station_id":"ce4bgv92rcd13ifvqcq0","pricing_plan_id":"cebpf4jnsgd1na2vs0mg"},{"bike_id":"98d580f9-42ca-4e12-9d14-2cd9b6caf836","system_id":"levelo_inurba_marseille","lat":43.31725,"lon":5.37778,"is_reserved":false,"is_disabled":false,"rental_uris":{"android":"levelo://app?vid=98d580f9-42ca-4e12-9d14-2cd9b6caf836","ios":"levelo://app?vid=98d580f9-42ca-4e12-9d14-2cd9b6caf836"},"vehicle_type_id":"4","last_reported":1714579762,"current_range_meters":4800,"station_id":"ce4bgth2rcd13ifvqch0","pricing_plan_id":"cebpf4jnsgd1na2vs0mg"},{"bike_id":"3747e421-cf1e-4098-be5f-c36e27ddd50b","system_id":"levelo_inurba_marseille","lat":43.310804,"lon":5.38359,"is_reserved":false,"is_disabled":false,"rental_uris":{"android":"levelo://app?vid=3747e421-cf1e-4098-be5f-c36e27ddd50b","ios":"levelo://app?vid=3747e421-cf1e-4098-be5f-c36e27ddd50b"},"vehicle_type_id":"4","last_reported":1714579762,"current_range_meters":14000,"station_id":"ce4bgv92rcd13ifvqcr0","pricing_plan_id":"cebpf4jnsgd1na2vs0mg"},{"bike_id":"9a5b57a6-1ecd-4bd8-b8c3-92bab67c278e","system_id":"levelo_inurba_marseille","lat":43.315293,"lon":5.380349,"is_reserved":false,"is_disabled":false,"rental_uris":{"android":"levelo://app?vid=9a5b57a6-1ecd-4bd8-b8c3-92bab67c278e","ios":"levelo://app?vid=9a5b57a6-1ecd-4bd8-b8c3-92bab67c278e"},"vehicle_type_id":"4","last_reported":1714579762,"current_range_meters":29200,"station_id":"ce4bhsp2rcd13ifvqi50","pricing_plan_id":"cebpf4jnsgd1na2vs0mg"},{"bike_id":"fbb2fa9f-713e-4a00-a1e6-04d1206cf2da","system_id":"levelo_inurba_marseille","lat":43.315289,"lon":5.380349,"is_reserved":false,"is_disabled":false,"rental_uris":{"android":"levelo://app?vid=fbb2fa9f-713e-4a00-a1e6-04d1206cf2da","ios":"levelo://app?vid=fbb2fa9f-713e-4a00-a1e6-04d1206cf2da"},"vehicle_type_id":"4","last_reported":1714579762,"current_range_meters":28800,"station_id":"ce4bhsp2rcd13ifvqi50","pricing_plan_id":"cebpf4jnsgd1na2vs0mg"},{"bike_id":"8eb0de91-ce4a-4357-9ad6-b5e323b5ca5c","system_id":"levelo_inurba_marseille","lat":43.301939,"lon":5.366286,"is_reserved":false,"is_disabled":false,"rental_uris":{"android":"levelo://app?vid=8eb0de91-ce4a-4357-9ad6-b5e323b5ca5c","ios":"levelo://app?vid=8eb0de91-ce4a-4357-9ad6-b5e323b5ca5c"},"vehicle_type_id":"4","last_reported":1714579762,"current_range_meters":15600,"station_id":"ce4bgrh2rcd13ifvqc8g","pricing_plan_id":"cebpf4jnsgd1na2vs0mg"},{"bike_id":"09d92cc1-8f21-4347-875e-bb87d2ed7f89","system_id":"levelo_inurba_marseille","lat":43.301939,"lon":5.366286,"is_reserved":false,"is_disabled":false,"rental_uris":{"android":"levelo://app?vid=09d92cc1-8f21-4347-875e-bb87d2ed7f89","ios":"levelo://app?vid=09d92cc1-8f21-4347-875e-bb87d2ed7f89"},"vehicle_type_id":"4","last_reported":1714579762,"current_range_meters":18800,"station_id":"ce4bgrh2rcd13ifvqc8g","pricing_plan_id":"cebpf4jnsgd1na2vs0mg"},{"bike_id":"1838917b-2bef-4383-91d2-74a0df38a58c","system_id":"levelo_inurba_marseille","lat":43.301939,"lon":5.366286,"is_reserved":false,"is_disabled":false,"rental_uris":{"android":"levelo://app?vid=1838917b-2bef-4383-91d2-74a0df38a58c","ios":"levelo://app?vid=1838917b-2bef-4383-91d2-74a0df38a58c"},"vehicle_type_id":"4","last_reported":1714579762,"current_range_meters":21600,"station_id":"ce4bgrh2rcd13ifvqc8g","pricing_plan_id":"cebpf4jnsgd1na2vs0mg"},{"bike_id":"6ec3af69-af60-4683-a37f-cfad85ee7303","system_id":"levelo_inurba_marseille","lat":43.308012,"lon":5.381511,"is_reserved":false,"is_disabled":false,"rental_uris":{"android":"levelo://app?vid=6ec3af69-af60-4683-a37f-cfad85ee7303","ios":"levelo://app?vid=6ec3af69-af60-4683-a37f-cfad85ee7303"},"vehicle_type_id":"4","last_reported":1714579762,"current_range_meters":2000,"station_id":"ce4bgt12rcd13ifvqce0","pricing_plan_id":"cebpf4jnsgd1na2vs0mg"},{"bike_id":"e241a4ea-bebf-4b92-b285-45ceaec40dd8","system_id":"levelo_inurba_marseille","lat":43.324771,"lon":5.36557,"is_reserved":false,"is_disabled":false,"rental_uris":{"android":"levelo://app?vid=e241a4ea-bebf-4b92-b285-45ceaec40dd8","ios":"levelo://app?vid=e241a4ea-bebf-4b92-b285-45ceaec40dd8"},"vehicle_type_id":"4","last_reported":1714579762,"current_range_meters":17200,"station_id":"ce4bhs12rcd13ifvqhvg","pricing_plan_id":"cebpf4jnsgd1na2vs0mg"},{"bike_id":"61f148c8-a6cf-400a-a852-48aa57397481","system_id":"levelo_inurba_marseille","lat":43.304606,"lon":5.379026,"is_reserved":false,"is_disabled":false,"rental_uris":{"android":"levelo://app?vid=61f148c8-a6cf-400a-a852-48aa57397481","ios":"levelo://app?vid=61f148c8-a6cf-400a-a852-48aa57397481"},"vehicle_type_id":"4","last_reported":1714579762,"current_range_meters":10800,"station_id":"ce4bgup2rcd13ifvqcn0","pricing_plan_id":"cebpf4jnsgd1na2vs0mg"},{"bike_id":"c30ca96a-f2b4-417b-a177-35191cbb8887","system_id":"levelo_inurba_marseille","lat":43.30467,"lon":5.37901,"is_reserved":false,"is_disabled":false,"rental_uris":{"android":"levelo://app?vid=c30ca96a-f2b4-417b-a177-35191cbb8887","ios":"levelo://app?vid=c30ca96a-f2b4-417b-a177-35191cbb8887"},"vehicle_type_id":"4","last_reported":1714579762,"current_range_meters":0,"station_id":"ce4bgup2rcd13ifvqcn0","pricing_plan_id":"cebpf4jnsgd1na2vs0mg"},{"bike_id":"b7f604e8-ba30-4917-b166-7635815a8675","system_id":"levelo_inurba_marseille","lat":43.304677,"lon":5.379035,"is_reserved":false,"is_disabled":false,"rental_uris":{"android":"levelo://app?vid=b7f604e8-ba30-4917-b166-7635815a8675","ios":"levelo://app?vid=b7f604e8-ba30-4917-b166-7635815a8675"},"vehicle_type_id":"4","last_reported":1714579762,"current_range_meters":0,"station_id":"ce4bgup2rcd13ifvqcn0","pricing_plan_id":"cebpf4jnsgd1na2vs0mg"},{"bike_id":"f832354b-38ba-4cf8-a4cf-3bb6f0968c21","system_id":"levelo_inurba_marseille","lat":43.304606,"lon":5.379026,"is_reserved":false,"is_disabled":false,"rental_uris":{"android":"levelo://app?vid=f832354b-38ba-4cf8-a4cf-3bb6f0968c21","ios":"levelo://app?vid=f832354b-38ba-4cf8-a4cf-3bb6f0968c21"},"vehicle_type_id":"4","last_reported":1714579762,"current_range_meters":22400,"station_id":"ce4bgup2rcd13ifvqcn0","pricing_plan_id":"cebpf4jnsgd1na2vs0mg"},{"bike_id":"a5586861-2726-4579-85be-622a9ad2a9ef","system_id":"levelo_inurba_marseille","lat":43.304637,"lon":5.379035,"is_reserved":false,"is_disabled":false,"rental_uris":{"android":"levelo://app?vid=a5586861-2726-4579-85be-622a9ad2a9ef","ios":"levelo://app?vid=a5586861-2726-4579-85be-622a9ad2a9ef"},"vehicle_type_id":"4","last_reported":1714579762,"current_range_meters":0,"station_id":"ce4bgup2rcd13ifvqcn0","pricing_plan_id":"cebpf4jnsgd1na2vs0mg"},{"bike_id":"8a62af9a-2a8d-4f3c-b563-ddb2df53a4b2","system_id":"levelo_inurba_marseille","lat":43.304606,"lon":5.379026,"is_reserved":false,"is_disabled":false,"rental_uris":{"android":"levelo://app?vid=8a62af9a-2a8d-4f3c-b563-ddb2df53a4b2","ios":"levelo://app?vid=8a62af9a-2a8d-4f3c-b563-ddb2df53a4b2"},"vehicle_type_id":"4","last_reported":1714579762,"current_range_meters":23600,"station_id":"ce4bgup2rcd13ifvqcn0","pricing_plan_id":"cebpf4jnsgd1na2vs0mg"},{"bike_id":"17c15f39-0011-427d-be71-2c6a8ff7fb88","system_id":"levelo_inurba_marseille","lat":43.304606,"lon":5.379026,"is_reserved":false,"is_disabled":false,"rental_uris":{"android":"levelo://app?vid=17c15f39-0011-427d-be71-2c6a8ff7fb88","ios":"levelo://app?vid=17c15f39-0011-427d-be71-2c6a8ff7fb88"},"vehicle_type_id":"4","last_reported":1714579762,"current_range_meters":9200,"station_id":"ce4bgup2rcd13ifvqcn0","pricing_plan_id":"cebpf4jnsgd1na2vs0mg"},{"bike_id":"cb5035c4-9e66-46e5-baea-a68bc4206adf","system_id":"levelo_inurba_marseille","lat":43.324762,"lon":5.365758,"is_reserved":false,"is_disabled":false,"rental_uris":{"android":"levelo://app?vid=cb5035c4-9e66-46e5-baea-a68bc4206adf","ios":"levelo://app?vid=cb5035c4-9e66-46e5-baea-a68bc4206adf"},"vehicle_type_id":"4","last_reported":1714579762,"current_range_meters":16400,"station_id":"ce4bhs12rcd13ifvqhvg","pricing_plan_id":"cebpf4jnsgd1na2vs0mg"},{"bike_id":"ff14dfe6-78af-413d-a3ea-3b224d7ea33d","system_id":"levelo_inurba_marseille","lat":43.324771,"lon":5.36557,"is_reserved":false,"is_disabled":false,"rental_uris":{"android":"levelo://app?vid=ff14dfe6-78af-413d-a3ea-3b224d7ea33d","ios":"levelo://app?vid=ff14dfe6-78af-413d-a3ea-3b224d7ea33d"},"vehicle_type_id":"4","last_reported":1714579762,"current_range_meters":19600,"station_id":"ce4bhs12rcd13ifvqhvg","pricing_plan_id":"cebpf4jnsgd1na2vs0mg"},{"bike_id":"505c9fc0-49c3-4c39-ab88-1ba2555dbf58","system_id":"levelo_inurba_marseille","lat":43.32479,"lon":5.36578,"is_reserved":false,"is_disabled":false,"rental_uris":{"android":"levelo://app?vid=505c9fc0-49c3-4c39-ab88-1ba2555dbf58","ios":"levelo://app?vid=505c9fc0-49c3-4c39-ab88-1ba2555dbf58"},"vehicle_type_id":"4","last_reported":1714579762,"current_range_meters":6800,"station_id":"ce4bhs12rcd13ifvqhvg","pricing_plan_id":"cebpf4jnsgd1na2vs0mg"},{"bike_id":"1c9411c0-d42f-4c9c-954b-623621242b42","system_id":"levelo_inurba_marseille","lat":43.324771,"lon":5.36557,"is_reserved":false,"is_disabled":false,"rental_uris":{"android":"levelo://app?vid=1c9411c0-d42f-4c9c-954b-623621242b42","ios":"levelo://app?vid=1c9411c0-d42f-4c9c-954b-623621242b42"},"vehicle_type_id":"4","last_reported":1714579762,"current_range_meters":8800,"station_id":"ce4bhs12rcd13ifvqhvg","pricing_plan_id":"cebpf4jnsgd1na2vs0mg"},{"bike_id":"b21ae7ee-dd87-4fb7-a859-109931d2977d","system_id":"levelo_inurba_marseille","lat":43.32479,"lon":5.36567,"is_reserved":false,"is_disabled":false,"rental_uris":{"android":"levelo://app?vid=b21ae7ee-dd87-4fb7-a859-109931d2977d","ios":"levelo://app?vid=b21ae7ee-dd87-4fb7-a859-109931d2977d"},"vehicle_type_id":"4","last_reported":1714579762,"current_range_meters":14000,"station_id":"ce4bhs12rcd13ifvqhvg","pricing_plan_id":"cebpf4jnsgd1na2vs0mg"},{"bike_id":"b22ab42e-8a3a-4ec7-97c5-d3fb72660fea","system_id":"levelo_inurba_marseille","lat":43.324771,"lon":5.36557,"is_reserved":false,"is_disabled":false,"rental_uris":{"android":"levelo://app?vid=b22ab42e-8a3a-4ec7-97c5-d3fb72660fea","ios":"levelo://app?vid=b22ab42e-8a3a-4ec7-97c5-d3fb72660fea"},"vehicle_type_id":"4","last_reported":1714579762,"current_range_meters":31200,"station_id":"ce4bhs12rcd13ifvqhvg","pricing_plan_id":"cebpf4jnsgd1na2vs0mg"},{"bike_id":"0a4a6ca4-0474-4f68-b089-af26c0c8b25a","system_id":"levelo_inurba_marseille","lat":43.324771,"lon":5.36557,"is_reserved":false,"is_disabled":false,"rental_uris":{"android":"levelo://app?vid=0a4a6ca4-0474-4f68-b089-af26c0c8b25a","ios":"levelo://app?vid=0a4a6ca4-0474-4f68-b089-af26c0c8b25a"},"vehicle_type_id":"4","last_reported":1714579762,"current_range_meters":15600,"station_id":"ce4bhs12rcd13ifvqhvg","pricing_plan_id":"cebpf4jnsgd1na2vs0mg"},{"bike_id":"a220ad8e-30f9-4404-aa2e-6db3aa6afb45","system_id":"levelo_inurba_marseille","lat":43.324771,"lon":5.36557,"is_reserved":false,"is_disabled":false,"rental_uris":{"android":"levelo://app?vid=a220ad8e-30f9-4404-aa2e-6db3aa6afb45","ios":"levelo://app?vid=a220ad8e-30f9-4404-aa2e-6db3aa6afb45"},"vehicle_type_id":"4","last_reported":1714579762,"current_range_meters":31200,"station_id":"ce4bhs12rcd13ifvqhvg","pricing_plan_id":"cebpf4jnsgd1na2vs0mg"},{"bike_id":"c309f7ba-6ad6-4d3f-a1a7-a3843971cf8b","system_id":"levelo_inurba_marseille","lat":43.324771,"lon":5.36557,"is_reserved":false,"is_disabled":false,"rental_uris":{"android":"levelo://app?vid=c309f7ba-6ad6-4d3f-a1a7-a3843971cf8b","ios":"levelo://app?vid=c309f7ba-6ad6-4d3f-a1a7-a3843971cf8b"},"vehicle_type_id":"4","last_reported":1714579762,"current_range_meters":20000,"station_id":"ce4bhs12rcd13ifvqhvg","pricing_plan_id":"cebpf4jnsgd1na2vs0mg"},{"bike_id":"f0da008e-c303-4534-86e1-2f8d9b832abc","system_id":"levelo_inurba_marseille","lat":43.324771,"lon":5.36557,"is_reserved":false,"is_disabled":false,"rental_uris":{"android":"levelo://app?vid=f0da008e-c303-4534-86e1-2f8d9b832abc","ios":"levelo://app?vid=f0da008e-c303-4534-86e1-2f8d9b832abc"},"vehicle_type_id":"4","last_reported":1714579762,"current_range_meters":18000,"station_id":"ce4bhs12rcd13ifvqhvg","pricing_plan_id":"cebpf4jnsgd1na2vs0mg"},{"bike_id":"51b7c40f-72b8-4c8d-9344-83420c22fcac","system_id":"levelo_inurba_marseille","lat":43.324821,"lon":5.365704,"is_reserved":false,"is_disabled":false,"rental_uris":{"android":"levelo://app?vid=51b7c40f-72b8-4c8d-9344-83420c22fcac","ios":"levelo://app?vid=51b7c40f-72b8-4c8d-9344-83420c22fcac"},"vehicle_type_id":"4","last_reported":1714579762,"current_range_meters":13200,"station_id":"ce4bhs12rcd13ifvqhvg","pricing_plan_id":"cebpf4jnsgd1na2vs0mg"},{"bike_id":"caadc003-ff39-41d7-a207-143cea53cb36","system_id":"levelo_inurba_marseille","lat":43.32483,"lon":5.36572,"is_reserved":false,"is_disabled":false,"rental_uris":{"android":"levelo://app?vid=caadc003-ff39-41d7-a207-143cea53cb36","ios":"levelo://app?vid=caadc003-ff39-41d7-a207-143cea53cb36"},"vehicle_type_id":"4","last_reported":1714579762,"current_range_meters":26000,"station_id":"ce4bhs12rcd13ifvqhvg","pricing_plan_id":"cebpf4jnsgd1na2vs0mg"},{"bike_id":"b542f8ad-0de0-40a1-9ef7-53b385381a12","system_id":"levelo_inurba_marseille","lat":43.324771,"lon":5.36557,"is_reserved":false,"is_disabled":false,"rental_uris":{"android":"levelo://app?vid=b542f8ad-0de0-40a1-9ef7-53b385381a12","ios":"levelo://app?vid=b542f8ad-0de0-40a1-9ef7-53b385381a12"},"vehicle_type_id":"4","last_reported":1714579762,"current_range_meters":30000,"station_id":"ce4bhs12rcd13ifvqhvg","pricing_plan_id":"cebpf4jnsgd1na2vs0mg"},{"bike_id":"775b5193-55cb-42f1-b0fa-acd6f40ef433","system_id":"levelo_inurba_marseille","lat":43.324771,"lon":5.36557,"is_reserved":false,"is_disabled":false,"rental_uris":{"android":"levelo://app?vid=775b5193-55cb-42f1-b0fa-acd6f40ef433","ios":"levelo://app?vid=775b5193-55cb-42f1-b0fa-acd6f40ef433"},"vehicle_type_id":"4","last_reported":1714579762,"current_range_meters":25200,"station_id":"ce4bhs12rcd13ifvqhvg","pricing_plan_id":"cebpf4jnsgd1na2vs0mg"},{"bike_id":"06ac2027-09f1-4680-aa1f-6ab726213cb9","system_id":"levelo_inurba_marseille","lat":43.324771,"lon":5.36557,"is_reserved":false,"is_disabled":false,"rental_uris":{"android":"levelo://app?vid=06ac2027-09f1-4680-aa1f-6ab726213cb9","ios":"levelo://app?vid=06ac2027-09f1-4680-aa1f-6ab726213cb9"},"vehicle_type_id":"4","last_reported":1714579762,"current_range_meters":15600,"station_id":"ce4bhs12rcd13ifvqhvg","pricing_plan_id":"cebpf4jnsgd1na2vs0mg"},{"bike_id":"367bf14b-761f-4e49-b99a-afc9509fb246","system_id":"levelo_inurba_marseille","lat":43.324771,"lon":5.36557,"is_reserved":false,"is_disabled":false,"rental_uris":{"android":"levelo://app?vid=367bf14b-761f-4e49-b99a-afc9509fb246","ios":"levelo://app?vid=367bf14b-761f-4e49-b99a-afc9509fb246"},"vehicle_type_id":"4","last_reported":1714579762,"current_range_meters":8000,"station_id":"ce4bhs12rcd13ifvqhvg","pricing_plan_id":"cebpf4jnsgd1na2vs0mg"},{"bike_id":"1e8f10b6-b76b-4bd6-a376-1e7eac11d188","system_id":"levelo_inurba_marseille","lat":43.324771,"lon":5.36557,"is_reserved":false,"is_disabled":false,"rental_uris":{"android":"levelo://app?vid=1e8f10b6-b76b-4bd6-a376-1e7eac11d188","ios":"levelo://app?vid=1e8f10b6-b76b-4bd6-a376-1e7eac11d188"},"vehicle_type_id":"4","last_reported":1714579762,"current_range_meters":25200,"station_id":"ce4bhs12rcd13ifvqhvg","pricing_plan_id":"cebpf4jnsgd1na2vs0mg"},{"bike_id":"ec9ad42d-7bf5-43ef-a2cf-ce73f78031d9","system_id":"levelo_inurba_marseille","lat":43.324771,"lon":5.36557,"is_reserved":false,"is_disabled":false,"rental_uris":{"android":"levelo://app?vid=ec9ad42d-7bf5-43ef-a2cf-ce73f78031d9","ios":"levelo://app?vid=ec9ad42d-7bf5-43ef-a2cf-ce73f78031d9"},"vehicle_type_id":"4","last_reported":1714579762,"current_range_meters":19200,"station_id":"ce4bhs12rcd13ifvqhvg","pricing_plan_id":"cebpf4jnsgd1na2vs0mg"},{"bike_id":"6b85554c-f195-4dc5-977f-2b7beb5ffe88","system_id":"levelo_inurba_marseille","lat":43.32487,"lon":5.36576,"is_reserved":false,"is_disabled":false,"rental_uris":{"android":"levelo://app?vid=6b85554c-f195-4dc5-977f-2b7beb5ffe88","ios":"levelo://app?vid=6b85554c-f195-4dc5-977f-2b7beb5ffe88"},"vehicle_type_id":"4","last_reported":1714579762,"current_range_meters":20000,"station_id":"ce4bhs12rcd13ifvqhvg","pricing_plan_id":"cebpf4jnsgd1na2vs0mg"},{"bike_id":"fca0512a-e514-43b3-a37e-665741369b77","system_id":"levelo_inurba_marseille","lat":43.324771,"lon":5.36557,"is_reserved":false,"is_disabled":false,"rental_uris":{"android":"levelo://app?vid=fca0512a-e514-43b3-a37e-665741369b77","ios":"levelo://app?vid=fca0512a-e514-43b3-a37e-665741369b77"},"vehicle_type_id":"4","last_reported":1714579762,"current_range_meters":13600,"station_id":"ce4bhs12rcd13ifvqhvg","pricing_plan_id":"cebpf4jnsgd1na2vs0mg"},{"bike_id":"fe0815d3-117d-4a7a-95d8-005c2066c030","system_id":"levelo_inurba_marseille","lat":43.30293,"lon":5.37687,"is_reserved":false,"is_disabled":false,"rental_uris":{"android":"levelo://app?vid=fe0815d3-117d-4a7a-95d8-005c2066c030","ios":"levelo://app?vid=fe0815d3-117d-4a7a-95d8-005c2066c030"},"vehicle_type_id":"4","last_reported":1714579762,"current_range_meters":2000,"station_id":"ce4bguh2rcd13ifvqcj0","pricing_plan_id":"cebpf4jnsgd1na2vs0mg"},{"bike_id":"e560c9f7-9a68-4c7c-a574-1ae51de44590","system_id":"levelo_inurba_marseille","lat":43.324771,"lon":5.36557,"is_reserved":false,"is_disabled":false,"rental_uris":{"android":"levelo://app?vid=e560c9f7-9a68-4c7c-a574-1ae51de44590","ios":"levelo://app?vid=e560c9f7-9a68-4c7c-a574-1ae51de44590"},"vehicle_type_id":"4","last_reported":1714579762,"current_range_meters":31200,"station_id":"ce4bhs12rcd13ifvqhvg","pricing_plan_id":"cebpf4jnsgd1na2vs0mg"},{"bike_id":"321f9d28-ee7f-4afa-a28c-be53e03f8d73","system_id":"levelo_inurba_marseille","lat":43.310804,"lon":5.38359,"is_reserved":false,"is_disabled":false,"rental_uris":{"android":"levelo://app?vid=321f9d28-ee7f-4afa-a28c-be53e03f8d73","ios":"levelo://app?vid=321f9d28-ee7f-4afa-a28c-be53e03f8d73"},"vehicle_type_id":"4","last_reported":1714579762,"current_range_meters":0,"station_id":"ce4bgv92rcd13ifvqcr0","pricing_plan_id":"cebpf4jnsgd1na2vs0mg"},{"bike_id":"1b97cd83-03e8-41e9-97d8-63f61668eb5d","system_id":"levelo_inurba_marseille","lat":43.324771,"lon":5.36557,"is_reserved":false,"is_disabled":false,"rental_uris":{"android":"levelo://app?vid=1b97cd83-03e8-41e9-97d8-63f61668eb5d","ios":"levelo://app?vid=1b97cd83-03e8-41e9-97d8-63f61668eb5d"},"vehicle_type_id":"4","last_reported":1714579762,"current_range_meters":5600,"station_id":"ce4bhs12rcd13ifvqhvg","pricing_plan_id":"cebpf4jnsgd1na2vs0mg"},{"bike_id":"4f12562f-35ec-4897-b7f7-8743b55bc651","system_id":"levelo_inurba_marseille","lat":43.3029,"lon":5.37692,"is_reserved":false,"is_disabled":false,"rental_uris":{"android":"levelo://app?vid=4f12562f-35ec-4897-b7f7-8743b55bc651","ios":"levelo://app?vid=4f12562f-35ec-4897-b7f7-8743b55bc651"},"vehicle_type_id":"4","last_reported":1714579762,"current_range_meters":24000,"station_id":"ce4bguh2rcd13ifvqcj0","pricing_plan_id":"cebpf4jnsgd1na2vs0mg"},{"bike_id":"447531e9-9cd8-4669-b673-73e39845c733","system_id":"levelo_inurba_marseille","lat":43.30289,"lon":5.37691,"is_reserved":false,"is_disabled":false,"rental_uris":{"android":"levelo://app?vid=447531e9-9cd8-4669-b673-73e39845c733","ios":"levelo://app?vid=447531e9-9cd8-4669-b673-73e39845c733"},"vehicle_type_id":"4","last_reported":1714579762,"current_range_meters":13600,"station_id":"ce4bguh2rcd13ifvqcj0","pricing_plan_id":"cebpf4jnsgd1na2vs0mg"},{"bike_id":"f008f77f-4fa9-4fb9-b447-a83c703f3529","system_id":"levelo_inurba_marseille","lat":43.31071,"lon":5.38352,"is_reserved":false,"is_disabled":false,"rental_uris":{"android":"levelo://app?vid=f008f77f-4fa9-4fb9-b447-a83c703f3529","ios":"levelo://app?vid=f008f77f-4fa9-4fb9-b447-a83c703f3529"},"vehicle_type_id":"4","last_reported":1714579762,"current_range_meters":28800,"station_id":"ce4bgv92rcd13ifvqcr0","pricing_plan_id":"cebpf4jnsgd1na2vs0mg"},{"bike_id":"8ccf011a-799a-4e35-b9db-259dbe404c33","system_id":"levelo_inurba_marseille","lat":43.31079,"lon":5.38354,"is_reserved":false,"is_disabled":false,"rental_uris":{"android":"levelo://app?vid=8ccf011a-799a-4e35-b9db-259dbe404c33","ios":"levelo://app?vid=8ccf011a-799a-4e35-b9db-259dbe404c33"},"vehicle_type_id":"4","last_reported":1714579762,"current_range_meters":12400,"station_id":"ce4bgv92rcd13ifvqcr0","pricing_plan_id":"cebpf4jnsgd1na2vs0mg"},{"bike_id":"4a47a3ed-f448-4fd4-80d2-0c17ef393e02","system_id":"levelo_inurba_marseille","lat":43.30285,"lon":5.37693,"is_reserved":false,"is_disabled":false,"rental_uris":{"android":"levelo://app?vid=4a47a3ed-f448-4fd4-80d2-0c17ef393e02","ios":"levelo://app?vid=4a47a3ed-f448-4fd4-80d2-0c17ef393e02"},"vehicle_type_id":"4","last_reported":1714579762,"current_range_meters":1600,"station_id":"ce4bguh2rcd13ifvqcj0","pricing_plan_id":"cebpf4jnsgd1na2vs0mg"},{"bike_id":"692741d9-348f-48d1-a642-964ae52a41c0","system_id":"levelo_inurba_marseille","lat":43.310804,"lon":5.38359,"is_reserved":false,"is_disabled":false,"rental_uris":{"android":"levelo://app?vid=692741d9-348f-48d1-a642-964ae52a41c0","ios":"levelo://app?vid=692741d9-348f-48d1-a642-964ae52a41c0"},"vehicle_type_id":"4","last_reported":1714579762,"current_range_meters":24800,"station_id":"ce4bgv92rcd13ifvqcr0","pricing_plan_id":"cebpf4jnsgd1na2vs0mg"},{"bike_id":"9ece9b1d-8868-4dee-8b2f-7f3c4c614c23","system_id":"levelo_inurba_marseille","lat":43.310804,"lon":5.38359,"is_reserved":false,"is_disabled":false,"rental_uris":{"android":"levelo://app?vid=9ece9b1d-8868-4dee-8b2f-7f3c4c614c23","ios":"levelo://app?vid=9ece9b1d-8868-4dee-8b2f-7f3c4c614c23"},"vehicle_type_id":"4","last_reported":1714579762,"current_range_meters":14400,"station_id":"ce4bgv92rcd13ifvqcr0","pricing_plan_id":"cebpf4jnsgd1na2vs0mg"},{"bike_id":"314ff1cc-f494-4905-bb66-fca0d47b8dab","system_id":"levelo_inurba_marseille","lat":43.302784,"lon":5.377158,"is_reserved":false,"is_disabled":false,"rental_uris":{"android":"levelo://app?vid=314ff1cc-f494-4905-bb66-fca0d47b8dab","ios":"levelo://app?vid=314ff1cc-f494-4905-bb66-fca0d47b8dab"},"vehicle_type_id":"4","last_reported":1714579762,"current_range_meters":15600,"station_id":"ce4bguh2rcd13ifvqcj0","pricing_plan_id":"cebpf4jnsgd1na2vs0mg"},{"bike_id":"ecc79f64-acb6-4cda-8188-cc0c9f551038","system_id":"levelo_inurba_marseille","lat":43.310804,"lon":5.38359,"is_reserved":false,"is_disabled":false,"rental_uris":{"android":"levelo://app?vid=ecc79f64-acb6-4cda-8188-cc0c9f551038","ios":"levelo://app?vid=ecc79f64-acb6-4cda-8188-cc0c9f551038"},"vehicle_type_id":"4","last_reported":1714579762,"current_range_meters":10400,"station_id":"ce4bgv92rcd13ifvqcr0","pricing_plan_id":"cebpf4jnsgd1na2vs0mg"},{"bike_id":"d8311480-bf9a-4225-b9cf-8fd7f2e19c06","system_id":"levelo_inurba_marseille","lat":43.3028,"lon":5.37698,"is_reserved":false,"is_disabled":false,"rental_uris":{"android":"levelo://app?vid=d8311480-bf9a-4225-b9cf-8fd7f2e19c06","ios":"levelo://app?vid=d8311480-bf9a-4225-b9cf-8fd7f2e19c06"},"vehicle_type_id":"4","last_reported":1714579762,"current_range_meters":8800,"station_id":"ce4bguh2rcd13ifvqcj0","pricing_plan_id":"cebpf4jnsgd1na2vs0mg"},{"bike_id":"3bedbede-c746-41d8-9c70-c89ad7971b87","system_id":"levelo_inurba_marseille","lat":43.302784,"lon":5.377158,"is_reserved":false,"is_disabled":false,"rental_uris":{"android":"levelo://app?vid=3bedbede-c746-41d8-9c70-c89ad7971b87","ios":"levelo://app?vid=3bedbede-c746-41d8-9c70-c89ad7971b87"},"vehicle_type_id":"4","last_reported":1714579762,"current_range_meters":2000,"station_id":"ce4bguh2rcd13ifvqcj0","pricing_plan_id":"cebpf4jnsgd1na2vs0mg"},{"bike_id":"0bf79e83-36eb-4f80-bf9e-84c53bfb9a23","system_id":"levelo_inurba_marseille","lat":43.301429,"lon":5.37413,"is_reserved":false,"is_disabled":false,"rental_uris":{"android":"levelo://app?vid=0bf79e83-36eb-4f80-bf9e-84c53bfb9a23","ios":"levelo://app?vid=0bf79e83-36eb-4f80-bf9e-84c53bfb9a23"},"vehicle_type_id":"4","last_reported":1714579762,"current_range_meters":31200,"station_id":"ce4bgs92rcd13ifvqcc0","pricing_plan_id":"cebpf4jnsgd1na2vs0mg"},{"bike_id":"ea75d43c-e8e4-45b2-97aa-306dcc09c60b","system_id":"levelo_inurba_marseille","lat":43.301429,"lon":5.37413,"is_reserved":false,"is_disabled":false,"rental_uris":{"android":"levelo://app?vid=ea75d43c-e8e4-45b2-97aa-306dcc09c60b","ios":"levelo://app?vid=ea75d43c-e8e4-45b2-97aa-306dcc09c60b"},"vehicle_type_id":"4","last_reported":1714579762,"current_range_meters":18000,"station_id":"ce4bgs92rcd13ifvqcc0","pricing_plan_id":"cebpf4jnsgd1na2vs0mg"},{"bike_id":"d5b6b9f3-6b05-4b7d-9116-d0ee4d4db2f8","system_id":"levelo_inurba_marseille","lat":43.30148,"lon":5.37412,"is_reserved":false,"is_disabled":false,"rental_uris":{"android":"levelo://app?vid=d5b6b9f3-6b05-4b7d-9116-d0ee4d4db2f8","ios":"levelo://app?vid=d5b6b9f3-6b05-4b7d-9116-d0ee4d4db2f8"},"vehicle_type_id":"4","last_reported":1714579762,"current_range_meters":20800,"station_id":"ce4bgs92rcd13ifvqcc0","pricing_plan_id":"cebpf4jnsgd1na2vs0mg"},{"bike_id":"42d549f8-6af7-486c-b3b5-c2414c94d67a","system_id":"levelo_inurba_marseille","lat":43.301447,"lon":5.37413,"is_reserved":false,"is_disabled":false,"rental_uris":{"android":"levelo://app?vid=42d549f8-6af7-486c-b3b5-c2414c94d67a","ios":"levelo://app?vid=42d549f8-6af7-486c-b3b5-c2414c94d67a"},"vehicle_type_id":"4","last_reported":1714579762,"current_range_meters":16800,"station_id":"ce4bgs92rcd13ifvqcc0","pricing_plan_id":"cebpf4jnsgd1na2vs0mg"},{"bike_id":"b193bfe0-0a87-44e6-ada5-1e39e7e0cde3","system_id":"levelo_inurba_marseille","lat":43.30143,"lon":5.37413,"is_reserved":false,"is_disabled":false,"rental_uris":{"android":"levelo://app?vid=b193bfe0-0a87-44e6-ada5-1e39e7e0cde3","ios":"levelo://app?vid=b193bfe0-0a87-44e6-ada5-1e39e7e0cde3"},"vehicle_type_id":"4","last_reported":1714579762,"current_range_meters":31200,"station_id":"ce4bgs92rcd13ifvqcc0","pricing_plan_id":"cebpf4jnsgd1na2vs0mg"},{"bike_id":"5b05b681-df72-40f4-9098-f00424acfd96","system_id":"levelo_inurba_marseille","lat":43.30558,"lon":5.38119,"is_reserved":false,"is_disabled":false,"rental_uris":{"android":"levelo://app?vid=5b05b681-df72-40f4-9098-f00424acfd96","ios":"levelo://app?vid=5b05b681-df72-40f4-9098-f00424acfd96"},"vehicle_type_id":"4","last_reported":1714579762,"current_range_meters":22000,"station_id":"","pricing_plan_id":"cebpf4jnsgd1na2vs0mg"},{"bike_id":"4eabf273-d6ab-4f69-aa17-5ce3078e9cfa","system_id":"levelo_inurba_marseille","lat":43.31997,"lon":5.38148,"is_reserved":false,"is_disabled":false,"rental_uris":{"android":"levelo://app?vid=4eabf273-d6ab-4f69-aa17-5ce3078e9cfa","ios":"levelo://app?vid=4eabf273-d6ab-4f69-aa17-5ce3078e9cfa"},"vehicle_type_id":"4","last_reported":1714579762,"current_range_meters":8800,"station_id":"ce4bhr12rcd13ifvqhpg","pricing_plan_id":"cebpf4jnsgd1na2vs0mg"},{"bike_id":"952baf88-6145-4f3f-b32f-66ddd2b06b56","system_id":"levelo_inurba_marseille","lat":43.319935,"lon":5.381699,"is_reserved":false,"is_disabled":false,"rental_uris":{"android":"levelo://app?vid=952baf88-6145-4f3f-b32f-66ddd2b06b56","ios":"levelo://app?vid=952baf88-6145-4f3f-b32f-66ddd2b06b56"},"vehicle_type_id":"4","last_reported":1714579762,"current_range_meters":2800,"station_id":"ce4bhr12rcd13ifvqhpg","pricing_plan_id":"cebpf4jnsgd1na2vs0mg"},{"bike_id":"4b678404-bcb7-469e-8217-1687e76be9e0","system_id":"levelo_inurba_marseille","lat":43.319935,"lon":5.381699,"is_reserved":false,"is_disabled":false,"rental_uris":{"android":"levelo://app?vid=4b678404-bcb7-469e-8217-1687e76be9e0","ios":"levelo://app?vid=4b678404-bcb7-469e-8217-1687e76be9e0"},"vehicle_type_id":"4","last_reported":1714579762,"current_range_meters":19600,"station_id":"ce4bhr12rcd13ifvqhpg","pricing_plan_id":"cebpf4jnsgd1na2vs0mg"},{"bike_id":"4e077c06-8129-4076-8350-f156e28a9f5f","system_id":"levelo_inurba_marseille","lat":43.31999,"lon":5.38158,"is_reserved":false,"is_disabled":false,"rental_uris":{"android":"levelo://app?vid=4e077c06-8129-4076-8350-f156e28a9f5f","ios":"levelo://app?vid=4e077c06-8129-4076-8350-f156e28a9f5f"},"vehicle_type_id":"4","last_reported":1714579762,"current_range_meters":22400,"station_id":"ce4bhr12rcd13ifvqhpg","pricing_plan_id":"cebpf4jnsgd1na2vs0mg"},{"bike_id":"ececac45-447b-47b4-b5cf-34a85141274b","system_id":"levelo_inurba_marseille","lat":43.313571,"lon":5.384829,"is_reserved":false,"is_disabled":false,"rental_uris":{"android":"levelo://app?vid=ececac45-447b-47b4-b5cf-34a85141274b","ios":"levelo://app?vid=ececac45-447b-47b4-b5cf-34a85141274b"},"vehicle_type_id":"4","last_reported":1714579762,"current_range_meters":27200,"station_id":"ce4bgt92rcd13ifvqcf0","pricing_plan_id":"cebpf4jnsgd1na2vs0mg"},{"bike_id":"9732c449-0390-47e1-8049-13867a914982","system_id":"levelo_inurba_marseille","lat":43.313571,"lon":5.384829,"is_reserved":false,"is_disabled":false,"rental_uris":{"android":"levelo://app?vid=9732c449-0390-47e1-8049-13867a914982","ios":"levelo://app?vid=9732c449-0390-47e1-8049-13867a914982"},"vehicle_type_id":"4","last_reported":1714579762,"current_range_meters":15200,"station_id":"ce4bgt92rcd13ifvqcf0","pricing_plan_id":"cebpf4jnsgd1na2vs0mg"},{"bike_id":"db145bbf-560b-43ba-9982-686f86264c34","system_id":"levelo_inurba_marseille","lat":43.313571,"lon":5.384829,"is_reserved":false,"is_disabled":false,"rental_uris":{"android":"levelo://app?vid=db145bbf-560b-43ba-9982-686f86264c34","ios":"levelo://app?vid=db145bbf-560b-43ba-9982-686f86264c34"},"vehicle_type_id":"4","last_reported":1714579762,"current_range_meters":9600,"station_id":"ce4bgt92rcd13ifvqcf0","pricing_plan_id":"cebpf4jnsgd1na2vs0mg"},{"bike_id":"a76d4ff0-b046-47e4-80a9-942f5d30bc4a","system_id":"levelo_inurba_marseille","lat":43.31364,"lon":5.38493,"is_reserved":false,"is_disabled":false,"rental_uris":{"android":"levelo://app?vid=a76d4ff0-b046-47e4-80a9-942f5d30bc4a","ios":"levelo://app?vid=a76d4ff0-b046-47e4-80a9-942f5d30bc4a"},"vehicle_type_id":"4","last_reported":1714579762,"current_range_meters":16400,"station_id":"","pricing_plan_id":"cebpf4jnsgd1na2vs0mg"},{"bike_id":"478dc6e8-591b-4953-a76f-f47af868094d","system_id":"levelo_inurba_marseille","lat":43.299863,"lon":5.3718,"is_reserved":false,"is_disabled":false,"rental_uris":{"android":"levelo://app?vid=478dc6e8-591b-4953-a76f-f47af868094d","ios":"levelo://app?vid=478dc6e8-591b-4953-a76f-f47af868094d"},"vehicle_type_id":"4","last_reported":1714579762,"current_range_meters":23600,"station_id":"ce4bgr92rcd13ifvqc7g","pricing_plan_id":"cebpf4jnsgd1na2vs0mg"},{"bike_id":"9f01920f-d306-47c6-98fb-738c4f12b491","system_id":"levelo_inurba_marseille","lat":43.299724,"lon":5.371829,"is_reserved":false,"is_disabled":false,"rental_uris":{"android":"levelo://app?vid=9f01920f-d306-47c6-98fb-738c4f12b491","ios":"levelo://app?vid=9f01920f-d306-47c6-98fb-738c4f12b491"},"vehicle_type_id":"4","last_reported":1714579762,"current_range_meters":28800,"station_id":"ce4bgr92rcd13ifvqc7g","pricing_plan_id":"cebpf4jnsgd1na2vs0mg"},{"bike_id":"57c14f46-5e67-4039-b8ed-62e7419096e3","system_id":"levelo_inurba_marseille","lat":43.29983,"lon":5.37172,"is_reserved":false,"is_disabled":false,"rental_uris":{"android":"levelo://app?vid=57c14f46-5e67-4039-b8ed-62e7419096e3","ios":"levelo://app?vid=57c14f46-5e67-4039-b8ed-62e7419096e3"},"vehicle_type_id":"4","last_reported":1714579762,"current_range_meters":1600,"station_id":"ce4bgr92rcd13ifvqc7g","pricing_plan_id":"cebpf4jnsgd1na2vs0mg"},{"bike_id":"627b3625-8703-4345-99e8-ba6dc5a4d909","system_id":"levelo_inurba_marseille","lat":43.299015,"lon":5.365085,"is_reserved":false,"is_disabled":false,"rental_uris":{"android":"levelo://app?vid=627b3625-8703-4345-99e8-ba6dc5a4d909","ios":"levelo://app?vid=627b3625-8703-4345-99e8-ba6dc5a4d909"},"vehicle_type_id":"4","last_reported":1714579762,"current_range_meters":20000,"station_id":"ce4bgm92rcd13ifvqbr0","pricing_plan_id":"cebpf4jnsgd1na2vs0mg"},{"bike_id":"37e69fee-d7ac-4b04-b8a4-c4b7c95e67a8","system_id":"levelo_inurba_marseille","lat":43.309038,"lon":5.396546,"is_reserved":false,"is_disabled":false,"rental_uris":{"android":"levelo://app?vid=37e69fee-d7ac-4b04-b8a4-c4b7c95e67a8","ios":"levelo://app?vid=37e69fee-d7ac-4b04-b8a4-c4b7c95e67a8"},"vehicle_type_id":"4","last_reported":1714579762,"current_range_meters":18800,"station_id":"ce4bh012rcd13ifvqcv0","pricing_plan_id":"cebpf4jnsgd1na2vs0mg"},{"bike_id":"22c09e73-aad1-4373-99b8-8bb322809e62","system_id":"levelo_inurba_marseille","lat":43.298554,"lon":5.363389,"is_reserved":false,"is_disabled":false,"rental_uris":{"android":"levelo://app?vid=22c09e73-aad1-4373-99b8-8bb322809e62","ios":"levelo://app?vid=22c09e73-aad1-4373-99b8-8bb322809e62"},"vehicle_type_id":"4","last_reported":1714579762,"current_range_meters":4000,"station_id":"","pricing_plan_id":"cebpf4jnsgd1na2vs0mg"},{"bike_id":"6edb7bb5-6df4-4ee4-95b3-5ba1918086f9","system_id":"levelo_inurba_marseille","lat":43.298433,"lon":5.362774,"is_reserved":false,"is_disabled":false,"rental_uris":{"android":"levelo://app?vid=6edb7bb5-6df4-4ee4-95b3-5ba1918086f9","ios":"levelo://app?vid=6edb7bb5-6df4-4ee4-95b3-5ba1918086f9"},"vehicle_type_id":"4","last_reported":1714579762,"current_range_meters":31200,"station_id":"ce4bgpp2rcd13ifvqc3g","pricing_plan_id":"cebpf4jnsgd1na2vs0mg"},{"bike_id":"5dd236cc-458e-417b-8d53-8370ff8f01d4","system_id":"levelo_inurba_marseille","lat":43.305364,"lon":5.384119,"is_reserved":false,"is_disabled":false,"rental_uris":{"android":"levelo://app?vid=5dd236cc-458e-417b-8d53-8370ff8f01d4","ios":"levelo://app?vid=5dd236cc-458e-417b-8d53-8370ff8f01d4"},"vehicle_type_id":"4","last_reported":1714579762,"current_range_meters":24400,"station_id":"ce4bgg92rcd13ifvqb30","pricing_plan_id":"cebpf4jnsgd1na2vs0mg"},{"bike_id":"08ca568d-a82c-4079-baa4-82153591fac8","system_id":"levelo_inurba_marseille","lat":43.29847,"lon":5.36284,"is_reserved":false,"is_disabled":false,"rental_uris":{"android":"levelo://app?vid=08ca568d-a82c-4079-baa4-82153591fac8","ios":"levelo://app?vid=08ca568d-a82c-4079-baa4-82153591fac8"},"vehicle_type_id":"4","last_reported":1714579762,"current_range_meters":27600,"station_id":"ce4bgpp2rcd13ifvqc3g","pricing_plan_id":"cebpf4jnsgd1na2vs0mg"},{"bike_id":"d3164f71-4ea3-4d30-96c4-efc8e72f05fd","system_id":"levelo_inurba_marseille","lat":43.298433,"lon":5.362774,"is_reserved":false,"is_disabled":false,"rental_uris":{"android":"levelo://app?vid=d3164f71-4ea3-4d30-96c4-efc8e72f05fd","ios":"levelo://app?vid=d3164f71-4ea3-4d30-96c4-efc8e72f05fd"},"vehicle_type_id":"4","last_reported":1714579762,"current_range_meters":26800,"station_id":"ce4bgpp2rcd13ifvqc3g","pricing_plan_id":"cebpf4jnsgd1na2vs0mg"},{"bike_id":"37335149-c568-46e3-8562-169b87902871","system_id":"levelo_inurba_marseille","lat":43.298433,"lon":5.362774,"is_reserved":false,"is_disabled":false,"rental_uris":{"android":"levelo://app?vid=37335149-c568-46e3-8562-169b87902871","ios":"levelo://app?vid=37335149-c568-46e3-8562-169b87902871"},"vehicle_type_id":"4","last_reported":1714579762,"current_range_meters":28000,"station_id":"ce4bgpp2rcd13ifvqc3g","pricing_plan_id":"cebpf4jnsgd1na2vs0mg"},{"bike_id":"d989d323-ba31-44f9-8187-a2b71f0b70da","system_id":"levelo_inurba_marseille","lat":43.305364,"lon":5.384119,"is_reserved":false,"is_disabled":false,"rental_uris":{"android":"levelo://app?vid=d989d323-ba31-44f9-8187-a2b71f0b70da","ios":"levelo://app?vid=d989d323-ba31-44f9-8187-a2b71f0b70da"},"vehicle_type_id":"4","last_reported":1714579762,"current_range_meters":16800,"station_id":"ce4bgg92rcd13ifvqb30","pricing_plan_id":"cebpf4jnsgd1na2vs0mg"},{"bike_id":"d52693ef-d90d-413b-b99e-c19e8d251bed","system_id":"levelo_inurba_marseille","lat":43.298433,"lon":5.362774,"is_reserved":false,"is_disabled":false,"rental_uris":{"android":"levelo://app?vid=d52693ef-d90d-413b-b99e-c19e8d251bed","ios":"levelo://app?vid=d52693ef-d90d-413b-b99e-c19e8d251bed"},"vehicle_type_id":"4","last_reported":1714579762,"current_range_meters":400,"station_id":"ce4bgpp2rcd13ifvqc3g","pricing_plan_id":"cebpf4jnsgd1na2vs0mg"},{"bike_id":"e48223a4-d4ee-424c-a5ed-b03b2ac52ac3","system_id":"levelo_inurba_marseille","lat":43.29845,"lon":5.36258,"is_reserved":false,"is_disabled":false,"rental_uris":{"android":"levelo://app?vid=e48223a4-d4ee-424c-a5ed-b03b2ac52ac3","ios":"levelo://app?vid=e48223a4-d4ee-424c-a5ed-b03b2ac52ac3"},"vehicle_type_id":"4","last_reported":1714579762,"current_range_meters":24400,"station_id":"ce4bgpp2rcd13ifvqc3g","pricing_plan_id":"cebpf4jnsgd1na2vs0mg"},{"bike_id":"fd764f6c-c4ba-4f76-b767-482b6553e2f3","system_id":"levelo_inurba_marseille","lat":43.29842,"lon":5.36255,"is_reserved":false,"is_disabled":false,"rental_uris":{"android":"levelo://app?vid=fd764f6c-c4ba-4f76-b767-482b6553e2f3","ios":"levelo://app?vid=fd764f6c-c4ba-4f76-b767-482b6553e2f3"},"vehicle_type_id":"4","last_reported":1714579762,"current_range_meters":30800,"station_id":"ce4bgpp2rcd13ifvqc3g","pricing_plan_id":"cebpf4jnsgd1na2vs0mg"},{"bike_id":"f40c9c0a-f3b5-4756-8f58-69d665e23edc","system_id":"levelo_inurba_marseille","lat":43.29839,"lon":5.36267,"is_reserved":false,"is_disabled":false,"rental_uris":{"android":"levelo://app?vid=f40c9c0a-f3b5-4756-8f58-69d665e23edc","ios":"levelo://app?vid=f40c9c0a-f3b5-4756-8f58-69d665e23edc"},"vehicle_type_id":"4","last_reported":1714579762,"current_range_meters":26400,"station_id":"ce4bgpp2rcd13ifvqc3g","pricing_plan_id":"cebpf4jnsgd1na2vs0mg"},{"bike_id":"f0fcc9b4-7827-4a54-874a-546abc319221","system_id":"levelo_inurba_marseille","lat":43.29838,"lon":5.36265,"is_reserved":false,"is_disabled":false,"rental_uris":{"android":"levelo://app?vid=f0fcc9b4-7827-4a54-874a-546abc319221","ios":"levelo://app?vid=f0fcc9b4-7827-4a54-874a-546abc319221"},"vehicle_type_id":"4","last_reported":1714579762,"current_range_meters":25200,"station_id":"ce4bgpp2rcd13ifvqc3g","pricing_plan_id":"cebpf4jnsgd1na2vs0mg"},{"bike_id":"b65ead4b-b6af-4c75-931b-4ff5418e8148","system_id":"levelo_inurba_marseille","lat":43.29838,"lon":5.36263,"is_reserved":false,"is_disabled":false,"rental_uris":{"android":"levelo://app?vid=b65ead4b-b6af-4c75-931b-4ff5418e8148","ios":"levelo://app?vid=b65ead4b-b6af-4c75-931b-4ff5418e8148"},"vehicle_type_id":"4","last_reported":1714579762,"current_range_meters":30400,"station_id":"ce4bgpp2rcd13ifvqc3g","pricing_plan_id":"cebpf4jnsgd1na2vs0mg"},{"bike_id":"70c35aac-33be-45d0-9081-2d69ff9beaec","system_id":"levelo_inurba_marseille","lat":43.29914,"lon":5.37478,"is_reserved":false,"is_disabled":false,"rental_uris":{"android":"levelo://app?vid=70c35aac-33be-45d0-9081-2d69ff9beaec","ios":"levelo://app?vid=70c35aac-33be-45d0-9081-2d69ff9beaec"},"vehicle_type_id":"4","last_reported":1714579762,"current_range_meters":3200,"station_id":"ce4bgjh2rcd13ifvqbg0","pricing_plan_id":"cebpf4jnsgd1na2vs0mg"},{"bike_id":"5c0e1678-3ee4-4f9d-8eee-4bc9c9a5662a","system_id":"levelo_inurba_marseille","lat":43.311722,"lon":5.387247,"is_reserved":false,"is_disabled":false,"rental_uris":{"android":"levelo://app?vid=5c0e1678-3ee4-4f9d-8eee-4bc9c9a5662a","ios":"levelo://app?vid=5c0e1678-3ee4-4f9d-8eee-4bc9c9a5662a"},"vehicle_type_id":"4","last_reported":1714579762,"current_range_meters":20000,"station_id":"ce4bgv12rcd13ifvqcp0","pricing_plan_id":"cebpf4jnsgd1na2vs0mg"},{"bike_id":"94c0b1c5-50e5-4bca-9ff3-eb18c8da1738","system_id":"levelo_inurba_marseille","lat":43.311722,"lon":5.387247,"is_reserved":false,"is_disabled":false,"rental_uris":{"android":"levelo://app?vid=94c0b1c5-50e5-4bca-9ff3-eb18c8da1738","ios":"levelo://app?vid=94c0b1c5-50e5-4bca-9ff3-eb18c8da1738"},"vehicle_type_id":"4","last_reported":1714579762,"current_range_meters":25200,"station_id":"ce4bgv12rcd13ifvqcp0","pricing_plan_id":"cebpf4jnsgd1na2vs0mg"},{"bike_id":"fb541c8d-6eba-4d37-b8a2-6b6bc53d8338","system_id":"levelo_inurba_marseille","lat":43.311722,"lon":5.387247,"is_reserved":false,"is_disabled":false,"rental_uris":{"android":"levelo://app?vid=fb541c8d-6eba-4d37-b8a2-6b6bc53d8338","ios":"levelo://app?vid=fb541c8d-6eba-4d37-b8a2-6b6bc53d8338"},"vehicle_type_id":"4","last_reported":1714579762,"current_range_meters":14400,"station_id":"ce4bgv12rcd13ifvqcp0","pricing_plan_id":"cebpf4jnsgd1na2vs0mg"},{"bike_id":"31eb22cf-ec73-49a7-95f9-f1ffdeb101bd","system_id":"levelo_inurba_marseille","lat":43.29939,"lon":5.37632,"is_reserved":false,"is_disabled":false,"rental_uris":{"android":"levelo://app?vid=31eb22cf-ec73-49a7-95f9-f1ffdeb101bd","ios":"levelo://app?vid=31eb22cf-ec73-49a7-95f9-f1ffdeb101bd"},"vehicle_type_id":"4","last_reported":1714579762,"current_range_meters":6000,"station_id":"","pricing_plan_id":"cebpf4jnsgd1na2vs0mg"},{"bike_id":"f38039f7-3777-4e74-b493-9ddc1d5fc4fa","system_id":"levelo_inurba_marseille","lat":43.297163,"lon":5.365866,"is_reserved":false,"is_disabled":false,"rental_uris":{"android":"levelo://app?vid=f38039f7-3777-4e74-b493-9ddc1d5fc4fa","ios":"levelo://app?vid=f38039f7-3777-4e74-b493-9ddc1d5fc4fa"},"vehicle_type_id":"4","last_reported":1714579762,"current_range_meters":22800,"station_id":"ce4bgn12rcd13ifvqbt0","pricing_plan_id":"cebpf4jnsgd1na2vs0mg"},{"bike_id":"a4c89d56-cd75-4e86-98ba-8434d202143e","system_id":"levelo_inurba_marseille","lat":43.2968,"lon":5.37291,"is_reserved":false,"is_disabled":false,"rental_uris":{"android":"levelo://app?vid=a4c89d56-cd75-4e86-98ba-8434d202143e","ios":"levelo://app?vid=a4c89d56-cd75-4e86-98ba-8434d202143e"},"vehicle_type_id":"4","last_reported":1714579762,"current_range_meters":16800,"station_id":"ce4bgk12rcd13ifvqbj0","pricing_plan_id":"cebpf4jnsgd1na2vs0mg"},{"bike_id":"12e57980-bbaf-45eb-91f0-956e3c86b0be","system_id":"levelo_inurba_marseille","lat":43.2968,"lon":5.37291,"is_reserved":false,"is_disabled":false,"rental_uris":{"android":"levelo://app?vid=12e57980-bbaf-45eb-91f0-956e3c86b0be","ios":"levelo://app?vid=12e57980-bbaf-45eb-91f0-956e3c86b0be"},"vehicle_type_id":"4","last_reported":1714579762,"current_range_meters":14400,"station_id":"ce4bgk12rcd13ifvqbj0","pricing_plan_id":"cebpf4jnsgd1na2vs0mg"},{"bike_id":"1c809662-9ea0-49f8-a5ed-e4114a74de4f","system_id":"levelo_inurba_marseille","lat":43.2968,"lon":5.37291,"is_reserved":false,"is_disabled":false,"rental_uris":{"android":"levelo://app?vid=1c809662-9ea0-49f8-a5ed-e4114a74de4f","ios":"levelo://app?vid=1c809662-9ea0-49f8-a5ed-e4114a74de4f"},"vehicle_type_id":"4","last_reported":1714579762,"current_range_meters":11200,"station_id":"ce4bgk12rcd13ifvqbj0","pricing_plan_id":"cebpf4jnsgd1na2vs0mg"},{"bike_id":"e467ae7f-a7da-4d8f-aed4-fa9455895e4c","system_id":"levelo_inurba_marseille","lat":43.296839,"lon":5.373323,"is_reserved":false,"is_disabled":false,"rental_uris":{"android":"levelo://app?vid=e467ae7f-a7da-4d8f-aed4-fa9455895e4c","ios":"levelo://app?vid=e467ae7f-a7da-4d8f-aed4-fa9455895e4c"},"vehicle_type_id":"4","last_reported":1714579762,"current_range_meters":800,"station_id":"ce4bgk12rcd13ifvqbj0","pricing_plan_id":"cebpf4jnsgd1na2vs0mg"},{"bike_id":"0ee6206b-5162-4378-8477-2a1ca958757c","system_id":"levelo_inurba_marseille","lat":43.296131,"lon":5.370791,"is_reserved":false,"is_disabled":false,"rental_uris":{"android":"levelo://app?vid=0ee6206b-5162-4378-8477-2a1ca958757c","ios":"levelo://app?vid=0ee6206b-5162-4378-8477-2a1ca958757c"},"vehicle_type_id":"4","last_reported":1714579762,"current_range_meters":18000,"station_id":"ce4bgnh2rcd13ifvqc0g","pricing_plan_id":"cebpf4jnsgd1na2vs0mg"},{"bike_id":"dda524a2-57f8-44fe-8582-7f8fd0e24073","system_id":"levelo_inurba_marseille","lat":43.29573,"lon":5.367355,"is_reserved":false,"is_disabled":false,"rental_uris":{"android":"levelo://app?vid=dda524a2-57f8-44fe-8582-7f8fd0e24073","ios":"levelo://app?vid=dda524a2-57f8-44fe-8582-7f8fd0e24073"},"vehicle_type_id":"4","last_reported":1714579762,"current_range_meters":0,"station_id":"ce4bgph2rcd13ifvqc2g","pricing_plan_id":"cebpf4jnsgd1na2vs0mg"},{"bike_id":"de378835-a0ac-4b5f-8b40-cd9f1eece09d","system_id":"levelo_inurba_marseille","lat":43.299028,"lon":5.381509,"is_reserved":false,"is_disabled":false,"rental_uris":{"android":"levelo://app?vid=de378835-a0ac-4b5f-8b40-cd9f1eece09d","ios":"levelo://app?vid=de378835-a0ac-4b5f-8b40-cd9f1eece09d"},"vehicle_type_id":"4","last_reported":1714579762,"current_range_meters":10400,"station_id":"ce4bgj12rcd13ifvqbc0","pricing_plan_id":"cebpf4jnsgd1na2vs0mg"},{"bike_id":"4d9f955b-cb1d-4356-b856-50da41e147d6","system_id":"levelo_inurba_marseille","lat":43.299028,"lon":5.381509,"is_reserved":false,"is_disabled":false,"rental_uris":{"android":"levelo://app?vid=4d9f955b-cb1d-4356-b856-50da41e147d6","ios":"levelo://app?vid=4d9f955b-cb1d-4356-b856-50da41e147d6"},"vehicle_type_id":"4","last_reported":1714579762,"current_range_meters":1600,"station_id":"ce4bgj12rcd13ifvqbc0","pricing_plan_id":"cebpf4jnsgd1na2vs0mg"},{"bike_id":"30ea5aaf-9e80-4bd7-ad7e-df6c1b9cdadf","system_id":"levelo_inurba_marseille","lat":43.299028,"lon":5.381509,"is_reserved":false,"is_disabled":false,"rental_uris":{"android":"levelo://app?vid=30ea5aaf-9e80-4bd7-ad7e-df6c1b9cdadf","ios":"levelo://app?vid=30ea5aaf-9e80-4bd7-ad7e-df6c1b9cdadf"},"vehicle_type_id":"4","last_reported":1714579762,"current_range_meters":12000,"station_id":"ce4bgj12rcd13ifvqbc0","pricing_plan_id":"cebpf4jnsgd1na2vs0mg"},{"bike_id":"7345a037-7684-4611-8d03-2e9ba67469f9","system_id":"levelo_inurba_marseille","lat":43.299028,"lon":5.381509,"is_reserved":false,"is_disabled":false,"rental_uris":{"android":"levelo://app?vid=7345a037-7684-4611-8d03-2e9ba67469f9","ios":"levelo://app?vid=7345a037-7684-4611-8d03-2e9ba67469f9"},"vehicle_type_id":"4","last_reported":1714579762,"current_range_meters":14400,"station_id":"ce4bgj12rcd13ifvqbc0","pricing_plan_id":"cebpf4jnsgd1na2vs0mg"},{"bike_id":"60a41392-43d6-467e-a1f4-b8310a19f897","system_id":"levelo_inurba_marseille","lat":43.299028,"lon":5.381509,"is_reserved":false,"is_disabled":false,"rental_uris":{"android":"levelo://app?vid=60a41392-43d6-467e-a1f4-b8310a19f897","ios":"levelo://app?vid=60a41392-43d6-467e-a1f4-b8310a19f897"},"vehicle_type_id":"4","last_reported":1714579762,"current_range_meters":8800,"station_id":"ce4bgj12rcd13ifvqbc0","pricing_plan_id":"cebpf4jnsgd1na2vs0mg"},{"bike_id":"82c81a09-f6e6-464d-8deb-923a5529da6d","system_id":"levelo_inurba_marseille","lat":43.299028,"lon":5.381509,"is_reserved":false,"is_disabled":false,"rental_uris":{"android":"levelo://app?vid=82c81a09-f6e6-464d-8deb-923a5529da6d","ios":"levelo://app?vid=82c81a09-f6e6-464d-8deb-923a5529da6d"},"vehicle_type_id":"4","last_reported":1714579762,"current_range_meters":11600,"station_id":"ce4bgj12rcd13ifvqbc0","pricing_plan_id":"cebpf4jnsgd1na2vs0mg"},{"bike_id":"82e4fb94-294f-4c2c-bc2a-a3371d755a7f","system_id":"levelo_inurba_marseille","lat":43.299075,"lon":5.381531,"is_reserved":false,"is_disabled":false,"rental_uris":{"android":"levelo://app?vid=82e4fb94-294f-4c2c-bc2a-a3371d755a7f","ios":"levelo://app?vid=82e4fb94-294f-4c2c-bc2a-a3371d755a7f"},"vehicle_type_id":"4","last_reported":1714579762,"current_range_meters":0,"station_id":"","pricing_plan_id":"cebpf4jnsgd1na2vs0mg"},{"bike_id":"d29862bf-1bf4-4c53-a2bf-a418541f7a0e","system_id":"levelo_inurba_marseille","lat":43.31754,"lon":5.39004,"is_reserved":false,"is_disabled":false,"rental_uris":{"android":"levelo://app?vid=d29862bf-1bf4-4c53-a2bf-a418541f7a0e","ios":"levelo://app?vid=d29862bf-1bf4-4c53-a2bf-a418541f7a0e"},"vehicle_type_id":"4","last_reported":1714579762,"current_range_meters":9600,"station_id":"ce4bhqp2rcd13ifvqhng","pricing_plan_id":"cebpf4jnsgd1na2vs0mg"},{"bike_id":"eacaeeb1-352f-48ab-b142-039c7ac579cc","system_id":"levelo_inurba_marseille","lat":43.299028,"lon":5.381509,"is_reserved":false,"is_disabled":false,"rental_uris":{"android":"levelo://app?vid=eacaeeb1-352f-48ab-b142-039c7ac579cc","ios":"levelo://app?vid=eacaeeb1-352f-48ab-b142-039c7ac579cc"},"vehicle_type_id":"4","last_reported":1714579762,"current_range_meters":12000,"station_id":"ce4bgj12rcd13ifvqbc0","pricing_plan_id":"cebpf4jnsgd1na2vs0mg"},{"bike_id":"07cda65c-ee8a-46a8-9b43-5ee071dd6d03","system_id":"levelo_inurba_marseille","lat":43.299174,"lon":5.38217,"is_reserved":false,"is_disabled":false,"rental_uris":{"android":"levelo://app?vid=07cda65c-ee8a-46a8-9b43-5ee071dd6d03","ios":"levelo://app?vid=07cda65c-ee8a-46a8-9b43-5ee071dd6d03"},"vehicle_type_id":"4","last_reported":1714579762,"current_range_meters":20400,"station_id":"","pricing_plan_id":"cebpf4jnsgd1na2vs0mg"},{"bike_id":"160120ba-f068-445d-b9bd-561cc5fe6e33","system_id":"levelo_inurba_marseille","lat":43.3176,"lon":5.3901,"is_reserved":false,"is_disabled":false,"rental_uris":{"android":"levelo://app?vid=160120ba-f068-445d-b9bd-561cc5fe6e33","ios":"levelo://app?vid=160120ba-f068-445d-b9bd-561cc5fe6e33"},"vehicle_type_id":"4","last_reported":1714579762,"current_range_meters":13200,"station_id":"ce4bhqp2rcd13ifvqhng","pricing_plan_id":"cebpf4jnsgd1na2vs0mg"},{"bike_id":"e7f7f8c6-3502-40da-b88a-452fc9534ddc","system_id":"levelo_inurba_marseille","lat":43.31765,"lon":5.3901,"is_reserved":false,"is_disabled":false,"rental_uris":{"android":"levelo://app?vid=e7f7f8c6-3502-40da-b88a-452fc9534ddc","ios":"levelo://app?vid=e7f7f8c6-3502-40da-b88a-452fc9534ddc"},"vehicle_type_id":"4","last_reported":1714579762,"current_range_meters":22400,"station_id":"ce4bhqp2rcd13ifvqhng","pricing_plan_id":"cebpf4jnsgd1na2vs0mg"},{"bike_id":"0aef9f46-a872-4800-887c-1b470256494a","system_id":"levelo_inurba_marseille","lat":43.31765,"lon":5.39012,"is_reserved":false,"is_disabled":false,"rental_uris":{"android":"levelo://app?vid=0aef9f46-a872-4800-887c-1b470256494a","ios":"levelo://app?vid=0aef9f46-a872-4800-887c-1b470256494a"},"vehicle_type_id":"4","last_reported":1714579762,"current_range_meters":24800,"station_id":"ce4bhqp2rcd13ifvqhng","pricing_plan_id":"cebpf4jnsgd1na2vs0mg"},{"bike_id":"3e90fa85-c942-47c4-a797-7ff343ed3b41","system_id":"levelo_inurba_marseille","lat":43.317557,"lon":5.390173,"is_reserved":false,"is_disabled":false,"rental_uris":{"android":"levelo://app?vid=3e90fa85-c942-47c4-a797-7ff343ed3b41","ios":"levelo://app?vid=3e90fa85-c942-47c4-a797-7ff343ed3b41"},"vehicle_type_id":"4","last_reported":1714579762,"current_range_meters":31200,"station_id":"ce4bhqp2rcd13ifvqhng","pricing_plan_id":"cebpf4jnsgd1na2vs0mg"},{"bike_id":"88b24db4-632b-4045-a01f-3d312d3ba27d","system_id":"levelo_inurba_marseille","lat":43.317557,"lon":5.390173,"is_reserved":false,"is_disabled":false,"rental_uris":{"android":"levelo://app?vid=88b24db4-632b-4045-a01f-3d312d3ba27d","ios":"levelo://app?vid=88b24db4-632b-4045-a01f-3d312d3ba27d"},"vehicle_type_id":"4","last_reported":1714579762,"current_range_meters":15600,"station_id":"ce4bhqp2rcd13ifvqhng","pricing_plan_id":"cebpf4jnsgd1na2vs0mg"},{"bike_id":"b1addad9-e6b9-42db-aafc-ca3fa67234a4","system_id":"levelo_inurba_marseille","lat":43.317557,"lon":5.390173,"is_reserved":false,"is_disabled":false,"rental_uris":{"android":"levelo://app?vid=b1addad9-e6b9-42db-aafc-ca3fa67234a4","ios":"levelo://app?vid=b1addad9-e6b9-42db-aafc-ca3fa67234a4"},"vehicle_type_id":"4","last_reported":1714579762,"current_range_meters":24400,"station_id":"ce4bhqp2rcd13ifvqhng","pricing_plan_id":"cebpf4jnsgd1na2vs0mg"},{"bike_id":"16227458-1903-4958-9f5d-852ad595ecd8","system_id":"levelo_inurba_marseille","lat":43.317629,"lon":5.390215,"is_reserved":false,"is_disabled":false,"rental_uris":{"android":"levelo://app?vid=16227458-1903-4958-9f5d-852ad595ecd8","ios":"levelo://app?vid=16227458-1903-4958-9f5d-852ad595ecd8"},"vehicle_type_id":"4","last_reported":1714579762,"current_range_meters":17200,"station_id":"ce4bhqp2rcd13ifvqhng","pricing_plan_id":"cebpf4jnsgd1na2vs0mg"},{"bike_id":"4ca83aa6-7b94-4685-ac2d-a9db821ec51c","system_id":"levelo_inurba_marseille","lat":43.29812,"lon":5.38079,"is_reserved":false,"is_disabled":false,"rental_uris":{"android":"levelo://app?vid=4ca83aa6-7b94-4685-ac2d-a9db821ec51c","ios":"levelo://app?vid=4ca83aa6-7b94-4685-ac2d-a9db821ec51c"},"vehicle_type_id":"4","last_reported":1714579762,"current_range_meters":14400,"station_id":"","pricing_plan_id":"cebpf4jnsgd1na2vs0mg"},{"bike_id":"e5297714-5b7b-451f-9a18-2a1c69aeb003","system_id":"levelo_inurba_marseille","lat":43.298068,"lon":5.380876,"is_reserved":false,"is_disabled":false,"rental_uris":{"android":"levelo://app?vid=e5297714-5b7b-451f-9a18-2a1c69aeb003","ios":"levelo://app?vid=e5297714-5b7b-451f-9a18-2a1c69aeb003"},"vehicle_type_id":"4","last_reported":1714579762,"current_range_meters":28000,"station_id":"ce4bgip2rcd13ifvqbb0","pricing_plan_id":"cebpf4jnsgd1na2vs0mg"},{"bike_id":"0f3f808a-26c3-4964-9aab-3dbe8c727e58","system_id":"levelo_inurba_marseille","lat":43.298015,"lon":5.380818,"is_reserved":false,"is_disabled":false,"rental_uris":{"android":"levelo://app?vid=0f3f808a-26c3-4964-9aab-3dbe8c727e58","ios":"levelo://app?vid=0f3f808a-26c3-4964-9aab-3dbe8c727e58"},"vehicle_type_id":"4","last_reported":1714579762,"current_range_meters":0,"station_id":"ce4bgjh2rcd13ifvqbg0","pricing_plan_id":"cebpf4jnsgd1na2vs0mg"},{"bike_id":"d7a189d0-38dc-4614-8825-e31841a759a6","system_id":"levelo_inurba_marseille","lat":43.298037,"lon":5.381066,"is_reserved":false,"is_disabled":false,"rental_uris":{"android":"levelo://app?vid=d7a189d0-38dc-4614-8825-e31841a759a6","ios":"levelo://app?vid=d7a189d0-38dc-4614-8825-e31841a759a6"},"vehicle_type_id":"4","last_reported":1714579762,"current_range_meters":8800,"station_id":"ce4bgip2rcd13ifvqbb0","pricing_plan_id":"cebpf4jnsgd1na2vs0mg"},{"bike_id":"a31c347a-ad8c-4f2f-8b9f-8cc5ec969b84","system_id":"levelo_inurba_marseille","lat":43.295748,"lon":5.37522,"is_reserved":false,"is_disabled":false,"rental_uris":{"android":"levelo://app?vid=a31c347a-ad8c-4f2f-8b9f-8cc5ec969b84","ios":"levelo://app?vid=a31c347a-ad8c-4f2f-8b9f-8cc5ec969b84"},"vehicle_type_id":"4","last_reported":1714579762,"current_range_meters":4800,"station_id":"ce4bgh92rcd13ifvqb50","pricing_plan_id":"cebpf4jnsgd1na2vs0mg"},{"bike_id":"e2c09ec0-7b3e-45e9-bc09-d7a7ed55cd28","system_id":"levelo_inurba_marseille","lat":43.298037,"lon":5.381066,"is_reserved":false,"is_disabled":false,"rental_uris":{"android":"levelo://app?vid=e2c09ec0-7b3e-45e9-bc09-d7a7ed55cd28","ios":"levelo://app?vid=e2c09ec0-7b3e-45e9-bc09-d7a7ed55cd28"},"vehicle_type_id":"4","last_reported":1714579762,"current_range_meters":6800,"station_id":"ce4bgip2rcd13ifvqbb0","pricing_plan_id":"cebpf4jnsgd1na2vs0mg"},{"bike_id":"f5daeb6a-839b-488b-b3ca-cd6dee0b90d9","system_id":"levelo_inurba_marseille","lat":43.298037,"lon":5.381066,"is_reserved":false,"is_disabled":false,"rental_uris":{"android":"levelo://app?vid=f5daeb6a-839b-488b-b3ca-cd6dee0b90d9","ios":"levelo://app?vid=f5daeb6a-839b-488b-b3ca-cd6dee0b90d9"},"vehicle_type_id":"4","last_reported":1714579762,"current_range_meters":2800,"station_id":"ce4bgip2rcd13ifvqbb0","pricing_plan_id":"cebpf4jnsgd1na2vs0mg"},{"bike_id":"84d10488-7043-4901-a85d-dde41bbf9eb4","system_id":"levelo_inurba_marseille","lat":43.298037,"lon":5.381066,"is_reserved":false,"is_disabled":false,"rental_uris":{"android":"levelo://app?vid=84d10488-7043-4901-a85d-dde41bbf9eb4","ios":"levelo://app?vid=84d10488-7043-4901-a85d-dde41bbf9eb4"},"vehicle_type_id":"4","last_reported":1714579762,"current_range_meters":0,"station_id":"ce4bgip2rcd13ifvqbb0","pricing_plan_id":"cebpf4jnsgd1na2vs0mg"},{"bike_id":"6f190a62-e17b-4f33-91e5-43eb65aaff35","system_id":"levelo_inurba_marseille","lat":43.29789,"lon":5.381033,"is_reserved":false,"is_disabled":false,"rental_uris":{"android":"levelo://app?vid=6f190a62-e17b-4f33-91e5-43eb65aaff35","ios":"levelo://app?vid=6f190a62-e17b-4f33-91e5-43eb65aaff35"},"vehicle_type_id":"4","last_reported":1714579762,"current_range_meters":18800,"station_id":"ce4bgip2rcd13ifvqbb0","pricing_plan_id":"cebpf4jnsgd1na2vs0mg"},{"bike_id":"78293a97-6ad4-4f68-b6aa-78681c1b7ef8","system_id":"levelo_inurba_marseille","lat":43.295748,"lon":5.37522,"is_reserved":false,"is_disabled":false,"rental_uris":{"android":"levelo://app?vid=78293a97-6ad4-4f68-b6aa-78681c1b7ef8","ios":"levelo://app?vid=78293a97-6ad4-4f68-b6aa-78681c1b7ef8"},"vehicle_type_id":"4","last_reported":1714579762,"current_range_meters":0,"station_id":"ce4bgh92rcd13ifvqb50","pricing_plan_id":"cebpf4jnsgd1na2vs0mg"},{"bike_id":"18c41e28-a84d-4954-9a54-5ac2cb7f246c","system_id":"levelo_inurba_marseille","lat":43.296263,"lon":5.377094,"is_reserved":false,"is_disabled":false,"rental_uris":{"android":"levelo://app?vid=18c41e28-a84d-4954-9a54-5ac2cb7f246c","ios":"levelo://app?vid=18c41e28-a84d-4954-9a54-5ac2cb7f246c"},"vehicle_type_id":"4","last_reported":1714579762,"current_range_meters":1600,"station_id":"ce4bgi92rcd13ifvqb90","pricing_plan_id":"cebpf4jnsgd1na2vs0mg"},{"bike_id":"63cde597-1981-447d-bf00-ef0ef846d051","system_id":"levelo_inurba_marseille","lat":43.304278,"lon":5.388868,"is_reserved":false,"is_disabled":false,"rental_uris":{"android":"levelo://app?vid=63cde597-1981-447d-bf00-ef0ef846d051","ios":"levelo://app?vid=63cde597-1981-447d-bf00-ef0ef846d051"},"vehicle_type_id":"4","last_reported":1714579762,"current_range_meters":13200,"station_id":"ce4bgk12rcd13ifvqbi0","pricing_plan_id":"cebpf4jnsgd1na2vs0mg"},{"bike_id":"3c9f8643-9501-435f-ae86-57db00e60efe","system_id":"levelo_inurba_marseille","lat":43.298037,"lon":5.381066,"is_reserved":false,"is_disabled":false,"rental_uris":{"android":"levelo://app?vid=3c9f8643-9501-435f-ae86-57db00e60efe","ios":"levelo://app?vid=3c9f8643-9501-435f-ae86-57db00e60efe"},"vehicle_type_id":"4","last_reported":1714579762,"current_range_meters":13200,"station_id":"ce4bgip2rcd13ifvqbb0","pricing_plan_id":"cebpf4jnsgd1na2vs0mg"},{"bike_id":"19d30f17-9331-4fa2-99c9-8a75bed14613","system_id":"levelo_inurba_marseille","lat":43.299717,"lon":5.384845,"is_reserved":false,"is_disabled":false,"rental_uris":{"android":"levelo://app?vid=19d30f17-9331-4fa2-99c9-8a75bed14613","ios":"levelo://app?vid=19d30f17-9331-4fa2-99c9-8a75bed14613"},"vehicle_type_id":"4","last_reported":1714579762,"current_range_meters":4800,"station_id":"ce4bgj92rcd13ifvqbd0","pricing_plan_id":"cebpf4jnsgd1na2vs0mg"},{"bike_id":"b863429e-03ce-4b63-8864-cfdb2ff47072","system_id":"levelo_inurba_marseille","lat":43.2998,"lon":5.38479,"is_reserved":false,"is_disabled":false,"rental_uris":{"android":"levelo://app?vid=b863429e-03ce-4b63-8864-cfdb2ff47072","ios":"levelo://app?vid=b863429e-03ce-4b63-8864-cfdb2ff47072"},"vehicle_type_id":"4","last_reported":1714579762,"current_range_meters":0,"station_id":"ce4bgj92rcd13ifvqbd0","pricing_plan_id":"cebpf4jnsgd1na2vs0mg"},{"bike_id":"80e8e07a-633d-42c9-b3da-51d4698c2fad","system_id":"levelo_inurba_marseille","lat":43.295275,"lon":5.374788,"is_reserved":false,"is_disabled":false,"rental_uris":{"android":"levelo://app?vid=80e8e07a-633d-42c9-b3da-51d4698c2fad","ios":"levelo://app?vid=80e8e07a-633d-42c9-b3da-51d4698c2fad"},"vehicle_type_id":"4","last_reported":1714579762,"current_range_meters":20000,"station_id":"ce4bgkp2rcd13ifvqbmg","pricing_plan_id":"cebpf4jnsgd1na2vs0mg"},{"bike_id":"15aa84f8-0967-4aad-b359-14a47155647e","system_id":"levelo_inurba_marseille","lat":43.299707,"lon":5.384859,"is_reserved":false,"is_disabled":false,"rental_uris":{"android":"levelo://app?vid=15aa84f8-0967-4aad-b359-14a47155647e","ios":"levelo://app?vid=15aa84f8-0967-4aad-b359-14a47155647e"},"vehicle_type_id":"4","last_reported":1714579762,"current_range_meters":13600,"station_id":"ce4bgj92rcd13ifvqbd0","pricing_plan_id":"cebpf4jnsgd1na2vs0mg"},{"bike_id":"7fe286a1-67f9-4ccb-9486-b5b84570c460","system_id":"levelo_inurba_marseille","lat":43.299707,"lon":5.384859,"is_reserved":false,"is_disabled":false,"rental_uris":{"android":"levelo://app?vid=7fe286a1-67f9-4ccb-9486-b5b84570c460","ios":"levelo://app?vid=7fe286a1-67f9-4ccb-9486-b5b84570c460"},"vehicle_type_id":"4","last_reported":1714579762,"current_range_meters":22000,"station_id":"ce4bgj92rcd13ifvqbd0","pricing_plan_id":"cebpf4jnsgd1na2vs0mg"},{"bike_id":"42d331e1-e0c3-4ef4-a138-1976c3857e84","system_id":"levelo_inurba_marseille","lat":43.29977,"lon":5.38492,"is_reserved":false,"is_disabled":false,"rental_uris":{"android":"levelo://app?vid=42d331e1-e0c3-4ef4-a138-1976c3857e84","ios":"levelo://app?vid=42d331e1-e0c3-4ef4-a138-1976c3857e84"},"vehicle_type_id":"4","last_reported":1714579762,"current_range_meters":0,"station_id":"ce4bgj92rcd13ifvqbd0","pricing_plan_id":"cebpf4jnsgd1na2vs0mg"},{"bike_id":"ed08529f-b341-415b-9790-4ade227549d8","system_id":"levelo_inurba_marseille","lat":43.29525,"lon":5.37492,"is_reserved":false,"is_disabled":false,"rental_uris":{"android":"levelo://app?vid=ed08529f-b341-415b-9790-4ade227549d8","ios":"levelo://app?vid=ed08529f-b341-415b-9790-4ade227549d8"},"vehicle_type_id":"4","last_reported":1714579762,"current_range_meters":0,"station_id":"ce4bgkp2rcd13ifvqbmg","pricing_plan_id":"cebpf4jnsgd1na2vs0mg"},{"bike_id":"f251dbe0-8c96-462e-893b-e9c1a2ccc0b9","system_id":"levelo_inurba_marseille","lat":43.299733,"lon":5.384911,"is_reserved":false,"is_disabled":false,"rental_uris":{"android":"levelo://app?vid=f251dbe0-8c96-462e-893b-e9c1a2ccc0b9","ios":"levelo://app?vid=f251dbe0-8c96-462e-893b-e9c1a2ccc0b9"},"vehicle_type_id":"4","last_reported":1714579762,"current_range_meters":9600,"station_id":"","pricing_plan_id":"cebpf4jnsgd1na2vs0mg"},{"bike_id":"7d37f3be-955c-4763-afba-c11e97553d9f","system_id":"levelo_inurba_marseille","lat":43.299707,"lon":5.384859,"is_reserved":false,"is_disabled":false,"rental_uris":{"android":"levelo://app?vid=7d37f3be-955c-4763-afba-c11e97553d9f","ios":"levelo://app?vid=7d37f3be-955c-4763-afba-c11e97553d9f"},"vehicle_type_id":"4","last_reported":1714579762,"current_range_meters":5600,"station_id":"ce4bgj92rcd13ifvqbd0","pricing_plan_id":"cebpf4jnsgd1na2vs0mg"},{"bike_id":"16e9bbf4-9dff-4347-80b2-7444fca15a04","system_id":"levelo_inurba_marseille","lat":43.299724,"lon":5.384848,"is_reserved":false,"is_disabled":false,"rental_uris":{"android":"levelo://app?vid=16e9bbf4-9dff-4347-80b2-7444fca15a04","ios":"levelo://app?vid=16e9bbf4-9dff-4347-80b2-7444fca15a04"},"vehicle_type_id":"4","last_reported":1714579762,"current_range_meters":19600,"station_id":"ce4bgj92rcd13ifvqbd0","pricing_plan_id":"cebpf4jnsgd1na2vs0mg"},{"bike_id":"00f26c8e-b97f-4199-b9e4-6bd5a24e4d25","system_id":"levelo_inurba_marseille","lat":43.29602,"lon":5.381084,"is_reserved":false,"is_disabled":false,"rental_uris":{"android":"levelo://app?vid=00f26c8e-b97f-4199-b9e4-6bd5a24e4d25","ios":"levelo://app?vid=00f26c8e-b97f-4199-b9e4-6bd5a24e4d25"},"vehicle_type_id":"4","last_reported":1714579762,"current_range_meters":10000,"station_id":"ce4bgl12rcd13ifvqbo0","pricing_plan_id":"cebpf4jnsgd1na2vs0mg"},{"bike_id":"7cee2e33-3de1-4761-8aac-322767f6f949","system_id":"levelo_inurba_marseille","lat":43.2997,"lon":5.38496,"is_reserved":false,"is_disabled":false,"rental_uris":{"android":"levelo://app?vid=7cee2e33-3de1-4761-8aac-322767f6f949","ios":"levelo://app?vid=7cee2e33-3de1-4761-8aac-322767f6f949"},"vehicle_type_id":"4","last_reported":1714579762,"current_range_meters":0,"station_id":"ce4bgj92rcd13ifvqbd0","pricing_plan_id":"cebpf4jnsgd1na2vs0mg"},{"bike_id":"06428355-be85-4606-aa71-bc0869d75367","system_id":"levelo_inurba_marseille","lat":43.299724,"lon":5.384848,"is_reserved":false,"is_disabled":false,"rental_uris":{"android":"levelo://app?vid=06428355-be85-4606-aa71-bc0869d75367","ios":"levelo://app?vid=06428355-be85-4606-aa71-bc0869d75367"},"vehicle_type_id":"4","last_reported":1714579762,"current_range_meters":22400,"station_id":"ce4bgj92rcd13ifvqbd0","pricing_plan_id":"cebpf4jnsgd1na2vs0mg"},{"bike_id":"f40d01d7-58f5-484f-bf8c-51df562ac245","system_id":"levelo_inurba_marseille","lat":43.299717,"lon":5.384845,"is_reserved":false,"is_disabled":false,"rental_uris":{"android":"levelo://app?vid=f40d01d7-58f5-484f-bf8c-51df562ac245","ios":"levelo://app?vid=f40d01d7-58f5-484f-bf8c-51df562ac245"},"vehicle_type_id":"4","last_reported":1714579762,"current_range_meters":14400,"station_id":"ce4bgj92rcd13ifvqbd0","pricing_plan_id":"cebpf4jnsgd1na2vs0mg"},{"bike_id":"b93b697f-3d7d-4822-855f-15125fdf7d27","system_id":"levelo_inurba_marseille","lat":43.29529,"lon":5.385581,"is_reserved":false,"is_disabled":false,"rental_uris":{"android":"levelo://app?vid=b93b697f-3d7d-4822-855f-15125fdf7d27","ios":"levelo://app?vid=b93b697f-3d7d-4822-855f-15125fdf7d27"},"vehicle_type_id":"4","last_reported":1714579762,"current_range_meters":2800,"station_id":"ce4bgih2rcd13ifvqba0","pricing_plan_id":"cebpf4jnsgd1na2vs0mg"},{"bike_id":"ac80f194-aceb-4bb6-a21d-cc603c3d2850","system_id":"levelo_inurba_marseille","lat":43.3006,"lon":5.38668,"is_reserved":false,"is_disabled":false,"rental_uris":{"android":"levelo://app?vid=ac80f194-aceb-4bb6-a21d-cc603c3d2850","ios":"levelo://app?vid=ac80f194-aceb-4bb6-a21d-cc603c3d2850"},"vehicle_type_id":"4","last_reported":1714579762,"current_range_meters":11200,"station_id":"","pricing_plan_id":"cebpf4jnsgd1na2vs0mg"},{"bike_id":"543730fd-0a4e-4146-8086-cff9148ff2dc","system_id":"levelo_inurba_marseille","lat":43.29913,"lon":5.3849,"is_reserved":false,"is_disabled":false,"rental_uris":{"android":"levelo://app?vid=543730fd-0a4e-4146-8086-cff9148ff2dc","ios":"levelo://app?vid=543730fd-0a4e-4146-8086-cff9148ff2dc"},"vehicle_type_id":"4","last_reported":1714579762,"current_range_meters":800,"station_id":"","pricing_plan_id":"cebpf4jnsgd1na2vs0mg"},{"bike_id":"375277f5-fd41-4b66-99b8-9b49b8e21405","system_id":"levelo_inurba_marseille","lat":43.30537,"lon":5.367345,"is_reserved":false,"is_disabled":false,"rental_uris":{"android":"levelo://app?vid=375277f5-fd41-4b66-99b8-9b49b8e21405","ios":"levelo://app?vid=375277f5-fd41-4b66-99b8-9b49b8e21405"},"vehicle_type_id":"4","last_reported":1714579762,"current_range_meters":10400,"station_id":"ce4bgrp2rcd13ifvqc9g","pricing_plan_id":"cebpf4jnsgd1na2vs0mg"},{"bike_id":"b7264428-4a6b-4174-8422-911c85d34e85","system_id":"levelo_inurba_marseille","lat":43.32367,"lon":5.388836,"is_reserved":false,"is_disabled":false,"rental_uris":{"android":"levelo://app?vid=b7264428-4a6b-4174-8422-911c85d34e85","ios":"levelo://app?vid=b7264428-4a6b-4174-8422-911c85d34e85"},"vehicle_type_id":"4","last_reported":1714579762,"current_range_meters":0,"station_id":"ce4bhqp2rcd13ifvqhog","pricing_plan_id":"cebpf4jnsgd1na2vs0mg"},{"bike_id":"44b5108c-e667-41da-bcc8-aa9ad51b01ec","system_id":"levelo_inurba_marseille","lat":43.29621,"lon":5.38103,"is_reserved":false,"is_disabled":false,"rental_uris":{"android":"levelo://app?vid=44b5108c-e667-41da-bcc8-aa9ad51b01ec","ios":"levelo://app?vid=44b5108c-e667-41da-bcc8-aa9ad51b01ec"},"vehicle_type_id":"4","last_reported":1714579762,"current_range_meters":4800,"station_id":"ce4bgl12rcd13ifvqbo0","pricing_plan_id":"cebpf4jnsgd1na2vs0mg"},{"bike_id":"6fb6c379-9cde-4e6d-a719-04be5c2781bb","system_id":"levelo_inurba_marseille","lat":43.29602,"lon":5.381084,"is_reserved":false,"is_disabled":false,"rental_uris":{"android":"levelo://app?vid=6fb6c379-9cde-4e6d-a719-04be5c2781bb","ios":"levelo://app?vid=6fb6c379-9cde-4e6d-a719-04be5c2781bb"},"vehicle_type_id":"4","last_reported":1714579762,"current_range_meters":27600,"station_id":"ce4bgl12rcd13ifvqbo0","pricing_plan_id":"cebpf4jnsgd1na2vs0mg"},{"bike_id":"493492d6-1b27-44de-996d-debaa2fb874c","system_id":"levelo_inurba_marseille","lat":43.29612,"lon":5.38104,"is_reserved":false,"is_disabled":false,"rental_uris":{"android":"levelo://app?vid=493492d6-1b27-44de-996d-debaa2fb874c","ios":"levelo://app?vid=493492d6-1b27-44de-996d-debaa2fb874c"},"vehicle_type_id":"4","last_reported":1714579762,"current_range_meters":400,"station_id":"ce4bgl12rcd13ifvqbo0","pricing_plan_id":"cebpf4jnsgd1na2vs0mg"},{"bike_id":"733ab4ea-cbe2-4fc7-ad5f-351e3543b4b6","system_id":"levelo_inurba_marseille","lat":43.29602,"lon":5.381084,"is_reserved":false,"is_disabled":false,"rental_uris":{"android":"levelo://app?vid=733ab4ea-cbe2-4fc7-ad5f-351e3543b4b6","ios":"levelo://app?vid=733ab4ea-cbe2-4fc7-ad5f-351e3543b4b6"},"vehicle_type_id":"4","last_reported":1714579762,"current_range_meters":8000,"station_id":"ce4bgl12rcd13ifvqbo0","pricing_plan_id":"cebpf4jnsgd1na2vs0mg"},{"bike_id":"e366be59-8255-4d0b-922c-ba9c5cf0fc8a","system_id":"levelo_inurba_marseille","lat":43.29602,"lon":5.381084,"is_reserved":false,"is_disabled":false,"rental_uris":{"android":"levelo://app?vid=e366be59-8255-4d0b-922c-ba9c5cf0fc8a","ios":"levelo://app?vid=e366be59-8255-4d0b-922c-ba9c5cf0fc8a"},"vehicle_type_id":"4","last_reported":1714579762,"current_range_meters":1200,"station_id":"ce4bgl12rcd13ifvqbo0","pricing_plan_id":"cebpf4jnsgd1na2vs0mg"},{"bike_id":"6542830a-e71a-4db1-a89b-a0f42d46bb2c","system_id":"levelo_inurba_marseille","lat":43.29602,"lon":5.38094,"is_reserved":false,"is_disabled":false,"rental_uris":{"android":"levelo://app?vid=6542830a-e71a-4db1-a89b-a0f42d46bb2c","ios":"levelo://app?vid=6542830a-e71a-4db1-a89b-a0f42d46bb2c"},"vehicle_type_id":"4","last_reported":1714579762,"current_range_meters":8800,"station_id":"ce4bgl12rcd13ifvqbo0","pricing_plan_id":"cebpf4jnsgd1na2vs0mg"},{"bike_id":"156c91ba-cc28-4a4a-82be-9925a88c0765","system_id":"levelo_inurba_marseille","lat":43.29602,"lon":5.381084,"is_reserved":false,"is_disabled":false,"rental_uris":{"android":"levelo://app?vid=156c91ba-cc28-4a4a-82be-9925a88c0765","ios":"levelo://app?vid=156c91ba-cc28-4a4a-82be-9925a88c0765"},"vehicle_type_id":"4","last_reported":1714579762,"current_range_meters":9600,"station_id":"ce4bgl12rcd13ifvqbo0","pricing_plan_id":"cebpf4jnsgd1na2vs0mg"},{"bike_id":"12edcca5-40c6-48d6-997e-3c71d1e21bb6","system_id":"levelo_inurba_marseille","lat":43.29601,"lon":5.381084,"is_reserved":false,"is_disabled":false,"rental_uris":{"android":"levelo://app?vid=12edcca5-40c6-48d6-997e-3c71d1e21bb6","ios":"levelo://app?vid=12edcca5-40c6-48d6-997e-3c71d1e21bb6"},"vehicle_type_id":"4","last_reported":1714579762,"current_range_meters":12000,"station_id":"ce4bgl12rcd13ifvqbo0","pricing_plan_id":"cebpf4jnsgd1na2vs0mg"},{"bike_id":"32a968c8-9ce8-4bb7-a2c9-8ffecdfc29ee","system_id":"levelo_inurba_marseille","lat":43.29602,"lon":5.381084,"is_reserved":false,"is_disabled":false,"rental_uris":{"android":"levelo://app?vid=32a968c8-9ce8-4bb7-a2c9-8ffecdfc29ee","ios":"levelo://app?vid=32a968c8-9ce8-4bb7-a2c9-8ffecdfc29ee"},"vehicle_type_id":"4","last_reported":1714579762,"current_range_meters":9200,"station_id":"ce4bgl12rcd13ifvqbo0","pricing_plan_id":"cebpf4jnsgd1na2vs0mg"},{"bike_id":"02fca412-8c7a-4205-a1be-b866c8e94398","system_id":"levelo_inurba_marseille","lat":43.29602,"lon":5.381084,"is_reserved":false,"is_disabled":false,"rental_uris":{"android":"levelo://app?vid=02fca412-8c7a-4205-a1be-b866c8e94398","ios":"levelo://app?vid=02fca412-8c7a-4205-a1be-b866c8e94398"},"vehicle_type_id":"4","last_reported":1714579762,"current_range_meters":21600,"station_id":"ce4bgl12rcd13ifvqbo0","pricing_plan_id":"cebpf4jnsgd1na2vs0mg"},{"bike_id":"5dde619d-9a4a-4b03-a471-a0122299093d","system_id":"levelo_inurba_marseille","lat":43.29601,"lon":5.381084,"is_reserved":false,"is_disabled":false,"rental_uris":{"android":"levelo://app?vid=5dde619d-9a4a-4b03-a471-a0122299093d","ios":"levelo://app?vid=5dde619d-9a4a-4b03-a471-a0122299093d"},"vehicle_type_id":"4","last_reported":1714579762,"current_range_meters":22800,"station_id":"ce4bgl12rcd13ifvqbo0","pricing_plan_id":"cebpf4jnsgd1na2vs0mg"},{"bike_id":"cc21a432-358a-4099-848d-8dde113a37df","system_id":"levelo_inurba_marseille","lat":43.292749,"lon":5.368402,"is_reserved":false,"is_disabled":false,"rental_uris":{"android":"levelo://app?vid=cc21a432-358a-4099-848d-8dde113a37df","ios":"levelo://app?vid=cc21a432-358a-4099-848d-8dde113a37df"},"vehicle_type_id":"4","last_reported":1714579762,"current_range_meters":31200,"station_id":"ce4bhbp2rcd13ifvqesg","pricing_plan_id":"cebpf4jnsgd1na2vs0mg"},{"bike_id":"adcb1929-79cd-48fc-92cf-24f33d5df4b2","system_id":"levelo_inurba_marseille","lat":43.292749,"lon":5.368398,"is_reserved":false,"is_disabled":false,"rental_uris":{"android":"levelo://app?vid=adcb1929-79cd-48fc-92cf-24f33d5df4b2","ios":"levelo://app?vid=adcb1929-79cd-48fc-92cf-24f33d5df4b2"},"vehicle_type_id":"4","last_reported":1714579762,"current_range_meters":15200,"station_id":"ce4bhbp2rcd13ifvqesg","pricing_plan_id":"cebpf4jnsgd1na2vs0mg"},{"bike_id":"cac7ec20-283b-43de-9a82-4894b497e72a","system_id":"levelo_inurba_marseille","lat":43.292749,"lon":5.368402,"is_reserved":false,"is_disabled":false,"rental_uris":{"android":"levelo://app?vid=cac7ec20-283b-43de-9a82-4894b497e72a","ios":"levelo://app?vid=cac7ec20-283b-43de-9a82-4894b497e72a"},"vehicle_type_id":"4","last_reported":1714579762,"current_range_meters":0,"station_id":"ce4bhbp2rcd13ifvqesg","pricing_plan_id":"cebpf4jnsgd1na2vs0mg"},{"bike_id":"1e53defd-5f96-4df9-a2b2-26495f8c63c2","system_id":"levelo_inurba_marseille","lat":43.292749,"lon":5.368398,"is_reserved":false,"is_disabled":false,"rental_uris":{"android":"levelo://app?vid=1e53defd-5f96-4df9-a2b2-26495f8c63c2","ios":"levelo://app?vid=1e53defd-5f96-4df9-a2b2-26495f8c63c2"},"vehicle_type_id":"4","last_reported":1714579762,"current_range_meters":2800,"station_id":"ce4bhbp2rcd13ifvqesg","pricing_plan_id":"cebpf4jnsgd1na2vs0mg"},{"bike_id":"09f7cb5d-9edd-47d2-a04e-f1b90dc48fc4","system_id":"levelo_inurba_marseille","lat":43.292749,"lon":5.368402,"is_reserved":false,"is_disabled":false,"rental_uris":{"android":"levelo://app?vid=09f7cb5d-9edd-47d2-a04e-f1b90dc48fc4","ios":"levelo://app?vid=09f7cb5d-9edd-47d2-a04e-f1b90dc48fc4"},"vehicle_type_id":"4","last_reported":1714579762,"current_range_meters":16000,"station_id":"ce4bhbp2rcd13ifvqesg","pricing_plan_id":"cebpf4jnsgd1na2vs0mg"},{"bike_id":"0ee33f8e-302f-4588-9915-833cadc35cd6","system_id":"levelo_inurba_marseille","lat":43.292749,"lon":5.368402,"is_reserved":false,"is_disabled":false,"rental_uris":{"android":"levelo://app?vid=0ee33f8e-302f-4588-9915-833cadc35cd6","ios":"levelo://app?vid=0ee33f8e-302f-4588-9915-833cadc35cd6"},"vehicle_type_id":"4","last_reported":1714579762,"current_range_meters":9600,"station_id":"ce4bhbp2rcd13ifvqesg","pricing_plan_id":"cebpf4jnsgd1na2vs0mg"},{"bike_id":"6a8ec227-50e7-4468-84f2-1ade2631af2d","system_id":"levelo_inurba_marseille","lat":43.293009,"lon":5.374584,"is_reserved":false,"is_disabled":false,"rental_uris":{"android":"levelo://app?vid=6a8ec227-50e7-4468-84f2-1ade2631af2d","ios":"levelo://app?vid=6a8ec227-50e7-4468-84f2-1ade2631af2d"},"vehicle_type_id":"4","last_reported":1714579762,"current_range_meters":29200,"station_id":"ce4bgi12rcd13ifvqb70","pricing_plan_id":"cebpf4jnsgd1na2vs0mg"},{"bike_id":"57de88ff-0c25-4c36-ba30-eb782bdcc53c","system_id":"levelo_inurba_marseille","lat":43.317557,"lon":5.390173,"is_reserved":false,"is_disabled":false,"rental_uris":{"android":"levelo://app?vid=57de88ff-0c25-4c36-ba30-eb782bdcc53c","ios":"levelo://app?vid=57de88ff-0c25-4c36-ba30-eb782bdcc53c"},"vehicle_type_id":"4","last_reported":1714579762,"current_range_meters":20400,"station_id":"ce4bhqp2rcd13ifvqhng","pricing_plan_id":"cebpf4jnsgd1na2vs0mg"},{"bike_id":"249202d4-d3d4-4af0-a086-75c67c9ff733","system_id":"levelo_inurba_marseille","lat":43.293009,"lon":5.374584,"is_reserved":false,"is_disabled":false,"rental_uris":{"android":"levelo://app?vid=249202d4-d3d4-4af0-a086-75c67c9ff733","ios":"levelo://app?vid=249202d4-d3d4-4af0-a086-75c67c9ff733"},"vehicle_type_id":"4","last_reported":1714579762,"current_range_meters":13200,"station_id":"ce4bgi12rcd13ifvqb70","pricing_plan_id":"cebpf4jnsgd1na2vs0mg"},{"bike_id":"0a344ed6-e18b-42c8-9a3a-d8122e4d1535","system_id":"levelo_inurba_marseille","lat":43.305994,"lon":5.393687,"is_reserved":false,"is_disabled":false,"rental_uris":{"android":"levelo://app?vid=0a344ed6-e18b-42c8-9a3a-d8122e4d1535","ios":"levelo://app?vid=0a344ed6-e18b-42c8-9a3a-d8122e4d1535"},"vehicle_type_id":"4","last_reported":1714579762,"current_range_meters":5200,"station_id":"ce4bh0p2rcd13ifvqd80","pricing_plan_id":"cebpf4jnsgd1na2vs0mg"},{"bike_id":"b27c7189-f3f2-4782-af1f-e9781390fd05","system_id":"levelo_inurba_marseille","lat":43.29378,"lon":5.37841,"is_reserved":false,"is_disabled":false,"rental_uris":{"android":"levelo://app?vid=b27c7189-f3f2-4782-af1f-e9781390fd05","ios":"levelo://app?vid=b27c7189-f3f2-4782-af1f-e9781390fd05"},"vehicle_type_id":"4","last_reported":1714579762,"current_range_meters":2400,"station_id":"","pricing_plan_id":"cebpf4jnsgd1na2vs0mg"},{"bike_id":"89d6a465-5d75-4e5f-b975-3a5e3ff3cf39","system_id":"levelo_inurba_marseille","lat":43.2936,"lon":5.37835,"is_reserved":false,"is_disabled":false,"rental_uris":{"android":"levelo://app?vid=89d6a465-5d75-4e5f-b975-3a5e3ff3cf39","ios":"levelo://app?vid=89d6a465-5d75-4e5f-b975-3a5e3ff3cf39"},"vehicle_type_id":"4","last_reported":1714579762,"current_range_meters":28800,"station_id":"ce4bgjh2rcd13ifvqbf0","pricing_plan_id":"cebpf4jnsgd1na2vs0mg"},{"bike_id":"ee42b0ff-43e6-4b74-bc7c-da1c9e1bc54b","system_id":"levelo_inurba_marseille","lat":43.302992,"lon":5.392136,"is_reserved":false,"is_disabled":false,"rental_uris":{"android":"levelo://app?vid=ee42b0ff-43e6-4b74-bc7c-da1c9e1bc54b","ios":"levelo://app?vid=ee42b0ff-43e6-4b74-bc7c-da1c9e1bc54b"},"vehicle_type_id":"4","last_reported":1714579762,"current_range_meters":7200,"station_id":"ce4bgkh2rcd13ifvqbk0","pricing_plan_id":"cebpf4jnsgd1na2vs0mg"},{"bike_id":"f63fa854-2f50-42aa-92a7-005224e23078","system_id":"levelo_inurba_marseille","lat":43.2936,"lon":5.37835,"is_reserved":false,"is_disabled":false,"rental_uris":{"android":"levelo://app?vid=f63fa854-2f50-42aa-92a7-005224e23078","ios":"levelo://app?vid=f63fa854-2f50-42aa-92a7-005224e23078"},