{"last_updated":1732532888,"ttl":60,"version":"2.2","data":{"bikes":[{"bike_id":"38ab36de-51b1-46ea-a559-36c3e4927707","system_id":"levelo_inurba_marseille","lat":43.27833,"lon":5.39204,"is_reserved":false,"is_disabled":false,"rental_uris":{"android":"levelo://app?vid=38ab36de-51b1-46ea-a559-36c3e4927707","ios":"levelo://app?vid=38ab36de-51b1-46ea-a559-36c3e4927707"},"vehicle_type_id":"4","last_reported":1732532888,"current_range_meters":38000,"station_id":"ce4bhjp2rcd13ifvqga0","pricing_plan_id":"cebpf4jnsgd1na2vs0mg"},{"bike_id":"77a6b4d3-f225-40ca-b115-e0b015ca37be","system_id":"levelo_inurba_marseille","lat":43.28152,"lon":5.42648,"is_reserved":false,"is_disabled":false,"rental_uris":{"android":"levelo://app?vid=77a6b4d3-f225-40ca-b115-e0b015ca37be","ios":"levelo://app?vid=77a6b4d3-f225-40ca-b115-e0b015ca37be"},"vehicle_type_id":"4","last_reported":1732532888,"current_range_meters":36800,"station_id":"ce4bhnh2rcd13ifvqgug","pricing_plan_id":"cebpf4jnsgd1na2vs0mg"},{"bike_id":"ce7ec125-e5e1-4f1c-9ffa-2776a8995d05","system_id":"levelo_inurba_marseille","lat":43.27072,"lon":5.42276,"is_reserved":false,"is_disabled":true,"rental_uris":{"android":"levelo://app?vid=ce7ec125-e5e1-4f1c-9ffa-2776a8995d05","ios":"levelo://app?vid=ce7ec125-e5e1-4f1c-9ffa-2776a8995d05"},"vehicle_type_id":"4","last_reported":1732532888,"current_range_meters":0,"station_id":"ce4bhk92rcd13ifvqgb0","pricing_plan_id":"cebpf4jnsgd1na2vs0mg"},{"bike_id":"1df56fac-cdd0-4f45-a257-cc4782054ebf","system_id":"levelo_inurba_marseille","lat":43.29624,"lon":5.37165,"is_reserved":false,"is_disabled":false,"rental_uris":{"android":"levelo://app?vid=1df56fac-cdd0-4f45-a257-cc4782054ebf","ios":"levelo://app?vid=1df56fac-cdd0-4f45-a257-cc4782054ebf"},"vehicle_type_id":"4","last_reported":1732532888,"current_range_meters":20400,"station_id":"ce4bgnh2rcd13ifvqc0g","pricing_plan_id":"cebpf4jnsgd1na2vs0mg"},{"bike_id":"dad9e197-4927-4fd9-8cfb-d1c31e46b32c","system_id":"levelo_inurba_marseille","lat":43.25941,"lon":5.40903,"is_reserved":false,"is_disabled":false,"rental_uris":{"android":"levelo://app?vid=dad9e197-4927-4fd9-8cfb-d1c31e46b32c","ios":"levelo://app?vid=dad9e197-4927-4fd9-8cfb-d1c31e46b32c"},"vehicle_type_id":"4","last_reported":1732532888,"current_range_meters":23200,"station_id":"ce4bhm92rcd13ifvqglg","pricing_plan_id":"cebpf4jnsgd1na2vs0mg"},{"bike_id":"d3258ce3-0a23-4ab3-bcd8-df5ed99d36e5","system_id":"levelo_inurba_marseille","lat":43.31073,"lon":5.38351,"is_reserved":false,"is_disabled":false,"rental_uris":{"android":"levelo://app?vid=d3258ce3-0a23-4ab3-bcd8-df5ed99d36e5","ios":"levelo://app?vid=d3258ce3-0a23-4ab3-bcd8-df5ed99d36e5"},"vehicle_type_id":"4","last_reported":1732532888,"current_range_meters":13600,"station_id":"ce4bgv92rcd13ifvqcr0","pricing_plan_id":"cebpf4jnsgd1na2vs0mg"},{"bike_id":"d57aab1f-4226-4c67-9f52-f1c27b38e5e5","system_id":"levelo_inurba_marseille","lat":43.28565,"lon":5.39508,"is_reserved":false,"is_disabled":false,"rental_uris":{"android":"levelo://app?vid=d57aab1f-4226-4c67-9f52-f1c27b38e5e5","ios":"levelo://app?vid=d57aab1f-4226-4c67-9f52-f1c27b38e5e5"},"vehicle_type_id":"4","last_reported":1732532888,"current_range_meters":38800,"station_id":"ce4bh292rcd13ifvqdg0","pricing_plan_id":"cebpf4jnsgd1na2vs0mg"},{"bike_id":"59fd5d21-d357-4080-b5ed-2226d8c7cc0a","system_id":"levelo_inurba_marseille","lat":43.28271,"lon":5.35083,"is_reserved":false,"is_disabled":false,"rental_uris":{"android":"levelo://app?vid=59fd5d21-d357-4080-b5ed-2226d8c7cc0a","ios":"levelo://app?vid=59fd5d21-d357-4080-b5ed-2226d8c7cc0a"},"vehicle_type_id":"4","last_reported":1732532888,"current_range_meters":28800,"station_id":"ce4bhbp2rcd13ifvqerg","pricing_plan_id":"cebpf4jnsgd1na2vs0mg"},{"bike_id":"dfb15e96-9dde-4d9b-939f-f438c0e11409","system_id":"levelo_inurba_marseille","lat":43.27621,"lon":5.361,"is_reserved":false,"is_disabled":false,"rental_uris":{"android":"levelo://app?vid=dfb15e96-9dde-4d9b-939f-f438c0e11409","ios":"levelo://app?vid=dfb15e96-9dde-4d9b-939f-f438c0e11409"},"vehicle_type_id":"4","last_reported":1732532888,"current_range_meters":33200,"station_id":"ce4bgj92rcd13ifvqbe0","pricing_plan_id":"cebpf4jnsgd1na2vs0mg"},{"bike_id":"94527a76-0bb1-4146-9d66-5a02656d021d","system_id":"levelo_inurba_marseille","lat":43.28156,"lon":5.42644,"is_reserved":false,"is_disabled":false,"rental_uris":{"android":"levelo://app?vid=94527a76-0bb1-4146-9d66-5a02656d021d","ios":"levelo://app?vid=94527a76-0bb1-4146-9d66-5a02656d021d"},"vehicle_type_id":"4","last_reported":1732532888,"current_range_meters":10800,"station_id":"ce4bhnh2rcd13ifvqgug","pricing_plan_id":"cebpf4jnsgd1na2vs0mg"},{"bike_id":"beeb9cde-e756-417e-9438-063201760635","system_id":"levelo_inurba_marseille","lat":43.31358,"lon":5.36704,"is_reserved":false,"is_disabled":false,"rental_uris":{"android":"levelo://app?vid=beeb9cde-e756-417e-9438-063201760635","ios":"levelo://app?vid=beeb9cde-e756-417e-9438-063201760635"},"vehicle_type_id":"4","last_reported":1732532888,"current_range_meters":38800,"station_id":"ce4bgr92rcd13ifvqc6g","pricing_plan_id":"cebpf4jnsgd1na2vs0mg"},{"bike_id":"2d76a46c-0b1d-4012-b930-acc0f89163be","system_id":"levelo_inurba_marseille","lat":43.31223,"lon":5.36877,"is_reserved":false,"is_disabled":false,"rental_uris":{"android":"levelo://app?vid=2d76a46c-0b1d-4012-b930-acc0f89163be","ios":"levelo://app?vid=2d76a46c-0b1d-4012-b930-acc0f89163be"},"vehicle_type_id":"4","last_reported":1732532888,"current_range_meters":24400,"station_id":"ce4bgl92rcd13ifvqbq0","pricing_plan_id":"cebpf4jnsgd1na2vs0mg"},{"bike_id":"1d480d76-bb73-4781-930a-16c68fdce680","system_id":"levelo_inurba_marseille","lat":43.25576,"lon":5.38233,"is_reserved":false,"is_disabled":false,"rental_uris":{"android":"levelo://app?vid=1d480d76-bb73-4781-930a-16c68fdce680","ios":"levelo://app?vid=1d480d76-bb73-4781-930a-16c68fdce680"},"vehicle_type_id":"4","last_reported":1732532888,"current_range_meters":28400,"station_id":"ce4bhih2rcd13ifvqfs0","pricing_plan_id":"cebpf4jnsgd1na2vs0mg"},{"bike_id":"c4bb37ef-8efd-4c1e-855a-9ae378f2de8d","system_id":"levelo_inurba_marseille","lat":43.29528,"lon":5.39392,"is_reserved":false,"is_disabled":false,"rental_uris":{"android":"levelo://app?vid=c4bb37ef-8efd-4c1e-855a-9ae378f2de8d","ios":"levelo://app?vid=c4bb37ef-8efd-4c1e-855a-9ae378f2de8d"},"vehicle_type_id":"4","last_reported":1732532888,"current_range_meters":33600,"station_id":"ce4bh292rcd13ifvqdf0","pricing_plan_id":"cebpf4jnsgd1na2vs0mg"},{"bike_id":"d5f4879c-4dae-42ac-a7d5-9a65246905af","system_id":"levelo_inurba_marseille","lat":43.25865,"lon":5.39895,"is_reserved":false,"is_disabled":false,"rental_uris":{"android":"levelo://app?vid=d5f4879c-4dae-42ac-a7d5-9a65246905af","ios":"levelo://app?vid=d5f4879c-4dae-42ac-a7d5-9a65246905af"},"vehicle_type_id":"4","last_reported":1732532888,"current_range_meters":24400,"station_id":"ce4bhl92rcd13ifvqghg","pricing_plan_id":"cebpf4jnsgd1na2vs0mg"},{"bike_id":"f194ce90-013c-4fc7-8be7-5bad56e3b52c","system_id":"levelo_inurba_marseille","lat":43.2408,"lon":5.37747,"is_reserved":false,"is_disabled":false,"rental_uris":{"android":"levelo://app?vid=f194ce90-013c-4fc7-8be7-5bad56e3b52c","ios":"levelo://app?vid=f194ce90-013c-4fc7-8be7-5bad56e3b52c"},"vehicle_type_id":"4","last_reported":1732532888,"current_range_meters":38800,"station_id":"ce4bhnp2rcd13ifvqgvg","pricing_plan_id":"cebpf4jnsgd1na2vs0mg"},{"bike_id":"bda227ed-32f5-420d-a515-78943985b838","system_id":"levelo_inurba_marseille","lat":43.30156,"lon":5.381,"is_reserved":false,"is_disabled":true,"rental_uris":{"android":"levelo://app?vid=bda227ed-32f5-420d-a515-78943985b838","ios":"levelo://app?vid=bda227ed-32f5-420d-a515-78943985b838"},"vehicle_type_id":"4","last_reported":1732532888,"current_range_meters":30800,"station_id":"ce4bgjp2rcd13ifvqbh0","pricing_plan_id":"cebpf4jnsgd1na2vs0mg"},{"bike_id":"30585094-ecfe-43ac-ae36-000c4a5ab426","system_id":"levelo_inurba_marseille","lat":43.30949,"lon":5.39041,"is_reserved":false,"is_disabled":true,"rental_uris":{"android":"levelo://app?vid=30585094-ecfe-43ac-ae36-000c4a5ab426","ios":"levelo://app?vid=30585094-ecfe-43ac-ae36-000c4a5ab426"},"vehicle_type_id":"4","last_reported":1732532888,"current_range_meters":17200,"station_id":"ce4bgup2rcd13ifvqco0","pricing_plan_id":"cebpf4jnsgd1na2vs0mg"},{"bike_id":"23cca0dc-750e-41b1-84e5-b69d86b98da2","system_id":"levelo_inurba_marseille","lat":43.2511,"lon":5.40331,"is_reserved":false,"is_disabled":false,"rental_uris":{"android":"levelo://app?vid=23cca0dc-750e-41b1-84e5-b69d86b98da2","ios":"levelo://app?vid=23cca0dc-750e-41b1-84e5-b69d86b98da2"},"vehicle_type_id":"4","last_reported":1732532888,"current_range_meters":38800,"station_id":"ce4bhlh2rcd13ifvqgig","pricing_plan_id":"cebpf4jnsgd1na2vs0mg"},{"bike_id":"39b11e64-2962-470f-8250-90fe18d4a5f4","system_id":"levelo_inurba_marseille","lat":43.24721,"lon":5.39301,"is_reserved":false,"is_disabled":true,"rental_uris":{"android":"levelo://app?vid=39b11e64-2962-470f-8250-90fe18d4a5f4","ios":"levelo://app?vid=39b11e64-2962-470f-8250-90fe18d4a5f4"},"vehicle_type_id":"4","last_reported":1732532888,"current_range_meters":0,"station_id":"","pricing_plan_id":"cebpf4jnsgd1na2vs0mg"},{"bike_id":"96bdc386-972d-4abf-bdbc-fce33197b4f3","system_id":"levelo_inurba_marseille","lat":43.26682,"lon":5.38263,"is_reserved":false,"is_disabled":false,"rental_uris":{"android":"levelo://app?vid=96bdc386-972d-4abf-bdbc-fce33197b4f3","ios":"levelo://app?vid=96bdc386-972d-4abf-bdbc-fce33197b4f3"},"vehicle_type_id":"4","last_reported":1732532888,"current_range_meters":35600,"station_id":"ce4bhg92rcd13ifvqf90","pricing_plan_id":"cebpf4jnsgd1na2vs0mg"},{"bike_id":"48c65e97-1516-4538-82d5-5272854a7544","system_id":"levelo_inurba_marseille","lat":43.324788,"lon":5.365691,"is_reserved":false,"is_disabled":false,"rental_uris":{"android":"levelo://app?vid=48c65e97-1516-4538-82d5-5272854a7544","ios":"levelo://app?vid=48c65e97-1516-4538-82d5-5272854a7544"},"vehicle_type_id":"4","last_reported":1732532888,"current_range_meters":38000,"station_id":"ce4bhs12rcd13ifvqhvg","pricing_plan_id":"cebpf4jnsgd1na2vs0mg"},{"bike_id":"3ade58a9-2491-481a-86c5-e1c95f66dde0","system_id":"levelo_inurba_marseille","lat":43.24074,"lon":5.37762,"is_reserved":false,"is_disabled":true,"rental_uris":{"android":"levelo://app?vid=3ade58a9-2491-481a-86c5-e1c95f66dde0","ios":"levelo://app?vid=3ade58a9-2491-481a-86c5-e1c95f66dde0"},"vehicle_type_id":"4","last_reported":1732532888,"current_range_meters":25600,"station_id":"ce4bhnp2rcd13ifvqgvg","pricing_plan_id":"cebpf4jnsgd1na2vs0mg"},{"bike_id":"30ba3f49-11a8-42b0-83f1-dbeeb3e63c56","system_id":"levelo_inurba_marseille","lat":43.31708,"lon":5.37751,"is_reserved":false,"is_disabled":false,"rental_uris":{"android":"levelo://app?vid=30ba3f49-11a8-42b0-83f1-dbeeb3e63c56","ios":"levelo://app?vid=30ba3f49-11a8-42b0-83f1-dbeeb3e63c56"},"vehicle_type_id":"4","last_reported":1732532888,"current_range_meters":28400,"station_id":"ce4bgth2rcd13ifvqch0","pricing_plan_id":"cebpf4jnsgd1na2vs0mg"},{"bike_id":"e55d71d0-970e-4e17-ba14-4482cf574a53","system_id":"levelo_inurba_marseille","lat":43.30055,"lon":5.37434,"is_reserved":false,"is_disabled":false,"rental_uris":{"android":"levelo://app?vid=e55d71d0-970e-4e17-ba14-4482cf574a53","ios":"levelo://app?vid=e55d71d0-970e-4e17-ba14-4482cf574a53"},"vehicle_type_id":"4","last_reported":1732532888,"current_range_meters":34000,"station_id":"","pricing_plan_id":"cebpf4jnsgd1na2vs0mg"},{"bike_id":"39772c2f-fe87-4f2b-a94f-704958df3c08","system_id":"levelo_inurba_marseille","lat":43.23151,"lon":5.43709,"is_reserved":false,"is_disabled":false,"rental_uris":{"android":"levelo://app?vid=39772c2f-fe87-4f2b-a94f-704958df3c08","ios":"levelo://app?vid=39772c2f-fe87-4f2b-a94f-704958df3c08"},"vehicle_type_id":"4","last_reported":1732532888,"current_range_meters":7200,"station_id":"ce4bhmp2rcd13ifvqgog","pricing_plan_id":"cebpf4jnsgd1na2vs0mg"},{"bike_id":"256b3c43-6cd6-4cbc-95e2-ff1f4a2e4eeb","system_id":"levelo_inurba_marseille","lat":43.29537,"lon":5.39399,"is_reserved":false,"is_disabled":false,"rental_uris":{"android":"levelo://app?vid=256b3c43-6cd6-4cbc-95e2-ff1f4a2e4eeb","ios":"levelo://app?vid=256b3c43-6cd6-4cbc-95e2-ff1f4a2e4eeb"},"vehicle_type_id":"4","last_reported":1732532888,"current_range_meters":38800,"station_id":"ce4bh292rcd13ifvqdf0","pricing_plan_id":"cebpf4jnsgd1na2vs0mg"},{"bike_id":"12f3b46d-78df-40dc-8567-c239b10c785c","system_id":"levelo_inurba_marseille","lat":43.298747,"lon":5.397227,"is_reserved":false,"is_disabled":false,"rental_uris":{"android":"levelo://app?vid=12f3b46d-78df-40dc-8567-c239b10c785c","ios":"levelo://app?vid=12f3b46d-78df-40dc-8567-c239b10c785c"},"vehicle_type_id":"4","last_reported":1732532888,"current_range_meters":39200,"station_id":"ce4bh0h2rcd13ifvqd50","pricing_plan_id":"cebpf4jnsgd1na2vs0mg"},{"bike_id":"26ec1a22-5020-45e4-ab45-512c7f67d5dd","system_id":"levelo_inurba_marseille","lat":43.3205,"lon":5.41559,"is_reserved":false,"is_disabled":true,"rental_uris":{"android":"levelo://app?vid=26ec1a22-5020-45e4-ab45-512c7f67d5dd","ios":"levelo://app?vid=26ec1a22-5020-45e4-ab45-512c7f67d5dd"},"vehicle_type_id":"4","last_reported":1732532888,"current_range_meters":16800,"station_id":"ce4bhq92rcd13ifvqhkg","pricing_plan_id":"cebpf4jnsgd1na2vs0mg"},{"bike_id":"a9c55693-0464-494d-8006-a7487710acdc","system_id":"levelo_inurba_marseille","lat":43.24649,"lon":5.38889,"is_reserved":false,"is_disabled":false,"rental_uris":{"android":"levelo://app?vid=a9c55693-0464-494d-8006-a7487710acdc","ios":"levelo://app?vid=a9c55693-0464-494d-8006-a7487710acdc"},"vehicle_type_id":"4","last_reported":1732532888,"current_range_meters":9200,"station_id":"ce4bhg12rcd13ifvqf60","pricing_plan_id":"cebpf4jnsgd1na2vs0mg"},{"bike_id":"236859f1-65bc-4ff6-9dd1-5e05b017616e","system_id":"levelo_inurba_marseille","lat":43.28861,"lon":5.3931,"is_reserved":false,"is_disabled":false,"rental_uris":{"android":"levelo://app?vid=236859f1-65bc-4ff6-9dd1-5e05b017616e","ios":"levelo://app?vid=236859f1-65bc-4ff6-9dd1-5e05b017616e"},"vehicle_type_id":"4","last_reported":1732532888,"current_range_meters":30000,"station_id":"ce4bh2p2rcd13ifvqdi0","pricing_plan_id":"cebpf4jnsgd1na2vs0mg"},{"bike_id":"5c9de308-cfbb-4594-a1f0-ac7163bf9aa8","system_id":"levelo_inurba_marseille","lat":43.27894,"lon":5.38121,"is_reserved":false,"is_disabled":false,"rental_uris":{"android":"levelo://app?vid=5c9de308-cfbb-4594-a1f0-ac7163bf9aa8","ios":"levelo://app?vid=5c9de308-cfbb-4594-a1f0-ac7163bf9aa8"},"vehicle_type_id":"4","last_reported":1732532888,"current_range_meters":37600,"station_id":"ce4bhf92rcd13ifvqf50","pricing_plan_id":"cebpf4jnsgd1na2vs0mg"},{"bike_id":"565a0b0b-afe1-4da1-b2e2-0df8233591e4","system_id":"levelo_inurba_marseille","lat":43.25116,"lon":5.40317,"is_reserved":false,"is_disabled":false,"rental_uris":{"android":"levelo://app?vid=565a0b0b-afe1-4da1-b2e2-0df8233591e4","ios":"levelo://app?vid=565a0b0b-afe1-4da1-b2e2-0df8233591e4"},"vehicle_type_id":"4","last_reported":1732532888,"current_range_meters":9600,"station_id":"ce4bhlh2rcd13ifvqgig","pricing_plan_id":"cebpf4jnsgd1na2vs0mg"},{"bike_id":"1e126baa-22b4-4cf7-a05e-1c0611873009","system_id":"levelo_inurba_marseille","lat":43.311192,"lon":5.377708,"is_reserved":false,"is_disabled":true,"rental_uris":{"android":"levelo://app?vid=1e126baa-22b4-4cf7-a05e-1c0611873009","ios":"levelo://app?vid=1e126baa-22b4-4cf7-a05e-1c0611873009"},"vehicle_type_id":"4","last_reported":1732532888,"current_range_meters":0,"station_id":"","pricing_plan_id":"cebpf4jnsgd1na2vs0mg"},{"bike_id":"9eafcccc-8674-409f-be4a-7f3eda4e51e4","system_id":"levelo_inurba_marseille","lat":43.30463,"lon":5.37896,"is_reserved":false,"is_disabled":false,"rental_uris":{"android":"levelo://app?vid=9eafcccc-8674-409f-be4a-7f3eda4e51e4","ios":"levelo://app?vid=9eafcccc-8674-409f-be4a-7f3eda4e51e4"},"vehicle_type_id":"4","last_reported":1732532888,"current_range_meters":21600,"station_id":"ce4bgup2rcd13ifvqcn0","pricing_plan_id":"cebpf4jnsgd1na2vs0mg"},{"bike_id":"7180877b-2a6a-4033-b012-f37bbbaafde1","system_id":"levelo_inurba_marseille","lat":43.26687,"lon":5.38273,"is_reserved":false,"is_disabled":false,"rental_uris":{"android":"levelo://app?vid=7180877b-2a6a-4033-b012-f37bbbaafde1","ios":"levelo://app?vid=7180877b-2a6a-4033-b012-f37bbbaafde1"},"vehicle_type_id":"4","last_reported":1732532888,"current_range_meters":28400,"station_id":"ce4bhg92rcd13ifvqf90","pricing_plan_id":"cebpf4jnsgd1na2vs0mg"},{"bike_id":"ea5fdbcd-a190-4690-ab11-f16c9d2539cb","system_id":"levelo_inurba_marseille","lat":43.34141,"lon":5.409,"is_reserved":false,"is_disabled":false,"rental_uris":{"android":"levelo://app?vid=ea5fdbcd-a190-4690-ab11-f16c9d2539cb","ios":"levelo://app?vid=ea5fdbcd-a190-4690-ab11-f16c9d2539cb"},"vehicle_type_id":"4","last_reported":1732532888,"current_range_meters":9600,"station_id":"ce4bhqh2rcd13ifvqhlg","pricing_plan_id":"cebpf4jnsgd1na2vs0mg"},{"bike_id":"d2803b3e-b1ac-4d5f-ad9c-4537ddd5b33e","system_id":"levelo_inurba_marseille","lat":43.2898,"lon":5.37834,"is_reserved":false,"is_disabled":false,"rental_uris":{"android":"levelo://app?vid=d2803b3e-b1ac-4d5f-ad9c-4537ddd5b33e","ios":"levelo://app?vid=d2803b3e-b1ac-4d5f-ad9c-4537ddd5b33e"},"vehicle_type_id":"4","last_reported":1732532888,"current_range_meters":39200,"station_id":"ce4bh9p2rcd13ifvqed0","pricing_plan_id":"cebpf4jnsgd1na2vs0mg"},{"bike_id":"6ec37f76-c454-4115-b5d1-b36d33ac60ca","system_id":"levelo_inurba_marseille","lat":43.24665,"lon":5.38164,"is_reserved":false,"is_disabled":false,"rental_uris":{"android":"levelo://app?vid=6ec37f76-c454-4115-b5d1-b36d33ac60ca","ios":"levelo://app?vid=6ec37f76-c454-4115-b5d1-b36d33ac60ca"},"vehicle_type_id":"4","last_reported":1732532888,"current_range_meters":10000,"station_id":"ce4bhih2rcd13ifvqfr0","pricing_plan_id":"cebpf4jnsgd1na2vs0mg"},{"bike_id":"c01413e4-6898-45ee-be35-ef8f0832c3bc","system_id":"levelo_inurba_marseille","lat":43.32367,"lon":5.38876,"is_reserved":false,"is_disabled":true,"rental_uris":{"android":"levelo://app?vid=c01413e4-6898-45ee-be35-ef8f0832c3bc","ios":"levelo://app?vid=c01413e4-6898-45ee-be35-ef8f0832c3bc"},"vehicle_type_id":"4","last_reported":1732532888,"current_range_meters":28000,"station_id":"ce4bhqp2rcd13ifvqhog","pricing_plan_id":"cebpf4jnsgd1na2vs0mg"},{"bike_id":"bb82b5e5-bae1-48f9-89d0-4a022e68f3cc","system_id":"levelo_inurba_marseille","lat":43.23151,"lon":5.4372,"is_reserved":false,"is_disabled":true,"rental_uris":{"android":"levelo://app?vid=bb82b5e5-bae1-48f9-89d0-4a022e68f3cc","ios":"levelo://app?vid=bb82b5e5-bae1-48f9-89d0-4a022e68f3cc"},"vehicle_type_id":"4","last_reported":1732532888,"current_range_meters":0,"station_id":"ce4bhmp2rcd13ifvqgog","pricing_plan_id":"cebpf4jnsgd1na2vs0mg"},{"bike_id":"7767996f-2f6e-4bc8-bbf5-81dc5bff054c","system_id":"levelo_inurba_marseille","lat":43.29297,"lon":5.37443,"is_reserved":false,"is_disabled":true,"rental_uris":{"android":"levelo://app?vid=7767996f-2f6e-4bc8-bbf5-81dc5bff054c","ios":"levelo://app?vid=7767996f-2f6e-4bc8-bbf5-81dc5bff054c"},"vehicle_type_id":"4","last_reported":1732532888,"current_range_meters":36800,"station_id":"ce4bgi12rcd13ifvqb70","pricing_plan_id":"cebpf4jnsgd1na2vs0mg"},{"bike_id":"9465545f-af87-4599-bf7e-091832e32b7b","system_id":"levelo_inurba_marseille","lat":43.29537,"lon":5.38547,"is_reserved":false,"is_disabled":true,"rental_uris":{"android":"levelo://app?vid=9465545f-af87-4599-bf7e-091832e32b7b","ios":"levelo://app?vid=9465545f-af87-4599-bf7e-091832e32b7b"},"vehicle_type_id":"4","last_reported":1732532888,"current_range_meters":25200,"station_id":"ce4bgih2rcd13ifvqba0","pricing_plan_id":"cebpf4jnsgd1na2vs0mg"},{"bike_id":"238efe69-5cfe-499d-b47c-e3a5d4524dd2","system_id":"levelo_inurba_marseille","lat":43.27675,"lon":5.38897,"is_reserved":false,"is_disabled":false,"rental_uris":{"android":"levelo://app?vid=238efe69-5cfe-499d-b47c-e3a5d4524dd2","ios":"levelo://app?vid=238efe69-5cfe-499d-b47c-e3a5d4524dd2"},"vehicle_type_id":"4","last_reported":1732532888,"current_range_meters":38400,"station_id":"ce4bhi12rcd13ifvqfo0","pricing_plan_id":"cebpf4jnsgd1na2vs0mg"},{"bike_id":"a63b7e6a-7bf8-4060-b1d7-3c9fa46ac6c8","system_id":"levelo_inurba_marseille","lat":43.27208,"lon":5.39191,"is_reserved":false,"is_disabled":false,"rental_uris":{"android":"levelo://app?vid=a63b7e6a-7bf8-4060-b1d7-3c9fa46ac6c8","ios":"levelo://app?vid=a63b7e6a-7bf8-4060-b1d7-3c9fa46ac6c8"},"vehicle_type_id":"4","last_reported":1732532888,"current_range_meters":8800,"station_id":"ce4bhhp2rcd13ifvqfm0","pricing_plan_id":"cebpf4jnsgd1na2vs0mg"},{"bike_id":"40cfd9d7-e32d-46e7-9583-673a5ca6d2ed","system_id":"levelo_inurba_marseille","lat":43.26683,"lon":5.38264,"is_reserved":false,"is_disabled":false,"rental_uris":{"android":"levelo://app?vid=40cfd9d7-e32d-46e7-9583-673a5ca6d2ed","ios":"levelo://app?vid=40cfd9d7-e32d-46e7-9583-673a5ca6d2ed"},"vehicle_type_id":"4","last_reported":1732532888,"current_range_meters":38800,"station_id":"ce4bhg92rcd13ifvqf90","pricing_plan_id":"cebpf4jnsgd1na2vs0mg"},{"bike_id":"835b00c2-64c0-4cbe-82bb-c78dd70919e3","system_id":"levelo_inurba_marseille","lat":43.27969,"lon":5.40796,"is_reserved":false,"is_disabled":false,"rental_uris":{"android":"levelo://app?vid=835b00c2-64c0-4cbe-82bb-c78dd70919e3","ios":"levelo://app?vid=835b00c2-64c0-4cbe-82bb-c78dd70919e3"},"vehicle_type_id":"4","last_reported":1732532888,"current_range_meters":8000,"station_id":"","pricing_plan_id":"cebpf4jnsgd1na2vs0mg"},{"bike_id":"81e0b104-dd14-40bc-b39b-1700bde5b17b","system_id":"levelo_inurba_marseille","lat":43.3137,"lon":5.38513,"is_reserved":false,"is_disabled":false,"rental_uris":{"android":"levelo://app?vid=81e0b104-dd14-40bc-b39b-1700bde5b17b","ios":"levelo://app?vid=81e0b104-dd14-40bc-b39b-1700bde5b17b"},"vehicle_type_id":"4","last_reported":1732532888,"current_range_meters":8000,"station_id":"ce4bgt92rcd13ifvqcf0","pricing_plan_id":"cebpf4jnsgd1na2vs0mg"},{"bike_id":"b62414df-9873-4111-833f-172e9996f94c","system_id":"levelo_inurba_marseille","lat":43.26678,"lon":5.38266,"is_reserved":false,"is_disabled":false,"rental_uris":{"android":"levelo://app?vid=b62414df-9873-4111-833f-172e9996f94c","ios":"levelo://app?vid=b62414df-9873-4111-833f-172e9996f94c"},"vehicle_type_id":"4","last_reported":1732532888,"current_range_meters":29600,"station_id":"ce4bhg92rcd13ifvqf90","pricing_plan_id":"cebpf4jnsgd1na2vs0mg"},{"bike_id":"cdea59b3-474c-435a-97c9-7a97db92633d","system_id":"levelo_inurba_marseille","lat":43.30806,"lon":5.43526,"is_reserved":false,"is_disabled":false,"rental_uris":{"android":"levelo://app?vid=cdea59b3-474c-435a-97c9-7a97db92633d","ios":"levelo://app?vid=cdea59b3-474c-435a-97c9-7a97db92633d"},"vehicle_type_id":"4","last_reported":1732532888,"current_range_meters":32400,"station_id":"ce4bhph2rcd13ifvqheg","pricing_plan_id":"cebpf4jnsgd1na2vs0mg"},{"bike_id":"ea84055d-01cb-4e5e-9879-add3bc59baf7","system_id":"levelo_inurba_marseille","lat":43.32484,"lon":5.36563,"is_reserved":false,"is_disabled":false,"rental_uris":{"android":"levelo://app?vid=ea84055d-01cb-4e5e-9879-add3bc59baf7","ios":"levelo://app?vid=ea84055d-01cb-4e5e-9879-add3bc59baf7"},"vehicle_type_id":"4","last_reported":1732532888,"current_range_meters":8000,"station_id":"ce4bhs12rcd13ifvqhvg","pricing_plan_id":"cebpf4jnsgd1na2vs0mg"},{"bike_id":"8f2aa4c1-472e-48b8-b9a7-e83545c95d08","system_id":"levelo_inurba_marseille","lat":43.30539,"lon":5.36531,"is_reserved":false,"is_disabled":false,"rental_uris":{"android":"levelo://app?vid=8f2aa4c1-472e-48b8-b9a7-e83545c95d08","ios":"levelo://app?vid=8f2aa4c1-472e-48b8-b9a7-e83545c95d08"},"vehicle_type_id":"4","last_reported":1732532888,"current_range_meters":33600,"station_id":"ce4bgs12rcd13ifvqcag","pricing_plan_id":"cebpf4jnsgd1na2vs0mg"},{"bike_id":"a63f026b-964a-429c-9110-87bd719c2c3a","system_id":"levelo_inurba_marseille","lat":43.29297,"lon":5.37444,"is_reserved":false,"is_disabled":true,"rental_uris":{"android":"levelo://app?vid=a63f026b-964a-429c-9110-87bd719c2c3a","ios":"levelo://app?vid=a63f026b-964a-429c-9110-87bd719c2c3a"},"vehicle_type_id":"4","last_reported":1732532888,"current_range_meters":30400,"station_id":"ce4bgi12rcd13ifvqb70","pricing_plan_id":"cebpf4jnsgd1na2vs0mg"},{"bike_id":"ca8f0402-6749-4ba3-a4af-37a70f840e6c","system_id":"levelo_inurba_marseille","lat":43.29253,"lon":5.40911,"is_reserved":false,"is_disabled":false,"rental_uris":{"android":"levelo://app?vid=ca8f0402-6749-4ba3-a4af-37a70f840e6c","ios":"levelo://app?vid=ca8f0402-6749-4ba3-a4af-37a70f840e6c"},"vehicle_type_id":"4","last_reported":1732532888,"current_range_meters":21600,"station_id":"ce4bh192rcd13ifvqdc0","pricing_plan_id":"cebpf4jnsgd1na2vs0mg"},{"bike_id":"274b7a9d-ce06-40c5-8916-5cc6d59b84e5","system_id":"levelo_inurba_marseille","lat":43.30312,"lon":5.36902,"is_reserved":false,"is_disabled":false,"rental_uris":{"android":"levelo://app?vid=274b7a9d-ce06-40c5-8916-5cc6d59b84e5","ios":"levelo://app?vid=274b7a9d-ce06-40c5-8916-5cc6d59b84e5"},"vehicle_type_id":"4","last_reported":1732532888,"current_range_meters":38800,"station_id":"ce4bgqh2rcd13ifvqc5g","pricing_plan_id":"cebpf4jnsgd1na2vs0mg"},{"bike_id":"a1104dc2-d69c-4a85-9989-8dd15832839a","system_id":"levelo_inurba_marseille","lat":43.2901,"lon":5.3813,"is_reserved":false,"is_disabled":false,"rental_uris":{"android":"levelo://app?vid=a1104dc2-d69c-4a85-9989-8dd15832839a","ios":"levelo://app?vid=a1104dc2-d69c-4a85-9989-8dd15832839a"},"vehicle_type_id":"4","last_reported":1732532888,"current_range_meters":4800,"station_id":"ce4bh4p2rcd13ifvqe1g","pricing_plan_id":"cebpf4jnsgd1na2vs0mg"},{"bike_id":"08117995-990e-4451-96a5-afc9c181642a","system_id":"levelo_inurba_marseille","lat":43.28616,"lon":5.35105,"is_reserved":false,"is_disabled":false,"rental_uris":{"android":"levelo://app?vid=08117995-990e-4451-96a5-afc9c181642a","ios":"levelo://app?vid=08117995-990e-4451-96a5-afc9c181642a"},"vehicle_type_id":"4","last_reported":1732532888,"current_range_meters":23200,"station_id":"ce4bhch2rcd13ifvqeug","pricing_plan_id":"cebpf4jnsgd1na2vs0mg"},{"bike_id":"856e29cb-295f-4f0c-9b6f-98ae7860111f","system_id":"levelo_inurba_marseille","lat":43.29552,"lon":5.42285,"is_reserved":false,"is_disabled":false,"rental_uris":{"android":"levelo://app?vid=856e29cb-295f-4f0c-9b6f-98ae7860111f","ios":"levelo://app?vid=856e29cb-295f-4f0c-9b6f-98ae7860111f"},"vehicle_type_id":"4","last_reported":1732532888,"current_range_meters":17600,"station_id":"ce4bhph2rcd13ifvqhdg","pricing_plan_id":"cebpf4jnsgd1na2vs0mg"},{"bike_id":"be496189-ad73-4815-9cd0-4cd0c0b9b7d9","system_id":"levelo_inurba_marseille","lat":43.29923,"lon":5.37483,"is_reserved":false,"is_disabled":false,"rental_uris":{"android":"levelo://app?vid=be496189-ad73-4815-9cd0-4cd0c0b9b7d9","ios":"levelo://app?vid=be496189-ad73-4815-9cd0-4cd0c0b9b7d9"},"vehicle_type_id":"4","last_reported":1732532888,"current_range_meters":6400,"station_id":"ce4bgjh2rcd13ifvqbg0","pricing_plan_id":"cebpf4jnsgd1na2vs0mg"},{"bike_id":"31d77af9-b2e3-42f4-b9be-40536570a291","system_id":"levelo_inurba_marseille","lat":43.32471,"lon":5.36558,"is_reserved":false,"is_disabled":false,"rental_uris":{"android":"levelo://app?vid=31d77af9-b2e3-42f4-b9be-40536570a291","ios":"levelo://app?vid=31d77af9-b2e3-42f4-b9be-40536570a291"},"vehicle_type_id":"4","last_reported":1732532888,"current_range_meters":36800,"station_id":"ce4bhs12rcd13ifvqhvg","pricing_plan_id":"cebpf4jnsgd1na2vs0mg"},{"bike_id":"d7744fab-ccd5-4a84-add8-376b03b998de","system_id":"levelo_inurba_marseille","lat":43.29729,"lon":5.377,"is_reserved":false,"is_disabled":false,"rental_uris":{"android":"levelo://app?vid=d7744fab-ccd5-4a84-add8-376b03b998de","ios":"levelo://app?vid=d7744fab-ccd5-4a84-add8-376b03b998de"},"vehicle_type_id":"4","last_reported":1732532888,"current_range_meters":37600,"station_id":"ce4bgkh2rcd13ifvqbl0","pricing_plan_id":"cebpf4jnsgd1na2vs0mg"},{"bike_id":"e404727c-4eaa-4368-ab64-e95a9349ae5f","system_id":"levelo_inurba_marseille","lat":43.24179,"lon":5.39734,"is_reserved":false,"is_disabled":false,"rental_uris":{"android":"levelo://app?vid=e404727c-4eaa-4368-ab64-e95a9349ae5f","ios":"levelo://app?vid=e404727c-4eaa-4368-ab64-e95a9349ae5f"},"vehicle_type_id":"4","last_reported":1732532888,"current_range_meters":38000,"station_id":"ce4bhn12rcd13ifvqgpg","pricing_plan_id":"cebpf4jnsgd1na2vs0mg"},{"bike_id":"4cf68192-498e-49a8-b866-19367c604fb3","system_id":"levelo_inurba_marseille","lat":43.29578,"lon":5.39964,"is_reserved":false,"is_disabled":true,"rental_uris":{"android":"levelo://app?vid=4cf68192-498e-49a8-b866-19367c604fb3","ios":"levelo://app?vid=4cf68192-498e-49a8-b866-19367c604fb3"},"vehicle_type_id":"4","last_reported":1732532888,"current_range_meters":30000,"station_id":"ce4bh312rcd13ifvqdj0","pricing_plan_id":"cebpf4jnsgd1na2vs0mg"},{"bike_id":"f374664c-1636-49b7-8bba-3022742724b0","system_id":"levelo_inurba_marseille","lat":43.3122,"lon":5.36859,"is_reserved":false,"is_disabled":false,"rental_uris":{"android":"levelo://app?vid=f374664c-1636-49b7-8bba-3022742724b0","ios":"levelo://app?vid=f374664c-1636-49b7-8bba-3022742724b0"},"vehicle_type_id":"4","last_reported":1732532888,"current_range_meters":33200,"station_id":"ce4bgl92rcd13ifvqbq0","pricing_plan_id":"cebpf4jnsgd1na2vs0mg"},{"bike_id":"254a152d-c50b-4e86-ac1c-23e9c6540d0e","system_id":"levelo_inurba_marseille","lat":43.262543,"lon":5.396903,"is_reserved":false,"is_disabled":false,"rental_uris":{"android":"levelo://app?vid=254a152d-c50b-4e86-ac1c-23e9c6540d0e","ios":"levelo://app?vid=254a152d-c50b-4e86-ac1c-23e9c6540d0e"},"vehicle_type_id":"4","last_reported":1732532888,"current_range_meters":32400,"station_id":"ce4bhlh2rcd13ifvqgig","pricing_plan_id":"cebpf4jnsgd1na2vs0mg"},{"bike_id":"fa5d650d-229f-4bcd-b96b-b57d02dc40bd","system_id":"levelo_inurba_marseille","lat":43.29567,"lon":5.37506,"is_reserved":false,"is_disabled":false,"rental_uris":{"android":"levelo://app?vid=fa5d650d-229f-4bcd-b96b-b57d02dc40bd","ios":"levelo://app?vid=fa5d650d-229f-4bcd-b96b-b57d02dc40bd"},"vehicle_type_id":"4","last_reported":1732532888,"current_range_meters":38800,"station_id":"ce4bgh92rcd13ifvqb50","pricing_plan_id":"cebpf4jnsgd1na2vs0mg"},{"bike_id":"cb3e2ea1-6aaa-4c79-8af8-4aff457edba8","system_id":"levelo_inurba_marseille","lat":43.23147,"lon":5.4372,"is_reserved":false,"is_disabled":false,"rental_uris":{"android":"levelo://app?vid=cb3e2ea1-6aaa-4c79-8af8-4aff457edba8","ios":"levelo://app?vid=cb3e2ea1-6aaa-4c79-8af8-4aff457edba8"},"vehicle_type_id":"4","last_reported":1732532888,"current_range_meters":27600,"station_id":"ce4bhmp2rcd13ifvqgog","pricing_plan_id":"cebpf4jnsgd1na2vs0mg"},{"bike_id":"6a77cde1-ce49-473c-aa05-5c7828e65875","system_id":"levelo_inurba_marseille","lat":43.29806,"lon":5.38079,"is_reserved":false,"is_disabled":true,"rental_uris":{"android":"levelo://app?vid=6a77cde1-ce49-473c-aa05-5c7828e65875","ios":"levelo://app?vid=6a77cde1-ce49-473c-aa05-5c7828e65875"},"vehicle_type_id":"4","last_reported":1732532888,"current_range_meters":38800,"station_id":"ce4bgip2rcd13ifvqbb0","pricing_plan_id":"cebpf4jnsgd1na2vs0mg"},{"bike_id":"54f158e7-1fe0-4c86-b21f-09513cf7a0b8","system_id":"levelo_inurba_marseille","lat":43.25493,"lon":5.3765,"is_reserved":false,"is_disabled":true,"rental_uris":{"android":"levelo://app?vid=54f158e7-1fe0-4c86-b21f-09513cf7a0b8","ios":"levelo://app?vid=54f158e7-1fe0-4c86-b21f-09513cf7a0b8"},"vehicle_type_id":"4","last_reported":1732532888,"current_range_meters":26800,"station_id":"ce4bhh12rcd13ifvqff0","pricing_plan_id":"cebpf4jnsgd1na2vs0mg"},{"bike_id":"ba9ca061-531b-44d9-af62-3edc28860cec","system_id":"levelo_inurba_marseille","lat":43.32542,"lon":5.41442,"is_reserved":false,"is_disabled":true,"rental_uris":{"android":"levelo://app?vid=ba9ca061-531b-44d9-af62-3edc28860cec","ios":"levelo://app?vid=ba9ca061-531b-44d9-af62-3edc28860cec"},"vehicle_type_id":"4","last_reported":1732532888,"current_range_meters":29600,"station_id":"ce4bhq12rcd13ifvqhhg","pricing_plan_id":"cebpf4jnsgd1na2vs0mg"},{"bike_id":"93fe94db-033b-4622-98b4-d49f1d9109a6","system_id":"levelo_inurba_marseille","lat":43.29842,"lon":5.36259,"is_reserved":false,"is_disabled":false,"rental_uris":{"android":"levelo://app?vid=93fe94db-033b-4622-98b4-d49f1d9109a6","ios":"levelo://app?vid=93fe94db-033b-4622-98b4-d49f1d9109a6"},"vehicle_type_id":"4","last_reported":1732532888,"current_range_meters":36400,"station_id":"ce4bgpp2rcd13ifvqc3g","pricing_plan_id":"cebpf4jnsgd1na2vs0mg"},{"bike_id":"2eca0a54-b574-4db5-8398-b952cfe77c8a","system_id":"levelo_inurba_marseille","lat":43.33604,"lon":5.4102,"is_reserved":false,"is_disabled":false,"rental_uris":{"android":"levelo://app?vid=2eca0a54-b574-4db5-8398-b952cfe77c8a","ios":"levelo://app?vid=2eca0a54-b574-4db5-8398-b952cfe77c8a"},"vehicle_type_id":"4","last_reported":1732532888,"current_range_meters":25600,"station_id":"ce4bhqh2rcd13ifvqhmg","pricing_plan_id":"cebpf4jnsgd1na2vs0mg"},{"bike_id":"aa717be1-dcce-416b-90e1-180e376a1e41","system_id":"levelo_inurba_marseille","lat":43.337444,"lon":5.374475,"is_reserved":false,"is_disabled":false,"rental_uris":{"android":"levelo://app?vid=aa717be1-dcce-416b-90e1-180e376a1e41","ios":"levelo://app?vid=aa717be1-dcce-416b-90e1-180e376a1e41"},"vehicle_type_id":"4","last_reported":1732532888,"current_range_meters":38400,"station_id":"","pricing_plan_id":"cebpf4jnsgd1na2vs0mg"},{"bike_id":"010675b9-621e-43ad-8db7-6d8375a2b95b","system_id":"levelo_inurba_marseille","lat":43.30736,"lon":5.36826,"is_reserved":false,"is_disabled":true,"rental_uris":{"android":"levelo://app?vid=010675b9-621e-43ad-8db7-6d8375a2b95b","ios":"levelo://app?vid=010675b9-621e-43ad-8db7-6d8375a2b95b"},"vehicle_type_id":"4","last_reported":1732532888,"current_range_meters":24800,"station_id":"","pricing_plan_id":"cebpf4jnsgd1na2vs0mg"},{"bike_id":"294eeb79-af1b-495a-909f-216801ae6b41","system_id":"levelo_inurba_marseille","lat":43.3375,"lon":5.37441,"is_reserved":false,"is_disabled":false,"rental_uris":{"android":"levelo://app?vid=294eeb79-af1b-495a-909f-216801ae6b41","ios":"levelo://app?vid=294eeb79-af1b-495a-909f-216801ae6b41"},"vehicle_type_id":"4","last_reported":1732532888,"current_range_meters":16000,"station_id":"","pricing_plan_id":"cebpf4jnsgd1na2vs0mg"},{"bike_id":"ea162e17-d5de-46c0-857e-8d5b8657b11f","system_id":"levelo_inurba_marseille","lat":43.30592,"lon":5.3721,"is_reserved":false,"is_disabled":false,"rental_uris":{"android":"levelo://app?vid=ea162e17-d5de-46c0-857e-8d5b8657b11f","ios":"levelo://app?vid=ea162e17-d5de-46c0-857e-8d5b8657b11f"},"vehicle_type_id":"4","last_reported":1732532888,"current_range_meters":38800,"station_id":"ce4bgqh2rcd13ifvqc4g","pricing_plan_id":"cebpf4jnsgd1na2vs0mg"},{"bike_id":"0f89682b-d7e4-4ddb-8b88-1bbf5bb4fa2d","system_id":"levelo_inurba_marseille","lat":43.24074,"lon":5.3776,"is_reserved":false,"is_disabled":false,"rental_uris":{"android":"levelo://app?vid=0f89682b-d7e4-4ddb-8b88-1bbf5bb4fa2d","ios":"levelo://app?vid=0f89682b-d7e4-4ddb-8b88-1bbf5bb4fa2d"},"vehicle_type_id":"4","last_reported":1732532888,"current_range_meters":21600,"station_id":"ce4bhnp2rcd13ifvqgvg","pricing_plan_id":"cebpf4jnsgd1na2vs0mg"},{"bike_id":"c0299046-c95c-4bcd-bc32-eb6d185f1ea9","system_id":"levelo_inurba_marseille","lat":43.2957,"lon":5.37515,"is_reserved":false,"is_disabled":false,"rental_uris":{"android":"levelo://app?vid=c0299046-c95c-4bcd-bc32-eb6d185f1ea9","ios":"levelo://app?vid=c0299046-c95c-4bcd-bc32-eb6d185f1ea9"},"vehicle_type_id":"4","last_reported":1732532888,"current_range_meters":34800,"station_id":"ce4bgh92rcd13ifvqb50","pricing_plan_id":"cebpf4jnsgd1na2vs0mg"},{"bike_id":"3c4f4857-7284-4ad5-90d8-169a8693eb52","system_id":"levelo_inurba_marseille","lat":43.26678,"lon":5.38266,"is_reserved":false,"is_disabled":false,"rental_uris":{"android":"levelo://app?vid=3c4f4857-7284-4ad5-90d8-169a8693eb52","ios":"levelo://app?vid=3c4f4857-7284-4ad5-90d8-169a8693eb52"},"vehicle_type_id":"4","last_reported":1732532888,"current_range_meters":24800,"station_id":"ce4bhg92rcd13ifvqf90","pricing_plan_id":"cebpf4jnsgd1na2vs0mg"},{"bike_id":"ad41734b-a8fa-482b-b392-8cd6d12dc01d","system_id":"levelo_inurba_marseille","lat":43.3019,"lon":5.36593,"is_reserved":false,"is_disabled":true,"rental_uris":{"android":"levelo://app?vid=ad41734b-a8fa-482b-b392-8cd6d12dc01d","ios":"levelo://app?vid=ad41734b-a8fa-482b-b392-8cd6d12dc01d"},"vehicle_type_id":"4","last_reported":1732532888,"current_range_meters":23200,"station_id":"ce4bgrh2rcd13ifvqc8g","pricing_plan_id":"cebpf4jnsgd1na2vs0mg"},{"bike_id":"6d61d50e-a012-4af6-9bd3-5c0fc3db908d","system_id":"levelo_inurba_marseille","lat":43.28974,"lon":5.37832,"is_reserved":false,"is_disabled":false,"rental_uris":{"android":"levelo://app?vid=6d61d50e-a012-4af6-9bd3-5c0fc3db908d","ios":"levelo://app?vid=6d61d50e-a012-4af6-9bd3-5c0fc3db908d"},"vehicle_type_id":"4","last_reported":1732532888,"current_range_meters":38000,"station_id":"ce4bh9p2rcd13ifvqed0","pricing_plan_id":"cebpf4jnsgd1na2vs0mg"},{"bike_id":"777b7fed-d395-4c97-b504-dee7c3479d4f","system_id":"levelo_inurba_marseille","lat":43.29836,"lon":5.3785,"is_reserved":false,"is_disabled":true,"rental_uris":{"android":"levelo://app?vid=777b7fed-d395-4c97-b504-dee7c3479d4f","ios":"levelo://app?vid=777b7fed-d395-4c97-b504-dee7c3479d4f"},"vehicle_type_id":"4","last_reported":1732532888,"current_range_meters":0,"station_id":"","pricing_plan_id":"cebpf4jnsgd1na2vs0mg"},{"bike_id":"4ce677a1-b54a-4273-93b4-58154d5c50e1","system_id":"levelo_inurba_marseille","lat":43.30932,"lon":5.40169,"is_reserved":false,"is_disabled":false,"rental_uris":{"android":"levelo://app?vid=4ce677a1-b54a-4273-93b4-58154d5c50e1","ios":"levelo://app?vid=4ce677a1-b54a-4273-93b4-58154d5c50e1"},"vehicle_type_id":"4","last_reported":1732532888,"current_range_meters":21600,"station_id":"ce4bgvp2rcd13ifvqct0","pricing_plan_id":"cebpf4jnsgd1na2vs0mg"},{"bike_id":"cd78312a-142a-42d0-92e1-dbc654bf8bb4","system_id":"levelo_inurba_marseille","lat":43.24183,"lon":5.39717,"is_reserved":false,"is_disabled":true,"rental_uris":{"android":"levelo://app?vid=cd78312a-142a-42d0-92e1-dbc654bf8bb4","ios":"levelo://app?vid=cd78312a-142a-42d0-92e1-dbc654bf8bb4"},"vehicle_type_id":"4","last_reported":1732532888,"current_range_meters":4800,"station_id":"ce4bhn12rcd13ifvqgpg","pricing_plan_id":"cebpf4jnsgd1na2vs0mg"},{"bike_id":"d922b735-d82b-4e62-aaae-247cfa2ce37a","system_id":"levelo_inurba_marseille","lat":43.25104,"lon":5.40328,"is_reserved":false,"is_disabled":false,"rental_uris":{"android":"levelo://app?vid=d922b735-d82b-4e62-aaae-247cfa2ce37a","ios":"levelo://app?vid=d922b735-d82b-4e62-aaae-247cfa2ce37a"},"vehicle_type_id":"4","last_reported":1732532888,"current_range_meters":16400,"station_id":"ce4bhlh2rcd13ifvqgig","pricing_plan_id":"cebpf4jnsgd1na2vs0mg"},{"bike_id":"935038d0-e307-49e5-ab69-c010784c0474","system_id":"levelo_inurba_marseille","lat":43.25923,"lon":5.40908,"is_reserved":false,"is_disabled":false,"rental_uris":{"android":"levelo://app?vid=935038d0-e307-49e5-ab69-c010784c0474","ios":"levelo://app?vid=935038d0-e307-49e5-ab69-c010784c0474"},"vehicle_type_id":"4","last_reported":1732532888,"current_range_meters":16400,"station_id":"ce4bhm92rcd13ifvqglg","pricing_plan_id":"cebpf4jnsgd1na2vs0mg"},{"bike_id":"43f6da94-5cf1-446e-9b8d-b4c4e86bf027","system_id":"levelo_inurba_marseille","lat":43.26192,"lon":5.37446,"is_reserved":false,"is_disabled":true,"rental_uris":{"android":"levelo://app?vid=43f6da94-5cf1-446e-9b8d-b4c4e86bf027","ios":"levelo://app?vid=43f6da94-5cf1-446e-9b8d-b4c4e86bf027"},"vehicle_type_id":"4","last_reported":1732532888,"current_range_meters":2000,"station_id":"ce4bhgp2rcd13ifvqfc0","pricing_plan_id":"cebpf4jnsgd1na2vs0mg"},{"bike_id":"dd5ab154-647e-4dfa-88f1-0f781c7552f5","system_id":"levelo_inurba_marseille","lat":43.25572,"lon":5.38229,"is_reserved":false,"is_disabled":false,"rental_uris":{"android":"levelo://app?vid=dd5ab154-647e-4dfa-88f1-0f781c7552f5","ios":"levelo://app?vid=dd5ab154-647e-4dfa-88f1-0f781c7552f5"},"vehicle_type_id":"4","last_reported":1732532888,"current_range_meters":22400,"station_id":"ce4bhih2rcd13ifvqfs0","pricing_plan_id":"cebpf4jnsgd1na2vs0mg"},{"bike_id":"14a83065-2c68-475c-99a7-32e0815b9f50","system_id":"levelo_inurba_marseille","lat":43.24679,"lon":5.3815,"is_reserved":false,"is_disabled":true,"rental_uris":{"android":"levelo://app?vid=14a83065-2c68-475c-99a7-32e0815b9f50","ios":"levelo://app?vid=14a83065-2c68-475c-99a7-32e0815b9f50"},"vehicle_type_id":"4","last_reported":1732532888,"current_range_meters":6800,"station_id":"ce4bhih2rcd13ifvqfr0","pricing_plan_id":"cebpf4jnsgd1na2vs0mg"},{"bike_id":"994195f6-b5da-4158-a5b5-8b38baad32b0","system_id":"levelo_inurba_marseille","lat":43.33724,"lon":5.39187,"is_reserved":false,"is_disabled":false,"rental_uris":{"android":"levelo://app?vid=994195f6-b5da-4158-a5b5-8b38baad32b0","ios":"levelo://app?vid=994195f6-b5da-4158-a5b5-8b38baad32b0"},"vehicle_type_id":"4","last_reported":1732532888,"current_range_meters":24000,"station_id":"ce4bhr92rcd13ifvqhsg","pricing_plan_id":"cebpf4jnsgd1na2vs0mg"},{"bike_id":"ae7a6d41-74ba-47bb-ae6b-31aa527ff52c","system_id":"levelo_inurba_marseille","lat":43.30932,"lon":5.40142,"is_reserved":false,"is_disabled":false,"rental_uris":{"android":"levelo://app?vid=ae7a6d41-74ba-47bb-ae6b-31aa527ff52c","ios":"levelo://app?vid=ae7a6d41-74ba-47bb-ae6b-31aa527ff52c"},"vehicle_type_id":"4","last_reported":1732532888,"current_range_meters":28400,"station_id":"ce4bgvp2rcd13ifvqct0","pricing_plan_id":"cebpf4jnsgd1na2vs0mg"},{"bike_id":"36ef9a42-f4d8-45f5-adc2-b51fb9b962d0","system_id":"levelo_inurba_marseille","lat":43.3415,"lon":5.40897,"is_reserved":false,"is_disabled":false,"rental_uris":{"android":"levelo://app?vid=36ef9a42-f4d8-45f5-adc2-b51fb9b962d0","ios":"levelo://app?vid=36ef9a42-f4d8-45f5-adc2-b51fb9b962d0"},"vehicle_type_id":"4","last_reported":1732532888,"current_range_meters":38800,"station_id":"ce4bhqh2rcd13ifvqhlg","pricing_plan_id":"cebpf4jnsgd1na2vs0mg"},{"bike_id":"24fc129a-3a98-4f25-9554-234fc3a2dc8d","system_id":"levelo_inurba_marseille","lat":43.30416,"lon":5.41282,"is_reserved":false,"is_disabled":true,"rental_uris":{"android":"levelo://app?vid=24fc129a-3a98-4f25-9554-234fc3a2dc8d","ios":"levelo://app?vid=24fc129a-3a98-4f25-9554-234fc3a2dc8d"},"vehicle_type_id":"4","last_reported":1732532888,"current_range_meters":25600,"station_id":"ce4bhop2rcd13ifvqh8g","pricing_plan_id":"cebpf4jnsgd1na2vs0mg"},{"bike_id":"f9bb7fe1-5ca1-47b2-944e-eb055f53c14e","system_id":"levelo_inurba_marseille","lat":43.30561,"lon":5.3838,"is_reserved":false,"is_disabled":true,"rental_uris":{"android":"levelo://app?vid=f9bb7fe1-5ca1-47b2-944e-eb055f53c14e","ios":"levelo://app?vid=f9bb7fe1-5ca1-47b2-944e-eb055f53c14e"},"vehicle_type_id":"4","last_reported":1732532888,"current_range_meters":19200,"station_id":"ce4bgg92rcd13ifvqb30","pricing_plan_id":"cebpf4jnsgd1na2vs0mg"},{"bike_id":"ca2b8267-3857-4058-a812-a79df1d4b653","system_id":"levelo_inurba_marseille","lat":43.31266,"lon":5.40166,"is_reserved":false,"is_disabled":false,"rental_uris":{"android":"levelo://app?vid=ca2b8267-3857-4058-a812-a79df1d4b653","ios":"levelo://app?vid=ca2b8267-3857-4058-a812-a79df1d4b653"},"vehicle_type_id":"4","last_reported":1732532888,"current_range_meters":38400,"station_id":"ce4bh092rcd13ifvqd30","pricing_plan_id":"cebpf4jnsgd1na2vs0mg"},{"bike_id":"a641dfd1-61bf-48ef-9bc2-fee9f3a66629","system_id":"levelo_inurba_marseille","lat":43.28,"lon":5.40013,"is_reserved":false,"is_disabled":false,"rental_uris":{"android":"levelo://app?vid=a641dfd1-61bf-48ef-9bc2-fee9f3a66629","ios":"levelo://app?vid=a641dfd1-61bf-48ef-9bc2-fee9f3a66629"},"vehicle_type_id":"4","last_reported":1732532888,"current_range_meters":27200,"station_id":"ce4bho92rcd13ifvqh4g","pricing_plan_id":"cebpf4jnsgd1na2vs0mg"},{"bike_id":"5d9127b2-409a-4e00-b212-9b69c1248067","system_id":"levelo_inurba_marseille","lat":43.26208,"lon":5.37928,"is_reserved":false,"is_disabled":false,"rental_uris":{"android":"levelo://app?vid=5d9127b2-409a-4e00-b212-9b69c1248067","ios":"levelo://app?vid=5d9127b2-409a-4e00-b212-9b69c1248067"},"vehicle_type_id":"4","last_reported":1732532888,"current_range_meters":38400,"station_id":"ce4bhjp2rcd13ifvqg90","pricing_plan_id":"cebpf4jnsgd1na2vs0mg"},{"bike_id":"ab62cdd5-3314-41c0-8cc9-b8644da6c7ff","system_id":"levelo_inurba_marseille","lat":43.25582,"lon":5.38231,"is_reserved":false,"is_disabled":false,"rental_uris":{"android":"levelo://app?vid=ab62cdd5-3314-41c0-8cc9-b8644da6c7ff","ios":"levelo://app?vid=ab62cdd5-3314-41c0-8cc9-b8644da6c7ff"},"vehicle_type_id":"4","last_reported":1732532888,"current_range_meters":24400,"station_id":"ce4bhih2rcd13ifvqfs0","pricing_plan_id":"cebpf4jnsgd1na2vs0mg"},{"bike_id":"3127e641-24de-41d4-a4d3-dad3d243e08e","system_id":"levelo_inurba_marseille","lat":43.28123,"lon":5.37848,"is_reserved":false,"is_disabled":false,"rental_uris":{"android":"levelo://app?vid=3127e641-24de-41d4-a4d3-dad3d243e08e","ios":"levelo://app?vid=3127e641-24de-41d4-a4d3-dad3d243e08e"},"vehicle_type_id":"4","last_reported":1732532888,"current_range_meters":34800,"station_id":"ce4bha12rcd13ifvqee0","pricing_plan_id":"cebpf4jnsgd1na2vs0mg"},{"bike_id":"f8b957eb-ac36-4e56-96cf-7474e1d53753","system_id":"levelo_inurba_marseille","lat":43.24666,"lon":5.38161,"is_reserved":false,"is_disabled":false,"rental_uris":{"android":"levelo://app?vid=f8b957eb-ac36-4e56-96cf-7474e1d53753","ios":"levelo://app?vid=f8b957eb-ac36-4e56-96cf-7474e1d53753"},"vehicle_type_id":"4","last_reported":1732532888,"current_range_meters":10000,"station_id":"ce4bhih2rcd13ifvqfr0","pricing_plan_id":"cebpf4jnsgd1na2vs0mg"},{"bike_id":"62bcad95-d3e2-434c-81f4-127757d19c4c","system_id":"levelo_inurba_marseille","lat":43.2922,"lon":5.39605,"is_reserved":false,"is_disabled":true,"rental_uris":{"android":"levelo://app?vid=62bcad95-d3e2-434c-81f4-127757d19c4c","ios":"levelo://app?vid=62bcad95-d3e2-434c-81f4-127757d19c4c"},"vehicle_type_id":"4","last_reported":1732532888,"current_range_meters":0,"station_id":"","pricing_plan_id":"cebpf4jnsgd1na2vs0mg"},{"bike_id":"faddc5bf-9308-4490-a929-f5be12fd1597","system_id":"levelo_inurba_marseille","lat":43.25585,"lon":5.38216,"is_reserved":false,"is_disabled":false,"rental_uris":{"android":"levelo://app?vid=faddc5bf-9308-4490-a929-f5be12fd1597","ios":"levelo://app?vid=faddc5bf-9308-4490-a929-f5be12fd1597"},"vehicle_type_id":"4","last_reported":1732532888,"current_range_meters":38400,"station_id":"ce4bhih2rcd13ifvqfs0","pricing_plan_id":"cebpf4jnsgd1na2vs0mg"},{"bike_id":"d910d554-caf2-4c49-b5f5-73f5c4f96a0f","system_id":"levelo_inurba_marseille","lat":43.23136,"lon":5.43717,"is_reserved":false,"is_disabled":false,"rental_uris":{"android":"levelo://app?vid=d910d554-caf2-4c49-b5f5-73f5c4f96a0f","ios":"levelo://app?vid=d910d554-caf2-4c49-b5f5-73f5c4f96a0f"},"vehicle_type_id":"4","last_reported":1732532888,"current_range_meters":17200,"station_id":"ce4bhmp2rcd13ifvqgog","pricing_plan_id":"cebpf4jnsgd1na2vs0mg"},{"bike_id":"36296f5c-0176-4be0-97c8-7930cda9c369","system_id":"levelo_inurba_marseille","lat":43.32109,"lon":5.36771,"is_reserved":false,"is_disabled":false,"rental_uris":{"android":"levelo://app?vid=36296f5c-0176-4be0-97c8-7930cda9c369","ios":"levelo://app?vid=36296f5c-0176-4be0-97c8-7930cda9c369"},"vehicle_type_id":"4","last_reported":1732532888,"current_range_meters":27200,"station_id":"ce4bhrh2rcd13ifvqhug","pricing_plan_id":"cebpf4jnsgd1na2vs0mg"},{"bike_id":"3749f547-26de-49f3-8704-9a5a504b68f5","system_id":"levelo_inurba_marseille","lat":43.2558,"lon":5.38231,"is_reserved":false,"is_disabled":false,"rental_uris":{"android":"levelo://app?vid=3749f547-26de-49f3-8704-9a5a504b68f5","ios":"levelo://app?vid=3749f547-26de-49f3-8704-9a5a504b68f5"},"vehicle_type_id":"4","last_reported":1732532888,"current_range_meters":30000,"station_id":"ce4bhih2rcd13ifvqfs0","pricing_plan_id":"cebpf4jnsgd1na2vs0mg"},{"bike_id":"d2a52b58-fabe-4a57-94ba-464e41b85800","system_id":"levelo_inurba_marseille","lat":43.30056,"lon":5.37429,"is_reserved":false,"is_disabled":false,"rental_uris":{"android":"levelo://app?vid=d2a52b58-fabe-4a57-94ba-464e41b85800","ios":"levelo://app?vid=d2a52b58-fabe-4a57-94ba-464e41b85800"},"vehicle_type_id":"4","last_reported":1732532888,"current_range_meters":22000,"station_id":"","pricing_plan_id":"cebpf4jnsgd1na2vs0mg"},{"bike_id":"2511aeb5-6a88-47fa-82bb-ef23431585b2","system_id":"levelo_inurba_marseille","lat":43.24074,"lon":5.37757,"is_reserved":false,"is_disabled":false,"rental_uris":{"android":"levelo://app?vid=2511aeb5-6a88-47fa-82bb-ef23431585b2","ios":"levelo://app?vid=2511aeb5-6a88-47fa-82bb-ef23431585b2"},"vehicle_type_id":"4","last_reported":1732532888,"current_range_meters":22000,"station_id":"ce4bhnp2rcd13ifvqgvg","pricing_plan_id":"cebpf4jnsgd1na2vs0mg"},{"bike_id":"f02eff22-ff08-4d1f-b7f0-09a44506aa72","system_id":"levelo_inurba_marseille","lat":43.29838,"lon":5.36265,"is_reserved":false,"is_disabled":false,"rental_uris":{"android":"levelo://app?vid=f02eff22-ff08-4d1f-b7f0-09a44506aa72","ios":"levelo://app?vid=f02eff22-ff08-4d1f-b7f0-09a44506aa72"},"vehicle_type_id":"4","last_reported":1732532888,"current_range_meters":22000,"station_id":"ce4bgpp2rcd13ifvqc3g","pricing_plan_id":"cebpf4jnsgd1na2vs0mg"},{"bike_id":"1ebc2642-599e-41e5-89df-308a45bbfcfb","system_id":"levelo_inurba_marseille","lat":43.32101,"lon":5.36771,"is_reserved":false,"is_disabled":false,"rental_uris":{"android":"levelo://app?vid=1ebc2642-599e-41e5-89df-308a45bbfcfb","ios":"levelo://app?vid=1ebc2642-599e-41e5-89df-308a45bbfcfb"},"vehicle_type_id":"4","last_reported":1732532888,"current_range_meters":23200,"station_id":"ce4bhrh2rcd13ifvqhug","pricing_plan_id":"cebpf4jnsgd1na2vs0mg"},{"bike_id":"0a33ddb9-aee5-40c3-9f84-960222703a3c","system_id":"levelo_inurba_marseille","lat":43.24645,"lon":5.38886,"is_reserved":false,"is_disabled":false,"rental_uris":{"android":"levelo://app?vid=0a33ddb9-aee5-40c3-9f84-960222703a3c","ios":"levelo://app?vid=0a33ddb9-aee5-40c3-9f84-960222703a3c"},"vehicle_type_id":"4","last_reported":1732532888,"current_range_meters":35200,"station_id":"ce4bhg12rcd13ifvqf60","pricing_plan_id":"cebpf4jnsgd1na2vs0mg"},{"bike_id":"8ac8ae6d-42b3-4068-a992-537653320638","system_id":"levelo_inurba_marseille","lat":43.25933,"lon":5.40912,"is_reserved":false,"is_disabled":false,"rental_uris":{"android":"levelo://app?vid=8ac8ae6d-42b3-4068-a992-537653320638","ios":"levelo://app?vid=8ac8ae6d-42b3-4068-a992-537653320638"},"vehicle_type_id":"4","last_reported":1732532888,"current_range_meters":33200,"station_id":"ce4bhm92rcd13ifvqglg","pricing_plan_id":"cebpf4jnsgd1na2vs0mg"},{"bike_id":"5d7feb9a-064c-4ad8-b84a-eddbfa1261c4","system_id":"levelo_inurba_marseille","lat":43.25118,"lon":5.40317,"is_reserved":false,"is_disabled":false,"rental_uris":{"android":"levelo://app?vid=5d7feb9a-064c-4ad8-b84a-eddbfa1261c4","ios":"levelo://app?vid=5d7feb9a-064c-4ad8-b84a-eddbfa1261c4"},"vehicle_type_id":"4","last_reported":1732532888,"current_range_meters":31200,"station_id":"ce4bhlh2rcd13ifvqgig","pricing_plan_id":"cebpf4jnsgd1na2vs0mg"},{"bike_id":"a918e547-6f82-4e25-bfd2-d24f191d92a1","system_id":"levelo_inurba_marseille","lat":43.24082,"lon":5.37754,"is_reserved":false,"is_disabled":false,"rental_uris":{"android":"levelo://app?vid=a918e547-6f82-4e25-bfd2-d24f191d92a1","ios":"levelo://app?vid=a918e547-6f82-4e25-bfd2-d24f191d92a1"},"vehicle_type_id":"4","last_reported":1732532888,"current_range_meters":28400,"station_id":"ce4bhnp2rcd13ifvqgvg","pricing_plan_id":"cebpf4jnsgd1na2vs0mg"},{"bike_id":"6454e564-4e89-4d66-9bef-1fddf4911052","system_id":"levelo_inurba_marseille","lat":43.30535,"lon":5.36529,"is_reserved":false,"is_disabled":false,"rental_uris":{"android":"levelo://app?vid=6454e564-4e89-4d66-9bef-1fddf4911052","ios":"levelo://app?vid=6454e564-4e89-4d66-9bef-1fddf4911052"},"vehicle_type_id":"4","last_reported":1732532888,"current_range_meters":8400,"station_id":"ce4bgs12rcd13ifvqcag","pricing_plan_id":"cebpf4jnsgd1na2vs0mg"},{"bike_id":"565c3c82-4a2f-4a82-ad33-c6f3e4ff7942","system_id":"levelo_inurba_marseille","lat":43.3056,"lon":5.36528,"is_reserved":false,"is_disabled":false,"rental_uris":{"android":"levelo://app?vid=565c3c82-4a2f-4a82-ad33-c6f3e4ff7942","ios":"levelo://app?vid=565c3c82-4a2f-4a82-ad33-c6f3e4ff7942"},"vehicle_type_id":"4","last_reported":1732532888,"current_range_meters":38800,"station_id":"ce4bgs12rcd13ifvqcag","pricing_plan_id":"cebpf4jnsgd1na2vs0mg"},{"bike_id":"f99babce-6639-42c7-8052-be85bad7424e","system_id":"levelo_inurba_marseille","lat":43.24085,"lon":5.37739,"is_reserved":false,"is_disabled":false,"rental_uris":{"android":"levelo://app?vid=f99babce-6639-42c7-8052-be85bad7424e","ios":"levelo://app?vid=f99babce-6639-42c7-8052-be85bad7424e"},"vehicle_type_id":"4","last_reported":1732532888,"current_range_meters":32000,"station_id":"ce4bhnp2rcd13ifvqgvg","pricing_plan_id":"cebpf4jnsgd1na2vs0mg"},{"bike_id":"beb50664-6ae4-435f-9193-1424c288823e","system_id":"levelo_inurba_marseille","lat":43.3139,"lon":5.36685,"is_reserved":false,"is_disabled":false,"rental_uris":{"android":"levelo://app?vid=beb50664-6ae4-435f-9193-1424c288823e","ios":"levelo://app?vid=beb50664-6ae4-435f-9193-1424c288823e"},"vehicle_type_id":"4","last_reported":1732532888,"current_range_meters":30400,"station_id":"ce4bgr92rcd13ifvqc6g","pricing_plan_id":"cebpf4jnsgd1na2vs0mg"},{"bike_id":"1068446a-17d9-4a79-a197-4af07ad3cd9a","system_id":"levelo_inurba_marseille","lat":43.28928,"lon":5.38393,"is_reserved":false,"is_disabled":false,"rental_uris":{"android":"levelo://app?vid=1068446a-17d9-4a79-a197-4af07ad3cd9a","ios":"levelo://app?vid=1068446a-17d9-4a79-a197-4af07ad3cd9a"},"vehicle_type_id":"4","last_reported":1732532888,"current_range_meters":14400,"station_id":"ce4bh612rcd13ifvqe6g","pricing_plan_id":"cebpf4jnsgd1na2vs0mg"},{"bike_id":"17ba6615-9f08-440e-93e9-f8f4f3600fcd","system_id":"levelo_inurba_marseille","lat":43.30536,"lon":5.36524,"is_reserved":false,"is_disabled":false,"rental_uris":{"android":"levelo://app?vid=17ba6615-9f08-440e-93e9-f8f4f3600fcd","ios":"levelo://app?vid=17ba6615-9f08-440e-93e9-f8f4f3600fcd"},"vehicle_type_id":"4","last_reported":1732532888,"current_range_meters":38800,"station_id":"ce4bgs12rcd13ifvqcag","pricing_plan_id":"cebpf4jnsgd1na2vs0mg"},{"bike_id":"cbc2167d-639d-4b33-b914-3ad6f36f2868","system_id":"levelo_inurba_marseille","lat":43.22923,"lon":5.35375,"is_reserved":false,"is_disabled":false,"rental_uris":{"android":"levelo://app?vid=cbc2167d-639d-4b33-b914-3ad6f36f2868","ios":"levelo://app?vid=cbc2167d-639d-4b33-b914-3ad6f36f2868"},"vehicle_type_id":"4","last_reported":1732532888,"current_range_meters":30400,"station_id":"cpo3532slgdg3j2ikp40","pricing_plan_id":"cebpf4jnsgd1na2vs0mg"},{"bike_id":"3e879c32-994d-42ce-927d-f18d298ca1ef","system_id":"levelo_inurba_marseille","lat":43.28278,"lon":5.35085,"is_reserved":false,"is_disabled":false,"rental_uris":{"android":"levelo://app?vid=3e879c32-994d-42ce-927d-f18d298ca1ef","ios":"levelo://app?vid=3e879c32-994d-42ce-927d-f18d298ca1ef"},"vehicle_type_id":"4","last_reported":1732532888,"current_range_meters":38800,"station_id":"ce4bhbp2rcd13ifvqerg","pricing_plan_id":"cebpf4jnsgd1na2vs0mg"},{"bike_id":"42ebe280-e795-413a-92ed-050d9a45dd8e","system_id":"levelo_inurba_marseille","lat":43.24079,"lon":5.37748,"is_reserved":false,"is_disabled":false,"rental_uris":{"android":"levelo://app?vid=42ebe280-e795-413a-92ed-050d9a45dd8e","ios":"levelo://app?vid=42ebe280-e795-413a-92ed-050d9a45dd8e"},"vehicle_type_id":"4","last_reported":1732532888,"current_range_meters":38800,"station_id":"ce4bhnp2rcd13ifvqgvg","pricing_plan_id":"cebpf4jnsgd1na2vs0mg"},{"bike_id":"8ff6927a-74d0-4610-b648-3cc754f0f233","system_id":"levelo_inurba_marseille","lat":43.2802,"lon":5.42438,"is_reserved":false,"is_disabled":false,"rental_uris":{"android":"levelo://app?vid=8ff6927a-74d0-4610-b648-3cc754f0f233","ios":"levelo://app?vid=8ff6927a-74d0-4610-b648-3cc754f0f233"},"vehicle_type_id":"4","last_reported":1732532888,"current_range_meters":23200,"station_id":"","pricing_plan_id":"cebpf4jnsgd1na2vs0mg"},{"bike_id":"1a5dfa7a-1d4a-4735-b35d-631116c77557","system_id":"levelo_inurba_marseille","lat":43.31719,"lon":5.42401,"is_reserved":false,"is_disabled":false,"rental_uris":{"android":"levelo://app?vid=1a5dfa7a-1d4a-4735-b35d-631116c77557","ios":"levelo://app?vid=1a5dfa7a-1d4a-4735-b35d-631116c77557"},"vehicle_type_id":"4","last_reported":1732532888,"current_range_meters":39200,"station_id":"ce4bhp92rcd13ifvqhbg","pricing_plan_id":"cebpf4jnsgd1na2vs0mg"},{"bike_id":"635f2088-37d7-4c7e-b140-3292398be605","system_id":"levelo_inurba_marseille","lat":43.24806,"lon":5.37453,"is_reserved":false,"is_disabled":false,"rental_uris":{"android":"levelo://app?vid=635f2088-37d7-4c7e-b140-3292398be605","ios":"levelo://app?vid=635f2088-37d7-4c7e-b140-3292398be605"},"vehicle_type_id":"4","last_reported":1732532888,"current_range_meters":30000,"station_id":"ce4bhgh2rcd13ifvqfb0","pricing_plan_id":"cebpf4jnsgd1na2vs0mg"},{"bike_id":"64411bfc-d714-4926-a402-1e5a305239af","system_id":"levelo_inurba_marseille","lat":43.31693,"lon":5.40461,"is_reserved":false,"is_disabled":false,"rental_uris":{"android":"levelo://app?vid=64411bfc-d714-4926-a402-1e5a305239af","ios":"levelo://app?vid=64411bfc-d714-4926-a402-1e5a305239af"},"vehicle_type_id":"4","last_reported":1732532888,"current_range_meters":38800,"station_id":"ce4bh012rcd13ifvqd00","pricing_plan_id":"cebpf4jnsgd1na2vs0mg"},{"bike_id":"d46b17b6-87ca-401e-9ef9-984f685c1c1c","system_id":"levelo_inurba_marseille","lat":43.337444,"lon":5.374475,"is_reserved":false,"is_disabled":true,"rental_uris":{"android":"levelo://app?vid=d46b17b6-87ca-401e-9ef9-984f685c1c1c","ios":"levelo://app?vid=d46b17b6-87ca-401e-9ef9-984f685c1c1c"},"vehicle_type_id":"4","last_reported":1732532888,"current_range_meters":36000,"station_id":"","pricing_plan_id":"cebpf4jnsgd1na2vs0mg"},{"bike_id":"c409a407-764f-4b9f-97ad-ce44f4e92767","system_id":"levelo_inurba_marseille","lat":43.29571,"lon":5.37512,"is_reserved":false,"is_disabled":false,"rental_uris":{"android":"levelo://app?vid=c409a407-764f-4b9f-97ad-ce44f4e92767","ios":"levelo://app?vid=c409a407-764f-4b9f-97ad-ce44f4e92767"},"vehicle_type_id":"4","last_reported":1732532888,"current_range_meters":36800,"station_id":"ce4bgh92rcd13ifvqb50","pricing_plan_id":"cebpf4jnsgd1na2vs0mg"},{"bike_id":"20ba3e55-9bab-4ccf-9497-ab7699c90419","system_id":"levelo_inurba_marseille","lat":43.2594,"lon":5.40895,"is_reserved":false,"is_disabled":false,"rental_uris":{"android":"levelo://app?vid=20ba3e55-9bab-4ccf-9497-ab7699c90419","ios":"levelo://app?vid=20ba3e55-9bab-4ccf-9497-ab7699c90419"},"vehicle_type_id":"4","last_reported":1732532888,"current_range_meters":37600,"station_id":"ce4bhm92rcd13ifvqglg","pricing_plan_id":"cebpf4jnsgd1na2vs0mg"},{"bike_id":"9c3d9878-c558-47ba-93bd-054214683640","system_id":"levelo_inurba_marseille","lat":43.30531,"lon":5.38419,"is_reserved":false,"is_disabled":false,"rental_uris":{"android":"levelo://app?vid=9c3d9878-c558-47ba-93bd-054214683640","ios":"levelo://app?vid=9c3d9878-c558-47ba-93bd-054214683640"},"vehicle_type_id":"4","last_reported":1732532888,"current_range_meters":35600,"station_id":"ce4bgg92rcd13ifvqb30","pricing_plan_id":"cebpf4jnsgd1na2vs0mg"},{"bike_id":"9328bf07-69e7-4ddc-b711-0669ff412e1c","system_id":"levelo_inurba_marseille","lat":43.29281,"lon":5.40126,"is_reserved":false,"is_disabled":true,"rental_uris":{"android":"levelo://app?vid=9328bf07-69e7-4ddc-b711-0669ff412e1c","ios":"levelo://app?vid=9328bf07-69e7-4ddc-b711-0669ff412e1c"},"vehicle_type_id":"4","last_reported":1732532888,"current_range_meters":11200,"station_id":"ce4bh312rcd13ifvqdk0","pricing_plan_id":"cebpf4jnsgd1na2vs0mg"},{"bike_id":"ed00ff1c-a428-4ce5-a455-260378e65da7","system_id":"levelo_inurba_marseille","lat":43.28802,"lon":5.40014,"is_reserved":false,"is_disabled":true,"rental_uris":{"android":"levelo://app?vid=ed00ff1c-a428-4ce5-a455-260378e65da7","ios":"levelo://app?vid=ed00ff1c-a428-4ce5-a455-260378e65da7"},"vehicle_type_id":"4","last_reported":1732532888,"current_range_meters":400,"station_id":"","pricing_plan_id":"cebpf4jnsgd1na2vs0mg"},{"bike_id":"5a4d3b04-1c84-4ddc-b44a-35fe4ee6a3a6","system_id":"levelo_inurba_marseille","lat":43.31218,"lon":5.36866,"is_reserved":false,"is_disabled":false,"rental_uris":{"android":"levelo://app?vid=5a4d3b04-1c84-4ddc-b44a-35fe4ee6a3a6","ios":"levelo://app?vid=5a4d3b04-1c84-4ddc-b44a-35fe4ee6a3a6"},"vehicle_type_id":"4","last_reported":1732532888,"current_range_meters":28000,"station_id":"ce4bgl92rcd13ifvqbq0","pricing_plan_id":"cebpf4jnsgd1na2vs0mg"},{"bike_id":"858b65e1-94fc-4151-a71e-8b168cb19dcb","system_id":"levelo_inurba_marseille","lat":43.32249,"lon":5.39241,"is_reserved":false,"is_disabled":true,"rental_uris":{"android":"levelo://app?vid=858b65e1-94fc-4151-a71e-8b168cb19dcb","ios":"levelo://app?vid=858b65e1-94fc-4151-a71e-8b168cb19dcb"},"vehicle_type_id":"4","last_reported":1732532888,"current_range_meters":2800,"station_id":"","pricing_plan_id":"cebpf4jnsgd1na2vs0mg"},{"bike_id":"8aad0ecd-9322-4289-bc63-a2ad943e86b8","system_id":"levelo_inurba_marseille","lat":43.29521,"lon":5.39401,"is_reserved":false,"is_disabled":true,"rental_uris":{"android":"levelo://app?vid=8aad0ecd-9322-4289-bc63-a2ad943e86b8","ios":"levelo://app?vid=8aad0ecd-9322-4289-bc63-a2ad943e86b8"},"vehicle_type_id":"4","last_reported":1732532888,"current_range_meters":1600,"station_id":"ce4bh292rcd13ifvqdf0","pricing_plan_id":"cebpf4jnsgd1na2vs0mg"},{"bike_id":"d30bfaac-cfb5-479c-a3ec-feb800aed1c6","system_id":"levelo_inurba_marseille","lat":43.337444,"lon":5.374475,"is_reserved":false,"is_disabled":false,"rental_uris":{"android":"levelo://app?vid=d30bfaac-cfb5-479c-a3ec-feb800aed1c6","ios":"levelo://app?vid=d30bfaac-cfb5-479c-a3ec-feb800aed1c6"},"vehicle_type_id":"4","last_reported":1732532888,"current_range_meters":28400,"station_id":"ce4bhm12rcd13ifvqgkg","pricing_plan_id":"cebpf4jnsgd1na2vs0mg"},{"bike_id":"c19daa05-850d-4320-a7a9-0c3452315bd1","system_id":"levelo_inurba_marseille","lat":43.30514,"lon":5.36493,"is_reserved":false,"is_disabled":false,"rental_uris":{"android":"levelo://app?vid=c19daa05-850d-4320-a7a9-0c3452315bd1","ios":"levelo://app?vid=c19daa05-850d-4320-a7a9-0c3452315bd1"},"vehicle_type_id":"4","last_reported":1732532888,"current_range_meters":33600,"station_id":"ce4bgs12rcd13ifvqcag","pricing_plan_id":"cebpf4jnsgd1na2vs0mg"},{"bike_id":"989dd828-537a-486d-ba56-1359ee1195bf","system_id":"levelo_inurba_marseille","lat":43.29573,"lon":5.37518,"is_reserved":false,"is_disabled":false,"rental_uris":{"android":"levelo://app?vid=989dd828-537a-486d-ba56-1359ee1195bf","ios":"levelo://app?vid=989dd828-537a-486d-ba56-1359ee1195bf"},"vehicle_type_id":"4","last_reported":1732532888,"current_range_meters":11600,"station_id":"ce4bgh92rcd13ifvqb50","pricing_plan_id":"cebpf4jnsgd1na2vs0mg"},{"bike_id":"405a0a7d-132f-4b39-9712-d74bbc884464","system_id":"levelo_inurba_marseille","lat":43.29565,"lon":5.37507,"is_reserved":false,"is_disabled":false,"rental_uris":{"android":"levelo://app?vid=405a0a7d-132f-4b39-9712-d74bbc884464","ios":"levelo://app?vid=405a0a7d-132f-4b39-9712-d74bbc884464"},"vehicle_type_id":"4","last_reported":1732532888,"current_range_meters":36800,"station_id":"ce4bgh92rcd13ifvqb50","pricing_plan_id":"cebpf4jnsgd1na2vs0mg"},{"bike_id":"bdcd807d-101c-4909-b854-901665fa1cfa","system_id":"levelo_inurba_marseille","lat":43.31359,"lon":5.38503,"is_reserved":false,"is_disabled":true,"rental_uris":{"android":"levelo://app?vid=bdcd807d-101c-4909-b854-901665fa1cfa","ios":"levelo://app?vid=bdcd807d-101c-4909-b854-901665fa1cfa"},"vehicle_type_id":"4","last_reported":1732532888,"current_range_meters":3200,"station_id":"ce4bgt92rcd13ifvqcf0","pricing_plan_id":"cebpf4jnsgd1na2vs0mg"},{"bike_id":"18020f0e-821d-489c-b686-8e09d7a63631","system_id":"levelo_inurba_marseille","lat":43.33604,"lon":5.41027,"is_reserved":false,"is_disabled":false,"rental_uris":{"android":"levelo://app?vid=18020f0e-821d-489c-b686-8e09d7a63631","ios":"levelo://app?vid=18020f0e-821d-489c-b686-8e09d7a63631"},"vehicle_type_id":"4","last_reported":1732532888,"current_range_meters":7200,"station_id":"ce4bhqh2rcd13ifvqhmg","pricing_plan_id":"cebpf4jnsgd1na2vs0mg"},{"bike_id":"9fb81013-cc11-4142-ad9f-1678dfe85da3","system_id":"levelo_inurba_marseille","lat":43.29271,"lon":5.38441,"is_reserved":false,"is_disabled":false,"rental_uris":{"android":"levelo://app?vid=9fb81013-cc11-4142-ad9f-1678dfe85da3","ios":"levelo://app?vid=9fb81013-cc11-4142-ad9f-1678dfe85da3"},"vehicle_type_id":"4","last_reported":1732532888,"current_range_meters":19200,"station_id":"ce4bh692rcd13ifvqea0","pricing_plan_id":"cebpf4jnsgd1na2vs0mg"},{"bike_id":"a803a68a-6065-46f6-affb-18ac184accd2","system_id":"levelo_inurba_marseille","lat":43.25504,"lon":5.37651,"is_reserved":false,"is_disabled":true,"rental_uris":{"android":"levelo://app?vid=a803a68a-6065-46f6-affb-18ac184accd2","ios":"levelo://app?vid=a803a68a-6065-46f6-affb-18ac184accd2"},"vehicle_type_id":"4","last_reported":1732532888,"current_range_meters":38800,"station_id":"ce4bhh12rcd13ifvqff0","pricing_plan_id":"cebpf4jnsgd1na2vs0mg"},{"bike_id":"1e1f8462-5ebf-4f42-a352-fa67b0650ef1","system_id":"levelo_inurba_marseille","lat":43.30152,"lon":5.38096,"is_reserved":false,"is_disabled":false,"rental_uris":{"android":"levelo://app?vid=1e1f8462-5ebf-4f42-a352-fa67b0650ef1","ios":"levelo://app?vid=1e1f8462-5ebf-4f42-a352-fa67b0650ef1"},"vehicle_type_id":"4","last_reported":1732532888,"current_range_meters":37600,"station_id":"ce4bgjp2rcd13ifvqbh0","pricing_plan_id":"cebpf4jnsgd1na2vs0mg"},{"bike_id":"552ae1f9-34eb-4d70-a19b-3616d3661778","system_id":"levelo_inurba_marseille","lat":43.33716,"lon":5.39174,"is_reserved":false,"is_disabled":false,"rental_uris":{"android":"levelo://app?vid=552ae1f9-34eb-4d70-a19b-3616d3661778","ios":"levelo://app?vid=552ae1f9-34eb-4d70-a19b-3616d3661778"},"vehicle_type_id":"4","last_reported":1732532888,"current_range_meters":10000,"station_id":"ce4bhr92rcd13ifvqhsg","pricing_plan_id":"cebpf4jnsgd1na2vs0mg"},{"bike_id":"3d7a1c28-a447-4ea7-9a6e-59953f365b38","system_id":"levelo_inurba_marseille","lat":43.29624,"lon":5.37171,"is_reserved":false,"is_disabled":false,"rental_uris":{"android":"levelo://app?vid=3d7a1c28-a447-4ea7-9a6e-59953f365b38","ios":"levelo://app?vid=3d7a1c28-a447-4ea7-9a6e-59953f365b38"},"vehicle_type_id":"4","last_reported":1732532888,"current_range_meters":31200,"station_id":"ce4bgnh2rcd13ifvqc0g","pricing_plan_id":"cebpf4jnsgd1na2vs0mg"},{"bike_id":"f7f3756c-1ec7-4782-9c87-6273f87b6774","system_id":"levelo_inurba_marseille","lat":43.337444,"lon":5.374475,"is_reserved":false,"is_disabled":true,"rental_uris":{"android":"levelo://app?vid=f7f3756c-1ec7-4782-9c87-6273f87b6774","ios":"levelo://app?vid=f7f3756c-1ec7-4782-9c87-6273f87b6774"},"vehicle_type_id":"4","last_reported":1732532888,"current_range_meters":24400,"station_id":"","pricing_plan_id":"cebpf4jnsgd1na2vs0mg"},{"bike_id":"8a04a2dc-67e0-464e-baf9-2319803cccfb","system_id":"levelo_inurba_marseille","lat":43.26681,"lon":5.38261,"is_reserved":false,"is_disabled":false,"rental_uris":{"android":"levelo://app?vid=8a04a2dc-67e0-464e-baf9-2319803cccfb","ios":"levelo://app?vid=8a04a2dc-67e0-464e-baf9-2319803cccfb"},"vehicle_type_id":"4","last_reported":1732532888,"current_range_meters":22000,"station_id":"ce4bhg92rcd13ifvqf90","pricing_plan_id":"cebpf4jnsgd1na2vs0mg"},{"bike_id":"25a2b490-97af-47b5-a929-7a7a9e93428d","system_id":"levelo_inurba_marseille","lat":43.30586,"lon":5.39353,"is_reserved":false,"is_disabled":true,"rental_uris":{"android":"levelo://app?vid=25a2b490-97af-47b5-a929-7a7a9e93428d","ios":"levelo://app?vid=25a2b490-97af-47b5-a929-7a7a9e93428d"},"vehicle_type_id":"4","last_reported":1732532888,"current_range_meters":8000,"station_id":"ce4bh0p2rcd13ifvqd80","pricing_plan_id":"cebpf4jnsgd1na2vs0mg"},{"bike_id":"182e52cc-26cd-4c43-8752-1ae1f63487e4","system_id":"levelo_inurba_marseille","lat":43.29006,"lon":5.35611,"is_reserved":false,"is_disabled":false,"rental_uris":{"android":"levelo://app?vid=182e52cc-26cd-4c43-8752-1ae1f63487e4","ios":"levelo://app?vid=182e52cc-26cd-4c43-8752-1ae1f63487e4"},"vehicle_type_id":"4","last_reported":1732532888,"current_range_meters":37600,"station_id":"ce4bhb92rcd13ifvqen0","pricing_plan_id":"cebpf4jnsgd1na2vs0mg"},{"bike_id":"b7b61d62-d3cf-45c0-ae9e-f05215122577","system_id":"levelo_inurba_marseille","lat":43.30922,"lon":5.40139,"is_reserved":false,"is_disabled":true,"rental_uris":{"android":"levelo://app?vid=b7b61d62-d3cf-45c0-ae9e-f05215122577","ios":"levelo://app?vid=b7b61d62-d3cf-45c0-ae9e-f05215122577"},"vehicle_type_id":"4","last_reported":1732532888,"current_range_meters":0,"station_id":"","pricing_plan_id":"cebpf4jnsgd1na2vs0mg"},{"bike_id":"92aaf2ae-6395-4985-bda4-652f2001ddbe","system_id":"levelo_inurba_marseille","lat":43.27564,"lon":5.3841,"is_reserved":false,"is_disabled":false,"rental_uris":{"android":"levelo://app?vid=92aaf2ae-6395-4985-bda4-652f2001ddbe","ios":"levelo://app?vid=92aaf2ae-6395-4985-bda4-652f2001ddbe"},"vehicle_type_id":"4","last_reported":1732532888,"current_range_meters":38800,"station_id":"ce4bhh92rcd13ifvqfi0","pricing_plan_id":"cebpf4jnsgd1na2vs0mg"},{"bike_id":"7f89b812-16cb-4135-bc5f-efa2b244ec26","system_id":"levelo_inurba_marseille","lat":43.26556,"lon":5.37289,"is_reserved":false,"is_disabled":true,"rental_uris":{"android":"levelo://app?vid=7f89b812-16cb-4135-bc5f-efa2b244ec26","ios":"levelo://app?vid=7f89b812-16cb-4135-bc5f-efa2b244ec26"},"vehicle_type_id":"4","last_reported":1732532888,"current_range_meters":36800,"station_id":"ce4bhg12rcd13ifvqf70","pricing_plan_id":"cebpf4jnsgd1na2vs0mg"},{"bike_id":"e2f0ef73-8018-4db5-80ea-af7dd90396dd","system_id":"levelo_inurba_marseille","lat":43.28151,"lon":5.42641,"is_reserved":false,"is_disabled":false,"rental_uris":{"android":"levelo://app?vid=e2f0ef73-8018-4db5-80ea-af7dd90396dd","ios":"levelo://app?vid=e2f0ef73-8018-4db5-80ea-af7dd90396dd"},"vehicle_type_id":"4","last_reported":1732532888,"current_range_meters":18800,"station_id":"ce4bhnh2rcd13ifvqgug","pricing_plan_id":"cebpf4jnsgd1na2vs0mg"},{"bike_id":"86ec5835-1e76-4455-9969-54b44bba3755","system_id":"levelo_inurba_marseille","lat":43.32476,"lon":5.36551,"is_reserved":false,"is_disabled":false,"rental_uris":{"android":"levelo://app?vid=86ec5835-1e76-4455-9969-54b44bba3755","ios":"levelo://app?vid=86ec5835-1e76-4455-9969-54b44bba3755"},"vehicle_type_id":"4","last_reported":1732532888,"current_range_meters":39200,"station_id":"ce4bhs12rcd13ifvqhvg","pricing_plan_id":"cebpf4jnsgd1na2vs0mg"},{"bike_id":"0ed83b47-52ec-43b9-b2f6-22975bee1154","system_id":"levelo_inurba_marseille","lat":43.27575,"lon":5.38419,"is_reserved":false,"is_disabled":false,"rental_uris":{"android":"levelo://app?vid=0ed83b47-52ec-43b9-b2f6-22975bee1154","ios":"levelo://app?vid=0ed83b47-52ec-43b9-b2f6-22975bee1154"},"vehicle_type_id":"4","last_reported":1732532888,"current_range_meters":27600,"station_id":"ce4bhh92rcd13ifvqfi0","pricing_plan_id":"cebpf4jnsgd1na2vs0mg"},{"bike_id":"63e5c75a-30c8-4be5-8ec8-448fdf89dbb8","system_id":"levelo_inurba_marseille","lat":43.23068,"lon":5.3549,"is_reserved":false,"is_disabled":false,"rental_uris":{"android":"levelo://app?vid=63e5c75a-30c8-4be5-8ec8-448fdf89dbb8","ios":"levelo://app?vid=63e5c75a-30c8-4be5-8ec8-448fdf89dbb8"},"vehicle_type_id":"4","last_reported":1732532888,"current_range_meters":36800,"station_id":"cpo3342slgdg3j2ifvpg","pricing_plan_id":"cebpf4jnsgd1na2vs0mg"},{"bike_id":"1edcc6aa-437d-45a4-9ad0-15bd1c92a1f4","system_id":"levelo_inurba_marseille","lat":43.30306,"lon":5.36913,"is_reserved":false,"is_disabled":false,"rental_uris":{"android":"levelo://app?vid=1edcc6aa-437d-45a4-9ad0-15bd1c92a1f4","ios":"levelo://app?vid=1edcc6aa-437d-45a4-9ad0-15bd1c92a1f4"},"vehicle_type_id":"4","last_reported":1732532888,"current_range_meters":35600,"station_id":"ce4bgqh2rcd13ifvqc5g","pricing_plan_id":"cebpf4jnsgd1na2vs0mg"},{"bike_id":"1e193d09-2cb0-4798-8e19-b0516f3ebb8e","system_id":"levelo_inurba_marseille","lat":43.28165,"lon":5.42625,"is_reserved":false,"is_disabled":false,"rental_uris":{"android":"levelo://app?vid=1e193d09-2cb0-4798-8e19-b0516f3ebb8e","ios":"levelo://app?vid=1e193d09-2cb0-4798-8e19-b0516f3ebb8e"},"vehicle_type_id":"4","last_reported":1732532888,"current_range_meters":12000,"station_id":"ce4bhnh2rcd13ifvqgug","pricing_plan_id":"cebpf4jnsgd1na2vs0mg"},{"bike_id":"6c052b4e-53c9-4a73-8562-1cd27721f1f4","system_id":"levelo_inurba_marseille","lat":43.27065,"lon":5.42271,"is_reserved":false,"is_disabled":false,"rental_uris":{"android":"levelo://app?vid=6c052b4e-53c9-4a73-8562-1cd27721f1f4","ios":"levelo://app?vid=6c052b4e-53c9-4a73-8562-1cd27721f1f4"},"vehicle_type_id":"4","last_reported":1732532888,"current_range_meters":14000,"station_id":"ce4bhk92rcd13ifvqgb0","pricing_plan_id":"cebpf4jnsgd1na2vs0mg"},{"bike_id":"0f22f840-4bd2-413b-a326-5e9bb8c6febb","system_id":"levelo_inurba_marseille","lat":43.28152,"lon":5.42645,"is_reserved":false,"is_disabled":false,"rental_uris":{"android":"levelo://app?vid=0f22f840-4bd2-413b-a326-5e9bb8c6febb","ios":"levelo://app?vid=0f22f840-4bd2-413b-a326-5e9bb8c6febb"},"vehicle_type_id":"4","last_reported":1732532888,"current_range_meters":38800,"station_id":"ce4bhnh2rcd13ifvqgug","pricing_plan_id":"cebpf4jnsgd1na2vs0mg"},{"bike_id":"6a30d627-309b-4ab9-ab1e-41d25a38cdaa","system_id":"levelo_inurba_marseille","lat":43.32552,"lon":5.41431,"is_reserved":false,"is_disabled":true,"rental_uris":{"android":"levelo://app?vid=6a30d627-309b-4ab9-ab1e-41d25a38cdaa","ios":"levelo://app?vid=6a30d627-309b-4ab9-ab1e-41d25a38cdaa"},"vehicle_type_id":"4","last_reported":1732532888,"current_range_meters":36000,"station_id":"ce4bhq12rcd13ifvqhhg","pricing_plan_id":"cebpf4jnsgd1na2vs0mg"},{"bike_id":"319287df-687a-4519-8559-afdae3b3272f","system_id":"levelo_inurba_marseille","lat":43.29785,"lon":5.38112,"is_reserved":false,"is_disabled":true,"rental_uris":{"android":"levelo://app?vid=319287df-687a-4519-8559-afdae3b3272f","ios":"levelo://app?vid=319287df-687a-4519-8559-afdae3b3272f"},"vehicle_type_id":"4","last_reported":1732532888,"current_range_meters":28800,"station_id":"ce4bgip2rcd13ifvqbb0","pricing_plan_id":"cebpf4jnsgd1na2vs0mg"},{"bike_id":"bca3fd95-577b-4655-a940-7281cdb56793","system_id":"levelo_inurba_marseille","lat":43.28031,"lon":5.36939,"is_reserved":false,"is_disabled":true,"rental_uris":{"android":"levelo://app?vid=bca3fd95-577b-4655-a940-7281cdb56793","ios":"levelo://app?vid=bca3fd95-577b-4655-a940-7281cdb56793"},"vehicle_type_id":"4","last_reported":1732532888,"current_range_meters":30400,"station_id":"ce4bha12rcd13ifvqef0","pricing_plan_id":"cebpf4jnsgd1na2vs0mg"},{"bike_id":"e5951ee3-4a5a-4ebb-b469-096c5188dfa3","system_id":"levelo_inurba_marseille","lat":43.23188,"lon":5.35554,"is_reserved":false,"is_disabled":false,"rental_uris":{"android":"levelo://app?vid=e5951ee3-4a5a-4ebb-b469-096c5188dfa3","ios":"levelo://app?vid=e5951ee3-4a5a-4ebb-b469-096c5188dfa3"},"vehicle_type_id":"4","last_reported":1732532888,"current_range_meters":38800,"station_id":"ce4bhu92rcd13ifvqi70","pricing_plan_id":"cebpf4jnsgd1na2vs0mg"},{"bike_id":"337717de-c62f-4a53-888e-82a07b1ccc70","system_id":"levelo_inurba_marseille","lat":43.29273,"lon":5.36849,"is_reserved":false,"is_disabled":false,"rental_uris":{"android":"levelo://app?vid=337717de-c62f-4a53-888e-82a07b1ccc70","ios":"levelo://app?vid=337717de-c62f-4a53-888e-82a07b1ccc70"},"vehicle_type_id":"4","last_reported":1732532888,"current_range_meters":35600,"station_id":"ce4bhbp2rcd13ifvqesg","pricing_plan_id":"cebpf4jnsgd1na2vs0mg"},{"bike_id":"3cc26207-7312-4eaa-95b6-cfa66aac5ad8","system_id":"levelo_inurba_marseille","lat":43.23153,"lon":5.43713,"is_reserved":false,"is_disabled":false,"rental_uris":{"android":"levelo://app?vid=3cc26207-7312-4eaa-95b6-cfa66aac5ad8","ios":"levelo://app?vid=3cc26207-7312-4eaa-95b6-cfa66aac5ad8"},"vehicle_type_id":"4","last_reported":1732532888,"current_range_meters":15200,"station_id":"ce4bhmp2rcd13ifvqgog","pricing_plan_id":"cebpf4jnsgd1na2vs0mg"},{"bike_id":"33ae12dc-d757-46bf-b195-cf4bbca44eb2","system_id":"levelo_inurba_marseille","lat":43.3053,"lon":5.3654,"is_reserved":false,"is_disabled":false,"rental_uris":{"android":"levelo://app?vid=33ae12dc-d757-46bf-b195-cf4bbca44eb2","ios":"levelo://app?vid=33ae12dc-d757-46bf-b195-cf4bbca44eb2"},"vehicle_type_id":"4","last_reported":1732532888,"current_range_meters":39200,"station_id":"ce4bgs12rcd13ifvqcag","pricing_plan_id":"cebpf4jnsgd1na2vs0mg"},{"bike_id":"66aad5d7-efa9-4543-8e11-bbf0af584fcf","system_id":"levelo_inurba_marseille","lat":43.27811,"lon":5.407,"is_reserved":false,"is_disabled":true,"rental_uris":{"android":"levelo://app?vid=66aad5d7-efa9-4543-8e11-bbf0af584fcf","ios":"levelo://app?vid=66aad5d7-efa9-4543-8e11-bbf0af584fcf"},"vehicle_type_id":"4","last_reported":1732532888,"current_range_meters":38800,"station_id":"ce4bhnh2rcd13ifvqgtg","pricing_plan_id":"cebpf4jnsgd1na2vs0mg"},{"bike_id":"81a37cae-e9cf-459f-9399-7a89da6edc9b","system_id":"levelo_inurba_marseille","lat":43.30607,"lon":5.37219,"is_reserved":false,"is_disabled":false,"rental_uris":{"android":"levelo://app?vid=81a37cae-e9cf-459f-9399-7a89da6edc9b","ios":"levelo://app?vid=81a37cae-e9cf-459f-9399-7a89da6edc9b"},"vehicle_type_id":"4","last_reported":1732532888,"current_range_meters":39200,"station_id":"ce4bgqh2rcd13ifvqc4g","pricing_plan_id":"cebpf4jnsgd1na2vs0mg"},{"bike_id":"6c948e9c-d5b3-4fe5-a918-1bd2f7c83b02","system_id":"levelo_inurba_marseille","lat":43.3211,"lon":5.36773,"is_reserved":false,"is_disabled":false,"rental_uris":{"android":"levelo://app?vid=6c948e9c-d5b3-4fe5-a918-1bd2f7c83b02","ios":"levelo://app?vid=6c948e9c-d5b3-4fe5-a918-1bd2f7c83b02"},"vehicle_type_id":"4","last_reported":1732532888,"current_range_meters":24800,"station_id":"ce4bhrh2rcd13ifvqhug","pricing_plan_id":"cebpf4jnsgd1na2vs0mg"},{"bike_id":"9e620abf-d324-4f99-84fc-d67e71109f2a","system_id":"levelo_inurba_marseille","lat":43.31077,"lon":5.42435,"is_reserved":false,"is_disabled":true,"rental_uris":{"android":"levelo://app?vid=9e620abf-d324-4f99-84fc-d67e71109f2a","ios":"levelo://app?vid=9e620abf-d324-4f99-84fc-d67e71109f2a"},"vehicle_type_id":"4","last_reported":1732532888,"current_range_meters":0,"station_id":"ce4bhp92rcd13ifvqhag","pricing_plan_id":"cebpf4jnsgd1na2vs0mg"},{"bike_id":"9388a7ff-9c5c-4c26-9899-39b2408cf7e3","system_id":"levelo_inurba_marseille","lat":43.31025,"lon":5.38342,"is_reserved":false,"is_disabled":true,"rental_uris":{"android":"levelo://app?vid=9388a7ff-9c5c-4c26-9899-39b2408cf7e3","ios":"levelo://app?vid=9388a7ff-9c5c-4c26-9899-39b2408cf7e3"},"vehicle_type_id":"4","last_reported":1732532888,"current_range_meters":0,"station_id":"","pricing_plan_id":"cebpf4jnsgd1na2vs0mg"},{"bike_id":"f0b812fb-308b-478f-b343-bd91863b177d","system_id":"levelo_inurba_marseille","lat":43.323456,"lon":5.40621,"is_reserved":false,"is_disabled":true,"rental_uris":{"android":"levelo://app?vid=f0b812fb-308b-478f-b343-bd91863b177d","ios":"levelo://app?vid=f0b812fb-308b-478f-b343-bd91863b177d"},"vehicle_type_id":"4","last_reported":1732532888,"current_range_meters":10000,"station_id":"ce4bhq92rcd13ifvqhjg","pricing_plan_id":"cebpf4jnsgd1na2vs0mg"},{"bike_id":"52a7856f-dff6-43e7-858f-17ff24d68a9c","system_id":"levelo_inurba_marseille","lat":43.31885,"lon":5.40731,"is_reserved":false,"is_disabled":false,"rental_uris":{"android":"levelo://app?vid=52a7856f-dff6-43e7-858f-17ff24d68a9c","ios":"levelo://app?vid=52a7856f-dff6-43e7-858f-17ff24d68a9c"},"vehicle_type_id":"4","last_reported":1732532888,"current_range_meters":38400,"station_id":"ce4bhq12rcd13ifvqhig","pricing_plan_id":"cebpf4jnsgd1na2vs0mg"},{"bike_id":"ada131c5-cd46-411d-a661-19f8c9ef0874","system_id":"levelo_inurba_marseille","lat":43.30933,"lon":5.4014,"is_reserved":false,"is_disabled":false,"rental_uris":{"android":"levelo://app?vid=ada131c5-cd46-411d-a661-19f8c9ef0874","ios":"levelo://app?vid=ada131c5-cd46-411d-a661-19f8c9ef0874"},"vehicle_type_id":"4","last_reported":1732532888,"current_range_meters":36000,"station_id":"ce4bgvp2rcd13ifvqct0","pricing_plan_id":"cebpf4jnsgd1na2vs0mg"},{"bike_id":"7993478e-0127-484e-9af9-906aa682b05d","system_id":"levelo_inurba_marseille","lat":43.3014,"lon":5.37427,"is_reserved":false,"is_disabled":false,"rental_uris":{"android":"levelo://app?vid=7993478e-0127-484e-9af9-906aa682b05d","ios":"levelo://app?vid=7993478e-0127-484e-9af9-906aa682b05d"},"vehicle_type_id":"4","last_reported":1732532888,"current_range_meters":39200,"station_id":"ce4bgs92rcd13ifvqcc0","pricing_plan_id":"cebpf4jnsgd1na2vs0mg"},{"bike_id":"f14e9fba-b9bd-4443-896c-9fd7a4fd971d","system_id":"levelo_inurba_marseille","lat":43.29896,"lon":5.4367,"is_reserved":false,"is_disabled":false,"rental_uris":{"android":"levelo://app?vid=f14e9fba-b9bd-4443-896c-9fd7a4fd971d","ios":"levelo://app?vid=f14e9fba-b9bd-4443-896c-9fd7a4fd971d"},"vehicle_type_id":"4","last_reported":1732532888,"current_range_meters":38000,"station_id":"ce4bhpp2rcd13ifvqhfg","pricing_plan_id":"cebpf4jnsgd1na2vs0mg"},{"bike_id":"5c53cfbd-2547-413a-b79a-f8cc3b1ca992","system_id":"levelo_inurba_marseille","lat":43.32108,"lon":5.36772,"is_reserved":false,"is_disabled":false,"rental_uris":{"android":"levelo://app?vid=5c53cfbd-2547-413a-b79a-f8cc3b1ca992","ios":"levelo://app?vid=5c53cfbd-2547-413a-b79a-f8cc3b1ca992"},"vehicle_type_id":"4","last_reported":1732532888,"current_range_meters":36800,"station_id":"ce4bhrh2rcd13ifvqhug","pricing_plan_id":"cebpf4jnsgd1na2vs0mg"},{"bike_id":"aa26abde-517d-492d-9528-67f73bdf3b8e","system_id":"levelo_inurba_marseille","lat":43.29257,"lon":5.38441,"is_reserved":false,"is_disabled":false,"rental_uris":{"android":"levelo://app?vid=aa26abde-517d-492d-9528-67f73bdf3b8e","ios":"levelo://app?vid=aa26abde-517d-492d-9528-67f73bdf3b8e"},"vehicle_type_id":"4","last_reported":1732532888,"current_range_meters":31200,"station_id":"ce4bh692rcd13ifvqea0","pricing_plan_id":"cebpf4jnsgd1na2vs0mg"},{"bike_id":"d854667e-67de-44d6-82cb-b120b178e9b0","system_id":"levelo_inurba_marseille","lat":43.29099,"lon":5.38131,"is_reserved":false,"is_disabled":true,"rental_uris":{"android":"levelo://app?vid=d854667e-67de-44d6-82cb-b120b178e9b0","ios":"levelo://app?vid=d854667e-67de-44d6-82cb-b120b178e9b0"},"vehicle_type_id":"4","last_reported":1732532888,"current_range_meters":4800,"station_id":"ce4bh512rcd13ifvqe2g","pricing_plan_id":"cebpf4jnsgd1na2vs0mg"},{"bike_id":"3b1c97d8-be81-484f-81f9-990f5b17db10","system_id":"levelo_inurba_marseille","lat":43.34147,"lon":5.40911,"is_reserved":false,"is_disabled":true,"rental_uris":{"android":"levelo://app?vid=3b1c97d8-be81-484f-81f9-990f5b17db10","ios":"levelo://app?vid=3b1c97d8-be81-484f-81f9-990f5b17db10"},"vehicle_type_id":"4","last_reported":1732532888,"current_range_meters":38000,"station_id":"ce4bhqh2rcd13ifvqhlg","pricing_plan_id":"cebpf4jnsgd1na2vs0mg"},{"bike_id":"43ef1878-08c8-43ce-8a84-e0d20cc2548c","system_id":"levelo_inurba_marseille","lat":43.25941,"lon":5.40904,"is_reserved":false,"is_disabled":false,"rental_uris":{"android":"levelo://app?vid=43ef1878-08c8-43ce-8a84-e0d20cc2548c","ios":"levelo://app?vid=43ef1878-08c8-43ce-8a84-e0d20cc2548c"},"vehicle_type_id":"4","last_reported":1732532888,"current_range_meters":36800,"station_id":"ce4bhm92rcd13ifvqglg","pricing_plan_id":"cebpf4jnsgd1na2vs0mg"},{"bike_id":"9f267e62-6b87-4771-87f0-74b82cb5947e","system_id":"levelo_inurba_marseille","lat":43.29443,"lon":5.39741,"is_reserved":false,"is_disabled":false,"rental_uris":{"android":"levelo://app?vid=9f267e62-6b87-4771-87f0-74b82cb5947e","ios":"levelo://app?vid=9f267e62-6b87-4771-87f0-74b82cb5947e"},"vehicle_type_id":"4","last_reported":1732532888,"current_range_meters":29600,"station_id":"ce4bh3h2rcd13ifvqdo0","pricing_plan_id":"cebpf4jnsgd1na2vs0mg"},{"bike_id":"56ca6b93-ca3d-4dfc-8e20-e35c24d8bd07","system_id":"levelo_inurba_marseille","lat":43.337444,"lon":5.374475,"is_reserved":false,"is_disabled":true,"rental_uris":{"android":"levelo://app?vid=56ca6b93-ca3d-4dfc-8e20-e35c24d8bd07","ios":"levelo://app?vid=56ca6b93-ca3d-4dfc-8e20-e35c24d8bd07"},"vehicle_type_id":"4","last_reported":1732532888,"current_range_meters":0,"station_id":"","pricing_plan_id":"cebpf4jnsgd1na2vs0mg"},{"bike_id":"3ab22db4-3674-431e-9d90-c9391c7ec55e","system_id":"levelo_inurba_marseille","lat":43.29623,"lon":5.37166,"is_reserved":false,"is_disabled":false,"rental_uris":{"android":"levelo://app?vid=3ab22db4-3674-431e-9d90-c9391c7ec55e","ios":"levelo://app?vid=3ab22db4-3674-431e-9d90-c9391c7ec55e"},"vehicle_type_id":"4","last_reported":1732532888,"current_range_meters":24400,"station_id":"ce4bgnh2rcd13ifvqc0g","pricing_plan_id":"cebpf4jnsgd1na2vs0mg"},{"bike_id":"89b60ab2-d6a6-4acf-aafc-578126cf416a","system_id":"levelo_inurba_marseille","lat":43.28271,"lon":5.35067,"is_reserved":false,"is_disabled":false,"rental_uris":{"android":"levelo://app?vid=89b60ab2-d6a6-4acf-aafc-578126cf416a","ios":"levelo://app?vid=89b60ab2-d6a6-4acf-aafc-578126cf416a"},"vehicle_type_id":"4","last_reported":1732532888,"current_range_meters":26000,"station_id":"ce4bhbp2rcd13ifvqerg","pricing_plan_id":"cebpf4jnsgd1na2vs0mg"},{"bike_id":"46ac22a8-6f10-4221-98a6-34eba5c97bfb","system_id":"levelo_inurba_marseille","lat":43.29197,"lon":5.37311,"is_reserved":false,"is_disabled":true,"rental_uris":{"android":"levelo://app?vid=46ac22a8-6f10-4221-98a6-34eba5c97bfb","ios":"levelo://app?vid=46ac22a8-6f10-4221-98a6-34eba5c97bfb"},"vehicle_type_id":"4","last_reported":1732532888,"current_range_meters":0,"station_id":"","pricing_plan_id":"cebpf4jnsgd1na2vs0mg"},{"bike_id":"5846e7ee-045c-466d-b02c-9cd3eadc9db6","system_id":"levelo_inurba_marseille","lat":43.29201,"lon":5.35805,"is_reserved":false,"is_disabled":true,"rental_uris":{"android":"levelo://app?vid=5846e7ee-045c-466d-b02c-9cd3eadc9db6","ios":"levelo://app?vid=5846e7ee-045c-466d-b02c-9cd3eadc9db6"},"vehicle_type_id":"4","last_reported":1732532888,"current_range_meters":38800,"station_id":"ce4bhb12rcd13ifvqel0","pricing_plan_id":"cebpf4jnsgd1na2vs0mg"},{"bike_id":"43746d86-8a13-4845-9faf-ae69b548d714","system_id":"levelo_inurba_marseille","lat":43.2945,"lon":5.37921,"is_reserved":false,"is_disabled":true,"rental_uris":{"android":"levelo://app?vid=43746d86-8a13-4845-9faf-ae69b548d714","ios":"levelo://app?vid=43746d86-8a13-4845-9faf-ae69b548d714"},"vehicle_type_id":"4","last_reported":1732532888,"current_range_meters":0,"station_id":"","pricing_plan_id":"cebpf4jnsgd1na2vs0mg"},{"bike_id":"7317920e-5975-4c67-a891-63736e89f140","system_id":"levelo_inurba_marseille","lat":43.29274,"lon":5.36786,"is_reserved":false,"is_disabled":true,"rental_uris":{"android":"levelo://app?vid=7317920e-5975-4c67-a891-63736e89f140","ios":"levelo://app?vid=7317920e-5975-4c67-a891-63736e89f140"},"vehicle_type_id":"4","last_reported":1732532888,"current_range_meters":24000,"station_id":"","pricing_plan_id":"cebpf4jnsgd1na2vs0mg"},{"bike_id":"a2b09865-004d-45eb-b301-cf3640220a72","system_id":"levelo_inurba_marseille","lat":43.29602,"lon":5.381031,"is_reserved":false,"is_disabled":true,"rental_uris":{"android":"levelo://app?vid=a2b09865-004d-45eb-b301-cf3640220a72","ios":"levelo://app?vid=a2b09865-004d-45eb-b301-cf3640220a72"},"vehicle_type_id":"4","last_reported":1732532888,"current_range_meters":0,"station_id":"ce4bgl12rcd13ifvqbo0","pricing_plan_id":"cebpf4jnsgd1na2vs0mg"},{"bike_id":"3e3c0be4-7fb7-4ca3-945a-c2f577396c6f","system_id":"levelo_inurba_marseille","lat":43.26688,"lon":5.38262,"is_reserved":false,"is_disabled":false,"rental_uris":{"android":"levelo://app?vid=3e3c0be4-7fb7-4ca3-945a-c2f577396c6f","ios":"levelo://app?vid=3e3c0be4-7fb7-4ca3-945a-c2f577396c6f"},"vehicle_type_id":"4","last_reported":1732532888,"current_range_meters":27200,"station_id":"ce4bhg92rcd13ifvqf90","pricing_plan_id":"cebpf4jnsgd1na2vs0mg"},{"bike_id":"207e98c6-a9d7-4dbb-a5da-e7e9b7197dcb","system_id":"levelo_inurba_marseille","lat":43.30158,"lon":5.38091,"is_reserved":false,"is_disabled":false,"rental_uris":{"android":"levelo://app?vid=207e98c6-a9d7-4dbb-a5da-e7e9b7197dcb","ios":"levelo://app?vid=207e98c6-a9d7-4dbb-a5da-e7e9b7197dcb"},"vehicle_type_id":"4","last_reported":1732532888,"current_range_meters":25600,"station_id":"ce4bgjp2rcd13ifvqbh0","pricing_plan_id":"cebpf4jnsgd1na2vs0mg"},{"bike_id":"b777e881-954f-41ae-bb6d-48a5fe325c58","system_id":"levelo_inurba_marseille","lat":43.26197,"lon":5.37927,"is_reserved":false,"is_disabled":false,"rental_uris":{"android":"levelo://app?vid=b777e881-954f-41ae-bb6d-48a5fe325c58","ios":"levelo://app?vid=b777e881-954f-41ae-bb6d-48a5fe325c58"},"vehicle_type_id":"4","last_reported":1732532888,"current_range_meters":38400,"station_id":"ce4bhjp2rcd13ifvqg90","pricing_plan_id":"cebpf4jnsgd1na2vs0mg"},{"bike_id":"2612e93b-efd9-47d8-9055-c03c0a09ca65","system_id":"levelo_inurba_marseille","lat":43.26781,"lon":5.39423,"is_reserved":false,"is_disabled":true,"rental_uris":{"android":"levelo://app?vid=2612e93b-efd9-47d8-9055-c03c0a09ca65","ios":"levelo://app?vid=2612e93b-efd9-47d8-9055-c03c0a09ca65"},"vehicle_type_id":"4","last_reported":1732532888,"current_range_meters":0,"station_id":"ce4bhh12rcd13ifvqfg0","pricing_plan_id":"cebpf4jnsgd1na2vs0mg"},{"bike_id":"8f1d6e37-5a85-4901-bfc4-e08c8386322f","system_id":"levelo_inurba_marseille","lat":43.29848,"lon":5.36279,"is_reserved":false,"is_disabled":false,"rental_uris":{"android":"levelo://app?vid=8f1d6e37-5a85-4901-bfc4-e08c8386322f","ios":"levelo://app?vid=8f1d6e37-5a85-4901-bfc4-e08c8386322f"},"vehicle_type_id":"4","last_reported":1732532888,"current_range_meters":36000,"station_id":"ce4bgpp2rcd13ifvqc3g","pricing_plan_id":"cebpf4jnsgd1na2vs0mg"},{"bike_id":"cd7f2149-18dc-4ca5-b205-655be80f6b80","system_id":"levelo_inurba_marseille","lat":43.26552,"lon":5.37294,"is_reserved":false,"is_disabled":true,"rental_uris":{"android":"levelo://app?vid=cd7f2149-18dc-4ca5-b205-655be80f6b80","ios":"levelo://app?vid=cd7f2149-18dc-4ca5-b205-655be80f6b80"},"vehicle_type_id":"4","last_reported":1732532888,"current_range_meters":27600,"station_id":"ce4bhg12rcd13ifvqf70","pricing_plan_id":"cebpf4jnsgd1na2vs0mg"},{"bike_id":"2d1762b4-1fa7-4794-9eae-18b02df97334","system_id":"levelo_inurba_marseille","lat":43.25859,"lon":5.399,"is_reserved":false,"is_disabled":false,"rental_uris":{"android":"levelo://app?vid=2d1762b4-1fa7-4794-9eae-18b02df97334","ios":"levelo://app?vid=2d1762b4-1fa7-4794-9eae-18b02df97334"},"vehicle_type_id":"4","last_reported":1732532888,"current_range_meters":12400,"station_id":"ce4bhl92rcd13ifvqghg","pricing_plan_id":"cebpf4jnsgd1na2vs0mg"},{"bike_id":"ac8a6bc2-c9c9-45a2-85f6-35f3b09c2037","system_id":"levelo_inurba_marseille","lat":43.33601,"lon":5.41022,"is_reserved":false,"is_disabled":true,"rental_uris":{"android":"levelo://app?vid=ac8a6bc2-c9c9-45a2-85f6-35f3b09c2037","ios":"levelo://app?vid=ac8a6bc2-c9c9-45a2-85f6-35f3b09c2037"},"vehicle_type_id":"4","last_reported":1732532888,"current_range_meters":30000,"station_id":"ce4bhqh2rcd13ifvqhmg","pricing_plan_id":"cebpf4jnsgd1na2vs0mg"},{"bike_id":"b255fa96-8065-4c7d-8344-771209b7fecf","system_id":"levelo_inurba_marseille","lat":43.29709,"lon":5.37701,"is_reserved":false,"is_disabled":false,"rental_uris":{"android":"levelo://app?vid=b255fa96-8065-4c7d-8344-771209b7fecf","ios":"levelo://app?vid=b255fa96-8065-4c7d-8344-771209b7fecf"},"vehicle_type_id":"4","last_reported":1732532888,"current_range_meters":20000,"station_id":"ce4bgkh2rcd13ifvqbl0","pricing_plan_id":"cebpf4jnsgd1na2vs0mg"},{"bike_id":"26fb7497-a780-47ad-baa8-e3678ac91922","system_id":"levelo_inurba_marseille","lat":43.29278,"lon":5.36831,"is_reserved":false,"is_disabled":true,"rental_uris":{"android":"levelo://app?vid=26fb7497-a780-47ad-baa8-e3678ac91922","ios":"levelo://app?vid=26fb7497-a780-47ad-baa8-e3678ac91922"},"vehicle_type_id":"4","last_reported":1732532888,"current_range_meters":27200,"station_id":"ce4bhbp2rcd13ifvqesg","pricing_plan_id":"cebpf4jnsgd1na2vs0mg"},{"bike_id":"40838fbd-175e-4307-947d-b85409f45c17","system_id":"levelo_inurba_marseille","lat":43.23194,"lon":5.3555,"is_reserved":false,"is_disabled":false,"rental_uris":{"android":"levelo://app?vid=40838fbd-175e-4307-947d-b85409f45c17","ios":"levelo://app?vid=40838fbd-175e-4307-947d-b85409f45c17"},"vehicle_type_id":"4","last_reported":1732532888,"current_range_meters":30400,"station_id":"ce4bhu92rcd13ifvqi70","pricing_plan_id":"cebpf4jnsgd1na2vs0mg"},{"bike_id":"7f723b0b-cbe8-4f68-b8fe-2ce3d5e983bd","system_id":"levelo_inurba_marseille","lat":43.32103,"lon":5.36777,"is_reserved":false,"is_disabled":true,"rental_uris":{"android":"levelo://app?vid=7f723b0b-cbe8-4f68-b8fe-2ce3d5e983bd","ios":"levelo://app?vid=7f723b0b-cbe8-4f68-b8fe-2ce3d5e983bd"},"vehicle_type_id":"4","last_reported":1732532888,"current_range_meters":24800,"station_id":"","pricing_plan_id":"cebpf4jnsgd1na2vs0mg"},{"bike_id":"64442a7f-b1f1-4adb-a137-90b510369e51","system_id":"levelo_inurba_marseille","lat":43.30146,"lon":5.37416,"is_reserved":false,"is_disabled":false,"rental_uris":{"android":"levelo://app?vid=64442a7f-b1f1-4adb-a137-90b510369e51","ios":"levelo://app?vid=64442a7f-b1f1-4adb-a137-90b510369e51"},"vehicle_type_id":"4","last_reported":1732532888,"current_range_meters":38800,"station_id":"ce4bgs92rcd13ifvqcc0","pricing_plan_id":"cebpf4jnsgd1na2vs0mg"},{"bike_id":"8f1b2b5d-b7f7-4684-b432-d3aaf51555c4","system_id":"levelo_inurba_marseille","lat":43.30184,"lon":5.36623,"is_reserved":false,"is_disabled":false,"rental_uris":{"android":"levelo://app?vid=8f1b2b5d-b7f7-4684-b432-d3aaf51555c4","ios":"levelo://app?vid=8f1b2b5d-b7f7-4684-b432-d3aaf51555c4"},"vehicle_type_id":"4","last_reported":1732532888,"current_range_meters":32400,"station_id":"ce4bgrh2rcd13ifvqc8g","pricing_plan_id":"cebpf4jnsgd1na2vs0mg"},{"bike_id":"a33c73f2-18dc-4395-9f39-6baf55f8b062","system_id":"levelo_inurba_marseille","lat":43.30278,"lon":5.39622,"is_reserved":false,"is_disabled":false,"rental_uris":{"android":"levelo://app?vid=a33c73f2-18dc-4395-9f39-6baf55f8b062","ios":"levelo://app?vid=a33c73f2-18dc-4395-9f39-6baf55f8b062"},"vehicle_type_id":"4","last_reported":1732532888,"current_range_meters":6400,"station_id":"","pricing_plan_id":"cebpf4jnsgd1na2vs0mg"},{"bike_id":"783f2723-ac5f-4ee6-8513-858be6073af8","system_id":"levelo_inurba_marseille","lat":43.29792,"lon":5.38097,"is_reserved":false,"is_disabled":false,"rental_uris":{"android":"levelo://app?vid=783f2723-ac5f-4ee6-8513-858be6073af8","ios":"levelo://app?vid=783f2723-ac5f-4ee6-8513-858be6073af8"},"vehicle_type_id":"4","last_reported":1732532888,"current_range_meters":38000,"station_id":"ce4bgip2rcd13ifvqbb0","pricing_plan_id":"cebpf4jnsgd1na2vs0mg"},{"bike_id":"7ebdeb71-45ee-4090-80c1-249f3c563531","system_id":"levelo_inurba_marseille","lat":43.31881,"lon":5.40726,"is_reserved":false,"is_disabled":false,"rental_uris":{"android":"levelo://app?vid=7ebdeb71-45ee-4090-80c1-249f3c563531","ios":"levelo://app?vid=7ebdeb71-45ee-4090-80c1-249f3c563531"},"vehicle_type_id":"4","last_reported":1732532888,"current_range_meters":24800,"station_id":"ce4bhq12rcd13ifvqhig","pricing_plan_id":"cebpf4jnsgd1na2vs0mg"},{"bike_id":"7e9061cd-5627-407a-8c6f-fcf878e75a40","system_id":"levelo_inurba_marseille","lat":43.279523,"lon":5.41044,"is_reserved":false,"is_disabled":true,"rental_uris":{"android":"levelo://app?vid=7e9061cd-5627-407a-8c6f-fcf878e75a40","ios":"levelo://app?vid=7e9061cd-5627-407a-8c6f-fcf878e75a40"},"vehicle_type_id":"4","last_reported":1732532888,"current_range_meters":6800,"station_id":"ce4bhnp2rcd13ifvqh0g","pricing_plan_id":"cebpf4jnsgd1na2vs0mg"},{"bike_id":"787d897e-559f-4da0-a1d4-e83009938176","system_id":"levelo_inurba_marseille","lat":43.27428,"lon":5.39408,"is_reserved":false,"is_disabled":true,"rental_uris":{"android":"levelo://app?vid=787d897e-559f-4da0-a1d4-e83009938176","ios":"levelo://app?vid=787d897e-559f-4da0-a1d4-e83009938176"},"vehicle_type_id":"4","last_reported":1732532888,"current_range_meters":24800,"station_id":"ce4bhdp2rcd13ifvqf20","pricing_plan_id":"cebpf4jnsgd1na2vs0mg"},{"bike_id":"67952da2-66d5-48c8-a02d-e88af27f18cb","system_id":"levelo_inurba_marseille","lat":43.25117,"lon":5.40317,"is_reserved":false,"is_disabled":false,"rental_uris":{"android":"levelo://app?vid=67952da2-66d5-48c8-a02d-e88af27f18cb","ios":"levelo://app?vid=67952da2-66d5-48c8-a02d-e88af27f18cb"},"vehicle_type_id":"4","last_reported":1732532888,"current_range_meters":38400,"station_id":"ce4bhlh2rcd13ifvqgig","pricing_plan_id":"cebpf4jnsgd1na2vs0mg"},{"bike_id":"cc34b422-5b83-49a3-86a2-17c7c72df8bf","system_id":"levelo_inurba_marseille","lat":43.2582,"lon":5.39439,"is_reserved":false,"is_disabled":false,"rental_uris":{"android":"levelo://app?vid=cc34b422-5b83-49a3-86a2-17c7c72df8bf","ios":"levelo://app?vid=cc34b422-5b83-49a3-86a2-17c7c72df8bf"},"vehicle_type_id":"4","last_reported":1732532888,"current_range_meters":11200,"station_id":"ce4bhip2rcd13ifvqft0","pricing_plan_id":"cebpf4jnsgd1na2vs0mg"},{"bike_id":"f7a4760d-107d-4741-b65c-e73b22a2e93d","system_id":"levelo_inurba_marseille","lat":43.29727,"lon":5.37679,"is_reserved":false,"is_disabled":false,"rental_uris":{"android":"levelo://app?vid=f7a4760d-107d-4741-b65c-e73b22a2e93d","ios":"levelo://app?vid=f7a4760d-107d-4741-b65c-e73b22a2e93d"},"vehicle_type_id":"4","last_reported":1732532888,"current_range_meters":12000,"station_id":"ce4bgkh2rcd13ifvqbl0","pricing_plan_id":"cebpf4jnsgd1na2vs0mg"},{"bike_id":"d88afdfc-ec37-4676-b854-46320b19f0c0","system_id":"levelo_inurba_marseille","lat":43.24658,"lon":5.3816,"is_reserved":false,"is_disabled":false,"rental_uris":{"android":"levelo://app?vid=d88afdfc-ec37-4676-b854-46320b19f0c0","ios":"levelo://app?vid=d88afdfc-ec37-4676-b854-46320b19f0c0"},"vehicle_type_id":"4","last_reported":1732532888,"current_range_meters":18800,"station_id":"ce4bhih2rcd13ifvqfr0","pricing_plan_id":"cebpf4jnsgd1na2vs0mg"},{"bike_id":"fc19f7a8-316e-421d-a534-999b5083f6e0","system_id":"levelo_inurba_marseille","lat":43.31177,"lon":5.38717,"is_reserved":false,"is_disabled":false,"rental_uris":{"android":"levelo://app?vid=fc19f7a8-316e-421d-a534-999b5083f6e0","ios":"levelo://app?vid=fc19f7a8-316e-421d-a534-999b5083f6e0"},"vehicle_type_id":"4","last_reported":1732532888,"current_range_meters":20000,"station_id":"ce4bgv12rcd13ifvqcp0","pricing_plan_id":"cebpf4jnsgd1na2vs0mg"},{"bike_id":"20c3c322-3abf-4c85-b693-3f31679c16ca","system_id":"levelo_inurba_marseille","lat":43.30213,"lon":5.39466,"is_reserved":false,"is_disabled":false,"rental_uris":{"android":"levelo://app?vid=20c3c322-3abf-4c85-b693-3f31679c16ca","ios":"levelo://app?vid=20c3c322-3abf-4c85-b693-3f31679c16ca"},"vehicle_type_id":"4","last_reported":1732532888,"current_range_meters":38800,"station_id":"ce4bh0p2rcd13ifvqd70","pricing_plan_id":"cebpf4jnsgd1na2vs0mg"},{"bike_id":"0e8bf3ca-4c14-4c19-b2d6-ce802c7b896b","system_id":"levelo_inurba_marseille","lat":43.27497,"lon":5.42454,"is_reserved":false,"is_disabled":false,"rental_uris":{"android":"levelo://app?vid=0e8bf3ca-4c14-4c19-b2d6-ce802c7b896b","ios":"levelo://app?vid=0e8bf3ca-4c14-4c19-b2d6-ce802c7b896b"},"vehicle_type_id":"4","last_reported":1732532888,"current_range_meters":36800,"station_id":"ce4bhn92rcd13ifvqgrg","pricing_plan_id":"cebpf4jnsgd1na2vs0mg"},{"bike_id":"0b5f7b4e-e065-44c9-9b8b-2118dda16eca","system_id":"levelo_inurba_marseille","lat":43.24805,"lon":5.37445,"is_reserved":false,"is_disabled":true,"rental_uris":{"android":"levelo://app?vid=0b5f7b4e-e065-44c9-9b8b-2118dda16eca","ios":"levelo://app?vid=0b5f7b4e-e065-44c9-9b8b-2118dda16eca"},"vehicle_type_id":"4","last_reported":1732532888,"current_range_meters":39200,"station_id":"ce4bhgh2rcd13ifvqfb0","pricing_plan_id":"cebpf4jnsgd1na2vs0mg"},{"bike_id":"8c055bc3-b0b8-438b-a3d3-1edf51a02cdb","system_id":"levelo_inurba_marseille","lat":43.27423,"lon":5.39403,"is_reserved":false,"is_disabled":false,"rental_uris":{"android":"levelo://app?vid=8c055bc3-b0b8-438b-a3d3-1edf51a02cdb","ios":"levelo://app?vid=8c055bc3-b0b8-438b-a3d3-1edf51a02cdb"},"vehicle_type_id":"4","last_reported":1732532888,"current_range_meters":24000,"station_id":"ce4bhdp2rcd13ifvqf20","pricing_plan_id":"cebpf4jnsgd1na2vs0mg"},