{"last_updated":1716645973,"ttl":30,"version":"2.2","data":{"bikes":[{"bike_id":"831f255e-e7e7-4322-9627-ce75005ecca9","system_id":"levelo_inurba_marseille","lat":43.31341,"lon":5.367098,"is_reserved":false,"is_disabled":false,"rental_uris":{"android":"levelo://app?vid=831f255e-e7e7-4322-9627-ce75005ecca9","ios":"levelo://app?vid=831f255e-e7e7-4322-9627-ce75005ecca9"},"vehicle_type_id":"4","last_reported":1716645973,"current_range_meters":20400,"station_id":"ce4bgr92rcd13ifvqc6g","pricing_plan_id":"cebpf4jnsgd1na2vs0mg"},{"bike_id":"7c0c1ecd-6ea1-4000-b91c-49fdd326c572","system_id":"levelo_inurba_marseille","lat":43.31341,"lon":5.367098,"is_reserved":false,"is_disabled":false,"rental_uris":{"android":"levelo://app?vid=7c0c1ecd-6ea1-4000-b91c-49fdd326c572","ios":"levelo://app?vid=7c0c1ecd-6ea1-4000-b91c-49fdd326c572"},"vehicle_type_id":"4","last_reported":1716645973,"current_range_meters":27600,"station_id":"ce4bgr92rcd13ifvqc6g","pricing_plan_id":"cebpf4jnsgd1na2vs0mg"},{"bike_id":"dfe77dfa-8cb6-4e75-9211-9b8039266f5c","system_id":"levelo_inurba_marseille","lat":43.312239,"lon":5.368562,"is_reserved":false,"is_disabled":false,"rental_uris":{"android":"levelo://app?vid=dfe77dfa-8cb6-4e75-9211-9b8039266f5c","ios":"levelo://app?vid=dfe77dfa-8cb6-4e75-9211-9b8039266f5c"},"vehicle_type_id":"4","last_reported":1716645973,"current_range_meters":31600,"station_id":"ce4bgl92rcd13ifvqbq0","pricing_plan_id":"cebpf4jnsgd1na2vs0mg"},{"bike_id":"74eeb9c9-5b61-4845-bc07-ac2b28506f29","system_id":"levelo_inurba_marseille","lat":43.309076,"lon":5.368465,"is_reserved":false,"is_disabled":false,"rental_uris":{"android":"levelo://app?vid=74eeb9c9-5b61-4845-bc07-ac2b28506f29","ios":"levelo://app?vid=74eeb9c9-5b61-4845-bc07-ac2b28506f29"},"vehicle_type_id":"4","last_reported":1716645973,"current_range_meters":23600,"station_id":"ce4bgn92rcd13ifvqbvg","pricing_plan_id":"cebpf4jnsgd1na2vs0mg"},{"bike_id":"b5be3d67-3112-4a49-a9d2-5eee40333edf","system_id":"levelo_inurba_marseille","lat":43.308977,"lon":5.368326,"is_reserved":false,"is_disabled":false,"rental_uris":{"android":"levelo://app?vid=b5be3d67-3112-4a49-a9d2-5eee40333edf","ios":"levelo://app?vid=b5be3d67-3112-4a49-a9d2-5eee40333edf"},"vehicle_type_id":"4","last_reported":1716645973,"current_range_meters":14000,"station_id":"ce4bgn92rcd13ifvqbvg","pricing_plan_id":"cebpf4jnsgd1na2vs0mg"},{"bike_id":"5f413224-4e54-49a4-8756-c954b8998560","system_id":"levelo_inurba_marseille","lat":43.309039,"lon":5.371797,"is_reserved":false,"is_disabled":false,"rental_uris":{"android":"levelo://app?vid=5f413224-4e54-49a4-8756-c954b8998560","ios":"levelo://app?vid=5f413224-4e54-49a4-8756-c954b8998560"},"vehicle_type_id":"4","last_reported":1716645973,"current_range_meters":15200,"station_id":"ce4bguh2rcd13ifvqckg","pricing_plan_id":"cebpf4jnsgd1na2vs0mg"},{"bike_id":"8d938b47-9351-4553-a157-a4f559740815","system_id":"levelo_inurba_marseille","lat":43.315465,"lon":5.373172,"is_reserved":false,"is_disabled":false,"rental_uris":{"android":"levelo://app?vid=8d938b47-9351-4553-a157-a4f559740815","ios":"levelo://app?vid=8d938b47-9351-4553-a157-a4f559740815"},"vehicle_type_id":"4","last_reported":1716645973,"current_range_meters":8800,"station_id":"ce4bgt12rcd13ifvqcd0","pricing_plan_id":"cebpf4jnsgd1na2vs0mg"},{"bike_id":"f607a2d9-dea8-4867-a264-a375240e5b9a","system_id":"levelo_inurba_marseille","lat":43.31672,"lon":5.3722,"is_reserved":false,"is_disabled":false,"rental_uris":{"android":"levelo://app?vid=f607a2d9-dea8-4867-a264-a375240e5b9a","ios":"levelo://app?vid=f607a2d9-dea8-4867-a264-a375240e5b9a"},"vehicle_type_id":"4","last_reported":1716645973,"current_range_meters":0,"station_id":"","pricing_plan_id":"cebpf4jnsgd1na2vs0mg"},{"bike_id":"7f5d2e58-a156-4157-a9c5-5cafb65e20e7","system_id":"levelo_inurba_marseille","lat":43.305712,"lon":5.365641,"is_reserved":false,"is_disabled":false,"rental_uris":{"android":"levelo://app?vid=7f5d2e58-a156-4157-a9c5-5cafb65e20e7","ios":"levelo://app?vid=7f5d2e58-a156-4157-a9c5-5cafb65e20e7"},"vehicle_type_id":"4","last_reported":1716645973,"current_range_meters":9200,"station_id":"ce4bgs12rcd13ifvqcag","pricing_plan_id":"cebpf4jnsgd1na2vs0mg"},{"bike_id":"e6cbc969-9386-44bb-8c5b-a5c0b53abf84","system_id":"levelo_inurba_marseille","lat":43.305706,"lon":5.365654,"is_reserved":false,"is_disabled":false,"rental_uris":{"android":"levelo://app?vid=e6cbc969-9386-44bb-8c5b-a5c0b53abf84","ios":"levelo://app?vid=e6cbc969-9386-44bb-8c5b-a5c0b53abf84"},"vehicle_type_id":"4","last_reported":1716645973,"current_range_meters":26400,"station_id":"ce4bgs12rcd13ifvqcag","pricing_plan_id":"cebpf4jnsgd1na2vs0mg"},{"bike_id":"324611af-aab3-4742-87a3-8fd419d74a79","system_id":"levelo_inurba_marseille","lat":43.30537,"lon":5.367345,"is_reserved":false,"is_disabled":false,"rental_uris":{"android":"levelo://app?vid=324611af-aab3-4742-87a3-8fd419d74a79","ios":"levelo://app?vid=324611af-aab3-4742-87a3-8fd419d74a79"},"vehicle_type_id":"4","last_reported":1716645973,"current_range_meters":30800,"station_id":"ce4bgrp2rcd13ifvqc9g","pricing_plan_id":"cebpf4jnsgd1na2vs0mg"},{"bike_id":"01957790-2e6c-45a8-8757-80cd08c6fbeb","system_id":"levelo_inurba_marseille","lat":43.305389,"lon":5.365848,"is_reserved":false,"is_disabled":false,"rental_uris":{"android":"levelo://app?vid=01957790-2e6c-45a8-8757-80cd08c6fbeb","ios":"levelo://app?vid=01957790-2e6c-45a8-8757-80cd08c6fbeb"},"vehicle_type_id":"4","last_reported":1716645973,"current_range_meters":19600,"station_id":"ce4bgs12rcd13ifvqcag","pricing_plan_id":"cebpf4jnsgd1na2vs0mg"},{"bike_id":"d0dc6fc3-06b6-471f-9b6b-09b9909783d3","system_id":"levelo_inurba_marseille","lat":43.305406,"lon":5.365331,"is_reserved":false,"is_disabled":false,"rental_uris":{"android":"levelo://app?vid=d0dc6fc3-06b6-471f-9b6b-09b9909783d3","ios":"levelo://app?vid=d0dc6fc3-06b6-471f-9b6b-09b9909783d3"},"vehicle_type_id":"4","last_reported":1716645973,"current_range_meters":28800,"station_id":"ce4bgs12rcd13ifvqcag","pricing_plan_id":"cebpf4jnsgd1na2vs0mg"},{"bike_id":"d2c1de77-2fe3-4d42-98a4-405cebf480ad","system_id":"levelo_inurba_marseille","lat":43.30537,"lon":5.36544,"is_reserved":false,"is_disabled":false,"rental_uris":{"android":"levelo://app?vid=d2c1de77-2fe3-4d42-98a4-405cebf480ad","ios":"levelo://app?vid=d2c1de77-2fe3-4d42-98a4-405cebf480ad"},"vehicle_type_id":"4","last_reported":1716645973,"current_range_meters":4000,"station_id":"","pricing_plan_id":"cebpf4jnsgd1na2vs0mg"},{"bike_id":"085f8808-1d82-4a31-a42a-8e58df7e3717","system_id":"levelo_inurba_marseille","lat":43.305989,"lon":5.37225,"is_reserved":false,"is_disabled":false,"rental_uris":{"android":"levelo://app?vid=085f8808-1d82-4a31-a42a-8e58df7e3717","ios":"levelo://app?vid=085f8808-1d82-4a31-a42a-8e58df7e3717"},"vehicle_type_id":"4","last_reported":1716645973,"current_range_meters":31600,"station_id":"ce4bgqh2rcd13ifvqc4g","pricing_plan_id":"cebpf4jnsgd1na2vs0mg"},{"bike_id":"f4d53d69-847f-4fa3-9802-080f92ed67bd","system_id":"levelo_inurba_marseille","lat":43.305989,"lon":5.37225,"is_reserved":false,"is_disabled":false,"rental_uris":{"android":"levelo://app?vid=f4d53d69-847f-4fa3-9802-080f92ed67bd","ios":"levelo://app?vid=f4d53d69-847f-4fa3-9802-080f92ed67bd"},"vehicle_type_id":"4","last_reported":1716645973,"current_range_meters":18400,"station_id":"ce4bgqh2rcd13ifvqc4g","pricing_plan_id":"cebpf4jnsgd1na2vs0mg"},{"bike_id":"9ee54e86-5cf4-4fd0-a25b-27839914d742","system_id":"levelo_inurba_marseille","lat":43.31119,"lon":5.37772,"is_reserved":false,"is_disabled":false,"rental_uris":{"android":"levelo://app?vid=9ee54e86-5cf4-4fd0-a25b-27839914d742","ios":"levelo://app?vid=9ee54e86-5cf4-4fd0-a25b-27839914d742"},"vehicle_type_id":"4","last_reported":1716645973,"current_range_meters":15200,"station_id":"","pricing_plan_id":"cebpf4jnsgd1na2vs0mg"},{"bike_id":"2efbe848-eda5-4a6d-a285-108785b934e6","system_id":"levelo_inurba_marseille","lat":43.307945,"lon":5.376487,"is_reserved":false,"is_disabled":false,"rental_uris":{"android":"levelo://app?vid=2efbe848-eda5-4a6d-a285-108785b934e6","ios":"levelo://app?vid=2efbe848-eda5-4a6d-a285-108785b934e6"},"vehicle_type_id":"4","last_reported":1716645973,"current_range_meters":1200,"station_id":"ce4bgv92rcd13ifvqcq0","pricing_plan_id":"cebpf4jnsgd1na2vs0mg"},{"bike_id":"afa3f366-c512-4c4b-a120-604393c26978","system_id":"levelo_inurba_marseille","lat":43.317075,"lon":5.377367,"is_reserved":false,"is_disabled":false,"rental_uris":{"android":"levelo://app?vid=afa3f366-c512-4c4b-a120-604393c26978","ios":"levelo://app?vid=afa3f366-c512-4c4b-a120-604393c26978"},"vehicle_type_id":"4","last_reported":1716645973,"current_range_meters":20000,"station_id":"ce4bgth2rcd13ifvqch0","pricing_plan_id":"cebpf4jnsgd1na2vs0mg"},{"bike_id":"8d39757a-89d9-4bcb-8b24-49a1e8edf9e6","system_id":"levelo_inurba_marseille","lat":43.317075,"lon":5.377367,"is_reserved":false,"is_disabled":false,"rental_uris":{"android":"levelo://app?vid=8d39757a-89d9-4bcb-8b24-49a1e8edf9e6","ios":"levelo://app?vid=8d39757a-89d9-4bcb-8b24-49a1e8edf9e6"},"vehicle_type_id":"4","last_reported":1716645973,"current_range_meters":24400,"station_id":"ce4bgth2rcd13ifvqch0","pricing_plan_id":"cebpf4jnsgd1na2vs0mg"},{"bike_id":"543adbce-39a9-4887-8ff2-95cba10323d5","system_id":"levelo_inurba_marseille","lat":43.317075,"lon":5.377367,"is_reserved":false,"is_disabled":false,"rental_uris":{"android":"levelo://app?vid=543adbce-39a9-4887-8ff2-95cba10323d5","ios":"levelo://app?vid=543adbce-39a9-4887-8ff2-95cba10323d5"},"vehicle_type_id":"4","last_reported":1716645973,"current_range_meters":14400,"station_id":"ce4bgth2rcd13ifvqch0","pricing_plan_id":"cebpf4jnsgd1na2vs0mg"},{"bike_id":"d7f48951-646f-47ea-ac88-615a9b3e5b5d","system_id":"levelo_inurba_marseille","lat":43.303046,"lon":5.368981,"is_reserved":false,"is_disabled":false,"rental_uris":{"android":"levelo://app?vid=d7f48951-646f-47ea-ac88-615a9b3e5b5d","ios":"levelo://app?vid=d7f48951-646f-47ea-ac88-615a9b3e5b5d"},"vehicle_type_id":"4","last_reported":1716645973,"current_range_meters":13600,"station_id":"ce4bgqh2rcd13ifvqc5g","pricing_plan_id":"cebpf4jnsgd1na2vs0mg"},{"bike_id":"92b45834-463d-46b2-acae-93ad6eb240ea","system_id":"levelo_inurba_marseille","lat":43.30304,"lon":5.368987,"is_reserved":false,"is_disabled":false,"rental_uris":{"android":"levelo://app?vid=92b45834-463d-46b2-acae-93ad6eb240ea","ios":"levelo://app?vid=92b45834-463d-46b2-acae-93ad6eb240ea"},"vehicle_type_id":"4","last_reported":1716645973,"current_range_meters":25600,"station_id":"ce4bgqh2rcd13ifvqc5g","pricing_plan_id":"cebpf4jnsgd1na2vs0mg"},{"bike_id":"a59b88af-300a-497f-811e-76731877fe30","system_id":"levelo_inurba_marseille","lat":43.30315,"lon":5.37467,"is_reserved":false,"is_disabled":false,"rental_uris":{"android":"levelo://app?vid=a59b88af-300a-497f-811e-76731877fe30","ios":"levelo://app?vid=a59b88af-300a-497f-811e-76731877fe30"},"vehicle_type_id":"4","last_reported":1716645973,"current_range_meters":6000,"station_id":"","pricing_plan_id":"cebpf4jnsgd1na2vs0mg"},{"bike_id":"be97996b-db25-4246-aefc-c593c2562c6c","system_id":"levelo_inurba_marseille","lat":43.303143,"lon":5.374769,"is_reserved":false,"is_disabled":false,"rental_uris":{"android":"levelo://app?vid=be97996b-db25-4246-aefc-c593c2562c6c","ios":"levelo://app?vid=be97996b-db25-4246-aefc-c593c2562c6c"},"vehicle_type_id":"4","last_reported":1716645973,"current_range_meters":14400,"station_id":"","pricing_plan_id":"cebpf4jnsgd1na2vs0mg"},{"bike_id":"31512d16-71f7-4ec7-863d-222cd94aef0c","system_id":"levelo_inurba_marseille","lat":43.30817,"lon":5.3815,"is_reserved":false,"is_disabled":false,"rental_uris":{"android":"levelo://app?vid=31512d16-71f7-4ec7-863d-222cd94aef0c","ios":"levelo://app?vid=31512d16-71f7-4ec7-863d-222cd94aef0c"},"vehicle_type_id":"4","last_reported":1716645973,"current_range_meters":22000,"station_id":"ce4bgt12rcd13ifvqce0","pricing_plan_id":"cebpf4jnsgd1na2vs0mg"},{"bike_id":"3525d7b9-5ba7-4a80-a41e-03a251c2964f","system_id":"levelo_inurba_marseille","lat":43.308012,"lon":5.381511,"is_reserved":false,"is_disabled":false,"rental_uris":{"android":"levelo://app?vid=3525d7b9-5ba7-4a80-a41e-03a251c2964f","ios":"levelo://app?vid=3525d7b9-5ba7-4a80-a41e-03a251c2964f"},"vehicle_type_id":"4","last_reported":1716645973,"current_range_meters":17600,"station_id":"ce4bgt12rcd13ifvqce0","pricing_plan_id":"cebpf4jnsgd1na2vs0mg"},{"bike_id":"84028e8f-1375-4e0b-8275-ddf17bb26dca","system_id":"levelo_inurba_marseille","lat":43.324771,"lon":5.36557,"is_reserved":false,"is_disabled":false,"rental_uris":{"android":"levelo://app?vid=84028e8f-1375-4e0b-8275-ddf17bb26dca","ios":"levelo://app?vid=84028e8f-1375-4e0b-8275-ddf17bb26dca"},"vehicle_type_id":"4","last_reported":1716645973,"current_range_meters":800,"station_id":"ce4bhs12rcd13ifvqhvg","pricing_plan_id":"cebpf4jnsgd1na2vs0mg"},{"bike_id":"649dc2ca-940f-4aa6-921e-cbec14ebb78e","system_id":"levelo_inurba_marseille","lat":43.32479,"lon":5.3657,"is_reserved":false,"is_disabled":false,"rental_uris":{"android":"levelo://app?vid=649dc2ca-940f-4aa6-921e-cbec14ebb78e","ios":"levelo://app?vid=649dc2ca-940f-4aa6-921e-cbec14ebb78e"},"vehicle_type_id":"4","last_reported":1716645973,"current_range_meters":28000,"station_id":"ce4bhs12rcd13ifvqhvg","pricing_plan_id":"cebpf4jnsgd1na2vs0mg"},{"bike_id":"eacf2fee-b3a5-4cc4-b0dc-f9903d7c3880","system_id":"levelo_inurba_marseille","lat":43.324771,"lon":5.36557,"is_reserved":false,"is_disabled":false,"rental_uris":{"android":"levelo://app?vid=eacf2fee-b3a5-4cc4-b0dc-f9903d7c3880","ios":"levelo://app?vid=eacf2fee-b3a5-4cc4-b0dc-f9903d7c3880"},"vehicle_type_id":"4","last_reported":1716645973,"current_range_meters":14000,"station_id":"ce4bhs12rcd13ifvqhvg","pricing_plan_id":"cebpf4jnsgd1na2vs0mg"},{"bike_id":"97aa767d-4a7c-4d81-b244-c5d3efb49efc","system_id":"levelo_inurba_marseille","lat":43.32481,"lon":5.36565,"is_reserved":false,"is_disabled":false,"rental_uris":{"android":"levelo://app?vid=97aa767d-4a7c-4d81-b244-c5d3efb49efc","ios":"levelo://app?vid=97aa767d-4a7c-4d81-b244-c5d3efb49efc"},"vehicle_type_id":"4","last_reported":1716645973,"current_range_meters":22000,"station_id":"ce4bhs12rcd13ifvqhvg","pricing_plan_id":"cebpf4jnsgd1na2vs0mg"},{"bike_id":"814ae5b8-d7ee-435a-bc6e-cdc304e28599","system_id":"levelo_inurba_marseille","lat":43.32482,"lon":5.365685,"is_reserved":false,"is_disabled":false,"rental_uris":{"android":"levelo://app?vid=814ae5b8-d7ee-435a-bc6e-cdc304e28599","ios":"levelo://app?vid=814ae5b8-d7ee-435a-bc6e-cdc304e28599"},"vehicle_type_id":"4","last_reported":1716645973,"current_range_meters":23200,"station_id":"ce4bhs12rcd13ifvqhvg","pricing_plan_id":"cebpf4jnsgd1na2vs0mg"},{"bike_id":"40395c50-3dc1-4ca4-b904-544c474ed730","system_id":"levelo_inurba_marseille","lat":43.302784,"lon":5.377158,"is_reserved":false,"is_disabled":false,"rental_uris":{"android":"levelo://app?vid=40395c50-3dc1-4ca4-b904-544c474ed730","ios":"levelo://app?vid=40395c50-3dc1-4ca4-b904-544c474ed730"},"vehicle_type_id":"4","last_reported":1716645973,"current_range_meters":16400,"station_id":"ce4bguh2rcd13ifvqcj0","pricing_plan_id":"cebpf4jnsgd1na2vs0mg"},{"bike_id":"6ce652eb-943e-4de2-954f-f1a8f23e8dbc","system_id":"levelo_inurba_marseille","lat":43.302784,"lon":5.377158,"is_reserved":false,"is_disabled":false,"rental_uris":{"android":"levelo://app?vid=6ce652eb-943e-4de2-954f-f1a8f23e8dbc","ios":"levelo://app?vid=6ce652eb-943e-4de2-954f-f1a8f23e8dbc"},"vehicle_type_id":"4","last_reported":1716645973,"current_range_meters":8000,"station_id":"ce4bguh2rcd13ifvqcj0","pricing_plan_id":"cebpf4jnsgd1na2vs0mg"},{"bike_id":"dff76c21-9951-48f8-8d72-f860a2d6dad8","system_id":"levelo_inurba_marseille","lat":43.30143,"lon":5.37413,"is_reserved":false,"is_disabled":false,"rental_uris":{"android":"levelo://app?vid=dff76c21-9951-48f8-8d72-f860a2d6dad8","ios":"levelo://app?vid=dff76c21-9951-48f8-8d72-f860a2d6dad8"},"vehicle_type_id":"4","last_reported":1716645973,"current_range_meters":1600,"station_id":"ce4bgs92rcd13ifvqcc0","pricing_plan_id":"cebpf4jnsgd1na2vs0mg"},{"bike_id":"42dda675-26fd-4d3b-a56a-7ac1e44fa74a","system_id":"levelo_inurba_marseille","lat":43.302784,"lon":5.377158,"is_reserved":false,"is_disabled":false,"rental_uris":{"android":"levelo://app?vid=42dda675-26fd-4d3b-a56a-7ac1e44fa74a","ios":"levelo://app?vid=42dda675-26fd-4d3b-a56a-7ac1e44fa74a"},"vehicle_type_id":"4","last_reported":1716645973,"current_range_meters":22000,"station_id":"ce4bguh2rcd13ifvqcj0","pricing_plan_id":"cebpf4jnsgd1na2vs0mg"},{"bike_id":"03b2d0ac-4855-463a-a2f0-be21041dc802","system_id":"levelo_inurba_marseille","lat":43.3054,"lon":5.3808,"is_reserved":false,"is_disabled":false,"rental_uris":{"android":"levelo://app?vid=03b2d0ac-4855-463a-a2f0-be21041dc802","ios":"levelo://app?vid=03b2d0ac-4855-463a-a2f0-be21041dc802"},"vehicle_type_id":"4","last_reported":1716645973,"current_range_meters":30800,"station_id":"","pricing_plan_id":"cebpf4jnsgd1na2vs0mg"},{"bike_id":"3a4bf51d-bdde-4749-af26-ad42a77ec1be","system_id":"levelo_inurba_marseille","lat":43.305334,"lon":5.380833,"is_reserved":false,"is_disabled":false,"rental_uris":{"android":"levelo://app?vid=3a4bf51d-bdde-4749-af26-ad42a77ec1be","ios":"levelo://app?vid=3a4bf51d-bdde-4749-af26-ad42a77ec1be"},"vehicle_type_id":"4","last_reported":1716645973,"current_range_meters":12400,"station_id":"","pricing_plan_id":"cebpf4jnsgd1na2vs0mg"},{"bike_id":"bb14ee93-8ea2-4ede-83b8-29bfb093bb57","system_id":"levelo_inurba_marseille","lat":43.302784,"lon":5.377158,"is_reserved":false,"is_disabled":false,"rental_uris":{"android":"levelo://app?vid=bb14ee93-8ea2-4ede-83b8-29bfb093bb57","ios":"levelo://app?vid=bb14ee93-8ea2-4ede-83b8-29bfb093bb57"},"vehicle_type_id":"4","last_reported":1716645973,"current_range_meters":4800,"station_id":"ce4bguh2rcd13ifvqcj0","pricing_plan_id":"cebpf4jnsgd1na2vs0mg"},{"bike_id":"2b2d5eea-b301-4cd7-b9a2-561e63b82a66","system_id":"levelo_inurba_marseille","lat":43.319935,"lon":5.381699,"is_reserved":false,"is_disabled":false,"rental_uris":{"android":"levelo://app?vid=2b2d5eea-b301-4cd7-b9a2-561e63b82a66","ios":"levelo://app?vid=2b2d5eea-b301-4cd7-b9a2-561e63b82a66"},"vehicle_type_id":"4","last_reported":1716645973,"current_range_meters":24400,"station_id":"ce4bhr12rcd13ifvqhpg","pricing_plan_id":"cebpf4jnsgd1na2vs0mg"},{"bike_id":"45687c4a-fa85-41f5-942e-29b6890c3c86","system_id":"levelo_inurba_marseille","lat":43.319935,"lon":5.381699,"is_reserved":false,"is_disabled":false,"rental_uris":{"android":"levelo://app?vid=45687c4a-fa85-41f5-942e-29b6890c3c86","ios":"levelo://app?vid=45687c4a-fa85-41f5-942e-29b6890c3c86"},"vehicle_type_id":"4","last_reported":1716645973,"current_range_meters":24400,"station_id":"ce4bhr12rcd13ifvqhpg","pricing_plan_id":"cebpf4jnsgd1na2vs0mg"},{"bike_id":"a2b61467-7595-41fa-9a5b-1c3e2dae5952","system_id":"levelo_inurba_marseille","lat":43.299876,"lon":5.371774,"is_reserved":false,"is_disabled":false,"rental_uris":{"android":"levelo://app?vid=a2b61467-7595-41fa-9a5b-1c3e2dae5952","ios":"levelo://app?vid=a2b61467-7595-41fa-9a5b-1c3e2dae5952"},"vehicle_type_id":"4","last_reported":1716645973,"current_range_meters":0,"station_id":"ce4bgr92rcd13ifvqc7g","pricing_plan_id":"cebpf4jnsgd1na2vs0mg"},{"bike_id":"54f95088-5624-4b5e-ac67-13174024b17a","system_id":"levelo_inurba_marseille","lat":43.299724,"lon":5.371829,"is_reserved":false,"is_disabled":false,"rental_uris":{"android":"levelo://app?vid=54f95088-5624-4b5e-ac67-13174024b17a","ios":"levelo://app?vid=54f95088-5624-4b5e-ac67-13174024b17a"},"vehicle_type_id":"4","last_reported":1716645973,"current_range_meters":18800,"station_id":"ce4bgr92rcd13ifvqc7g","pricing_plan_id":"cebpf4jnsgd1na2vs0mg"},{"bike_id":"03d3ec39-ae4c-4fce-b80f-e54be365c890","system_id":"levelo_inurba_marseille","lat":43.299724,"lon":5.371829,"is_reserved":false,"is_disabled":false,"rental_uris":{"android":"levelo://app?vid=03d3ec39-ae4c-4fce-b80f-e54be365c890","ios":"levelo://app?vid=03d3ec39-ae4c-4fce-b80f-e54be365c890"},"vehicle_type_id":"4","last_reported":1716645973,"current_range_meters":20800,"station_id":"ce4bgr92rcd13ifvqc7g","pricing_plan_id":"cebpf4jnsgd1na2vs0mg"},{"bike_id":"cd78e665-5245-4816-9e75-33086562df8a","system_id":"levelo_inurba_marseille","lat":43.299724,"lon":5.371829,"is_reserved":false,"is_disabled":false,"rental_uris":{"android":"levelo://app?vid=cd78e665-5245-4816-9e75-33086562df8a","ios":"levelo://app?vid=cd78e665-5245-4816-9e75-33086562df8a"},"vehicle_type_id":"4","last_reported":1716645973,"current_range_meters":21600,"station_id":"ce4bgr92rcd13ifvqc7g","pricing_plan_id":"cebpf4jnsgd1na2vs0mg"},{"bike_id":"7553cc78-2f49-4427-a5f9-1719704706af","system_id":"levelo_inurba_marseille","lat":43.299724,"lon":5.371829,"is_reserved":false,"is_disabled":false,"rental_uris":{"android":"levelo://app?vid=7553cc78-2f49-4427-a5f9-1719704706af","ios":"levelo://app?vid=7553cc78-2f49-4427-a5f9-1719704706af"},"vehicle_type_id":"4","last_reported":1716645973,"current_range_meters":24800,"station_id":"ce4bgr92rcd13ifvqc7g","pricing_plan_id":"cebpf4jnsgd1na2vs0mg"},{"bike_id":"22b5f3d3-752b-46b3-b8e3-8a3d7fe32933","system_id":"levelo_inurba_marseille","lat":43.298433,"lon":5.362774,"is_reserved":false,"is_disabled":false,"rental_uris":{"android":"levelo://app?vid=22b5f3d3-752b-46b3-b8e3-8a3d7fe32933","ios":"levelo://app?vid=22b5f3d3-752b-46b3-b8e3-8a3d7fe32933"},"vehicle_type_id":"4","last_reported":1716645973,"current_range_meters":8000,"station_id":"ce4bgpp2rcd13ifvqc3g","pricing_plan_id":"cebpf4jnsgd1na2vs0mg"},{"bike_id":"71dbe3d3-b4c2-4498-a77c-4bf999c50c8b","system_id":"levelo_inurba_marseille","lat":43.29854,"lon":5.36285,"is_reserved":false,"is_disabled":false,"rental_uris":{"android":"levelo://app?vid=71dbe3d3-b4c2-4498-a77c-4bf999c50c8b","ios":"levelo://app?vid=71dbe3d3-b4c2-4498-a77c-4bf999c50c8b"},"vehicle_type_id":"4","last_reported":1716645973,"current_range_meters":15200,"station_id":"","pricing_plan_id":"cebpf4jnsgd1na2vs0mg"},{"bike_id":"7d78d57e-252a-470e-9f2a-919f204599b6","system_id":"levelo_inurba_marseille","lat":43.298433,"lon":5.362774,"is_reserved":false,"is_disabled":false,"rental_uris":{"android":"levelo://app?vid=7d78d57e-252a-470e-9f2a-919f204599b6","ios":"levelo://app?vid=7d78d57e-252a-470e-9f2a-919f204599b6"},"vehicle_type_id":"4","last_reported":1716645973,"current_range_meters":7600,"station_id":"ce4bgpp2rcd13ifvqc3g","pricing_plan_id":"cebpf4jnsgd1na2vs0mg"},{"bike_id":"830f7aaf-549a-494d-90b6-0dbc7f0292be","system_id":"levelo_inurba_marseille","lat":43.298433,"lon":5.362774,"is_reserved":false,"is_disabled":false,"rental_uris":{"android":"levelo://app?vid=830f7aaf-549a-494d-90b6-0dbc7f0292be","ios":"levelo://app?vid=830f7aaf-549a-494d-90b6-0dbc7f0292be"},"vehicle_type_id":"4","last_reported":1716645973,"current_range_meters":31600,"station_id":"ce4bgpp2rcd13ifvqc3g","pricing_plan_id":"cebpf4jnsgd1na2vs0mg"},{"bike_id":"7c0279c4-785e-41cc-9875-11b1aa5697b0","system_id":"levelo_inurba_marseille","lat":43.298433,"lon":5.362774,"is_reserved":false,"is_disabled":false,"rental_uris":{"android":"levelo://app?vid=7c0279c4-785e-41cc-9875-11b1aa5697b0","ios":"levelo://app?vid=7c0279c4-785e-41cc-9875-11b1aa5697b0"},"vehicle_type_id":"4","last_reported":1716645973,"current_range_meters":21200,"station_id":"ce4bgpp2rcd13ifvqc3g","pricing_plan_id":"cebpf4jnsgd1na2vs0mg"},{"bike_id":"e303e24a-e3d3-4b5e-a97a-86f83c040c46","system_id":"levelo_inurba_marseille","lat":43.305364,"lon":5.384119,"is_reserved":false,"is_disabled":false,"rental_uris":{"android":"levelo://app?vid=e303e24a-e3d3-4b5e-a97a-86f83c040c46","ios":"levelo://app?vid=e303e24a-e3d3-4b5e-a97a-86f83c040c46"},"vehicle_type_id":"4","last_reported":1716645973,"current_range_meters":12000,"station_id":"ce4bgg92rcd13ifvqb30","pricing_plan_id":"cebpf4jnsgd1na2vs0mg"},{"bike_id":"b826b554-675c-4b9c-820a-1fde8332d9a4","system_id":"levelo_inurba_marseille","lat":43.298433,"lon":5.362774,"is_reserved":false,"is_disabled":false,"rental_uris":{"android":"levelo://app?vid=b826b554-675c-4b9c-820a-1fde8332d9a4","ios":"levelo://app?vid=b826b554-675c-4b9c-820a-1fde8332d9a4"},"vehicle_type_id":"4","last_reported":1716645973,"current_range_meters":16800,"station_id":"ce4bgpp2rcd13ifvqc3g","pricing_plan_id":"cebpf4jnsgd1na2vs0mg"},{"bike_id":"08af30f9-c5cb-47a8-9fdb-a362ed257550","system_id":"levelo_inurba_marseille","lat":43.311722,"lon":5.387247,"is_reserved":false,"is_disabled":false,"rental_uris":{"android":"levelo://app?vid=08af30f9-c5cb-47a8-9fdb-a362ed257550","ios":"levelo://app?vid=08af30f9-c5cb-47a8-9fdb-a362ed257550"},"vehicle_type_id":"4","last_reported":1716645973,"current_range_meters":19200,"station_id":"ce4bgv12rcd13ifvqcp0","pricing_plan_id":"cebpf4jnsgd1na2vs0mg"},{"bike_id":"5492cff9-d230-496b-b86e-1a9a9be6aff8","system_id":"levelo_inurba_marseille","lat":43.31167,"lon":5.38717,"is_reserved":false,"is_disabled":false,"rental_uris":{"android":"levelo://app?vid=5492cff9-d230-496b-b86e-1a9a9be6aff8","ios":"levelo://app?vid=5492cff9-d230-496b-b86e-1a9a9be6aff8"},"vehicle_type_id":"4","last_reported":1716645973,"current_range_meters":0,"station_id":"ce4bgv12rcd13ifvqcp0","pricing_plan_id":"cebpf4jnsgd1na2vs0mg"},{"bike_id":"9b42e462-57e4-40e8-9946-1cf356df2562","system_id":"levelo_inurba_marseille","lat":43.298433,"lon":5.362774,"is_reserved":false,"is_disabled":false,"rental_uris":{"android":"levelo://app?vid=9b42e462-57e4-40e8-9946-1cf356df2562","ios":"levelo://app?vid=9b42e462-57e4-40e8-9946-1cf356df2562"},"vehicle_type_id":"4","last_reported":1716645973,"current_range_meters":4800,"station_id":"ce4bgpp2rcd13ifvqc3g","pricing_plan_id":"cebpf4jnsgd1na2vs0mg"},{"bike_id":"c0a9923c-fc5e-48e0-8a60-453d00cfef18","system_id":"levelo_inurba_marseille","lat":43.311722,"lon":5.387247,"is_reserved":false,"is_disabled":false,"rental_uris":{"android":"levelo://app?vid=c0a9923c-fc5e-48e0-8a60-453d00cfef18","ios":"levelo://app?vid=c0a9923c-fc5e-48e0-8a60-453d00cfef18"},"vehicle_type_id":"4","last_reported":1716645973,"current_range_meters":8000,"station_id":"ce4bgv12rcd13ifvqcp0","pricing_plan_id":"cebpf4jnsgd1na2vs0mg"},{"bike_id":"ed492a4e-944e-43b3-bd26-4581a8e6f7a8","system_id":"levelo_inurba_marseille","lat":43.297774,"lon":5.370875,"is_reserved":false,"is_disabled":false,"rental_uris":{"android":"levelo://app?vid=ed492a4e-944e-43b3-bd26-4581a8e6f7a8","ios":"levelo://app?vid=ed492a4e-944e-43b3-bd26-4581a8e6f7a8"},"vehicle_type_id":"4","last_reported":1716645973,"current_range_meters":30000,"station_id":"ce4bgop2rcd13ifvqc1g","pricing_plan_id":"cebpf4jnsgd1na2vs0mg"},{"bike_id":"ca5f18c2-1aa0-476e-b86a-99f1532c2dfb","system_id":"levelo_inurba_marseille","lat":43.322872,"lon":5.382756,"is_reserved":false,"is_disabled":false,"rental_uris":{"android":"levelo://app?vid=ca5f18c2-1aa0-476e-b86a-99f1532c2dfb","ios":"levelo://app?vid=ca5f18c2-1aa0-476e-b86a-99f1532c2dfb"},"vehicle_type_id":"4","last_reported":1716645973,"current_range_meters":15200,"station_id":"ce4bhr12rcd13ifvqhqg","pricing_plan_id":"cebpf4jnsgd1na2vs0mg"},{"bike_id":"44991ac8-d706-4f51-9a70-e44937b720db","system_id":"levelo_inurba_marseille","lat":43.30219,"lon":5.38261,"is_reserved":false,"is_disabled":false,"rental_uris":{"android":"levelo://app?vid=44991ac8-d706-4f51-9a70-e44937b720db","ios":"levelo://app?vid=44991ac8-d706-4f51-9a70-e44937b720db"},"vehicle_type_id":"4","last_reported":1716645973,"current_range_meters":10400,"station_id":"","pricing_plan_id":"cebpf4jnsgd1na2vs0mg"},{"bike_id":"ad86cd21-15d6-40ec-a569-5e4063c4dfba","system_id":"levelo_inurba_marseille","lat":43.297163,"lon":5.365866,"is_reserved":false,"is_disabled":false,"rental_uris":{"android":"levelo://app?vid=ad86cd21-15d6-40ec-a569-5e4063c4dfba","ios":"levelo://app?vid=ad86cd21-15d6-40ec-a569-5e4063c4dfba"},"vehicle_type_id":"4","last_reported":1716645973,"current_range_meters":28000,"station_id":"ce4bgn12rcd13ifvqbt0","pricing_plan_id":"cebpf4jnsgd1na2vs0mg"},{"bike_id":"b0181dbd-d16d-4347-9382-b450da867146","system_id":"levelo_inurba_marseille","lat":43.29657,"lon":5.36162,"is_reserved":false,"is_disabled":false,"rental_uris":{"android":"levelo://app?vid=b0181dbd-d16d-4347-9382-b450da867146","ios":"levelo://app?vid=b0181dbd-d16d-4347-9382-b450da867146"},"vehicle_type_id":"4","last_reported":1716645973,"current_range_meters":8400,"station_id":"","pricing_plan_id":"cebpf4jnsgd1na2vs0mg"},{"bike_id":"825fa8d8-f677-44ea-959e-e28a76bf9c1f","system_id":"levelo_inurba_marseille","lat":43.29954,"lon":5.38095,"is_reserved":false,"is_disabled":false,"rental_uris":{"android":"levelo://app?vid=825fa8d8-f677-44ea-959e-e28a76bf9c1f","ios":"levelo://app?vid=825fa8d8-f677-44ea-959e-e28a76bf9c1f"},"vehicle_type_id":"4","last_reported":1716645973,"current_range_meters":20400,"station_id":"","pricing_plan_id":"cebpf4jnsgd1na2vs0mg"},{"bike_id":"7becf58f-937c-4d98-b0d3-2f302e9e7f4f","system_id":"levelo_inurba_marseille","lat":43.296129,"lon":5.370777,"is_reserved":false,"is_disabled":false,"rental_uris":{"android":"levelo://app?vid=7becf58f-937c-4d98-b0d3-2f302e9e7f4f","ios":"levelo://app?vid=7becf58f-937c-4d98-b0d3-2f302e9e7f4f"},"vehicle_type_id":"4","last_reported":1716645973,"current_range_meters":4800,"station_id":"ce4bgnh2rcd13ifvqc0g","pricing_plan_id":"cebpf4jnsgd1na2vs0mg"},{"bike_id":"463e643b-3587-4789-a56b-9f5db641d6a3","system_id":"levelo_inurba_marseille","lat":43.29573,"lon":5.367355,"is_reserved":false,"is_disabled":false,"rental_uris":{"android":"levelo://app?vid=463e643b-3587-4789-a56b-9f5db641d6a3","ios":"levelo://app?vid=463e643b-3587-4789-a56b-9f5db641d6a3"},"vehicle_type_id":"4","last_reported":1716645973,"current_range_meters":26400,"station_id":"ce4bgph2rcd13ifvqc2g","pricing_plan_id":"cebpf4jnsgd1na2vs0mg"},{"bike_id":"9ee8bacc-3633-44a1-895d-c2cb2672aeee","system_id":"levelo_inurba_marseille","lat":43.29573,"lon":5.367355,"is_reserved":false,"is_disabled":false,"rental_uris":{"android":"levelo://app?vid=9ee8bacc-3633-44a1-895d-c2cb2672aeee","ios":"levelo://app?vid=9ee8bacc-3633-44a1-895d-c2cb2672aeee"},"vehicle_type_id":"4","last_reported":1716645973,"current_range_meters":800,"station_id":"ce4bgph2rcd13ifvqc2g","pricing_plan_id":"cebpf4jnsgd1na2vs0mg"},{"bike_id":"2a4c89b3-4bb2-4689-a275-4c1d2847194c","system_id":"levelo_inurba_marseille","lat":43.297175,"lon":5.37633,"is_reserved":false,"is_disabled":false,"rental_uris":{"android":"levelo://app?vid=2a4c89b3-4bb2-4689-a275-4c1d2847194c","ios":"levelo://app?vid=2a4c89b3-4bb2-4689-a275-4c1d2847194c"},"vehicle_type_id":"4","last_reported":1716645973,"current_range_meters":24800,"station_id":"","pricing_plan_id":"cebpf4jnsgd1na2vs0mg"},{"bike_id":"c9baa9f1-cab1-4ecf-9abb-23bdfe387040","system_id":"levelo_inurba_marseille","lat":43.29925,"lon":5.38138,"is_reserved":false,"is_disabled":false,"rental_uris":{"android":"levelo://app?vid=c9baa9f1-cab1-4ecf-9abb-23bdfe387040","ios":"levelo://app?vid=c9baa9f1-cab1-4ecf-9abb-23bdfe387040"},"vehicle_type_id":"4","last_reported":1716645973,"current_range_meters":0,"station_id":"ce4bgj12rcd13ifvqbc0","pricing_plan_id":"cebpf4jnsgd1na2vs0mg"},{"bike_id":"27d91c75-2da3-4678-bf09-8f9cb7fe2c9f","system_id":"levelo_inurba_marseille","lat":43.299028,"lon":5.381509,"is_reserved":false,"is_disabled":false,"rental_uris":{"android":"levelo://app?vid=27d91c75-2da3-4678-bf09-8f9cb7fe2c9f","ios":"levelo://app?vid=27d91c75-2da3-4678-bf09-8f9cb7fe2c9f"},"vehicle_type_id":"4","last_reported":1716645973,"current_range_meters":0,"station_id":"ce4bgj12rcd13ifvqbc0","pricing_plan_id":"cebpf4jnsgd1na2vs0mg"},{"bike_id":"353df8bf-8f5e-49e8-abad-5fcc36b2cd39","system_id":"levelo_inurba_marseille","lat":43.296935,"lon":5.376544,"is_reserved":false,"is_disabled":false,"rental_uris":{"android":"levelo://app?vid=353df8bf-8f5e-49e8-abad-5fcc36b2cd39","ios":"levelo://app?vid=353df8bf-8f5e-49e8-abad-5fcc36b2cd39"},"vehicle_type_id":"4","last_reported":1716645973,"current_range_meters":800,"station_id":"ce4bgkh2rcd13ifvqbl0","pricing_plan_id":"cebpf4jnsgd1na2vs0mg"},{"bike_id":"844045e4-7a6f-4c48-a0d7-4ba003816ba1","system_id":"levelo_inurba_marseille","lat":43.309589,"lon":5.390258,"is_reserved":false,"is_disabled":false,"rental_uris":{"android":"levelo://app?vid=844045e4-7a6f-4c48-a0d7-4ba003816ba1","ios":"levelo://app?vid=844045e4-7a6f-4c48-a0d7-4ba003816ba1"},"vehicle_type_id":"4","last_reported":1716645973,"current_range_meters":21600,"station_id":"ce4bgup2rcd13ifvqco0","pricing_plan_id":"cebpf4jnsgd1na2vs0mg"},{"bike_id":"faa695b9-1c9c-4820-afc1-da1ddd9fd661","system_id":"levelo_inurba_marseille","lat":43.299028,"lon":5.381509,"is_reserved":false,"is_disabled":false,"rental_uris":{"android":"levelo://app?vid=faa695b9-1c9c-4820-afc1-da1ddd9fd661","ios":"levelo://app?vid=faa695b9-1c9c-4820-afc1-da1ddd9fd661"},"vehicle_type_id":"4","last_reported":1716645973,"current_range_meters":18800,"station_id":"ce4bgj12rcd13ifvqbc0","pricing_plan_id":"cebpf4jnsgd1na2vs0mg"},{"bike_id":"6b0b7bd0-9128-41aa-b67c-b02531528f10","system_id":"levelo_inurba_marseille","lat":43.296921,"lon":5.376579,"is_reserved":false,"is_disabled":false,"rental_uris":{"android":"levelo://app?vid=6b0b7bd0-9128-41aa-b67c-b02531528f10","ios":"levelo://app?vid=6b0b7bd0-9128-41aa-b67c-b02531528f10"},"vehicle_type_id":"4","last_reported":1716645973,"current_range_meters":13200,"station_id":"ce4bgkh2rcd13ifvqbl0","pricing_plan_id":"cebpf4jnsgd1na2vs0mg"},{"bike_id":"b7c9cafa-3555-4d28-9808-6928e6b641ad","system_id":"levelo_inurba_marseille","lat":43.309589,"lon":5.390258,"is_reserved":false,"is_disabled":false,"rental_uris":{"android":"levelo://app?vid=b7c9cafa-3555-4d28-9808-6928e6b641ad","ios":"levelo://app?vid=b7c9cafa-3555-4d28-9808-6928e6b641ad"},"vehicle_type_id":"4","last_reported":1716645973,"current_range_meters":11600,"station_id":"ce4bgup2rcd13ifvqco0","pricing_plan_id":"cebpf4jnsgd1na2vs0mg"},{"bike_id":"2e3f0ee3-6ab6-4e31-893e-b77a2899d1e0","system_id":"levelo_inurba_marseille","lat":43.298069,"lon":5.380901,"is_reserved":false,"is_disabled":false,"rental_uris":{"android":"levelo://app?vid=2e3f0ee3-6ab6-4e31-893e-b77a2899d1e0","ios":"levelo://app?vid=2e3f0ee3-6ab6-4e31-893e-b77a2899d1e0"},"vehicle_type_id":"4","last_reported":1716645973,"current_range_meters":0,"station_id":"","pricing_plan_id":"cebpf4jnsgd1na2vs0mg"},{"bike_id":"36619755-331f-42a8-b0d1-2e32fc590fc0","system_id":"levelo_inurba_marseille","lat":43.298037,"lon":5.381066,"is_reserved":false,"is_disabled":false,"rental_uris":{"android":"levelo://app?vid=36619755-331f-42a8-b0d1-2e32fc590fc0","ios":"levelo://app?vid=36619755-331f-42a8-b0d1-2e32fc590fc0"},"vehicle_type_id":"4","last_reported":1716645973,"current_range_meters":16800,"station_id":"ce4bgip2rcd13ifvqbb0","pricing_plan_id":"cebpf4jnsgd1na2vs0mg"},{"bike_id":"c0bdeff7-9a28-4a44-a572-b72def2b06b2","system_id":"levelo_inurba_marseille","lat":43.295748,"lon":5.37522,"is_reserved":false,"is_disabled":false,"rental_uris":{"android":"levelo://app?vid=c0bdeff7-9a28-4a44-a572-b72def2b06b2","ios":"levelo://app?vid=c0bdeff7-9a28-4a44-a572-b72def2b06b2"},"vehicle_type_id":"4","last_reported":1716645973,"current_range_meters":14000,"station_id":"ce4bgh92rcd13ifvqb50","pricing_plan_id":"cebpf4jnsgd1na2vs0mg"},{"bike_id":"f0c5c1dc-791b-42d3-8707-9a303aff055b","system_id":"levelo_inurba_marseille","lat":43.295748,"lon":5.37522,"is_reserved":false,"is_disabled":false,"rental_uris":{"android":"levelo://app?vid=f0c5c1dc-791b-42d3-8707-9a303aff055b","ios":"levelo://app?vid=f0c5c1dc-791b-42d3-8707-9a303aff055b"},"vehicle_type_id":"4","last_reported":1716645973,"current_range_meters":0,"station_id":"ce4bgh92rcd13ifvqb50","pricing_plan_id":"cebpf4jnsgd1na2vs0mg"},{"bike_id":"56200923-9924-40f0-b96e-73c515758b7e","system_id":"levelo_inurba_marseille","lat":43.296277,"lon":5.377108,"is_reserved":false,"is_disabled":false,"rental_uris":{"android":"levelo://app?vid=56200923-9924-40f0-b96e-73c515758b7e","ios":"levelo://app?vid=56200923-9924-40f0-b96e-73c515758b7e"},"vehicle_type_id":"4","last_reported":1716645973,"current_range_meters":21200,"station_id":"ce4bgi92rcd13ifvqb90","pricing_plan_id":"cebpf4jnsgd1na2vs0mg"},{"bike_id":"d014cf3e-048b-41f0-8f75-4b7171a47831","system_id":"levelo_inurba_marseille","lat":43.299724,"lon":5.384848,"is_reserved":false,"is_disabled":false,"rental_uris":{"android":"levelo://app?vid=d014cf3e-048b-41f0-8f75-4b7171a47831","ios":"levelo://app?vid=d014cf3e-048b-41f0-8f75-4b7171a47831"},"vehicle_type_id":"4","last_reported":1716645973,"current_range_meters":31600,"station_id":"ce4bgj92rcd13ifvqbd0","pricing_plan_id":"cebpf4jnsgd1na2vs0mg"},{"bike_id":"7cc0e144-b1a3-4318-9f18-50f1a5b02e37","system_id":"levelo_inurba_marseille","lat":43.299707,"lon":5.384859,"is_reserved":false,"is_disabled":false,"rental_uris":{"android":"levelo://app?vid=7cc0e144-b1a3-4318-9f18-50f1a5b02e37","ios":"levelo://app?vid=7cc0e144-b1a3-4318-9f18-50f1a5b02e37"},"vehicle_type_id":"4","last_reported":1716645973,"current_range_meters":0,"station_id":"ce4bgj92rcd13ifvqbd0","pricing_plan_id":"cebpf4jnsgd1na2vs0mg"},{"bike_id":"ea5c8d42-c861-4802-a2ac-9f57d3bd183f","system_id":"levelo_inurba_marseille","lat":43.29977,"lon":5.38495,"is_reserved":false,"is_disabled":false,"rental_uris":{"android":"levelo://app?vid=ea5c8d42-c861-4802-a2ac-9f57d3bd183f","ios":"levelo://app?vid=ea5c8d42-c861-4802-a2ac-9f57d3bd183f"},"vehicle_type_id":"4","last_reported":1716645973,"current_range_meters":31200,"station_id":"ce4bgj92rcd13ifvqbd0","pricing_plan_id":"cebpf4jnsgd1na2vs0mg"},{"bike_id":"250bc539-eda2-438f-a180-353de3610af8","system_id":"levelo_inurba_marseille","lat":43.299724,"lon":5.384848,"is_reserved":false,"is_disabled":false,"rental_uris":{"android":"levelo://app?vid=250bc539-eda2-438f-a180-353de3610af8","ios":"levelo://app?vid=250bc539-eda2-438f-a180-353de3610af8"},"vehicle_type_id":"4","last_reported":1716645973,"current_range_meters":8800,"station_id":"ce4bgj92rcd13ifvqbd0","pricing_plan_id":"cebpf4jnsgd1na2vs0mg"},{"bike_id":"eb40704c-bf51-425c-9cf5-5b874d21d897","system_id":"levelo_inurba_marseille","lat":43.299717,"lon":5.384845,"is_reserved":false,"is_disabled":false,"rental_uris":{"android":"levelo://app?vid=eb40704c-bf51-425c-9cf5-5b874d21d897","ios":"levelo://app?vid=eb40704c-bf51-425c-9cf5-5b874d21d897"},"vehicle_type_id":"4","last_reported":1716645973,"current_range_meters":28000,"station_id":"ce4bgj92rcd13ifvqbd0","pricing_plan_id":"cebpf4jnsgd1na2vs0mg"},{"bike_id":"78252e3e-8eff-4ccb-a142-6526e4cc39f4","system_id":"levelo_inurba_marseille","lat":43.30089,"lon":5.38729,"is_reserved":false,"is_disabled":false,"rental_uris":{"android":"levelo://app?vid=78252e3e-8eff-4ccb-a142-6526e4cc39f4","ios":"levelo://app?vid=78252e3e-8eff-4ccb-a142-6526e4cc39f4"},"vehicle_type_id":"4","last_reported":1716645973,"current_range_meters":400,"station_id":"","pricing_plan_id":"cebpf4jnsgd1na2vs0mg"},{"bike_id":"c692fd75-9972-42e1-92a8-4ac7cce47a41","system_id":"levelo_inurba_marseille","lat":43.299243,"lon":5.37481,"is_reserved":false,"is_disabled":false,"rental_uris":{"android":"levelo://app?vid=c692fd75-9972-42e1-92a8-4ac7cce47a41","ios":"levelo://app?vid=c692fd75-9972-42e1-92a8-4ac7cce47a41"},"vehicle_type_id":"4","last_reported":1716645973,"current_range_meters":11600,"station_id":"ce4bgjh2rcd13ifvqbg0","pricing_plan_id":"cebpf4jnsgd1na2vs0mg"},{"bike_id":"f3dced67-a362-445e-9c52-c2220eb72b5c","system_id":"levelo_inurba_marseille","lat":43.29602,"lon":5.381084,"is_reserved":false,"is_disabled":false,"rental_uris":{"android":"levelo://app?vid=f3dced67-a362-445e-9c52-c2220eb72b5c","ios":"levelo://app?vid=f3dced67-a362-445e-9c52-c2220eb72b5c"},"vehicle_type_id":"4","last_reported":1716645973,"current_range_meters":0,"station_id":"ce4bgl12rcd13ifvqbo0","pricing_plan_id":"cebpf4jnsgd1na2vs0mg"},{"bike_id":"6f133366-341d-45f5-994d-e505122d7348","system_id":"levelo_inurba_marseille","lat":43.293351,"lon":5.370943,"is_reserved":false,"is_disabled":false,"rental_uris":{"android":"levelo://app?vid=6f133366-341d-45f5-994d-e505122d7348","ios":"levelo://app?vid=6f133366-341d-45f5-994d-e505122d7348"},"vehicle_type_id":"4","last_reported":1716645973,"current_range_meters":25600,"station_id":"","pricing_plan_id":"cebpf4jnsgd1na2vs0mg"},{"bike_id":"0170bbc2-0a9c-4ba9-a03d-39b71f87a27a","system_id":"levelo_inurba_marseille","lat":43.30208,"lon":5.38995,"is_reserved":false,"is_disabled":false,"rental_uris":{"android":"levelo://app?vid=0170bbc2-0a9c-4ba9-a03d-39b71f87a27a","ios":"levelo://app?vid=0170bbc2-0a9c-4ba9-a03d-39b71f87a27a"},"vehicle_type_id":"4","last_reported":1716645973,"current_range_meters":9600,"station_id":"","pricing_plan_id":"cebpf4jnsgd1na2vs0mg"},{"bike_id":"f079bd72-3fb2-4b78-aee3-f6a3f361f734","system_id":"levelo_inurba_marseille","lat":43.293259,"lon":5.371586,"is_reserved":false,"is_disabled":false,"rental_uris":{"android":"levelo://app?vid=f079bd72-3fb2-4b78-aee3-f6a3f361f734","ios":"levelo://app?vid=f079bd72-3fb2-4b78-aee3-f6a3f361f734"},"vehicle_type_id":"4","last_reported":1716645973,"current_range_meters":28400,"station_id":"ce4bgh92rcd13ifvqb40","pricing_plan_id":"cebpf4jnsgd1na2vs0mg"},{"bike_id":"0872d7ed-783c-4157-a51d-d07e835d48da","system_id":"levelo_inurba_marseille","lat":43.292749,"lon":5.368402,"is_reserved":false,"is_disabled":false,"rental_uris":{"android":"levelo://app?vid=0872d7ed-783c-4157-a51d-d07e835d48da","ios":"levelo://app?vid=0872d7ed-783c-4157-a51d-d07e835d48da"},"vehicle_type_id":"4","last_reported":1716645973,"current_range_meters":6000,"station_id":"ce4bhbp2rcd13ifvqesg","pricing_plan_id":"cebpf4jnsgd1na2vs0mg"},{"bike_id":"49f43004-2ce9-4399-8b26-4d6358e6bd4a","system_id":"levelo_inurba_marseille","lat":43.292749,"lon":5.368402,"is_reserved":false,"is_disabled":false,"rental_uris":{"android":"levelo://app?vid=49f43004-2ce9-4399-8b26-4d6358e6bd4a","ios":"levelo://app?vid=49f43004-2ce9-4399-8b26-4d6358e6bd4a"},"vehicle_type_id":"4","last_reported":1716645973,"current_range_meters":23600,"station_id":"ce4bhbp2rcd13ifvqesg","pricing_plan_id":"cebpf4jnsgd1na2vs0mg"},{"bike_id":"f37e743f-5ecd-4859-9db9-a951c1875eff","system_id":"levelo_inurba_marseille","lat":43.292749,"lon":5.368402,"is_reserved":false,"is_disabled":false,"rental_uris":{"android":"levelo://app?vid=f37e743f-5ecd-4859-9db9-a951c1875eff","ios":"levelo://app?vid=f37e743f-5ecd-4859-9db9-a951c1875eff"},"vehicle_type_id":"4","last_reported":1716645973,"current_range_meters":30400,"station_id":"ce4bhbp2rcd13ifvqesg","pricing_plan_id":"cebpf4jnsgd1na2vs0mg"},{"bike_id":"7a7fe71e-6386-4b5c-a711-1f1377342972","system_id":"levelo_inurba_marseille","lat":43.292749,"lon":5.368402,"is_reserved":false,"is_disabled":false,"rental_uris":{"android":"levelo://app?vid=7a7fe71e-6386-4b5c-a711-1f1377342972","ios":"levelo://app?vid=7a7fe71e-6386-4b5c-a711-1f1377342972"},"vehicle_type_id":"4","last_reported":1716645973,"current_range_meters":24800,"station_id":"ce4bhbp2rcd13ifvqesg","pricing_plan_id":"cebpf4jnsgd1na2vs0mg"},{"bike_id":"18b6f561-0e88-4e19-89f4-28d61916506b","system_id":"levelo_inurba_marseille","lat":43.292749,"lon":5.368402,"is_reserved":false,"is_disabled":false,"rental_uris":{"android":"levelo://app?vid=18b6f561-0e88-4e19-89f4-28d61916506b","ios":"levelo://app?vid=18b6f561-0e88-4e19-89f4-28d61916506b"},"vehicle_type_id":"4","last_reported":1716645973,"current_range_meters":31200,"station_id":"ce4bhbp2rcd13ifvqesg","pricing_plan_id":"cebpf4jnsgd1na2vs0mg"},{"bike_id":"0b76e036-7734-49e8-9917-8cce4b84e921","system_id":"levelo_inurba_marseille","lat":43.30085,"lon":5.390856,"is_reserved":false,"is_disabled":false,"rental_uris":{"android":"levelo://app?vid=0b76e036-7734-49e8-9917-8cce4b84e921","ios":"levelo://app?vid=0b76e036-7734-49e8-9917-8cce4b84e921"},"vehicle_type_id":"4","last_reported":1716645973,"current_range_meters":2400,"station_id":"ce4bh192rcd13ifvqdb0","pricing_plan_id":"cebpf4jnsgd1na2vs0mg"},{"bike_id":"7946e05b-3c09-4875-99a2-4e7f526c6e83","system_id":"levelo_inurba_marseille","lat":43.303002,"lon":5.392142,"is_reserved":false,"is_disabled":false,"rental_uris":{"android":"levelo://app?vid=7946e05b-3c09-4875-99a2-4e7f526c6e83","ios":"levelo://app?vid=7946e05b-3c09-4875-99a2-4e7f526c6e83"},"vehicle_type_id":"4","last_reported":1716645973,"current_range_meters":0,"station_id":"ce4bgkh2rcd13ifvqbk0","pricing_plan_id":"cebpf4jnsgd1na2vs0mg"},{"bike_id":"ec89140c-7a2c-4d66-bfc9-c61f4cc5fff3","system_id":"levelo_inurba_marseille","lat":43.303002,"lon":5.392142,"is_reserved":false,"is_disabled":false,"rental_uris":{"android":"levelo://app?vid=ec89140c-7a2c-4d66-bfc9-c61f4cc5fff3","ios":"levelo://app?vid=ec89140c-7a2c-4d66-bfc9-c61f4cc5fff3"},"vehicle_type_id":"4","last_reported":1716645973,"current_range_meters":12800,"station_id":"ce4bgkh2rcd13ifvqbk0","pricing_plan_id":"cebpf4jnsgd1na2vs0mg"},{"bike_id":"1992649b-04f7-49f3-a8a4-9fc485b94b26","system_id":"levelo_inurba_marseille","lat":43.2936,"lon":5.37835,"is_reserved":false,"is_disabled":false,"rental_uris":{"android":"levelo://app?vid=1992649b-04f7-49f3-a8a4-9fc485b94b26","ios":"levelo://app?vid=1992649b-04f7-49f3-a8a4-9fc485b94b26"},"vehicle_type_id":"4","last_reported":1716645973,"current_range_meters":1600,"station_id":"ce4bgjh2rcd13ifvqbf0","pricing_plan_id":"cebpf4jnsgd1na2vs0mg"},{"bike_id":"9b953d2a-5f3c-407c-96b5-d3f54e53fa62","system_id":"levelo_inurba_marseille","lat":43.2936,"lon":5.37835,"is_reserved":false,"is_disabled":false,"rental_uris":{"android":"levelo://app?vid=9b953d2a-5f3c-407c-96b5-d3f54e53fa62","ios":"levelo://app?vid=9b953d2a-5f3c-407c-96b5-d3f54e53fa62"},"vehicle_type_id":"4","last_reported":1716645973,"current_range_meters":0,"station_id":"ce4bgjh2rcd13ifvqbf0","pricing_plan_id":"cebpf4jnsgd1na2vs0mg"},{"bike_id":"9170e836-dcab-4741-ab4e-4f4db77b6bc1","system_id":"levelo_inurba_marseille","lat":43.2936,"lon":5.37835,"is_reserved":false,"is_disabled":false,"rental_uris":{"android":"levelo://app?vid=9170e836-dcab-4741-ab4e-4f4db77b6bc1","ios":"levelo://app?vid=9170e836-dcab-4741-ab4e-4f4db77b6bc1"},"vehicle_type_id":"4","last_reported":1716645973,"current_range_meters":0,"station_id":"ce4bgjh2rcd13ifvqbf0","pricing_plan_id":"cebpf4jnsgd1na2vs0mg"},{"bike_id":"bb7d1909-fc6e-41b6-a7a3-0d28422b3d55","system_id":"levelo_inurba_marseille","lat":43.273125,"lon":5.390731,"is_reserved":false,"is_disabled":false,"rental_uris":{"android":"levelo://app?vid=bb7d1909-fc6e-41b6-a7a3-0d28422b3d55","ios":"levelo://app?vid=bb7d1909-fc6e-41b6-a7a3-0d28422b3d55"},"vehicle_type_id":"4","last_reported":1716645973,"current_range_meters":10400,"station_id":"ce4bhgp2rcd13ifvqfe0","pricing_plan_id":"cebpf4jnsgd1na2vs0mg"},{"bike_id":"00bb7bef-6365-44af-8d27-03bbd6588a6f","system_id":"levelo_inurba_marseille","lat":43.305706,"lon":5.365654,"is_reserved":false,"is_disabled":false,"rental_uris":{"android":"levelo://app?vid=00bb7bef-6365-44af-8d27-03bbd6588a6f","ios":"levelo://app?vid=00bb7bef-6365-44af-8d27-03bbd6588a6f"},"vehicle_type_id":"4","last_reported":1716645973,"current_range_meters":26000,"station_id":"ce4bgs12rcd13ifvqcag","pricing_plan_id":"cebpf4jnsgd1na2vs0mg"},{"bike_id":"595f8830-cbbe-4741-af30-ce38dfae038d","system_id":"levelo_inurba_marseille","lat":43.30085,"lon":5.390856,"is_reserved":false,"is_disabled":false,"rental_uris":{"android":"levelo://app?vid=595f8830-cbbe-4741-af30-ce38dfae038d","ios":"levelo://app?vid=595f8830-cbbe-4741-af30-ce38dfae038d"},"vehicle_type_id":"4","last_reported":1716645973,"current_range_meters":27600,"station_id":"ce4bh192rcd13ifvqdb0","pricing_plan_id":"cebpf4jnsgd1na2vs0mg"},{"bike_id":"fc704c93-d5e3-43f4-bf6a-0525010331b3","system_id":"levelo_inurba_marseille","lat":43.313291,"lon":5.396838,"is_reserved":false,"is_disabled":false,"rental_uris":{"android":"levelo://app?vid=fc704c93-d5e3-43f4-bf6a-0525010331b3","ios":"levelo://app?vid=fc704c93-d5e3-43f4-bf6a-0525010331b3"},"vehicle_type_id":"4","last_reported":1716645973,"current_range_meters":15600,"station_id":"ce4bgvp2rcd13ifvqcu0","pricing_plan_id":"cebpf4jnsgd1na2vs0mg"},{"bike_id":"184ce97c-834d-4577-ba54-42572dd87fdd","system_id":"levelo_inurba_marseille","lat":43.291994,"lon":5.357886,"is_reserved":false,"is_disabled":false,"rental_uris":{"android":"levelo://app?vid=184ce97c-834d-4577-ba54-42572dd87fdd","ios":"levelo://app?vid=184ce97c-834d-4577-ba54-42572dd87fdd"},"vehicle_type_id":"4","last_reported":1716645973,"current_range_meters":22800,"station_id":"ce4bhb12rcd13ifvqel0","pricing_plan_id":"cebpf4jnsgd1na2vs0mg"},{"bike_id":"08c6efd0-6aa7-4bb1-89b8-cb3362c847bf","system_id":"levelo_inurba_marseille","lat":43.290779,"lon":5.371482,"is_reserved":false,"is_disabled":false,"rental_uris":{"android":"levelo://app?vid=08c6efd0-6aa7-4bb1-89b8-cb3362c847bf","ios":"levelo://app?vid=08c6efd0-6aa7-4bb1-89b8-cb3362c847bf"},"vehicle_type_id":"4","last_reported":1716645973,"current_range_meters":0,"station_id":"ce4bh5p2rcd13ifvqe4g","pricing_plan_id":"cebpf4jnsgd1na2vs0mg"},{"bike_id":"3596df5d-13f9-492a-b187-4f7c90812b00","system_id":"levelo_inurba_marseille","lat":43.290779,"lon":5.371482,"is_reserved":false,"is_disabled":false,"rental_uris":{"android":"levelo://app?vid=3596df5d-13f9-492a-b187-4f7c90812b00","ios":"levelo://app?vid=3596df5d-13f9-492a-b187-4f7c90812b00"},"vehicle_type_id":"4","last_reported":1716645973,"current_range_meters":13200,"station_id":"ce4bh5p2rcd13ifvqe4g","pricing_plan_id":"cebpf4jnsgd1na2vs0mg"},{"bike_id":"06511c26-1161-458d-b957-e3dfbd922b12","system_id":"levelo_inurba_marseille","lat":43.290779,"lon":5.371482,"is_reserved":false,"is_disabled":false,"rental_uris":{"android":"levelo://app?vid=06511c26-1161-458d-b957-e3dfbd922b12","ios":"levelo://app?vid=06511c26-1161-458d-b957-e3dfbd922b12"},"vehicle_type_id":"4","last_reported":1716645973,"current_range_meters":0,"station_id":"ce4bh5p2rcd13ifvqe4g","pricing_plan_id":"cebpf4jnsgd1na2vs0mg"},{"bike_id":"a1d3b0d3-0769-4661-93e1-61afea54a04b","system_id":"levelo_inurba_marseille","lat":43.316828,"lon":5.404723,"is_reserved":false,"is_disabled":false,"rental_uris":{"android":"levelo://app?vid=a1d3b0d3-0769-4661-93e1-61afea54a04b","ios":"levelo://app?vid=a1d3b0d3-0769-4661-93e1-61afea54a04b"},"vehicle_type_id":"4","last_reported":1716645973,"current_range_meters":30800,"station_id":"ce4bh012rcd13ifvqd00","pricing_plan_id":"cebpf4jnsgd1na2vs0mg"},{"bike_id":"01e7a9a9-57a3-453c-924b-f75154546ee8","system_id":"levelo_inurba_marseille","lat":43.294153,"lon":5.386305,"is_reserved":false,"is_disabled":false,"rental_uris":{"android":"levelo://app?vid=01e7a9a9-57a3-453c-924b-f75154546ee8","ios":"levelo://app?vid=01e7a9a9-57a3-453c-924b-f75154546ee8"},"vehicle_type_id":"4","last_reported":1716645973,"current_range_meters":0,"station_id":"ce4bh2h2rcd13ifvqdh0","pricing_plan_id":"cebpf4jnsgd1na2vs0mg"},{"bike_id":"c47a1089-b327-4352-8582-f9d41bfa56a2","system_id":"levelo_inurba_marseille","lat":43.289184,"lon":5.366408,"is_reserved":false,"is_disabled":false,"rental_uris":{"android":"levelo://app?vid=c47a1089-b327-4352-8582-f9d41bfa56a2","ios":"levelo://app?vid=c47a1089-b327-4352-8582-f9d41bfa56a2"},"vehicle_type_id":"4","last_reported":1716645973,"current_range_meters":0,"station_id":"ce4bhap2rcd13ifvqek0","pricing_plan_id":"cebpf4jnsgd1na2vs0mg"},{"bike_id":"822d6f18-e2b9-4a9b-aedb-daec16771cfb","system_id":"levelo_inurba_marseille","lat":43.289468,"lon":5.363719,"is_reserved":false,"is_disabled":false,"rental_uris":{"android":"levelo://app?vid=822d6f18-e2b9-4a9b-aedb-daec16771cfb","ios":"levelo://app?vid=822d6f18-e2b9-4a9b-aedb-daec16771cfb"},"vehicle_type_id":"4","last_reported":1716645973,"current_range_meters":20000,"station_id":"ce4bhc92rcd13ifvqetg","pricing_plan_id":"cebpf4jnsgd1na2vs0mg"},{"bike_id":"9de63066-3990-4e31-a057-4f0291028b3f","system_id":"levelo_inurba_marseille","lat":43.289184,"lon":5.366408,"is_reserved":false,"is_disabled":false,"rental_uris":{"android":"levelo://app?vid=9de63066-3990-4e31-a057-4f0291028b3f","ios":"levelo://app?vid=9de63066-3990-4e31-a057-4f0291028b3f"},"vehicle_type_id":"4","last_reported":1716645973,"current_range_meters":30800,"station_id":"ce4bhap2rcd13ifvqek0","pricing_plan_id":"cebpf4jnsgd1na2vs0mg"},{"bike_id":"f9b80a94-9b1a-4bbf-8081-5a332857877a","system_id":"levelo_inurba_marseille","lat":43.289468,"lon":5.363719,"is_reserved":false,"is_disabled":false,"rental_uris":{"android":"levelo://app?vid=f9b80a94-9b1a-4bbf-8081-5a332857877a","ios":"levelo://app?vid=f9b80a94-9b1a-4bbf-8081-5a332857877a"},"vehicle_type_id":"4","last_reported":1716645973,"current_range_meters":1200,"station_id":"ce4bhc92rcd13ifvqetg","pricing_plan_id":"cebpf4jnsgd1na2vs0mg"},{"bike_id":"342a58a5-4ca2-427f-bae5-f1b1e33ed51b","system_id":"levelo_inurba_marseille","lat":43.289468,"lon":5.363719,"is_reserved":false,"is_disabled":false,"rental_uris":{"android":"levelo://app?vid=342a58a5-4ca2-427f-bae5-f1b1e33ed51b","ios":"levelo://app?vid=342a58a5-4ca2-427f-bae5-f1b1e33ed51b"},"vehicle_type_id":"4","last_reported":1716645973,"current_range_meters":26800,"station_id":"ce4bhc92rcd13ifvqetg","pricing_plan_id":"cebpf4jnsgd1na2vs0mg"},{"bike_id":"064df994-c524-4d79-8f38-938a283226d3","system_id":"levelo_inurba_marseille","lat":43.289468,"lon":5.363719,"is_reserved":false,"is_disabled":false,"rental_uris":{"android":"levelo://app?vid=064df994-c524-4d79-8f38-938a283226d3","ios":"levelo://app?vid=064df994-c524-4d79-8f38-938a283226d3"},"vehicle_type_id":"4","last_reported":1716645973,"current_range_meters":0,"station_id":"ce4bhc92rcd13ifvqetg","pricing_plan_id":"cebpf4jnsgd1na2vs0mg"},{"bike_id":"9378baa5-f3fa-43e5-b005-1205996e9a8c","system_id":"levelo_inurba_marseille","lat":43.28924,"lon":5.36693,"is_reserved":false,"is_disabled":false,"rental_uris":{"android":"levelo://app?vid=9378baa5-f3fa-43e5-b005-1205996e9a8c","ios":"levelo://app?vid=9378baa5-f3fa-43e5-b005-1205996e9a8c"},"vehicle_type_id":"4","last_reported":1716645973,"current_range_meters":4400,"station_id":"ce4bhap2rcd13ifvqek0","pricing_plan_id":"cebpf4jnsgd1na2vs0mg"},{"bike_id":"ea24d51c-5696-4e82-a445-d80560d5a4e8","system_id":"levelo_inurba_marseille","lat":43.289298,"lon":5.363982,"is_reserved":false,"is_disabled":false,"rental_uris":{"android":"levelo://app?vid=ea24d51c-5696-4e82-a445-d80560d5a4e8","ios":"levelo://app?vid=ea24d51c-5696-4e82-a445-d80560d5a4e8"},"vehicle_type_id":"4","last_reported":1716645973,"current_range_meters":0,"station_id":"ce4bhc92rcd13ifvqetg","pricing_plan_id":"cebpf4jnsgd1na2vs0mg"},{"bike_id":"0f9fff76-192f-494e-8f9c-82917c1b7ae2","system_id":"levelo_inurba_marseille","lat":43.292642,"lon":5.384254,"is_reserved":false,"is_disabled":false,"rental_uris":{"android":"levelo://app?vid=0f9fff76-192f-494e-8f9c-82917c1b7ae2","ios":"levelo://app?vid=0f9fff76-192f-494e-8f9c-82917c1b7ae2"},"vehicle_type_id":"4","last_reported":1716645973,"current_range_meters":20000,"station_id":"ce4bh692rcd13ifvqea0","pricing_plan_id":"cebpf4jnsgd1na2vs0mg"},{"bike_id":"36c078ff-4d64-4fc5-b5bd-9d8d56d43655","system_id":"levelo_inurba_marseille","lat":43.290104,"lon":5.356111,"is_reserved":false,"is_disabled":false,"rental_uris":{"android":"levelo://app?vid=36c078ff-4d64-4fc5-b5bd-9d8d56d43655","ios":"levelo://app?vid=36c078ff-4d64-4fc5-b5bd-9d8d56d43655"},"vehicle_type_id":"4","last_reported":1716645973,"current_range_meters":11600,"station_id":"ce4bhb92rcd13ifvqen0","pricing_plan_id":"cebpf4jnsgd1na2vs0mg"},{"bike_id":"b551d8ef-24c2-4a8e-b11e-3cdf7cdb34cf","system_id":"levelo_inurba_marseille","lat":43.290104,"lon":5.356111,"is_reserved":false,"is_disabled":false,"rental_uris":{"android":"levelo://app?vid=b551d8ef-24c2-4a8e-b11e-3cdf7cdb34cf","ios":"levelo://app?vid=b551d8ef-24c2-4a8e-b11e-3cdf7cdb34cf"},"vehicle_type_id":"4","last_reported":1716645973,"current_range_meters":19200,"station_id":"ce4bhb92rcd13ifvqen0","pricing_plan_id":"cebpf4jnsgd1na2vs0mg"},{"bike_id":"e4cc28eb-9f26-47f6-9b56-eb078e651547","system_id":"levelo_inurba_marseille","lat":43.288716,"lon":5.366621,"is_reserved":false,"is_disabled":false,"rental_uris":{"android":"levelo://app?vid=e4cc28eb-9f26-47f6-9b56-eb078e651547","ios":"levelo://app?vid=e4cc28eb-9f26-47f6-9b56-eb078e651547"},"vehicle_type_id":"4","last_reported":1716645973,"current_range_meters":9600,"station_id":"","pricing_plan_id":"cebpf4jnsgd1na2vs0mg"},{"bike_id":"0cc39d87-5bc0-4130-b475-9970607d1dec","system_id":"levelo_inurba_marseille","lat":43.290104,"lon":5.356111,"is_reserved":false,"is_disabled":false,"rental_uris":{"android":"levelo://app?vid=0cc39d87-5bc0-4130-b475-9970607d1dec","ios":"levelo://app?vid=0cc39d87-5bc0-4130-b475-9970607d1dec"},"vehicle_type_id":"4","last_reported":1716645973,"current_range_meters":0,"station_id":"ce4bhb92rcd13ifvqen0","pricing_plan_id":"cebpf4jnsgd1na2vs0mg"},{"bike_id":"bda25632-abcf-404a-a201-fd592f0519e7","system_id":"levelo_inurba_marseille","lat":43.295169,"lon":5.390426,"is_reserved":false,"is_disabled":false,"rental_uris":{"android":"levelo://app?vid=bda25632-abcf-404a-a201-fd592f0519e7","ios":"levelo://app?vid=bda25632-abcf-404a-a201-fd592f0519e7"},"vehicle_type_id":"4","last_reported":1716645973,"current_range_meters":2800,"station_id":"ce4bh3p2rcd13ifvqdp0","pricing_plan_id":"cebpf4jnsgd1na2vs0mg"},{"bike_id":"7b897ec6-c35a-405e-990f-94957d9e0c59","system_id":"levelo_inurba_marseille","lat":43.295169,"lon":5.390426,"is_reserved":false,"is_disabled":false,"rental_uris":{"android":"levelo://app?vid=7b897ec6-c35a-405e-990f-94957d9e0c59","ios":"levelo://app?vid=7b897ec6-c35a-405e-990f-94957d9e0c59"},"vehicle_type_id":"4","last_reported":1716645973,"current_range_meters":0,"station_id":"ce4bh3p2rcd13ifvqdp0","pricing_plan_id":"cebpf4jnsgd1na2vs0mg"},{"bike_id":"02d4a8ad-a24c-4eac-9775-06d0ccf4b3c5","system_id":"levelo_inurba_marseille","lat":43.33028,"lon":5.39045,"is_reserved":false,"is_disabled":false,"rental_uris":{"android":"levelo://app?vid=02d4a8ad-a24c-4eac-9775-06d0ccf4b3c5","ios":"levelo://app?vid=02d4a8ad-a24c-4eac-9775-06d0ccf4b3c5"},"vehicle_type_id":"4","last_reported":1716645973,"current_range_meters":12400,"station_id":"ce4bhr92rcd13ifvqhrg","pricing_plan_id":"cebpf4jnsgd1na2vs0mg"},{"bike_id":"ba7bba16-c57b-44f6-9f9c-c9839289854f","system_id":"levelo_inurba_marseille","lat":43.31065,"lon":5.40081,"is_reserved":false,"is_disabled":false,"rental_uris":{"android":"levelo://app?vid=ba7bba16-c57b-44f6-9f9c-c9839289854f","ios":"levelo://app?vid=ba7bba16-c57b-44f6-9f9c-c9839289854f"},"vehicle_type_id":"4","last_reported":1716645973,"current_range_meters":13600,"station_id":"","pricing_plan_id":"cebpf4jnsgd1na2vs0mg"},{"bike_id":"1a1505af-a805-4e97-b6c5-ef86c8ad33ae","system_id":"levelo_inurba_marseille","lat":43.310618,"lon":5.40104,"is_reserved":false,"is_disabled":false,"rental_uris":{"android":"levelo://app?vid=1a1505af-a805-4e97-b6c5-ef86c8ad33ae","ios":"levelo://app?vid=1a1505af-a805-4e97-b6c5-ef86c8ad33ae"},"vehicle_type_id":"4","last_reported":1716645973,"current_range_meters":5200,"station_id":"","pricing_plan_id":"cebpf4jnsgd1na2vs0mg"},{"bike_id":"623f7707-0022-4d47-89d1-20a323cb83d6","system_id":"levelo_inurba_marseille","lat":43.28864,"lon":5.35822,"is_reserved":false,"is_disabled":false,"rental_uris":{"android":"levelo://app?vid=623f7707-0022-4d47-89d1-20a323cb83d6","ios":"levelo://app?vid=623f7707-0022-4d47-89d1-20a323cb83d6"},"vehicle_type_id":"4","last_reported":1716645973,"current_range_meters":31200,"station_id":"ce4bhb12rcd13ifvqem0","pricing_plan_id":"cebpf4jnsgd1na2vs0mg"},{"bike_id":"a75b226f-62ca-47ab-87ae-8380bf593944","system_id":"levelo_inurba_marseille","lat":43.289743,"lon":5.378304,"is_reserved":false,"is_disabled":false,"rental_uris":{"android":"levelo://app?vid=a75b226f-62ca-47ab-87ae-8380bf593944","ios":"levelo://app?vid=a75b226f-62ca-47ab-87ae-8380bf593944"},"vehicle_type_id":"4","last_reported":1716645973,"current_range_meters":7200,"station_id":"ce4bh9p2rcd13ifvqed0","pricing_plan_id":"cebpf4jnsgd1na2vs0mg"},{"bike_id":"c817be8a-4d3f-428e-9e83-fb97be659edc","system_id":"levelo_inurba_marseille","lat":43.33739,"lon":5.37443,"is_reserved":false,"is_disabled":false,"rental_uris":{"android":"levelo://app?vid=c817be8a-4d3f-428e-9e83-fb97be659edc","ios":"levelo://app?vid=c817be8a-4d3f-428e-9e83-fb97be659edc"},"vehicle_type_id":"4","last_reported":1716645973,"current_range_meters":24800,"station_id":"","pricing_plan_id":"cebpf4jnsgd1na2vs0mg"},{"bike_id":"5e08015a-b315-49d5-b067-121fc243166b","system_id":"levelo_inurba_marseille","lat":43.33752,"lon":5.37436,"is_reserved":false,"is_disabled":false,"rental_uris":{"android":"levelo://app?vid=5e08015a-b315-49d5-b067-121fc243166b","ios":"levelo://app?vid=5e08015a-b315-49d5-b067-121fc243166b"},"vehicle_type_id":"4","last_reported":1716645973,"current_range_meters":19200,"station_id":"","pricing_plan_id":"cebpf4jnsgd1na2vs0mg"},{"bike_id":"00f626da-f13f-4c3c-954b-5f0de1625eb5","system_id":"levelo_inurba_marseille","lat":43.28727,"lon":5.36078,"is_reserved":false,"is_disabled":false,"rental_uris":{"android":"levelo://app?vid=00f626da-f13f-4c3c-954b-5f0de1625eb5","ios":"levelo://app?vid=00f626da-f13f-4c3c-954b-5f0de1625eb5"},"vehicle_type_id":"4","last_reported":1716645973,"current_range_meters":5600,"station_id":"cki0cbj6b192h4jlfktg","pricing_plan_id":"cebpf4jnsgd1na2vs0mg"},{"bike_id":"4baa171a-6f41-4b4c-bcc1-759d97c52644","system_id":"levelo_inurba_marseille","lat":43.337567,"lon":5.374574,"is_reserved":false,"is_disabled":false,"rental_uris":{"android":"levelo://app?vid=4baa171a-6f41-4b4c-bcc1-759d97c52644","ios":"levelo://app?vid=4baa171a-6f41-4b4c-bcc1-759d97c52644"},"vehicle_type_id":"4","last_reported":1716645973,"current_range_meters":22400,"station_id":"","pricing_plan_id":"cebpf4jnsgd1na2vs0mg"},{"bike_id":"a01ceea7-31c0-4994-818d-59f9e34c0a17","system_id":"levelo_inurba_marseille","lat":43.33758,"lon":5.3746,"is_reserved":false,"is_disabled":false,"rental_uris":{"android":"levelo://app?vid=a01ceea7-31c0-4994-818d-59f9e34c0a17","ios":"levelo://app?vid=a01ceea7-31c0-4994-818d-59f9e34c0a17"},"vehicle_type_id":"4","last_reported":1716645973,"current_range_meters":27600,"station_id":"","pricing_plan_id":"cebpf4jnsgd1na2vs0mg"},{"bike_id":"4d476eee-4013-46a3-be70-3fc5198fa0f9","system_id":"levelo_inurba_marseille","lat":43.33763,"lon":5.374318,"is_reserved":false,"is_disabled":false,"rental_uris":{"android":"levelo://app?vid=4d476eee-4013-46a3-be70-3fc5198fa0f9","ios":"levelo://app?vid=4d476eee-4013-46a3-be70-3fc5198fa0f9"},"vehicle_type_id":"4","last_reported":1716645973,"current_range_meters":16000,"station_id":"","pricing_plan_id":"cebpf4jnsgd1na2vs0mg"},{"bike_id":"8b72a3a0-c7aa-4cc3-b46e-a04a3d9b8d4a","system_id":"levelo_inurba_marseille","lat":43.337625,"lon":5.374405,"is_reserved":false,"is_disabled":false,"rental_uris":{"android":"levelo://app?vid=8b72a3a0-c7aa-4cc3-b46e-a04a3d9b8d4a","ios":"levelo://app?vid=8b72a3a0-c7aa-4cc3-b46e-a04a3d9b8d4a"},"vehicle_type_id":"4","last_reported":1716645973,"current_range_meters":16000,"station_id":"","pricing_plan_id":"cebpf4jnsgd1na2vs0mg"},{"bike_id":"caa746b3-6206-42bb-bdf6-1cc8d30d36fe","system_id":"levelo_inurba_marseille","lat":43.33769,"lon":5.37436,"is_reserved":false,"is_disabled":false,"rental_uris":{"android":"levelo://app?vid=caa746b3-6206-42bb-bdf6-1cc8d30d36fe","ios":"levelo://app?vid=caa746b3-6206-42bb-bdf6-1cc8d30d36fe"},"vehicle_type_id":"4","last_reported":1716645973,"current_range_meters":30000,"station_id":"","pricing_plan_id":"cebpf4jnsgd1na2vs0mg"},{"bike_id":"de609f3b-f2e7-4b37-96b4-3315c7ebe8bb","system_id":"levelo_inurba_marseille","lat":43.33764,"lon":5.37471,"is_reserved":false,"is_disabled":false,"rental_uris":{"android":"levelo://app?vid=de609f3b-f2e7-4b37-96b4-3315c7ebe8bb","ios":"levelo://app?vid=de609f3b-f2e7-4b37-96b4-3315c7ebe8bb"},"vehicle_type_id":"4","last_reported":1716645973,"current_range_meters":18400,"station_id":"","pricing_plan_id":"cebpf4jnsgd1na2vs0mg"},{"bike_id":"0b0758c7-959b-4024-a279-99a23f18969b","system_id":"levelo_inurba_marseille","lat":43.306412,"lon":5.401035,"is_reserved":false,"is_disabled":false,"rental_uris":{"android":"levelo://app?vid=0b0758c7-959b-4024-a279-99a23f18969b","ios":"levelo://app?vid=0b0758c7-959b-4024-a279-99a23f18969b"},"vehicle_type_id":"4","last_reported":1716645973,"current_range_meters":15600,"station_id":"ce4bh112rcd13ifvqda0","pricing_plan_id":"cebpf4jnsgd1na2vs0mg"},{"bike_id":"25237902-9f19-4596-943a-ffd955c5ef89","system_id":"levelo_inurba_marseille","lat":43.33768,"lon":5.37469,"is_reserved":false,"is_disabled":false,"rental_uris":{"android":"levelo://app?vid=25237902-9f19-4596-943a-ffd955c5ef89","ios":"levelo://app?vid=25237902-9f19-4596-943a-ffd955c5ef89"},"vehicle_type_id":"4","last_reported":1716645973,"current_range_meters":14000,"station_id":"","pricing_plan_id":"cebpf4jnsgd1na2vs0mg"},{"bike_id":"4b8248e1-79b8-4eb4-8025-63e15485d6bc","system_id":"levelo_inurba_marseille","lat":43.289307,"lon":5.38406,"is_reserved":false,"is_disabled":false,"rental_uris":{"android":"levelo://app?vid=4b8248e1-79b8-4eb4-8025-63e15485d6bc","ios":"levelo://app?vid=4b8248e1-79b8-4eb4-8025-63e15485d6bc"},"vehicle_type_id":"4","last_reported":1716645973,"current_range_meters":0,"station_id":"ce4bh612rcd13ifvqe6g","pricing_plan_id":"cebpf4jnsgd1na2vs0mg"},{"bike_id":"efeac157-87ce-4e56-ba87-d3a4bf9701f6","system_id":"levelo_inurba_marseille","lat":43.298681,"lon":5.397225,"is_reserved":false,"is_disabled":false,"rental_uris":{"android":"levelo://app?vid=efeac157-87ce-4e56-ba87-d3a4bf9701f6","ios":"levelo://app?vid=efeac157-87ce-4e56-ba87-d3a4bf9701f6"},"vehicle_type_id":"4","last_reported":1716645973,"current_range_meters":19200,"station_id":"ce4bh0h2rcd13ifvqd50","pricing_plan_id":"cebpf4jnsgd1na2vs0mg"},{"bike_id":"271135f6-b621-4602-8026-7fc0f515ed03","system_id":"levelo_inurba_marseille","lat":43.286039,"lon":5.370679,"is_reserved":false,"is_disabled":false,"rental_uris":{"android":"levelo://app?vid=271135f6-b621-4602-8026-7fc0f515ed03","ios":"levelo://app?vid=271135f6-b621-4602-8026-7fc0f515ed03"},"vehicle_type_id":"4","last_reported":1716645973,"current_range_meters":0,"station_id":"ce4bht12rcd13ifvqi60","pricing_plan_id":"cebpf4jnsgd1na2vs0mg"},{"bike_id":"b17f160b-1d21-491c-b1b4-7bffee60992d","system_id":"levelo_inurba_marseille","lat":43.286039,"lon":5.370679,"is_reserved":false,"is_disabled":false,"rental_uris":{"android":"levelo://app?vid=b17f160b-1d21-491c-b1b4-7bffee60992d","ios":"levelo://app?vid=b17f160b-1d21-491c-b1b4-7bffee60992d"},"vehicle_type_id":"4","last_reported":1716645973,"current_range_meters":4800,"station_id":"ce4bht12rcd13ifvqi60","pricing_plan_id":"cebpf4jnsgd1na2vs0mg"},{"bike_id":"be749ae7-4c6b-4d69-a677-32ae089c29e1","system_id":"levelo_inurba_marseille","lat":43.301951,"lon":5.40059,"is_reserved":false,"is_disabled":false,"rental_uris":{"android":"levelo://app?vid=be749ae7-4c6b-4d69-a677-32ae089c29e1","ios":"levelo://app?vid=be749ae7-4c6b-4d69-a677-32ae089c29e1"},"vehicle_type_id":"4","last_reported":1716645973,"current_range_meters":0,"station_id":"ce4bgvh2rcd13ifvqcs0","pricing_plan_id":"cebpf4jnsgd1na2vs0mg"},{"bike_id":"e662fb81-1f22-4a4e-9c19-5b0367eb601d","system_id":"levelo_inurba_marseille","lat":43.286039,"lon":5.370679,"is_reserved":false,"is_disabled":false,"rental_uris":{"android":"levelo://app?vid=e662fb81-1f22-4a4e-9c19-5b0367eb601d","ios":"levelo://app?vid=e662fb81-1f22-4a4e-9c19-5b0367eb601d"},"vehicle_type_id":"4","last_reported":1716645973,"current_range_meters":25600,"station_id":"ce4bht12rcd13ifvqi60","pricing_plan_id":"cebpf4jnsgd1na2vs0mg"},{"bike_id":"0d9bddf5-cec4-47af-afc6-49550cb47e16","system_id":"levelo_inurba_marseille","lat":43.286039,"lon":5.370679,"is_reserved":false,"is_disabled":false,"rental_uris":{"android":"levelo://app?vid=0d9bddf5-cec4-47af-afc6-49550cb47e16","ios":"levelo://app?vid=0d9bddf5-cec4-47af-afc6-49550cb47e16"},"vehicle_type_id":"4","last_reported":1716645973,"current_range_meters":4800,"station_id":"ce4bht12rcd13ifvqi60","pricing_plan_id":"cebpf4jnsgd1na2vs0mg"},{"bike_id":"01f7684e-9250-46a6-ab19-bc7139e519bb","system_id":"levelo_inurba_marseille","lat":43.287184,"lon":5.37937,"is_reserved":false,"is_disabled":false,"rental_uris":{"android":"levelo://app?vid=01f7684e-9250-46a6-ab19-bc7139e519bb","ios":"levelo://app?vid=01f7684e-9250-46a6-ab19-bc7139e519bb"},"vehicle_type_id":"4","last_reported":1716645973,"current_range_meters":14000,"station_id":"ce4bh9p2rcd13ifvqec0","pricing_plan_id":"cebpf4jnsgd1na2vs0mg"},{"bike_id":"b5347238-b3da-493c-9ad4-ad4958c09ca5","system_id":"levelo_inurba_marseille","lat":43.287184,"lon":5.37937,"is_reserved":false,"is_disabled":false,"rental_uris":{"android":"levelo://app?vid=b5347238-b3da-493c-9ad4-ad4958c09ca5","ios":"levelo://app?vid=b5347238-b3da-493c-9ad4-ad4958c09ca5"},"vehicle_type_id":"4","last_reported":1716645973,"current_range_meters":25200,"station_id":"ce4bh9p2rcd13ifvqec0","pricing_plan_id":"cebpf4jnsgd1na2vs0mg"},{"bike_id":"3ebaf820-7f15-4e64-9413-fb5e14b032e5","system_id":"levelo_inurba_marseille","lat":43.337168,"lon":5.391825,"is_reserved":false,"is_disabled":false,"rental_uris":{"android":"levelo://app?vid=3ebaf820-7f15-4e64-9413-fb5e14b032e5","ios":"levelo://app?vid=3ebaf820-7f15-4e64-9413-fb5e14b032e5"},"vehicle_type_id":"4","last_reported":1716645973,"current_range_meters":18400,"station_id":"ce4bhr92rcd13ifvqhsg","pricing_plan_id":"cebpf4jnsgd1na2vs0mg"},{"bike_id":"51d9acf7-b4b1-494b-9ba5-0bdd40590541","system_id":"levelo_inurba_marseille","lat":43.316828,"lon":5.404723,"is_reserved":false,"is_disabled":false,"rental_uris":{"android":"levelo://app?vid=51d9acf7-b4b1-494b-9ba5-0bdd40590541","ios":"levelo://app?vid=51d9acf7-b4b1-494b-9ba5-0bdd40590541"},"vehicle_type_id":"4","last_reported":1716645973,"current_range_meters":31200,"station_id":"ce4bh012rcd13ifvqd00","pricing_plan_id":"cebpf4jnsgd1na2vs0mg"},{"bike_id":"d24fd6f4-4d48-41ca-9b8a-96fa0086204a","system_id":"levelo_inurba_marseille","lat":43.316828,"lon":5.404723,"is_reserved":false,"is_disabled":false,"rental_uris":{"android":"levelo://app?vid=d24fd6f4-4d48-41ca-9b8a-96fa0086204a","ios":"levelo://app?vid=d24fd6f4-4d48-41ca-9b8a-96fa0086204a"},"vehicle_type_id":"4","last_reported":1716645973,"current_range_meters":31200,"station_id":"ce4bh012rcd13ifvqd00","pricing_plan_id":"cebpf4jnsgd1na2vs0mg"},{"bike_id":"3e15858d-b2be-45b9-8bc2-09f3ac1b02ad","system_id":"levelo_inurba_marseille","lat":43.316821,"lon":5.404737,"is_reserved":false,"is_disabled":false,"rental_uris":{"android":"levelo://app?vid=3e15858d-b2be-45b9-8bc2-09f3ac1b02ad","ios":"levelo://app?vid=3e15858d-b2be-45b9-8bc2-09f3ac1b02ad"},"vehicle_type_id":"4","last_reported":1716645973,"current_range_meters":16800,"station_id":"ce4bh012rcd13ifvqd00","pricing_plan_id":"cebpf4jnsgd1na2vs0mg"},{"bike_id":"e9210e06-aac5-4791-8293-745bef534e65","system_id":"levelo_inurba_marseille","lat":43.291994,"lon":5.392907,"is_reserved":false,"is_disabled":false,"rental_uris":{"android":"levelo://app?vid=e9210e06-aac5-4791-8293-745bef534e65","ios":"levelo://app?vid=e9210e06-aac5-4791-8293-745bef534e65"},"vehicle_type_id":"4","last_reported":1716645973,"current_range_meters":5200,"station_id":"ce4bh192rcd13ifvqdd0","pricing_plan_id":"cebpf4jnsgd1na2vs0mg"},{"bike_id":"f7cfcecc-7e28-4d4a-bc3a-8437c96de5b1","system_id":"levelo_inurba_marseille","lat":43.295767,"lon":5.398527,"is_reserved":false,"is_disabled":false,"rental_uris":{"android":"levelo://app?vid=f7cfcecc-7e28-4d4a-bc3a-8437c96de5b1","ios":"levelo://app?vid=f7cfcecc-7e28-4d4a-bc3a-8437c96de5b1"},"vehicle_type_id":"4","last_reported":1716645973,"current_range_meters":25600,"station_id":"ce4bh312rcd13ifvqdj0","pricing_plan_id":"cebpf4jnsgd1na2vs0mg"},{"bike_id":"15d78383-4a66-4768-9222-9190ac01a779","system_id":"levelo_inurba_marseille","lat":43.294314,"lon":5.397498,"is_reserved":false,"is_disabled":false,"rental_uris":{"android":"levelo://app?vid=15d78383-4a66-4768-9222-9190ac01a779","ios":"levelo://app?vid=15d78383-4a66-4768-9222-9190ac01a779"},"vehicle_type_id":"4","last_reported":1716645973,"current_range_meters":0,"station_id":"ce4bh3h2rcd13ifvqdo0","pricing_plan_id":"cebpf4jnsgd1na2vs0mg"},{"bike_id":"b57de09f-852a-4879-8091-5201b1eb6864","system_id":"levelo_inurba_marseille","lat":43.285856,"lon":5.350771,"is_reserved":false,"is_disabled":false,"rental_uris":{"android":"levelo://app?vid=b57de09f-852a-4879-8091-5201b1eb6864","ios":"levelo://app?vid=b57de09f-852a-4879-8091-5201b1eb6864"},"vehicle_type_id":"4","last_reported":1716645973,"current_range_meters":10800,"station_id":"ce4bhch2rcd13ifvqeug","pricing_plan_id":"cebpf4jnsgd1na2vs0mg"},{"bike_id":"db119063-19a9-4b20-908c-eee9533c0c2b","system_id":"levelo_inurba_marseille","lat":43.285856,"lon":5.350771,"is_reserved":false,"is_disabled":false,"rental_uris":{"android":"levelo://app?vid=db119063-19a9-4b20-908c-eee9533c0c2b","ios":"levelo://app?vid=db119063-19a9-4b20-908c-eee9533c0c2b"},"vehicle_type_id":"4","last_reported":1716645973,"current_range_meters":6800,"station_id":"ce4bhch2rcd13ifvqeug","pricing_plan_id":"cebpf4jnsgd1na2vs0mg"},{"bike_id":"022fa280-030f-4987-af24-3e61e345285b","system_id":"levelo_inurba_marseille","lat":43.285856,"lon":5.350771,"is_reserved":false,"is_disabled":false,"rental_uris":{"android":"levelo://app?vid=022fa280-030f-4987-af24-3e61e345285b","ios":"levelo://app?vid=022fa280-030f-4987-af24-3e61e345285b"},"vehicle_type_id":"4","last_reported":1716645973,"current_range_meters":20000,"station_id":"ce4bhch2rcd13ifvqeug","pricing_plan_id":"cebpf4jnsgd1na2vs0mg"},{"bike_id":"2d0e5dc6-1ffc-472a-a87a-1615aa0fe987","system_id":"levelo_inurba_marseille","lat":43.28435,"lon":5.37512,"is_reserved":false,"is_disabled":false,"rental_uris":{"android":"levelo://app?vid=2d0e5dc6-1ffc-472a-a87a-1615aa0fe987","ios":"levelo://app?vid=2d0e5dc6-1ffc-472a-a87a-1615aa0fe987"},"vehicle_type_id":"4","last_reported":1716645973,"current_range_meters":13200,"station_id":"ce4bhbp2rcd13ifvqerg","pricing_plan_id":"cebpf4jnsgd1na2vs0mg"},{"bike_id":"8ed07bcb-3af5-4456-814a-6dfbbce46d84","system_id":"levelo_inurba_marseille","lat":43.285856,"lon":5.350771,"is_reserved":false,"is_disabled":false,"rental_uris":{"android":"levelo://app?vid=8ed07bcb-3af5-4456-814a-6dfbbce46d84","ios":"levelo://app?vid=8ed07bcb-3af5-4456-814a-6dfbbce46d84"},"vehicle_type_id":"4","last_reported":1716645973,"current_range_meters":9200,"station_id":"ce4bhch2rcd13ifvqeug","pricing_plan_id":"cebpf4jnsgd1na2vs0mg"},{"bike_id":"a8a4fdbd-4628-4cda-aba0-9fef5d342fb6","system_id":"levelo_inurba_marseille","lat":43.28615,"lon":5.35098,"is_reserved":false,"is_disabled":false,"rental_uris":{"android":"levelo://app?vid=a8a4fdbd-4628-4cda-aba0-9fef5d342fb6","ios":"levelo://app?vid=a8a4fdbd-4628-4cda-aba0-9fef5d342fb6"},"vehicle_type_id":"4","last_reported":1716645973,"current_range_meters":26000,"station_id":"ce4bhch2rcd13ifvqeug","pricing_plan_id":"cebpf4jnsgd1na2vs0mg"},{"bike_id":"77b019c1-9fa2-4e70-8717-d6f0fe6a404e","system_id":"levelo_inurba_marseille","lat":43.285856,"lon":5.350771,"is_reserved":false,"is_disabled":false,"rental_uris":{"android":"levelo://app?vid=77b019c1-9fa2-4e70-8717-d6f0fe6a404e","ios":"levelo://app?vid=77b019c1-9fa2-4e70-8717-d6f0fe6a404e"},"vehicle_type_id":"4","last_reported":1716645973,"current_range_meters":23600,"station_id":"ce4bhch2rcd13ifvqeug","pricing_plan_id":"cebpf4jnsgd1na2vs0mg"},{"bike_id":"0c9d0d53-e8a0-46e0-b197-ef00ca401bef","system_id":"levelo_inurba_marseille","lat":43.285856,"lon":5.350771,"is_reserved":false,"is_disabled":false,"rental_uris":{"android":"levelo://app?vid=0c9d0d53-e8a0-46e0-b197-ef00ca401bef","ios":"levelo://app?vid=0c9d0d53-e8a0-46e0-b197-ef00ca401bef"},"vehicle_type_id":"4","last_reported":1716645973,"current_range_meters":2400,"station_id":"ce4bhch2rcd13ifvqeug","pricing_plan_id":"cebpf4jnsgd1na2vs0mg"},{"bike_id":"717e7bca-1987-4067-8cd7-bc9277f89b30","system_id":"levelo_inurba_marseille","lat":43.285848,"lon":5.350787,"is_reserved":false,"is_disabled":false,"rental_uris":{"android":"levelo://app?vid=717e7bca-1987-4067-8cd7-bc9277f89b30","ios":"levelo://app?vid=717e7bca-1987-4067-8cd7-bc9277f89b30"},"vehicle_type_id":"4","last_reported":1716645973,"current_range_meters":0,"station_id":"ce4bhch2rcd13ifvqeug","pricing_plan_id":"cebpf4jnsgd1na2vs0mg"},{"bike_id":"b14a63ab-79a8-4377-b610-92f92501d4d3","system_id":"levelo_inurba_marseille","lat":43.285856,"lon":5.350771,"is_reserved":false,"is_disabled":false,"rental_uris":{"android":"levelo://app?vid=b14a63ab-79a8-4377-b610-92f92501d4d3","ios":"levelo://app?vid=b14a63ab-79a8-4377-b610-92f92501d4d3"},"vehicle_type_id":"4","last_reported":1716645973,"current_range_meters":26000,"station_id":"ce4bhch2rcd13ifvqeug","pricing_plan_id":"cebpf4jnsgd1na2vs0mg"},{"bike_id":"d926fc3a-3044-44ab-82d0-230ae32508a8","system_id":"levelo_inurba_marseille","lat":43.285848,"lon":5.350787,"is_reserved":false,"is_disabled":false,"rental_uris":{"android":"levelo://app?vid=d926fc3a-3044-44ab-82d0-230ae32508a8","ios":"levelo://app?vid=d926fc3a-3044-44ab-82d0-230ae32508a8"},"vehicle_type_id":"4","last_reported":1716645973,"current_range_meters":9600,"station_id":"ce4bhch2rcd13ifvqeug","pricing_plan_id":"cebpf4jnsgd1na2vs0mg"},{"bike_id":"aaeaae5a-771f-4c4e-b906-f32231623912","system_id":"levelo_inurba_marseille","lat":43.29984,"lon":5.40274,"is_reserved":false,"is_disabled":false,"rental_uris":{"android":"levelo://app?vid=aaeaae5a-771f-4c4e-b906-f32231623912","ios":"levelo://app?vid=aaeaae5a-771f-4c4e-b906-f32231623912"},"vehicle_type_id":"4","last_reported":1716645973,"current_range_meters":19600,"station_id":"","pricing_plan_id":"cebpf4jnsgd1na2vs0mg"},{"bike_id":"660f09cf-52f4-4063-b765-ab78c2b7336f","system_id":"levelo_inurba_marseille","lat":43.29955,"lon":5.40261,"is_reserved":false,"is_disabled":false,"rental_uris":{"android":"levelo://app?vid=660f09cf-52f4-4063-b765-ab78c2b7336f","ios":"levelo://app?vid=660f09cf-52f4-4063-b765-ab78c2b7336f"},"vehicle_type_id":"4","last_reported":1716645973,"current_range_meters":19600,"station_id":"","pricing_plan_id":"cebpf4jnsgd1na2vs0mg"},{"bike_id":"11ddc892-353b-45f9-8af5-042df9d7408a","system_id":"levelo_inurba_marseille","lat":43.284214,"lon":5.349706,"is_reserved":false,"is_disabled":false,"rental_uris":{"android":"levelo://app?vid=11ddc892-353b-45f9-8af5-042df9d7408a","ios":"levelo://app?vid=11ddc892-353b-45f9-8af5-042df9d7408a"},"vehicle_type_id":"4","last_reported":1716645973,"current_range_meters":8400,"station_id":"ce4bhbh2rcd13ifvqepg","pricing_plan_id":"cebpf4jnsgd1na2vs0mg"},{"bike_id":"185f5e64-ef13-41ac-882e-72eea5832383","system_id":"levelo_inurba_marseille","lat":43.284155,"lon":5.375138,"is_reserved":false,"is_disabled":false,"rental_uris":{"android":"levelo://app?vid=185f5e64-ef13-41ac-882e-72eea5832383","ios":"levelo://app?vid=185f5e64-ef13-41ac-882e-72eea5832383"},"vehicle_type_id":"4","last_reported":1716645973,"current_range_meters":0,"station_id":"ce4bh412rcd13ifvqds0","pricing_plan_id":"cebpf4jnsgd1na2vs0mg"},{"bike_id":"032ebed1-2788-406f-b1e4-88e924854359","system_id":"levelo_inurba_marseille","lat":43.295713,"lon":5.399639,"is_reserved":false,"is_disabled":false,"rental_uris":{"android":"levelo://app?vid=032ebed1-2788-406f-b1e4-88e924854359","ios":"levelo://app?vid=032ebed1-2788-406f-b1e4-88e924854359"},"vehicle_type_id":"4","last_reported":1716645973,"current_range_meters":0,"station_id":"ce4bh312rcd13ifvqdj0","pricing_plan_id":"cebpf4jnsgd1na2vs0mg"},{"bike_id":"8756468f-a68d-487f-8140-dc9238abbb2f","system_id":"levelo_inurba_marseille","lat":43.295713,"lon":5.399639,"is_reserved":false,"is_disabled":false,"rental_uris":{"android":"levelo://app?vid=8756468f-a68d-487f-8140-dc9238abbb2f","ios":"levelo://app?vid=8756468f-a68d-487f-8140-dc9238abbb2f"},"vehicle_type_id":"4","last_reported":1716645973,"current_range_meters":400,"station_id":"ce4bh312rcd13ifvqdj0","pricing_plan_id":"cebpf4jnsgd1na2vs0mg"},{"bike_id":"d02cfd5f-575e-4c3b-93fb-e6e11efb6ad0","system_id":"levelo_inurba_marseille","lat":43.295713,"lon":5.399639,"is_reserved":false,"is_disabled":false,"rental_uris":{"android":"levelo://app?vid=d02cfd5f-575e-4c3b-93fb-e6e11efb6ad0","ios":"levelo://app?vid=d02cfd5f-575e-4c3b-93fb-e6e11efb6ad0"},"vehicle_type_id":"4","last_reported":1716645973,"current_range_meters":26400,"station_id":"ce4bh312rcd13ifvqdj0","pricing_plan_id":"cebpf4jnsgd1na2vs0mg"},{"bike_id":"a7ebab1f-c63e-4dc3-a0a2-fd82bf140d41","system_id":"levelo_inurba_marseille","lat":43.295713,"lon":5.399639,"is_reserved":false,"is_disabled":false,"rental_uris":{"android":"levelo://app?vid=a7ebab1f-c63e-4dc3-a0a2-fd82bf140d41","ios":"levelo://app?vid=a7ebab1f-c63e-4dc3-a0a2-fd82bf140d41"},"vehicle_type_id":"4","last_reported":1716645973,"current_range_meters":0,"station_id":"ce4bh312rcd13ifvqdj0","pricing_plan_id":"cebpf4jnsgd1na2vs0mg"},{"bike_id":"646ddbbf-a334-477c-bdf4-73a6790e1530","system_id":"levelo_inurba_marseille","lat":43.295713,"lon":5.399639,"is_reserved":false,"is_disabled":false,"rental_uris":{"android":"levelo://app?vid=646ddbbf-a334-477c-bdf4-73a6790e1530","ios":"levelo://app?vid=646ddbbf-a334-477c-bdf4-73a6790e1530"},"vehicle_type_id":"4","last_reported":1716645973,"current_range_meters":13600,"station_id":"ce4bh312rcd13ifvqdj0","pricing_plan_id":"cebpf4jnsgd1na2vs0mg"},{"bike_id":"4bcdbeb6-699f-40ca-87d3-9d73a2e1764d","system_id":"levelo_inurba_marseille","lat":43.29957,"lon":5.40293,"is_reserved":false,"is_disabled":false,"rental_uris":{"android":"levelo://app?vid=4bcdbeb6-699f-40ca-87d3-9d73a2e1764d","ios":"levelo://app?vid=4bcdbeb6-699f-40ca-87d3-9d73a2e1764d"},"vehicle_type_id":"4","last_reported":1716645973,"current_range_meters":14000,"station_id":"","pricing_plan_id":"cebpf4jnsgd1na2vs0mg"},{"bike_id":"36fb3490-a76c-4542-9cbf-99d28c86583e","system_id":"levelo_inurba_marseille","lat":43.29945,"lon":5.40293,"is_reserved":false,"is_disabled":false,"rental_uris":{"android":"levelo://app?vid=36fb3490-a76c-4542-9cbf-99d28c86583e","ios":"levelo://app?vid=36fb3490-a76c-4542-9cbf-99d28c86583e"},"vehicle_type_id":"4","last_reported":1716645973,"current_range_meters":14000,"station_id":"","pricing_plan_id":"cebpf4jnsgd1na2vs0mg"},{"bike_id":"26879562-a620-4492-9fea-8aefe63ff97d","system_id":"levelo_inurba_marseille","lat":43.286595,"lon":5.386795,"is_reserved":false,"is_disabled":false,"rental_uris":{"android":"levelo://app?vid=26879562-a620-4492-9fea-8aefe63ff97d","ios":"levelo://app?vid=26879562-a620-4492-9fea-8aefe63ff97d"},"vehicle_type_id":"4","last_reported":1716645973,"current_range_meters":29200,"station_id":"ce4bh492rcd13ifvqdug","pricing_plan_id":"cebpf4jnsgd1na2vs0mg"},{"bike_id":"90b23253-ca9a-4f1a-a927-172c63708b30","system_id":"levelo_inurba_marseille","lat":43.284068,"lon":5.355736,"is_reserved":false,"is_disabled":false,"rental_uris":{"android":"levelo://app?vid=90b23253-ca9a-4f1a-a927-172c63708b30","ios":"levelo://app?vid=90b23253-ca9a-4f1a-a927-172c63708b30"},"vehicle_type_id":"4","last_reported":1716645973,"current_range_meters":400,"station_id":"","pricing_plan_id":"cebpf4jnsgd1na2vs0mg"},{"bike_id":"e3f11e3a-1c86-4c8a-820b-ef785ef39122","system_id":"levelo_inurba_marseille","lat":43.283494,"lon":5.380945,"is_reserved":false,"is_disabled":false,"rental_uris":{"android":"levelo://app?vid=e3f11e3a-1c86-4c8a-820b-ef785ef39122","ios":"levelo://app?vid=e3f11e3a-1c86-4c8a-820b-ef785ef39122"},"vehicle_type_id":"4","last_reported":1716645973,"current_range_meters":0,"station_id":"ce4bh412rcd13ifvqdr0","pricing_plan_id":"cebpf4jnsgd1na2vs0mg"},{"bike_id":"c50ac93a-3cf8-4674-8534-080db2c45a39","system_id":"levelo_inurba_marseille","lat":43.297946,"lon":5.404063,"is_reserved":false,"is_disabled":false,"rental_uris":{"android":"levelo://app?vid=c50ac93a-3cf8-4674-8534-080db2c45a39","ios":"levelo://app?vid=c50ac93a-3cf8-4674-8534-080db2c45a39"},"vehicle_type_id":"4","last_reported":1716645973,"current_range_meters":8000,"station_id":"ce4bh112rcd13ifvqd90","pricing_plan_id":"cebpf4jnsgd1na2vs0mg"},{"bike_id":"c6dbcc47-70a1-471a-9aef-5f3bd2a8d971","system_id":"levelo_inurba_marseille","lat":43.284461,"lon":5.34982,"is_reserved":false,"is_disabled":false,"rental_uris":{"android":"levelo://app?vid=c6dbcc47-70a1-471a-9aef-5f3bd2a8d971","ios":"levelo://app?vid=c6dbcc47-70a1-471a-9aef-5f3bd2a8d971"},"vehicle_type_id":"4","last_reported":1716645973,"current_range_meters":21200,"station_id":"ce4bhbh2rcd13ifvqepg","pricing_plan_id":"cebpf4jnsgd1na2vs0mg"},{"bike_id":"2103ee5e-14a2-4b05-bc07-66a1db888945","system_id":"levelo_inurba_marseille","lat":43.288497,"lon":5.393089,"is_reserved":false,"is_disabled":false,"rental_uris":{"android":"levelo://app?vid=2103ee5e-14a2-4b05-bc07-66a1db888945","ios":"levelo://app?vid=2103ee5e-14a2-4b05-bc07-66a1db888945"},"vehicle_type_id":"4","last_reported":1716645973,"current_range_meters":0,"station_id":"ce4bh2p2rcd13ifvqdi0","pricing_plan_id":"cebpf4jnsgd1na2vs0mg"},{"bike_id":"42777d92-a97b-4355-9145-7aab6998abfe","system_id":"levelo_inurba_marseille","lat":43.283494,"lon":5.380945,"is_reserved":false,"is_disabled":false,"rental_uris":{"android":"levelo://app?vid=42777d92-a97b-4355-9145-7aab6998abfe","ios":"levelo://app?vid=42777d92-a97b-4355-9145-7aab6998abfe"},"vehicle_type_id":"4","last_reported":1716645973,"current_range_meters":20000,"station_id":"ce4bh412rcd13ifvqdr0","pricing_plan_id":"cebpf4jnsgd1na2vs0mg"},{"bike_id":"29e8ddef-51e9-43ea-a9d6-be6a7d04415a","system_id":"levelo_inurba_marseille","lat":43.28438,"lon":5.34994,"is_reserved":false,"is_disabled":false,"rental_uris":{"android":"levelo://app?vid=29e8ddef-51e9-43ea-a9d6-be6a7d04415a","ios":"levelo://app?vid=29e8ddef-51e9-43ea-a9d6-be6a7d04415a"},"vehicle_type_id":"4","last_reported":1716645973,"current_range_meters":4400,"station_id":"ce4bhbh2rcd13ifvqepg","pricing_plan_id":"cebpf4jnsgd1na2vs0mg"},{"bike_id":"92fcf733-3122-4605-bafe-189cd6f2ec9f","system_id":"levelo_inurba_marseille","lat":43.28432,"lon":5.34998,"is_reserved":false,"is_disabled":false,"rental_uris":{"android":"levelo://app?vid=92fcf733-3122-4605-bafe-189cd6f2ec9f","ios":"levelo://app?vid=92fcf733-3122-4605-bafe-189cd6f2ec9f"},"vehicle_type_id":"4","last_reported":1716645973,"current_range_meters":22400,"station_id":"ce4bhbh2rcd13ifvqepg","pricing_plan_id":"cebpf4jnsgd1na2vs0mg"},{"bike_id":"90b5d202-cd5d-473b-a817-252f8c01233c","system_id":"levelo_inurba_marseille","lat":43.283494,"lon":5.380945,"is_reserved":false,"is_disabled":false,"rental_uris":{"android":"levelo://app?vid=90b5d202-cd5d-473b-a817-252f8c01233c","ios":"levelo://app?vid=90b5d202-cd5d-473b-a817-252f8c01233c"},"vehicle_type_id":"4","last_reported":1716645973,"current_range_meters":22400,"station_id":"ce4bh412rcd13ifvqdr0","pricing_plan_id":"cebpf4jnsgd1na2vs0mg"},{"bike_id":"2cc33c2f-312b-4ea8-bdd7-09b9c06f6d47","system_id":"levelo_inurba_marseille","lat":43.284214,"lon":5.349706,"is_reserved":false,"is_disabled":false,"rental_uris":{"android":"levelo://app?vid=2cc33c2f-312b-4ea8-bdd7-09b9c06f6d47","ios":"levelo://app?vid=2cc33c2f-312b-4ea8-bdd7-09b9c06f6d47"},"vehicle_type_id":"4","last_reported":1716645973,"current_range_meters":17200,"station_id":"ce4bhbh2rcd13ifvqepg","pricing_plan_id":"cebpf4jnsgd1na2vs0mg"},{"bike_id":"46e59b51-dd03-4406-a29f-b721d1516ab3","system_id":"levelo_inurba_marseille","lat":43.28431,"lon":5.34993,"is_reserved":false,"is_disabled":false,"rental_uris":{"android":"levelo://app?vid=46e59b51-dd03-4406-a29f-b721d1516ab3","ios":"levelo://app?vid=46e59b51-dd03-4406-a29f-b721d1516ab3"},"vehicle_type_id":"4","last_reported":1716645973,"current_range_meters":24800,"station_id":"ce4bhbh2rcd13ifvqepg","pricing_plan_id":"cebpf4jnsgd1na2vs0mg"},{"bike_id":"2998b67f-2d74-4972-899e-3fbf8403d848","system_id":"levelo_inurba_marseille","lat":43.283498,"lon":5.380948,"is_reserved":false,"is_disabled":false,"rental_uris":{"android":"levelo://app?vid=2998b67f-2d74-4972-899e-3fbf8403d848","ios":"levelo://app?vid=2998b67f-2d74-4972-899e-3fbf8403d848"},"vehicle_type_id":"4","last_reported":1716645973,"current_range_meters":1600,"station_id":"ce4bh412rcd13ifvqdr0","pricing_plan_id":"cebpf4jnsgd1na2vs0mg"},{"bike_id":"208d3e77-ad03-4964-b3e1-b718ebc08a3d","system_id":"levelo_inurba_marseille","lat":43.284291,"lon":5.349824,"is_reserved":false,"is_disabled":false,"rental_uris":{"android":"levelo://app?vid=208d3e77-ad03-4964-b3e1-b718ebc08a3d","ios":"levelo://app?vid=208d3e77-ad03-4964-b3e1-b718ebc08a3d"},"vehicle_type_id":"4","last_reported":1716645973,"current_range_meters":16800,"station_id":"ce4bhbh2rcd13ifvqepg","pricing_plan_id":"cebpf4jnsgd1na2vs0mg"},{"bike_id":"e8440601-58b9-4a64-a96f-61aaf7a31374","system_id":"levelo_inurba_marseille","lat":43.28425,"lon":5.34987,"is_reserved":false,"is_disabled":false,"rental_uris":{"android":"levelo://app?vid=e8440601-58b9-4a64-a96f-61aaf7a31374","ios":"levelo://app?vid=e8440601-58b9-4a64-a96f-61aaf7a31374"},"vehicle_type_id":"4","last_reported":1716645973,"current_range_meters":30800,"station_id":"ce4bhbh2rcd13ifvqepg","pricing_plan_id":"cebpf4jnsgd1na2vs0mg"},{"bike_id":"97c7ed8e-933e-4e3b-b9cc-c9967ae6f927","system_id":"levelo_inurba_marseille","lat":43.28422,"lon":5.34993,"is_reserved":false,"is_disabled":false,"rental_uris":{"android":"levelo://app?vid=97c7ed8e-933e-4e3b-b9cc-c9967ae6f927","ios":"levelo://app?vid=97c7ed8e-933e-4e3b-b9cc-c9967ae6f927"},"vehicle_type_id":"4","last_reported":1716645973,"current_range_meters":31200,"station_id":"ce4bhbh2rcd13ifvqepg","pricing_plan_id":"cebpf4jnsgd1na2vs0mg"},{"bike_id":"234c4109-e1a3-4fdd-8a6a-c02b67deb2d0","system_id":"levelo_inurba_marseille","lat":43.28425,"lon":5.34983,"is_reserved":false,"is_disabled":false,"rental_uris":{"android":"levelo://app?vid=234c4109-e1a3-4fdd-8a6a-c02b67deb2d0","ios":"levelo://app?vid=234c4109-e1a3-4fdd-8a6a-c02b67deb2d0"},"vehicle_type_id":"4","last_reported":1716645973,"current_range_meters":31200,"station_id":"ce4bhbh2rcd13ifvqepg","pricing_plan_id":"cebpf4jnsgd1na2vs0mg"},{"bike_id":"4410c98c-39d9-4ebc-9bd2-006f7672eab0","system_id":"levelo_inurba_marseille","lat":43.28423,"lon":5.34989,"is_reserved":false,"is_disabled":false,"rental_uris":{"android":"levelo://app?vid=4410c98c-39d9-4ebc-9bd2-006f7672eab0","ios":"levelo://app?vid=4410c98c-39d9-4ebc-9bd2-006f7672eab0"},"vehicle_type_id":"4","last_reported":1716645973,"current_range_meters":13600,"station_id":"ce4bhbh2rcd13ifvqepg","pricing_plan_id":"cebpf4jnsgd1na2vs0mg"},{"bike_id":"b6f466c1-e77e-468c-ad5c-5e0c21e4bfab","system_id":"levelo_inurba_marseille","lat":43.28424,"lon":5.34984,"is_reserved":false,"is_disabled":false,"rental_uris":{"android":"levelo://app?vid=b6f466c1-e77e-468c-ad5c-5e0c21e4bfab","ios":"levelo://app?vid=b6f466c1-e77e-468c-ad5c-5e0c21e4bfab"},"vehicle_type_id":"4","last_reported":1716645973,"current_range_meters":17200,"station_id":"ce4bhbh2rcd13ifvqepg","pricing_plan_id":"cebpf4jnsgd1na2vs0mg"},{"bike_id":"5cc811ec-172c-4a01-8fde-5893156b6917","system_id":"levelo_inurba_marseille","lat":43.28423,"lon":5.34984,"is_reserved":false,"is_disabled":false,"rental_uris":{"android":"levelo://app?vid=5cc811ec-172c-4a01-8fde-5893156b6917","ios":"levelo://app?vid=5cc811ec-172c-4a01-8fde-5893156b6917"},"vehicle_type_id":"4","last_reported":1716645973,"current_range_meters":12800,"station_id":"ce4bhbh2rcd13ifvqepg","pricing_plan_id":"cebpf4jnsgd1na2vs0mg"},{"bike_id":"646e53ef-ab48-42ff-afbc-bfd53b64cca3","system_id":"levelo_inurba_marseille","lat":43.28422,"lon":5.34986,"is_reserved":false,"is_disabled":false,"rental_uris":{"android":"levelo://app?vid=646e53ef-ab48-42ff-afbc-bfd53b64cca3","ios":"levelo://app?vid=646e53ef-ab48-42ff-afbc-bfd53b64cca3"},"vehicle_type_id":"4","last_reported":1716645973,"current_range_meters":21200,"station_id":"ce4bhbh2rcd13ifvqepg","pricing_plan_id":"cebpf4jnsgd1na2vs0mg"},{"bike_id":"7d2be8c8-76b6-418a-b712-a0ac179130e2","system_id":"levelo_inurba_marseille","lat":43.28419,"lon":5.34992,"is_reserved":false,"is_disabled":false,"rental_uris":{"android":"levelo://app?vid=7d2be8c8-76b6-418a-b712-a0ac179130e2","ios":"levelo://app?vid=7d2be8c8-76b6-418a-b712-a0ac179130e2"},"vehicle_type_id":"4","last_reported":1716645973,"current_range_meters":14800,"station_id":"ce4bhbh2rcd13ifvqepg","pricing_plan_id":"cebpf4jnsgd1na2vs0mg"},{"bike_id":"e594b611-3b85-413b-897a-d73c3c3f2740","system_id":"levelo_inurba_marseille","lat":43.284217,"lon":5.349697,"is_reserved":false,"is_disabled":false,"rental_uris":{"android":"levelo://app?vid=e594b611-3b85-413b-897a-d73c3c3f2740","ios":"levelo://app?vid=e594b611-3b85-413b-897a-d73c3c3f2740"},"vehicle_type_id":"4","last_reported":1716645973,"current_range_meters":31200,"station_id":"ce4bhbh2rcd13ifvqepg","pricing_plan_id":"cebpf4jnsgd1na2vs0mg"},{"bike_id":"595b289c-ba87-476b-87bb-bf16a17b3283","system_id":"levelo_inurba_marseille","lat":43.28418,"lon":5.34993,"is_reserved":false,"is_disabled":false,"rental_uris":{"android":"levelo://app?vid=595b289c-ba87-476b-87bb-bf16a17b3283","ios":"levelo://app?vid=595b289c-ba87-476b-87bb-bf16a17b3283"},"vehicle_type_id":"4","last_reported":1716645973,"current_range_meters":28400,"station_id":"ce4bhbh2rcd13ifvqepg","pricing_plan_id":"cebpf4jnsgd1na2vs0mg"},{"bike_id":"37179e82-73ab-4a93-b4fc-30af297a326c","system_id":"levelo_inurba_marseille","lat":43.28422,"lon":5.3498,"is_reserved":false,"is_disabled":false,"rental_uris":{"android":"levelo://app?vid=37179e82-73ab-4a93-b4fc-30af297a326c","ios":"levelo://app?vid=37179e82-73ab-4a93-b4fc-30af297a326c"},"vehicle_type_id":"4","last_reported":1716645973,"current_range_meters":2000,"station_id":"ce4bhbh2rcd13ifvqepg","pricing_plan_id":"cebpf4jnsgd1na2vs0mg"},{"bike_id":"490282c0-6551-414d-bf65-55bca8735d84","system_id":"levelo_inurba_marseille","lat":43.28419,"lon":5.34989,"is_reserved":false,"is_disabled":false,"rental_uris":{"android":"levelo://app?vid=490282c0-6551-414d-bf65-55bca8735d84","ios":"levelo://app?vid=490282c0-6551-414d-bf65-55bca8735d84"},"vehicle_type_id":"4","last_reported":1716645973,"current_range_meters":21600,"station_id":"ce4bhbh2rcd13ifvqepg","pricing_plan_id":"cebpf4jnsgd1na2vs0mg"},{"bike_id":"518ddc2f-f820-49c8-bd9b-89bfb4de8d5e","system_id":"levelo_inurba_marseille","lat":43.284169,"lon":5.349929,"is_reserved":false,"is_disabled":false,"rental_uris":{"android":"levelo://app?vid=518ddc2f-f820-49c8-bd9b-89bfb4de8d5e","ios":"levelo://app?vid=518ddc2f-f820-49c8-bd9b-89bfb4de8d5e"},"vehicle_type_id":"4","last_reported":1716645973,"current_range_meters":12400,"station_id":"ce4bhbh2rcd13ifvqepg","pricing_plan_id":"cebpf4jnsgd1na2vs0mg"},{"bike_id":"7e812341-732c-439d-822d-bafbda454bd7","system_id":"levelo_inurba_marseille","lat":43.28419,"lon":5.34986,"is_reserved":false,"is_disabled":false,"rental_uris":{"android":"levelo://app?vid=7e812341-732c-439d-822d-bafbda454bd7","ios":"levelo://app?vid=7e812341-732c-439d-822d-bafbda454bd7"},"vehicle_type_id":"4","last_reported":1716645973,"current_range_meters":21600,"station_id":"ce4bhbh2rcd13ifvqepg","pricing_plan_id":"cebpf4jnsgd1na2vs0mg"},{"bike_id":"20e3d0b6-2e40-446e-ab09-37dd2edde3b1","system_id":"levelo_inurba_marseille","lat":43.284198,"lon":5.349833,"is_reserved":false,"is_disabled":false,"rental_uris":{"android":"levelo://app?vid=20e3d0b6-2e40-446e-ab09-37dd2edde3b1","ios":"levelo://app?vid=20e3d0b6-2e40-446e-ab09-37dd2edde3b1"},"vehicle_type_id":"4","last_reported":1716645973,"current_range_meters":30400,"station_id":"ce4bhbh2rcd13ifvqepg","pricing_plan_id":"cebpf4jnsgd1na2vs0mg"},{"bike_id":"06d62157-7356-40d5-a179-d136df12fb73","system_id":"levelo_inurba_marseille","lat":43.2842,"lon":5.3498,"is_reserved":false,"is_disabled":false,"rental_uris":{"android":"levelo://app?vid=06d62157-7356-40d5-a179-d136df12fb73","ios":"levelo://app?vid=06d62157-7356-40d5-a179-d136df12fb73"},"vehicle_type_id":"4","last_reported":1716645973,"current_range_meters":10800,"station_id":"ce4bhbh2rcd13ifvqepg","pricing_plan_id":"cebpf4jnsgd1na2vs0mg"},{"bike_id":"0c3378c9-54b9-4916-91aa-95bf8865167b","system_id":"levelo_inurba_marseille","lat":43.2842,"lon":5.34979,"is_reserved":false,"is_disabled":false,"rental_uris":{"android":"levelo://app?vid=0c3378c9-54b9-4916-91aa-95bf8865167b","ios":"levelo://app?vid=0c3378c9-54b9-4916-91aa-95bf8865167b"},"vehicle_type_id":"4","last_reported":1716645973,"current_range_meters":5600,"station_id":"ce4bhbh2rcd13ifvqepg","pricing_plan_id":"cebpf4jnsgd1na2vs0mg"},{"bike_id":"9ef8dee1-b72d-49a5-b62e-4776ea9c6b38","system_id":"levelo_inurba_marseille","lat":43.284192,"lon":5.349807,"is_reserved":false,"is_disabled":false,"rental_uris":{"android":"levelo://app?vid=9ef8dee1-b72d-49a5-b62e-4776ea9c6b38","ios":"levelo://app?vid=9ef8dee1-b72d-49a5-b62e-4776ea9c6b38"},"vehicle_type_id":"4","last_reported":1716645973,"current_range_meters":30000,"station_id":"ce4bhnh2rcd13ifvqgtg","pricing_plan_id":"cebpf4jnsgd1na2vs0mg"},{"bike_id":"7c9e5f9b-2b7a-4fb4-a508-b29172ea0b25","system_id":"levelo_inurba_marseille","lat":43.28414,"lon":5.34995,"is_reserved":false,"is_disabled":false,"rental_uris":{"android":"levelo://app?vid=7c9e5f9b-2b7a-4fb4-a508-b29172ea0b25","ios":"levelo://app?vid=7c9e5f9b-2b7a-4fb4-a508-b29172ea0b25"},"vehicle_type_id":"4","last_reported":1716645973,"current_range_meters":26800,"station_id":"ce4bhbh2rcd13ifvqepg","pricing_plan_id":"cebpf4jnsgd1na2vs0mg"},{"bike_id":"1d020268-38ea-4b18-b409-30a08a2e0b5f","system_id":"levelo_inurba_marseille","lat":43.284192,"lon":5.349781,"is_reserved":false,"is_disabled":false,"rental_uris":{"android":"levelo://app?vid=1d020268-38ea-4b18-b409-30a08a2e0b5f","ios":"levelo://app?vid=1d020268-38ea-4b18-b409-30a08a2e0b5f"},"vehicle_type_id":"4","last_reported":1716645973,"current_range_meters":13600,"station_id":"ce4bhbh2rcd13ifvqepg","pricing_plan_id":"cebpf4jnsgd1na2vs0mg"},{"bike_id":"7777bece-20f7-450f-a60b-98cd27231a01","system_id":"levelo_inurba_marseille","lat":43.28415,"lon":5.34991,"is_reserved":false,"is_disabled":false,"rental_uris":{"android":"levelo://app?vid=7777bece-20f7-450f-a60b-98cd27231a01","ios":"levelo://app?vid=7777bece-20f7-450f-a60b-98cd27231a01"},"vehicle_type_id":"4","last_reported":1716645973,"current_range_meters":30000,"station_id":"ce4bhbh2rcd13ifvqepg","pricing_plan_id":"cebpf4jnsgd1na2vs0mg"},{"bike_id":"779f8cad-1112-477a-a309-6bfa28c4b3ba","system_id":"levelo_inurba_marseille","lat":43.28419,"lon":5.34978,"is_reserved":false,"is_disabled":false,"rental_uris":{"android":"levelo://app?vid=779f8cad-1112-477a-a309-6bfa28c4b3ba","ios":"levelo://app?vid=779f8cad-1112-477a-a309-6bfa28c4b3ba"},"vehicle_type_id":"4","last_reported":1716645973,"current_range_meters":6000,"station_id":"ce4bhbh2rcd13ifvqepg","pricing_plan_id":"cebpf4jnsgd1na2vs0mg"},{"bike_id":"bb0aed5f-4fdf-4efc-aaf1-0590d7041221","system_id":"levelo_inurba_marseille","lat":43.284178,"lon":5.3498,"is_reserved":false,"is_disabled":false,"rental_uris":{"android":"levelo://app?vid=bb0aed5f-4fdf-4efc-aaf1-0590d7041221","ios":"levelo://app?vid=bb0aed5f-4fdf-4efc-aaf1-0590d7041221"},"vehicle_type_id":"4","last_reported":1716645973,"current_range_meters":4800,"station_id":"ce4bhbh2rcd13ifvqepg","pricing_plan_id":"cebpf4jnsgd1na2vs0mg"},{"bike_id":"e9e0e063-15a0-4dc0-95c8-664af9543d6e","system_id":"levelo_inurba_marseille","lat":43.284184,"lon":5.34977,"is_reserved":false,"is_disabled":false,"rental_uris":{"android":"levelo://app?vid=e9e0e063-15a0-4dc0-95c8-664af9543d6e","ios":"levelo://app?vid=e9e0e063-15a0-4dc0-95c8-664af9543d6e"},"vehicle_type_id":"4","last_reported":1716645973,"current_range_meters":0,"station_id":"ce4bhbh2rcd13ifvqepg","pricing_plan_id":"cebpf4jnsgd1na2vs0mg"},{"bike_id":"8487ceae-ee23-4327-a725-f492afa058f8","system_id":"levelo_inurba_marseille","lat":43.284214,"lon":5.349706,"is_reserved":false,"is_disabled":false,"rental_uris":{"android":"levelo://app?vid=8487ceae-ee23-4327-a725-f492afa058f8","ios":"levelo://app?vid=8487ceae-ee23-4327-a725-f492afa058f8"},"vehicle_type_id":"4","last_reported":1716645973,"current_range_meters":20800,"station_id":"ce4bhbh2rcd13ifvqepg","pricing_plan_id":"cebpf4jnsgd1na2vs0mg"},{"bike_id":"1ab61ca7-067c-40e5-afea-d0adc61b781f","system_id":"levelo_inurba_marseille","lat":43.284189,"lon":5.349733,"is_reserved":false,"is_disabled":false,"rental_uris":{"android":"levelo://app?vid=1ab61ca7-067c-40e5-afea-d0adc61b781f","ios":"levelo://app?vid=1ab61ca7-067c-40e5-afea-d0adc61b781f"},