{"last_updated":1728987089,"ttl":60,"version":"2.2","data":{"bikes":[{"bike_id":"ca19aae3-ddc9-46d5-8241-83affcfa7618","system_id":"levelo_inurba_marseille","lat":43.25928,"lon":5.40916,"is_reserved":false,"is_disabled":false,"rental_uris":{"android":"levelo://app?vid=ca19aae3-ddc9-46d5-8241-83affcfa7618","ios":"levelo://app?vid=ca19aae3-ddc9-46d5-8241-83affcfa7618"},"vehicle_type_id":"4","last_reported":1728987089,"current_range_meters":13600,"station_id":"ce4bhm92rcd13ifvqglg","pricing_plan_id":"cebpf4jnsgd1na2vs0mg"},{"bike_id":"67ca123a-9ec0-456f-926a-887b730e6918","system_id":"levelo_inurba_marseille","lat":43.2582,"lon":5.39436,"is_reserved":false,"is_disabled":false,"rental_uris":{"android":"levelo://app?vid=67ca123a-9ec0-456f-926a-887b730e6918","ios":"levelo://app?vid=67ca123a-9ec0-456f-926a-887b730e6918"},"vehicle_type_id":"4","last_reported":1728987089,"current_range_meters":16800,"station_id":"ce4bhip2rcd13ifvqft0","pricing_plan_id":"cebpf4jnsgd1na2vs0mg"},{"bike_id":"8fd4ad92-71f7-4914-800c-d326603e8f0f","system_id":"levelo_inurba_marseille","lat":43.29419,"lon":5.38629,"is_reserved":false,"is_disabled":false,"rental_uris":{"android":"levelo://app?vid=8fd4ad92-71f7-4914-800c-d326603e8f0f","ios":"levelo://app?vid=8fd4ad92-71f7-4914-800c-d326603e8f0f"},"vehicle_type_id":"4","last_reported":1728987089,"current_range_meters":25600,"station_id":"ce4bh2h2rcd13ifvqdh0","pricing_plan_id":"cebpf4jnsgd1na2vs0mg"},{"bike_id":"3f231685-3ca7-4aff-9bf1-413aef655857","system_id":"levelo_inurba_marseille","lat":43.29849,"lon":5.36284,"is_reserved":false,"is_disabled":false,"rental_uris":{"android":"levelo://app?vid=3f231685-3ca7-4aff-9bf1-413aef655857","ios":"levelo://app?vid=3f231685-3ca7-4aff-9bf1-413aef655857"},"vehicle_type_id":"4","last_reported":1728987089,"current_range_meters":32000,"station_id":"ce4bgpp2rcd13ifvqc3g","pricing_plan_id":"cebpf4jnsgd1na2vs0mg"},{"bike_id":"b219e8df-801b-4f0f-a0f6-ea2485c345f9","system_id":"levelo_inurba_marseille","lat":43.22929,"lon":5.35373,"is_reserved":false,"is_disabled":false,"rental_uris":{"android":"levelo://app?vid=b219e8df-801b-4f0f-a0f6-ea2485c345f9","ios":"levelo://app?vid=b219e8df-801b-4f0f-a0f6-ea2485c345f9"},"vehicle_type_id":"4","last_reported":1728987089,"current_range_meters":37600,"station_id":"cpo3532slgdg3j2ikp40","pricing_plan_id":"cebpf4jnsgd1na2vs0mg"},{"bike_id":"9b66d62e-dcc1-4a4d-9f7b-dcc6c6577a81","system_id":"levelo_inurba_marseille","lat":43.2952,"lon":5.39407,"is_reserved":false,"is_disabled":false,"rental_uris":{"android":"levelo://app?vid=9b66d62e-dcc1-4a4d-9f7b-dcc6c6577a81","ios":"levelo://app?vid=9b66d62e-dcc1-4a4d-9f7b-dcc6c6577a81"},"vehicle_type_id":"4","last_reported":1728987089,"current_range_meters":18000,"station_id":"ce4bh292rcd13ifvqdf0","pricing_plan_id":"cebpf4jnsgd1na2vs0mg"},{"bike_id":"4d9ec3e7-3ae3-47bb-b95b-8e671138095b","system_id":"levelo_inurba_marseille","lat":43.26931,"lon":5.3892,"is_reserved":false,"is_disabled":false,"rental_uris":{"android":"levelo://app?vid=4d9ec3e7-3ae3-47bb-b95b-8e671138095b","ios":"levelo://app?vid=4d9ec3e7-3ae3-47bb-b95b-8e671138095b"},"vehicle_type_id":"4","last_reported":1728987089,"current_range_meters":8400,"station_id":"ce4bhhh2rcd13ifvqfl0","pricing_plan_id":"cebpf4jnsgd1na2vs0mg"},{"bike_id":"2f1c8dfb-a85e-4c1d-a938-6c27f229a9f7","system_id":"levelo_inurba_marseille","lat":43.29305,"lon":5.37448,"is_reserved":false,"is_disabled":false,"rental_uris":{"android":"levelo://app?vid=2f1c8dfb-a85e-4c1d-a938-6c27f229a9f7","ios":"levelo://app?vid=2f1c8dfb-a85e-4c1d-a938-6c27f229a9f7"},"vehicle_type_id":"4","last_reported":1728987089,"current_range_meters":28400,"station_id":"ce4bgi12rcd13ifvqb70","pricing_plan_id":"cebpf4jnsgd1na2vs0mg"},{"bike_id":"796d6299-3908-48ea-8c9e-3a9d50954f31","system_id":"levelo_inurba_marseille","lat":43.29717,"lon":5.37693,"is_reserved":false,"is_disabled":false,"rental_uris":{"android":"levelo://app?vid=796d6299-3908-48ea-8c9e-3a9d50954f31","ios":"levelo://app?vid=796d6299-3908-48ea-8c9e-3a9d50954f31"},"vehicle_type_id":"4","last_reported":1728987089,"current_range_meters":18800,"station_id":"ce4bgkh2rcd13ifvqbl0","pricing_plan_id":"cebpf4jnsgd1na2vs0mg"},{"bike_id":"c68392a0-2043-4a69-9831-98039d40c9e5","system_id":"levelo_inurba_marseille","lat":43.24542,"lon":5.39518,"is_reserved":false,"is_disabled":false,"rental_uris":{"android":"levelo://app?vid=c68392a0-2043-4a69-9831-98039d40c9e5","ios":"levelo://app?vid=c68392a0-2043-4a69-9831-98039d40c9e5"},"vehicle_type_id":"4","last_reported":1728987089,"current_range_meters":38800,"station_id":"ce4bhlp2rcd13ifvqgjg","pricing_plan_id":"cebpf4jnsgd1na2vs0mg"},{"bike_id":"1580fc1f-bd2a-485a-b99b-753495b142db","system_id":"levelo_inurba_marseille","lat":43.26552,"lon":5.37284,"is_reserved":false,"is_disabled":false,"rental_uris":{"android":"levelo://app?vid=1580fc1f-bd2a-485a-b99b-753495b142db","ios":"levelo://app?vid=1580fc1f-bd2a-485a-b99b-753495b142db"},"vehicle_type_id":"4","last_reported":1728987089,"current_range_meters":28000,"station_id":"ce4bhg12rcd13ifvqf70","pricing_plan_id":"cebpf4jnsgd1na2vs0mg"},{"bike_id":"978e1708-2f3b-4d72-b415-dbe1cfaa8617","system_id":"levelo_inurba_marseille","lat":43.25938,"lon":5.40902,"is_reserved":false,"is_disabled":false,"rental_uris":{"android":"levelo://app?vid=978e1708-2f3b-4d72-b415-dbe1cfaa8617","ios":"levelo://app?vid=978e1708-2f3b-4d72-b415-dbe1cfaa8617"},"vehicle_type_id":"4","last_reported":1728987089,"current_range_meters":10000,"station_id":"ce4bhm92rcd13ifvqglg","pricing_plan_id":"cebpf4jnsgd1na2vs0mg"},{"bike_id":"0f585ca1-0f35-459d-851c-9b03e3ef8c3e","system_id":"levelo_inurba_marseille","lat":43.26207,"lon":5.37443,"is_reserved":false,"is_disabled":false,"rental_uris":{"android":"levelo://app?vid=0f585ca1-0f35-459d-851c-9b03e3ef8c3e","ios":"levelo://app?vid=0f585ca1-0f35-459d-851c-9b03e3ef8c3e"},"vehicle_type_id":"4","last_reported":1728987089,"current_range_meters":10000,"station_id":"ce4bhgp2rcd13ifvqfc0","pricing_plan_id":"cebpf4jnsgd1na2vs0mg"},{"bike_id":"4dc8c72a-7777-4587-8f29-bfbecc307684","system_id":"levelo_inurba_marseille","lat":43.25822,"lon":5.39438,"is_reserved":false,"is_disabled":false,"rental_uris":{"android":"levelo://app?vid=4dc8c72a-7777-4587-8f29-bfbecc307684","ios":"levelo://app?vid=4dc8c72a-7777-4587-8f29-bfbecc307684"},"vehicle_type_id":"4","last_reported":1728987089,"current_range_meters":39200,"station_id":"ce4bhip2rcd13ifvqft0","pricing_plan_id":"cebpf4jnsgd1na2vs0mg"},{"bike_id":"a7fb2736-ee25-4eb2-903f-ca64d4727339","system_id":"levelo_inurba_marseille","lat":43.297933,"lon":5.38118,"is_reserved":false,"is_disabled":false,"rental_uris":{"android":"levelo://app?vid=a7fb2736-ee25-4eb2-903f-ca64d4727339","ios":"levelo://app?vid=a7fb2736-ee25-4eb2-903f-ca64d4727339"},"vehicle_type_id":"4","last_reported":1728987089,"current_range_meters":22000,"station_id":"ce4bgip2rcd13ifvqbb0","pricing_plan_id":"cebpf4jnsgd1na2vs0mg"},{"bike_id":"dd3bcb01-00c0-4762-9f8e-08ab544c3e5d","system_id":"levelo_inurba_marseille","lat":43.30353,"lon":5.41877,"is_reserved":false,"is_disabled":false,"rental_uris":{"android":"levelo://app?vid=dd3bcb01-00c0-4762-9f8e-08ab544c3e5d","ios":"levelo://app?vid=dd3bcb01-00c0-4762-9f8e-08ab544c3e5d"},"vehicle_type_id":"4","last_reported":1728987089,"current_range_meters":18800,"station_id":"ce4bhop2rcd13ifvqh7g","pricing_plan_id":"cebpf4jnsgd1na2vs0mg"},{"bike_id":"1d1a5305-93eb-48bd-aca5-91c26433821c","system_id":"levelo_inurba_marseille","lat":43.30538,"lon":5.36534,"is_reserved":false,"is_disabled":false,"rental_uris":{"android":"levelo://app?vid=1d1a5305-93eb-48bd-aca5-91c26433821c","ios":"levelo://app?vid=1d1a5305-93eb-48bd-aca5-91c26433821c"},"vehicle_type_id":"4","last_reported":1728987089,"current_range_meters":35600,"station_id":"ce4bgs12rcd13ifvqcag","pricing_plan_id":"cebpf4jnsgd1na2vs0mg"},{"bike_id":"770b4181-5ae9-4e74-aecc-59e1c212b00e","system_id":"levelo_inurba_marseille","lat":43.29845,"lon":5.36277,"is_reserved":false,"is_disabled":false,"rental_uris":{"android":"levelo://app?vid=770b4181-5ae9-4e74-aecc-59e1c212b00e","ios":"levelo://app?vid=770b4181-5ae9-4e74-aecc-59e1c212b00e"},"vehicle_type_id":"4","last_reported":1728987089,"current_range_meters":34000,"station_id":"ce4bgpp2rcd13ifvqc3g","pricing_plan_id":"cebpf4jnsgd1na2vs0mg"},{"bike_id":"be4a7f90-bad7-40e8-823c-b307d7817710","system_id":"levelo_inurba_marseille","lat":43.29409,"lon":5.38629,"is_reserved":false,"is_disabled":false,"rental_uris":{"android":"levelo://app?vid=be4a7f90-bad7-40e8-823c-b307d7817710","ios":"levelo://app?vid=be4a7f90-bad7-40e8-823c-b307d7817710"},"vehicle_type_id":"4","last_reported":1728987089,"current_range_meters":30000,"station_id":"ce4bh2h2rcd13ifvqdh0","pricing_plan_id":"cebpf4jnsgd1na2vs0mg"},{"bike_id":"beea5ce3-6e3b-468e-af4b-c0aef7b7dfd3","system_id":"levelo_inurba_marseille","lat":43.24394,"lon":5.37045,"is_reserved":false,"is_disabled":false,"rental_uris":{"android":"levelo://app?vid=beea5ce3-6e3b-468e-af4b-c0aef7b7dfd3","ios":"levelo://app?vid=beea5ce3-6e3b-468e-af4b-c0aef7b7dfd3"},"vehicle_type_id":"4","last_reported":1728987089,"current_range_meters":10800,"station_id":"ce4bhhh2rcd13ifvqfk0","pricing_plan_id":"cebpf4jnsgd1na2vs0mg"},{"bike_id":"072313ab-7549-43b2-bb31-cd312c7f3735","system_id":"levelo_inurba_marseille","lat":43.26488,"lon":5.3954,"is_reserved":false,"is_disabled":false,"rental_uris":{"android":"levelo://app?vid=072313ab-7549-43b2-bb31-cd312c7f3735","ios":"levelo://app?vid=072313ab-7549-43b2-bb31-cd312c7f3735"},"vehicle_type_id":"4","last_reported":1728987089,"current_range_meters":28000,"station_id":"ce4bhi12rcd13ifvqfq0","pricing_plan_id":"cebpf4jnsgd1na2vs0mg"},{"bike_id":"9e21f6d9-4a73-497d-a7e2-5036db2477bd","system_id":"levelo_inurba_marseille","lat":43.28418,"lon":5.34988,"is_reserved":false,"is_disabled":false,"rental_uris":{"android":"levelo://app?vid=9e21f6d9-4a73-497d-a7e2-5036db2477bd","ios":"levelo://app?vid=9e21f6d9-4a73-497d-a7e2-5036db2477bd"},"vehicle_type_id":"4","last_reported":1728987089,"current_range_meters":17600,"station_id":"ce4bhbh2rcd13ifvqepg","pricing_plan_id":"cebpf4jnsgd1na2vs0mg"},{"bike_id":"72358ece-4187-445f-9954-0b053f59dd58","system_id":"levelo_inurba_marseille","lat":43.2827,"lon":5.35081,"is_reserved":false,"is_disabled":false,"rental_uris":{"android":"levelo://app?vid=72358ece-4187-445f-9954-0b053f59dd58","ios":"levelo://app?vid=72358ece-4187-445f-9954-0b053f59dd58"},"vehicle_type_id":"4","last_reported":1728987089,"current_range_meters":38800,"station_id":"ce4bhbp2rcd13ifvqerg","pricing_plan_id":"cebpf4jnsgd1na2vs0mg"},{"bike_id":"abb7276a-b666-4183-a575-fa765fd7ea85","system_id":"levelo_inurba_marseille","lat":43.29418,"lon":5.38628,"is_reserved":false,"is_disabled":false,"rental_uris":{"android":"levelo://app?vid=abb7276a-b666-4183-a575-fa765fd7ea85","ios":"levelo://app?vid=abb7276a-b666-4183-a575-fa765fd7ea85"},"vehicle_type_id":"4","last_reported":1728987089,"current_range_meters":3600,"station_id":"ce4bh2h2rcd13ifvqdh0","pricing_plan_id":"cebpf4jnsgd1na2vs0mg"},{"bike_id":"37b2ae5e-60c3-422d-a740-7bf216d57bb3","system_id":"levelo_inurba_marseille","lat":43.314822,"lon":5.372208,"is_reserved":false,"is_disabled":false,"rental_uris":{"android":"levelo://app?vid=37b2ae5e-60c3-422d-a740-7bf216d57bb3","ios":"levelo://app?vid=37b2ae5e-60c3-422d-a740-7bf216d57bb3"},"vehicle_type_id":"4","last_reported":1728987089,"current_range_meters":14000,"station_id":"ce4bgt12rcd13ifvqcd0","pricing_plan_id":"cebpf4jnsgd1na2vs0mg"},{"bike_id":"85e0c597-b58e-4ed1-a673-617dd8815077","system_id":"levelo_inurba_marseille","lat":43.29927,"lon":5.41321,"is_reserved":false,"is_disabled":false,"rental_uris":{"android":"levelo://app?vid=85e0c597-b58e-4ed1-a673-617dd8815077","ios":"levelo://app?vid=85e0c597-b58e-4ed1-a673-617dd8815077"},"vehicle_type_id":"4","last_reported":1728987089,"current_range_meters":10000,"station_id":"ce4bhp12rcd13ifvqh9g","pricing_plan_id":"cebpf4jnsgd1na2vs0mg"},{"bike_id":"878e150d-985e-4e92-a424-f9baedcb10c4","system_id":"levelo_inurba_marseille","lat":43.33023,"lon":5.39036,"is_reserved":false,"is_disabled":false,"rental_uris":{"android":"levelo://app?vid=878e150d-985e-4e92-a424-f9baedcb10c4","ios":"levelo://app?vid=878e150d-985e-4e92-a424-f9baedcb10c4"},"vehicle_type_id":"4","last_reported":1728987089,"current_range_meters":7200,"station_id":"ce4bhr92rcd13ifvqhrg","pricing_plan_id":"cebpf4jnsgd1na2vs0mg"},{"bike_id":"ec005563-8307-4b6c-b9d2-1694e88d28ed","system_id":"levelo_inurba_marseille","lat":43.313517,"lon":5.38499,"is_reserved":false,"is_disabled":false,"rental_uris":{"android":"levelo://app?vid=ec005563-8307-4b6c-b9d2-1694e88d28ed","ios":"levelo://app?vid=ec005563-8307-4b6c-b9d2-1694e88d28ed"},"vehicle_type_id":"4","last_reported":1728987089,"current_range_meters":12400,"station_id":"ce4bgt92rcd13ifvqcf0","pricing_plan_id":"cebpf4jnsgd1na2vs0mg"},{"bike_id":"236eac17-f8e0-4e4a-bc15-bde91f02d950","system_id":"levelo_inurba_marseille","lat":43.336,"lon":5.41033,"is_reserved":false,"is_disabled":false,"rental_uris":{"android":"levelo://app?vid=236eac17-f8e0-4e4a-bc15-bde91f02d950","ios":"levelo://app?vid=236eac17-f8e0-4e4a-bc15-bde91f02d950"},"vehicle_type_id":"4","last_reported":1728987089,"current_range_meters":26800,"station_id":"ce4bhqh2rcd13ifvqhmg","pricing_plan_id":"cebpf4jnsgd1na2vs0mg"},{"bike_id":"00707241-c9a7-4262-a6e1-14ee27f38531","system_id":"levelo_inurba_marseille","lat":43.283051,"lon":5.350431,"is_reserved":false,"is_disabled":false,"rental_uris":{"android":"levelo://app?vid=00707241-c9a7-4262-a6e1-14ee27f38531","ios":"levelo://app?vid=00707241-c9a7-4262-a6e1-14ee27f38531"},"vehicle_type_id":"4","last_reported":1728987089,"current_range_meters":14000,"station_id":"ce4bhbp2rcd13ifvqerg","pricing_plan_id":"cebpf4jnsgd1na2vs0mg"},{"bike_id":"89198ecf-9ad5-429c-84dc-a279ee6e8f88","system_id":"levelo_inurba_marseille","lat":43.33752,"lon":5.37445,"is_reserved":false,"is_disabled":false,"rental_uris":{"android":"levelo://app?vid=89198ecf-9ad5-429c-84dc-a279ee6e8f88","ios":"levelo://app?vid=89198ecf-9ad5-429c-84dc-a279ee6e8f88"},"vehicle_type_id":"4","last_reported":1728987089,"current_range_meters":36000,"station_id":"","pricing_plan_id":"cebpf4jnsgd1na2vs0mg"},{"bike_id":"8fdd4147-e848-49f0-9c54-870bdb6cb1f5","system_id":"levelo_inurba_marseille","lat":43.33608,"lon":5.41027,"is_reserved":false,"is_disabled":false,"rental_uris":{"android":"levelo://app?vid=8fdd4147-e848-49f0-9c54-870bdb6cb1f5","ios":"levelo://app?vid=8fdd4147-e848-49f0-9c54-870bdb6cb1f5"},"vehicle_type_id":"4","last_reported":1728987089,"current_range_meters":35600,"station_id":"ce4bhqh2rcd13ifvqhmg","pricing_plan_id":"cebpf4jnsgd1na2vs0mg"},{"bike_id":"76445514-dd6c-426b-941e-789afb2f2c25","system_id":"levelo_inurba_marseille","lat":43.33605,"lon":5.41039,"is_reserved":false,"is_disabled":false,"rental_uris":{"android":"levelo://app?vid=76445514-dd6c-426b-941e-789afb2f2c25","ios":"levelo://app?vid=76445514-dd6c-426b-941e-789afb2f2c25"},"vehicle_type_id":"4","last_reported":1728987089,"current_range_meters":38800,"station_id":"ce4bhqh2rcd13ifvqhmg","pricing_plan_id":"cebpf4jnsgd1na2vs0mg"},{"bike_id":"ac6df58b-e612-47e8-b264-ec6dbac5f799","system_id":"levelo_inurba_marseille","lat":43.29277,"lon":5.36848,"is_reserved":false,"is_disabled":false,"rental_uris":{"android":"levelo://app?vid=ac6df58b-e612-47e8-b264-ec6dbac5f799","ios":"levelo://app?vid=ac6df58b-e612-47e8-b264-ec6dbac5f799"},"vehicle_type_id":"4","last_reported":1728987089,"current_range_meters":11200,"station_id":"ce4bhbp2rcd13ifvqesg","pricing_plan_id":"cebpf4jnsgd1na2vs0mg"},{"bike_id":"dbb9c770-b19e-409e-852c-5cc110ac1a41","system_id":"levelo_inurba_marseille","lat":43.30311,"lon":5.36896,"is_reserved":false,"is_disabled":false,"rental_uris":{"android":"levelo://app?vid=dbb9c770-b19e-409e-852c-5cc110ac1a41","ios":"levelo://app?vid=dbb9c770-b19e-409e-852c-5cc110ac1a41"},"vehicle_type_id":"4","last_reported":1728987089,"current_range_meters":38000,"station_id":"ce4bgqh2rcd13ifvqc5g","pricing_plan_id":"cebpf4jnsgd1na2vs0mg"},{"bike_id":"eb5e2a80-e4f0-490c-a49d-148ab8b2d56f","system_id":"levelo_inurba_marseille","lat":43.27943,"lon":5.41037,"is_reserved":false,"is_disabled":false,"rental_uris":{"android":"levelo://app?vid=eb5e2a80-e4f0-490c-a49d-148ab8b2d56f","ios":"levelo://app?vid=eb5e2a80-e4f0-490c-a49d-148ab8b2d56f"},"vehicle_type_id":"4","last_reported":1728987089,"current_range_meters":18000,"station_id":"ce4bhnp2rcd13ifvqh0g","pricing_plan_id":"cebpf4jnsgd1na2vs0mg"},{"bike_id":"65bc66b6-4410-41af-9344-7f2de1699216","system_id":"levelo_inurba_marseille","lat":43.30163,"lon":5.3807,"is_reserved":false,"is_disabled":false,"rental_uris":{"android":"levelo://app?vid=65bc66b6-4410-41af-9344-7f2de1699216","ios":"levelo://app?vid=65bc66b6-4410-41af-9344-7f2de1699216"},"vehicle_type_id":"4","last_reported":1728987089,"current_range_meters":29600,"station_id":"ce4bgjp2rcd13ifvqbh0","pricing_plan_id":"cebpf4jnsgd1na2vs0mg"},{"bike_id":"27521189-a10b-488a-82b8-973812fa95e1","system_id":"levelo_inurba_marseille","lat":43.32479,"lon":5.36569,"is_reserved":false,"is_disabled":false,"rental_uris":{"android":"levelo://app?vid=27521189-a10b-488a-82b8-973812fa95e1","ios":"levelo://app?vid=27521189-a10b-488a-82b8-973812fa95e1"},"vehicle_type_id":"4","last_reported":1728987089,"current_range_meters":37600,"station_id":"ce4bhs12rcd13ifvqhvg","pricing_plan_id":"cebpf4jnsgd1na2vs0mg"},{"bike_id":"cbd7d81a-b913-4adf-8a4f-e40c105f9838","system_id":"levelo_inurba_marseille","lat":43.28417,"lon":5.34994,"is_reserved":false,"is_disabled":false,"rental_uris":{"android":"levelo://app?vid=cbd7d81a-b913-4adf-8a4f-e40c105f9838","ios":"levelo://app?vid=cbd7d81a-b913-4adf-8a4f-e40c105f9838"},"vehicle_type_id":"4","last_reported":1728987089,"current_range_meters":37600,"station_id":"ce4bhbh2rcd13ifvqepg","pricing_plan_id":"cebpf4jnsgd1na2vs0mg"},{"bike_id":"4958bc6b-0611-407c-bfea-b8509e93da6b","system_id":"levelo_inurba_marseille","lat":43.26678,"lon":5.38265,"is_reserved":false,"is_disabled":false,"rental_uris":{"android":"levelo://app?vid=4958bc6b-0611-407c-bfea-b8509e93da6b","ios":"levelo://app?vid=4958bc6b-0611-407c-bfea-b8509e93da6b"},"vehicle_type_id":"4","last_reported":1728987089,"current_range_meters":18800,"station_id":"ce4bhg92rcd13ifvqf90","pricing_plan_id":"cebpf4jnsgd1na2vs0mg"},{"bike_id":"c80bffdd-5af6-417a-8b44-520a51e21254","system_id":"levelo_inurba_marseille","lat":43.30535,"lon":5.36539,"is_reserved":false,"is_disabled":false,"rental_uris":{"android":"levelo://app?vid=c80bffdd-5af6-417a-8b44-520a51e21254","ios":"levelo://app?vid=c80bffdd-5af6-417a-8b44-520a51e21254"},"vehicle_type_id":"4","last_reported":1728987089,"current_range_meters":10800,"station_id":"ce4bgs12rcd13ifvqcag","pricing_plan_id":"cebpf4jnsgd1na2vs0mg"},{"bike_id":"c75ebe2f-1b6b-4d9d-a677-ac12dee32aa4","system_id":"levelo_inurba_marseille","lat":43.29445,"lon":5.39757,"is_reserved":false,"is_disabled":false,"rental_uris":{"android":"levelo://app?vid=c75ebe2f-1b6b-4d9d-a677-ac12dee32aa4","ios":"levelo://app?vid=c75ebe2f-1b6b-4d9d-a677-ac12dee32aa4"},"vehicle_type_id":"4","last_reported":1728987089,"current_range_meters":38000,"station_id":"ce4bh3h2rcd13ifvqdo0","pricing_plan_id":"cebpf4jnsgd1na2vs0mg"},{"bike_id":"5f5fff2b-1849-4eab-93cc-4bc098418f49","system_id":"levelo_inurba_marseille","lat":43.3254,"lon":5.41426,"is_reserved":false,"is_disabled":false,"rental_uris":{"android":"levelo://app?vid=5f5fff2b-1849-4eab-93cc-4bc098418f49","ios":"levelo://app?vid=5f5fff2b-1849-4eab-93cc-4bc098418f49"},"vehicle_type_id":"4","last_reported":1728987089,"current_range_meters":22800,"station_id":"ce4bhq12rcd13ifvqhhg","pricing_plan_id":"cebpf4jnsgd1na2vs0mg"},{"bike_id":"548a4bd2-f297-46fb-874a-2bca98383065","system_id":"levelo_inurba_marseille","lat":43.310767,"lon":5.383418,"is_reserved":false,"is_disabled":false,"rental_uris":{"android":"levelo://app?vid=548a4bd2-f297-46fb-874a-2bca98383065","ios":"levelo://app?vid=548a4bd2-f297-46fb-874a-2bca98383065"},"vehicle_type_id":"4","last_reported":1728987089,"current_range_meters":37600,"station_id":"ce4bgv92rcd13ifvqcr0","pricing_plan_id":"cebpf4jnsgd1na2vs0mg"},{"bike_id":"af72c931-eb8a-4884-9dc9-d800fea8aa26","system_id":"levelo_inurba_marseille","lat":43.24388,"lon":5.37055,"is_reserved":false,"is_disabled":false,"rental_uris":{"android":"levelo://app?vid=af72c931-eb8a-4884-9dc9-d800fea8aa26","ios":"levelo://app?vid=af72c931-eb8a-4884-9dc9-d800fea8aa26"},"vehicle_type_id":"4","last_reported":1728987089,"current_range_meters":26800,"station_id":"ce4bhhh2rcd13ifvqfk0","pricing_plan_id":"cebpf4jnsgd1na2vs0mg"},{"bike_id":"737006ce-13be-4b72-b5ce-26394a105cb5","system_id":"levelo_inurba_marseille","lat":43.26209,"lon":5.37441,"is_reserved":false,"is_disabled":false,"rental_uris":{"android":"levelo://app?vid=737006ce-13be-4b72-b5ce-26394a105cb5","ios":"levelo://app?vid=737006ce-13be-4b72-b5ce-26394a105cb5"},"vehicle_type_id":"4","last_reported":1728987089,"current_range_meters":10000,"station_id":"ce4bhgp2rcd13ifvqfc0","pricing_plan_id":"cebpf4jnsgd1na2vs0mg"},{"bike_id":"fce15e3d-4c31-4116-9b1f-66edcf55692b","system_id":"levelo_inurba_marseille","lat":43.29528,"lon":5.37514,"is_reserved":false,"is_disabled":false,"rental_uris":{"android":"levelo://app?vid=fce15e3d-4c31-4116-9b1f-66edcf55692b","ios":"levelo://app?vid=fce15e3d-4c31-4116-9b1f-66edcf55692b"},"vehicle_type_id":"4","last_reported":1728987089,"current_range_meters":10800,"station_id":"ce4bgkp2rcd13ifvqbmg","pricing_plan_id":"cebpf4jnsgd1na2vs0mg"},{"bike_id":"f68b8fb9-e642-4d13-831a-8cc61ab5b246","system_id":"levelo_inurba_marseille","lat":43.28078,"lon":5.39659,"is_reserved":false,"is_disabled":false,"rental_uris":{"android":"levelo://app?vid=f68b8fb9-e642-4d13-831a-8cc61ab5b246","ios":"levelo://app?vid=f68b8fb9-e642-4d13-831a-8cc61ab5b246"},"vehicle_type_id":"4","last_reported":1728987089,"current_range_meters":32000,"station_id":"ce4bho12rcd13ifvqh2g","pricing_plan_id":"cebpf4jnsgd1na2vs0mg"},{"bike_id":"a2eb58c6-dd46-4b5a-b81d-fe3714bbcfc9","system_id":"levelo_inurba_marseille","lat":43.239601,"lon":5.366309,"is_reserved":false,"is_disabled":false,"rental_uris":{"android":"levelo://app?vid=a2eb58c6-dd46-4b5a-b81d-fe3714bbcfc9","ios":"levelo://app?vid=a2eb58c6-dd46-4b5a-b81d-fe3714bbcfc9"},"vehicle_type_id":"4","last_reported":1728987089,"current_range_meters":8400,"station_id":"ce4bhi12rcd13ifvqfp0","pricing_plan_id":"cebpf4jnsgd1na2vs0mg"},{"bike_id":"f023582d-9726-41ca-a508-42bc7926f78e","system_id":"levelo_inurba_marseille","lat":43.29307,"lon":5.37178,"is_reserved":false,"is_disabled":false,"rental_uris":{"android":"levelo://app?vid=f023582d-9726-41ca-a508-42bc7926f78e","ios":"levelo://app?vid=f023582d-9726-41ca-a508-42bc7926f78e"},"vehicle_type_id":"4","last_reported":1728987089,"current_range_meters":38800,"station_id":"ce4bgh92rcd13ifvqb40","pricing_plan_id":"cebpf4jnsgd1na2vs0mg"},{"bike_id":"0dc5e48e-6060-45cb-8338-177962c25eef","system_id":"levelo_inurba_marseille","lat":43.281541,"lon":5.424958,"is_reserved":false,"is_disabled":false,"rental_uris":{"android":"levelo://app?vid=0dc5e48e-6060-45cb-8338-177962c25eef","ios":"levelo://app?vid=0dc5e48e-6060-45cb-8338-177962c25eef"},"vehicle_type_id":"4","last_reported":1728987089,"current_range_meters":33600,"station_id":"ce4bhnh2rcd13ifvqgug","pricing_plan_id":"cebpf4jnsgd1na2vs0mg"},{"bike_id":"995213a4-b0e8-4737-b0b6-5f59e564978e","system_id":"levelo_inurba_marseille","lat":43.33604,"lon":5.41022,"is_reserved":false,"is_disabled":false,"rental_uris":{"android":"levelo://app?vid=995213a4-b0e8-4737-b0b6-5f59e564978e","ios":"levelo://app?vid=995213a4-b0e8-4737-b0b6-5f59e564978e"},"vehicle_type_id":"4","last_reported":1728987089,"current_range_meters":7200,"station_id":"ce4bhqh2rcd13ifvqhmg","pricing_plan_id":"cebpf4jnsgd1na2vs0mg"},{"bike_id":"b178b062-35cd-4f92-91db-f4ae171fe0ea","system_id":"levelo_inurba_marseille","lat":43.292851,"lon":5.368404,"is_reserved":false,"is_disabled":false,"rental_uris":{"android":"levelo://app?vid=b178b062-35cd-4f92-91db-f4ae171fe0ea","ios":"levelo://app?vid=b178b062-35cd-4f92-91db-f4ae171fe0ea"},"vehicle_type_id":"4","last_reported":1728987089,"current_range_meters":10800,"station_id":"","pricing_plan_id":"cebpf4jnsgd1na2vs0mg"},{"bike_id":"f05cce9d-68e9-46ef-bf15-4511feedd133","system_id":"levelo_inurba_marseille","lat":43.3055,"lon":5.36699,"is_reserved":false,"is_disabled":false,"rental_uris":{"android":"levelo://app?vid=f05cce9d-68e9-46ef-bf15-4511feedd133","ios":"levelo://app?vid=f05cce9d-68e9-46ef-bf15-4511feedd133"},"vehicle_type_id":"4","last_reported":1728987089,"current_range_meters":7200,"station_id":"ce4bgrp2rcd13ifvqc9g","pricing_plan_id":"cebpf4jnsgd1na2vs0mg"},{"bike_id":"c0670d96-b06e-446b-a07e-6b5eeebc59d7","system_id":"levelo_inurba_marseille","lat":43.274948,"lon":5.424466,"is_reserved":false,"is_disabled":false,"rental_uris":{"android":"levelo://app?vid=c0670d96-b06e-446b-a07e-6b5eeebc59d7","ios":"levelo://app?vid=c0670d96-b06e-446b-a07e-6b5eeebc59d7"},"vehicle_type_id":"4","last_reported":1728987089,"current_range_meters":12400,"station_id":"ce4bhn92rcd13ifvqgrg","pricing_plan_id":"cebpf4jnsgd1na2vs0mg"},{"bike_id":"485372db-c927-43ac-8631-871bcbd82cc0","system_id":"levelo_inurba_marseille","lat":43.24067,"lon":5.37754,"is_reserved":false,"is_disabled":false,"rental_uris":{"android":"levelo://app?vid=485372db-c927-43ac-8631-871bcbd82cc0","ios":"levelo://app?vid=485372db-c927-43ac-8631-871bcbd82cc0"},"vehicle_type_id":"4","last_reported":1728987089,"current_range_meters":11600,"station_id":"ce4bhnp2rcd13ifvqgvg","pricing_plan_id":"cebpf4jnsgd1na2vs0mg"},{"bike_id":"e6650910-7acf-4e49-a98a-380cdfa45e1c","system_id":"levelo_inurba_marseille","lat":43.25717,"lon":5.41112,"is_reserved":false,"is_disabled":false,"rental_uris":{"android":"levelo://app?vid=e6650910-7acf-4e49-a98a-380cdfa45e1c","ios":"levelo://app?vid=e6650910-7acf-4e49-a98a-380cdfa45e1c"},"vehicle_type_id":"4","last_reported":1728987089,"current_range_meters":14000,"station_id":"ce4bhkp2rcd13ifvqgd0","pricing_plan_id":"cebpf4jnsgd1na2vs0mg"},{"bike_id":"02c903ab-53e0-41d9-a4f7-29b840913cfb","system_id":"levelo_inurba_marseille","lat":43.25083,"lon":5.39522,"is_reserved":false,"is_disabled":false,"rental_uris":{"android":"levelo://app?vid=02c903ab-53e0-41d9-a4f7-29b840913cfb","ios":"levelo://app?vid=02c903ab-53e0-41d9-a4f7-29b840913cfb"},"vehicle_type_id":"4","last_reported":1728987089,"current_range_meters":16000,"station_id":"ce4bhm12rcd13ifvqgkg","pricing_plan_id":"cebpf4jnsgd1na2vs0mg"},{"bike_id":"a0d3d324-fa7e-4417-aee7-85012ecab44e","system_id":"levelo_inurba_marseille","lat":43.34192,"lon":5.44514,"is_reserved":false,"is_disabled":false,"rental_uris":{"android":"levelo://app?vid=a0d3d324-fa7e-4417-aee7-85012ecab44e","ios":"levelo://app?vid=a0d3d324-fa7e-4417-aee7-85012ecab44e"},"vehicle_type_id":"4","last_reported":1728987089,"current_range_meters":24400,"station_id":"","pricing_plan_id":"cebpf4jnsgd1na2vs0mg"},{"bike_id":"724c8533-6c2a-4d58-9645-9dc7cc8cde49","system_id":"levelo_inurba_marseille","lat":43.27183,"lon":5.40993,"is_reserved":false,"is_disabled":false,"rental_uris":{"android":"levelo://app?vid=724c8533-6c2a-4d58-9645-9dc7cc8cde49","ios":"levelo://app?vid=724c8533-6c2a-4d58-9645-9dc7cc8cde49"},"vehicle_type_id":"4","last_reported":1728987089,"current_range_meters":38000,"station_id":"ce4bhl12rcd13ifvqgf0","pricing_plan_id":"cebpf4jnsgd1na2vs0mg"},{"bike_id":"e857dc67-7178-40ce-b4c7-c51d9c28d7e0","system_id":"levelo_inurba_marseille","lat":43.30599,"lon":5.37247,"is_reserved":false,"is_disabled":false,"rental_uris":{"android":"levelo://app?vid=e857dc67-7178-40ce-b4c7-c51d9c28d7e0","ios":"levelo://app?vid=e857dc67-7178-40ce-b4c7-c51d9c28d7e0"},"vehicle_type_id":"4","last_reported":1728987089,"current_range_meters":27600,"station_id":"ce4bgqh2rcd13ifvqc4g","pricing_plan_id":"cebpf4jnsgd1na2vs0mg"},{"bike_id":"663de26c-85c0-43c6-b9ed-43edcf569b7f","system_id":"levelo_inurba_marseille","lat":43.27497,"lon":5.42447,"is_reserved":false,"is_disabled":false,"rental_uris":{"android":"levelo://app?vid=663de26c-85c0-43c6-b9ed-43edcf569b7f","ios":"levelo://app?vid=663de26c-85c0-43c6-b9ed-43edcf569b7f"},"vehicle_type_id":"4","last_reported":1728987089,"current_range_meters":26800,"station_id":"ce4bhn92rcd13ifvqgrg","pricing_plan_id":"cebpf4jnsgd1na2vs0mg"},{"bike_id":"47fee1a8-e2f4-40ff-bff0-9b791a85981d","system_id":"levelo_inurba_marseille","lat":43.30149,"lon":5.38077,"is_reserved":false,"is_disabled":false,"rental_uris":{"android":"levelo://app?vid=47fee1a8-e2f4-40ff-bff0-9b791a85981d","ios":"levelo://app?vid=47fee1a8-e2f4-40ff-bff0-9b791a85981d"},"vehicle_type_id":"4","last_reported":1728987089,"current_range_meters":19200,"station_id":"ce4bgjp2rcd13ifvqbh0","pricing_plan_id":"cebpf4jnsgd1na2vs0mg"},{"bike_id":"2029b8e5-ceff-421f-a585-646be9909808","system_id":"levelo_inurba_marseille","lat":43.26063,"lon":5.39395,"is_reserved":false,"is_disabled":false,"rental_uris":{"android":"levelo://app?vid=2029b8e5-ceff-421f-a585-646be9909808","ios":"levelo://app?vid=2029b8e5-ceff-421f-a585-646be9909808"},"vehicle_type_id":"4","last_reported":1728987089,"current_range_meters":34000,"station_id":"ce4bhh92rcd13ifvqfj0","pricing_plan_id":"cebpf4jnsgd1na2vs0mg"},{"bike_id":"c4b4f8e1-4a21-42bc-9ba4-bfc1cfed658a","system_id":"levelo_inurba_marseille","lat":43.2907,"lon":5.37186,"is_reserved":false,"is_disabled":false,"rental_uris":{"android":"levelo://app?vid=c4b4f8e1-4a21-42bc-9ba4-bfc1cfed658a","ios":"levelo://app?vid=c4b4f8e1-4a21-42bc-9ba4-bfc1cfed658a"},"vehicle_type_id":"4","last_reported":1728987089,"current_range_meters":30000,"station_id":"ce4bh5p2rcd13ifvqe4g","pricing_plan_id":"cebpf4jnsgd1na2vs0mg"},{"bike_id":"4797564a-effd-45d2-b2fe-02d1b7f531c1","system_id":"levelo_inurba_marseille","lat":43.24387,"lon":5.37064,"is_reserved":false,"is_disabled":false,"rental_uris":{"android":"levelo://app?vid=4797564a-effd-45d2-b2fe-02d1b7f531c1","ios":"levelo://app?vid=4797564a-effd-45d2-b2fe-02d1b7f531c1"},"vehicle_type_id":"4","last_reported":1728987089,"current_range_meters":16000,"station_id":"ce4bhhh2rcd13ifvqfk0","pricing_plan_id":"cebpf4jnsgd1na2vs0mg"},{"bike_id":"9c2572e4-36df-4e54-9af8-4cd001f64e87","system_id":"levelo_inurba_marseille","lat":43.30217,"lon":5.39474,"is_reserved":false,"is_disabled":false,"rental_uris":{"android":"levelo://app?vid=9c2572e4-36df-4e54-9af8-4cd001f64e87","ios":"levelo://app?vid=9c2572e4-36df-4e54-9af8-4cd001f64e87"},"vehicle_type_id":"4","last_reported":1728987089,"current_range_meters":39200,"station_id":"ce4bh0p2rcd13ifvqd70","pricing_plan_id":"cebpf4jnsgd1na2vs0mg"},{"bike_id":"1d20f0a6-4388-47c8-acdd-c328964c7811","system_id":"levelo_inurba_marseille","lat":43.24078,"lon":5.3774,"is_reserved":false,"is_disabled":false,"rental_uris":{"android":"levelo://app?vid=1d20f0a6-4388-47c8-acdd-c328964c7811","ios":"levelo://app?vid=1d20f0a6-4388-47c8-acdd-c328964c7811"},"vehicle_type_id":"4","last_reported":1728987089,"current_range_meters":14800,"station_id":"ce4bhnp2rcd13ifvqgvg","pricing_plan_id":"cebpf4jnsgd1na2vs0mg"},{"bike_id":"fa7fbc43-c187-4e74-95e7-0eb093c0e307","system_id":"levelo_inurba_marseille","lat":43.33607,"lon":5.40967,"is_reserved":false,"is_disabled":false,"rental_uris":{"android":"levelo://app?vid=fa7fbc43-c187-4e74-95e7-0eb093c0e307","ios":"levelo://app?vid=fa7fbc43-c187-4e74-95e7-0eb093c0e307"},"vehicle_type_id":"4","last_reported":1728987089,"current_range_meters":23200,"station_id":"","pricing_plan_id":"cebpf4jnsgd1na2vs0mg"},{"bike_id":"8f1473c8-5614-4fe5-9a08-5f8d5d6a0adb","system_id":"levelo_inurba_marseille","lat":43.32109,"lon":5.36766,"is_reserved":false,"is_disabled":false,"rental_uris":{"android":"levelo://app?vid=8f1473c8-5614-4fe5-9a08-5f8d5d6a0adb","ios":"levelo://app?vid=8f1473c8-5614-4fe5-9a08-5f8d5d6a0adb"},"vehicle_type_id":"4","last_reported":1728987089,"current_range_meters":27200,"station_id":"ce4bhrh2rcd13ifvqhug","pricing_plan_id":"cebpf4jnsgd1na2vs0mg"},{"bike_id":"06bd8e3b-65e1-4389-97a4-35fe24bebce2","system_id":"levelo_inurba_marseille","lat":43.29553,"lon":5.42296,"is_reserved":false,"is_disabled":false,"rental_uris":{"android":"levelo://app?vid=06bd8e3b-65e1-4389-97a4-35fe24bebce2","ios":"levelo://app?vid=06bd8e3b-65e1-4389-97a4-35fe24bebce2"},"vehicle_type_id":"4","last_reported":1728987089,"current_range_meters":8800,"station_id":"ce4bhph2rcd13ifvqhdg","pricing_plan_id":"cebpf4jnsgd1na2vs0mg"},{"bike_id":"939dc762-61b1-4f69-a5da-26e3700343af","system_id":"levelo_inurba_marseille","lat":43.25584,"lon":5.3823,"is_reserved":false,"is_disabled":false,"rental_uris":{"android":"levelo://app?vid=939dc762-61b1-4f69-a5da-26e3700343af","ios":"levelo://app?vid=939dc762-61b1-4f69-a5da-26e3700343af"},"vehicle_type_id":"4","last_reported":1728987089,"current_range_meters":31200,"station_id":"ce4bhih2rcd13ifvqfs0","pricing_plan_id":"cebpf4jnsgd1na2vs0mg"},{"bike_id":"7087abe2-fe19-45a5-9a3a-5cb77b0b1255","system_id":"levelo_inurba_marseille","lat":43.29513,"lon":5.37511,"is_reserved":false,"is_disabled":false,"rental_uris":{"android":"levelo://app?vid=7087abe2-fe19-45a5-9a3a-5cb77b0b1255","ios":"levelo://app?vid=7087abe2-fe19-45a5-9a3a-5cb77b0b1255"},"vehicle_type_id":"4","last_reported":1728987089,"current_range_meters":16800,"station_id":"ce4bgkp2rcd13ifvqbmg","pricing_plan_id":"cebpf4jnsgd1na2vs0mg"},{"bike_id":"9c75a2c9-809f-4518-b812-6dfc1ac280df","system_id":"levelo_inurba_marseille","lat":43.2512,"lon":5.40321,"is_reserved":false,"is_disabled":false,"rental_uris":{"android":"levelo://app?vid=9c75a2c9-809f-4518-b812-6dfc1ac280df","ios":"levelo://app?vid=9c75a2c9-809f-4518-b812-6dfc1ac280df"},"vehicle_type_id":"4","last_reported":1728987089,"current_range_meters":24400,"station_id":"ce4bhlh2rcd13ifvqgig","pricing_plan_id":"cebpf4jnsgd1na2vs0mg"},{"bike_id":"07467e4f-69a5-429e-b876-c7d2aff00184","system_id":"levelo_inurba_marseille","lat":43.27494,"lon":5.42458,"is_reserved":false,"is_disabled":false,"rental_uris":{"android":"levelo://app?vid=07467e4f-69a5-429e-b876-c7d2aff00184","ios":"levelo://app?vid=07467e4f-69a5-429e-b876-c7d2aff00184"},"vehicle_type_id":"4","last_reported":1728987089,"current_range_meters":19600,"station_id":"ce4bhn92rcd13ifvqgrg","pricing_plan_id":"cebpf4jnsgd1na2vs0mg"},{"bike_id":"332f81a0-cacc-4135-bfd6-cdc4423daeb1","system_id":"levelo_inurba_marseille","lat":43.28718,"lon":5.38305,"is_reserved":false,"is_disabled":false,"rental_uris":{"android":"levelo://app?vid=332f81a0-cacc-4135-bfd6-cdc4423daeb1","ios":"levelo://app?vid=332f81a0-cacc-4135-bfd6-cdc4423daeb1"},"vehicle_type_id":"4","last_reported":1728987089,"current_range_meters":24800,"station_id":"ce4bgk12rcd13ifvqbi0","pricing_plan_id":"cebpf4jnsgd1na2vs0mg"},{"bike_id":"b3fd777c-3120-4e5f-858b-ab0898240ad1","system_id":"levelo_inurba_marseille","lat":43.298,"lon":5.38098,"is_reserved":false,"is_disabled":false,"rental_uris":{"android":"levelo://app?vid=b3fd777c-3120-4e5f-858b-ab0898240ad1","ios":"levelo://app?vid=b3fd777c-3120-4e5f-858b-ab0898240ad1"},"vehicle_type_id":"4","last_reported":1728987089,"current_range_meters":33600,"station_id":"ce4bgip2rcd13ifvqbb0","pricing_plan_id":"cebpf4jnsgd1na2vs0mg"},{"bike_id":"270599d1-daf7-4469-bdc1-bd64a30d5cd0","system_id":"levelo_inurba_marseille","lat":43.28422,"lon":5.3499,"is_reserved":false,"is_disabled":false,"rental_uris":{"android":"levelo://app?vid=270599d1-daf7-4469-bdc1-bd64a30d5cd0","ios":"levelo://app?vid=270599d1-daf7-4469-bdc1-bd64a30d5cd0"},"vehicle_type_id":"4","last_reported":1728987089,"current_range_meters":36000,"station_id":"ce4bhbh2rcd13ifvqepg","pricing_plan_id":"cebpf4jnsgd1na2vs0mg"},{"bike_id":"5838d9ba-5587-4e24-bb26-e40fe4e56c6a","system_id":"levelo_inurba_marseille","lat":43.29199,"lon":5.35811,"is_reserved":false,"is_disabled":false,"rental_uris":{"android":"levelo://app?vid=5838d9ba-5587-4e24-bb26-e40fe4e56c6a","ios":"levelo://app?vid=5838d9ba-5587-4e24-bb26-e40fe4e56c6a"},"vehicle_type_id":"4","last_reported":1728987089,"current_range_meters":3200,"station_id":"ce4bhb12rcd13ifvqel0","pricing_plan_id":"cebpf4jnsgd1na2vs0mg"},{"bike_id":"e043ac16-f754-4642-b077-d2e254dc22ac","system_id":"levelo_inurba_marseille","lat":43.30305,"lon":5.36896,"is_reserved":false,"is_disabled":false,"rental_uris":{"android":"levelo://app?vid=e043ac16-f754-4642-b077-d2e254dc22ac","ios":"levelo://app?vid=e043ac16-f754-4642-b077-d2e254dc22ac"},"vehicle_type_id":"4","last_reported":1728987089,"current_range_meters":35200,"station_id":"ce4bgqh2rcd13ifvqc5g","pricing_plan_id":"cebpf4jnsgd1na2vs0mg"},{"bike_id":"fc18448d-25be-44bf-9829-b9ab23d12464","system_id":"levelo_inurba_marseille","lat":43.24077,"lon":5.37754,"is_reserved":false,"is_disabled":false,"rental_uris":{"android":"levelo://app?vid=fc18448d-25be-44bf-9829-b9ab23d12464","ios":"levelo://app?vid=fc18448d-25be-44bf-9829-b9ab23d12464"},"vehicle_type_id":"4","last_reported":1728987089,"current_range_meters":8000,"station_id":"ce4bhnp2rcd13ifvqgvg","pricing_plan_id":"cebpf4jnsgd1na2vs0mg"},{"bike_id":"2140b6a3-5118-4150-823e-9225aeb56201","system_id":"levelo_inurba_marseille","lat":43.231946,"lon":5.355461,"is_reserved":false,"is_disabled":false,"rental_uris":{"android":"levelo://app?vid=2140b6a3-5118-4150-823e-9225aeb56201","ios":"levelo://app?vid=2140b6a3-5118-4150-823e-9225aeb56201"},"vehicle_type_id":"4","last_reported":1728987089,"current_range_meters":8400,"station_id":"ce4bhu92rcd13ifvqi70","pricing_plan_id":"cebpf4jnsgd1na2vs0mg"},{"bike_id":"ea90227c-842e-4143-b8dc-fe74683c474f","system_id":"levelo_inurba_marseille","lat":43.25937,"lon":5.40904,"is_reserved":false,"is_disabled":false,"rental_uris":{"android":"levelo://app?vid=ea90227c-842e-4143-b8dc-fe74683c474f","ios":"levelo://app?vid=ea90227c-842e-4143-b8dc-fe74683c474f"},"vehicle_type_id":"4","last_reported":1728987089,"current_range_meters":31200,"station_id":"ce4bhm92rcd13ifvqglg","pricing_plan_id":"cebpf4jnsgd1na2vs0mg"},{"bike_id":"8b0095a9-1d3d-4fcb-82d3-42c0be20a082","system_id":"levelo_inurba_marseille","lat":43.28846,"lon":5.39327,"is_reserved":false,"is_disabled":false,"rental_uris":{"android":"levelo://app?vid=8b0095a9-1d3d-4fcb-82d3-42c0be20a082","ios":"levelo://app?vid=8b0095a9-1d3d-4fcb-82d3-42c0be20a082"},"vehicle_type_id":"4","last_reported":1728987089,"current_range_meters":17200,"station_id":"ce4bh2p2rcd13ifvqdi0","pricing_plan_id":"cebpf4jnsgd1na2vs0mg"},{"bike_id":"4feb8eef-3a82-4a55-a0b2-d46d1ac2b58e","system_id":"levelo_inurba_marseille","lat":43.24805,"lon":5.37458,"is_reserved":false,"is_disabled":false,"rental_uris":{"android":"levelo://app?vid=4feb8eef-3a82-4a55-a0b2-d46d1ac2b58e","ios":"levelo://app?vid=4feb8eef-3a82-4a55-a0b2-d46d1ac2b58e"},"vehicle_type_id":"4","last_reported":1728987089,"current_range_meters":12400,"station_id":"ce4bhgh2rcd13ifvqfb0","pricing_plan_id":"cebpf4jnsgd1na2vs0mg"},{"bike_id":"97d558dd-e0c5-4e59-9b13-b8d0c9843e06","system_id":"levelo_inurba_marseille","lat":43.27048,"lon":5.40262,"is_reserved":false,"is_disabled":false,"rental_uris":{"android":"levelo://app?vid=97d558dd-e0c5-4e59-9b13-b8d0c9843e06","ios":"levelo://app?vid=97d558dd-e0c5-4e59-9b13-b8d0c9843e06"},"vehicle_type_id":"4","last_reported":1728987089,"current_range_meters":16400,"station_id":"ce4bhk92rcd13ifvqgc0","pricing_plan_id":"cebpf4jnsgd1na2vs0mg"},{"bike_id":"b34f08f9-710d-4a88-97e7-1ddd3c6ef845","system_id":"levelo_inurba_marseille","lat":43.29166,"lon":5.37154,"is_reserved":false,"is_disabled":false,"rental_uris":{"android":"levelo://app?vid=b34f08f9-710d-4a88-97e7-1ddd3c6ef845","ios":"levelo://app?vid=b34f08f9-710d-4a88-97e7-1ddd3c6ef845"},"vehicle_type_id":"4","last_reported":1728987089,"current_range_meters":36800,"station_id":"ce4bha92rcd13ifvqeh0","pricing_plan_id":"cebpf4jnsgd1na2vs0mg"},{"bike_id":"822e5772-0ab2-4531-869d-b15dc8912cf2","system_id":"levelo_inurba_marseille","lat":43.30543,"lon":5.36702,"is_reserved":false,"is_disabled":false,"rental_uris":{"android":"levelo://app?vid=822e5772-0ab2-4531-869d-b15dc8912cf2","ios":"levelo://app?vid=822e5772-0ab2-4531-869d-b15dc8912cf2"},"vehicle_type_id":"4","last_reported":1728987089,"current_range_meters":38000,"station_id":"ce4bgrp2rcd13ifvqc9g","pricing_plan_id":"cebpf4jnsgd1na2vs0mg"},{"bike_id":"3cae6dbf-2f90-4eb1-a647-739d29c4291d","system_id":"levelo_inurba_marseille","lat":43.27048,"lon":5.40263,"is_reserved":false,"is_disabled":false,"rental_uris":{"android":"levelo://app?vid=3cae6dbf-2f90-4eb1-a647-739d29c4291d","ios":"levelo://app?vid=3cae6dbf-2f90-4eb1-a647-739d29c4291d"},"vehicle_type_id":"4","last_reported":1728987089,"current_range_meters":37600,"station_id":"ce4bhk92rcd13ifvqgc0","pricing_plan_id":"cebpf4jnsgd1na2vs0mg"},{"bike_id":"6f170668-d29c-4939-ba50-249331586632","system_id":"levelo_inurba_marseille","lat":43.29719,"lon":5.37675,"is_reserved":false,"is_disabled":false,"rental_uris":{"android":"levelo://app?vid=6f170668-d29c-4939-ba50-249331586632","ios":"levelo://app?vid=6f170668-d29c-4939-ba50-249331586632"},"vehicle_type_id":"4","last_reported":1728987089,"current_range_meters":37600,"station_id":"ce4bgkh2rcd13ifvqbl0","pricing_plan_id":"cebpf4jnsgd1na2vs0mg"},{"bike_id":"337e242e-51a2-4522-bc59-0004a8992788","system_id":"levelo_inurba_marseille","lat":43.27905,"lon":5.39574,"is_reserved":false,"is_disabled":false,"rental_uris":{"android":"levelo://app?vid=337e242e-51a2-4522-bc59-0004a8992788","ios":"levelo://app?vid=337e242e-51a2-4522-bc59-0004a8992788"},"vehicle_type_id":"4","last_reported":1728987089,"current_range_meters":14800,"station_id":"ce4bhf92rcd13ifvqf40","pricing_plan_id":"cebpf4jnsgd1na2vs0mg"},{"bike_id":"c41c4bd6-4e68-420e-b205-f8c962247a74","system_id":"levelo_inurba_marseille","lat":43.24387,"lon":5.37052,"is_reserved":false,"is_disabled":false,"rental_uris":{"android":"levelo://app?vid=c41c4bd6-4e68-420e-b205-f8c962247a74","ios":"levelo://app?vid=c41c4bd6-4e68-420e-b205-f8c962247a74"},"vehicle_type_id":"4","last_reported":1728987089,"current_range_meters":16400,"station_id":"ce4bhhh2rcd13ifvqfk0","pricing_plan_id":"cebpf4jnsgd1na2vs0mg"},{"bike_id":"b6e0cb2f-1009-4f8b-86b6-93acb594f0a9","system_id":"levelo_inurba_marseille","lat":43.29622,"lon":5.37711,"is_reserved":false,"is_disabled":false,"rental_uris":{"android":"levelo://app?vid=b6e0cb2f-1009-4f8b-86b6-93acb594f0a9","ios":"levelo://app?vid=b6e0cb2f-1009-4f8b-86b6-93acb594f0a9"},"vehicle_type_id":"4","last_reported":1728987089,"current_range_meters":36400,"station_id":"ce4bgi92rcd13ifvqb90","pricing_plan_id":"cebpf4jnsgd1na2vs0mg"},{"bike_id":"e9d42937-a4b2-4a84-a233-384773796211","system_id":"levelo_inurba_marseille","lat":43.2593,"lon":5.40914,"is_reserved":false,"is_disabled":false,"rental_uris":{"android":"levelo://app?vid=e9d42937-a4b2-4a84-a233-384773796211","ios":"levelo://app?vid=e9d42937-a4b2-4a84-a233-384773796211"},"vehicle_type_id":"4","last_reported":1728987089,"current_range_meters":20400,"station_id":"ce4bhm92rcd13ifvqglg","pricing_plan_id":"cebpf4jnsgd1na2vs0mg"},{"bike_id":"7cc5db3f-7c40-48b0-ab8a-ef1e22f35aea","system_id":"levelo_inurba_marseille","lat":43.301439,"lon":5.374159,"is_reserved":false,"is_disabled":false,"rental_uris":{"android":"levelo://app?vid=7cc5db3f-7c40-48b0-ab8a-ef1e22f35aea","ios":"levelo://app?vid=7cc5db3f-7c40-48b0-ab8a-ef1e22f35aea"},"vehicle_type_id":"4","last_reported":1728987089,"current_range_meters":24000,"station_id":"ce4bgs92rcd13ifvqcc0","pricing_plan_id":"cebpf4jnsgd1na2vs0mg"},{"bike_id":"47fba401-8923-4e44-a249-9013a4c9ac24","system_id":"levelo_inurba_marseille","lat":43.25503,"lon":5.37648,"is_reserved":false,"is_disabled":false,"rental_uris":{"android":"levelo://app?vid=47fba401-8923-4e44-a249-9013a4c9ac24","ios":"levelo://app?vid=47fba401-8923-4e44-a249-9013a4c9ac24"},"vehicle_type_id":"4","last_reported":1728987089,"current_range_meters":24400,"station_id":"ce4bhh12rcd13ifvqff0","pricing_plan_id":"cebpf4jnsgd1na2vs0mg"},{"bike_id":"d47463b0-6813-4565-8760-307b0795d4e6","system_id":"levelo_inurba_marseille","lat":43.28154,"lon":5.42638,"is_reserved":false,"is_disabled":false,"rental_uris":{"android":"levelo://app?vid=d47463b0-6813-4565-8760-307b0795d4e6","ios":"levelo://app?vid=d47463b0-6813-4565-8760-307b0795d4e6"},"vehicle_type_id":"4","last_reported":1728987089,"current_range_meters":20000,"station_id":"ce4bhnh2rcd13ifvqgug","pricing_plan_id":"cebpf4jnsgd1na2vs0mg"},{"bike_id":"76465980-7a9a-4872-9297-9b3aa19725f4","system_id":"levelo_inurba_marseille","lat":43.336,"lon":5.41034,"is_reserved":false,"is_disabled":false,"rental_uris":{"android":"levelo://app?vid=76465980-7a9a-4872-9297-9b3aa19725f4","ios":"levelo://app?vid=76465980-7a9a-4872-9297-9b3aa19725f4"},"vehicle_type_id":"4","last_reported":1728987089,"current_range_meters":6800,"station_id":"ce4bhqh2rcd13ifvqhmg","pricing_plan_id":"cebpf4jnsgd1na2vs0mg"},{"bike_id":"728973a7-fffc-4dcb-a566-e76afa5087d5","system_id":"levelo_inurba_marseille","lat":43.24388,"lon":5.37048,"is_reserved":false,"is_disabled":false,"rental_uris":{"android":"levelo://app?vid=728973a7-fffc-4dcb-a566-e76afa5087d5","ios":"levelo://app?vid=728973a7-fffc-4dcb-a566-e76afa5087d5"},"vehicle_type_id":"4","last_reported":1728987089,"current_range_meters":39200,"station_id":"ce4bhhh2rcd13ifvqfk0","pricing_plan_id":"cebpf4jnsgd1na2vs0mg"},{"bike_id":"e01e41b6-906b-4d38-bd47-8409331ef9cb","system_id":"levelo_inurba_marseille","lat":43.24164,"lon":5.36399,"is_reserved":false,"is_disabled":false,"rental_uris":{"android":"levelo://app?vid=e01e41b6-906b-4d38-bd47-8409331ef9cb","ios":"levelo://app?vid=e01e41b6-906b-4d38-bd47-8409331ef9cb"},"vehicle_type_id":"4","last_reported":1728987089,"current_range_meters":33600,"station_id":"cpo36qri1sfpv3e86is0","pricing_plan_id":"cebpf4jnsgd1na2vs0mg"},{"bike_id":"90b2b41f-b337-41cb-9cba-d10823b4ad5b","system_id":"levelo_inurba_marseille","lat":43.26929,"lon":5.38927,"is_reserved":false,"is_disabled":false,"rental_uris":{"android":"levelo://app?vid=90b2b41f-b337-41cb-9cba-d10823b4ad5b","ios":"levelo://app?vid=90b2b41f-b337-41cb-9cba-d10823b4ad5b"},"vehicle_type_id":"4","last_reported":1728987089,"current_range_meters":39200,"station_id":"ce4bhhh2rcd13ifvqfl0","pricing_plan_id":"cebpf4jnsgd1na2vs0mg"},{"bike_id":"89211ee2-076f-4df3-92bd-cd8885f2e76d","system_id":"levelo_inurba_marseille","lat":43.23194,"lon":5.35555,"is_reserved":false,"is_disabled":false,"rental_uris":{"android":"levelo://app?vid=89211ee2-076f-4df3-92bd-cd8885f2e76d","ios":"levelo://app?vid=89211ee2-076f-4df3-92bd-cd8885f2e76d"},"vehicle_type_id":"4","last_reported":1728987089,"current_range_meters":38800,"station_id":"ce4bhu92rcd13ifvqi70","pricing_plan_id":"cebpf4jnsgd1na2vs0mg"},{"bike_id":"ce9d0675-d631-4c06-b642-b36bc8ba8ca3","system_id":"levelo_inurba_marseille","lat":43.33727,"lon":5.39201,"is_reserved":false,"is_disabled":false,"rental_uris":{"android":"levelo://app?vid=ce9d0675-d631-4c06-b642-b36bc8ba8ca3","ios":"levelo://app?vid=ce9d0675-d631-4c06-b642-b36bc8ba8ca3"},"vehicle_type_id":"4","last_reported":1728987089,"current_range_meters":37600,"station_id":"ce4bhr92rcd13ifvqhsg","pricing_plan_id":"cebpf4jnsgd1na2vs0mg"},{"bike_id":"678c26db-dcb1-4396-b0d0-b38d54cca5ee","system_id":"levelo_inurba_marseille","lat":43.24806,"lon":5.37451,"is_reserved":false,"is_disabled":false,"rental_uris":{"android":"levelo://app?vid=678c26db-dcb1-4396-b0d0-b38d54cca5ee","ios":"levelo://app?vid=678c26db-dcb1-4396-b0d0-b38d54cca5ee"},"vehicle_type_id":"4","last_reported":1728987089,"current_range_meters":9200,"station_id":"ce4bhgh2rcd13ifvqfb0","pricing_plan_id":"cebpf4jnsgd1na2vs0mg"},{"bike_id":"90a4ac02-7285-437c-a7f1-39f93cfacb98","system_id":"levelo_inurba_marseille","lat":43.28419,"lon":5.34984,"is_reserved":false,"is_disabled":false,"rental_uris":{"android":"levelo://app?vid=90a4ac02-7285-437c-a7f1-39f93cfacb98","ios":"levelo://app?vid=90a4ac02-7285-437c-a7f1-39f93cfacb98"},"vehicle_type_id":"4","last_reported":1728987089,"current_range_meters":36000,"station_id":"ce4bhbh2rcd13ifvqepg","pricing_plan_id":"cebpf4jnsgd1na2vs0mg"},{"bike_id":"9994a348-203e-42e9-8481-3f4d1666b2ed","system_id":"levelo_inurba_marseille","lat":43.3015,"lon":5.38078,"is_reserved":false,"is_disabled":false,"rental_uris":{"android":"levelo://app?vid=9994a348-203e-42e9-8481-3f4d1666b2ed","ios":"levelo://app?vid=9994a348-203e-42e9-8481-3f4d1666b2ed"},"vehicle_type_id":"4","last_reported":1728987089,"current_range_meters":18800,"station_id":"ce4bgjp2rcd13ifvqbh0","pricing_plan_id":"cebpf4jnsgd1na2vs0mg"},{"bike_id":"6f309e54-adf2-4c73-b16c-5ccfc69ab6ed","system_id":"levelo_inurba_marseille","lat":43.26681,"lon":5.3827,"is_reserved":false,"is_disabled":false,"rental_uris":{"android":"levelo://app?vid=6f309e54-adf2-4c73-b16c-5ccfc69ab6ed","ios":"levelo://app?vid=6f309e54-adf2-4c73-b16c-5ccfc69ab6ed"},"vehicle_type_id":"4","last_reported":1728987089,"current_range_meters":18000,"station_id":"ce4bhg92rcd13ifvqf90","pricing_plan_id":"cebpf4jnsgd1na2vs0mg"},{"bike_id":"8b35e8e1-6aec-4bc4-8536-8a14fe052e65","system_id":"levelo_inurba_marseille","lat":43.28437,"lon":5.3919,"is_reserved":false,"is_disabled":false,"rental_uris":{"android":"levelo://app?vid=8b35e8e1-6aec-4bc4-8536-8a14fe052e65","ios":"levelo://app?vid=8b35e8e1-6aec-4bc4-8536-8a14fe052e65"},"vehicle_type_id":"4","last_reported":1728987089,"current_range_meters":37600,"station_id":"ce4bhoh2rcd13ifvqh5g","pricing_plan_id":"cebpf4jnsgd1na2vs0mg"},{"bike_id":"c620684a-3a98-46a6-a3e2-625a11908b9f","system_id":"levelo_inurba_marseille","lat":43.27813,"lon":5.40706,"is_reserved":false,"is_disabled":false,"rental_uris":{"android":"levelo://app?vid=c620684a-3a98-46a6-a3e2-625a11908b9f","ios":"levelo://app?vid=c620684a-3a98-46a6-a3e2-625a11908b9f"},"vehicle_type_id":"4","last_reported":1728987089,"current_range_meters":12000,"station_id":"ce4bhnh2rcd13ifvqgtg","pricing_plan_id":"cebpf4jnsgd1na2vs0mg"},{"bike_id":"9c4870ef-8189-49c9-8051-0aef7043e5cd","system_id":"levelo_inurba_marseille","lat":43.25937,"lon":5.40894,"is_reserved":false,"is_disabled":false,"rental_uris":{"android":"levelo://app?vid=9c4870ef-8189-49c9-8051-0aef7043e5cd","ios":"levelo://app?vid=9c4870ef-8189-49c9-8051-0aef7043e5cd"},"vehicle_type_id":"4","last_reported":1728987089,"current_range_meters":4800,"station_id":"ce4bhm92rcd13ifvqglg","pricing_plan_id":"cebpf4jnsgd1na2vs0mg"},{"bike_id":"70fc60a6-b8a1-49de-8a6e-1b532dfb0edc","system_id":"levelo_inurba_marseille","lat":43.32479,"lon":5.36568,"is_reserved":false,"is_disabled":false,"rental_uris":{"android":"levelo://app?vid=70fc60a6-b8a1-49de-8a6e-1b532dfb0edc","ios":"levelo://app?vid=70fc60a6-b8a1-49de-8a6e-1b532dfb0edc"},"vehicle_type_id":"4","last_reported":1728987089,"current_range_meters":12000,"station_id":"ce4bhs12rcd13ifvqhvg","pricing_plan_id":"cebpf4jnsgd1na2vs0mg"},{"bike_id":"b6761712-cd33-437e-83c8-811ce3c1e59f","system_id":"levelo_inurba_marseille","lat":43.23962,"lon":5.36631,"is_reserved":false,"is_disabled":false,"rental_uris":{"android":"levelo://app?vid=b6761712-cd33-437e-83c8-811ce3c1e59f","ios":"levelo://app?vid=b6761712-cd33-437e-83c8-811ce3c1e59f"},"vehicle_type_id":"4","last_reported":1728987089,"current_range_meters":31200,"station_id":"ce4bhi12rcd13ifvqfp0","pricing_plan_id":"cebpf4jnsgd1na2vs0mg"},{"bike_id":"7bc84ff3-a7c0-463b-803f-ad33b3503208","system_id":"levelo_inurba_marseille","lat":43.25818,"lon":5.39436,"is_reserved":false,"is_disabled":false,"rental_uris":{"android":"levelo://app?vid=7bc84ff3-a7c0-463b-803f-ad33b3503208","ios":"levelo://app?vid=7bc84ff3-a7c0-463b-803f-ad33b3503208"},"vehicle_type_id":"4","last_reported":1728987089,"current_range_meters":32400,"station_id":"ce4bhip2rcd13ifvqft0","pricing_plan_id":"cebpf4jnsgd1na2vs0mg"},{"bike_id":"ff96eee3-1ac8-4888-9ae7-e4b6cc8154af","system_id":"levelo_inurba_marseille","lat":43.33739,"lon":5.3746,"is_reserved":false,"is_disabled":false,"rental_uris":{"android":"levelo://app?vid=ff96eee3-1ac8-4888-9ae7-e4b6cc8154af","ios":"levelo://app?vid=ff96eee3-1ac8-4888-9ae7-e4b6cc8154af"},"vehicle_type_id":"4","last_reported":1728987089,"current_range_meters":34000,"station_id":"","pricing_plan_id":"cebpf4jnsgd1na2vs0mg"},{"bike_id":"342e1942-2d97-4b1e-a725-9986f3fd7423","system_id":"levelo_inurba_marseille","lat":43.31221,"lon":5.36866,"is_reserved":false,"is_disabled":false,"rental_uris":{"android":"levelo://app?vid=342e1942-2d97-4b1e-a725-9986f3fd7423","ios":"levelo://app?vid=342e1942-2d97-4b1e-a725-9986f3fd7423"},"vehicle_type_id":"4","last_reported":1728987089,"current_range_meters":25200,"station_id":"ce4bgl92rcd13ifvqbq0","pricing_plan_id":"cebpf4jnsgd1na2vs0mg"},{"bike_id":"8bde9570-fe99-48ac-863a-7621d2391e10","system_id":"levelo_inurba_marseille","lat":43.24168,"lon":5.36396,"is_reserved":false,"is_disabled":false,"rental_uris":{"android":"levelo://app?vid=8bde9570-fe99-48ac-863a-7621d2391e10","ios":"levelo://app?vid=8bde9570-fe99-48ac-863a-7621d2391e10"},"vehicle_type_id":"4","last_reported":1728987089,"current_range_meters":11600,"station_id":"cpo36qri1sfpv3e86is0","pricing_plan_id":"cebpf4jnsgd1na2vs0mg"},{"bike_id":"d0ca9da5-f74b-468b-9af6-6ce3f864b511","system_id":"levelo_inurba_marseille","lat":43.30604,"lon":5.37225,"is_reserved":false,"is_disabled":false,"rental_uris":{"android":"levelo://app?vid=d0ca9da5-f74b-468b-9af6-6ce3f864b511","ios":"levelo://app?vid=d0ca9da5-f74b-468b-9af6-6ce3f864b511"},"vehicle_type_id":"4","last_reported":1728987089,"current_range_meters":26000,"station_id":"ce4bgqh2rcd13ifvqc4g","pricing_plan_id":"cebpf4jnsgd1na2vs0mg"},{"bike_id":"6a67f872-f498-43d8-ad44-0ba73f03bb62","system_id":"levelo_inurba_marseille","lat":43.34146,"lon":5.40905,"is_reserved":false,"is_disabled":false,"rental_uris":{"android":"levelo://app?vid=6a67f872-f498-43d8-ad44-0ba73f03bb62","ios":"levelo://app?vid=6a67f872-f498-43d8-ad44-0ba73f03bb62"},"vehicle_type_id":"4","last_reported":1728987089,"current_range_meters":10000,"station_id":"ce4bhqh2rcd13ifvqhlg","pricing_plan_id":"cebpf4jnsgd1na2vs0mg"},{"bike_id":"20af76f0-89c6-4eaf-ae1e-4d5a1104c24a","system_id":"levelo_inurba_marseille","lat":43.268095,"lon":5.402801,"is_reserved":false,"is_disabled":false,"rental_uris":{"android":"levelo://app?vid=20af76f0-89c6-4eaf-ae1e-4d5a1104c24a","ios":"levelo://app?vid=20af76f0-89c6-4eaf-ae1e-4d5a1104c24a"},"vehicle_type_id":"4","last_reported":1728987089,"current_range_meters":38000,"station_id":"ce501612rcd8frsf0b60","pricing_plan_id":"cebpf4jnsgd1na2vs0mg"},{"bike_id":"e8e8118d-3d5e-42fd-9096-f73e58a1fa57","system_id":"levelo_inurba_marseille","lat":43.2984,"lon":5.36262,"is_reserved":false,"is_disabled":false,"rental_uris":{"android":"levelo://app?vid=e8e8118d-3d5e-42fd-9096-f73e58a1fa57","ios":"levelo://app?vid=e8e8118d-3d5e-42fd-9096-f73e58a1fa57"},"vehicle_type_id":"4","last_reported":1728987089,"current_range_meters":34000,"station_id":"ce4bgpp2rcd13ifvqc3g","pricing_plan_id":"cebpf4jnsgd1na2vs0mg"},{"bike_id":"2eef5bbc-7c47-4415-a185-f367b9917a11","system_id":"levelo_inurba_marseille","lat":43.27567,"lon":5.38429,"is_reserved":false,"is_disabled":false,"rental_uris":{"android":"levelo://app?vid=2eef5bbc-7c47-4415-a185-f367b9917a11","ios":"levelo://app?vid=2eef5bbc-7c47-4415-a185-f367b9917a11"},"vehicle_type_id":"4","last_reported":1728987089,"current_range_meters":21600,"station_id":"ce4bhh92rcd13ifvqfi0","pricing_plan_id":"cebpf4jnsgd1na2vs0mg"},{"bike_id":"e55ce7e2-8e60-47b5-844e-977029bd08ba","system_id":"levelo_inurba_marseille","lat":43.29557,"lon":5.4228,"is_reserved":false,"is_disabled":false,"rental_uris":{"android":"levelo://app?vid=e55ce7e2-8e60-47b5-844e-977029bd08ba","ios":"levelo://app?vid=e55ce7e2-8e60-47b5-844e-977029bd08ba"},"vehicle_type_id":"4","last_reported":1728987089,"current_range_meters":40000,"station_id":"ce4bhph2rcd13ifvqhdg","pricing_plan_id":"cebpf4jnsgd1na2vs0mg"},{"bike_id":"292b9425-1372-40d4-bf0a-fe57aa779a41","system_id":"levelo_inurba_marseille","lat":43.23063,"lon":5.35495,"is_reserved":false,"is_disabled":false,"rental_uris":{"android":"levelo://app?vid=292b9425-1372-40d4-bf0a-fe57aa779a41","ios":"levelo://app?vid=292b9425-1372-40d4-bf0a-fe57aa779a41"},"vehicle_type_id":"4","last_reported":1728987089,"current_range_meters":34000,"station_id":"cpo3342slgdg3j2ifvpg","pricing_plan_id":"cebpf4jnsgd1na2vs0mg"},{"bike_id":"f1baba50-f384-4335-a052-af9eda4a52f0","system_id":"levelo_inurba_marseille","lat":43.24391,"lon":5.37053,"is_reserved":false,"is_disabled":false,"rental_uris":{"android":"levelo://app?vid=f1baba50-f384-4335-a052-af9eda4a52f0","ios":"levelo://app?vid=f1baba50-f384-4335-a052-af9eda4a52f0"},"vehicle_type_id":"4","last_reported":1728987089,"current_range_meters":39200,"station_id":"ce4bhhh2rcd13ifvqfk0","pricing_plan_id":"cebpf4jnsgd1na2vs0mg"},{"bike_id":"461cdb91-8e88-40eb-b33d-b220ae42786f","system_id":"levelo_inurba_marseille","lat":43.2971,"lon":5.366,"is_reserved":false,"is_disabled":false,"rental_uris":{"android":"levelo://app?vid=461cdb91-8e88-40eb-b33d-b220ae42786f","ios":"levelo://app?vid=461cdb91-8e88-40eb-b33d-b220ae42786f"},"vehicle_type_id":"4","last_reported":1728987089,"current_range_meters":38800,"station_id":"ce4bgn12rcd13ifvqbt0","pricing_plan_id":"cebpf4jnsgd1na2vs0mg"},{"bike_id":"88598f63-0871-4fe2-9dcf-a97c7fbe86b7","system_id":"levelo_inurba_marseille","lat":43.31221,"lon":5.36879,"is_reserved":false,"is_disabled":false,"rental_uris":{"android":"levelo://app?vid=88598f63-0871-4fe2-9dcf-a97c7fbe86b7","ios":"levelo://app?vid=88598f63-0871-4fe2-9dcf-a97c7fbe86b7"},"vehicle_type_id":"4","last_reported":1728987089,"current_range_meters":35600,"station_id":"ce4bgl92rcd13ifvqbq0","pricing_plan_id":"cebpf4jnsgd1na2vs0mg"},{"bike_id":"e1d315a9-818f-42ee-a1ff-f0147df88741","system_id":"levelo_inurba_marseille","lat":43.25931,"lon":5.40912,"is_reserved":false,"is_disabled":false,"rental_uris":{"android":"levelo://app?vid=e1d315a9-818f-42ee-a1ff-f0147df88741","ios":"levelo://app?vid=e1d315a9-818f-42ee-a1ff-f0147df88741"},"vehicle_type_id":"4","last_reported":1728987089,"current_range_meters":6400,"station_id":"ce4bhm92rcd13ifvqglg","pricing_plan_id":"cebpf4jnsgd1na2vs0mg"},{"bike_id":"67d8c57b-7453-499c-b776-9ba0f7553488","system_id":"levelo_inurba_marseille","lat":43.30603,"lon":5.37229,"is_reserved":false,"is_disabled":false,"rental_uris":{"android":"levelo://app?vid=67d8c57b-7453-499c-b776-9ba0f7553488","ios":"levelo://app?vid=67d8c57b-7453-499c-b776-9ba0f7553488"},"vehicle_type_id":"4","last_reported":1728987089,"current_range_meters":33600,"station_id":"ce4bgqh2rcd13ifvqc4g","pricing_plan_id":"cebpf4jnsgd1na2vs0mg"},{"bike_id":"d8597bf4-185f-46b0-9306-434905261110","system_id":"levelo_inurba_marseille","lat":43.28275,"lon":5.35075,"is_reserved":false,"is_disabled":false,"rental_uris":{"android":"levelo://app?vid=d8597bf4-185f-46b0-9306-434905261110","ios":"levelo://app?vid=d8597bf4-185f-46b0-9306-434905261110"},"vehicle_type_id":"4","last_reported":1728987089,"current_range_meters":38800,"station_id":"ce4bhbp2rcd13ifvqerg","pricing_plan_id":"cebpf4jnsgd1na2vs0mg"},{"bike_id":"73e28ccd-28e0-4d07-baca-53fb87a55656","system_id":"levelo_inurba_marseille","lat":43.30597,"lon":5.39363,"is_reserved":false,"is_disabled":false,"rental_uris":{"android":"levelo://app?vid=73e28ccd-28e0-4d07-baca-53fb87a55656","ios":"levelo://app?vid=73e28ccd-28e0-4d07-baca-53fb87a55656"},"vehicle_type_id":"4","last_reported":1728987089,"current_range_meters":37600,"station_id":"ce4bgvp2rcd13ifvqcu0","pricing_plan_id":"cebpf4jnsgd1na2vs0mg"},{"bike_id":"65528c24-34d2-404a-8a18-345b3ae24b61","system_id":"levelo_inurba_marseille","lat":43.296,"lon":5.38106,"is_reserved":false,"is_disabled":false,"rental_uris":{"android":"levelo://app?vid=65528c24-34d2-404a-8a18-345b3ae24b61","ios":"levelo://app?vid=65528c24-34d2-404a-8a18-345b3ae24b61"},"vehicle_type_id":"4","last_reported":1728987089,"current_range_meters":8800,"station_id":"ce4bgl12rcd13ifvqbo0","pricing_plan_id":"cebpf4jnsgd1na2vs0mg"},{"bike_id":"38e8c1de-c0ca-4790-bba1-7aa6fb4b325a","system_id":"levelo_inurba_marseille","lat":43.337444,"lon":5.374475,"is_reserved":false,"is_disabled":false,"rental_uris":{"android":"levelo://app?vid=38e8c1de-c0ca-4790-bba1-7aa6fb4b325a","ios":"levelo://app?vid=38e8c1de-c0ca-4790-bba1-7aa6fb4b325a"},"vehicle_type_id":"4","last_reported":1728987089,"current_range_meters":26800,"station_id":"","pricing_plan_id":"cebpf4jnsgd1na2vs0mg"},{"bike_id":"008bdcf3-4213-435a-8020-86527f705df2","system_id":"levelo_inurba_marseille","lat":43.32106,"lon":5.36775,"is_reserved":false,"is_disabled":false,"rental_uris":{"android":"levelo://app?vid=008bdcf3-4213-435a-8020-86527f705df2","ios":"levelo://app?vid=008bdcf3-4213-435a-8020-86527f705df2"},"vehicle_type_id":"4","last_reported":1728987089,"current_range_meters":10000,"station_id":"ce4bhrh2rcd13ifvqhug","pricing_plan_id":"cebpf4jnsgd1na2vs0mg"},{"bike_id":"e42a5c5b-19d2-48bc-8dfc-c8514ef28621","system_id":"levelo_inurba_marseille","lat":43.24169,"lon":5.36399,"is_reserved":false,"is_disabled":false,"rental_uris":{"android":"levelo://app?vid=e42a5c5b-19d2-48bc-8dfc-c8514ef28621","ios":"levelo://app?vid=e42a5c5b-19d2-48bc-8dfc-c8514ef28621"},"vehicle_type_id":"4","last_reported":1728987089,"current_range_meters":26800,"station_id":"cpo36qri1sfpv3e86is0","pricing_plan_id":"cebpf4jnsgd1na2vs0mg"},{"bike_id":"f46e13eb-53bd-4892-988e-fd8fb01bffba","system_id":"levelo_inurba_marseille","lat":43.24179,"lon":5.39733,"is_reserved":false,"is_disabled":false,"rental_uris":{"android":"levelo://app?vid=f46e13eb-53bd-4892-988e-fd8fb01bffba","ios":"levelo://app?vid=f46e13eb-53bd-4892-988e-fd8fb01bffba"},"vehicle_type_id":"4","last_reported":1728987089,"current_range_meters":27600,"station_id":"ce4bhn12rcd13ifvqgpg","pricing_plan_id":"cebpf4jnsgd1na2vs0mg"},{"bike_id":"1989161d-8386-47b1-87a5-b86d93dc477e","system_id":"levelo_inurba_marseille","lat":43.25932,"lon":5.40904,"is_reserved":false,"is_disabled":false,"rental_uris":{"android":"levelo://app?vid=1989161d-8386-47b1-87a5-b86d93dc477e","ios":"levelo://app?vid=1989161d-8386-47b1-87a5-b86d93dc477e"},"vehicle_type_id":"4","last_reported":1728987089,"current_range_meters":34000,"station_id":"ce4bhm92rcd13ifvqglg","pricing_plan_id":"cebpf4jnsgd1na2vs0mg"},{"bike_id":"054cd63a-ea63-4129-925e-589fc788c316","system_id":"levelo_inurba_marseille","lat":43.30156,"lon":5.38094,"is_reserved":false,"is_disabled":false,"rental_uris":{"android":"levelo://app?vid=054cd63a-ea63-4129-925e-589fc788c316","ios":"levelo://app?vid=054cd63a-ea63-4129-925e-589fc788c316"},"vehicle_type_id":"4","last_reported":1728987089,"current_range_meters":12000,"station_id":"ce4bgjp2rcd13ifvqbh0","pricing_plan_id":"cebpf4jnsgd1na2vs0mg"},{"bike_id":"0dfba07a-dc32-4b20-ab47-f5310a897c3d","system_id":"levelo_inurba_marseille","lat":43.30297,"lon":5.39179,"is_reserved":false,"is_disabled":false,"rental_uris":{"android":"levelo://app?vid=0dfba07a-dc32-4b20-ab47-f5310a897c3d","ios":"levelo://app?vid=0dfba07a-dc32-4b20-ab47-f5310a897c3d"},"vehicle_type_id":"4","last_reported":1728987089,"current_range_meters":24400,"station_id":"ce4bgj92rcd13ifvqbd0","pricing_plan_id":"cebpf4jnsgd1na2vs0mg"},{"bike_id":"0bb0b55b-1db0-4f04-9cae-5decd1e52b8e","system_id":"levelo_inurba_marseille","lat":43.23151,"lon":5.43705,"is_reserved":false,"is_disabled":false,"rental_uris":{"android":"levelo://app?vid=0bb0b55b-1db0-4f04-9cae-5decd1e52b8e","ios":"levelo://app?vid=0bb0b55b-1db0-4f04-9cae-5decd1e52b8e"},"vehicle_type_id":"4","last_reported":1728987089,"current_range_meters":22400,"station_id":"ce4bhmp2rcd13ifvqgog","pricing_plan_id":"cebpf4jnsgd1na2vs0mg"},{"bike_id":"eecd106e-ff8f-409e-9c56-21b66ef3f2f6","system_id":"levelo_inurba_marseille","lat":43.32039,"lon":5.41573,"is_reserved":false,"is_disabled":false,"rental_uris":{"android":"levelo://app?vid=eecd106e-ff8f-409e-9c56-21b66ef3f2f6","ios":"levelo://app?vid=eecd106e-ff8f-409e-9c56-21b66ef3f2f6"},"vehicle_type_id":"4","last_reported":1728987089,"current_range_meters":37600,"station_id":"ce4bhq92rcd13ifvqhkg","pricing_plan_id":"cebpf4jnsgd1na2vs0mg"},{"bike_id":"1b5cd61f-8783-43f8-b628-f683e5b86f00","system_id":"levelo_inurba_marseille","lat":43.26678,"lon":5.38259,"is_reserved":false,"is_disabled":false,"rental_uris":{"android":"levelo://app?vid=1b5cd61f-8783-43f8-b628-f683e5b86f00","ios":"levelo://app?vid=1b5cd61f-8783-43f8-b628-f683e5b86f00"},"vehicle_type_id":"4","last_reported":1728987089,"current_range_meters":38000,"station_id":"ce4bhg92rcd13ifvqf90","pricing_plan_id":"cebpf4jnsgd1na2vs0mg"},{"bike_id":"d06f24f3-1961-4c39-8b26-c72733863fe9","system_id":"levelo_inurba_marseille","lat":43.33781,"lon":5.37443,"is_reserved":false,"is_disabled":false,"rental_uris":{"android":"levelo://app?vid=d06f24f3-1961-4c39-8b26-c72733863fe9","ios":"levelo://app?vid=d06f24f3-1961-4c39-8b26-c72733863fe9"},"vehicle_type_id":"4","last_reported":1728987089,"current_range_meters":24800,"station_id":"","pricing_plan_id":"cebpf4jnsgd1na2vs0mg"},{"bike_id":"e273fc78-a5cf-4ddd-b028-04a49abf7bcf","system_id":"levelo_inurba_marseille","lat":43.29621,"lon":5.37727,"is_reserved":false,"is_disabled":false,"rental_uris":{"android":"levelo://app?vid=e273fc78-a5cf-4ddd-b028-04a49abf7bcf","ios":"levelo://app?vid=e273fc78-a5cf-4ddd-b028-04a49abf7bcf"},"vehicle_type_id":"4","last_reported":1728987089,"current_range_meters":10800,"station_id":"ce4bgi92rcd13ifvqb90","pricing_plan_id":"cebpf4jnsgd1na2vs0mg"},{"bike_id":"a7ce9ce1-7367-48ab-a192-ca36480fc2a1","system_id":"levelo_inurba_marseille","lat":43.29938,"lon":5.36538,"is_reserved":false,"is_disabled":false,"rental_uris":{"android":"levelo://app?vid=a7ce9ce1-7367-48ab-a192-ca36480fc2a1","ios":"levelo://app?vid=a7ce9ce1-7367-48ab-a192-ca36480fc2a1"},"vehicle_type_id":"4","last_reported":1728987089,"current_range_meters":25600,"station_id":"ce4bgm92rcd13ifvqbr0","pricing_plan_id":"cebpf4jnsgd1na2vs0mg"},{"bike_id":"e0966cae-0e84-4a15-9e2e-94a66e18e8cd","system_id":"levelo_inurba_marseille","lat":43.30537,"lon":5.36525,"is_reserved":false,"is_disabled":false,"rental_uris":{"android":"levelo://app?vid=e0966cae-0e84-4a15-9e2e-94a66e18e8cd","ios":"levelo://app?vid=e0966cae-0e84-4a15-9e2e-94a66e18e8cd"},"vehicle_type_id":"4","last_reported":1728987089,"current_range_meters":31200,"station_id":"ce4bgs12rcd13ifvqcag","pricing_plan_id":"cebpf4jnsgd1na2vs0mg"},{"bike_id":"396492da-565a-4549-8b16-912564f0d56a","system_id":"levelo_inurba_marseille","lat":43.27615,"lon":5.36103,"is_reserved":false,"is_disabled":false,"rental_uris":{"android":"levelo://app?vid=396492da-565a-4549-8b16-912564f0d56a","ios":"levelo://app?vid=396492da-565a-4549-8b16-912564f0d56a"},"vehicle_type_id":"4","last_reported":1728987089,"current_range_meters":8400,"station_id":"ce4bgj92rcd13ifvqbe0","pricing_plan_id":"cebpf4jnsgd1na2vs0mg"},{"bike_id":"32df044e-0d1a-41c6-b542-cb3692f3bb1a","system_id":"levelo_inurba_marseille","lat":43.29532,"lon":5.38541,"is_reserved":false,"is_disabled":false,"rental_uris":{"android":"levelo://app?vid=32df044e-0d1a-41c6-b542-cb3692f3bb1a","ios":"levelo://app?vid=32df044e-0d1a-41c6-b542-cb3692f3bb1a"},"vehicle_type_id":"4","last_reported":1728987089,"current_range_meters":34000,"station_id":"ce4bgih2rcd13ifvqba0","pricing_plan_id":"cebpf4jnsgd1na2vs0mg"},{"bike_id":"d41309ab-1a1f-4395-acaa-455483c3f8e1","system_id":"levelo_inurba_marseille","lat":43.23195,"lon":5.3555,"is_reserved":false,"is_disabled":false,"rental_uris":{"android":"levelo://app?vid=d41309ab-1a1f-4395-acaa-455483c3f8e1","ios":"levelo://app?vid=d41309ab-1a1f-4395-acaa-455483c3f8e1"},"vehicle_type_id":"4","last_reported":1728987089,"current_range_meters":33200,"station_id":"ce4bhu92rcd13ifvqi70","pricing_plan_id":"cebpf4jnsgd1na2vs0mg"},{"bike_id":"b200f9be-2cb8-4435-81cc-f94bec798084","system_id":"levelo_inurba_marseille","lat":43.27043,"lon":5.4029,"is_reserved":false,"is_disabled":false,"rental_uris":{"android":"levelo://app?vid=b200f9be-2cb8-4435-81cc-f94bec798084","ios":"levelo://app?vid=b200f9be-2cb8-4435-81cc-f94bec798084"},"vehicle_type_id":"4","last_reported":1728987089,"current_range_meters":7200,"station_id":"ce4bhk92rcd13ifvqgc0","pricing_plan_id":"cebpf4jnsgd1na2vs0mg"},{"bike_id":"375c6b12-2be4-49c3-9065-b2874b4a4e05","system_id":"levelo_inurba_marseille","lat":43.24082,"lon":5.37753,"is_reserved":false,"is_disabled":false,"rental_uris":{"android":"levelo://app?vid=375c6b12-2be4-49c3-9065-b2874b4a4e05","ios":"levelo://app?vid=375c6b12-2be4-49c3-9065-b2874b4a4e05"},"vehicle_type_id":"4","last_reported":1728987089,"current_range_meters":9200,"station_id":"ce4bhnp2rcd13ifvqgvg","pricing_plan_id":"cebpf4jnsgd1na2vs0mg"},{"bike_id":"4541705b-123e-4e6f-8dd6-ae40b6b53c55","system_id":"levelo_inurba_marseille","lat":43.28152,"lon":5.42637,"is_reserved":false,"is_disabled":false,"rental_uris":{"android":"levelo://app?vid=4541705b-123e-4e6f-8dd6-ae40b6b53c55","ios":"levelo://app?vid=4541705b-123e-4e6f-8dd6-ae40b6b53c55"},"vehicle_type_id":"4","last_reported":1728987089,"current_range_meters":8400,"station_id":"ce4bhnh2rcd13ifvqgug","pricing_plan_id":"cebpf4jnsgd1na2vs0mg"},{"bike_id":"1236bbf7-ed03-4263-9ab4-884e4d68a5c4","system_id":"levelo_inurba_marseille","lat":43.32485,"lon":5.365593,"is_reserved":false,"is_disabled":false,"rental_uris":{"android":"levelo://app?vid=1236bbf7-ed03-4263-9ab4-884e4d68a5c4","ios":"levelo://app?vid=1236bbf7-ed03-4263-9ab4-884e4d68a5c4"},"vehicle_type_id":"4","last_reported":1728987089,"current_range_meters":39200,"station_id":"ce4bhs12rcd13ifvqhvg","pricing_plan_id":"cebpf4jnsgd1na2vs0mg"},{"bike_id":"00580030-e939-4f91-a036-9143e8555b37","system_id":"levelo_inurba_marseille","lat":43.27049,"lon":5.40256,"is_reserved":false,"is_disabled":false,"rental_uris":{"android":"levelo://app?vid=00580030-e939-4f91-a036-9143e8555b37","ios":"levelo://app?vid=00580030-e939-4f91-a036-9143e8555b37"},"vehicle_type_id":"4","last_reported":1728987089,"current_range_meters":24000,"station_id":"ce4bhk92rcd13ifvqgc0","pricing_plan_id":"cebpf4jnsgd1na2vs0mg"},{"bike_id":"aa24e686-c4b3-4e16-bd17-034a8270bcf1","system_id":"levelo_inurba_marseille","lat":43.2984,"lon":5.36267,"is_reserved":false,"is_disabled":false,"rental_uris":{"android":"levelo://app?vid=aa24e686-c4b3-4e16-bd17-034a8270bcf1","ios":"levelo://app?vid=aa24e686-c4b3-4e16-bd17-034a8270bcf1"},"vehicle_type_id":"4","last_reported":1728987089,"current_range_meters":15200,"station_id":"ce4bgpp2rcd13ifvqc3g","pricing_plan_id":"cebpf4jnsgd1na2vs0mg"},{"bike_id":"42ddf1a3-c9fa-4405-9d7e-8b919329a107","system_id":"levelo_inurba_marseille","lat":43.30549,"lon":5.36542,"is_reserved":false,"is_disabled":false,"rental_uris":{"android":"levelo://app?vid=42ddf1a3-c9fa-4405-9d7e-8b919329a107","ios":"levelo://app?vid=42ddf1a3-c9fa-4405-9d7e-8b919329a107"},"vehicle_type_id":"4","last_reported":1728987089,"current_range_meters":39200,"station_id":"ce4bgs12rcd13ifvqcag","pricing_plan_id":"cebpf4jnsgd1na2vs0mg"},{"bike_id":"c7b21cf6-e6ef-4a95-b2ab-92111a1993c5","system_id":"levelo_inurba_marseille","lat":43.27993,"lon":5.41663,"is_reserved":false,"is_disabled":false,"rental_uris":{"android":"levelo://app?vid=c7b21cf6-e6ef-4a95-b2ab-92111a1993c5","ios":"levelo://app?vid=c7b21cf6-e6ef-4a95-b2ab-92111a1993c5"},"vehicle_type_id":"4","last_reported":1728987089,"current_range_meters":27200,"station_id":"ce4bho12rcd13ifvqh1g","pricing_plan_id":"cebpf4jnsgd1na2vs0mg"},{"bike_id":"4c0eae8f-fb78-42e3-9cf9-594cfc4b55bc","system_id":"levelo_inurba_marseille","lat":43.24076,"lon":5.37759,"is_reserved":false,"is_disabled":false,"rental_uris":{"android":"levelo://app?vid=4c0eae8f-fb78-42e3-9cf9-594cfc4b55bc","ios":"levelo://app?vid=4c0eae8f-fb78-42e3-9cf9-594cfc4b55bc"},"vehicle_type_id":"4","last_reported":1728987089,"current_range_meters":8400,"station_id":"ce4bhnp2rcd13ifvqgvg","pricing_plan_id":"cebpf4jnsgd1na2vs0mg"},{"bike_id":"5ac4b365-d20a-45e0-acfe-e7e86ca60b8f","system_id":"levelo_inurba_marseille","lat":43.25929,"lon":5.40904,"is_reserved":false,"is_disabled":false,"rental_uris":{"android":"levelo://app?vid=5ac4b365-d20a-45e0-acfe-e7e86ca60b8f","ios":"levelo://app?vid=5ac4b365-d20a-45e0-acfe-e7e86ca60b8f"},"vehicle_type_id":"4","last_reported":1728987089,"current_range_meters":36800,"station_id":"ce4bhm92rcd13ifvqglg","pricing_plan_id":"cebpf4jnsgd1na2vs0mg"},{"bike_id":"b8a150cc-6842-4ed1-a6b2-264cbeb395b7","system_id":"levelo_inurba_marseille","lat":43.2512,"lon":5.40318,"is_reserved":false,"is_disabled":false,"rental_uris":{"android":"levelo://app?vid=b8a150cc-6842-4ed1-a6b2-264cbeb395b7","ios":"levelo://app?vid=b8a150cc-6842-4ed1-a6b2-264cbeb395b7"},"vehicle_type_id":"4","last_reported":1728987089,"current_range_meters":5600,"station_id":"ce4bhlh2rcd13ifvqgig","pricing_plan_id":"cebpf4jnsgd1na2vs0mg"},{"bike_id":"dd6ada39-b592-4bf4-aa00-6b6d3fa65c36","system_id":"levelo_inurba_marseille","lat":43.26557,"lon":5.37281,"is_reserved":false,"is_disabled":false,"rental_uris":{"android":"levelo://app?vid=dd6ada39-b592-4bf4-aa00-6b6d3fa65c36","ios":"levelo://app?vid=dd6ada39-b592-4bf4-aa00-6b6d3fa65c36"},"vehicle_type_id":"4","last_reported":1728987089,"current_range_meters":17600,"station_id":"ce4bhg12rcd13ifvqf70","pricing_plan_id":"cebpf4jnsgd1na2vs0mg"},{"bike_id":"1af2813b-98a0-4b62-aaf8-89652b30f639","system_id":"levelo_inurba_marseille","lat":43.22933,"lon":5.35381,"is_reserved":false,"is_disabled":false,"rental_uris":{"android":"levelo://app?vid=1af2813b-98a0-4b62-aaf8-89652b30f639","ios":"levelo://app?vid=1af2813b-98a0-4b62-aaf8-89652b30f639"},"vehicle_type_id":"4","last_reported":1728987089,"current_range_meters":30800,"station_id":"cpo3532slgdg3j2ikp40","pricing_plan_id":"cebpf4jnsgd1na2vs0mg"},{"bike_id":"e933622d-50e9-4399-b2c7-6b78123dd26c","system_id":"levelo_inurba_marseille","lat":43.25936,"lon":5.40895,"is_reserved":false,"is_disabled":false,"rental_uris":{"android":"levelo://app?vid=e933622d-50e9-4399-b2c7-6b78123dd26c","ios":"levelo://app?vid=e933622d-50e9-4399-b2c7-6b78123dd26c"},"vehicle_type_id":"4","last_reported":1728987089,"current_range_meters":4800,"station_id":"ce4bhm92rcd13ifvqglg","pricing_plan_id":"cebpf4jnsgd1na2vs0mg"},{"bike_id":"9f7654b3-1eb6-48be-960d-599a0e4fe15e","system_id":"levelo_inurba_marseille","lat":43.28616,"lon":5.35098,"is_reserved":false,"is_disabled":false,"rental_uris":{"android":"levelo://app?vid=9f7654b3-1eb6-48be-960d-599a0e4fe15e","ios":"levelo://app?vid=9f7654b3-1eb6-48be-960d-599a0e4fe15e"},"vehicle_type_id":"4","last_reported":1728987089,"current_range_meters":36000,"station_id":"ce4bhch2rcd13ifvqeug","pricing_plan_id":"cebpf4jnsgd1na2vs0mg"},{"bike_id":"f93454e1-a669-4c63-a4ca-b572042c7971","system_id":"levelo_inurba_marseille","lat":43.231909,"lon":5.355573,"is_reserved":false,"is_disabled":false,"rental_uris":{"android":"levelo://app?vid=f93454e1-a669-4c63-a4ca-b572042c7971","ios":"levelo://app?vid=f93454e1-a669-4c63-a4ca-b572042c7971"},"vehicle_type_id":"4","last_reported":1728987089,"current_range_meters":26000,"station_id":"ce4bhu92rcd13ifvqi70","pricing_plan_id":"cebpf4jnsgd1na2vs0mg"},{"bike_id":"ab38c6ee-afe2-452b-b152-733408083f03","system_id":"levelo_inurba_marseille","lat":43.24074,"lon":5.37756,"is_reserved":false,"is_disabled":false,"rental_uris":{"android":"levelo://app?vid=ab38c6ee-afe2-452b-b152-733408083f03","ios":"levelo://app?vid=ab38c6ee-afe2-452b-b152-733408083f03"},"vehicle_type_id":"4","last_reported":1728987089,"current_range_meters":28800,"station_id":"ce4bhnp2rcd13ifvqgvg","pricing_plan_id":"cebpf4jnsgd1na2vs0mg"},{"bike_id":"d944e946-a63b-4a1b-bd3b-f717ac7d49e5","system_id":"levelo_inurba_marseille","lat":43.24077,"lon":5.3776,"is_reserved":false,"is_disabled":false,"rental_uris":{"android":"levelo://app?vid=d944e946-a63b-4a1b-bd3b-f717ac7d49e5","ios":"levelo://app?vid=d944e946-a63b-4a1b-bd3b-f717ac7d49e5"},"vehicle_type_id":"4","last_reported":1728987089,"current_range_meters":28400,"station_id":"ce4bhnp2rcd13ifvqgvg","pricing_plan_id":"cebpf4jnsgd1na2vs0mg"},{"bike_id":"85aa7f25-b1e7-4166-b78b-22e2e9f02a9c","system_id":"levelo_inurba_marseille","lat":43.28436,"lon":5.39195,"is_reserved":false,"is_disabled":false,"rental_uris":{"android":"levelo://app?vid=85aa7f25-b1e7-4166-b78b-22e2e9f02a9c","ios":"levelo://app?vid=85aa7f25-b1e7-4166-b78b-22e2e9f02a9c"},"vehicle_type_id":"4","last_reported":1728987089,"current_range_meters":28800,"station_id":"ce4bhoh2rcd13ifvqh5g","pricing_plan_id":"cebpf4jnsgd1na2vs0mg"},{"bike_id":"0a08a5bd-ca69-49a4-9ede-3c39e5bae17b","system_id":"levelo_inurba_marseille","lat":43.231964,"lon":5.436364,"is_reserved":false,"is_disabled":false,"rental_uris":{"android":"levelo://app?vid=0a08a5bd-ca69-49a4-9ede-3c39e5bae17b","ios":"levelo://app?vid=0a08a5bd-ca69-49a4-9ede-3c39e5bae17b"},"vehicle_type_id":"4","last_reported":1728987089,"current_range_meters":12000,"station_id":"","pricing_plan_id":"cebpf4jnsgd1na2vs0mg"},{"bike_id":"980dd20d-ea8e-4d17-8d49-cb7530a8e92a","system_id":"levelo_inurba_marseille","lat":43.26485,"lon":5.39548,"is_reserved":false,"is_disabled":false,"rental_uris":{"android":"levelo://app?vid=980dd20d-ea8e-4d17-8d49-cb7530a8e92a","ios":"levelo://app?vid=980dd20d-ea8e-4d17-8d49-cb7530a8e92a"},"vehicle_type_id":"4","last_reported":1728987089,"current_range_meters":10800,"station_id":"ce4bhi12rcd13ifvqfq0","pricing_plan_id":"cebpf4jnsgd1na2vs0mg"},{"bike_id":"6a344486-14e7-432e-98bf-b8beed8e06c6","system_id":"levelo_inurba_marseille","lat":43.32336,"lon":5.38328,"is_reserved":false,"is_disabled":false,"rental_uris":{"android":"levelo://app?vid=6a344486-14e7-432e-98bf-b8beed8e06c6","ios":"levelo://app?vid=6a344486-14e7-432e-98bf-b8beed8e06c6"},"vehicle_type_id":"4","last_reported":1728987089,"current_range_meters":31200,"station_id":"","pricing_plan_id":"cebpf4jnsgd1na2vs0mg"},{"bike_id":"1c29ea6a-d424-450d-9c36-6b427ab42330","system_id":"levelo_inurba_marseille","lat":43.34144,"lon":5.40907,"is_reserved":false,"is_disabled":false,"rental_uris":{"android":"levelo://app?vid=1c29ea6a-d424-450d-9c36-6b427ab42330","ios":"levelo://app?vid=1c29ea6a-d424-450d-9c36-6b427ab42330"},"vehicle_type_id":"4","last_reported":1728987089,"current_range_meters":38800,"station_id":"ce4bhqh2rcd13ifvqhlg","pricing_plan_id":"cebpf4jnsgd1na2vs0mg"},{"bike_id":"79ddf1f5-186b-4457-a77e-9d424f43d6e3","system_id":"levelo_inurba_marseille","lat":43.24076,"lon":5.37752,"is_reserved":false,"is_disabled":false,"rental_uris":{"android":"levelo://app?vid=79ddf1f5-186b-4457-a77e-9d424f43d6e3","ios":"levelo://app?vid=79ddf1f5-186b-4457-a77e-9d424f43d6e3"},"vehicle_type_id":"4","last_reported":1728987089,"current_range_meters":14800,"station_id":"ce4bhnp2rcd13ifvqgvg","pricing_plan_id":"cebpf4jnsgd1na2vs0mg"},{"bike_id":"561b789e-d70b-4b77-a407-86dba2ac1c7f","system_id":"levelo_inurba_marseille","lat":43.25868,"lon":5.39896,"is_reserved":false,"is_disabled":false,"rental_uris":{"android":"levelo://app?vid=561b789e-d70b-4b77-a407-86dba2ac1c7f","ios":"levelo://app?vid=561b789e-d70b-4b77-a407-86dba2ac1c7f"},"vehicle_type_id":"4","last_reported":1728987089,"current_range_meters":36000,"station_id":"ce4bhl92rcd13ifvqghg","pricing_plan_id":"cebpf4jnsgd1na2vs0mg"},{"bike_id":"21ce9b67-fbf1-4b19-a726-0795e5cf3979","system_id":"levelo_inurba_marseille","lat":43.25081,"lon":5.39516,"is_reserved":false,"is_disabled":false,"rental_uris":{"android":"levelo://app?vid=21ce9b67-fbf1-4b19-a726-0795e5cf3979","ios":"levelo://app?vid=21ce9b67-fbf1-4b19-a726-0795e5cf3979"},"vehicle_type_id":"4","last_reported":1728987089,"current_range_meters":38400,"station_id":"ce4bhm12rcd13ifvqgkg","pricing_plan_id":"cebpf4jnsgd1na2vs0mg"},{"bike_id":"a2aa7cfa-fbb9-4f50-9cbb-114f2bd6ac23","system_id":"levelo_inurba_marseille","lat":43.31499,"lon":5.37302,"is_reserved":false,"is_disabled":false,"rental_uris":{"android":"levelo://app?vid=a2aa7cfa-fbb9-4f50-9cbb-114f2bd6ac23","ios":"levelo://app?vid=a2aa7cfa-fbb9-4f50-9cbb-114f2bd6ac23"},"vehicle_type_id":"4","last_reported":1728987089,"current_range_meters":25600,"station_id":"ce4bgt12rcd13ifvqcd0","pricing_plan_id":"cebpf4jnsgd1na2vs0mg"},{"bike_id":"2a663da2-5b26-463d-9318-c142625700dd","system_id":"levelo_inurba_marseille","lat":43.28853,"lon":5.39312,"is_reserved":false,"is_disabled":false,"rental_uris":{"android":"levelo://app?vid=2a663da2-5b26-463d-9318-c142625700dd","ios":"levelo://app?vid=2a663da2-5b26-463d-9318-c142625700dd"},"vehicle_type_id":"4","last_reported":1728987089,"current_range_meters":20800,"station_id":"ce4bh2p2rcd13ifvqdi0","pricing_plan_id":"cebpf4jnsgd1na2vs0mg"},{"bike_id":"754da881-cbc9-4b35-beb2-51d368048841","system_id":"levelo_inurba_marseille","lat":43.33722,"lon":5.37446,"is_reserved":false,"is_disabled":false,"rental_uris":{"android":"levelo://app?vid=754da881-cbc9-4b35-beb2-51d368048841","ios":"levelo://app?vid=754da881-cbc9-4b35-beb2-51d368048841"},"vehicle_type_id":"4","last_reported":1728987089,"current_range_meters":36400,"station_id":"","pricing_plan_id":"cebpf4jnsgd1na2vs0mg"},{"bike_id":"996aeef4-ef61-443c-9e98-4ef75b6646e3","system_id":"levelo_inurba_marseille","lat":43.30319,"lon":5.36901,"is_reserved":false,"is_disabled":false,"rental_uris":{"android":"levelo://app?vid=996aeef4-ef61-443c-9e98-4ef75b6646e3","ios":"levelo://app?vid=996aeef4-ef61-443c-9e98-4ef75b6646e3"},"vehicle_type_id":"4","last_reported":1728987089,"current_range_meters":38800,"station_id":"ce4bgqh2rcd13ifvqc5g","pricing_plan_id":"cebpf4jnsgd1na2vs0mg"},{"bike_id":"982702e0-e3ed-4c76-9014-7f4427361df7","system_id":"levelo_inurba_marseille","lat":43.25714,"lon":5.41112,"is_reserved":false,"is_disabled":false,"rental_uris":{"android":"levelo://app?vid=982702e0-e3ed-4c76-9014-7f4427361df7","ios":"levelo://app?vid=982702e0-e3ed-4c76-9014-7f4427361df7"},"vehicle_type_id":"4","last_reported":1728987089,"current_range_meters":16400,"station_id":"ce4bhkp2rcd13ifvqgd0","pricing_plan_id":"cebpf4jnsgd1na2vs0mg"},{"bike_id":"dde86e9c-08ab-447e-8977-98fcc15ceb96","system_id":"levelo_inurba_marseille","lat":43.24082,"lon":5.37754,"is_reserved":false,"is_disabled":false,"rental_uris":{"android":"levelo://app?vid=dde86e9c-08ab-447e-8977-98fcc15ceb96","ios":"levelo://app?vid=dde86e9c-08ab-447e-8977-98fcc15ceb96"},"vehicle_type_id":"4","last_reported":1728987089,"current_range_meters":12800,"station_id":"ce4bhnp2rcd13ifvqgvg","pricing_plan_id":"cebpf4jnsgd1na2vs0mg"},{"bike_id":"025c7901-36d6-400e-8cd5-dc801340b22e","system_id":"levelo_inurba_marseille","lat":43.26935,"lon":5.40253,"is_reserved":false,"is_disabled":false,"rental_uris":{"android":"levelo://app?vid=025c7901-36d6-400e-8cd5-dc801340b22e","ios":"levelo://app?vid=025c7901-36d6-400e-8cd5-dc801340b22e"},"vehicle_type_id":"4","last_reported":1728987089,"current_range_meters":38800,"station_id":"cjm6bp8fraef2m0cb0m0","pricing_plan_id":"cebpf4jnsgd1na2vs0mg"},{"bike_id":"38354047-828e-4db6-bb59-da9b624f96d2","system_id":"levelo_inurba_marseille","lat":43.24382,"lon":5.37054,"is_reserved":false,"is_disabled":false,"rental_uris":{"android":"levelo://app?vid=38354047-828e-4db6-bb59-da9b624f96d2","ios":"levelo://app?vid=38354047-828e-4db6-bb59-da9b624f96d2"},"vehicle_type_id":"4","last_reported":1728987089,"current_range_meters":38400,"station_id":"ce4bhhh2rcd13ifvqfk0","pricing_plan_id":"cebpf4jnsgd1na2vs0mg"},{"bike_id":"1f94d8bf-40aa-4532-99fe-e6f2adfe1975","system_id":"levelo_inurba_marseille","lat":43.33021,"lon":5.39035,"is_reserved":false,"is_disabled":false,"rental_uris":{"android":"levelo://app?vid=1f94d8bf-40aa-4532-99fe-e6f2adfe1975","ios":"levelo://app?vid=1f94d8bf-40aa-4532-99fe-e6f2adfe1975"},"vehicle_type_id":"4","last_reported":1728987089,"current_range_meters":25200,"station_id":"ce4bhr92rcd13ifvqhrg","pricing_plan_id":"cebpf4jnsgd1na2vs0mg"},{"bike_id":"c12c0883-49e7-4a74-b0d5-2c55ebe776f8","system_id":"levelo_inurba_marseille","lat":43.26578,"lon":5.39002,"is_reserved":false,"is_disabled":false,"rental_uris":{"android":"levelo://app?vid=c12c0883-49e7-4a74-b0d5-2c55ebe776f8","ios":"levelo://app?vid=c12c0883-49e7-4a74-b0d5-2c55ebe776f8"},"vehicle_type_id":"4","last_reported":1728987089,"current_range_meters":35200,"station_id":"ce4bhe12rcd13ifvqf30","pricing_plan_id":"cebpf4jnsgd1na2vs0mg"},{"bike_id":"85f8e4ef-a703-428d-9079-be396eb9a9af","system_id":"levelo_inurba_marseille","lat":43.32536,"lon":5.41438,"is_reserved":false,"is_disabled":false,"rental_uris":{"android":"levelo://app?vid=85f8e4ef-a703-428d-9079-be396eb9a9af","ios":"levelo://app?vid=85f8e4ef-a703-428d-9079-be396eb9a9af"},"vehicle_type_id":"4","last_reported":1728987089,"current_range_meters":7200,"station_id":"ce4bhq12rcd13ifvqhhg","pricing_plan_id":"cebpf4jnsgd1na2vs0mg"},{"bike_id":"5520f010-5b3a-44d6-8ca3-ee405389772a","system_id":"levelo_inurba_marseille","lat":43.2903,"lon":5.38655,"is_reserved":false,"is_disabled":false,"rental_uris":{"android":"levelo://app?vid=5520f010-5b3a-44d6-8ca3-ee405389772a","ios":"levelo://app?vid=5520f010-5b3a-44d6-8ca3-ee405389772a"},"vehicle_type_id":"4","last_reported":1728987089,"current_range_meters":28800,"station_id":"ce4bh4p2rcd13ifvqe0g","pricing_plan_id":"cebpf4jnsgd1na2vs0mg"},{"bike_id":"0d27bf54-1973-4532-95f3-d19c868d7288","system_id":"levelo_inurba_marseille","lat":43.25932,"lon":5.40913,"is_reserved":false,"is_disabled":false,"rental_uris":{"android":"levelo://app?vid=0d27bf54-1973-4532-95f3-d19c868d7288","ios":"levelo://app?vid=0d27bf54-1973-4532-95f3-d19c868d7288"},"vehicle_type_id":"4","last_reported":1728987089,"current_range_meters":8400,"station_id":"ce4bhm92rcd13ifvqglg","pricing_plan_id":"cebpf4jnsgd1na2vs0mg"},{"bike_id":"19b6f97b-c9fe-42ef-a16a-375c7b09738b","system_id":"levelo_inurba_marseille","lat":43.29266,"lon":5.36843,"is_reserved":false,"is_disabled":false,"rental_uris":{"android":"levelo://app?vid=19b6f97b-c9fe-42ef-a16a-375c7b09738b","ios":"levelo://app?vid=19b6f97b-c9fe-42ef-a16a-375c7b09738b"},"vehicle_type_id":"4","last_reported":1728987089,"current_range_meters":38800,"station_id":"ce4bhbp2rcd13ifvqesg","pricing_plan_id":"cebpf4jnsgd1na2vs0mg"},{"bike_id":"fd082f2a-9394-43cc-a0ab-471a8161b557","system_id":"levelo_inurba_marseille","lat":43.27063,"lon":5.40257,"is_reserved":false,"is_disabled":false,"rental_uris":{"android":"levelo://app?vid=fd082f2a-9394-43cc-a0ab-471a8161b557","ios":"levelo://app?vid=fd082f2a-9394-43cc-a0ab-471a8161b557"},"vehicle_type_id":"4","last_reported":1728987089,"current_range_meters":18000,"station_id":"ce4bhk92rcd13ifvqgc0","pricing_plan_id":"cebpf4jnsgd1na2vs0mg"},{"bike_id":"35079bfa-9f11-43bd-97f8-36d54bf92833","system_id":"levelo_inurba_marseille","lat":43.33751,"lon":5.3744,"is_reserved":false,"is_disabled":false,"rental_uris":{"android":"levelo://app?vid=35079bfa-9f11-43bd-97f8-36d54bf92833","ios":"levelo://app?vid=35079bfa-9f11-43bd-97f8-36d54bf92833"},"vehicle_type_id":"4","last_reported":1728987089,"current_range_meters":37600,"station_id":"","pricing_plan_id":"cebpf4jnsgd1na2vs0mg"},{"bike_id":"f83487b8-cf5a-4d8b-a09a-2f8b8d0d5a46","system_id":"levelo_inurba_marseille","lat":43.337444,"lon":5.374475,"is_reserved":false,"is_disabled":false,"rental_uris":{"android":"levelo://app?vid=f83487b8-cf5a-4d8b-a09a-2f8b8d0d5a46","ios":"levelo://app?vid=f83487b8-cf5a-4d8b-a09a-2f8b8d0d5a46"},"vehicle_type_id":"4","last_reported":1728987089,"current_range_meters":33200,"station_id":"","pricing_plan_id":"cebpf4jnsgd1na2vs0mg"},{"bike_id":"06a2d9c3-6e1f-401d-854f-39d68af83e63","system_id":"levelo_inurba_marseille","lat":43.25115,"lon":5.40319,"is_reserved":false,"is_disabled":false,"rental_uris":{"android":"levelo://app?vid=06a2d9c3-6e1f-401d-854f-39d68af83e63","ios":"levelo://app?vid=06a2d9c3-6e1f-401d-854f-39d68af83e63"},"vehicle_type_id":"4","last_reported":1728987089,"current_range_meters":8000,"station_id":"ce4bhlh2rcd13ifvqgig","pricing_plan_id":"cebpf4jnsgd1na2vs0mg"},{"bike_id":"4f9e37d9-80f8-491b-8aa4-97f2b30516ac","system_id":"levelo_inurba_marseille","lat":43.30306,"lon":5.369,"is_reserved":false,"is_disabled":false,"rental_uris":{"android":"levelo://app?vid=4f9e37d9-80f8-491b-8aa4-97f2b30516ac","ios":"levelo://app?vid=4f9e37d9-80f8-491b-8aa4-97f2b30516ac"},"vehicle_type_id":"4","last_reported":1728987089,"current_range_meters":38800,"station_id":"ce4bgqh2rcd13ifvqc5g","pricing_plan_id":"cebpf4jnsgd1na2vs0mg"},{"bike_id":"5280f14a-0e91-48cd-b0ec-64c9cf662fe5","system_id":"levelo_inurba_marseille","lat":43.2997,"lon":5.38497,"is_reserved":false,"is_disabled":false,"rental_uris":{"android":"levelo://app?vid=5280f14a-0e91-48cd-b0ec-64c9cf662fe5","ios":"levelo://app?vid=5280f14a-0e91-48cd-b0ec-64c9cf662fe5"},"vehicle_type_id":"4","last_reported":1728987089,"current_range_meters":8400,"station_id":"ce4bgj92rcd13ifvqbd0","pricing_plan_id":"cebpf4jnsgd1na2vs0mg"},{"bike_id":"d9487109-e233-4b24-9d26-68158949abdb","system_id":"levelo_inurba_marseille","lat":43.27674,"lon":5.38904,"is_reserved":false,"is_disabled":false,"rental_uris":{"android":"levelo://app?vid=d9487109-e233-4b24-9d26-68158949abdb","ios":"levelo://app?vid=d9487109-e233-4b24-9d26-68158949abdb"},"vehicle_type_id":"4","last_reported":1728987089,"current_range_meters":15200,"station_id":"ce4bhi12rcd13ifvqfo0","pricing_plan_id":"cebpf4jnsgd1na2vs0mg"},{"bike_id":"3b8708ab-d96a-4c34-9d19-65d5d0c1731c","system_id":"levelo_inurba_marseille","lat":43.29295,"lon":5.37461,"is_reserved":false,"is_disabled":false,"rental_uris":{"android":"levelo://app?vid=3b8708ab-d96a-4c34-9d19-65d5d0c1731c","ios":"levelo://app?vid=3b8708ab-d96a-4c34-9d19-65d5d0c1731c"},"vehicle_type_id":"4","last_reported":1728987089,"current_range_meters":38800,"station_id":"ce4bgi12rcd13ifvqb70","pricing_plan_id":"cebpf4jnsgd1na2vs0mg"},{"bike_id":"f269126c-1b0b-4a1a-a1d6-f8c3716f5336","system_id":"levelo_inurba_marseille","lat":43.23189,"lon":5.35549,"is_reserved":false,"is_disabled":false,"rental_uris":{"android":"levelo://app?vid=f269126c-1b0b-4a1a-a1d6-f8c3716f5336","ios":"levelo://app?vid=f269126c-1b0b-4a1a-a1d6-f8c3716f5336"},"vehicle_type_id":"4","last_reported":1728987089,"current_range_meters":33600,"station_id":"ce4bhu92rcd13ifvqi70","pricing_plan_id":"cebpf4jnsgd1na2vs0mg"},{"bike_id":"8efa1eaa-9384-4e0d-9d1c-064cacd279cf","system_id":"levelo_inurba_marseille","lat":43.29193,"lon":5.35808,"is_reserved":false,"is_disabled":false,"rental_uris":{"android":"levelo://app?vid=8efa1eaa-9384-4e0d-9d1c-064cacd279cf","ios":"levelo://app?vid=8efa1eaa-9384-4e0d-9d1c-064cacd279cf"},"vehicle_type_id":"4","last_reported":1728987089,"current_range_meters":22400,"station_id":"ce4bhb12rcd13ifvqel0","pricing_plan_id":"cebpf4jnsgd1na2vs0mg"},{"bike_id":"229d0bea-f615-4650-87fa-68d224bdad9b","system_id":"levelo_inurba_marseille","lat":43.30549,"lon":5.36702,"is_reserved":false,"is_disabled":false,"rental_uris":{"android":"levelo://app?vid=229d0bea-f615-4650-87fa-68d224bdad9b","ios":"levelo://app?vid=229d0bea-f615-4650-87fa-68d224bdad9b"},"vehicle_type_id":"4","last_reported":1728987089,"current_range_meters":36400,"station_id":"ce4bgrp2rcd13ifvqc9g","pricing_plan_id":"cebpf4jnsgd1na2vs0mg"},{"bike_id":"4f5f66c0-0407-4d11-ad57-3ad4e68050a6","system_id":"levelo_inurba_marseille","lat":43.30536,"lon":5.36532,"is_reserved":false,"is_disabled":false,"rental_uris":{"android":"levelo://app?vid=4f5f66c0-0407-4d11-ad57-3ad4e68050a6","ios":"levelo://app?vid=4f5f66c0-0407-4d11-ad57-3ad4e68050a6"},"vehicle_type_id":"4","last_reported":1728987089,"current_range_meters":30800,"station_id":"ce4bgs12rcd13ifvqcag","pricing_plan_id":"cebpf4jnsgd1na2vs0mg"},{"bike_id":"a1f16248-f684-4944-a6ba-21a7760bf1a5","system_id":"levelo_inurba_marseille","lat":43.29195,"lon":5.35788,"is_reserved":false,"is_disabled":false,"rental_uris":{"android":"levelo://app?vid=a1f16248-f684-4944-a6ba-21a7760bf1a5","ios":"levelo://app?vid=a1f16248-f684-4944-a6ba-21a7760bf1a5"},"vehicle_type_id":"4","last_reported":1728987089,"current_range_meters":28000,"station_id":"ce4bhb12rcd13ifvqel0","pricing_plan_id":"cebpf4jnsgd1na2vs0mg"},{"bike_id":"7c1740ec-8451-42df-8934-ce1d545f0f49","system_id":"levelo_inurba_marseille","lat":43.30141,"lon":5.374,"is_reserved":false,"is_disabled":false,"rental_uris":{"android":"levelo://app?vid=7c1740ec-8451-42df-8934-ce1d545f0f49","ios":"levelo://app?vid=7c1740ec-8451-42df-8934-ce1d545f0f49"},"vehicle_type_id":"4","last_reported":1728987089,"current_range_meters":20000,"station_id":"ce4bgs92rcd13ifvqcc0","pricing_plan_id":"cebpf4jnsgd1na2vs0mg"},{"bike_id":"2714b3d6-51fc-4132-bf37-fe1c39eb9869","system_id":"levelo_inurba_marseille","lat":43.29842,"lon":5.36268,"is_reserved":false,"is_disabled":false,"rental_uris":{"android":"levelo://app?vid=2714b3d6-51fc-4132-bf37-fe1c39eb9869","ios":"levelo://app?vid=2714b3d6-51fc-4132-bf37-fe1c39eb9869"},"vehicle_type_id":"4","last_reported":1728987089,"current_range_meters":33200,"station_id":"ce4bgpp2rcd13ifvqc3g","pricing_plan_id":"cebpf4jnsgd1na2vs0mg"},{"bike_id":"97130fa1-164e-4625-a8d0-0d7d359fe0a7","system_id":"levelo_inurba_marseille","lat":43.31163,"lon":5.38726,"is_reserved":false,"is_disabled":false,"rental_uris":{"android":"levelo://app?vid=97130fa1-164e-4625-a8d0-0d7d359fe0a7","ios":"levelo://app?vid=97130fa1-164e-4625-a8d0-0d7d359fe0a7"},"vehicle_type_id":"4","last_reported":1728987089,"current_range_meters":12800,"station_id":"ce4bgv12rcd13ifvqcp0","pricing_plan_id":"cebpf4jnsgd1na2vs0mg"},{"bike_id":"94d48054-be54-488d-a425-2deb433f452c","system_id":"levelo_inurba_marseille","lat":43.29796,"lon":5.36439,"is_reserved":false,"is_disabled":false,"rental_uris":{"android":"levelo://app?vid=94d48054-be54-488d-a425-2deb433f452c","ios":"levelo://app?vid=94d48054-be54-488d-a425-2deb433f452c"},"vehicle_type_id":"4","last_reported":1728987089,"current_range_meters":25200,"station_id":"ce4bgnh2rcd13ifvqc0g","pricing_plan_id":"cebpf4jnsgd1na2vs0mg"},{"bike_id":"6ebbb8cb-44a7-4f4b-a549-61eee44275ae","system_id":"levelo_inurba_marseille","lat":43.28444,"lon":5.39204,"is_reserved":false,"is_disabled":false,"rental_uris":{"android":"levelo://app?vid=6ebbb8cb-44a7-4f4b-a549-61eee44275ae","ios":"levelo://app?vid=6ebbb8cb-44a7-4f4b-a549-61eee44275ae"},"vehicle_type_id":"4","last_reported":1728987089,"current_range_meters":35600,"station_id":"ce4bhoh2rcd13ifvqh5g","pricing_plan_id":"cebpf4jnsgd1na2vs0mg"},{"bike_id":"55eb567f-6a92-4749-876e-2d089672214b","system_id":"levelo_inurba_marseille","lat":43.26684,"lon":5.38277,"is_reserved":false,"is_disabled":false,"rental_uris":{"android":"levelo://app?vid=55eb567f-6a92-4749-876e-2d089672214b","ios":"levelo://app?vid=55eb567f-6a92-4749-876e-2d089672214b"},"vehicle_type_id":"4","last_reported":1728987089,"current_range_meters":38000,"station_id":"ce4bhg92rcd13ifvqf90","pricing_plan_id":"cebpf4jnsgd1na2vs0mg"},{"bike_id":"c74c008c-c2f5-45fe-8367-4eb11d786f79","system_id":"levelo_inurba_marseille","lat":43.25085,"lon":5.39522,"is_reserved":false,"is_disabled":false,"rental_uris":{"android":"levelo://app?vid=c74c008c-c2f5-45fe-8367-4eb11d786f79","ios":"levelo://app?vid=c74c008c-c2f5-45fe-8367-4eb11d786f79"},"vehicle_type_id":"4","last_reported":1728987089,"current_range_meters":4000,"station_id":"ce4bhm12rcd13ifvqgkg","pricing_plan_id":"cebpf4jnsgd1na2vs0mg"},{"bike_id":"26c6c286-2ca0-4ed1-ab00-b90612b70cc1","system_id":"levelo_inurba_marseille","lat":43.24658,"lon":5.38165,"is_reserved":false,"is_disabled":false,"rental_uris":{"android":"levelo://app?vid=26c6c286-2ca0-4ed1-ab00-b90612b70cc1","ios":"levelo://app?vid=26c6c286-2ca0-4ed1-ab00-b90612b70cc1"},"vehicle_type_id":"4","last_reported":1728987089,"current_range_meters":28000,"station_id":"ce4bhih2rcd13ifvqfr0","pricing_plan_id":"cebpf4jnsgd1na2vs0mg"},{"bike_id":"dcf4abfd-1ae5-4517-a3a5-36e6503cd163","system_id":"levelo_inurba_marseille","lat":43.27669,"lon":5.38877,"is_reserved":false,"is_disabled":false,"rental_uris":{"android":"levelo://app?vid=dcf4abfd-1ae5-4517-a3a5-36e6503cd163","ios":"levelo://app?vid=dcf4abfd-1ae5-4517-a3a5-36e6503cd163"},"vehicle_type_id":"4","last_reported":1728987089,"current_range_meters":12000,"station_id":"ce4bhi12rcd13ifvqfo0","pricing_plan_id":"cebpf4jnsgd1na2vs0mg"},{"bike_id":"96c6b42b-b1b2-4c0c-af86-418a6fe41ca0","system_id":"levelo_inurba_marseille","lat":43.322083,"lon":5.389465,"is_reserved":false,"is_disabled":false,"rental_uris":{"android":"levelo://app?vid=96c6b42b-b1b2-4c0c-af86-418a6fe41ca0","ios":"levelo://app?vid=96c6b42b-b1b2-4c0c-af86-418a6fe41ca0"},"vehicle_type_id":"4","last_reported":1728987089,"current_range_meters":26800,"station_id":"","pricing_plan_id":"cebpf4jnsgd1na2vs0mg"},{"bike_id":"29dae0b3-98a7-4663-9348-262b79a6152c","system_id":"levelo_inurba_marseille","lat":43.30094,"lon":5.39077,"is_reserved":false,"is_disabled":false,"rental_uris":{"android":"levelo://app?vid=29dae0b3-98a7-4663-9348-262b79a6152c","ios":"levelo://app?vid=29dae0b3-98a7-4663-9348-262b79a6152c"},"vehicle_type_id":"4","last_reported":1728987089,"current_range_meters":22800,"station_id":"ce4bh192rcd13ifvqdb0","pricing_plan_id":"cebpf4jnsgd1na2vs0mg"},{"bike_id":"058c376c-5262-4722-9135-0bd1b8c3982f","system_id":"levelo_inurba_marseille","lat":43.29729,"lon":5.37672,"is_reserved":false,"is_disabled":false,"rental_uris":{"android":"levelo://app?vid=058c376c-5262-4722-9135-0bd1b8c3982f","ios":"levelo://app?vid=058c376c-5262-4722-9135-0bd1b8c3982f"},"vehicle_type_id":"4","last_reported":1728987089,"current_range_meters":34800,"station_id":"ce4bgkh2rcd13ifvqbl0","pricing_plan_id":"cebpf4jnsgd1na2vs0mg"},{"bike_id":"93d43a2e-8d4f-4f9b-ad79-9a250a8719b7","system_id":"levelo_inurba_marseille","lat":43.29796,"lon":5.40412,"is_reserved":false,"is_disabled":false,"rental_uris":{"android":"levelo://app?vid=93d43a2e-8d4f-4f9b-ad79-9a250a8719b7","ios":"levelo://app?vid=93d43a2e-8d4f-4f9b-ad79-9a250a8719b7"},"vehicle_type_id":"4","last_reported":1728987089,"current_range_meters":38000,"station_id":"ce4bh112rcd13ifvqd90","pricing_plan_id":"cebpf4jnsgd1na2vs0mg"},{"bike_id":"f1d7b6a5-6d8e-412d-a58a-5f0feb046b8c","system_id":"levelo_inurba_marseille","lat":43.25936,"lon":5.40905,"is_reserved":false,"is_disabled":false,"rental_uris":{"android":"levelo://app?vid=f1d7b6a5-6d8e-412d-a58a-5f0feb046b8c","ios":"levelo://app?vid=f1d7b6a5-6d8e-412d-a58a-5f0feb046b8c"},"vehicle_type_id":"4","last_reported":1728987089,"current_range_meters":33200,"station_id":"ce4bhm92rcd13ifvqglg","pricing_plan_id":"cebpf4jnsgd1na2vs0mg"},{"bike_id":"7b2744d6-ca6b-4be4-ac52-56f3aafcc8bf","system_id":"levelo_inurba_marseille","lat":43.3097,"lon":5.39027,"is_reserved":false,"is_disabled":false,"rental_uris":{"android":"levelo://app?vid=7b2744d6-ca6b-4be4-ac52-56f3aafcc8bf","ios":"levelo://app?vid=7b2744d6-ca6b-4be4-ac52-56f3aafcc8bf"},"vehicle_type_id":"4","last_reported":1728987089,"current_range_meters":19200,"station_id":"ce4bgup2rcd13ifvqco0","pricing_plan_id":"cebpf4jnsgd1na2vs0mg"},{"bike_id":"794f8a09-6308-47aa-b027-884880ccd42b","system_id":"levelo_inurba_marseille","lat":43.30139,"lon":5.37418,"is_reserved":false,"is_disabled":false,"rental_uris":{"android":"levelo://app?vid=794f8a09-6308-47aa-b027-884880ccd42b","ios":"levelo://app?vid=794f8a09-6308-47aa-b027-884880ccd42b"},"vehicle_type_id":"4","last_reported":1728987089,"current_range_meters":25600,"station_id":"ce4bgs92rcd13ifvqcc0","pricing_plan_id":"cebpf4jnsgd1na2vs0mg"},{"bike_id":"f2d805f9-232b-4ff6-ab80-69d7de475d00","system_id":"levelo_inurba_marseille","lat":43.29593,"lon":5.38103,"is_reserved":false,"is_disabled":false,"rental_uris":{"android":"levelo://app?vid=f2d805f9-232b-4ff6-ab80-69d7de475d00","ios":"levelo://app?vid=f2d805f9-232b-4ff6-ab80-69d7de475d00"},"vehicle_type_id":"4","last_reported":1728987089,"current_range_meters":24400,"station_id":"ce4bgl12rcd13ifvqbo0","pricing_plan_id":"cebpf4jnsgd1na2vs0mg"},{"bike_id":"7681f900-cf6b-4956-b83c-b2cbf978ea48","system_id":"levelo_inurba_marseille","lat":43.32483,"lon":5.36564,"is_reserved":false,"is_disabled":false,"rental_uris":{"android":"levelo://app?vid=7681f900-cf6b-4956-b83c-b2cbf978ea48","ios":"levelo://app?vid=7681f900-cf6b-4956-b83c-b2cbf978ea48"},"vehicle_type_id":"4","last_reported":1728987089,"current_range_meters":32400,"station_id":"ce4bhs12rcd13ifvqhvg","pricing_plan_id":"cebpf4jnsgd1na2vs0mg"},