{"last_updated":1777441441,"ttl":60,"version":"2.2","data":{"bikes":[{"bike_id":"b8168952-f269-47f9-9954-c00269338960","system_id":"levelo_inurba_marseille","lat":43.23897,"lon":5.37471,"is_reserved":false,"is_disabled":false,"rental_uris":{"android":"levelo://app?vid=b8168952-f269-47f9-9954-c00269338960","ios":"levelo://app?vid=b8168952-f269-47f9-9954-c00269338960"},"vehicle_type_id":"4","last_reported":1777441442,"current_range_meters":2800,"station_id":"st_d6sm7csbq4hs73f8fpjg","pricing_plan_id":"cebpf4jnsgd1na2vs0mg"},{"bike_id":"74929e98-c2e0-43cc-b447-0901251d01cb","system_id":"levelo_inurba_marseille","lat":43.2549,"lon":5.37677,"is_reserved":false,"is_disabled":true,"rental_uris":{"android":"levelo://app?vid=74929e98-c2e0-43cc-b447-0901251d01cb","ios":"levelo://app?vid=74929e98-c2e0-43cc-b447-0901251d01cb"},"vehicle_type_id":"4","last_reported":1777441442,"current_range_meters":2800,"station_id":"ce4bhh12rcd13ifvqff0","pricing_plan_id":"cebpf4jnsgd1na2vs0mg"},{"bike_id":"b0fc715f-4a35-4272-9e2a-b10f7b105dc9","system_id":"levelo_inurba_marseille","lat":43.29372,"lon":5.44548,"is_reserved":false,"is_disabled":false,"rental_uris":{"android":"levelo://app?vid=b0fc715f-4a35-4272-9e2a-b10f7b105dc9","ios":"levelo://app?vid=b0fc715f-4a35-4272-9e2a-b10f7b105dc9"},"vehicle_type_id":"4","last_reported":1777441442,"current_range_meters":2800,"station_id":"","pricing_plan_id":"cebpf4jnsgd1na2vs0mg"},{"bike_id":"51fc4e98-202a-4fed-a1a5-7a61fb423848","system_id":"levelo_inurba_marseille","lat":43.29269,"lon":5.40135,"is_reserved":false,"is_disabled":false,"rental_uris":{"android":"levelo://app?vid=51fc4e98-202a-4fed-a1a5-7a61fb423848","ios":"levelo://app?vid=51fc4e98-202a-4fed-a1a5-7a61fb423848"},"vehicle_type_id":"4","last_reported":1777441442,"current_range_meters":2800,"station_id":"ce4bh312rcd13ifvqdk0","pricing_plan_id":"cebpf4jnsgd1na2vs0mg"},{"bike_id":"18cd8e51-dd4a-4686-a624-b5605e8c1286","system_id":"levelo_inurba_marseille","lat":43.29579,"lon":5.36744,"is_reserved":false,"is_disabled":true,"rental_uris":{"android":"levelo://app?vid=18cd8e51-dd4a-4686-a624-b5605e8c1286","ios":"levelo://app?vid=18cd8e51-dd4a-4686-a624-b5605e8c1286"},"vehicle_type_id":"4","last_reported":1777441442,"current_range_meters":3200,"station_id":"ce4bgph2rcd13ifvqc2g","pricing_plan_id":"cebpf4jnsgd1na2vs0mg"},{"bike_id":"ec248166-4493-4f0c-97f2-9f8af3538b8d","system_id":"levelo_inurba_marseille","lat":43.29727,"lon":5.36573,"is_reserved":false,"is_disabled":false,"rental_uris":{"android":"levelo://app?vid=ec248166-4493-4f0c-97f2-9f8af3538b8d","ios":"levelo://app?vid=ec248166-4493-4f0c-97f2-9f8af3538b8d"},"vehicle_type_id":"4","last_reported":1777441442,"current_range_meters":3200,"station_id":"ce4bgn12rcd13ifvqbt0","pricing_plan_id":"cebpf4jnsgd1na2vs0mg"},{"bike_id":"61381c34-ecbf-4530-a99e-914a6e7ef9de","system_id":"levelo_inurba_marseille","lat":43.30948,"lon":5.40169,"is_reserved":false,"is_disabled":false,"rental_uris":{"android":"levelo://app?vid=61381c34-ecbf-4530-a99e-914a6e7ef9de","ios":"levelo://app?vid=61381c34-ecbf-4530-a99e-914a6e7ef9de"},"vehicle_type_id":"4","last_reported":1777441442,"current_range_meters":3200,"station_id":"ce4bgvp2rcd13ifvqct0","pricing_plan_id":"cebpf4jnsgd1na2vs0mg"},{"bike_id":"e8e310c2-92ce-41a9-84bc-ea8fa6b99f1a","system_id":"levelo_inurba_marseille","lat":43.32098,"lon":5.36778,"is_reserved":false,"is_disabled":false,"rental_uris":{"android":"levelo://app?vid=e8e310c2-92ce-41a9-84bc-ea8fa6b99f1a","ios":"levelo://app?vid=e8e310c2-92ce-41a9-84bc-ea8fa6b99f1a"},"vehicle_type_id":"4","last_reported":1777441442,"current_range_meters":3200,"station_id":"ce4bhrh2rcd13ifvqhug","pricing_plan_id":"cebpf4jnsgd1na2vs0mg"},{"bike_id":"ae987c10-ec52-4089-8ab4-892c787c36e9","system_id":"levelo_inurba_marseille","lat":43.26236,"lon":5.3877,"is_reserved":false,"is_disabled":true,"rental_uris":{"android":"levelo://app?vid=ae987c10-ec52-4089-8ab4-892c787c36e9","ios":"levelo://app?vid=ae987c10-ec52-4089-8ab4-892c787c36e9"},"vehicle_type_id":"4","last_reported":1777441442,"current_range_meters":3200,"station_id":"","pricing_plan_id":"cebpf4jnsgd1na2vs0mg"},{"bike_id":"69f1374d-fcb9-4118-a138-8e3d53ebe5a3","system_id":"levelo_inurba_marseille","lat":43.30154,"lon":5.38074,"is_reserved":false,"is_disabled":false,"rental_uris":{"android":"levelo://app?vid=69f1374d-fcb9-4118-a138-8e3d53ebe5a3","ios":"levelo://app?vid=69f1374d-fcb9-4118-a138-8e3d53ebe5a3"},"vehicle_type_id":"4","last_reported":1777441442,"current_range_meters":3200,"station_id":"ce4bgjp2rcd13ifvqbh0","pricing_plan_id":"cebpf4jnsgd1na2vs0mg"},{"bike_id":"b3aeba53-95dc-4e1c-a21d-4f742bea4c5c","system_id":"levelo_inurba_marseille","lat":43.29406,"lon":5.3934,"is_reserved":false,"is_disabled":false,"rental_uris":{"android":"levelo://app?vid=b3aeba53-95dc-4e1c-a21d-4f742bea4c5c","ios":"levelo://app?vid=b3aeba53-95dc-4e1c-a21d-4f742bea4c5c"},"vehicle_type_id":"4","last_reported":1777441442,"current_range_meters":3600,"station_id":"","pricing_plan_id":"cebpf4jnsgd1na2vs0mg"},{"bike_id":"65c875fe-8cea-4ed1-bd1b-2fa037701746","system_id":"levelo_inurba_marseille","lat":43.29029,"lon":5.39965,"is_reserved":false,"is_disabled":false,"rental_uris":{"android":"levelo://app?vid=65c875fe-8cea-4ed1-bd1b-2fa037701746","ios":"levelo://app?vid=65c875fe-8cea-4ed1-bd1b-2fa037701746"},"vehicle_type_id":"4","last_reported":1777441442,"current_range_meters":3600,"station_id":"ce4bh392rcd13ifvqdm0","pricing_plan_id":"cebpf4jnsgd1na2vs0mg"},{"bike_id":"7fe95aa7-d496-427a-8c95-ca07d89d28d7","system_id":"levelo_inurba_marseille","lat":43.24953,"lon":5.40492,"is_reserved":false,"is_disabled":false,"rental_uris":{"android":"levelo://app?vid=7fe95aa7-d496-427a-8c95-ca07d89d28d7","ios":"levelo://app?vid=7fe95aa7-d496-427a-8c95-ca07d89d28d7"},"vehicle_type_id":"4","last_reported":1777441442,"current_range_meters":3600,"station_id":"st_d2ngiaodas8pm72gd1h0","pricing_plan_id":"cebpf4jnsgd1na2vs0mg"},{"bike_id":"2096ee48-f326-404a-abdb-d88acfa8683f","system_id":"levelo_inurba_marseille","lat":43.25098,"lon":5.40355,"is_reserved":false,"is_disabled":false,"rental_uris":{"android":"levelo://app?vid=2096ee48-f326-404a-abdb-d88acfa8683f","ios":"levelo://app?vid=2096ee48-f326-404a-abdb-d88acfa8683f"},"vehicle_type_id":"4","last_reported":1777441442,"current_range_meters":3600,"station_id":"ce4bhlh2rcd13ifvqgig","pricing_plan_id":"cebpf4jnsgd1na2vs0mg"},{"bike_id":"2b2662f1-d28b-44f2-b2c8-61c6569e4c3d","system_id":"levelo_inurba_marseille","lat":43.29274,"lon":5.40115,"is_reserved":false,"is_disabled":true,"rental_uris":{"android":"levelo://app?vid=2b2662f1-d28b-44f2-b2c8-61c6569e4c3d","ios":"levelo://app?vid=2b2662f1-d28b-44f2-b2c8-61c6569e4c3d"},"vehicle_type_id":"4","last_reported":1777441442,"current_range_meters":3600,"station_id":"ce4bh312rcd13ifvqdk0","pricing_plan_id":"cebpf4jnsgd1na2vs0mg"},{"bike_id":"62928f4c-8098-451f-ba82-afa1cd7fcf62","system_id":"levelo_inurba_marseille","lat":43.31542,"lon":5.37314,"is_reserved":false,"is_disabled":false,"rental_uris":{"android":"levelo://app?vid=62928f4c-8098-451f-ba82-afa1cd7fcf62","ios":"levelo://app?vid=62928f4c-8098-451f-ba82-afa1cd7fcf62"},"vehicle_type_id":"4","last_reported":1777441442,"current_range_meters":3600,"station_id":"ce4bgt12rcd13ifvqcd0","pricing_plan_id":"cebpf4jnsgd1na2vs0mg"},{"bike_id":"1b179618-6ee8-445e-839f-c72e291e8e14","system_id":"levelo_inurba_marseille","lat":43.29426,"lon":5.39749,"is_reserved":false,"is_disabled":false,"rental_uris":{"android":"levelo://app?vid=1b179618-6ee8-445e-839f-c72e291e8e14","ios":"levelo://app?vid=1b179618-6ee8-445e-839f-c72e291e8e14"},"vehicle_type_id":"4","last_reported":1777441442,"current_range_meters":3600,"station_id":"ce4bh3h2rcd13ifvqdo0","pricing_plan_id":"cebpf4jnsgd1na2vs0mg"},{"bike_id":"afde96ac-1493-4085-af72-e5da568a87fd","system_id":"levelo_inurba_marseille","lat":43.28513,"lon":5.48387,"is_reserved":false,"is_disabled":false,"rental_uris":{"android":"levelo://app?vid=afde96ac-1493-4085-af72-e5da568a87fd","ios":"levelo://app?vid=afde96ac-1493-4085-af72-e5da568a87fd"},"vehicle_type_id":"4","last_reported":1777441442,"current_range_meters":3600,"station_id":"st_d3svhcjqgbts73a3dn0g","pricing_plan_id":"cebpf4jnsgd1na2vs0mg"},{"bike_id":"dc4f256b-dad1-4b0e-b0aa-70815278bacb","system_id":"levelo_inurba_marseille","lat":43.28967,"lon":5.39318,"is_reserved":false,"is_disabled":false,"rental_uris":{"android":"levelo://app?vid=dc4f256b-dad1-4b0e-b0aa-70815278bacb","ios":"levelo://app?vid=dc4f256b-dad1-4b0e-b0aa-70815278bacb"},"vehicle_type_id":"4","last_reported":1777441442,"current_range_meters":3600,"station_id":"","pricing_plan_id":"cebpf4jnsgd1na2vs0mg"},{"bike_id":"9a3d9e37-00d3-47b5-85a5-563bc4867096","system_id":"levelo_inurba_marseille","lat":43.30467,"lon":5.37897,"is_reserved":false,"is_disabled":false,"rental_uris":{"android":"levelo://app?vid=9a3d9e37-00d3-47b5-85a5-563bc4867096","ios":"levelo://app?vid=9a3d9e37-00d3-47b5-85a5-563bc4867096"},"vehicle_type_id":"4","last_reported":1777441442,"current_range_meters":4000,"station_id":"ce4bgup2rcd13ifvqcn0","pricing_plan_id":"cebpf4jnsgd1na2vs0mg"},{"bike_id":"27cd71a7-0940-4415-a67f-21597fbf1cd9","system_id":"levelo_inurba_marseille","lat":43.34534,"lon":5.37787,"is_reserved":false,"is_disabled":true,"rental_uris":{"android":"levelo://app?vid=27cd71a7-0940-4415-a67f-21597fbf1cd9","ios":"levelo://app?vid=27cd71a7-0940-4415-a67f-21597fbf1cd9"},"vehicle_type_id":"4","last_reported":1777441442,"current_range_meters":4000,"station_id":"","pricing_plan_id":"cebpf4jnsgd1na2vs0mg"},{"bike_id":"684c0fba-bfe1-499f-acc7-d4c75752d4d6","system_id":"levelo_inurba_marseille","lat":43.31452,"lon":5.38387,"is_reserved":false,"is_disabled":false,"rental_uris":{"android":"levelo://app?vid=684c0fba-bfe1-499f-acc7-d4c75752d4d6","ios":"levelo://app?vid=684c0fba-bfe1-499f-acc7-d4c75752d4d6"},"vehicle_type_id":"4","last_reported":1777441442,"current_range_meters":4000,"station_id":"","pricing_plan_id":"cebpf4jnsgd1na2vs0mg"},{"bike_id":"94b1d427-102e-4c64-aa76-0c93e226150f","system_id":"levelo_inurba_marseille","lat":43.28471,"lon":5.484,"is_reserved":false,"is_disabled":false,"rental_uris":{"android":"levelo://app?vid=94b1d427-102e-4c64-aa76-0c93e226150f","ios":"levelo://app?vid=94b1d427-102e-4c64-aa76-0c93e226150f"},"vehicle_type_id":"4","last_reported":1777441442,"current_range_meters":4000,"station_id":"st_d3svhcjqgbts73a3dn0g","pricing_plan_id":"cebpf4jnsgd1na2vs0mg"},{"bike_id":"d2276d1c-4dd8-4805-b674-72347073e05f","system_id":"levelo_inurba_marseille","lat":43.28864,"lon":5.42519,"is_reserved":false,"is_disabled":false,"rental_uris":{"android":"levelo://app?vid=d2276d1c-4dd8-4805-b674-72347073e05f","ios":"levelo://app?vid=d2276d1c-4dd8-4805-b674-72347073e05f"},"vehicle_type_id":"4","last_reported":1777441442,"current_range_meters":4000,"station_id":"st_d3b462108ojc7389ooeg","pricing_plan_id":"cebpf4jnsgd1na2vs0mg"},{"bike_id":"4a0c3f88-7d02-4319-82cb-95be064595bb","system_id":"levelo_inurba_marseille","lat":43.29487,"lon":5.43307,"is_reserved":false,"is_disabled":false,"rental_uris":{"android":"levelo://app?vid=4a0c3f88-7d02-4319-82cb-95be064595bb","ios":"levelo://app?vid=4a0c3f88-7d02-4319-82cb-95be064595bb"},"vehicle_type_id":"4","last_reported":1777441442,"current_range_meters":4000,"station_id":"st_d3j5ugp08ojc73fj9d10","pricing_plan_id":"cebpf4jnsgd1na2vs0mg"},{"bike_id":"987eda33-b3ad-4fac-a63c-0e3ff496e921","system_id":"levelo_inurba_marseille","lat":43.32394,"lon":5.36754,"is_reserved":false,"is_disabled":false,"rental_uris":{"android":"levelo://app?vid=987eda33-b3ad-4fac-a63c-0e3ff496e921","ios":"levelo://app?vid=987eda33-b3ad-4fac-a63c-0e3ff496e921"},"vehicle_type_id":"4","last_reported":1777441442,"current_range_meters":4000,"station_id":"","pricing_plan_id":"cebpf4jnsgd1na2vs0mg"},{"bike_id":"92b0e79d-5118-4cdc-a154-ad1d52d847b8","system_id":"levelo_inurba_marseille","lat":43.29608,"lon":5.36065,"is_reserved":false,"is_disabled":false,"rental_uris":{"android":"levelo://app?vid=92b0e79d-5118-4cdc-a154-ad1d52d847b8","ios":"levelo://app?vid=92b0e79d-5118-4cdc-a154-ad1d52d847b8"},"vehicle_type_id":"4","last_reported":1777441442,"current_range_meters":4000,"station_id":"","pricing_plan_id":"cebpf4jnsgd1na2vs0mg"},{"bike_id":"eec401be-82ad-4f63-b0db-33abd6b577d0","system_id":"levelo_inurba_marseille","lat":43.30131,"lon":5.43117,"is_reserved":false,"is_disabled":false,"rental_uris":{"android":"levelo://app?vid=eec401be-82ad-4f63-b0db-33abd6b577d0","ios":"levelo://app?vid=eec401be-82ad-4f63-b0db-33abd6b577d0"},"vehicle_type_id":"4","last_reported":1777441442,"current_range_meters":4000,"station_id":"st_d3js3co5814s73ftftug","pricing_plan_id":"cebpf4jnsgd1na2vs0mg"},{"bike_id":"c1147df9-36e6-4a23-aaa8-3a6820abcf8d","system_id":"levelo_inurba_marseille","lat":43.24943,"lon":5.40501,"is_reserved":false,"is_disabled":false,"rental_uris":{"android":"levelo://app?vid=c1147df9-36e6-4a23-aaa8-3a6820abcf8d","ios":"levelo://app?vid=c1147df9-36e6-4a23-aaa8-3a6820abcf8d"},"vehicle_type_id":"4","last_reported":1777441442,"current_range_meters":4000,"station_id":"st_d2ngiaodas8pm72gd1h0","pricing_plan_id":"cebpf4jnsgd1na2vs0mg"},{"bike_id":"b7b9a583-86eb-40d9-b9c4-c333feceb670","system_id":"levelo_inurba_marseille","lat":43.30142,"lon":5.38788,"is_reserved":false,"is_disabled":true,"rental_uris":{"android":"levelo://app?vid=b7b9a583-86eb-40d9-b9c4-c333feceb670","ios":"levelo://app?vid=b7b9a583-86eb-40d9-b9c4-c333feceb670"},"vehicle_type_id":"4","last_reported":1777441442,"current_range_meters":4000,"station_id":"ce4bghh2rcd13ifvqb60","pricing_plan_id":"cebpf4jnsgd1na2vs0mg"},{"bike_id":"a913ee0e-c800-4759-8ede-25e9fe6df004","system_id":"levelo_inurba_marseille","lat":43.29264,"lon":5.40165,"is_reserved":false,"is_disabled":false,"rental_uris":{"android":"levelo://app?vid=a913ee0e-c800-4759-8ede-25e9fe6df004","ios":"levelo://app?vid=a913ee0e-c800-4759-8ede-25e9fe6df004"},"vehicle_type_id":"4","last_reported":1777441442,"current_range_meters":4000,"station_id":"ce4bh312rcd13ifvqdk0","pricing_plan_id":"cebpf4jnsgd1na2vs0mg"},{"bike_id":"2a8b6995-2095-4cb2-8fac-e60641ab4793","system_id":"levelo_inurba_marseille","lat":43.302076,"lon":5.394725,"is_reserved":false,"is_disabled":false,"rental_uris":{"android":"levelo://app?vid=2a8b6995-2095-4cb2-8fac-e60641ab4793","ios":"levelo://app?vid=2a8b6995-2095-4cb2-8fac-e60641ab4793"},"vehicle_type_id":"4","last_reported":1777441442,"current_range_meters":4400,"station_id":"ce4bh0p2rcd13ifvqd70","pricing_plan_id":"cebpf4jnsgd1na2vs0mg"},{"bike_id":"963ad63d-bb00-4266-b1cc-ea4a169ad0ab","system_id":"levelo_inurba_marseille","lat":43.2317,"lon":5.40003,"is_reserved":false,"is_disabled":false,"rental_uris":{"android":"levelo://app?vid=963ad63d-bb00-4266-b1cc-ea4a169ad0ab","ios":"levelo://app?vid=963ad63d-bb00-4266-b1cc-ea4a169ad0ab"},"vehicle_type_id":"4","last_reported":1777441442,"current_range_meters":4400,"station_id":"ce4bhn12rcd13ifvqgqg","pricing_plan_id":"cebpf4jnsgd1na2vs0mg"},{"bike_id":"f88ff12e-ce7d-466f-8e38-12c8d519b4d1","system_id":"levelo_inurba_marseille","lat":43.30782,"lon":5.37655,"is_reserved":false,"is_disabled":false,"rental_uris":{"android":"levelo://app?vid=f88ff12e-ce7d-466f-8e38-12c8d519b4d1","ios":"levelo://app?vid=f88ff12e-ce7d-466f-8e38-12c8d519b4d1"},"vehicle_type_id":"4","last_reported":1777441442,"current_range_meters":4400,"station_id":"ce4bgv92rcd13ifvqcq0","pricing_plan_id":"cebpf4jnsgd1na2vs0mg"},{"bike_id":"f13c1412-9987-4b53-aa5c-79a6ecb2ba2d","system_id":"levelo_inurba_marseille","lat":43.32355,"lon":5.36724,"is_reserved":false,"is_disabled":false,"rental_uris":{"android":"levelo://app?vid=f13c1412-9987-4b53-aa5c-79a6ecb2ba2d","ios":"levelo://app?vid=f13c1412-9987-4b53-aa5c-79a6ecb2ba2d"},"vehicle_type_id":"4","last_reported":1777441442,"current_range_meters":4400,"station_id":"ce4bhsh2rcd13ifvqi2g","pricing_plan_id":"cebpf4jnsgd1na2vs0mg"},{"bike_id":"f68d7094-b89a-4b41-8856-7055a995967d","system_id":"levelo_inurba_marseille","lat":43.309315,"lon":5.401361,"is_reserved":false,"is_disabled":false,"rental_uris":{"android":"levelo://app?vid=f68d7094-b89a-4b41-8856-7055a995967d","ios":"levelo://app?vid=f68d7094-b89a-4b41-8856-7055a995967d"},"vehicle_type_id":"4","last_reported":1777441442,"current_range_meters":4400,"station_id":"ce4bgvp2rcd13ifvqct0","pricing_plan_id":"cebpf4jnsgd1na2vs0mg"},{"bike_id":"8b4e6bd3-1e82-4277-a45a-3a8abaa4e3ab","system_id":"levelo_inurba_marseille","lat":43.28475,"lon":5.48407,"is_reserved":false,"is_disabled":false,"rental_uris":{"android":"levelo://app?vid=8b4e6bd3-1e82-4277-a45a-3a8abaa4e3ab","ios":"levelo://app?vid=8b4e6bd3-1e82-4277-a45a-3a8abaa4e3ab"},"vehicle_type_id":"4","last_reported":1777441442,"current_range_meters":4400,"station_id":"","pricing_plan_id":"cebpf4jnsgd1na2vs0mg"},{"bike_id":"a070e63a-efb3-4131-b94b-3c14e6ddf39d","system_id":"levelo_inurba_marseille","lat":43.30531,"lon":5.36718,"is_reserved":false,"is_disabled":false,"rental_uris":{"android":"levelo://app?vid=a070e63a-efb3-4131-b94b-3c14e6ddf39d","ios":"levelo://app?vid=a070e63a-efb3-4131-b94b-3c14e6ddf39d"},"vehicle_type_id":"4","last_reported":1777441442,"current_range_meters":4400,"station_id":"ce4bgrp2rcd13ifvqc9g","pricing_plan_id":"cebpf4jnsgd1na2vs0mg"},{"bike_id":"c1fdc55c-a85b-4b94-b56b-911a03a5712c","system_id":"levelo_inurba_marseille","lat":43.27421,"lon":5.3939,"is_reserved":false,"is_disabled":true,"rental_uris":{"android":"levelo://app?vid=c1fdc55c-a85b-4b94-b56b-911a03a5712c","ios":"levelo://app?vid=c1fdc55c-a85b-4b94-b56b-911a03a5712c"},"vehicle_type_id":"4","last_reported":1777441442,"current_range_meters":4800,"station_id":"ce4bhdp2rcd13ifvqf20","pricing_plan_id":"cebpf4jnsgd1na2vs0mg"},{"bike_id":"bcd67e65-43b0-4b23-bb5c-0bdd7484ac57","system_id":"levelo_inurba_marseille","lat":43.33173,"lon":5.37785,"is_reserved":false,"is_disabled":false,"rental_uris":{"android":"levelo://app?vid=bcd67e65-43b0-4b23-bb5c-0bdd7484ac57","ios":"levelo://app?vid=bcd67e65-43b0-4b23-bb5c-0bdd7484ac57"},"vehicle_type_id":"4","last_reported":1777441442,"current_range_meters":4800,"station_id":"","pricing_plan_id":"cebpf4jnsgd1na2vs0mg"},{"bike_id":"4541a58b-5803-4873-8531-8182c7674429","system_id":"levelo_inurba_marseille","lat":43.28473,"lon":5.4842,"is_reserved":false,"is_disabled":false,"rental_uris":{"android":"levelo://app?vid=4541a58b-5803-4873-8531-8182c7674429","ios":"levelo://app?vid=4541a58b-5803-4873-8531-8182c7674429"},"vehicle_type_id":"4","last_reported":1777441442,"current_range_meters":4800,"station_id":"st_d3svhcjqgbts73a3dn0g","pricing_plan_id":"cebpf4jnsgd1na2vs0mg"},{"bike_id":"72c4ccb8-9c06-4f24-9811-df6eccbecf29","system_id":"levelo_inurba_marseille","lat":43.2495,"lon":5.40482,"is_reserved":false,"is_disabled":false,"rental_uris":{"android":"levelo://app?vid=72c4ccb8-9c06-4f24-9811-df6eccbecf29","ios":"levelo://app?vid=72c4ccb8-9c06-4f24-9811-df6eccbecf29"},"vehicle_type_id":"4","last_reported":1777441442,"current_range_meters":4800,"station_id":"st_d2ngiaodas8pm72gd1h0","pricing_plan_id":"cebpf4jnsgd1na2vs0mg"},{"bike_id":"1bf6bc57-f8be-4912-882e-8fb7d21ff70a","system_id":"levelo_inurba_marseille","lat":43.28922,"lon":5.38394,"is_reserved":false,"is_disabled":true,"rental_uris":{"android":"levelo://app?vid=1bf6bc57-f8be-4912-882e-8fb7d21ff70a","ios":"levelo://app?vid=1bf6bc57-f8be-4912-882e-8fb7d21ff70a"},"vehicle_type_id":"4","last_reported":1777441442,"current_range_meters":4800,"station_id":"ce4bh612rcd13ifvqe6g","pricing_plan_id":"cebpf4jnsgd1na2vs0mg"},{"bike_id":"76907408-a8ff-4688-9cbf-66e48bb415e8","system_id":"levelo_inurba_marseille","lat":43.28712,"lon":5.46696,"is_reserved":false,"is_disabled":false,"rental_uris":{"android":"levelo://app?vid=76907408-a8ff-4688-9cbf-66e48bb415e8","ios":"levelo://app?vid=76907408-a8ff-4688-9cbf-66e48bb415e8"},"vehicle_type_id":"4","last_reported":1777441442,"current_range_meters":4800,"station_id":"st_d6tc3vkotcvc738tfjhg","pricing_plan_id":"cebpf4jnsgd1na2vs0mg"},{"bike_id":"1e50c851-896e-44dc-a13c-da834270707c","system_id":"levelo_inurba_marseille","lat":43.27637,"lon":5.38898,"is_reserved":false,"is_disabled":true,"rental_uris":{"android":"levelo://app?vid=1e50c851-896e-44dc-a13c-da834270707c","ios":"levelo://app?vid=1e50c851-896e-44dc-a13c-da834270707c"},"vehicle_type_id":"4","last_reported":1777441442,"current_range_meters":4800,"station_id":"ce4bhi12rcd13ifvqfo0","pricing_plan_id":"cebpf4jnsgd1na2vs0mg"},{"bike_id":"b1b02246-22ea-48ef-bf03-02ba7ea06573","system_id":"levelo_inurba_marseille","lat":43.25819,"lon":5.39445,"is_reserved":false,"is_disabled":false,"rental_uris":{"android":"levelo://app?vid=b1b02246-22ea-48ef-bf03-02ba7ea06573","ios":"levelo://app?vid=b1b02246-22ea-48ef-bf03-02ba7ea06573"},"vehicle_type_id":"4","last_reported":1777441442,"current_range_meters":4800,"station_id":"ce4bhip2rcd13ifvqft0","pricing_plan_id":"cebpf4jnsgd1na2vs0mg"},{"bike_id":"5c4a116b-b5be-4670-bcfc-709d24da8345","system_id":"levelo_inurba_marseille","lat":43.29972,"lon":5.37175,"is_reserved":false,"is_disabled":false,"rental_uris":{"android":"levelo://app?vid=5c4a116b-b5be-4670-bcfc-709d24da8345","ios":"levelo://app?vid=5c4a116b-b5be-4670-bcfc-709d24da8345"},"vehicle_type_id":"4","last_reported":1777441442,"current_range_meters":4800,"station_id":"ce4bgr92rcd13ifvqc7g","pricing_plan_id":"cebpf4jnsgd1na2vs0mg"},{"bike_id":"1f19900f-2fa7-45c4-8b91-aed5e2f355a3","system_id":"levelo_inurba_marseille","lat":43.29807,"lon":5.38099,"is_reserved":false,"is_disabled":false,"rental_uris":{"android":"levelo://app?vid=1f19900f-2fa7-45c4-8b91-aed5e2f355a3","ios":"levelo://app?vid=1f19900f-2fa7-45c4-8b91-aed5e2f355a3"},"vehicle_type_id":"4","last_reported":1777441442,"current_range_meters":5600,"station_id":"ce4bgip2rcd13ifvqbb0","pricing_plan_id":"cebpf4jnsgd1na2vs0mg"},{"bike_id":"4d13825c-7541-4b62-808b-8e763399e3bd","system_id":"levelo_inurba_marseille","lat":43.2884,"lon":5.35851,"is_reserved":false,"is_disabled":false,"rental_uris":{"android":"levelo://app?vid=4d13825c-7541-4b62-808b-8e763399e3bd","ios":"levelo://app?vid=4d13825c-7541-4b62-808b-8e763399e3bd"},"vehicle_type_id":"4","last_reported":1777441442,"current_range_meters":5600,"station_id":"ce4bhb12rcd13ifvqem0","pricing_plan_id":"cebpf4jnsgd1na2vs0mg"},{"bike_id":"ffbffd47-0143-4030-b45c-3f1330f54185","system_id":"levelo_inurba_marseille","lat":43.27997,"lon":5.41681,"is_reserved":false,"is_disabled":false,"rental_uris":{"android":"levelo://app?vid=ffbffd47-0143-4030-b45c-3f1330f54185","ios":"levelo://app?vid=ffbffd47-0143-4030-b45c-3f1330f54185"},"vehicle_type_id":"4","last_reported":1777441442,"current_range_meters":5600,"station_id":"ce4bho12rcd13ifvqh1g","pricing_plan_id":"cebpf4jnsgd1na2vs0mg"},{"bike_id":"e03a9553-f014-4591-84d1-bb481db182e5","system_id":"levelo_inurba_marseille","lat":43.28703,"lon":5.4669,"is_reserved":false,"is_disabled":false,"rental_uris":{"android":"levelo://app?vid=e03a9553-f014-4591-84d1-bb481db182e5","ios":"levelo://app?vid=e03a9553-f014-4591-84d1-bb481db182e5"},"vehicle_type_id":"4","last_reported":1777441442,"current_range_meters":5600,"station_id":"st_d6tc3vkotcvc738tfjhg","pricing_plan_id":"cebpf4jnsgd1na2vs0mg"},{"bike_id":"3e1f692d-5bff-4964-a107-7e27f4ff1eb1","system_id":"levelo_inurba_marseille","lat":43.28276,"lon":5.35079,"is_reserved":false,"is_disabled":false,"rental_uris":{"android":"levelo://app?vid=3e1f692d-5bff-4964-a107-7e27f4ff1eb1","ios":"levelo://app?vid=3e1f692d-5bff-4964-a107-7e27f4ff1eb1"},"vehicle_type_id":"4","last_reported":1777441442,"current_range_meters":5600,"station_id":"ce4bhbp2rcd13ifvqerg","pricing_plan_id":"cebpf4jnsgd1na2vs0mg"},{"bike_id":"870cf028-d317-4365-88b3-cfc8b2733cc6","system_id":"levelo_inurba_marseille","lat":43.28706,"lon":5.46687,"is_reserved":false,"is_disabled":false,"rental_uris":{"android":"levelo://app?vid=870cf028-d317-4365-88b3-cfc8b2733cc6","ios":"levelo://app?vid=870cf028-d317-4365-88b3-cfc8b2733cc6"},"vehicle_type_id":"4","last_reported":1777441442,"current_range_meters":6000,"station_id":"st_d6tc3vkotcvc738tfjhg","pricing_plan_id":"cebpf4jnsgd1na2vs0mg"},{"bike_id":"5367fafd-42a5-4c52-bd35-5d85953af91c","system_id":"levelo_inurba_marseille","lat":43.3145,"lon":5.37379,"is_reserved":false,"is_disabled":true,"rental_uris":{"android":"levelo://app?vid=5367fafd-42a5-4c52-bd35-5d85953af91c","ios":"levelo://app?vid=5367fafd-42a5-4c52-bd35-5d85953af91c"},"vehicle_type_id":"4","last_reported":1777441442,"current_range_meters":6000,"station_id":"","pricing_plan_id":"cebpf4jnsgd1na2vs0mg"},{"bike_id":"e116e98a-e7c1-4e2d-9ae3-1a759c33b548","system_id":"levelo_inurba_marseille","lat":43.337444,"lon":5.374475,"is_reserved":false,"is_disabled":false,"rental_uris":{"android":"levelo://app?vid=e116e98a-e7c1-4e2d-9ae3-1a759c33b548","ios":"levelo://app?vid=e116e98a-e7c1-4e2d-9ae3-1a759c33b548"},"vehicle_type_id":"4","last_reported":1777441442,"current_range_meters":6000,"station_id":"ce4bgop2rcd13ifvqc1g","pricing_plan_id":"cebpf4jnsgd1na2vs0mg"},{"bike_id":"fceb4850-6c24-4b20-9118-090928fd1a6b","system_id":"levelo_inurba_marseille","lat":43.30148,"lon":5.39861,"is_reserved":false,"is_disabled":false,"rental_uris":{"android":"levelo://app?vid=fceb4850-6c24-4b20-9118-090928fd1a6b","ios":"levelo://app?vid=fceb4850-6c24-4b20-9118-090928fd1a6b"},"vehicle_type_id":"4","last_reported":1777441442,"current_range_meters":6000,"station_id":"ce4bh0h2rcd13ifvqd40","pricing_plan_id":"cebpf4jnsgd1na2vs0mg"},{"bike_id":"dabc5e28-b9df-4b1a-affa-f2e365a8b45b","system_id":"levelo_inurba_marseille","lat":43.32121,"lon":5.36764,"is_reserved":false,"is_disabled":false,"rental_uris":{"android":"levelo://app?vid=dabc5e28-b9df-4b1a-affa-f2e365a8b45b","ios":"levelo://app?vid=dabc5e28-b9df-4b1a-affa-f2e365a8b45b"},"vehicle_type_id":"4","last_reported":1777441442,"current_range_meters":6000,"station_id":"ce4bhrh2rcd13ifvqhug","pricing_plan_id":"cebpf4jnsgd1na2vs0mg"},{"bike_id":"dfe665c8-47fe-4204-bd2e-e878b5ac9ff4","system_id":"levelo_inurba_marseille","lat":43.27059,"lon":5.40256,"is_reserved":false,"is_disabled":false,"rental_uris":{"android":"levelo://app?vid=dfe665c8-47fe-4204-bd2e-e878b5ac9ff4","ios":"levelo://app?vid=dfe665c8-47fe-4204-bd2e-e878b5ac9ff4"},"vehicle_type_id":"4","last_reported":1777441442,"current_range_meters":6000,"station_id":"ce4bhk92rcd13ifvqgc0","pricing_plan_id":"cebpf4jnsgd1na2vs0mg"},{"bike_id":"6c9e3478-c8a0-478e-a75b-8210e99a855c","system_id":"levelo_inurba_marseille","lat":43.28575,"lon":5.39496,"is_reserved":false,"is_disabled":false,"rental_uris":{"android":"levelo://app?vid=6c9e3478-c8a0-478e-a75b-8210e99a855c","ios":"levelo://app?vid=6c9e3478-c8a0-478e-a75b-8210e99a855c"},"vehicle_type_id":"4","last_reported":1777441442,"current_range_meters":6000,"station_id":"ce4bh292rcd13ifvqdg0","pricing_plan_id":"cebpf4jnsgd1na2vs0mg"},{"bike_id":"27cbbdc8-76be-4943-abdc-2247bea40f15","system_id":"levelo_inurba_marseille","lat":43.28418,"lon":5.34991,"is_reserved":false,"is_disabled":false,"rental_uris":{"android":"levelo://app?vid=27cbbdc8-76be-4943-abdc-2247bea40f15","ios":"levelo://app?vid=27cbbdc8-76be-4943-abdc-2247bea40f15"},"vehicle_type_id":"4","last_reported":1777441442,"current_range_meters":6000,"station_id":"ce4bhbh2rcd13ifvqepg","pricing_plan_id":"cebpf4jnsgd1na2vs0mg"},{"bike_id":"e2605e88-9f7b-49cc-8a63-119a038d9512","system_id":"levelo_inurba_marseille","lat":43.25628,"lon":5.38562,"is_reserved":false,"is_disabled":false,"rental_uris":{"android":"levelo://app?vid=e2605e88-9f7b-49cc-8a63-119a038d9512","ios":"levelo://app?vid=e2605e88-9f7b-49cc-8a63-119a038d9512"},"vehicle_type_id":"4","last_reported":1777441442,"current_range_meters":6000,"station_id":"","pricing_plan_id":"cebpf4jnsgd1na2vs0mg"},{"bike_id":"bafd02f6-77fe-4b41-a1be-28b74a18fc15","system_id":"levelo_inurba_marseille","lat":43.27213,"lon":5.39176,"is_reserved":false,"is_disabled":false,"rental_uris":{"android":"levelo://app?vid=bafd02f6-77fe-4b41-a1be-28b74a18fc15","ios":"levelo://app?vid=bafd02f6-77fe-4b41-a1be-28b74a18fc15"},"vehicle_type_id":"4","last_reported":1777441442,"current_range_meters":6000,"station_id":"ce4bhhp2rcd13ifvqfm0","pricing_plan_id":"cebpf4jnsgd1na2vs0mg"},{"bike_id":"8ddf78e6-7053-4f51-a052-cbf410efa6bf","system_id":"levelo_inurba_marseille","lat":43.31151,"lon":5.36874,"is_reserved":false,"is_disabled":false,"rental_uris":{"android":"levelo://app?vid=8ddf78e6-7053-4f51-a052-cbf410efa6bf","ios":"levelo://app?vid=8ddf78e6-7053-4f51-a052-cbf410efa6bf"},"vehicle_type_id":"4","last_reported":1777441442,"current_range_meters":6000,"station_id":"","pricing_plan_id":"cebpf4jnsgd1na2vs0mg"},{"bike_id":"4bb1465b-4606-43ac-93d7-c06153f58726","system_id":"levelo_inurba_marseille","lat":43.28462,"lon":5.35883,"is_reserved":false,"is_disabled":false,"rental_uris":{"android":"levelo://app?vid=4bb1465b-4606-43ac-93d7-c06153f58726","ios":"levelo://app?vid=4bb1465b-4606-43ac-93d7-c06153f58726"},"vehicle_type_id":"4","last_reported":1777441442,"current_range_meters":6000,"station_id":"ce4bhah2rcd13ifvqei0","pricing_plan_id":"cebpf4jnsgd1na2vs0mg"},{"bike_id":"fadbd9a5-2a49-4734-8db0-528994d97e40","system_id":"levelo_inurba_marseille","lat":43.29272,"lon":5.38362,"is_reserved":false,"is_disabled":false,"rental_uris":{"android":"levelo://app?vid=fadbd9a5-2a49-4734-8db0-528994d97e40","ios":"levelo://app?vid=fadbd9a5-2a49-4734-8db0-528994d97e40"},"vehicle_type_id":"4","last_reported":1777441442,"current_range_meters":6000,"station_id":"","pricing_plan_id":"cebpf4jnsgd1na2vs0mg"},{"bike_id":"8ee1aeb0-0fb8-4fdf-81c1-0e85a87931bb","system_id":"levelo_inurba_marseille","lat":43.23144,"lon":5.43712,"is_reserved":false,"is_disabled":false,"rental_uris":{"android":"levelo://app?vid=8ee1aeb0-0fb8-4fdf-81c1-0e85a87931bb","ios":"levelo://app?vid=8ee1aeb0-0fb8-4fdf-81c1-0e85a87931bb"},"vehicle_type_id":"4","last_reported":1777441442,"current_range_meters":6000,"station_id":"ce4bhmp2rcd13ifvqgog","pricing_plan_id":"cebpf4jnsgd1na2vs0mg"},{"bike_id":"35c18087-1c56-4bc5-a7a0-d4f20b0c161f","system_id":"levelo_inurba_marseille","lat":43.29268,"lon":5.36848,"is_reserved":false,"is_disabled":false,"rental_uris":{"android":"levelo://app?vid=35c18087-1c56-4bc5-a7a0-d4f20b0c161f","ios":"levelo://app?vid=35c18087-1c56-4bc5-a7a0-d4f20b0c161f"},"vehicle_type_id":"4","last_reported":1777441442,"current_range_meters":6400,"station_id":"ce4bhbp2rcd13ifvqesg","pricing_plan_id":"cebpf4jnsgd1na2vs0mg"},{"bike_id":"3cabb206-107f-465e-b3d6-d79024127c12","system_id":"levelo_inurba_marseille","lat":43.28476,"lon":5.359,"is_reserved":false,"is_disabled":false,"rental_uris":{"android":"levelo://app?vid=3cabb206-107f-465e-b3d6-d79024127c12","ios":"levelo://app?vid=3cabb206-107f-465e-b3d6-d79024127c12"},"vehicle_type_id":"4","last_reported":1777441442,"current_range_meters":6400,"station_id":"ce4bhah2rcd13ifvqei0","pricing_plan_id":"cebpf4jnsgd1na2vs0mg"},{"bike_id":"f6ebec0c-6132-4184-b4b4-5ef9d4d7f62b","system_id":"levelo_inurba_marseille","lat":43.28661,"lon":5.36343,"is_reserved":false,"is_disabled":false,"rental_uris":{"android":"levelo://app?vid=f6ebec0c-6132-4184-b4b4-5ef9d4d7f62b","ios":"levelo://app?vid=f6ebec0c-6132-4184-b4b4-5ef9d4d7f62b"},"vehicle_type_id":"4","last_reported":1777441442,"current_range_meters":6400,"station_id":"ce4bhah2rcd13ifvqej0","pricing_plan_id":"cebpf4jnsgd1na2vs0mg"},{"bike_id":"d4a1637e-a775-45af-b60d-a5684440f967","system_id":"levelo_inurba_marseille","lat":43.31271,"lon":5.40178,"is_reserved":false,"is_disabled":false,"rental_uris":{"android":"levelo://app?vid=d4a1637e-a775-45af-b60d-a5684440f967","ios":"levelo://app?vid=d4a1637e-a775-45af-b60d-a5684440f967"},"vehicle_type_id":"4","last_reported":1777441442,"current_range_meters":6400,"station_id":"ce4bh092rcd13ifvqd30","pricing_plan_id":"cebpf4jnsgd1na2vs0mg"},{"bike_id":"4989a1a4-4320-4f3b-9a7a-6c0938c8085b","system_id":"levelo_inurba_marseille","lat":43.29802,"lon":5.38098,"is_reserved":false,"is_disabled":false,"rental_uris":{"android":"levelo://app?vid=4989a1a4-4320-4f3b-9a7a-6c0938c8085b","ios":"levelo://app?vid=4989a1a4-4320-4f3b-9a7a-6c0938c8085b"},"vehicle_type_id":"4","last_reported":1777441442,"current_range_meters":6400,"station_id":"ce4bgip2rcd13ifvqbb0","pricing_plan_id":"cebpf4jnsgd1na2vs0mg"},{"bike_id":"b9c0ca4a-61af-4a0b-994f-7b554a71a91c","system_id":"levelo_inurba_marseille","lat":43.32359,"lon":5.36744,"is_reserved":false,"is_disabled":false,"rental_uris":{"android":"levelo://app?vid=b9c0ca4a-61af-4a0b-994f-7b554a71a91c","ios":"levelo://app?vid=b9c0ca4a-61af-4a0b-994f-7b554a71a91c"},"vehicle_type_id":"4","last_reported":1777441442,"current_range_meters":6800,"station_id":"ce4bhsh2rcd13ifvqi2g","pricing_plan_id":"cebpf4jnsgd1na2vs0mg"},{"bike_id":"f876cb19-0749-40f4-8bd3-e18d1d5c19e4","system_id":"levelo_inurba_marseille","lat":43.31284,"lon":5.40159,"is_reserved":false,"is_disabled":false,"rental_uris":{"android":"levelo://app?vid=f876cb19-0749-40f4-8bd3-e18d1d5c19e4","ios":"levelo://app?vid=f876cb19-0749-40f4-8bd3-e18d1d5c19e4"},"vehicle_type_id":"4","last_reported":1777441442,"current_range_meters":6800,"station_id":"ce4bh092rcd13ifvqd30","pricing_plan_id":"cebpf4jnsgd1na2vs0mg"},{"bike_id":"006ac7cb-3897-4bb5-af18-37c45ecbf388","system_id":"levelo_inurba_marseille","lat":43.30158,"lon":5.38092,"is_reserved":false,"is_disabled":false,"rental_uris":{"android":"levelo://app?vid=006ac7cb-3897-4bb5-af18-37c45ecbf388","ios":"levelo://app?vid=006ac7cb-3897-4bb5-af18-37c45ecbf388"},"vehicle_type_id":"4","last_reported":1777441442,"current_range_meters":6800,"station_id":"ce4bgjp2rcd13ifvqbh0","pricing_plan_id":"cebpf4jnsgd1na2vs0mg"},{"bike_id":"21fa33d0-28a0-4e0a-9999-8d9d767ac49c","system_id":"levelo_inurba_marseille","lat":43.27053,"lon":5.38638,"is_reserved":false,"is_disabled":false,"rental_uris":{"android":"levelo://app?vid=21fa33d0-28a0-4e0a-9999-8d9d767ac49c","ios":"levelo://app?vid=21fa33d0-28a0-4e0a-9999-8d9d767ac49c"},"vehicle_type_id":"4","last_reported":1777441442,"current_range_meters":6800,"station_id":"","pricing_plan_id":"cebpf4jnsgd1na2vs0mg"},{"bike_id":"2d5261d7-ab99-4bca-a48e-873fd4973fb7","system_id":"levelo_inurba_marseille","lat":43.29032,"lon":5.39964,"is_reserved":false,"is_disabled":false,"rental_uris":{"android":"levelo://app?vid=2d5261d7-ab99-4bca-a48e-873fd4973fb7","ios":"levelo://app?vid=2d5261d7-ab99-4bca-a48e-873fd4973fb7"},"vehicle_type_id":"4","last_reported":1777441442,"current_range_meters":6800,"station_id":"ce4bh392rcd13ifvqdm0","pricing_plan_id":"cebpf4jnsgd1na2vs0mg"},{"bike_id":"64caf656-9c5b-4754-be7e-5471268d2436","system_id":"levelo_inurba_marseille","lat":43.29015,"lon":5.38633,"is_reserved":false,"is_disabled":true,"rental_uris":{"android":"levelo://app?vid=64caf656-9c5b-4754-be7e-5471268d2436","ios":"levelo://app?vid=64caf656-9c5b-4754-be7e-5471268d2436"},"vehicle_type_id":"4","last_reported":1777441442,"current_range_meters":6800,"station_id":"ce4bh4p2rcd13ifvqe0g","pricing_plan_id":"cebpf4jnsgd1na2vs0mg"},{"bike_id":"22f14fb4-4534-48ab-a634-5e564ce11591","system_id":"levelo_inurba_marseille","lat":43.289705,"lon":5.378328,"is_reserved":false,"is_disabled":false,"rental_uris":{"android":"levelo://app?vid=22f14fb4-4534-48ab-a634-5e564ce11591","ios":"levelo://app?vid=22f14fb4-4534-48ab-a634-5e564ce11591"},"vehicle_type_id":"4","last_reported":1777441442,"current_range_meters":6800,"station_id":"ce4bh9p2rcd13ifvqed0","pricing_plan_id":"cebpf4jnsgd1na2vs0mg"},{"bike_id":"5cf5cac4-304b-4407-a8e5-357d3ab6bc0b","system_id":"levelo_inurba_marseille","lat":43.23882,"lon":5.37475,"is_reserved":false,"is_disabled":true,"rental_uris":{"android":"levelo://app?vid=5cf5cac4-304b-4407-a8e5-357d3ab6bc0b","ios":"levelo://app?vid=5cf5cac4-304b-4407-a8e5-357d3ab6bc0b"},"vehicle_type_id":"4","last_reported":1777441442,"current_range_meters":6800,"station_id":"st_d6sm7csbq4hs73f8fpjg","pricing_plan_id":"cebpf4jnsgd1na2vs0mg"},{"bike_id":"99eba1ff-99eb-4fa8-9067-1eaedd9e9949","system_id":"levelo_inurba_marseille","lat":43.33179,"lon":5.37703,"is_reserved":false,"is_disabled":false,"rental_uris":{"android":"levelo://app?vid=99eba1ff-99eb-4fa8-9067-1eaedd9e9949","ios":"levelo://app?vid=99eba1ff-99eb-4fa8-9067-1eaedd9e9949"},"vehicle_type_id":"4","last_reported":1777441442,"current_range_meters":6800,"station_id":"st_d46cu089ee8s73dldbu0","pricing_plan_id":"cebpf4jnsgd1na2vs0mg"},{"bike_id":"ccc64b12-fba8-4953-9e4c-789c15629674","system_id":"levelo_inurba_marseille","lat":43.23205,"lon":5.35078,"is_reserved":false,"is_disabled":false,"rental_uris":{"android":"levelo://app?vid=ccc64b12-fba8-4953-9e4c-789c15629674","ios":"levelo://app?vid=ccc64b12-fba8-4953-9e4c-789c15629674"},"vehicle_type_id":"4","last_reported":1777441442,"current_range_meters":6800,"station_id":"","pricing_plan_id":"cebpf4jnsgd1na2vs0mg"},{"bike_id":"5a082d0b-9dcd-4b27-b749-e7a082c3a4b6","system_id":"levelo_inurba_marseille","lat":43.25154,"lon":5.40464,"is_reserved":false,"is_disabled":false,"rental_uris":{"android":"levelo://app?vid=5a082d0b-9dcd-4b27-b749-e7a082c3a4b6","ios":"levelo://app?vid=5a082d0b-9dcd-4b27-b749-e7a082c3a4b6"},"vehicle_type_id":"4","last_reported":1777441442,"current_range_meters":6800,"station_id":"","pricing_plan_id":"cebpf4jnsgd1na2vs0mg"},{"bike_id":"ef3a68ef-5b94-411a-921f-f7cda00ffdfc","system_id":"levelo_inurba_marseille","lat":43.29479,"lon":5.39017,"is_reserved":false,"is_disabled":false,"rental_uris":{"android":"levelo://app?vid=ef3a68ef-5b94-411a-921f-f7cda00ffdfc","ios":"levelo://app?vid=ef3a68ef-5b94-411a-921f-f7cda00ffdfc"},"vehicle_type_id":"4","last_reported":1777441442,"current_range_meters":6800,"station_id":"ce4bh3p2rcd13ifvqdp0","pricing_plan_id":"cebpf4jnsgd1na2vs0mg"},{"bike_id":"46adcc0c-153f-40cd-87b7-4a97d3583e68","system_id":"levelo_inurba_marseille","lat":43.29483,"lon":5.43308,"is_reserved":false,"is_disabled":false,"rental_uris":{"android":"levelo://app?vid=46adcc0c-153f-40cd-87b7-4a97d3583e68","ios":"levelo://app?vid=46adcc0c-153f-40cd-87b7-4a97d3583e68"},"vehicle_type_id":"4","last_reported":1777441442,"current_range_meters":6800,"station_id":"st_d3j5ugp08ojc73fj9d10","pricing_plan_id":"cebpf4jnsgd1na2vs0mg"},{"bike_id":"57f90bd9-fa9d-42c1-93a4-bc60e7acd42f","system_id":"levelo_inurba_marseille","lat":43.26609,"lon":5.37274,"is_reserved":false,"is_disabled":false,"rental_uris":{"android":"levelo://app?vid=57f90bd9-fa9d-42c1-93a4-bc60e7acd42f","ios":"levelo://app?vid=57f90bd9-fa9d-42c1-93a4-bc60e7acd42f"},"vehicle_type_id":"4","last_reported":1777441442,"current_range_meters":6800,"station_id":"ce4bhg12rcd13ifvqf70","pricing_plan_id":"cebpf4jnsgd1na2vs0mg"},{"bike_id":"7dc66bc3-ad64-4f05-ae27-bfd4ba13e25e","system_id":"levelo_inurba_marseille","lat":43.24947,"lon":5.40488,"is_reserved":false,"is_disabled":false,"rental_uris":{"android":"levelo://app?vid=7dc66bc3-ad64-4f05-ae27-bfd4ba13e25e","ios":"levelo://app?vid=7dc66bc3-ad64-4f05-ae27-bfd4ba13e25e"},"vehicle_type_id":"4","last_reported":1777441442,"current_range_meters":6800,"station_id":"st_d2ngiaodas8pm72gd1h0","pricing_plan_id":"cebpf4jnsgd1na2vs0mg"},{"bike_id":"0aa77637-d7e3-499b-846d-09967e25c470","system_id":"levelo_inurba_marseille","lat":43.26212,"lon":5.37945,"is_reserved":false,"is_disabled":false,"rental_uris":{"android":"levelo://app?vid=0aa77637-d7e3-499b-846d-09967e25c470","ios":"levelo://app?vid=0aa77637-d7e3-499b-846d-09967e25c470"},"vehicle_type_id":"4","last_reported":1777441442,"current_range_meters":6800,"station_id":"ce4bhjp2rcd13ifvqg90","pricing_plan_id":"cebpf4jnsgd1na2vs0mg"},{"bike_id":"fd9a7039-4e51-4a41-8d94-a62cfc47c861","system_id":"levelo_inurba_marseille","lat":43.26488,"lon":5.3955,"is_reserved":false,"is_disabled":false,"rental_uris":{"android":"levelo://app?vid=fd9a7039-4e51-4a41-8d94-a62cfc47c861","ios":"levelo://app?vid=fd9a7039-4e51-4a41-8d94-a62cfc47c861"},"vehicle_type_id":"4","last_reported":1777441442,"current_range_meters":6800,"station_id":"ce4bhi12rcd13ifvqfq0","pricing_plan_id":"cebpf4jnsgd1na2vs0mg"},{"bike_id":"7d7f0b06-e313-4b29-a13e-57d1c5ecf745","system_id":"levelo_inurba_marseille","lat":43.31318,"lon":5.39736,"is_reserved":false,"is_disabled":false,"rental_uris":{"android":"levelo://app?vid=7d7f0b06-e313-4b29-a13e-57d1c5ecf745","ios":"levelo://app?vid=7d7f0b06-e313-4b29-a13e-57d1c5ecf745"},"vehicle_type_id":"4","last_reported":1777441442,"current_range_meters":7200,"station_id":"ce4bgvp2rcd13ifvqcu0","pricing_plan_id":"cebpf4jnsgd1na2vs0mg"},{"bike_id":"d4d191c1-1e42-44ce-acaa-f4fdd3a7ce8e","system_id":"levelo_inurba_marseille","lat":43.28497,"lon":5.38504,"is_reserved":false,"is_disabled":false,"rental_uris":{"android":"levelo://app?vid=d4d191c1-1e42-44ce-acaa-f4fdd3a7ce8e","ios":"levelo://app?vid=d4d191c1-1e42-44ce-acaa-f4fdd3a7ce8e"},"vehicle_type_id":"4","last_reported":1777441442,"current_range_meters":7200,"station_id":"","pricing_plan_id":"cebpf4jnsgd1na2vs0mg"},{"bike_id":"1673f501-eaa7-4558-954b-d52abde6661f","system_id":"levelo_inurba_marseille","lat":43.28443,"lon":5.35893,"is_reserved":false,"is_disabled":false,"rental_uris":{"android":"levelo://app?vid=1673f501-eaa7-4558-954b-d52abde6661f","ios":"levelo://app?vid=1673f501-eaa7-4558-954b-d52abde6661f"},"vehicle_type_id":"4","last_reported":1777441442,"current_range_meters":7200,"station_id":"ce4bhah2rcd13ifvqei0","pricing_plan_id":"cebpf4jnsgd1na2vs0mg"},{"bike_id":"e1d26622-7491-4fdf-a6f0-77cbc7cac2ef","system_id":"levelo_inurba_marseille","lat":43.24177,"lon":5.36411,"is_reserved":false,"is_disabled":true,"rental_uris":{"android":"levelo://app?vid=e1d26622-7491-4fdf-a6f0-77cbc7cac2ef","ios":"levelo://app?vid=e1d26622-7491-4fdf-a6f0-77cbc7cac2ef"},"vehicle_type_id":"4","last_reported":1777441442,"current_range_meters":7200,"station_id":"cpo36qri1sfpv3e86is0","pricing_plan_id":"cebpf4jnsgd1na2vs0mg"},{"bike_id":"6737b6c6-75ae-4970-baf2-1a244729e21f","system_id":"levelo_inurba_marseille","lat":43.29894,"lon":5.39744,"is_reserved":false,"is_disabled":false,"rental_uris":{"android":"levelo://app?vid=6737b6c6-75ae-4970-baf2-1a244729e21f","ios":"levelo://app?vid=6737b6c6-75ae-4970-baf2-1a244729e21f"},"vehicle_type_id":"4","last_reported":1777441442,"current_range_meters":7200,"station_id":"ce4bh0h2rcd13ifvqd50","pricing_plan_id":"cebpf4jnsgd1na2vs0mg"},{"bike_id":"03e55db3-d7dd-45ab-9e4c-854d35569d10","system_id":"levelo_inurba_marseille","lat":43.28681,"lon":5.39985,"is_reserved":false,"is_disabled":false,"rental_uris":{"android":"levelo://app?vid=03e55db3-d7dd-45ab-9e4c-854d35569d10","ios":"levelo://app?vid=03e55db3-d7dd-45ab-9e4c-854d35569d10"},"vehicle_type_id":"4","last_reported":1777441442,"current_range_meters":7200,"station_id":"ce4bho92rcd13ifvqh3g","pricing_plan_id":"cebpf4jnsgd1na2vs0mg"},{"bike_id":"5bae5c3a-5558-43e8-a175-6ed58b923e40","system_id":"levelo_inurba_marseille","lat":43.29787,"lon":5.39363,"is_reserved":false,"is_disabled":false,"rental_uris":{"android":"levelo://app?vid=5bae5c3a-5558-43e8-a175-6ed58b923e40","ios":"levelo://app?vid=5bae5c3a-5558-43e8-a175-6ed58b923e40"},"vehicle_type_id":"4","last_reported":1777441442,"current_range_meters":7200,"station_id":"chh1huq6cuj3fo74tm60","pricing_plan_id":"cebpf4jnsgd1na2vs0mg"},{"bike_id":"007bdae8-b143-425f-a1a7-c03b3544c030","system_id":"levelo_inurba_marseille","lat":43.31297,"lon":5.36722,"is_reserved":false,"is_disabled":false,"rental_uris":{"android":"levelo://app?vid=007bdae8-b143-425f-a1a7-c03b3544c030","ios":"levelo://app?vid=007bdae8-b143-425f-a1a7-c03b3544c030"},"vehicle_type_id":"4","last_reported":1777441442,"current_range_meters":7200,"station_id":"ce4bgr92rcd13ifvqc6g","pricing_plan_id":"cebpf4jnsgd1na2vs0mg"},{"bike_id":"2122bcc0-2ad5-42d2-bbe3-29d4151dc388","system_id":"levelo_inurba_marseille","lat":43.30346,"lon":5.40447,"is_reserved":false,"is_disabled":false,"rental_uris":{"android":"levelo://app?vid=2122bcc0-2ad5-42d2-bbe3-29d4151dc388","ios":"levelo://app?vid=2122bcc0-2ad5-42d2-bbe3-29d4151dc388"},"vehicle_type_id":"4","last_reported":1777441442,"current_range_meters":7200,"station_id":"ce4bh012rcd13ifvqd10","pricing_plan_id":"cebpf4jnsgd1na2vs0mg"},{"bike_id":"ea26fbb8-1fe9-45fd-86a8-020ce9ce5f0e","system_id":"levelo_inurba_marseille","lat":43.27106,"lon":5.39153,"is_reserved":false,"is_disabled":false,"rental_uris":{"android":"levelo://app?vid=ea26fbb8-1fe9-45fd-86a8-020ce9ce5f0e","ios":"levelo://app?vid=ea26fbb8-1fe9-45fd-86a8-020ce9ce5f0e"},"vehicle_type_id":"4","last_reported":1777441442,"current_range_meters":7200,"station_id":"","pricing_plan_id":"cebpf4jnsgd1na2vs0mg"},{"bike_id":"f11e3633-986d-40f4-8b5f-6b5e41220dfc","system_id":"levelo_inurba_marseille","lat":43.31923,"lon":5.36792,"is_reserved":false,"is_disabled":false,"rental_uris":{"android":"levelo://app?vid=f11e3633-986d-40f4-8b5f-6b5e41220dfc","ios":"levelo://app?vid=f11e3633-986d-40f4-8b5f-6b5e41220dfc"},"vehicle_type_id":"4","last_reported":1777441442,"current_range_meters":7200,"station_id":"st_d6o2h0d0559c73evc1b0","pricing_plan_id":"cebpf4jnsgd1na2vs0mg"},{"bike_id":"97101e97-9dc1-46b9-aa51-c662f292853d","system_id":"levelo_inurba_marseille","lat":43.28146,"lon":5.42651,"is_reserved":false,"is_disabled":false,"rental_uris":{"android":"levelo://app?vid=97101e97-9dc1-46b9-aa51-c662f292853d","ios":"levelo://app?vid=97101e97-9dc1-46b9-aa51-c662f292853d"},"vehicle_type_id":"4","last_reported":1777441442,"current_range_meters":7200,"station_id":"ce4bhnh2rcd13ifvqgug","pricing_plan_id":"cebpf4jnsgd1na2vs0mg"},{"bike_id":"a737d892-66f6-4cdf-9919-272e1c73c5b2","system_id":"levelo_inurba_marseille","lat":43.3089,"lon":5.39602,"is_reserved":false,"is_disabled":false,"rental_uris":{"android":"levelo://app?vid=a737d892-66f6-4cdf-9919-272e1c73c5b2","ios":"levelo://app?vid=a737d892-66f6-4cdf-9919-272e1c73c5b2"},"vehicle_type_id":"4","last_reported":1777441442,"current_range_meters":7200,"station_id":"ce4bh012rcd13ifvqcv0","pricing_plan_id":"cebpf4jnsgd1na2vs0mg"},{"bike_id":"63e14925-914b-46ee-a0cc-8237830b7ea7","system_id":"levelo_inurba_marseille","lat":43.29281,"lon":5.368366,"is_reserved":false,"is_disabled":false,"rental_uris":{"android":"levelo://app?vid=63e14925-914b-46ee-a0cc-8237830b7ea7","ios":"levelo://app?vid=63e14925-914b-46ee-a0cc-8237830b7ea7"},"vehicle_type_id":"4","last_reported":1777441442,"current_range_meters":7200,"station_id":"ce4bhbp2rcd13ifvqesg","pricing_plan_id":"cebpf4jnsgd1na2vs0mg"},{"bike_id":"e1bfb3b6-25b1-478e-a2d9-d38c60c7866f","system_id":"levelo_inurba_marseille","lat":43.30287,"lon":5.40059,"is_reserved":false,"is_disabled":false,"rental_uris":{"android":"levelo://app?vid=e1bfb3b6-25b1-478e-a2d9-d38c60c7866f","ios":"levelo://app?vid=e1bfb3b6-25b1-478e-a2d9-d38c60c7866f"},"vehicle_type_id":"4","last_reported":1777441442,"current_range_meters":7200,"station_id":"ce4bgvh2rcd13ifvqcs0","pricing_plan_id":"cebpf4jnsgd1na2vs0mg"},{"bike_id":"9f543810-4dfb-4951-9c10-acd2d2940820","system_id":"levelo_inurba_marseille","lat":43.28562,"lon":5.39482,"is_reserved":false,"is_disabled":true,"rental_uris":{"android":"levelo://app?vid=9f543810-4dfb-4951-9c10-acd2d2940820","ios":"levelo://app?vid=9f543810-4dfb-4951-9c10-acd2d2940820"},"vehicle_type_id":"4","last_reported":1777441442,"current_range_meters":7200,"station_id":"ce4bh292rcd13ifvqdg0","pricing_plan_id":"cebpf4jnsgd1na2vs0mg"},{"bike_id":"a097e494-0d3f-4dd7-be79-ea70422940dc","system_id":"levelo_inurba_marseille","lat":43.30882,"lon":5.3964,"is_reserved":false,"is_disabled":false,"rental_uris":{"android":"levelo://app?vid=a097e494-0d3f-4dd7-be79-ea70422940dc","ios":"levelo://app?vid=a097e494-0d3f-4dd7-be79-ea70422940dc"},"vehicle_type_id":"4","last_reported":1777441442,"current_range_meters":7200,"station_id":"ce4bh012rcd13ifvqcv0","pricing_plan_id":"cebpf4jnsgd1na2vs0mg"},{"bike_id":"37970c61-7528-4352-a724-5c9197d918a1","system_id":"levelo_inurba_marseille","lat":43.24684,"lon":5.38138,"is_reserved":false,"is_disabled":false,"rental_uris":{"android":"levelo://app?vid=37970c61-7528-4352-a724-5c9197d918a1","ios":"levelo://app?vid=37970c61-7528-4352-a724-5c9197d918a1"},"vehicle_type_id":"4","last_reported":1777441442,"current_range_meters":7200,"station_id":"ce4bhih2rcd13ifvqfr0","pricing_plan_id":"cebpf4jnsgd1na2vs0mg"},{"bike_id":"ea36c9e8-58b8-4f79-a3ce-b396281d3b24","system_id":"levelo_inurba_marseille","lat":43.305074,"lon":5.380769,"is_reserved":false,"is_disabled":false,"rental_uris":{"android":"levelo://app?vid=ea36c9e8-58b8-4f79-a3ce-b396281d3b24","ios":"levelo://app?vid=ea36c9e8-58b8-4f79-a3ce-b396281d3b24"},"vehicle_type_id":"4","last_reported":1777441442,"current_range_meters":7200,"station_id":"","pricing_plan_id":"cebpf4jnsgd1na2vs0mg"},{"bike_id":"cc17408a-84c5-4897-b339-7a1d1f36fdff","system_id":"levelo_inurba_marseille","lat":43.28098,"lon":5.37844,"is_reserved":false,"is_disabled":false,"rental_uris":{"android":"levelo://app?vid=cc17408a-84c5-4897-b339-7a1d1f36fdff","ios":"levelo://app?vid=cc17408a-84c5-4897-b339-7a1d1f36fdff"},"vehicle_type_id":"4","last_reported":1777441442,"current_range_meters":7200,"station_id":"ce4bha12rcd13ifvqee0","pricing_plan_id":"cebpf4jnsgd1na2vs0mg"},{"bike_id":"de1b4f6f-6b9d-4fc7-894f-85b3adf5ba9d","system_id":"levelo_inurba_marseille","lat":43.27544,"lon":5.38432,"is_reserved":false,"is_disabled":true,"rental_uris":{"android":"levelo://app?vid=de1b4f6f-6b9d-4fc7-894f-85b3adf5ba9d","ios":"levelo://app?vid=de1b4f6f-6b9d-4fc7-894f-85b3adf5ba9d"},"vehicle_type_id":"4","last_reported":1777441442,"current_range_meters":8000,"station_id":"ce4bhh92rcd13ifvqfi0","pricing_plan_id":"cebpf4jnsgd1na2vs0mg"},{"bike_id":"4f81a05a-97e9-44ec-a51e-366c3977229f","system_id":"levelo_inurba_marseille","lat":43.3132,"lon":5.39718,"is_reserved":false,"is_disabled":false,"rental_uris":{"android":"levelo://app?vid=4f81a05a-97e9-44ec-a51e-366c3977229f","ios":"levelo://app?vid=4f81a05a-97e9-44ec-a51e-366c3977229f"},"vehicle_type_id":"4","last_reported":1777441442,"current_range_meters":8000,"station_id":"ce4bgvp2rcd13ifvqcu0","pricing_plan_id":"cebpf4jnsgd1na2vs0mg"},{"bike_id":"75bb0c32-47b7-4f5c-9d97-bffabdb388ac","system_id":"levelo_inurba_marseille","lat":43.298,"lon":5.40399,"is_reserved":false,"is_disabled":false,"rental_uris":{"android":"levelo://app?vid=75bb0c32-47b7-4f5c-9d97-bffabdb388ac","ios":"levelo://app?vid=75bb0c32-47b7-4f5c-9d97-bffabdb388ac"},"vehicle_type_id":"4","last_reported":1777441442,"current_range_meters":8000,"station_id":"ce4bh112rcd13ifvqd90","pricing_plan_id":"cebpf4jnsgd1na2vs0mg"},{"bike_id":"c5d87c94-f8c8-47f4-ae84-ea0b6e6ae165","system_id":"levelo_inurba_marseille","lat":43.2626,"lon":5.38877,"is_reserved":false,"is_disabled":false,"rental_uris":{"android":"levelo://app?vid=c5d87c94-f8c8-47f4-ae84-ea0b6e6ae165","ios":"levelo://app?vid=c5d87c94-f8c8-47f4-ae84-ea0b6e6ae165"},"vehicle_type_id":"4","last_reported":1777441442,"current_range_meters":8000,"station_id":"","pricing_plan_id":"cebpf4jnsgd1na2vs0mg"},{"bike_id":"ee5bca21-2a39-4c24-aced-c94d2451e251","system_id":"levelo_inurba_marseille","lat":43.27991,"lon":5.41657,"is_reserved":false,"is_disabled":false,"rental_uris":{"android":"levelo://app?vid=ee5bca21-2a39-4c24-aced-c94d2451e251","ios":"levelo://app?vid=ee5bca21-2a39-4c24-aced-c94d2451e251"},"vehicle_type_id":"4","last_reported":1777441442,"current_range_meters":8000,"station_id":"ce4bho12rcd13ifvqh1g","pricing_plan_id":"cebpf4jnsgd1na2vs0mg"},{"bike_id":"19156f03-ab0b-41c7-9a42-bb1ae8fd0140","system_id":"levelo_inurba_marseille","lat":43.3132,"lon":5.39702,"is_reserved":false,"is_disabled":false,"rental_uris":{"android":"levelo://app?vid=19156f03-ab0b-41c7-9a42-bb1ae8fd0140","ios":"levelo://app?vid=19156f03-ab0b-41c7-9a42-bb1ae8fd0140"},"vehicle_type_id":"4","last_reported":1777441442,"current_range_meters":8000,"station_id":"ce4bgvp2rcd13ifvqcu0","pricing_plan_id":"cebpf4jnsgd1na2vs0mg"},{"bike_id":"c46d8a22-772b-40f4-a01d-512476bc1bbf","system_id":"levelo_inurba_marseille","lat":43.24926,"lon":5.40508,"is_reserved":false,"is_disabled":false,"rental_uris":{"android":"levelo://app?vid=c46d8a22-772b-40f4-a01d-512476bc1bbf","ios":"levelo://app?vid=c46d8a22-772b-40f4-a01d-512476bc1bbf"},"vehicle_type_id":"4","last_reported":1777441442,"current_range_meters":8000,"station_id":"st_d2ngiaodas8pm72gd1h0","pricing_plan_id":"cebpf4jnsgd1na2vs0mg"},{"bike_id":"2a9f517f-dc7e-442a-8a6e-b3ad6200cb4e","system_id":"levelo_inurba_marseille","lat":43.33544,"lon":5.37469,"is_reserved":false,"is_disabled":false,"rental_uris":{"android":"levelo://app?vid=2a9f517f-dc7e-442a-8a6e-b3ad6200cb4e","ios":"levelo://app?vid=2a9f517f-dc7e-442a-8a6e-b3ad6200cb4e"},"vehicle_type_id":"4","last_reported":1777441442,"current_range_meters":8000,"station_id":"st_d46tts09ee8s73dlu43g","pricing_plan_id":"cebpf4jnsgd1na2vs0mg"},{"bike_id":"0256971e-927a-4136-bafd-665aafac7fc7","system_id":"levelo_inurba_marseille","lat":43.21768,"lon":5.34604,"is_reserved":false,"is_disabled":true,"rental_uris":{"android":"levelo://app?vid=0256971e-927a-4136-bafd-665aafac7fc7","ios":"levelo://app?vid=0256971e-927a-4136-bafd-665aafac7fc7"},"vehicle_type_id":"4","last_reported":1777441442,"current_range_meters":8000,"station_id":"st_cvj6r9ubvosntc0bgbag","pricing_plan_id":"cebpf4jnsgd1na2vs0mg"},{"bike_id":"2c0808ca-959e-46d2-bd7d-5fa523a2fa9a","system_id":"levelo_inurba_marseille","lat":43.30637,"lon":5.43648,"is_reserved":false,"is_disabled":false,"rental_uris":{"android":"levelo://app?vid=2c0808ca-959e-46d2-bd7d-5fa523a2fa9a","ios":"levelo://app?vid=2c0808ca-959e-46d2-bd7d-5fa523a2fa9a"},"vehicle_type_id":"4","last_reported":1777441442,"current_range_meters":8000,"station_id":"","pricing_plan_id":"cebpf4jnsgd1na2vs0mg"},{"bike_id":"550b61bf-024e-4f9e-9492-2a8f7afeae1e","system_id":"levelo_inurba_marseille","lat":43.30851,"lon":5.40458,"is_reserved":false,"is_disabled":false,"rental_uris":{"android":"levelo://app?vid=550b61bf-024e-4f9e-9492-2a8f7afeae1e","ios":"levelo://app?vid=550b61bf-024e-4f9e-9492-2a8f7afeae1e"},"vehicle_type_id":"4","last_reported":1777441442,"current_range_meters":8000,"station_id":"","pricing_plan_id":"cebpf4jnsgd1na2vs0mg"},{"bike_id":"d2598843-e05e-47d7-8331-32836a619318","system_id":"levelo_inurba_marseille","lat":43.29793,"lon":5.39351,"is_reserved":false,"is_disabled":false,"rental_uris":{"android":"levelo://app?vid=d2598843-e05e-47d7-8331-32836a619318","ios":"levelo://app?vid=d2598843-e05e-47d7-8331-32836a619318"},"vehicle_type_id":"4","last_reported":1777441442,"current_range_meters":8000,"station_id":"chh1huq6cuj3fo74tm60","pricing_plan_id":"cebpf4jnsgd1na2vs0mg"},{"bike_id":"01c578b5-d3ac-4295-8963-0b85678912d1","system_id":"levelo_inurba_marseille","lat":43.28421,"lon":5.37519,"is_reserved":false,"is_disabled":false,"rental_uris":{"android":"levelo://app?vid=01c578b5-d3ac-4295-8963-0b85678912d1","ios":"levelo://app?vid=01c578b5-d3ac-4295-8963-0b85678912d1"},"vehicle_type_id":"4","last_reported":1777441442,"current_range_meters":8000,"station_id":"ce4bh412rcd13ifvqds0","pricing_plan_id":"cebpf4jnsgd1na2vs0mg"},{"bike_id":"3437955b-1d01-472d-a152-fed8f08dcf0a","system_id":"levelo_inurba_marseille","lat":43.28422,"lon":5.37527,"is_reserved":false,"is_disabled":false,"rental_uris":{"android":"levelo://app?vid=3437955b-1d01-472d-a152-fed8f08dcf0a","ios":"levelo://app?vid=3437955b-1d01-472d-a152-fed8f08dcf0a"},"vehicle_type_id":"4","last_reported":1777441442,"current_range_meters":8000,"station_id":"ce4bh412rcd13ifvqds0","pricing_plan_id":"cebpf4jnsgd1na2vs0mg"},{"bike_id":"159f0344-33aa-4474-b32d-fa8eef2e2f62","system_id":"levelo_inurba_marseille","lat":43.29497,"lon":5.43323,"is_reserved":false,"is_disabled":false,"rental_uris":{"android":"levelo://app?vid=159f0344-33aa-4474-b32d-fa8eef2e2f62","ios":"levelo://app?vid=159f0344-33aa-4474-b32d-fa8eef2e2f62"},"vehicle_type_id":"4","last_reported":1777441442,"current_range_meters":8000,"station_id":"st_d3j5ugp08ojc73fj9d10","pricing_plan_id":"cebpf4jnsgd1na2vs0mg"},{"bike_id":"e86fde7f-f309-4c5c-9613-864f1a66fd8e","system_id":"levelo_inurba_marseille","lat":43.28864,"lon":5.42519,"is_reserved":false,"is_disabled":false,"rental_uris":{"android":"levelo://app?vid=e86fde7f-f309-4c5c-9613-864f1a66fd8e","ios":"levelo://app?vid=e86fde7f-f309-4c5c-9613-864f1a66fd8e"},"vehicle_type_id":"4","last_reported":1777441442,"current_range_meters":8000,"station_id":"st_d3b462108ojc7389ooeg","pricing_plan_id":"cebpf4jnsgd1na2vs0mg"},{"bike_id":"ce5dc1f5-63eb-4e58-9a11-607a1a76f928","system_id":"levelo_inurba_marseille","lat":43.28482,"lon":5.35886,"is_reserved":false,"is_disabled":false,"rental_uris":{"android":"levelo://app?vid=ce5dc1f5-63eb-4e58-9a11-607a1a76f928","ios":"levelo://app?vid=ce5dc1f5-63eb-4e58-9a11-607a1a76f928"},"vehicle_type_id":"4","last_reported":1777441442,"current_range_meters":8400,"station_id":"ce4bhah2rcd13ifvqei0","pricing_plan_id":"cebpf4jnsgd1na2vs0mg"},{"bike_id":"5e197578-e13f-44b4-9a21-b9f34c9f44ad","system_id":"levelo_inurba_marseille","lat":43.31168,"lon":5.38721,"is_reserved":false,"is_disabled":false,"rental_uris":{"android":"levelo://app?vid=5e197578-e13f-44b4-9a21-b9f34c9f44ad","ios":"levelo://app?vid=5e197578-e13f-44b4-9a21-b9f34c9f44ad"},"vehicle_type_id":"4","last_reported":1777441442,"current_range_meters":8400,"station_id":"ce4bgv12rcd13ifvqcp0","pricing_plan_id":"cebpf4jnsgd1na2vs0mg"},{"bike_id":"1bb8344f-1db0-45ef-ad3e-3af45d1f5a9f","system_id":"levelo_inurba_marseille","lat":43.25739,"lon":5.38741,"is_reserved":false,"is_disabled":false,"rental_uris":{"android":"levelo://app?vid=1bb8344f-1db0-45ef-ad3e-3af45d1f5a9f","ios":"levelo://app?vid=1bb8344f-1db0-45ef-ad3e-3af45d1f5a9f"},"vehicle_type_id":"4","last_reported":1777441442,"current_range_meters":8400,"station_id":"","pricing_plan_id":"cebpf4jnsgd1na2vs0mg"},{"bike_id":"3d629aa3-896b-404c-8ce1-01df00b063ac","system_id":"levelo_inurba_marseille","lat":43.29625,"lon":5.40623,"is_reserved":false,"is_disabled":true,"rental_uris":{"android":"levelo://app?vid=3d629aa3-896b-404c-8ce1-01df00b063ac","ios":"levelo://app?vid=3d629aa3-896b-404c-8ce1-01df00b063ac"},"vehicle_type_id":"4","last_reported":1777441442,"current_range_meters":8400,"station_id":"ce4bh0h2rcd13ifvqd60","pricing_plan_id":"cebpf4jnsgd1na2vs0mg"},{"bike_id":"eb5e53f4-a003-4387-9fb9-a6673523de67","system_id":"levelo_inurba_marseille","lat":43.25517,"lon":5.37664,"is_reserved":false,"is_disabled":true,"rental_uris":{"android":"levelo://app?vid=eb5e53f4-a003-4387-9fb9-a6673523de67","ios":"levelo://app?vid=eb5e53f4-a003-4387-9fb9-a6673523de67"},"vehicle_type_id":"4","last_reported":1777441442,"current_range_meters":8400,"station_id":"ce4bhh12rcd13ifvqff0","pricing_plan_id":"cebpf4jnsgd1na2vs0mg"},{"bike_id":"55bac593-352e-4642-8639-19fe2b8d6c00","system_id":"levelo_inurba_marseille","lat":43.27649,"lon":5.35834,"is_reserved":false,"is_disabled":false,"rental_uris":{"android":"levelo://app?vid=55bac593-352e-4642-8639-19fe2b8d6c00","ios":"levelo://app?vid=55bac593-352e-4642-8639-19fe2b8d6c00"},"vehicle_type_id":"4","last_reported":1777441442,"current_range_meters":8400,"station_id":"","pricing_plan_id":"cebpf4jnsgd1na2vs0mg"},{"bike_id":"ef2f410f-463c-4127-8f21-3ae500dd4eda","system_id":"levelo_inurba_marseille","lat":43.28417,"lon":5.37527,"is_reserved":false,"is_disabled":true,"rental_uris":{"android":"levelo://app?vid=ef2f410f-463c-4127-8f21-3ae500dd4eda","ios":"levelo://app?vid=ef2f410f-463c-4127-8f21-3ae500dd4eda"},"vehicle_type_id":"4","last_reported":1777441442,"current_range_meters":8400,"station_id":"ce4bh412rcd13ifvqds0","pricing_plan_id":"cebpf4jnsgd1na2vs0mg"},{"bike_id":"c92beadd-a687-49bc-8e10-a304c5de9bf2","system_id":"levelo_inurba_marseille","lat":43.23142,"lon":5.43673,"is_reserved":false,"is_disabled":false,"rental_uris":{"android":"levelo://app?vid=c92beadd-a687-49bc-8e10-a304c5de9bf2","ios":"levelo://app?vid=c92beadd-a687-49bc-8e10-a304c5de9bf2"},"vehicle_type_id":"4","last_reported":1777441442,"current_range_meters":8400,"station_id":"ce4bhmp2rcd13ifvqgog","pricing_plan_id":"cebpf4jnsgd1na2vs0mg"},{"bike_id":"b91f4f99-7987-40ea-afbb-1e1af65ec675","system_id":"levelo_inurba_marseille","lat":43.29445,"lon":5.40916,"is_reserved":false,"is_disabled":false,"rental_uris":{"android":"levelo://app?vid=b91f4f99-7987-40ea-afbb-1e1af65ec675","ios":"levelo://app?vid=b91f4f99-7987-40ea-afbb-1e1af65ec675"},"vehicle_type_id":"4","last_reported":1777441442,"current_range_meters":8400,"station_id":"","pricing_plan_id":"cebpf4jnsgd1na2vs0mg"},{"bike_id":"22f07e39-16f3-42f3-9b1a-06a4c964ff00","system_id":"levelo_inurba_marseille","lat":43.30885,"lon":5.3963,"is_reserved":false,"is_disabled":false,"rental_uris":{"android":"levelo://app?vid=22f07e39-16f3-42f3-9b1a-06a4c964ff00","ios":"levelo://app?vid=22f07e39-16f3-42f3-9b1a-06a4c964ff00"},"vehicle_type_id":"4","last_reported":1777441442,"current_range_meters":8400,"station_id":"ce4bh012rcd13ifvqcv0","pricing_plan_id":"cebpf4jnsgd1na2vs0mg"},{"bike_id":"fb48eb95-a721-45e3-a917-4c0e5102e02d","system_id":"levelo_inurba_marseille","lat":43.23209,"lon":5.35564,"is_reserved":false,"is_disabled":false,"rental_uris":{"android":"levelo://app?vid=fb48eb95-a721-45e3-a917-4c0e5102e02d","ios":"levelo://app?vid=fb48eb95-a721-45e3-a917-4c0e5102e02d"},"vehicle_type_id":"4","last_reported":1777441442,"current_range_meters":8400,"station_id":"ce4bhu92rcd13ifvqi70","pricing_plan_id":"cebpf4jnsgd1na2vs0mg"},{"bike_id":"13a19b64-2305-48b9-97ca-f768ee4bbad0","system_id":"levelo_inurba_marseille","lat":43.28001,"lon":5.41678,"is_reserved":false,"is_disabled":false,"rental_uris":{"android":"levelo://app?vid=13a19b64-2305-48b9-97ca-f768ee4bbad0","ios":"levelo://app?vid=13a19b64-2305-48b9-97ca-f768ee4bbad0"},"vehicle_type_id":"4","last_reported":1777441442,"current_range_meters":8400,"station_id":"ce4bho12rcd13ifvqh1g","pricing_plan_id":"cebpf4jnsgd1na2vs0mg"},{"bike_id":"a6a7e439-2b8e-40ed-81ca-7f49b40dc9a0","system_id":"levelo_inurba_marseille","lat":43.26614,"lon":5.39013,"is_reserved":false,"is_disabled":false,"rental_uris":{"android":"levelo://app?vid=a6a7e439-2b8e-40ed-81ca-7f49b40dc9a0","ios":"levelo://app?vid=a6a7e439-2b8e-40ed-81ca-7f49b40dc9a0"},"vehicle_type_id":"4","last_reported":1777441442,"current_range_meters":8800,"station_id":"ce4bhe12rcd13ifvqf30","pricing_plan_id":"cebpf4jnsgd1na2vs0mg"},{"bike_id":"b5592bc3-7c5d-4ba9-b1ae-b173928aef8c","system_id":"levelo_inurba_marseille","lat":43.28483,"lon":5.48392,"is_reserved":false,"is_disabled":false,"rental_uris":{"android":"levelo://app?vid=b5592bc3-7c5d-4ba9-b1ae-b173928aef8c","ios":"levelo://app?vid=b5592bc3-7c5d-4ba9-b1ae-b173928aef8c"},"vehicle_type_id":"4","last_reported":1777441442,"current_range_meters":8800,"station_id":"","pricing_plan_id":"cebpf4jnsgd1na2vs0mg"},{"bike_id":"4dbe00ec-feb8-4193-848e-b5324775416c","system_id":"levelo_inurba_marseille","lat":43.28414,"lon":5.34993,"is_reserved":false,"is_disabled":false,"rental_uris":{"android":"levelo://app?vid=4dbe00ec-feb8-4193-848e-b5324775416c","ios":"levelo://app?vid=4dbe00ec-feb8-4193-848e-b5324775416c"},"vehicle_type_id":"4","last_reported":1777441442,"current_range_meters":8800,"station_id":"ce4bhbh2rcd13ifvqepg","pricing_plan_id":"cebpf4jnsgd1na2vs0mg"},{"bike_id":"9343aecf-4978-4477-b5da-1d24da65906d","system_id":"levelo_inurba_marseille","lat":43.31177,"lon":5.39376,"is_reserved":false,"is_disabled":false,"rental_uris":{"android":"levelo://app?vid=9343aecf-4978-4477-b5da-1d24da65906d","ios":"levelo://app?vid=9343aecf-4978-4477-b5da-1d24da65906d"},"vehicle_type_id":"4","last_reported":1777441442,"current_range_meters":8800,"station_id":"","pricing_plan_id":"cebpf4jnsgd1na2vs0mg"},{"bike_id":"8e895859-042e-47e7-9ca8-83e0c06497e4","system_id":"levelo_inurba_marseille","lat":43.30331,"lon":5.36907,"is_reserved":false,"is_disabled":true,"rental_uris":{"android":"levelo://app?vid=8e895859-042e-47e7-9ca8-83e0c06497e4","ios":"levelo://app?vid=8e895859-042e-47e7-9ca8-83e0c06497e4"},"vehicle_type_id":"4","last_reported":1777441442,"current_range_meters":8800,"station_id":"ce4bgqh2rcd13ifvqc5g","pricing_plan_id":"cebpf4jnsgd1na2vs0mg"},{"bike_id":"abfe3038-441e-4245-b0b4-d038f9714ddd","system_id":"levelo_inurba_marseille","lat":43.3117,"lon":5.38718,"is_reserved":false,"is_disabled":false,"rental_uris":{"android":"levelo://app?vid=abfe3038-441e-4245-b0b4-d038f9714ddd","ios":"levelo://app?vid=abfe3038-441e-4245-b0b4-d038f9714ddd"},"vehicle_type_id":"4","last_reported":1777441442,"current_range_meters":8800,"station_id":"ce4bgv12rcd13ifvqcp0","pricing_plan_id":"cebpf4jnsgd1na2vs0mg"},{"bike_id":"b0cd3801-d5d8-4737-b521-479255b64fe1","system_id":"levelo_inurba_marseille","lat":43.29253,"lon":5.40897,"is_reserved":false,"is_disabled":false,"rental_uris":{"android":"levelo://app?vid=b0cd3801-d5d8-4737-b521-479255b64fe1","ios":"levelo://app?vid=b0cd3801-d5d8-4737-b521-479255b64fe1"},"vehicle_type_id":"4","last_reported":1777441442,"current_range_meters":8800,"station_id":"ce4bh192rcd13ifvqdc0","pricing_plan_id":"cebpf4jnsgd1na2vs0mg"},{"bike_id":"8c2ebc41-7bef-4c6d-91ac-124371586248","system_id":"levelo_inurba_marseille","lat":43.25566,"lon":5.3825,"is_reserved":false,"is_disabled":false,"rental_uris":{"android":"levelo://app?vid=8c2ebc41-7bef-4c6d-91ac-124371586248","ios":"levelo://app?vid=8c2ebc41-7bef-4c6d-91ac-124371586248"},"vehicle_type_id":"4","last_reported":1777441442,"current_range_meters":8800,"station_id":"ce4bhih2rcd13ifvqfs0","pricing_plan_id":"cebpf4jnsgd1na2vs0mg"},{"bike_id":"aa1c53b3-e875-48f6-8f11-5585989ab701","system_id":"levelo_inurba_marseille","lat":43.2919,"lon":5.39312,"is_reserved":false,"is_disabled":true,"rental_uris":{"android":"levelo://app?vid=aa1c53b3-e875-48f6-8f11-5585989ab701","ios":"levelo://app?vid=aa1c53b3-e875-48f6-8f11-5585989ab701"},"vehicle_type_id":"4","last_reported":1777441442,"current_range_meters":8800,"station_id":"ce4bh192rcd13ifvqdd0","pricing_plan_id":"cebpf4jnsgd1na2vs0mg"},{"bike_id":"acc57406-75de-43a2-a6ec-d941193f0be0","system_id":"levelo_inurba_marseille","lat":43.32347,"lon":5.36738,"is_reserved":false,"is_disabled":false,"rental_uris":{"android":"levelo://app?vid=acc57406-75de-43a2-a6ec-d941193f0be0","ios":"levelo://app?vid=acc57406-75de-43a2-a6ec-d941193f0be0"},"vehicle_type_id":"4","last_reported":1777441442,"current_range_meters":8800,"station_id":"ce4bhsh2rcd13ifvqi2g","pricing_plan_id":"cebpf4jnsgd1na2vs0mg"},{"bike_id":"6eaae871-0a05-412a-9bc2-1e7ae31c884a","system_id":"levelo_inurba_marseille","lat":43.26216,"lon":5.37942,"is_reserved":false,"is_disabled":false,"rental_uris":{"android":"levelo://app?vid=6eaae871-0a05-412a-9bc2-1e7ae31c884a","ios":"levelo://app?vid=6eaae871-0a05-412a-9bc2-1e7ae31c884a"},"vehicle_type_id":"4","last_reported":1777441442,"current_range_meters":8800,"station_id":"ce4bhjp2rcd13ifvqg90","pricing_plan_id":"cebpf4jnsgd1na2vs0mg"},{"bike_id":"f09be4bd-a2d5-46b5-ab6e-102974142b02","system_id":"levelo_inurba_marseille","lat":43.31333,"lon":5.397,"is_reserved":false,"is_disabled":false,"rental_uris":{"android":"levelo://app?vid=f09be4bd-a2d5-46b5-ab6e-102974142b02","ios":"levelo://app?vid=f09be4bd-a2d5-46b5-ab6e-102974142b02"},"vehicle_type_id":"4","last_reported":1777441442,"current_range_meters":8800,"station_id":"ce4bgvp2rcd13ifvqcu0","pricing_plan_id":"cebpf4jnsgd1na2vs0mg"},{"bike_id":"87e25f35-2d83-40b5-9491-e5fcf313d252","system_id":"levelo_inurba_marseille","lat":43.23404,"lon":5.41263,"is_reserved":false,"is_disabled":false,"rental_uris":{"android":"levelo://app?vid=87e25f35-2d83-40b5-9491-e5fcf313d252","ios":"levelo://app?vid=87e25f35-2d83-40b5-9491-e5fcf313d252"},"vehicle_type_id":"4","last_reported":1777441442,"current_range_meters":8800,"station_id":"st_d75pvndhf9lc73cqq3eg","pricing_plan_id":"cebpf4jnsgd1na2vs0mg"},{"bike_id":"a6f69edd-7f92-46ec-b19d-2c3242dfd28a","system_id":"levelo_inurba_marseille","lat":43.30386,"lon":5.41891,"is_reserved":false,"is_disabled":true,"rental_uris":{"android":"levelo://app?vid=a6f69edd-7f92-46ec-b19d-2c3242dfd28a","ios":"levelo://app?vid=a6f69edd-7f92-46ec-b19d-2c3242dfd28a"},"vehicle_type_id":"4","last_reported":1777441442,"current_range_meters":8800,"station_id":"ce4bhop2rcd13ifvqh7g","pricing_plan_id":"cebpf4jnsgd1na2vs0mg"},{"bike_id":"e5f9afbb-eeaa-4f62-871a-cf997b5d0fb4","system_id":"levelo_inurba_marseille","lat":43.29793,"lon":5.39363,"is_reserved":false,"is_disabled":false,"rental_uris":{"android":"levelo://app?vid=e5f9afbb-eeaa-4f62-871a-cf997b5d0fb4","ios":"levelo://app?vid=e5f9afbb-eeaa-4f62-871a-cf997b5d0fb4"},"vehicle_type_id":"4","last_reported":1777441442,"current_range_meters":8800,"station_id":"chh1huq6cuj3fo74tm60","pricing_plan_id":"cebpf4jnsgd1na2vs0mg"},{"bike_id":"809dbee3-b28b-45fa-8543-de3ebcdde081","system_id":"levelo_inurba_marseille","lat":43.29771,"lon":5.38123,"is_reserved":false,"is_disabled":false,"rental_uris":{"android":"levelo://app?vid=809dbee3-b28b-45fa-8543-de3ebcdde081","ios":"levelo://app?vid=809dbee3-b28b-45fa-8543-de3ebcdde081"},"vehicle_type_id":"4","last_reported":1777441442,"current_range_meters":8800,"station_id":"ce4bgip2rcd13ifvqbb0","pricing_plan_id":"cebpf4jnsgd1na2vs0mg"},{"bike_id":"196939d7-8120-4fa4-8a8f-be34c3561853","system_id":"levelo_inurba_marseille","lat":43.31888,"lon":5.36812,"is_reserved":false,"is_disabled":false,"rental_uris":{"android":"levelo://app?vid=196939d7-8120-4fa4-8a8f-be34c3561853","ios":"levelo://app?vid=196939d7-8120-4fa4-8a8f-be34c3561853"},"vehicle_type_id":"4","last_reported":1777441442,"current_range_meters":8800,"station_id":"st_d6o2h0d0559c73evc1b0","pricing_plan_id":"cebpf4jnsgd1na2vs0mg"},{"bike_id":"c62dd68e-1420-4f1f-9f98-ec3aebe502eb","system_id":"levelo_inurba_marseille","lat":43.31823,"lon":5.3849,"is_reserved":false,"is_disabled":false,"rental_uris":{"android":"levelo://app?vid=c62dd68e-1420-4f1f-9f98-ec3aebe502eb","ios":"levelo://app?vid=c62dd68e-1420-4f1f-9f98-ec3aebe502eb"},"vehicle_type_id":"4","last_reported":1777441442,"current_range_meters":9200,"station_id":"","pricing_plan_id":"cebpf4jnsgd1na2vs0mg"},{"bike_id":"384d8c36-7b52-45be-af88-a3ca984d99ee","system_id":"levelo_inurba_marseille","lat":43.25071,"lon":5.39515,"is_reserved":false,"is_disabled":false,"rental_uris":{"android":"levelo://app?vid=384d8c36-7b52-45be-af88-a3ca984d99ee","ios":"levelo://app?vid=384d8c36-7b52-45be-af88-a3ca984d99ee"},"vehicle_type_id":"4","last_reported":1777441442,"current_range_meters":9200,"station_id":"ce4bhm12rcd13ifvqgkg","pricing_plan_id":"cebpf4jnsgd1na2vs0mg"},{"bike_id":"146883f7-ce79-4e13-8aa4-fa49231b74ec","system_id":"levelo_inurba_marseille","lat":43.28439,"lon":5.39235,"is_reserved":false,"is_disabled":false,"rental_uris":{"android":"levelo://app?vid=146883f7-ce79-4e13-8aa4-fa49231b74ec","ios":"levelo://app?vid=146883f7-ce79-4e13-8aa4-fa49231b74ec"},"vehicle_type_id":"4","last_reported":1777441442,"current_range_meters":9200,"station_id":"ce4bhoh2rcd13ifvqh5g","pricing_plan_id":"cebpf4jnsgd1na2vs0mg"},{"bike_id":"d848b779-bbcc-4d7a-805e-64de03dc9291","system_id":"levelo_inurba_marseille","lat":43.31103,"lon":5.37036,"is_reserved":false,"is_disabled":false,"rental_uris":{"android":"levelo://app?vid=d848b779-bbcc-4d7a-805e-64de03dc9291","ios":"levelo://app?vid=d848b779-bbcc-4d7a-805e-64de03dc9291"},"vehicle_type_id":"4","last_reported":1777441442,"current_range_meters":9200,"station_id":"","pricing_plan_id":"cebpf4jnsgd1na2vs0mg"},{"bike_id":"e736ef1f-5121-48c5-91b1-6013be2dcb21","system_id":"levelo_inurba_marseille","lat":43.29003,"lon":5.35623,"is_reserved":false,"is_disabled":false,"rental_uris":{"android":"levelo://app?vid=e736ef1f-5121-48c5-91b1-6013be2dcb21","ios":"levelo://app?vid=e736ef1f-5121-48c5-91b1-6013be2dcb21"},"vehicle_type_id":"4","last_reported":1777441442,"current_range_meters":9200,"station_id":"ce4bhb92rcd13ifvqen0","pricing_plan_id":"cebpf4jnsgd1na2vs0mg"},{"bike_id":"a496669f-42ea-4ec8-b909-b71bb128370f","system_id":"levelo_inurba_marseille","lat":43.33539,"lon":5.37491,"is_reserved":false,"is_disabled":false,"rental_uris":{"android":"levelo://app?vid=a496669f-42ea-4ec8-b909-b71bb128370f","ios":"levelo://app?vid=a496669f-42ea-4ec8-b909-b71bb128370f"},"vehicle_type_id":"4","last_reported":1777441442,"current_range_meters":9200,"station_id":"st_d46tts09ee8s73dlu43g","pricing_plan_id":"cebpf4jnsgd1na2vs0mg"},{"bike_id":"d68d4b12-2d5f-4324-8231-abdb9d9ddbab","system_id":"levelo_inurba_marseille","lat":43.29042,"lon":5.39978,"is_reserved":false,"is_disabled":false,"rental_uris":{"android":"levelo://app?vid=d68d4b12-2d5f-4324-8231-abdb9d9ddbab","ios":"levelo://app?vid=d68d4b12-2d5f-4324-8231-abdb9d9ddbab"},"vehicle_type_id":"4","last_reported":1777441442,"current_range_meters":9200,"station_id":"ce4bh392rcd13ifvqdm0","pricing_plan_id":"cebpf4jnsgd1na2vs0mg"},{"bike_id":"e6fbd7ac-9a8b-48f9-9b46-4504e82d8f74","system_id":"levelo_inurba_marseille","lat":43.24471,"lon":5.42536,"is_reserved":false,"is_disabled":false,"rental_uris":{"android":"levelo://app?vid=e6fbd7ac-9a8b-48f9-9b46-4504e82d8f74","ios":"levelo://app?vid=e6fbd7ac-9a8b-48f9-9b46-4504e82d8f74"},"vehicle_type_id":"4","last_reported":1777441442,"current_range_meters":9200,"station_id":"st_d4a3vfp97mjs738cd8kg","pricing_plan_id":"cebpf4jnsgd1na2vs0mg"},{"bike_id":"6f2719a6-e990-4c38-a5fb-6fe88070ce3b","system_id":"levelo_inurba_marseille","lat":43.30188,"lon":5.36622,"is_reserved":false,"is_disabled":false,"rental_uris":{"android":"levelo://app?vid=6f2719a6-e990-4c38-a5fb-6fe88070ce3b","ios":"levelo://app?vid=6f2719a6-e990-4c38-a5fb-6fe88070ce3b"},"vehicle_type_id":"4","last_reported":1777441442,"current_range_meters":9200,"station_id":"ce4bgrh2rcd13ifvqc8g","pricing_plan_id":"cebpf4jnsgd1na2vs0mg"},{"bike_id":"057b63d0-a98f-4cee-a884-9b5569ace36b","system_id":"levelo_inurba_marseille","lat":43.2806,"lon":5.39657,"is_reserved":false,"is_disabled":false,"rental_uris":{"android":"levelo://app?vid=057b63d0-a98f-4cee-a884-9b5569ace36b","ios":"levelo://app?vid=057b63d0-a98f-4cee-a884-9b5569ace36b"},"vehicle_type_id":"4","last_reported":1777441442,"current_range_meters":9200,"station_id":"ce4bho12rcd13ifvqh2g","pricing_plan_id":"cebpf4jnsgd1na2vs0mg"},{"bike_id":"557fb6c8-fcd1-4be6-b4e8-a9d8ed965ac6","system_id":"levelo_inurba_marseille","lat":43.27061,"lon":5.38307,"is_reserved":false,"is_disabled":false,"rental_uris":{"android":"levelo://app?vid=557fb6c8-fcd1-4be6-b4e8-a9d8ed965ac6","ios":"levelo://app?vid=557fb6c8-fcd1-4be6-b4e8-a9d8ed965ac6"},"vehicle_type_id":"4","last_reported":1777441442,"current_range_meters":9200,"station_id":"st_d3n2fo6cfp8s73cte1j0","pricing_plan_id":"cebpf4jnsgd1na2vs0mg"},{"bike_id":"65e71f25-1791-4448-98e3-dcdf2357b321","system_id":"levelo_inurba_marseille","lat":43.31355,"lon":5.38497,"is_reserved":false,"is_disabled":false,"rental_uris":{"android":"levelo://app?vid=65e71f25-1791-4448-98e3-dcdf2357b321","ios":"levelo://app?vid=65e71f25-1791-4448-98e3-dcdf2357b321"},"vehicle_type_id":"4","last_reported":1777441442,"current_range_meters":9200,"station_id":"ce4bgt92rcd13ifvqcf0","pricing_plan_id":"cebpf4jnsgd1na2vs0mg"},{"bike_id":"fd186f00-9ec1-49cb-b9b0-8146485ccbec","system_id":"levelo_inurba_marseille","lat":43.29615,"lon":5.38103,"is_reserved":false,"is_disabled":false,"rental_uris":{"android":"levelo://app?vid=fd186f00-9ec1-49cb-b9b0-8146485ccbec","ios":"levelo://app?vid=fd186f00-9ec1-49cb-b9b0-8146485ccbec"},"vehicle_type_id":"4","last_reported":1777441442,"current_range_meters":9200,"station_id":"ce4bgl12rcd13ifvqbo0","pricing_plan_id":"cebpf4jnsgd1na2vs0mg"},{"bike_id":"4281fe37-f3c1-47ad-b910-0a431637f38a","system_id":"levelo_inurba_marseille","lat":43.3026,"lon":5.4006,"is_reserved":false,"is_disabled":false,"rental_uris":{"android":"levelo://app?vid=4281fe37-f3c1-47ad-b910-0a431637f38a","ios":"levelo://app?vid=4281fe37-f3c1-47ad-b910-0a431637f38a"},"vehicle_type_id":"4","last_reported":1777441442,"current_range_meters":9200,"station_id":"ce4bgvh2rcd13ifvqcs0","pricing_plan_id":"cebpf4jnsgd1na2vs0mg"},{"bike_id":"2eb34181-3649-40f8-a329-123a15eadfde","system_id":"levelo_inurba_marseille","lat":43.28568,"lon":5.39493,"is_reserved":false,"is_disabled":false,"rental_uris":{"android":"levelo://app?vid=2eb34181-3649-40f8-a329-123a15eadfde","ios":"levelo://app?vid=2eb34181-3649-40f8-a329-123a15eadfde"},"vehicle_type_id":"4","last_reported":1777441442,"current_range_meters":9200,"station_id":"ce4bh292rcd13ifvqdg0","pricing_plan_id":"cebpf4jnsgd1na2vs0mg"},{"bike_id":"b4a497ea-222e-419c-a826-4feb72e6ade8","system_id":"levelo_inurba_marseille","lat":43.28698,"lon":5.46702,"is_reserved":false,"is_disabled":false,"rental_uris":{"android":"levelo://app?vid=b4a497ea-222e-419c-a826-4feb72e6ade8","ios":"levelo://app?vid=b4a497ea-222e-419c-a826-4feb72e6ade8"},"vehicle_type_id":"4","last_reported":1777441442,"current_range_meters":9600,"station_id":"st_d6tc3vkotcvc738tfjhg","pricing_plan_id":"cebpf4jnsgd1na2vs0mg"},{"bike_id":"70c42991-981d-47e3-9065-57cdea5185c5","system_id":"levelo_inurba_marseille","lat":43.32,"lon":5.38148,"is_reserved":false,"is_disabled":false,"rental_uris":{"android":"levelo://app?vid=70c42991-981d-47e3-9065-57cdea5185c5","ios":"levelo://app?vid=70c42991-981d-47e3-9065-57cdea5185c5"},"vehicle_type_id":"4","last_reported":1777441442,"current_range_meters":9600,"station_id":"ce4bhr12rcd13ifvqhpg","pricing_plan_id":"cebpf4jnsgd1na2vs0mg"},{"bike_id":"9bb32684-44d0-4ee7-af01-0d2039251656","system_id":"levelo_inurba_marseille","lat":43.31689,"lon":5.40456,"is_reserved":false,"is_disabled":false,"rental_uris":{"android":"levelo://app?vid=9bb32684-44d0-4ee7-af01-0d2039251656","ios":"levelo://app?vid=9bb32684-44d0-4ee7-af01-0d2039251656"},"vehicle_type_id":"4","last_reported":1777441442,"current_range_meters":9600,"station_id":"ce4bh012rcd13ifvqd00","pricing_plan_id":"cebpf4jnsgd1na2vs0mg"},{"bike_id":"93b13b9e-0842-4649-88de-644dbf6c103a","system_id":"levelo_inurba_marseille","lat":43.26454,"lon":5.42088,"is_reserved":false,"is_disabled":false,"rental_uris":{"android":"levelo://app?vid=93b13b9e-0842-4649-88de-644dbf6c103a","ios":"levelo://app?vid=93b13b9e-0842-4649-88de-644dbf6c103a"},"vehicle_type_id":"4","last_reported":1777441442,"current_range_meters":9600,"station_id":"","pricing_plan_id":"cebpf4jnsgd1na2vs0mg"},{"bike_id":"0438d68d-b4c6-4b23-a7e1-82657231ebe9","system_id":"levelo_inurba_marseille","lat":43.285,"lon":5.48405,"is_reserved":false,"is_disabled":false,"rental_uris":{"android":"levelo://app?vid=0438d68d-b4c6-4b23-a7e1-82657231ebe9","ios":"levelo://app?vid=0438d68d-b4c6-4b23-a7e1-82657231ebe9"},"vehicle_type_id":"4","last_reported":1777441442,"current_range_meters":9600,"station_id":"","pricing_plan_id":"cebpf4jnsgd1na2vs0mg"},{"bike_id":"262fc285-b6eb-4eda-9ac1-639b6caaacc5","system_id":"levelo_inurba_marseille","lat":43.32362,"lon":5.36745,"is_reserved":false,"is_disabled":false,"rental_uris":{"android":"levelo://app?vid=262fc285-b6eb-4eda-9ac1-639b6caaacc5","ios":"levelo://app?vid=262fc285-b6eb-4eda-9ac1-639b6caaacc5"},"vehicle_type_id":"4","last_reported":1777441442,"current_range_meters":9600,"station_id":"ce4bhsh2rcd13ifvqi2g","pricing_plan_id":"cebpf4jnsgd1na2vs0mg"},{"bike_id":"a811e7fc-55dc-4560-be9c-ff4638854efd","system_id":"levelo_inurba_marseille","lat":43.30332,"lon":5.4044,"is_reserved":false,"is_disabled":false,"rental_uris":{"android":"levelo://app?vid=a811e7fc-55dc-4560-be9c-ff4638854efd","ios":"levelo://app?vid=a811e7fc-55dc-4560-be9c-ff4638854efd"},"vehicle_type_id":"4","last_reported":1777441442,"current_range_meters":9600,"station_id":"ce4bh012rcd13ifvqd10","pricing_plan_id":"cebpf4jnsgd1na2vs0mg"},{"bike_id":"d3bd480c-f6ce-4231-a1d5-20e54cb8851a","system_id":"levelo_inurba_marseille","lat":43.2961,"lon":5.37158,"is_reserved":false,"is_disabled":true,"rental_uris":{"android":"levelo://app?vid=d3bd480c-f6ce-4231-a1d5-20e54cb8851a","ios":"levelo://app?vid=d3bd480c-f6ce-4231-a1d5-20e54cb8851a"},"vehicle_type_id":"4","last_reported":1777441442,"current_range_meters":9600,"station_id":"ce4bgnh2rcd13ifvqc0g","pricing_plan_id":"cebpf4jnsgd1na2vs0mg"},{"bike_id":"907b975e-fb54-4198-ad71-0a6fda3075d0","system_id":"levelo_inurba_marseille","lat":43.29906,"lon":5.39741,"is_reserved":false,"is_disabled":true,"rental_uris":{"android":"levelo://app?vid=907b975e-fb54-4198-ad71-0a6fda3075d0","ios":"levelo://app?vid=907b975e-fb54-4198-ad71-0a6fda3075d0"},"vehicle_type_id":"4","last_reported":1777441442,"current_range_meters":9600,"station_id":"ce4bh0h2rcd13ifvqd50","pricing_plan_id":"cebpf4jnsgd1na2vs0mg"},{"bike_id":"a2b05a2c-c09b-4781-8dc2-188e794d958e","system_id":"levelo_inurba_marseille","lat":43.26569,"lon":5.40317,"is_reserved":false,"is_disabled":false,"rental_uris":{"android":"levelo://app?vid=a2b05a2c-c09b-4781-8dc2-188e794d958e","ios":"levelo://app?vid=a2b05a2c-c09b-4781-8dc2-188e794d958e"},"vehicle_type_id":"4","last_reported":1777441442,"current_range_meters":9600,"station_id":"ce4bhmp2rcd13ifvqgng","pricing_plan_id":"cebpf4jnsgd1na2vs0mg"},{"bike_id":"dcaf5ba9-69ac-458e-9f75-a44d5219e6d3","system_id":"levelo_inurba_marseille","lat":43.2465,"lon":5.38153,"is_reserved":false,"is_disabled":false,"rental_uris":{"android":"levelo://app?vid=dcaf5ba9-69ac-458e-9f75-a44d5219e6d3","ios":"levelo://app?vid=dcaf5ba9-69ac-458e-9f75-a44d5219e6d3"},"vehicle_type_id":"4","last_reported":1777441442,"current_range_meters":9600,"station_id":"ce4bhih2rcd13ifvqfr0","pricing_plan_id":"cebpf4jnsgd1na2vs0mg"},{"bike_id":"a474ebcf-2466-404f-80d5-6e265f2c324a","system_id":"levelo_inurba_marseille","lat":43.24838,"lon":5.40554,"is_reserved":false,"is_disabled":false,"rental_uris":{"android":"levelo://app?vid=a474ebcf-2466-404f-80d5-6e265f2c324a","ios":"levelo://app?vid=a474ebcf-2466-404f-80d5-6e265f2c324a"},"vehicle_type_id":"4","last_reported":1777441442,"current_range_meters":9600,"station_id":"st_d2ngiaodas8pm72gd1h0","pricing_plan_id":"cebpf4jnsgd1na2vs0mg"},{"bike_id":"14015fc9-b839-4138-b4d5-9a2f5afbe521","system_id":"levelo_inurba_marseille","lat":43.29211,"lon":5.42646,"is_reserved":false,"is_disabled":false,"rental_uris":{"android":"levelo://app?vid=14015fc9-b839-4138-b4d5-9a2f5afbe521","ios":"levelo://app?vid=14015fc9-b839-4138-b4d5-9a2f5afbe521"},"vehicle_type_id":"4","last_reported":1777441442,"current_range_meters":9600,"station_id":"","pricing_plan_id":"cebpf4jnsgd1na2vs0mg"},{"bike_id":"402ba5aa-efd5-46d3-bf2f-f90203917966","system_id":"levelo_inurba_marseille","lat":43.31286,"lon":5.39319,"is_reserved":false,"is_disabled":false,"rental_uris":{"android":"levelo://app?vid=402ba5aa-efd5-46d3-bf2f-f90203917966","ios":"levelo://app?vid=402ba5aa-efd5-46d3-bf2f-f90203917966"},"vehicle_type_id":"4","last_reported":1777441442,"current_range_meters":9600,"station_id":"","pricing_plan_id":"cebpf4jnsgd1na2vs0mg"},{"bike_id":"077fd9d6-fd31-4538-9468-c9995c699e08","system_id":"levelo_inurba_marseille","lat":43.29823,"lon":5.39216,"is_reserved":false,"is_disabled":false,"rental_uris":{"android":"levelo://app?vid=077fd9d6-fd31-4538-9468-c9995c699e08","ios":"levelo://app?vid=077fd9d6-fd31-4538-9468-c9995c699e08"},"vehicle_type_id":"4","last_reported":1777441442,"current_range_meters":9600,"station_id":"","pricing_plan_id":"cebpf4jnsgd1na2vs0mg"},{"bike_id":"c5d67ece-fa40-4f1b-8aab-b58d0141588b","system_id":"levelo_inurba_marseille","lat":43.30215,"lon":5.39474,"is_reserved":false,"is_disabled":false,"rental_uris":{"android":"levelo://app?vid=c5d67ece-fa40-4f1b-8aab-b58d0141588b","ios":"levelo://app?vid=c5d67ece-fa40-4f1b-8aab-b58d0141588b"},"vehicle_type_id":"4","last_reported":1777441442,"current_range_meters":9600,"station_id":"ce4bh0p2rcd13ifvqd70","pricing_plan_id":"cebpf4jnsgd1na2vs0mg"},{"bike_id":"a13cf09e-4dc6-4122-934a-08e5a4ad06bd","system_id":"levelo_inurba_marseille","lat":43.26527,"lon":5.37322,"is_reserved":false,"is_disabled":true,"rental_uris":{"android":"levelo://app?vid=a13cf09e-4dc6-4122-934a-08e5a4ad06bd","ios":"levelo://app?vid=a13cf09e-4dc6-4122-934a-08e5a4ad06bd"},"vehicle_type_id":"4","last_reported":1777441442,"current_range_meters":9600,"station_id":"ce4bhg12rcd13ifvqf70","pricing_plan_id":"cebpf4jnsgd1na2vs0mg"},{"bike_id":"5826704d-6185-4f02-be08-714b7a62d291","system_id":"levelo_inurba_marseille","lat":43.25342,"lon":5.42174,"is_reserved":false,"is_disabled":false,"rental_uris":{"android":"levelo://app?vid=5826704d-6185-4f02-be08-714b7a62d291","ios":"levelo://app?vid=5826704d-6185-4f02-be08-714b7a62d291"},"vehicle_type_id":"4","last_reported":1777441442,"current_range_meters":10000,"station_id":"st_d2m65c5bi1j21697t3ng","pricing_plan_id":"cebpf4jnsgd1na2vs0mg"},{"bike_id":"83bbd1bb-b73c-4756-a9d4-e3198b367305","system_id":"levelo_inurba_marseille","lat":43.28714,"lon":5.37382,"is_reserved":false,"is_disabled":false,"rental_uris":{"android":"levelo://app?vid=83bbd1bb-b73c-4756-a9d4-e3198b367305","ios":"levelo://app?vid=83bbd1bb-b73c-4756-a9d4-e3198b367305"},"vehicle_type_id":"4","last_reported":1777441442,"current_range_meters":10000,"station_id":"ce4bh3p2rcd13ifvqdq0","pricing_plan_id":"cebpf4jnsgd1na2vs0mg"},{"bike_id":"3b5a3e49-5eab-4832-a607-28731b7d9d90","system_id":"levelo_inurba_marseille","lat":43.31069,"lon":5.42449,"is_reserved":false,"is_disabled":false,"rental_uris":{"android":"levelo://app?vid=3b5a3e49-5eab-4832-a607-28731b7d9d90","ios":"levelo://app?vid=3b5a3e49-5eab-4832-a607-28731b7d9d90"},"vehicle_type_id":"4","last_reported":1777441442,"current_range_meters":10000,"station_id":"ce4bhp92rcd13ifvqhag","pricing_plan_id":"cebpf4jnsgd1na2vs0mg"},{"bike_id":"b34d361a-3a54-402f-a0e5-943f510f655c","system_id":"levelo_inurba_marseille","lat":43.27821,"lon":5.39203,"is_reserved":false,"is_disabled":false,"rental_uris":{"android":"levelo://app?vid=b34d361a-3a54-402f-a0e5-943f510f655c","ios":"levelo://app?vid=b34d361a-3a54-402f-a0e5-943f510f655c"},"vehicle_type_id":"4","last_reported":1777441442,"current_range_meters":10000,"station_id":"ce4bhjp2rcd13ifvqga0","pricing_plan_id":"cebpf4jnsgd1na2vs0mg"},{"bike_id":"20f0c0f9-b409-4432-8ee6-371c76669322","system_id":"levelo_inurba_marseille","lat":43.29586,"lon":5.38092,"is_reserved":false,"is_disabled":false,"rental_uris":{"android":"levelo://app?vid=20f0c0f9-b409-4432-8ee6-371c76669322","ios":"levelo://app?vid=20f0c0f9-b409-4432-8ee6-371c76669322"},"vehicle_type_id":"4","last_reported":1777441442,"current_range_meters":10000,"station_id":"ce4bgl12rcd13ifvqbo0","pricing_plan_id":"cebpf4jnsgd1na2vs0mg"},{"bike_id":"8da834b6-c6c3-4f61-afed-e9cc9c6fa944","system_id":"levelo_inurba_marseille","lat":43.28464,"lon":5.35882,"is_reserved":false,"is_disabled":false,"rental_uris":{"android":"levelo://app?vid=8da834b6-c6c3-4f61-afed-e9cc9c6fa944","ios":"levelo://app?vid=8da834b6-c6c3-4f61-afed-e9cc9c6fa944"},"vehicle_type_id":"4","last_reported":1777441442,"current_range_meters":10000,"station_id":"ce4bhah2rcd13ifvqei0","pricing_plan_id":"cebpf4jnsgd1na2vs0mg"},{"bike_id":"d800f8e4-f2df-4e76-9327-b54c86d9f091","system_id":"levelo_inurba_marseille","lat":43.31183,"lon":5.38718,"is_reserved":false,"is_disabled":false,"rental_uris":{"android":"levelo://app?vid=d800f8e4-f2df-4e76-9327-b54c86d9f091","ios":"levelo://app?vid=d800f8e4-f2df-4e76-9327-b54c86d9f091"},"vehicle_type_id":"4","last_reported":1777441442,"current_range_meters":10000,"station_id":"ce4bgv12rcd13ifvqcp0","pricing_plan_id":"cebpf4jnsgd1na2vs0mg"},{"bike_id":"565a8ac0-2b20-423c-a683-e409c051d1eb","system_id":"levelo_inurba_marseille","lat":43.31214,"lon":5.36862,"is_reserved":false,"is_disabled":false,"rental_uris":{"android":"levelo://app?vid=565a8ac0-2b20-423c-a683-e409c051d1eb","ios":"levelo://app?vid=565a8ac0-2b20-423c-a683-e409c051d1eb"},"vehicle_type_id":"4","last_reported":1777441442,"current_range_meters":10000,"station_id":"ce4bgl92rcd13ifvqbq0","pricing_plan_id":"cebpf4jnsgd1na2vs0mg"},{"bike_id":"12e92b01-fd79-453f-9390-cc9782f89ccd","system_id":"levelo_inurba_marseille","lat":43.30882,"lon":5.39626,"is_reserved":false,"is_disabled":false,"rental_uris":{"android":"levelo://app?vid=12e92b01-fd79-453f-9390-cc9782f89ccd","ios":"levelo://app?vid=12e92b01-fd79-453f-9390-cc9782f89ccd"},"vehicle_type_id":"4","last_reported":1777441442,"current_range_meters":10000,"station_id":"ce4bh012rcd13ifvqcv0","pricing_plan_id":"cebpf4jnsgd1na2vs0mg"},{"bike_id":"a2a694ab-bd57-45a8-a651-048e4cefae01","system_id":"levelo_inurba_marseille","lat":43.28709,"lon":5.46687,"is_reserved":false,"is_disabled":false,"rental_uris":{"android":"levelo://app?vid=a2a694ab-bd57-45a8-a651-048e4cefae01","ios":"levelo://app?vid=a2a694ab-bd57-45a8-a651-048e4cefae01"},"vehicle_type_id":"4","last_reported":1777441442,"current_range_meters":10000,"station_id":"st_d6tc3vkotcvc738tfjhg","pricing_plan_id":"cebpf4jnsgd1na2vs0mg"},{"bike_id":"72e5bb5d-486f-4ca3-b871-8f1bc8ed5aa8","system_id":"levelo_inurba_marseille","lat":43.23145,"lon":5.43711,"is_reserved":false,"is_disabled":false,"rental_uris":{"android":"levelo://app?vid=72e5bb5d-486f-4ca3-b871-8f1bc8ed5aa8","ios":"levelo://app?vid=72e5bb5d-486f-4ca3-b871-8f1bc8ed5aa8"},"vehicle_type_id":"4","last_reported":1777441442,"current_range_meters":10000,"station_id":"ce4bhmp2rcd13ifvqgog","pricing_plan_id":"cebpf4jnsgd1na2vs0mg"},{"bike_id":"80f76436-87bc-48b5-b024-492590c9578f","system_id":"levelo_inurba_marseille","lat":43.29796,"lon":5.38119,"is_reserved":false,"is_disabled":false,"rental_uris":{"android":"levelo://app?vid=80f76436-87bc-48b5-b024-492590c9578f","ios":"levelo://app?vid=80f76436-87bc-48b5-b024-492590c9578f"},"vehicle_type_id":"4","last_reported":1777441442,"current_range_meters":10000,"station_id":"ce4bgip2rcd13ifvqbb0","pricing_plan_id":"cebpf4jnsgd1na2vs0mg"},{"bike_id":"016de08a-9dcd-4a81-9e84-942683adb94f","system_id":"levelo_inurba_marseille","lat":43.25835,"lon":5.39456,"is_reserved":false,"is_disabled":false,"rental_uris":{"android":"levelo://app?vid=016de08a-9dcd-4a81-9e84-942683adb94f","ios":"levelo://app?vid=016de08a-9dcd-4a81-9e84-942683adb94f"},"vehicle_type_id":"4","last_reported":1777441442,"current_range_meters":10000,"station_id":"ce4bhip2rcd13ifvqft0","pricing_plan_id":"cebpf4jnsgd1na2vs0mg"},{"bike_id":"105f32f6-c368-4de0-8ad5-1075cdf8978e","system_id":"levelo_inurba_marseille","lat":43.24126,"lon":5.3647,"is_reserved":false,"is_disabled":false,"rental_uris":{"android":"levelo://app?vid=105f32f6-c368-4de0-8ad5-1075cdf8978e","ios":"levelo://app?vid=105f32f6-c368-4de0-8ad5-1075cdf8978e"},"vehicle_type_id":"4","last_reported":1777441442,"current_range_meters":10000,"station_id":"","pricing_plan_id":"cebpf4jnsgd1na2vs0mg"},{"bike_id":"700e9ac8-2abc-424e-9e74-e38ad1f3ac54","system_id":"levelo_inurba_marseille","lat":43.28159,"lon":5.42633,"is_reserved":false,"is_disabled":false,"rental_uris":{"android":"levelo://app?vid=700e9ac8-2abc-424e-9e74-e38ad1f3ac54","ios":"levelo://app?vid=700e9ac8-2abc-424e-9e74-e38ad1f3ac54"},"vehicle_type_id":"4","last_reported":1777441442,"current_range_meters":10800,"station_id":"ce4bhnh2rcd13ifvqgug","pricing_plan_id":"cebpf4jnsgd1na2vs0mg"},{"bike_id":"5117f9bb-68e6-42f9-a694-b69aeb0dd7f0","system_id":"levelo_inurba_marseille","lat":43.30928,"lon":5.40152,"is_reserved":false,"is_disabled":false,"rental_uris":{"android":"levelo://app?vid=5117f9bb-68e6-42f9-a694-b69aeb0dd7f0","ios":"levelo://app?vid=5117f9bb-68e6-42f9-a694-b69aeb0dd7f0"},"vehicle_type_id":"4","last_reported":1777441442,"current_range_meters":10800,"station_id":"ce4bgvp2rcd13ifvqct0","pricing_plan_id":"cebpf4jnsgd1na2vs0mg"},{"bike_id":"07c790d4-377a-4530-9bad-1dc761cb3d8e","system_id":"levelo_inurba_marseille","lat":43.25135,"lon":5.40326,"is_reserved":false,"is_disabled":false,"rental_uris":{"android":"levelo://app?vid=07c790d4-377a-4530-9bad-1dc761cb3d8e","ios":"levelo://app?vid=07c790d4-377a-4530-9bad-1dc761cb3d8e"},"vehicle_type_id":"4","last_reported":1777441442,"current_range_meters":10800,"station_id":"ce4bhlh2rcd13ifvqgig","pricing_plan_id":"cebpf4jnsgd1na2vs0mg"},{"bike_id":"bf3be6d5-4aea-4912-96a0-455872bf1e3c","system_id":"levelo_inurba_marseille","lat":43.25077,"lon":5.39557,"is_reserved":false,"is_disabled":false,"rental_uris":{"android":"levelo://app?vid=bf3be6d5-4aea-4912-96a0-455872bf1e3c","ios":"levelo://app?vid=bf3be6d5-4aea-4912-96a0-455872bf1e3c"},"vehicle_type_id":"4","last_reported":1777441442,"current_range_meters":10800,"station_id":"ce4bhm12rcd13ifvqgkg","pricing_plan_id":"cebpf4jnsgd1na2vs0mg"},{"bike_id":"82a8043e-804e-4dc9-b426-b4d299449f67","system_id":"levelo_inurba_marseille","lat":43.31048,"lon":5.37175,"is_reserved":false,"is_disabled":false,"rental_uris":{"android":"levelo://app?vid=82a8043e-804e-4dc9-b426-b4d299449f67","ios":"levelo://app?vid=82a8043e-804e-4dc9-b426-b4d299449f67"},"vehicle_type_id":"4","last_reported":1777441442,"current_range_meters":10800,"station_id":"st_d4kl2rp97mjs73e7tdfg","pricing_plan_id":"cebpf4jnsgd1na2vs0mg"},{"bike_id":"8c869f02-aae3-47f4-8f13-4875b1795536","system_id":"levelo_inurba_marseille","lat":43.262,"lon":5.37928,"is_reserved":false,"is_disabled":false,"rental_uris":{"android":"levelo://app?vid=8c869f02-aae3-47f4-8f13-4875b1795536","ios":"levelo://app?vid=8c869f02-aae3-47f4-8f13-4875b1795536"},"vehicle_type_id":"4","last_reported":1777441442,"current_range_meters":10800,"station_id":"ce4bhjp2rcd13ifvqg90","pricing_plan_id":"cebpf4jnsgd1na2vs0mg"},{"bike_id":"662d3ade-7838-42e9-9b62-a1e5749bd144","system_id":"levelo_inurba_marseille","lat":43.28694,"lon":5.46676,"is_reserved":false,"is_disabled":false,"rental_uris":{"android":"levelo://app?vid=662d3ade-7838-42e9-9b62-a1e5749bd144","ios":"levelo://app?vid=662d3ade-7838-42e9-9b62-a1e5749bd144"},"vehicle_type_id":"4","last_reported":1777441442,"current_range_meters":10800,"station_id":"st_d6tc3vkotcvc738tfjhg","pricing_plan_id":"cebpf4jnsgd1na2vs0mg"},{"bike_id":"d97ed6ed-9254-4b2c-9752-a3aaf3378900","system_id":"levelo_inurba_marseille","lat":43.3356,"lon":5.37463,"is_reserved":false,"is_disabled":false,"rental_uris":{"android":"levelo://app?vid=d97ed6ed-9254-4b2c-9752-a3aaf3378900","ios":"levelo://app?vid=d97ed6ed-9254-4b2c-9752-a3aaf3378900"},"vehicle_type_id":"4","last_reported":1777441442,"current_range_meters":10800,"station_id":"st_d46tts09ee8s73dlu43g","pricing_plan_id":"cebpf4jnsgd1na2vs0mg"},{"bike_id":"987afc8d-fc4c-4f1a-acc9-30e0fa196b69","system_id":"levelo_inurba_marseille","lat":43.282007,"lon":5.34989,"is_reserved":false,"is_disabled":false,"rental_uris":{"android":"levelo://app?vid=987afc8d-fc4c-4f1a-acc9-30e0fa196b69","ios":"levelo://app?vid=987afc8d-fc4c-4f1a-acc9-30e0fa196b69"},"vehicle_type_id":"4","last_reported":1777441442,"current_range_meters":10800,"station_id":"","pricing_plan_id":"cebpf4jnsgd1na2vs0mg"},{"bike_id":"95f47514-1d7f-4013-95fe-a0916f7cc45a","system_id":"levelo_inurba_marseille","lat":43.33546,"lon":5.37467,"is_reserved":false,"is_disabled":false,"rental_uris":{"android":"levelo://app?vid=95f47514-1d7f-4013-95fe-a0916f7cc45a","ios":"levelo://app?vid=95f47514-1d7f-4013-95fe-a0916f7cc45a"},"vehicle_type_id":"4","last_reported":1777441442,"current_range_meters":10800,"station_id":"st_d46tts09ee8s73dlu43g","pricing_plan_id":"cebpf4jnsgd1na2vs0mg"},{"bike_id":"e81022dd-19c8-4204-a3cc-bd5e81a601c4","system_id":"levelo_inurba_marseille","lat":43.24947,"lon":5.40509,"is_reserved":false,"is_disabled":false,"rental_uris":{"android":"levelo://app?vid=e81022dd-19c8-4204-a3cc-bd5e81a601c4","ios":"levelo://app?vid=e81022dd-19c8-4204-a3cc-bd5e81a601c4"},"vehicle_type_id":"4","last_reported":1777441442,"current_range_meters":10800,"station_id":"st_d2ngiaodas8pm72gd1h0","pricing_plan_id":"cebpf4jnsgd1na2vs0mg"},{"bike_id":"7be06c3a-8473-4b45-a3f6-aea060cfe576","system_id":"levelo_inurba_marseille","lat":43.25572,"lon":5.38239,"is_reserved":false,"is_disabled":false,"rental_uris":{"android":"levelo://app?vid=7be06c3a-8473-4b45-a3f6-aea060cfe576","ios":"levelo://app?vid=7be06c3a-8473-4b45-a3f6-aea060cfe576"},"vehicle_type_id":"4","last_reported":1777441442,"current_range_meters":10800,"station_id":"ce4bhih2rcd13ifvqfs0","pricing_plan_id":"cebpf4jnsgd1na2vs0mg"},{"bike_id":"e030a40f-8121-491d-9ce2-8238ce15bb72","system_id":"levelo_inurba_marseille","lat":43.2511,"lon":5.40325,"is_reserved":false,"is_disabled":false,"rental_uris":{"android":"levelo://app?vid=e030a40f-8121-491d-9ce2-8238ce15bb72","ios":"levelo://app?vid=e030a40f-8121-491d-9ce2-8238ce15bb72"},"vehicle_type_id":"4","last_reported":1777441442,"current_range_meters":10800,"station_id":"ce4bhlh2rcd13ifvqgig","pricing_plan_id":"cebpf4jnsgd1na2vs0mg"},{"bike_id":"f95871d4-60e9-45b7-92ae-ea38e312f818","system_id":"levelo_inurba_marseille","lat":43.29541,"lon":5.38542,"is_reserved":false,"is_disabled":false,"rental_uris":{"android":"levelo://app?vid=f95871d4-60e9-45b7-92ae-ea38e312f818","ios":"levelo://app?vid=f95871d4-60e9-45b7-92ae-ea38e312f818"},"vehicle_type_id":"4","last_reported":1777441442,"current_range_meters":10800,"station_id":"ce4bgih2rcd13ifvqba0","pricing_plan_id":"cebpf4jnsgd1na2vs0mg"},{"bike_id":"c307033d-864a-4549-95d2-b8c32b9cf2b9","system_id":"levelo_inurba_marseille","lat":43.3474,"lon":5.36714,"is_reserved":false,"is_disabled":false,"rental_uris":{"android":"levelo://app?vid=c307033d-864a-4549-95d2-b8c32b9cf2b9","ios":"levelo://app?vid=c307033d-864a-4549-95d2-b8c32b9cf2b9"},"vehicle_type_id":"4","last_reported":1777441442,"current_range_meters":10800,"station_id":"","pricing_plan_id":"cebpf4jnsgd1na2vs0mg"},{"bike_id":"7f2dea88-205f-4739-a3ab-525ae7670615","system_id":"levelo_inurba_marseille","lat":43.29237,"lon":5.4093,"is_reserved":false,"is_disabled":true,"rental_uris":{"android":"levelo://app?vid=7f2dea88-205f-4739-a3ab-525ae7670615","ios":"levelo://app?vid=7f2dea88-205f-4739-a3ab-525ae7670615"},"vehicle_type_id":"4","last_reported":1777441442,"current_range_meters":10800,"station_id":"ce4bh192rcd13ifvqdc0","pricing_plan_id":"cebpf4jnsgd1na2vs0mg"},{"bike_id":"5487bf28-031a-4b6d-a3fe-b8ead5289d51","system_id":"levelo_inurba_marseille","lat":43.32502,"lon":5.38274,"is_reserved":false,"is_disabled":false,"rental_uris":{"android":"levelo://app?vid=5487bf28-031a-4b6d-a3fe-b8ead5289d51","ios":"levelo://app?vid=5487bf28-031a-4b6d-a3fe-b8ead5289d51"},"vehicle_type_id":"4","last_reported":1777441442,"current_range_meters":10800,"station_id":"st_d4asgbiv49dc73anf9m0","pricing_plan_id":"cebpf4jnsgd1na2vs0mg"},{"bike_id":"23c227da-dc01-423a-928c-5b7317862351","system_id":"levelo_inurba_marseille","lat":43.30902,"lon":5.39625,"is_reserved":false,"is_disabled":false,"rental_uris":{"android":"levelo://app?vid=23c227da-dc01-423a-928c-5b7317862351","ios":"levelo://app?vid=23c227da-dc01-423a-928c-5b7317862351"},"vehicle_type_id":"4","last_reported":1777441442,"current_range_meters":10800,"station_id":"ce4bh012rcd13ifvqcv0","pricing_plan_id":"cebpf4jnsgd1na2vs0mg"},{"bike_id":"cffcc474-2ce1-43a9-811e-30f04614f857","system_id":"levelo_inurba_marseille","lat":43.25129,"lon":5.42635,"is_reserved":false,"is_disabled":false,"rental_uris":{"android":"levelo://app?vid=cffcc474-2ce1-43a9-811e-30f04614f857","ios":"levelo://app?vid=cffcc474-2ce1-43a9-811e-30f04614f857"},"vehicle_type_id":"4","last_reported":1777441442,"current_range_meters":10800,"station_id":"","pricing_plan_id":"cebpf4jnsgd1na2vs0mg"},{"bike_id":"fc113585-f524-4ce0-9000-74de02ebbbac","system_id":"levelo_inurba_marseille","lat":43.24676,"lon":5.38134,"is_reserved":false,"is_disabled":false,"rental_uris":{"android":"levelo://app?vid=fc113585-f524-4ce0-9000-74de02ebbbac","ios":"levelo://app?vid=fc113585-f524-4ce0-9000-74de02ebbbac"},"vehicle_type_id":"4","last_reported":1777441442,"current_range_meters":10800,"station_id":"ce4bhih2rcd13ifvqfr0","pricing_plan_id":"cebpf4jnsgd1na2vs0mg"},{"bike_id":"94e3e6f6-fe60-427b-ae52-e1ace34a0263","system_id":"levelo_inurba_marseille","lat":43.27305,"lon":5.39115,"is_reserved":false,"is_disabled":false,"rental_uris":{"android":"levelo://app?vid=94e3e6f6-fe60-427b-ae52-e1ace34a0263","ios":"levelo://app?vid=94e3e6f6-fe60-427b-ae52-e1ace34a0263"},"vehicle_type_id":"4","last_reported":1777441442,"current_range_meters":10800,"station_id":"ce4bhgp2rcd13ifvqfe0","pricing_plan_id":"cebpf4jnsgd1na2vs0mg"},{"bike_id":"82583fbd-0bcf-4612-9b65-78857222947b","system_id":"levelo_inurba_marseille","lat":43.25089,"lon":5.39518,"is_reserved":false,"is_disabled":false,"rental_uris":{"android":"levelo://app?vid=82583fbd-0bcf-4612-9b65-78857222947b","ios":"levelo://app?vid=82583fbd-0bcf-4612-9b65-78857222947b"},