{"last_updated":1720120010,"ttl":30,"version":"2.2","data":{"bikes":[{"bike_id":"f3fc9c9b-8fbd-4a31-9f57-78fcfdf27241","system_id":"levelo_inurba_marseille","lat":43.312239,"lon":5.368562,"is_reserved":false,"is_disabled":false,"rental_uris":{"android":"levelo://app?vid=f3fc9c9b-8fbd-4a31-9f57-78fcfdf27241","ios":"levelo://app?vid=f3fc9c9b-8fbd-4a31-9f57-78fcfdf27241"},"vehicle_type_id":"4","last_reported":1720120010,"current_range_meters":0,"station_id":"ce4bgl92rcd13ifvqbq0","pricing_plan_id":"cebpf4jnsgd1na2vs0mg"},{"bike_id":"e0fe9732-80a6-47e7-bd84-7e01265701cb","system_id":"levelo_inurba_marseille","lat":43.312239,"lon":5.368562,"is_reserved":false,"is_disabled":false,"rental_uris":{"android":"levelo://app?vid=e0fe9732-80a6-47e7-bd84-7e01265701cb","ios":"levelo://app?vid=e0fe9732-80a6-47e7-bd84-7e01265701cb"},"vehicle_type_id":"4","last_reported":1720120010,"current_range_meters":23600,"station_id":"ce4bgl92rcd13ifvqbq0","pricing_plan_id":"cebpf4jnsgd1na2vs0mg"},{"bike_id":"66961019-5a44-433a-85a8-200879c2918f","system_id":"levelo_inurba_marseille","lat":43.31221,"lon":5.36848,"is_reserved":false,"is_disabled":false,"rental_uris":{"android":"levelo://app?vid=66961019-5a44-433a-85a8-200879c2918f","ios":"levelo://app?vid=66961019-5a44-433a-85a8-200879c2918f"},"vehicle_type_id":"4","last_reported":1720120010,"current_range_meters":0,"station_id":"ce4bgl92rcd13ifvqbq0","pricing_plan_id":"cebpf4jnsgd1na2vs0mg"},{"bike_id":"cfd6fd11-63bc-45de-aaee-9fadd6b6fd9d","system_id":"levelo_inurba_marseille","lat":43.312239,"lon":5.368562,"is_reserved":false,"is_disabled":false,"rental_uris":{"android":"levelo://app?vid=cfd6fd11-63bc-45de-aaee-9fadd6b6fd9d","ios":"levelo://app?vid=cfd6fd11-63bc-45de-aaee-9fadd6b6fd9d"},"vehicle_type_id":"4","last_reported":1720120010,"current_range_meters":15200,"station_id":"ce4bgl92rcd13ifvqbq0","pricing_plan_id":"cebpf4jnsgd1na2vs0mg"},{"bike_id":"e6efacd1-7ce0-46e3-8ab9-ba394319f5f3","system_id":"levelo_inurba_marseille","lat":43.31498,"lon":5.37302,"is_reserved":false,"is_disabled":false,"rental_uris":{"android":"levelo://app?vid=e6efacd1-7ce0-46e3-8ab9-ba394319f5f3","ios":"levelo://app?vid=e6efacd1-7ce0-46e3-8ab9-ba394319f5f3"},"vehicle_type_id":"4","last_reported":1720120010,"current_range_meters":0,"station_id":"ce4bgt12rcd13ifvqcd0","pricing_plan_id":"cebpf4jnsgd1na2vs0mg"},{"bike_id":"bd23f2aa-8557-4a6a-b032-fd11cddd255e","system_id":"levelo_inurba_marseille","lat":43.31297,"lon":5.37549,"is_reserved":false,"is_disabled":false,"rental_uris":{"android":"levelo://app?vid=bd23f2aa-8557-4a6a-b032-fd11cddd255e","ios":"levelo://app?vid=bd23f2aa-8557-4a6a-b032-fd11cddd255e"},"vehicle_type_id":"4","last_reported":1720120010,"current_range_meters":0,"station_id":"","pricing_plan_id":"cebpf4jnsgd1na2vs0mg"},{"bike_id":"680354a0-47dd-4515-9af6-2f5bab6d1594","system_id":"levelo_inurba_marseille","lat":43.30546,"lon":5.36656,"is_reserved":false,"is_disabled":false,"rental_uris":{"android":"levelo://app?vid=680354a0-47dd-4515-9af6-2f5bab6d1594","ios":"levelo://app?vid=680354a0-47dd-4515-9af6-2f5bab6d1594"},"vehicle_type_id":"4","last_reported":1720120010,"current_range_meters":1600,"station_id":"","pricing_plan_id":"cebpf4jnsgd1na2vs0mg"},{"bike_id":"682dc4ae-8743-4d6f-8493-349d9cb9a9ae","system_id":"levelo_inurba_marseille","lat":43.306,"lon":5.37195,"is_reserved":false,"is_disabled":false,"rental_uris":{"android":"levelo://app?vid=682dc4ae-8743-4d6f-8493-349d9cb9a9ae","ios":"levelo://app?vid=682dc4ae-8743-4d6f-8493-349d9cb9a9ae"},"vehicle_type_id":"4","last_reported":1720120010,"current_range_meters":0,"station_id":"ce4bgqh2rcd13ifvqc4g","pricing_plan_id":"cebpf4jnsgd1na2vs0mg"},{"bike_id":"f1962dd2-1aef-474c-a0b3-0a3e06133a50","system_id":"levelo_inurba_marseille","lat":43.305989,"lon":5.37225,"is_reserved":false,"is_disabled":false,"rental_uris":{"android":"levelo://app?vid=f1962dd2-1aef-474c-a0b3-0a3e06133a50","ios":"levelo://app?vid=f1962dd2-1aef-474c-a0b3-0a3e06133a50"},"vehicle_type_id":"4","last_reported":1720120010,"current_range_meters":3200,"station_id":"ce4bgqh2rcd13ifvqc4g","pricing_plan_id":"cebpf4jnsgd1na2vs0mg"},{"bike_id":"0945e122-c905-444c-ac8d-256c8df673b2","system_id":"levelo_inurba_marseille","lat":43.305989,"lon":5.37225,"is_reserved":false,"is_disabled":false,"rental_uris":{"android":"levelo://app?vid=0945e122-c905-444c-ac8d-256c8df673b2","ios":"levelo://app?vid=0945e122-c905-444c-ac8d-256c8df673b2"},"vehicle_type_id":"4","last_reported":1720120010,"current_range_meters":31200,"station_id":"ce4bgqh2rcd13ifvqc4g","pricing_plan_id":"cebpf4jnsgd1na2vs0mg"},{"bike_id":"714f205b-8bb9-4b4c-8916-5f18f9b5aab8","system_id":"levelo_inurba_marseille","lat":43.311131,"lon":5.377651,"is_reserved":false,"is_disabled":false,"rental_uris":{"android":"levelo://app?vid=714f205b-8bb9-4b4c-8916-5f18f9b5aab8","ios":"levelo://app?vid=714f205b-8bb9-4b4c-8916-5f18f9b5aab8"},"vehicle_type_id":"4","last_reported":1720120010,"current_range_meters":3600,"station_id":"ce4bgt92rcd13ifvqcg0","pricing_plan_id":"cebpf4jnsgd1na2vs0mg"},{"bike_id":"0dcc6847-e44d-4e26-b259-188a54bd4f26","system_id":"levelo_inurba_marseille","lat":43.304343,"lon":5.367723,"is_reserved":false,"is_disabled":false,"rental_uris":{"android":"levelo://app?vid=0dcc6847-e44d-4e26-b259-188a54bd4f26","ios":"levelo://app?vid=0dcc6847-e44d-4e26-b259-188a54bd4f26"},"vehicle_type_id":"4","last_reported":1720120010,"current_range_meters":12800,"station_id":"","pricing_plan_id":"cebpf4jnsgd1na2vs0mg"},{"bike_id":"c3037a7f-16fe-42e5-b981-d96786aea390","system_id":"levelo_inurba_marseille","lat":43.307945,"lon":5.376487,"is_reserved":false,"is_disabled":false,"rental_uris":{"android":"levelo://app?vid=c3037a7f-16fe-42e5-b981-d96786aea390","ios":"levelo://app?vid=c3037a7f-16fe-42e5-b981-d96786aea390"},"vehicle_type_id":"4","last_reported":1720120010,"current_range_meters":28400,"station_id":"ce4bgv92rcd13ifvqcq0","pricing_plan_id":"cebpf4jnsgd1na2vs0mg"},{"bike_id":"a43ae6a2-b137-4c5d-873a-3355622a4a22","system_id":"levelo_inurba_marseille","lat":43.317075,"lon":5.377367,"is_reserved":false,"is_disabled":false,"rental_uris":{"android":"levelo://app?vid=a43ae6a2-b137-4c5d-873a-3355622a4a22","ios":"levelo://app?vid=a43ae6a2-b137-4c5d-873a-3355622a4a22"},"vehicle_type_id":"4","last_reported":1720120010,"current_range_meters":2400,"station_id":"ce4bgth2rcd13ifvqch0","pricing_plan_id":"cebpf4jnsgd1na2vs0mg"},{"bike_id":"16b57fb3-2579-49ed-bb55-e664e8b39592","system_id":"levelo_inurba_marseille","lat":43.303046,"lon":5.368981,"is_reserved":false,"is_disabled":false,"rental_uris":{"android":"levelo://app?vid=16b57fb3-2579-49ed-bb55-e664e8b39592","ios":"levelo://app?vid=16b57fb3-2579-49ed-bb55-e664e8b39592"},"vehicle_type_id":"4","last_reported":1720120010,"current_range_meters":6400,"station_id":"ce4bgqh2rcd13ifvqc5g","pricing_plan_id":"cebpf4jnsgd1na2vs0mg"},{"bike_id":"14d6c16c-6fce-49f1-8966-e842bc4cdd74","system_id":"levelo_inurba_marseille","lat":43.30248,"lon":5.36632,"is_reserved":false,"is_disabled":false,"rental_uris":{"android":"levelo://app?vid=14d6c16c-6fce-49f1-8966-e842bc4cdd74","ios":"levelo://app?vid=14d6c16c-6fce-49f1-8966-e842bc4cdd74"},"vehicle_type_id":"4","last_reported":1720120010,"current_range_meters":4800,"station_id":"","pricing_plan_id":"cebpf4jnsgd1na2vs0mg"},{"bike_id":"f76bfef9-8def-4490-bf24-139cdd0482aa","system_id":"levelo_inurba_marseille","lat":43.301939,"lon":5.366286,"is_reserved":false,"is_disabled":false,"rental_uris":{"android":"levelo://app?vid=f76bfef9-8def-4490-bf24-139cdd0482aa","ios":"levelo://app?vid=f76bfef9-8def-4490-bf24-139cdd0482aa"},"vehicle_type_id":"4","last_reported":1720120010,"current_range_meters":18800,"station_id":"ce4bgrh2rcd13ifvqc8g","pricing_plan_id":"cebpf4jnsgd1na2vs0mg"},{"bike_id":"70e765aa-bb47-442f-99b4-5669c740e2fe","system_id":"levelo_inurba_marseille","lat":43.301939,"lon":5.366286,"is_reserved":false,"is_disabled":false,"rental_uris":{"android":"levelo://app?vid=70e765aa-bb47-442f-99b4-5669c740e2fe","ios":"levelo://app?vid=70e765aa-bb47-442f-99b4-5669c740e2fe"},"vehicle_type_id":"4","last_reported":1720120010,"current_range_meters":20000,"station_id":"ce4bgrh2rcd13ifvqc8g","pricing_plan_id":"cebpf4jnsgd1na2vs0mg"},{"bike_id":"b3b9d572-95c6-4614-ba9a-e4c5d28c5d8d","system_id":"levelo_inurba_marseille","lat":43.301939,"lon":5.366286,"is_reserved":false,"is_disabled":false,"rental_uris":{"android":"levelo://app?vid=b3b9d572-95c6-4614-ba9a-e4c5d28c5d8d","ios":"levelo://app?vid=b3b9d572-95c6-4614-ba9a-e4c5d28c5d8d"},"vehicle_type_id":"4","last_reported":1720120010,"current_range_meters":3200,"station_id":"ce4bgrh2rcd13ifvqc8g","pricing_plan_id":"cebpf4jnsgd1na2vs0mg"},{"bike_id":"e598c94a-2cdc-49c1-b264-9348cd0e7a2f","system_id":"levelo_inurba_marseille","lat":43.308012,"lon":5.381511,"is_reserved":false,"is_disabled":false,"rental_uris":{"android":"levelo://app?vid=e598c94a-2cdc-49c1-b264-9348cd0e7a2f","ios":"levelo://app?vid=e598c94a-2cdc-49c1-b264-9348cd0e7a2f"},"vehicle_type_id":"4","last_reported":1720120010,"current_range_meters":800,"station_id":"ce4bgt12rcd13ifvqce0","pricing_plan_id":"cebpf4jnsgd1na2vs0mg"},{"bike_id":"0bb1981c-f7ac-42f9-adc9-ea6421eefa96","system_id":"levelo_inurba_marseille","lat":43.304606,"lon":5.379026,"is_reserved":false,"is_disabled":false,"rental_uris":{"android":"levelo://app?vid=0bb1981c-f7ac-42f9-adc9-ea6421eefa96","ios":"levelo://app?vid=0bb1981c-f7ac-42f9-adc9-ea6421eefa96"},"vehicle_type_id":"4","last_reported":1720120010,"current_range_meters":22400,"station_id":"ce4bgup2rcd13ifvqcn0","pricing_plan_id":"cebpf4jnsgd1na2vs0mg"},{"bike_id":"865b934b-8366-4fd3-bbb7-75287e90c555","system_id":"levelo_inurba_marseille","lat":43.304606,"lon":5.379026,"is_reserved":false,"is_disabled":false,"rental_uris":{"android":"levelo://app?vid=865b934b-8366-4fd3-bbb7-75287e90c555","ios":"levelo://app?vid=865b934b-8366-4fd3-bbb7-75287e90c555"},"vehicle_type_id":"4","last_reported":1720120010,"current_range_meters":0,"station_id":"ce4bgup2rcd13ifvqcn0","pricing_plan_id":"cebpf4jnsgd1na2vs0mg"},{"bike_id":"13aee7fa-2fa7-4292-ad31-e1dc6eb7aa71","system_id":"levelo_inurba_marseille","lat":43.324771,"lon":5.36557,"is_reserved":false,"is_disabled":false,"rental_uris":{"android":"levelo://app?vid=13aee7fa-2fa7-4292-ad31-e1dc6eb7aa71","ios":"levelo://app?vid=13aee7fa-2fa7-4292-ad31-e1dc6eb7aa71"},"vehicle_type_id":"4","last_reported":1720120010,"current_range_meters":17200,"station_id":"ce4bhs12rcd13ifvqhvg","pricing_plan_id":"cebpf4jnsgd1na2vs0mg"},{"bike_id":"0d0a1a59-79c7-4749-a6ad-b98968b9d284","system_id":"levelo_inurba_marseille","lat":43.310804,"lon":5.38359,"is_reserved":false,"is_disabled":false,"rental_uris":{"android":"levelo://app?vid=0d0a1a59-79c7-4749-a6ad-b98968b9d284","ios":"levelo://app?vid=0d0a1a59-79c7-4749-a6ad-b98968b9d284"},"vehicle_type_id":"4","last_reported":1720120010,"current_range_meters":0,"station_id":"ce4bgv92rcd13ifvqcr0","pricing_plan_id":"cebpf4jnsgd1na2vs0mg"},{"bike_id":"586a1961-621f-4fed-8e65-8137f95883bd","system_id":"levelo_inurba_marseille","lat":43.310804,"lon":5.38359,"is_reserved":false,"is_disabled":false,"rental_uris":{"android":"levelo://app?vid=586a1961-621f-4fed-8e65-8137f95883bd","ios":"levelo://app?vid=586a1961-621f-4fed-8e65-8137f95883bd"},"vehicle_type_id":"4","last_reported":1720120010,"current_range_meters":5200,"station_id":"ce4bgv92rcd13ifvqcr0","pricing_plan_id":"cebpf4jnsgd1na2vs0mg"},{"bike_id":"423ce2af-750d-453e-9fa4-1d0fd4a028b1","system_id":"levelo_inurba_marseille","lat":43.319935,"lon":5.381699,"is_reserved":false,"is_disabled":false,"rental_uris":{"android":"levelo://app?vid=423ce2af-750d-453e-9fa4-1d0fd4a028b1","ios":"levelo://app?vid=423ce2af-750d-453e-9fa4-1d0fd4a028b1"},"vehicle_type_id":"4","last_reported":1720120010,"current_range_meters":2800,"station_id":"ce4bhr12rcd13ifvqhpg","pricing_plan_id":"cebpf4jnsgd1na2vs0mg"},{"bike_id":"864a4b4c-49ff-4957-99fd-43b40b0e2108","system_id":"levelo_inurba_marseille","lat":43.319935,"lon":5.381699,"is_reserved":false,"is_disabled":false,"rental_uris":{"android":"levelo://app?vid=864a4b4c-49ff-4957-99fd-43b40b0e2108","ios":"levelo://app?vid=864a4b4c-49ff-4957-99fd-43b40b0e2108"},"vehicle_type_id":"4","last_reported":1720120010,"current_range_meters":11600,"station_id":"ce4bhr12rcd13ifvqhpg","pricing_plan_id":"cebpf4jnsgd1na2vs0mg"},{"bike_id":"fa20b318-6101-4a86-b987-a5affca2a21f","system_id":"levelo_inurba_marseille","lat":43.319935,"lon":5.381699,"is_reserved":false,"is_disabled":false,"rental_uris":{"android":"levelo://app?vid=fa20b318-6101-4a86-b987-a5affca2a21f","ios":"levelo://app?vid=fa20b318-6101-4a86-b987-a5affca2a21f"},"vehicle_type_id":"4","last_reported":1720120010,"current_range_meters":0,"station_id":"ce4bhr12rcd13ifvqhpg","pricing_plan_id":"cebpf4jnsgd1na2vs0mg"},{"bike_id":"9cd804ec-d915-42ad-9857-4da631cf0df7","system_id":"levelo_inurba_marseille","lat":43.302759,"lon":5.400793,"is_reserved":false,"is_disabled":false,"rental_uris":{"android":"levelo://app?vid=9cd804ec-d915-42ad-9857-4da631cf0df7","ios":"levelo://app?vid=9cd804ec-d915-42ad-9857-4da631cf0df7"},"vehicle_type_id":"4","last_reported":1720120010,"current_range_meters":6000,"station_id":"ce4bgvh2rcd13ifvqcs0","pricing_plan_id":"cebpf4jnsgd1na2vs0mg"},{"bike_id":"9cb34327-30ce-4621-ac95-3679c24886f7","system_id":"levelo_inurba_marseille","lat":43.319935,"lon":5.381699,"is_reserved":false,"is_disabled":false,"rental_uris":{"android":"levelo://app?vid=9cb34327-30ce-4621-ac95-3679c24886f7","ios":"levelo://app?vid=9cb34327-30ce-4621-ac95-3679c24886f7"},"vehicle_type_id":"4","last_reported":1720120010,"current_range_meters":3600,"station_id":"ce4bhr12rcd13ifvqhpg","pricing_plan_id":"cebpf4jnsgd1na2vs0mg"},{"bike_id":"7b04c64e-9ca1-4d95-90ac-2b77b7a926a3","system_id":"levelo_inurba_marseille","lat":43.30011,"lon":5.37239,"is_reserved":false,"is_disabled":false,"rental_uris":{"android":"levelo://app?vid=7b04c64e-9ca1-4d95-90ac-2b77b7a926a3","ios":"levelo://app?vid=7b04c64e-9ca1-4d95-90ac-2b77b7a926a3"},"vehicle_type_id":"4","last_reported":1720120010,"current_range_meters":28800,"station_id":"","pricing_plan_id":"cebpf4jnsgd1na2vs0mg"},{"bike_id":"e925de98-c7d1-4339-b8dc-35aa4af12af7","system_id":"levelo_inurba_marseille","lat":43.299222,"lon":5.365554,"is_reserved":false,"is_disabled":false,"rental_uris":{"android":"levelo://app?vid=e925de98-c7d1-4339-b8dc-35aa4af12af7","ios":"levelo://app?vid=e925de98-c7d1-4339-b8dc-35aa4af12af7"},"vehicle_type_id":"4","last_reported":1720120010,"current_range_meters":800,"station_id":"ce4bgm92rcd13ifvqbr0","pricing_plan_id":"cebpf4jnsgd1na2vs0mg"},{"bike_id":"4d35b6bd-9893-4234-8a5d-c61acae07edb","system_id":"levelo_inurba_marseille","lat":43.299724,"lon":5.371829,"is_reserved":false,"is_disabled":false,"rental_uris":{"android":"levelo://app?vid=4d35b6bd-9893-4234-8a5d-c61acae07edb","ios":"levelo://app?vid=4d35b6bd-9893-4234-8a5d-c61acae07edb"},"vehicle_type_id":"4","last_reported":1720120010,"current_range_meters":1600,"station_id":"ce4bgr92rcd13ifvqc7g","pricing_plan_id":"cebpf4jnsgd1na2vs0mg"},{"bike_id":"7c4d999f-fff8-47c8-afd4-9db1892b7a9f","system_id":"levelo_inurba_marseille","lat":43.299724,"lon":5.371829,"is_reserved":false,"is_disabled":false,"rental_uris":{"android":"levelo://app?vid=7c4d999f-fff8-47c8-afd4-9db1892b7a9f","ios":"levelo://app?vid=7c4d999f-fff8-47c8-afd4-9db1892b7a9f"},"vehicle_type_id":"4","last_reported":1720120010,"current_range_meters":0,"station_id":"ce4bgr92rcd13ifvqc7g","pricing_plan_id":"cebpf4jnsgd1na2vs0mg"},{"bike_id":"fbcdbd91-3564-4028-a4cc-eab0b55fc649","system_id":"levelo_inurba_marseille","lat":43.299724,"lon":5.371829,"is_reserved":false,"is_disabled":false,"rental_uris":{"android":"levelo://app?vid=fbcdbd91-3564-4028-a4cc-eab0b55fc649","ios":"levelo://app?vid=fbcdbd91-3564-4028-a4cc-eab0b55fc649"},"vehicle_type_id":"4","last_reported":1720120010,"current_range_meters":28400,"station_id":"ce4bgr92rcd13ifvqc7g","pricing_plan_id":"cebpf4jnsgd1na2vs0mg"},{"bike_id":"44987e7b-6377-4c78-ad1c-d9bfb8143538","system_id":"levelo_inurba_marseille","lat":43.299724,"lon":5.371829,"is_reserved":false,"is_disabled":false,"rental_uris":{"android":"levelo://app?vid=44987e7b-6377-4c78-ad1c-d9bfb8143538","ios":"levelo://app?vid=44987e7b-6377-4c78-ad1c-d9bfb8143538"},"vehicle_type_id":"4","last_reported":1720120010,"current_range_meters":5600,"station_id":"ce4bgr92rcd13ifvqc7g","pricing_plan_id":"cebpf4jnsgd1na2vs0mg"},{"bike_id":"7c6467a4-1634-416e-8838-ceb239fb37f2","system_id":"levelo_inurba_marseille","lat":43.29868,"lon":5.36456,"is_reserved":false,"is_disabled":false,"rental_uris":{"android":"levelo://app?vid=7c6467a4-1634-416e-8838-ceb239fb37f2","ios":"levelo://app?vid=7c6467a4-1634-416e-8838-ceb239fb37f2"},"vehicle_type_id":"4","last_reported":1720120010,"current_range_meters":5600,"station_id":"","pricing_plan_id":"cebpf4jnsgd1na2vs0mg"},{"bike_id":"07bc5c60-46d1-4878-9a46-d7c39a999ffe","system_id":"levelo_inurba_marseille","lat":43.298433,"lon":5.362774,"is_reserved":false,"is_disabled":false,"rental_uris":{"android":"levelo://app?vid=07bc5c60-46d1-4878-9a46-d7c39a999ffe","ios":"levelo://app?vid=07bc5c60-46d1-4878-9a46-d7c39a999ffe"},"vehicle_type_id":"4","last_reported":1720120010,"current_range_meters":31200,"station_id":"ce4bgpp2rcd13ifvqc3g","pricing_plan_id":"cebpf4jnsgd1na2vs0mg"},{"bike_id":"ea64995c-14e3-4675-95cb-2a0d029934b0","system_id":"levelo_inurba_marseille","lat":43.2985,"lon":5.36276,"is_reserved":false,"is_disabled":false,"rental_uris":{"android":"levelo://app?vid=ea64995c-14e3-4675-95cb-2a0d029934b0","ios":"levelo://app?vid=ea64995c-14e3-4675-95cb-2a0d029934b0"},"vehicle_type_id":"4","last_reported":1720120010,"current_range_meters":2400,"station_id":"ce4bgpp2rcd13ifvqc3g","pricing_plan_id":"cebpf4jnsgd1na2vs0mg"},{"bike_id":"fe234219-b9fb-491f-8e4c-0dd34b9e12c1","system_id":"levelo_inurba_marseille","lat":43.299243,"lon":5.374807,"is_reserved":false,"is_disabled":false,"rental_uris":{"android":"levelo://app?vid=fe234219-b9fb-491f-8e4c-0dd34b9e12c1","ios":"levelo://app?vid=fe234219-b9fb-491f-8e4c-0dd34b9e12c1"},"vehicle_type_id":"4","last_reported":1720120010,"current_range_meters":28400,"station_id":"ce4bgjh2rcd13ifvqbg0","pricing_plan_id":"cebpf4jnsgd1na2vs0mg"},{"bike_id":"7db3deda-4022-42e2-a7c7-16ecb73d95ba","system_id":"levelo_inurba_marseille","lat":43.298433,"lon":5.362774,"is_reserved":false,"is_disabled":false,"rental_uris":{"android":"levelo://app?vid=7db3deda-4022-42e2-a7c7-16ecb73d95ba","ios":"levelo://app?vid=7db3deda-4022-42e2-a7c7-16ecb73d95ba"},"vehicle_type_id":"4","last_reported":1720120010,"current_range_meters":0,"station_id":"ce4bgpp2rcd13ifvqc3g","pricing_plan_id":"cebpf4jnsgd1na2vs0mg"},{"bike_id":"0e7a762c-f752-4387-bedf-a2de8b1c4d7b","system_id":"levelo_inurba_marseille","lat":43.29923,"lon":5.37476,"is_reserved":false,"is_disabled":false,"rental_uris":{"android":"levelo://app?vid=0e7a762c-f752-4387-bedf-a2de8b1c4d7b","ios":"levelo://app?vid=0e7a762c-f752-4387-bedf-a2de8b1c4d7b"},"vehicle_type_id":"4","last_reported":1720120010,"current_range_meters":8400,"station_id":"","pricing_plan_id":"cebpf4jnsgd1na2vs0mg"},{"bike_id":"c48d9ee3-0166-488e-8a4d-722111380c62","system_id":"levelo_inurba_marseille","lat":43.311722,"lon":5.387247,"is_reserved":false,"is_disabled":false,"rental_uris":{"android":"levelo://app?vid=c48d9ee3-0166-488e-8a4d-722111380c62","ios":"levelo://app?vid=c48d9ee3-0166-488e-8a4d-722111380c62"},"vehicle_type_id":"4","last_reported":1720120010,"current_range_meters":9600,"station_id":"ce4bgv12rcd13ifvqcp0","pricing_plan_id":"cebpf4jnsgd1na2vs0mg"},{"bike_id":"8e318fd6-331a-4022-b9e6-1bfae76bfa67","system_id":"levelo_inurba_marseille","lat":43.2992,"lon":5.37482,"is_reserved":false,"is_disabled":false,"rental_uris":{"android":"levelo://app?vid=8e318fd6-331a-4022-b9e6-1bfae76bfa67","ios":"levelo://app?vid=8e318fd6-331a-4022-b9e6-1bfae76bfa67"},"vehicle_type_id":"4","last_reported":1720120010,"current_range_meters":3600,"station_id":"ce4bgjh2rcd13ifvqbg0","pricing_plan_id":"cebpf4jnsgd1na2vs0mg"},{"bike_id":"adddc23a-88ce-47a1-b1c1-bf06cd0696ab","system_id":"levelo_inurba_marseille","lat":43.29918,"lon":5.37476,"is_reserved":false,"is_disabled":false,"rental_uris":{"android":"levelo://app?vid=adddc23a-88ce-47a1-b1c1-bf06cd0696ab","ios":"levelo://app?vid=adddc23a-88ce-47a1-b1c1-bf06cd0696ab"},"vehicle_type_id":"4","last_reported":1720120010,"current_range_meters":24000,"station_id":"ce4bgjh2rcd13ifvqbg0","pricing_plan_id":"cebpf4jnsgd1na2vs0mg"},{"bike_id":"60bc5d9f-f261-46fd-bed3-81202ead7c59","system_id":"levelo_inurba_marseille","lat":43.29916,"lon":5.37474,"is_reserved":false,"is_disabled":false,"rental_uris":{"android":"levelo://app?vid=60bc5d9f-f261-46fd-bed3-81202ead7c59","ios":"levelo://app?vid=60bc5d9f-f261-46fd-bed3-81202ead7c59"},"vehicle_type_id":"4","last_reported":1720120010,"current_range_meters":31200,"station_id":"ce4bgjh2rcd13ifvqbg0","pricing_plan_id":"cebpf4jnsgd1na2vs0mg"},{"bike_id":"67c24fe5-bddd-40d7-b0d2-8b55159202af","system_id":"levelo_inurba_marseille","lat":43.29913,"lon":5.37475,"is_reserved":false,"is_disabled":false,"rental_uris":{"android":"levelo://app?vid=67c24fe5-bddd-40d7-b0d2-8b55159202af","ios":"levelo://app?vid=67c24fe5-bddd-40d7-b0d2-8b55159202af"},"vehicle_type_id":"4","last_reported":1720120010,"current_range_meters":22000,"station_id":"","pricing_plan_id":"cebpf4jnsgd1na2vs0mg"},{"bike_id":"76f370c1-5dab-4c54-aea8-ec3cc9f6930b","system_id":"levelo_inurba_marseille","lat":43.311722,"lon":5.387247,"is_reserved":false,"is_disabled":false,"rental_uris":{"android":"levelo://app?vid=76f370c1-5dab-4c54-aea8-ec3cc9f6930b","ios":"levelo://app?vid=76f370c1-5dab-4c54-aea8-ec3cc9f6930b"},"vehicle_type_id":"4","last_reported":1720120010,"current_range_meters":9600,"station_id":"ce4bgv12rcd13ifvqcp0","pricing_plan_id":"cebpf4jnsgd1na2vs0mg"},{"bike_id":"efa01555-b60d-4fb5-bae9-79905eb7277b","system_id":"levelo_inurba_marseille","lat":43.3117,"lon":5.387217,"is_reserved":false,"is_disabled":false,"rental_uris":{"android":"levelo://app?vid=efa01555-b60d-4fb5-bae9-79905eb7277b","ios":"levelo://app?vid=efa01555-b60d-4fb5-bae9-79905eb7277b"},"vehicle_type_id":"4","last_reported":1720120010,"current_range_meters":0,"station_id":"ce4bgv12rcd13ifvqcp0","pricing_plan_id":"cebpf4jnsgd1na2vs0mg"},{"bike_id":"2faaa9df-34aa-40a4-9df5-981b7f0595e9","system_id":"levelo_inurba_marseille","lat":43.29788,"lon":5.36285,"is_reserved":false,"is_disabled":false,"rental_uris":{"android":"levelo://app?vid=2faaa9df-34aa-40a4-9df5-981b7f0595e9","ios":"levelo://app?vid=2faaa9df-34aa-40a4-9df5-981b7f0595e9"},"vehicle_type_id":"4","last_reported":1720120010,"current_range_meters":8800,"station_id":"","pricing_plan_id":"cebpf4jnsgd1na2vs0mg"},{"bike_id":"27a6bef8-9fa2-4c7c-a852-ef52da7f4c34","system_id":"levelo_inurba_marseille","lat":43.322871,"lon":5.38265,"is_reserved":false,"is_disabled":false,"rental_uris":{"android":"levelo://app?vid=27a6bef8-9fa2-4c7c-a852-ef52da7f4c34","ios":"levelo://app?vid=27a6bef8-9fa2-4c7c-a852-ef52da7f4c34"},"vehicle_type_id":"4","last_reported":1720120010,"current_range_meters":27200,"station_id":"ce4bhr12rcd13ifvqhqg","pricing_plan_id":"cebpf4jnsgd1na2vs0mg"},{"bike_id":"11c063c4-4812-4091-b45f-253550621c6a","system_id":"levelo_inurba_marseille","lat":43.322872,"lon":5.382756,"is_reserved":false,"is_disabled":false,"rental_uris":{"android":"levelo://app?vid=11c063c4-4812-4091-b45f-253550621c6a","ios":"levelo://app?vid=11c063c4-4812-4091-b45f-253550621c6a"},"vehicle_type_id":"4","last_reported":1720120010,"current_range_meters":20000,"station_id":"ce4bhr12rcd13ifvqhqg","pricing_plan_id":"cebpf4jnsgd1na2vs0mg"},{"bike_id":"a3692e99-3ef4-41ff-a94c-e40fc272a060","system_id":"levelo_inurba_marseille","lat":43.2967,"lon":5.37169,"is_reserved":false,"is_disabled":false,"rental_uris":{"android":"levelo://app?vid=a3692e99-3ef4-41ff-a94c-e40fc272a060","ios":"levelo://app?vid=a3692e99-3ef4-41ff-a94c-e40fc272a060"},"vehicle_type_id":"4","last_reported":1720120010,"current_range_meters":16800,"station_id":"","pricing_plan_id":"cebpf4jnsgd1na2vs0mg"},{"bike_id":"b264de75-702e-43b0-821e-9b393bce1f32","system_id":"levelo_inurba_marseille","lat":43.29676,"lon":5.37285,"is_reserved":false,"is_disabled":false,"rental_uris":{"android":"levelo://app?vid=b264de75-702e-43b0-821e-9b393bce1f32","ios":"levelo://app?vid=b264de75-702e-43b0-821e-9b393bce1f32"},"vehicle_type_id":"4","last_reported":1720120010,"current_range_meters":0,"station_id":"ce4bgk12rcd13ifvqbj0","pricing_plan_id":"cebpf4jnsgd1na2vs0mg"},{"bike_id":"0c845e77-91f9-4f53-b4c0-9cd585c05b3e","system_id":"levelo_inurba_marseille","lat":43.29663,"lon":5.36162,"is_reserved":false,"is_disabled":false,"rental_uris":{"android":"levelo://app?vid=0c845e77-91f9-4f53-b4c0-9cd585c05b3e","ios":"levelo://app?vid=0c845e77-91f9-4f53-b4c0-9cd585c05b3e"},"vehicle_type_id":"4","last_reported":1720120010,"current_range_meters":0,"station_id":"","pricing_plan_id":"cebpf4jnsgd1na2vs0mg"},{"bike_id":"8df8fbfc-9a1e-4177-8575-ec1850ee6d17","system_id":"levelo_inurba_marseille","lat":43.296131,"lon":5.370791,"is_reserved":false,"is_disabled":false,"rental_uris":{"android":"levelo://app?vid=8df8fbfc-9a1e-4177-8575-ec1850ee6d17","ios":"levelo://app?vid=8df8fbfc-9a1e-4177-8575-ec1850ee6d17"},"vehicle_type_id":"4","last_reported":1720120010,"current_range_meters":400,"station_id":"ce4bgnh2rcd13ifvqc0g","pricing_plan_id":"cebpf4jnsgd1na2vs0mg"},{"bike_id":"eb50f84a-36ee-4efa-bcbc-f2be1798d88d","system_id":"levelo_inurba_marseille","lat":43.29573,"lon":5.367355,"is_reserved":false,"is_disabled":false,"rental_uris":{"android":"levelo://app?vid=eb50f84a-36ee-4efa-bcbc-f2be1798d88d","ios":"levelo://app?vid=eb50f84a-36ee-4efa-bcbc-f2be1798d88d"},"vehicle_type_id":"4","last_reported":1720120010,"current_range_meters":22800,"station_id":"ce4bgph2rcd13ifvqc2g","pricing_plan_id":"cebpf4jnsgd1na2vs0mg"},{"bike_id":"4d5d2f2a-01ed-47c8-a611-9bcb6f01f19d","system_id":"levelo_inurba_marseille","lat":43.296131,"lon":5.370791,"is_reserved":false,"is_disabled":false,"rental_uris":{"android":"levelo://app?vid=4d5d2f2a-01ed-47c8-a611-9bcb6f01f19d","ios":"levelo://app?vid=4d5d2f2a-01ed-47c8-a611-9bcb6f01f19d"},"vehicle_type_id":"4","last_reported":1720120010,"current_range_meters":0,"station_id":"ce4bgnh2rcd13ifvqc0g","pricing_plan_id":"cebpf4jnsgd1na2vs0mg"},{"bike_id":"0f278007-09b2-4242-83ae-fe38c77dda3a","system_id":"levelo_inurba_marseille","lat":43.29573,"lon":5.367355,"is_reserved":false,"is_disabled":false,"rental_uris":{"android":"levelo://app?vid=0f278007-09b2-4242-83ae-fe38c77dda3a","ios":"levelo://app?vid=0f278007-09b2-4242-83ae-fe38c77dda3a"},"vehicle_type_id":"4","last_reported":1720120010,"current_range_meters":20800,"station_id":"ce4bgph2rcd13ifvqc2g","pricing_plan_id":"cebpf4jnsgd1na2vs0mg"},{"bike_id":"955b6411-1000-4cee-8657-58afbbf507ad","system_id":"levelo_inurba_marseille","lat":43.296131,"lon":5.370773,"is_reserved":false,"is_disabled":false,"rental_uris":{"android":"levelo://app?vid=955b6411-1000-4cee-8657-58afbbf507ad","ios":"levelo://app?vid=955b6411-1000-4cee-8657-58afbbf507ad"},"vehicle_type_id":"4","last_reported":1720120010,"current_range_meters":800,"station_id":"ce4bgnh2rcd13ifvqc0g","pricing_plan_id":"cebpf4jnsgd1na2vs0mg"},{"bike_id":"70db1098-b1ad-487a-be0b-02d8c41da1e3","system_id":"levelo_inurba_marseille","lat":43.29573,"lon":5.367355,"is_reserved":false,"is_disabled":false,"rental_uris":{"android":"levelo://app?vid=70db1098-b1ad-487a-be0b-02d8c41da1e3","ios":"levelo://app?vid=70db1098-b1ad-487a-be0b-02d8c41da1e3"},"vehicle_type_id":"4","last_reported":1720120010,"current_range_meters":0,"station_id":"ce4bgph2rcd13ifvqc2g","pricing_plan_id":"cebpf4jnsgd1na2vs0mg"},{"bike_id":"397916e3-6418-4bc8-9cae-0368a6bb57ad","system_id":"levelo_inurba_marseille","lat":43.309589,"lon":5.390258,"is_reserved":false,"is_disabled":false,"rental_uris":{"android":"levelo://app?vid=397916e3-6418-4bc8-9cae-0368a6bb57ad","ios":"levelo://app?vid=397916e3-6418-4bc8-9cae-0368a6bb57ad"},"vehicle_type_id":"4","last_reported":1720120010,"current_range_meters":4400,"station_id":"ce4bgup2rcd13ifvqco0","pricing_plan_id":"cebpf4jnsgd1na2vs0mg"},{"bike_id":"1e4081a0-2bee-446e-bf85-4e8e562922a6","system_id":"levelo_inurba_marseille","lat":43.309589,"lon":5.390258,"is_reserved":false,"is_disabled":false,"rental_uris":{"android":"levelo://app?vid=1e4081a0-2bee-446e-bf85-4e8e562922a6","ios":"levelo://app?vid=1e4081a0-2bee-446e-bf85-4e8e562922a6"},"vehicle_type_id":"4","last_reported":1720120010,"current_range_meters":22800,"station_id":"ce4bgup2rcd13ifvqco0","pricing_plan_id":"cebpf4jnsgd1na2vs0mg"},{"bike_id":"9262c31d-6000-4a68-99bf-2238af791670","system_id":"levelo_inurba_marseille","lat":43.309589,"lon":5.390258,"is_reserved":false,"is_disabled":false,"rental_uris":{"android":"levelo://app?vid=9262c31d-6000-4a68-99bf-2238af791670","ios":"levelo://app?vid=9262c31d-6000-4a68-99bf-2238af791670"},"vehicle_type_id":"4","last_reported":1720120010,"current_range_meters":0,"station_id":"ce4bgup2rcd13ifvqco0","pricing_plan_id":"cebpf4jnsgd1na2vs0mg"},{"bike_id":"f9560253-850a-4e33-a530-a9df9448bf14","system_id":"levelo_inurba_marseille","lat":43.309589,"lon":5.390258,"is_reserved":false,"is_disabled":false,"rental_uris":{"android":"levelo://app?vid=f9560253-850a-4e33-a530-a9df9448bf14","ios":"levelo://app?vid=f9560253-850a-4e33-a530-a9df9448bf14"},"vehicle_type_id":"4","last_reported":1720120010,"current_range_meters":10000,"station_id":"ce4bgup2rcd13ifvqco0","pricing_plan_id":"cebpf4jnsgd1na2vs0mg"},{"bike_id":"ff1d5865-e037-4bce-9bd5-84e8f1bf55f1","system_id":"levelo_inurba_marseille","lat":43.309589,"lon":5.390258,"is_reserved":false,"is_disabled":false,"rental_uris":{"android":"levelo://app?vid=ff1d5865-e037-4bce-9bd5-84e8f1bf55f1","ios":"levelo://app?vid=ff1d5865-e037-4bce-9bd5-84e8f1bf55f1"},"vehicle_type_id":"4","last_reported":1720120010,"current_range_meters":12000,"station_id":"ce4bgup2rcd13ifvqco0","pricing_plan_id":"cebpf4jnsgd1na2vs0mg"},{"bike_id":"8f578c8d-b7aa-4cbe-b356-4a26910617e2","system_id":"levelo_inurba_marseille","lat":43.309628,"lon":5.39033,"is_reserved":false,"is_disabled":false,"rental_uris":{"android":"levelo://app?vid=8f578c8d-b7aa-4cbe-b356-4a26910617e2","ios":"levelo://app?vid=8f578c8d-b7aa-4cbe-b356-4a26910617e2"},"vehicle_type_id":"4","last_reported":1720120010,"current_range_meters":0,"station_id":"ce4bgup2rcd13ifvqco0","pricing_plan_id":"cebpf4jnsgd1na2vs0mg"},{"bike_id":"166ef2a2-a339-483e-b3ae-db92871d0f8c","system_id":"levelo_inurba_marseille","lat":43.309589,"lon":5.390258,"is_reserved":false,"is_disabled":false,"rental_uris":{"android":"levelo://app?vid=166ef2a2-a339-483e-b3ae-db92871d0f8c","ios":"levelo://app?vid=166ef2a2-a339-483e-b3ae-db92871d0f8c"},"vehicle_type_id":"4","last_reported":1720120010,"current_range_meters":21200,"station_id":"ce4bgup2rcd13ifvqco0","pricing_plan_id":"cebpf4jnsgd1na2vs0mg"},{"bike_id":"50c153f5-8186-410b-8730-6bb2d8424e0b","system_id":"levelo_inurba_marseille","lat":43.309589,"lon":5.390258,"is_reserved":false,"is_disabled":false,"rental_uris":{"android":"levelo://app?vid=50c153f5-8186-410b-8730-6bb2d8424e0b","ios":"levelo://app?vid=50c153f5-8186-410b-8730-6bb2d8424e0b"},"vehicle_type_id":"4","last_reported":1720120010,"current_range_meters":0,"station_id":"ce4bgup2rcd13ifvqco0","pricing_plan_id":"cebpf4jnsgd1na2vs0mg"},{"bike_id":"c9cf49b7-d16d-49c5-ac6f-3c27e325f2d9","system_id":"levelo_inurba_marseille","lat":43.309589,"lon":5.390258,"is_reserved":false,"is_disabled":false,"rental_uris":{"android":"levelo://app?vid=c9cf49b7-d16d-49c5-ac6f-3c27e325f2d9","ios":"levelo://app?vid=c9cf49b7-d16d-49c5-ac6f-3c27e325f2d9"},"vehicle_type_id":"4","last_reported":1720120010,"current_range_meters":5600,"station_id":"ce4bgup2rcd13ifvqco0","pricing_plan_id":"cebpf4jnsgd1na2vs0mg"},{"bike_id":"3d696bb4-98bc-4ef5-b6ae-82a5c1ae7e05","system_id":"levelo_inurba_marseille","lat":43.309589,"lon":5.390258,"is_reserved":false,"is_disabled":false,"rental_uris":{"android":"levelo://app?vid=3d696bb4-98bc-4ef5-b6ae-82a5c1ae7e05","ios":"levelo://app?vid=3d696bb4-98bc-4ef5-b6ae-82a5c1ae7e05"},"vehicle_type_id":"4","last_reported":1720120010,"current_range_meters":0,"station_id":"ce4bgup2rcd13ifvqco0","pricing_plan_id":"cebpf4jnsgd1na2vs0mg"},{"bike_id":"1487afb7-f205-40bb-95b8-6b14c3d5b8f4","system_id":"levelo_inurba_marseille","lat":43.30958,"lon":5.39036,"is_reserved":false,"is_disabled":false,"rental_uris":{"android":"levelo://app?vid=1487afb7-f205-40bb-95b8-6b14c3d5b8f4","ios":"levelo://app?vid=1487afb7-f205-40bb-95b8-6b14c3d5b8f4"},"vehicle_type_id":"4","last_reported":1720120010,"current_range_meters":9600,"station_id":"ce4bgup2rcd13ifvqco0","pricing_plan_id":"cebpf4jnsgd1na2vs0mg"},{"bike_id":"fae349ab-a9cd-4a1a-915a-629c0d9e20a5","system_id":"levelo_inurba_marseille","lat":43.309578,"lon":5.39038,"is_reserved":false,"is_disabled":false,"rental_uris":{"android":"levelo://app?vid=fae349ab-a9cd-4a1a-915a-629c0d9e20a5","ios":"levelo://app?vid=fae349ab-a9cd-4a1a-915a-629c0d9e20a5"},"vehicle_type_id":"4","last_reported":1720120010,"current_range_meters":0,"station_id":"ce4bgup2rcd13ifvqco0","pricing_plan_id":"cebpf4jnsgd1na2vs0mg"},{"bike_id":"034ba149-c497-4185-9f86-de9a8fedcc74","system_id":"levelo_inurba_marseille","lat":43.309589,"lon":5.390258,"is_reserved":false,"is_disabled":false,"rental_uris":{"android":"levelo://app?vid=034ba149-c497-4185-9f86-de9a8fedcc74","ios":"levelo://app?vid=034ba149-c497-4185-9f86-de9a8fedcc74"},"vehicle_type_id":"4","last_reported":1720120010,"current_range_meters":4000,"station_id":"ce4bgup2rcd13ifvqco0","pricing_plan_id":"cebpf4jnsgd1na2vs0mg"},{"bike_id":"c2cf5cc6-f019-4d2b-9731-3b931e04469f","system_id":"levelo_inurba_marseille","lat":43.309589,"lon":5.390258,"is_reserved":false,"is_disabled":false,"rental_uris":{"android":"levelo://app?vid=c2cf5cc6-f019-4d2b-9731-3b931e04469f","ios":"levelo://app?vid=c2cf5cc6-f019-4d2b-9731-3b931e04469f"},"vehicle_type_id":"4","last_reported":1720120010,"current_range_meters":7200,"station_id":"ce4bgup2rcd13ifvqco0","pricing_plan_id":"cebpf4jnsgd1na2vs0mg"},{"bike_id":"e20028e7-b263-424d-b21d-da50c6959a6c","system_id":"levelo_inurba_marseille","lat":43.309589,"lon":5.390258,"is_reserved":false,"is_disabled":false,"rental_uris":{"android":"levelo://app?vid=e20028e7-b263-424d-b21d-da50c6959a6c","ios":"levelo://app?vid=e20028e7-b263-424d-b21d-da50c6959a6c"},"vehicle_type_id":"4","last_reported":1720120010,"current_range_meters":15200,"station_id":"ce4bgup2rcd13ifvqco0","pricing_plan_id":"cebpf4jnsgd1na2vs0mg"},{"bike_id":"1b7b071f-5dc3-4680-88fd-e6ec14e4b679","system_id":"levelo_inurba_marseille","lat":43.309513,"lon":5.3904,"is_reserved":false,"is_disabled":false,"rental_uris":{"android":"levelo://app?vid=1b7b071f-5dc3-4680-88fd-e6ec14e4b679","ios":"levelo://app?vid=1b7b071f-5dc3-4680-88fd-e6ec14e4b679"},"vehicle_type_id":"4","last_reported":1720120010,"current_range_meters":0,"station_id":"ce4bgup2rcd13ifvqco0","pricing_plan_id":"cebpf4jnsgd1na2vs0mg"},{"bike_id":"495f5ce8-9a2c-4ffc-a49a-5fa7557c8a31","system_id":"levelo_inurba_marseille","lat":43.309589,"lon":5.390258,"is_reserved":false,"is_disabled":false,"rental_uris":{"android":"levelo://app?vid=495f5ce8-9a2c-4ffc-a49a-5fa7557c8a31","ios":"levelo://app?vid=495f5ce8-9a2c-4ffc-a49a-5fa7557c8a31"},"vehicle_type_id":"4","last_reported":1720120010,"current_range_meters":31200,"station_id":"ce4bgup2rcd13ifvqco0","pricing_plan_id":"cebpf4jnsgd1na2vs0mg"},{"bike_id":"8f0cd4ee-7d6d-481c-8da5-6118526b24da","system_id":"levelo_inurba_marseille","lat":43.309589,"lon":5.390258,"is_reserved":false,"is_disabled":false,"rental_uris":{"android":"levelo://app?vid=8f0cd4ee-7d6d-481c-8da5-6118526b24da","ios":"levelo://app?vid=8f0cd4ee-7d6d-481c-8da5-6118526b24da"},"vehicle_type_id":"4","last_reported":1720120010,"current_range_meters":0,"station_id":"ce4bgup2rcd13ifvqco0","pricing_plan_id":"cebpf4jnsgd1na2vs0mg"},{"bike_id":"ece62d3f-2451-468a-82fc-93afbdd896de","system_id":"levelo_inurba_marseille","lat":43.309589,"lon":5.390258,"is_reserved":false,"is_disabled":false,"rental_uris":{"android":"levelo://app?vid=ece62d3f-2451-468a-82fc-93afbdd896de","ios":"levelo://app?vid=ece62d3f-2451-468a-82fc-93afbdd896de"},"vehicle_type_id":"4","last_reported":1720120010,"current_range_meters":4400,"station_id":"ce4bgup2rcd13ifvqco0","pricing_plan_id":"cebpf4jnsgd1na2vs0mg"},{"bike_id":"868819cc-21a1-440c-8237-f7ce41fc2bc7","system_id":"levelo_inurba_marseille","lat":43.309589,"lon":5.390258,"is_reserved":false,"is_disabled":false,"rental_uris":{"android":"levelo://app?vid=868819cc-21a1-440c-8237-f7ce41fc2bc7","ios":"levelo://app?vid=868819cc-21a1-440c-8237-f7ce41fc2bc7"},"vehicle_type_id":"4","last_reported":1720120010,"current_range_meters":29200,"station_id":"ce4bgup2rcd13ifvqco0","pricing_plan_id":"cebpf4jnsgd1na2vs0mg"},{"bike_id":"e511749b-1fea-4849-b15c-1d532b83a18b","system_id":"levelo_inurba_marseille","lat":43.309589,"lon":5.390258,"is_reserved":false,"is_disabled":false,"rental_uris":{"android":"levelo://app?vid=e511749b-1fea-4849-b15c-1d532b83a18b","ios":"levelo://app?vid=e511749b-1fea-4849-b15c-1d532b83a18b"},"vehicle_type_id":"4","last_reported":1720120010,"current_range_meters":19200,"station_id":"ce4bgup2rcd13ifvqco0","pricing_plan_id":"cebpf4jnsgd1na2vs0mg"},{"bike_id":"ca7c2519-c409-45c1-ba39-de8c8db6eb3b","system_id":"levelo_inurba_marseille","lat":43.31761,"lon":5.39011,"is_reserved":false,"is_disabled":false,"rental_uris":{"android":"levelo://app?vid=ca7c2519-c409-45c1-ba39-de8c8db6eb3b","ios":"levelo://app?vid=ca7c2519-c409-45c1-ba39-de8c8db6eb3b"},"vehicle_type_id":"4","last_reported":1720120010,"current_range_meters":9600,"station_id":"ce4bhqp2rcd13ifvqhng","pricing_plan_id":"cebpf4jnsgd1na2vs0mg"},{"bike_id":"361b0d3a-a684-41af-be33-938b35a202f4","system_id":"levelo_inurba_marseille","lat":43.31756,"lon":5.39013,"is_reserved":false,"is_disabled":false,"rental_uris":{"android":"levelo://app?vid=361b0d3a-a684-41af-be33-938b35a202f4","ios":"levelo://app?vid=361b0d3a-a684-41af-be33-938b35a202f4"},"vehicle_type_id":"4","last_reported":1720120010,"current_range_meters":8800,"station_id":"ce4bhqp2rcd13ifvqhng","pricing_plan_id":"cebpf4jnsgd1na2vs0mg"},{"bike_id":"86011536-ef5c-47b9-b809-58c26ee4e4e6","system_id":"levelo_inurba_marseille","lat":43.317581,"lon":5.390152,"is_reserved":false,"is_disabled":false,"rental_uris":{"android":"levelo://app?vid=86011536-ef5c-47b9-b809-58c26ee4e4e6","ios":"levelo://app?vid=86011536-ef5c-47b9-b809-58c26ee4e4e6"},"vehicle_type_id":"4","last_reported":1720120010,"current_range_meters":20800,"station_id":"ce4bhqp2rcd13ifvqhng","pricing_plan_id":"cebpf4jnsgd1na2vs0mg"},{"bike_id":"7dc90a2d-af93-452b-b498-8dd3995e678c","system_id":"levelo_inurba_marseille","lat":43.31757,"lon":5.39018,"is_reserved":false,"is_disabled":false,"rental_uris":{"android":"levelo://app?vid=7dc90a2d-af93-452b-b498-8dd3995e678c","ios":"levelo://app?vid=7dc90a2d-af93-452b-b498-8dd3995e678c"},"vehicle_type_id":"4","last_reported":1720120010,"current_range_meters":11200,"station_id":"ce4bhqp2rcd13ifvqhng","pricing_plan_id":"cebpf4jnsgd1na2vs0mg"},{"bike_id":"ccafca93-57ec-4c80-be06-8064194cdd7c","system_id":"levelo_inurba_marseille","lat":43.298037,"lon":5.381066,"is_reserved":false,"is_disabled":false,"rental_uris":{"android":"levelo://app?vid=ccafca93-57ec-4c80-be06-8064194cdd7c","ios":"levelo://app?vid=ccafca93-57ec-4c80-be06-8064194cdd7c"},"vehicle_type_id":"4","last_reported":1720120010,"current_range_meters":11600,"station_id":"ce4bgip2rcd13ifvqbb0","pricing_plan_id":"cebpf4jnsgd1na2vs0mg"},{"bike_id":"cde2e00f-3eeb-4a5a-aa16-0ac1795dc3f3","system_id":"levelo_inurba_marseille","lat":43.304278,"lon":5.388868,"is_reserved":false,"is_disabled":false,"rental_uris":{"android":"levelo://app?vid=cde2e00f-3eeb-4a5a-aa16-0ac1795dc3f3","ios":"levelo://app?vid=cde2e00f-3eeb-4a5a-aa16-0ac1795dc3f3"},"vehicle_type_id":"4","last_reported":1720120010,"current_range_meters":8400,"station_id":"ce4bgk12rcd13ifvqbi0","pricing_plan_id":"cebpf4jnsgd1na2vs0mg"},{"bike_id":"4e7cd727-d0ae-48ed-8e84-a85fd35bc448","system_id":"levelo_inurba_marseille","lat":43.296263,"lon":5.377094,"is_reserved":false,"is_disabled":false,"rental_uris":{"android":"levelo://app?vid=4e7cd727-d0ae-48ed-8e84-a85fd35bc448","ios":"levelo://app?vid=4e7cd727-d0ae-48ed-8e84-a85fd35bc448"},"vehicle_type_id":"4","last_reported":1720120010,"current_range_meters":0,"station_id":"ce4bgi92rcd13ifvqb90","pricing_plan_id":"cebpf4jnsgd1na2vs0mg"},{"bike_id":"bd0c2e1d-271b-4d67-879b-85913b9d3c8a","system_id":"levelo_inurba_marseille","lat":43.304274,"lon":5.388873,"is_reserved":false,"is_disabled":false,"rental_uris":{"android":"levelo://app?vid=bd0c2e1d-271b-4d67-879b-85913b9d3c8a","ios":"levelo://app?vid=bd0c2e1d-271b-4d67-879b-85913b9d3c8a"},"vehicle_type_id":"4","last_reported":1720120010,"current_range_meters":400,"station_id":"ce4bgk12rcd13ifvqbi0","pricing_plan_id":"cebpf4jnsgd1na2vs0mg"},{"bike_id":"219fef35-c6ca-4bd6-90e6-b53d224fcc2a","system_id":"levelo_inurba_marseille","lat":43.304278,"lon":5.388868,"is_reserved":false,"is_disabled":false,"rental_uris":{"android":"levelo://app?vid=219fef35-c6ca-4bd6-90e6-b53d224fcc2a","ios":"levelo://app?vid=219fef35-c6ca-4bd6-90e6-b53d224fcc2a"},"vehicle_type_id":"4","last_reported":1720120010,"current_range_meters":0,"station_id":"ce4bgk12rcd13ifvqbi0","pricing_plan_id":"cebpf4jnsgd1na2vs0mg"},{"bike_id":"85ba6d42-9b32-4729-835b-c597eabea230","system_id":"levelo_inurba_marseille","lat":43.304274,"lon":5.388873,"is_reserved":false,"is_disabled":false,"rental_uris":{"android":"levelo://app?vid=85ba6d42-9b32-4729-835b-c597eabea230","ios":"levelo://app?vid=85ba6d42-9b32-4729-835b-c597eabea230"},"vehicle_type_id":"4","last_reported":1720120010,"current_range_meters":22000,"station_id":"ce4bgk12rcd13ifvqbi0","pricing_plan_id":"cebpf4jnsgd1na2vs0mg"},{"bike_id":"167519b0-b5ee-42cb-a480-3e4609f89ce3","system_id":"levelo_inurba_marseille","lat":43.29973,"lon":5.38492,"is_reserved":false,"is_disabled":false,"rental_uris":{"android":"levelo://app?vid=167519b0-b5ee-42cb-a480-3e4609f89ce3","ios":"levelo://app?vid=167519b0-b5ee-42cb-a480-3e4609f89ce3"},"vehicle_type_id":"4","last_reported":1720120010,"current_range_meters":14800,"station_id":"","pricing_plan_id":"cebpf4jnsgd1na2vs0mg"},{"bike_id":"e590fb9f-d9bb-406f-ad29-ce3f59dfb4f2","system_id":"levelo_inurba_marseille","lat":43.29972,"lon":5.38494,"is_reserved":false,"is_disabled":false,"rental_uris":{"android":"levelo://app?vid=e590fb9f-d9bb-406f-ad29-ce3f59dfb4f2","ios":"levelo://app?vid=e590fb9f-d9bb-406f-ad29-ce3f59dfb4f2"},"vehicle_type_id":"4","last_reported":1720120010,"current_range_meters":13200,"station_id":"","pricing_plan_id":"cebpf4jnsgd1na2vs0mg"},{"bike_id":"d63b5ca2-41a0-4c26-bd36-ccbec5a2b5db","system_id":"levelo_inurba_marseille","lat":43.299706,"lon":5.384944,"is_reserved":false,"is_disabled":false,"rental_uris":{"android":"levelo://app?vid=d63b5ca2-41a0-4c26-bd36-ccbec5a2b5db","ios":"levelo://app?vid=d63b5ca2-41a0-4c26-bd36-ccbec5a2b5db"},"vehicle_type_id":"4","last_reported":1720120010,"current_range_meters":31200,"station_id":"","pricing_plan_id":"cebpf4jnsgd1na2vs0mg"},{"bike_id":"0898218f-67fb-44bc-b403-41bd6c09021e","system_id":"levelo_inurba_marseille","lat":43.2997,"lon":5.38495,"is_reserved":false,"is_disabled":false,"rental_uris":{"android":"levelo://app?vid=0898218f-67fb-44bc-b403-41bd6c09021e","ios":"levelo://app?vid=0898218f-67fb-44bc-b403-41bd6c09021e"},"vehicle_type_id":"4","last_reported":1720120010,"current_range_meters":18000,"station_id":"ce4bgj92rcd13ifvqbd0","pricing_plan_id":"cebpf4jnsgd1na2vs0mg"},{"bike_id":"9446ba35-1261-46af-89d0-685532de3453","system_id":"levelo_inurba_marseille","lat":43.299717,"lon":5.384845,"is_reserved":false,"is_disabled":false,"rental_uris":{"android":"levelo://app?vid=9446ba35-1261-46af-89d0-685532de3453","ios":"levelo://app?vid=9446ba35-1261-46af-89d0-685532de3453"},"vehicle_type_id":"4","last_reported":1720120010,"current_range_meters":20400,"station_id":"ce4bgj92rcd13ifvqbd0","pricing_plan_id":"cebpf4jnsgd1na2vs0mg"},{"bike_id":"96f058c5-62d4-47d8-bce3-a58c541873fe","system_id":"levelo_inurba_marseille","lat":43.2997,"lon":5.38496,"is_reserved":false,"is_disabled":false,"rental_uris":{"android":"levelo://app?vid=96f058c5-62d4-47d8-bce3-a58c541873fe","ios":"levelo://app?vid=96f058c5-62d4-47d8-bce3-a58c541873fe"},"vehicle_type_id":"4","last_reported":1720120010,"current_range_meters":18800,"station_id":"ce4bgj92rcd13ifvqbd0","pricing_plan_id":"cebpf4jnsgd1na2vs0mg"},{"bike_id":"c9bdae2d-8724-4f2c-b8bd-a09c1aab9395","system_id":"levelo_inurba_marseille","lat":43.29971,"lon":5.38501,"is_reserved":false,"is_disabled":false,"rental_uris":{"android":"levelo://app?vid=c9bdae2d-8724-4f2c-b8bd-a09c1aab9395","ios":"levelo://app?vid=c9bdae2d-8724-4f2c-b8bd-a09c1aab9395"},"vehicle_type_id":"4","last_reported":1720120010,"current_range_meters":29600,"station_id":"ce4bgj92rcd13ifvqbd0","pricing_plan_id":"cebpf4jnsgd1na2vs0mg"},{"bike_id":"e2718229-9962-48d3-a1e2-3b3d58df6918","system_id":"levelo_inurba_marseille","lat":43.299647,"lon":5.384967,"is_reserved":false,"is_disabled":false,"rental_uris":{"android":"levelo://app?vid=e2718229-9962-48d3-a1e2-3b3d58df6918","ios":"levelo://app?vid=e2718229-9962-48d3-a1e2-3b3d58df6918"},"vehicle_type_id":"4","last_reported":1720120010,"current_range_meters":11600,"station_id":"ce4bgj92rcd13ifvqbd0","pricing_plan_id":"cebpf4jnsgd1na2vs0mg"},{"bike_id":"25b5bc10-34d6-4981-b635-267b63f219cd","system_id":"levelo_inurba_marseille","lat":43.30138,"lon":5.3878,"is_reserved":false,"is_disabled":false,"rental_uris":{"android":"levelo://app?vid=25b5bc10-34d6-4981-b635-267b63f219cd","ios":"levelo://app?vid=25b5bc10-34d6-4981-b635-267b63f219cd"},"vehicle_type_id":"4","last_reported":1720120010,"current_range_meters":5200,"station_id":"ce4bghh2rcd13ifvqb60","pricing_plan_id":"cebpf4jnsgd1na2vs0mg"},{"bike_id":"bc52d9ee-0482-40e7-a73a-b937d9c1e858","system_id":"levelo_inurba_marseille","lat":43.301405,"lon":5.38784,"is_reserved":false,"is_disabled":false,"rental_uris":{"android":"levelo://app?vid=bc52d9ee-0482-40e7-a73a-b937d9c1e858","ios":"levelo://app?vid=bc52d9ee-0482-40e7-a73a-b937d9c1e858"},"vehicle_type_id":"4","last_reported":1720120010,"current_range_meters":31200,"station_id":"ce4bghh2rcd13ifvqb60","pricing_plan_id":"cebpf4jnsgd1na2vs0mg"},{"bike_id":"36a231c7-1e42-4ebe-a944-6917a88c6c72","system_id":"levelo_inurba_marseille","lat":43.30141,"lon":5.38786,"is_reserved":false,"is_disabled":false,"rental_uris":{"android":"levelo://app?vid=36a231c7-1e42-4ebe-a944-6917a88c6c72","ios":"levelo://app?vid=36a231c7-1e42-4ebe-a944-6917a88c6c72"},"vehicle_type_id":"4","last_reported":1720120010,"current_range_meters":31200,"station_id":"ce4bghh2rcd13ifvqb60","pricing_plan_id":"cebpf4jnsgd1na2vs0mg"},{"bike_id":"639de2b0-0231-4a97-ac6a-b1163b2cf0cd","system_id":"levelo_inurba_marseille","lat":43.301396,"lon":5.387812,"is_reserved":false,"is_disabled":false,"rental_uris":{"android":"levelo://app?vid=639de2b0-0231-4a97-ac6a-b1163b2cf0cd","ios":"levelo://app?vid=639de2b0-0231-4a97-ac6a-b1163b2cf0cd"},"vehicle_type_id":"4","last_reported":1720120010,"current_range_meters":18400,"station_id":"ce4bghh2rcd13ifvqb60","pricing_plan_id":"cebpf4jnsgd1na2vs0mg"},{"bike_id":"eda0cff3-65a3-4c80-9316-15d5ceb5ca1c","system_id":"levelo_inurba_marseille","lat":43.32368,"lon":5.38883,"is_reserved":false,"is_disabled":false,"rental_uris":{"android":"levelo://app?vid=eda0cff3-65a3-4c80-9316-15d5ceb5ca1c","ios":"levelo://app?vid=eda0cff3-65a3-4c80-9316-15d5ceb5ca1c"},"vehicle_type_id":"4","last_reported":1720120010,"current_range_meters":0,"station_id":"ce4bhqp2rcd13ifvqhog","pricing_plan_id":"cebpf4jnsgd1na2vs0mg"},{"bike_id":"8adb0e1d-6021-4556-a88e-8f7ee810b2b4","system_id":"levelo_inurba_marseille","lat":43.29602,"lon":5.381084,"is_reserved":false,"is_disabled":false,"rental_uris":{"android":"levelo://app?vid=8adb0e1d-6021-4556-a88e-8f7ee810b2b4","ios":"levelo://app?vid=8adb0e1d-6021-4556-a88e-8f7ee810b2b4"},"vehicle_type_id":"4","last_reported":1720120010,"current_range_meters":3600,"station_id":"ce4bgl12rcd13ifvqbo0","pricing_plan_id":"cebpf4jnsgd1na2vs0mg"},{"bike_id":"84092fce-8d6c-4909-8cc4-77e3304731b7","system_id":"levelo_inurba_marseille","lat":43.29338,"lon":5.37121,"is_reserved":false,"is_disabled":false,"rental_uris":{"android":"levelo://app?vid=84092fce-8d6c-4909-8cc4-77e3304731b7","ios":"levelo://app?vid=84092fce-8d6c-4909-8cc4-77e3304731b7"},"vehicle_type_id":"4","last_reported":1720120010,"current_range_meters":20800,"station_id":"","pricing_plan_id":"cebpf4jnsgd1na2vs0mg"},{"bike_id":"09bcfb93-5ec7-48bc-b95d-ccb22960f783","system_id":"levelo_inurba_marseille","lat":43.29602,"lon":5.38104,"is_reserved":false,"is_disabled":false,"rental_uris":{"android":"levelo://app?vid=09bcfb93-5ec7-48bc-b95d-ccb22960f783","ios":"levelo://app?vid=09bcfb93-5ec7-48bc-b95d-ccb22960f783"},"vehicle_type_id":"4","last_reported":1720120010,"current_range_meters":6800,"station_id":"ce4bgl12rcd13ifvqbo0","pricing_plan_id":"cebpf4jnsgd1na2vs0mg"},{"bike_id":"c833a20c-ec1d-4a0b-9326-848c25e5a788","system_id":"levelo_inurba_marseille","lat":43.29596,"lon":5.38097,"is_reserved":false,"is_disabled":false,"rental_uris":{"android":"levelo://app?vid=c833a20c-ec1d-4a0b-9326-848c25e5a788","ios":"levelo://app?vid=c833a20c-ec1d-4a0b-9326-848c25e5a788"},"vehicle_type_id":"4","last_reported":1720120010,"current_range_meters":15200,"station_id":"ce4bgl12rcd13ifvqbo0","pricing_plan_id":"cebpf4jnsgd1na2vs0mg"},{"bike_id":"7061f72a-8e74-447d-a68f-4fb25550a743","system_id":"levelo_inurba_marseille","lat":43.29601,"lon":5.38109,"is_reserved":false,"is_disabled":false,"rental_uris":{"android":"levelo://app?vid=7061f72a-8e74-447d-a68f-4fb25550a743","ios":"levelo://app?vid=7061f72a-8e74-447d-a68f-4fb25550a743"},"vehicle_type_id":"4","last_reported":1720120010,"current_range_meters":10000,"station_id":"ce4bgl12rcd13ifvqbo0","pricing_plan_id":"cebpf4jnsgd1na2vs0mg"},{"bike_id":"a3d8157a-c1fb-4c9f-8ed5-656aae31159d","system_id":"levelo_inurba_marseille","lat":43.295905,"lon":5.380944,"is_reserved":false,"is_disabled":false,"rental_uris":{"android":"levelo://app?vid=a3d8157a-c1fb-4c9f-8ed5-656aae31159d","ios":"levelo://app?vid=a3d8157a-c1fb-4c9f-8ed5-656aae31159d"},"vehicle_type_id":"4","last_reported":1720120010,"current_range_meters":31200,"station_id":"ce4bgl12rcd13ifvqbo0","pricing_plan_id":"cebpf4jnsgd1na2vs0mg"},{"bike_id":"1fc2f658-cf0d-40f4-8363-676b37793d49","system_id":"levelo_inurba_marseille","lat":43.292749,"lon":5.368402,"is_reserved":false,"is_disabled":false,"rental_uris":{"android":"levelo://app?vid=1fc2f658-cf0d-40f4-8363-676b37793d49","ios":"levelo://app?vid=1fc2f658-cf0d-40f4-8363-676b37793d49"},"vehicle_type_id":"4","last_reported":1720120010,"current_range_meters":26000,"station_id":"ce4bhbp2rcd13ifvqesg","pricing_plan_id":"cebpf4jnsgd1na2vs0mg"},{"bike_id":"897ec8ec-ed5e-4e7b-a322-af06da13618d","system_id":"levelo_inurba_marseille","lat":43.293259,"lon":5.371586,"is_reserved":false,"is_disabled":false,"rental_uris":{"android":"levelo://app?vid=897ec8ec-ed5e-4e7b-a322-af06da13618d","ios":"levelo://app?vid=897ec8ec-ed5e-4e7b-a322-af06da13618d"},"vehicle_type_id":"4","last_reported":1720120010,"current_range_meters":14800,"station_id":"ce4bgh92rcd13ifvqb40","pricing_plan_id":"cebpf4jnsgd1na2vs0mg"},{"bike_id":"cb16bc44-580d-4bf2-b12a-4154dff19dd9","system_id":"levelo_inurba_marseille","lat":43.292749,"lon":5.368402,"is_reserved":false,"is_disabled":false,"rental_uris":{"android":"levelo://app?vid=cb16bc44-580d-4bf2-b12a-4154dff19dd9","ios":"levelo://app?vid=cb16bc44-580d-4bf2-b12a-4154dff19dd9"},"vehicle_type_id":"4","last_reported":1720120010,"current_range_meters":24400,"station_id":"ce4bhbp2rcd13ifvqesg","pricing_plan_id":"cebpf4jnsgd1na2vs0mg"},{"bike_id":"6cda5498-90c0-4200-9001-43785879af5c","system_id":"levelo_inurba_marseille","lat":43.293259,"lon":5.371586,"is_reserved":false,"is_disabled":false,"rental_uris":{"android":"levelo://app?vid=6cda5498-90c0-4200-9001-43785879af5c","ios":"levelo://app?vid=6cda5498-90c0-4200-9001-43785879af5c"},"vehicle_type_id":"4","last_reported":1720120010,"current_range_meters":5600,"station_id":"ce4bgh92rcd13ifvqb40","pricing_plan_id":"cebpf4jnsgd1na2vs0mg"},{"bike_id":"bab5c326-1ddd-477e-9f8e-272a47628124","system_id":"levelo_inurba_marseille","lat":43.29265,"lon":5.36843,"is_reserved":false,"is_disabled":false,"rental_uris":{"android":"levelo://app?vid=bab5c326-1ddd-477e-9f8e-272a47628124","ios":"levelo://app?vid=bab5c326-1ddd-477e-9f8e-272a47628124"},"vehicle_type_id":"4","last_reported":1720120010,"current_range_meters":22800,"station_id":"ce4bhbp2rcd13ifvqesg","pricing_plan_id":"cebpf4jnsgd1na2vs0mg"},{"bike_id":"1575fb39-aeed-4e15-840e-6945a55eedaf","system_id":"levelo_inurba_marseille","lat":43.305994,"lon":5.393687,"is_reserved":false,"is_disabled":false,"rental_uris":{"android":"levelo://app?vid=1575fb39-aeed-4e15-840e-6945a55eedaf","ios":"levelo://app?vid=1575fb39-aeed-4e15-840e-6945a55eedaf"},"vehicle_type_id":"4","last_reported":1720120010,"current_range_meters":29600,"station_id":"ce4bh0p2rcd13ifvqd80","pricing_plan_id":"cebpf4jnsgd1na2vs0mg"},{"bike_id":"7a8edbe3-1ef7-4cc3-81e1-52e9be8100c5","system_id":"levelo_inurba_marseille","lat":43.305994,"lon":5.393687,"is_reserved":false,"is_disabled":false,"rental_uris":{"android":"levelo://app?vid=7a8edbe3-1ef7-4cc3-81e1-52e9be8100c5","ios":"levelo://app?vid=7a8edbe3-1ef7-4cc3-81e1-52e9be8100c5"},"vehicle_type_id":"4","last_reported":1720120010,"current_range_meters":30400,"station_id":"ce4bh0p2rcd13ifvqd80","pricing_plan_id":"cebpf4jnsgd1na2vs0mg"},{"bike_id":"e8822859-881a-4ce7-87ec-e5497126e5fc","system_id":"levelo_inurba_marseille","lat":43.293721,"lon":5.378359,"is_reserved":false,"is_disabled":false,"rental_uris":{"android":"levelo://app?vid=e8822859-881a-4ce7-87ec-e5497126e5fc","ios":"levelo://app?vid=e8822859-881a-4ce7-87ec-e5497126e5fc"},"vehicle_type_id":"4","last_reported":1720120010,"current_range_meters":19600,"station_id":"","pricing_plan_id":"cebpf4jnsgd1na2vs0mg"},{"bike_id":"7bcaecd3-12fc-47e9-9328-ed7f18e1e3ea","system_id":"levelo_inurba_marseille","lat":43.303002,"lon":5.392142,"is_reserved":false,"is_disabled":false,"rental_uris":{"android":"levelo://app?vid=7bcaecd3-12fc-47e9-9328-ed7f18e1e3ea","ios":"levelo://app?vid=7bcaecd3-12fc-47e9-9328-ed7f18e1e3ea"},"vehicle_type_id":"4","last_reported":1720120010,"current_range_meters":12400,"station_id":"ce4bgkh2rcd13ifvqbk0","pricing_plan_id":"cebpf4jnsgd1na2vs0mg"},{"bike_id":"2e9523b7-483a-4cb2-b0b8-d960995dfb33","system_id":"levelo_inurba_marseille","lat":43.30294,"lon":5.39209,"is_reserved":false,"is_disabled":false,"rental_uris":{"android":"levelo://app?vid=2e9523b7-483a-4cb2-b0b8-d960995dfb33","ios":"levelo://app?vid=2e9523b7-483a-4cb2-b0b8-d960995dfb33"},"vehicle_type_id":"4","last_reported":1720120010,"current_range_meters":0,"station_id":"","pricing_plan_id":"cebpf4jnsgd1na2vs0mg"},{"bike_id":"175e9f60-a2a6-4dea-a9cf-503953c37f41","system_id":"levelo_inurba_marseille","lat":43.302992,"lon":5.392136,"is_reserved":false,"is_disabled":false,"rental_uris":{"android":"levelo://app?vid=175e9f60-a2a6-4dea-a9cf-503953c37f41","ios":"levelo://app?vid=175e9f60-a2a6-4dea-a9cf-503953c37f41"},"vehicle_type_id":"4","last_reported":1720120010,"current_range_meters":31200,"station_id":"ce4bgkh2rcd13ifvqbk0","pricing_plan_id":"cebpf4jnsgd1na2vs0mg"},{"bike_id":"5b36cdf6-cb39-4446-988a-0f1775854738","system_id":"levelo_inurba_marseille","lat":43.302992,"lon":5.392136,"is_reserved":false,"is_disabled":false,"rental_uris":{"android":"levelo://app?vid=5b36cdf6-cb39-4446-988a-0f1775854738","ios":"levelo://app?vid=5b36cdf6-cb39-4446-988a-0f1775854738"},"vehicle_type_id":"4","last_reported":1720120010,"current_range_meters":12000,"station_id":"ce4bgkh2rcd13ifvqbk0","pricing_plan_id":"cebpf4jnsgd1na2vs0mg"},{"bike_id":"0835e928-7bf3-424a-9069-d7d78ba4a9fc","system_id":"levelo_inurba_marseille","lat":43.2936,"lon":5.37835,"is_reserved":false,"is_disabled":false,"rental_uris":{"android":"levelo://app?vid=0835e928-7bf3-424a-9069-d7d78ba4a9fc","ios":"levelo://app?vid=0835e928-7bf3-424a-9069-d7d78ba4a9fc"},"vehicle_type_id":"4","last_reported":1720120010,"current_range_meters":2400,"station_id":"ce4bgjh2rcd13ifvqbf0","pricing_plan_id":"cebpf4jnsgd1na2vs0mg"},{"bike_id":"15086dac-c798-4d65-87f0-0c18e7088852","system_id":"levelo_inurba_marseille","lat":43.30097,"lon":5.390693,"is_reserved":false,"is_disabled":false,"rental_uris":{"android":"levelo://app?vid=15086dac-c798-4d65-87f0-0c18e7088852","ios":"levelo://app?vid=15086dac-c798-4d65-87f0-0c18e7088852"},"vehicle_type_id":"4","last_reported":1720120010,"current_range_meters":0,"station_id":"ce4bh192rcd13ifvqdb0","pricing_plan_id":"cebpf4jnsgd1na2vs0mg"},{"bike_id":"5865d9bd-56a5-4f62-8d0d-fb04357cea10","system_id":"levelo_inurba_marseille","lat":43.2923,"lon":5.36068,"is_reserved":false,"is_disabled":false,"rental_uris":{"android":"levelo://app?vid=5865d9bd-56a5-4f62-8d0d-fb04357cea10","ios":"levelo://app?vid=5865d9bd-56a5-4f62-8d0d-fb04357cea10"},"vehicle_type_id":"4","last_reported":1720120010,"current_range_meters":30800,"station_id":"ce4bhbh2rcd13ifvqeqg","pricing_plan_id":"cebpf4jnsgd1na2vs0mg"},{"bike_id":"ae4eba24-a170-498f-93a3-e07983848815","system_id":"levelo_inurba_marseille","lat":43.29228,"lon":5.36078,"is_reserved":false,"is_disabled":false,"rental_uris":{"android":"levelo://app?vid=ae4eba24-a170-498f-93a3-e07983848815","ios":"levelo://app?vid=ae4eba24-a170-498f-93a3-e07983848815"},"vehicle_type_id":"4","last_reported":1720120010,"current_range_meters":0,"station_id":"ce4bhbh2rcd13ifvqeqg","pricing_plan_id":"cebpf4jnsgd1na2vs0mg"},{"bike_id":"52fb0c84-beee-4559-b9e0-14fb314297fb","system_id":"levelo_inurba_marseille","lat":43.292311,"lon":5.360731,"is_reserved":false,"is_disabled":false,"rental_uris":{"android":"levelo://app?vid=52fb0c84-beee-4559-b9e0-14fb314297fb","ios":"levelo://app?vid=52fb0c84-beee-4559-b9e0-14fb314297fb"},"vehicle_type_id":"4","last_reported":1720120010,"current_range_meters":11200,"station_id":"ce4bhbh2rcd13ifvqeqg","pricing_plan_id":"cebpf4jnsgd1na2vs0mg"},{"bike_id":"d33596e9-f997-4660-959d-eb471a601907","system_id":"levelo_inurba_marseille","lat":43.29228,"lon":5.36049,"is_reserved":false,"is_disabled":false,"rental_uris":{"android":"levelo://app?vid=d33596e9-f997-4660-959d-eb471a601907","ios":"levelo://app?vid=d33596e9-f997-4660-959d-eb471a601907"},"vehicle_type_id":"4","last_reported":1720120010,"current_range_meters":10000,"station_id":"ce4bhbh2rcd13ifvqeqg","pricing_plan_id":"cebpf4jnsgd1na2vs0mg"},{"bike_id":"a8483b5e-6f8e-4986-b944-e63a34db9a24","system_id":"levelo_inurba_marseille","lat":43.292311,"lon":5.360731,"is_reserved":false,"is_disabled":false,"rental_uris":{"android":"levelo://app?vid=a8483b5e-6f8e-4986-b944-e63a34db9a24","ios":"levelo://app?vid=a8483b5e-6f8e-4986-b944-e63a34db9a24"},"vehicle_type_id":"4","last_reported":1720120010,"current_range_meters":12800,"station_id":"ce4bhbh2rcd13ifvqeqg","pricing_plan_id":"cebpf4jnsgd1na2vs0mg"},{"bike_id":"2df6d7dd-9062-4667-93aa-f6df4a9f5d30","system_id":"levelo_inurba_marseille","lat":43.292311,"lon":5.360731,"is_reserved":false,"is_disabled":false,"rental_uris":{"android":"levelo://app?vid=2df6d7dd-9062-4667-93aa-f6df4a9f5d30","ios":"levelo://app?vid=2df6d7dd-9062-4667-93aa-f6df4a9f5d30"},"vehicle_type_id":"4","last_reported":1720120010,"current_range_meters":28400,"station_id":"ce4bhbh2rcd13ifvqeqg","pricing_plan_id":"cebpf4jnsgd1na2vs0mg"},{"bike_id":"2c6ac188-208c-4217-a3fc-6926351bbf57","system_id":"levelo_inurba_marseille","lat":43.292311,"lon":5.360731,"is_reserved":false,"is_disabled":false,"rental_uris":{"android":"levelo://app?vid=2c6ac188-208c-4217-a3fc-6926351bbf57","ios":"levelo://app?vid=2c6ac188-208c-4217-a3fc-6926351bbf57"},"vehicle_type_id":"4","last_reported":1720120010,"current_range_meters":23600,"station_id":"ce4bhbh2rcd13ifvqeqg","pricing_plan_id":"cebpf4jnsgd1na2vs0mg"},{"bike_id":"78076dfb-b9ee-4a87-b726-a8ac4b221edd","system_id":"levelo_inurba_marseille","lat":43.30085,"lon":5.390856,"is_reserved":false,"is_disabled":false,"rental_uris":{"android":"levelo://app?vid=78076dfb-b9ee-4a87-b726-a8ac4b221edd","ios":"levelo://app?vid=78076dfb-b9ee-4a87-b726-a8ac4b221edd"},"vehicle_type_id":"4","last_reported":1720120010,"current_range_meters":26800,"station_id":"ce4bh192rcd13ifvqdb0","pricing_plan_id":"cebpf4jnsgd1na2vs0mg"},{"bike_id":"7591f944-6272-4afe-9482-d6c2e4f0b3b2","system_id":"levelo_inurba_marseille","lat":43.292311,"lon":5.360731,"is_reserved":false,"is_disabled":false,"rental_uris":{"android":"levelo://app?vid=7591f944-6272-4afe-9482-d6c2e4f0b3b2","ios":"levelo://app?vid=7591f944-6272-4afe-9482-d6c2e4f0b3b2"},"vehicle_type_id":"4","last_reported":1720120010,"current_range_meters":0,"station_id":"ce4bhbh2rcd13ifvqeqg","pricing_plan_id":"cebpf4jnsgd1na2vs0mg"},{"bike_id":"7c496adf-8f61-4ca3-9e57-82df9e480db2","system_id":"levelo_inurba_marseille","lat":43.292311,"lon":5.360731,"is_reserved":false,"is_disabled":false,"rental_uris":{"android":"levelo://app?vid=7c496adf-8f61-4ca3-9e57-82df9e480db2","ios":"levelo://app?vid=7c496adf-8f61-4ca3-9e57-82df9e480db2"},"vehicle_type_id":"4","last_reported":1720120010,"current_range_meters":3200,"station_id":"ce4bhbh2rcd13ifvqeqg","pricing_plan_id":"cebpf4jnsgd1na2vs0mg"},{"bike_id":"e91d02fb-f316-4ad6-a310-4d0fd79821f8","system_id":"levelo_inurba_marseille","lat":43.292311,"lon":5.360731,"is_reserved":false,"is_disabled":false,"rental_uris":{"android":"levelo://app?vid=e91d02fb-f316-4ad6-a310-4d0fd79821f8","ios":"levelo://app?vid=e91d02fb-f316-4ad6-a310-4d0fd79821f8"},"vehicle_type_id":"4","last_reported":1720120010,"current_range_meters":5600,"station_id":"ce4bhbh2rcd13ifvqeqg","pricing_plan_id":"cebpf4jnsgd1na2vs0mg"},{"bike_id":"61a9f49c-d056-4bb6-aeb7-2905028b3827","system_id":"levelo_inurba_marseille","lat":43.292311,"lon":5.360731,"is_reserved":false,"is_disabled":false,"rental_uris":{"android":"levelo://app?vid=61a9f49c-d056-4bb6-aeb7-2905028b3827","ios":"levelo://app?vid=61a9f49c-d056-4bb6-aeb7-2905028b3827"},"vehicle_type_id":"4","last_reported":1720120010,"current_range_meters":31200,"station_id":"ce4bhbh2rcd13ifvqeqg","pricing_plan_id":"cebpf4jnsgd1na2vs0mg"},{"bike_id":"7b70b4c0-a643-4372-af9f-79123cfa2880","system_id":"levelo_inurba_marseille","lat":43.291671,"lon":5.371575,"is_reserved":false,"is_disabled":false,"rental_uris":{"android":"levelo://app?vid=7b70b4c0-a643-4372-af9f-79123cfa2880","ios":"levelo://app?vid=7b70b4c0-a643-4372-af9f-79123cfa2880"},"vehicle_type_id":"4","last_reported":1720120010,"current_range_meters":0,"station_id":"ce4bha92rcd13ifvqeh0","pricing_plan_id":"cebpf4jnsgd1na2vs0mg"},{"bike_id":"71d8e309-a82d-4f67-9a4e-4d67e266048d","system_id":"levelo_inurba_marseille","lat":43.291994,"lon":5.357886,"is_reserved":false,"is_disabled":false,"rental_uris":{"android":"levelo://app?vid=71d8e309-a82d-4f67-9a4e-4d67e266048d","ios":"levelo://app?vid=71d8e309-a82d-4f67-9a4e-4d67e266048d"},"vehicle_type_id":"4","last_reported":1720120010,"current_range_meters":4400,"station_id":"ce4bhb12rcd13ifvqel0","pricing_plan_id":"cebpf4jnsgd1na2vs0mg"},{"bike_id":"577c975e-a590-4298-b15f-86f710a899e5","system_id":"levelo_inurba_marseille","lat":43.30888,"lon":5.39638,"is_reserved":false,"is_disabled":false,"rental_uris":{"android":"levelo://app?vid=577c975e-a590-4298-b15f-86f710a899e5","ios":"levelo://app?vid=577c975e-a590-4298-b15f-86f710a899e5"},"vehicle_type_id":"4","last_reported":1720120010,"current_range_meters":13200,"station_id":"ce4bh012rcd13ifvqcv0","pricing_plan_id":"cebpf4jnsgd1na2vs0mg"},{"bike_id":"98d35d76-8065-446a-93f1-ad9cf56cbd6a","system_id":"levelo_inurba_marseille","lat":43.31328,"lon":5.39689,"is_reserved":false,"is_disabled":false,"rental_uris":{"android":"levelo://app?vid=98d35d76-8065-446a-93f1-ad9cf56cbd6a","ios":"levelo://app?vid=98d35d76-8065-446a-93f1-ad9cf56cbd6a"},"vehicle_type_id":"4","last_reported":1720120010,"current_range_meters":0,"station_id":"ce4bgvp2rcd13ifvqcu0","pricing_plan_id":"cebpf4jnsgd1na2vs0mg"},{"bike_id":"d6952202-820e-4094-bdee-9e3eacd0c6a7","system_id":"levelo_inurba_marseille","lat":43.31326,"lon":5.39693,"is_reserved":false,"is_disabled":false,"rental_uris":{"android":"levelo://app?vid=d6952202-820e-4094-bdee-9e3eacd0c6a7","ios":"levelo://app?vid=d6952202-820e-4094-bdee-9e3eacd0c6a7"},"vehicle_type_id":"4","last_reported":1720120010,"current_range_meters":2000,"station_id":"ce4bgvp2rcd13ifvqcu0","pricing_plan_id":"cebpf4jnsgd1na2vs0mg"},{"bike_id":"93709b7e-9f08-44eb-a9e7-f6015e53c347","system_id":"levelo_inurba_marseille","lat":43.313291,"lon":5.396838,"is_reserved":false,"is_disabled":false,"rental_uris":{"android":"levelo://app?vid=93709b7e-9f08-44eb-a9e7-f6015e53c347","ios":"levelo://app?vid=93709b7e-9f08-44eb-a9e7-f6015e53c347"},"vehicle_type_id":"4","last_reported":1720120010,"current_range_meters":10800,"station_id":"ce4bgvp2rcd13ifvqcu0","pricing_plan_id":"cebpf4jnsgd1na2vs0mg"},{"bike_id":"ee8bc1dd-71c2-449b-ba74-9b15c31742cd","system_id":"levelo_inurba_marseille","lat":43.313291,"lon":5.396838,"is_reserved":false,"is_disabled":false,"rental_uris":{"android":"levelo://app?vid=ee8bc1dd-71c2-449b-ba74-9b15c31742cd","ios":"levelo://app?vid=ee8bc1dd-71c2-449b-ba74-9b15c31742cd"},"vehicle_type_id":"4","last_reported":1720120010,"current_range_meters":6400,"station_id":"ce4bgvp2rcd13ifvqcu0","pricing_plan_id":"cebpf4jnsgd1na2vs0mg"},{"bike_id":"0361e190-e5ad-4e2a-9a69-a6e1ab0c6e9e","system_id":"levelo_inurba_marseille","lat":43.31324,"lon":5.39698,"is_reserved":false,"is_disabled":false,"rental_uris":{"android":"levelo://app?vid=0361e190-e5ad-4e2a-9a69-a6e1ab0c6e9e","ios":"levelo://app?vid=0361e190-e5ad-4e2a-9a69-a6e1ab0c6e9e"},"vehicle_type_id":"4","last_reported":1720120010,"current_range_meters":31200,"station_id":"ce4bgvp2rcd13ifvqcu0","pricing_plan_id":"cebpf4jnsgd1na2vs0mg"},{"bike_id":"1acd6c34-8bde-4740-a40c-1b09cd1a649d","system_id":"levelo_inurba_marseille","lat":43.309038,"lon":5.396546,"is_reserved":false,"is_disabled":false,"rental_uris":{"android":"levelo://app?vid=1acd6c34-8bde-4740-a40c-1b09cd1a649d","ios":"levelo://app?vid=1acd6c34-8bde-4740-a40c-1b09cd1a649d"},"vehicle_type_id":"4","last_reported":1720120010,"current_range_meters":24400,"station_id":"ce4bh012rcd13ifvqcv0","pricing_plan_id":"cebpf4jnsgd1na2vs0mg"},{"bike_id":"925de93c-0874-46a1-a21d-71613dc42020","system_id":"levelo_inurba_marseille","lat":43.29529,"lon":5.385581,"is_reserved":false,"is_disabled":false,"rental_uris":{"android":"levelo://app?vid=925de93c-0874-46a1-a21d-71613dc42020","ios":"levelo://app?vid=925de93c-0874-46a1-a21d-71613dc42020"},"vehicle_type_id":"4","last_reported":1720120010,"current_range_meters":12400,"station_id":"ce4bgih2rcd13ifvqba0","pricing_plan_id":"cebpf4jnsgd1na2vs0mg"},{"bike_id":"594614b8-0e88-49b2-b00f-5517f1d50ff4","system_id":"levelo_inurba_marseille","lat":43.29529,"lon":5.385581,"is_reserved":false,"is_disabled":false,"rental_uris":{"android":"levelo://app?vid=594614b8-0e88-49b2-b00f-5517f1d50ff4","ios":"levelo://app?vid=594614b8-0e88-49b2-b00f-5517f1d50ff4"},"vehicle_type_id":"4","last_reported":1720120010,"current_range_meters":6400,"station_id":"ce4bgih2rcd13ifvqba0","pricing_plan_id":"cebpf4jnsgd1na2vs0mg"},{"bike_id":"df2eabf4-67c4-4b1b-b7bb-67b2bbb56232","system_id":"levelo_inurba_marseille","lat":43.29529,"lon":5.385581,"is_reserved":false,"is_disabled":false,"rental_uris":{"android":"levelo://app?vid=df2eabf4-67c4-4b1b-b7bb-67b2bbb56232","ios":"levelo://app?vid=df2eabf4-67c4-4b1b-b7bb-67b2bbb56232"},"vehicle_type_id":"4","last_reported":1720120010,"current_range_meters":17600,"station_id":"ce4bgih2rcd13ifvqba0","pricing_plan_id":"cebpf4jnsgd1na2vs0mg"},{"bike_id":"f26e21c8-ba10-42f6-aeb4-bda544a7feb2","system_id":"levelo_inurba_marseille","lat":43.29529,"lon":5.385581,"is_reserved":false,"is_disabled":false,"rental_uris":{"android":"levelo://app?vid=f26e21c8-ba10-42f6-aeb4-bda544a7feb2","ios":"levelo://app?vid=f26e21c8-ba10-42f6-aeb4-bda544a7feb2"},"vehicle_type_id":"4","last_reported":1720120010,"current_range_meters":31200,"station_id":"ce4bgih2rcd13ifvqba0","pricing_plan_id":"cebpf4jnsgd1na2vs0mg"},{"bike_id":"9b184e32-27f7-41af-a619-feba63c538de","system_id":"levelo_inurba_marseille","lat":43.29528,"lon":5.38545,"is_reserved":false,"is_disabled":false,"rental_uris":{"android":"levelo://app?vid=9b184e32-27f7-41af-a619-feba63c538de","ios":"levelo://app?vid=9b184e32-27f7-41af-a619-feba63c538de"},"vehicle_type_id":"4","last_reported":1720120010,"current_range_meters":0,"station_id":"ce4bgih2rcd13ifvqba0","pricing_plan_id":"cebpf4jnsgd1na2vs0mg"},{"bike_id":"0c3f24b2-5e6b-40bc-9799-4fb00d372eb6","system_id":"levelo_inurba_marseille","lat":43.302158,"lon":5.394645,"is_reserved":false,"is_disabled":false,"rental_uris":{"android":"levelo://app?vid=0c3f24b2-5e6b-40bc-9799-4fb00d372eb6","ios":"levelo://app?vid=0c3f24b2-5e6b-40bc-9799-4fb00d372eb6"},"vehicle_type_id":"4","last_reported":1720120010,"current_range_meters":23600,"station_id":"ce4bh0p2rcd13ifvqd70","pricing_plan_id":"cebpf4jnsgd1na2vs0mg"},{"bike_id":"686f1425-8c43-4e44-aafb-4c790dc551dc","system_id":"levelo_inurba_marseille","lat":43.294153,"lon":5.386305,"is_reserved":false,"is_disabled":false,"rental_uris":{"android":"levelo://app?vid=686f1425-8c43-4e44-aafb-4c790dc551dc","ios":"levelo://app?vid=686f1425-8c43-4e44-aafb-4c790dc551dc"},"vehicle_type_id":"4","last_reported":1720120010,"current_range_meters":2400,"station_id":"ce4bh2h2rcd13ifvqdh0","pricing_plan_id":"cebpf4jnsgd1na2vs0mg"},{"bike_id":"91cc9a82-136a-42ec-8586-890af767bf04","system_id":"levelo_inurba_marseille","lat":43.294153,"lon":5.386305,"is_reserved":false,"is_disabled":false,"rental_uris":{"android":"levelo://app?vid=91cc9a82-136a-42ec-8586-890af767bf04","ios":"levelo://app?vid=91cc9a82-136a-42ec-8586-890af767bf04"},"vehicle_type_id":"4","last_reported":1720120010,"current_range_meters":15200,"station_id":"ce4bh2h2rcd13ifvqdh0","pricing_plan_id":"cebpf4jnsgd1na2vs0mg"},{"bike_id":"3b739ed2-8d13-45e1-ba24-89c955c2bbb4","system_id":"levelo_inurba_marseille","lat":43.294162,"lon":5.386292,"is_reserved":false,"is_disabled":false,"rental_uris":{"android":"levelo://app?vid=3b739ed2-8d13-45e1-ba24-89c955c2bbb4","ios":"levelo://app?vid=3b739ed2-8d13-45e1-ba24-89c955c2bbb4"},"vehicle_type_id":"4","last_reported":1720120010,"current_range_meters":3600,"station_id":"ce4bh2h2rcd13ifvqdh0","pricing_plan_id":"cebpf4jnsgd1na2vs0mg"},{"bike_id":"2f938316-48bf-41e1-accb-e84e25964de7","system_id":"levelo_inurba_marseille","lat":43.294153,"lon":5.386305,"is_reserved":false,"is_disabled":false,"rental_uris":{"android":"levelo://app?vid=2f938316-48bf-41e1-accb-e84e25964de7","ios":"levelo://app?vid=2f938316-48bf-41e1-accb-e84e25964de7"},"vehicle_type_id":"4","last_reported":1720120010,"current_range_meters":0,"station_id":"ce4bh2h2rcd13ifvqdh0","pricing_plan_id":"cebpf4jnsgd1na2vs0mg"},{"bike_id":"98ffaad1-d7a3-488d-aa28-d6276b747763","system_id":"levelo_inurba_marseille","lat":43.294153,"lon":5.386305,"is_reserved":false,"is_disabled":false,"rental_uris":{"android":"levelo://app?vid=98ffaad1-d7a3-488d-aa28-d6276b747763","ios":"levelo://app?vid=98ffaad1-d7a3-488d-aa28-d6276b747763"},"vehicle_type_id":"4","last_reported":1720120010,"current_range_meters":2000,"station_id":"ce4bh2h2rcd13ifvqdh0","pricing_plan_id":"cebpf4jnsgd1na2vs0mg"},{"bike_id":"ddc8eeef-457d-48f1-80f5-597a205ba8bf","system_id":"levelo_inurba_marseille","lat":43.294162,"lon":5.386292,"is_reserved":false,"is_disabled":false,"rental_uris":{"android":"levelo://app?vid=ddc8eeef-457d-48f1-80f5-597a205ba8bf","ios":"levelo://app?vid=ddc8eeef-457d-48f1-80f5-597a205ba8bf"},"vehicle_type_id":"4","last_reported":1720120010,"current_range_meters":800,"station_id":"ce4bh2h2rcd13ifvqdh0","pricing_plan_id":"cebpf4jnsgd1na2vs0mg"},{"bike_id":"0091f9a5-3b1f-4e50-9020-0081400b0750","system_id":"levelo_inurba_marseille","lat":43.289184,"lon":5.366408,"is_reserved":false,"is_disabled":false,"rental_uris":{"android":"levelo://app?vid=0091f9a5-3b1f-4e50-9020-0081400b0750","ios":"levelo://app?vid=0091f9a5-3b1f-4e50-9020-0081400b0750"},"vehicle_type_id":"4","last_reported":1720120010,"current_range_meters":19600,"station_id":"ce4bhap2rcd13ifvqek0","pricing_plan_id":"cebpf4jnsgd1na2vs0mg"},{"bike_id":"2ebf9320-c2aa-4fa6-ae64-f85c59c6f0a6","system_id":"levelo_inurba_marseille","lat":43.28941,"lon":5.36405,"is_reserved":false,"is_disabled":false,"rental_uris":{"android":"levelo://app?vid=2ebf9320-c2aa-4fa6-ae64-f85c59c6f0a6","ios":"levelo://app?vid=2ebf9320-c2aa-4fa6-ae64-f85c59c6f0a6"},"vehicle_type_id":"4","last_reported":1720120010,"current_range_meters":9600,"station_id":"ce4bhc92rcd13ifvqetg","pricing_plan_id":"cebpf4jnsgd1na2vs0mg"},{"bike_id":"8683c67e-b156-465a-9098-983082586f91","system_id":"levelo_inurba_marseille","lat":43.29259,"lon":5.38421,"is_reserved":false,"is_disabled":false,"rental_uris":{"android":"levelo://app?vid=8683c67e-b156-465a-9098-983082586f91","ios":"levelo://app?vid=8683c67e-b156-465a-9098-983082586f91"},"vehicle_type_id":"4","last_reported":1720120010,"current_range_meters":4800,"station_id":"ce4bh692rcd13ifvqea0","pricing_plan_id":"cebpf4jnsgd1na2vs0mg"},{"bike_id":"b9a50dc1-eba7-40c0-802d-a2ace43af5e4","system_id":"levelo_inurba_marseille","lat":43.292642,"lon":5.384254,"is_reserved":false,"is_disabled":false,"rental_uris":{"android":"levelo://app?vid=b9a50dc1-eba7-40c0-802d-a2ace43af5e4","ios":"levelo://app?vid=b9a50dc1-eba7-40c0-802d-a2ace43af5e4"},"vehicle_type_id":"4","last_reported":1720120010,"current_range_meters":0,"station_id":"ce4bh692rcd13ifvqea0","pricing_plan_id":"cebpf4jnsgd1na2vs0mg"},{"bike_id":"2d054eb4-f997-4c04-b8d3-e1218a7c8c60","system_id":"levelo_inurba_marseille","lat":43.29261,"lon":5.38436,"is_reserved":false,"is_disabled":false,"rental_uris":{"android":"levelo://app?vid=2d054eb4-f997-4c04-b8d3-e1218a7c8c60","ios":"levelo://app?vid=2d054eb4-f997-4c04-b8d3-e1218a7c8c60"},"vehicle_type_id":"4","last_reported":1720120010,"current_range_meters":11600,"station_id":"ce4bh692rcd13ifvqea0","pricing_plan_id":"cebpf4jnsgd1na2vs0mg"},{"bike_id":"96fbefda-cba2-4210-bafa-cced2c706ee6","system_id":"levelo_inurba_marseille","lat":43.2926,"lon":5.38434,"is_reserved":false,"is_disabled":false,"rental_uris":{"android":"levelo://app?vid=96fbefda-cba2-4210-bafa-cced2c706ee6","ios":"levelo://app?vid=96fbefda-cba2-4210-bafa-cced2c706ee6"},"vehicle_type_id":"4","last_reported":1720120010,"current_range_meters":27600,"station_id":"ce4bh692rcd13ifvqea0","pricing_plan_id":"cebpf4jnsgd1na2vs0mg"},{"bike_id":"df2b8475-a5e2-4fdd-845d-1882e2ae9b8d","system_id":"levelo_inurba_marseille","lat":43.292644,"lon":5.384257,"is_reserved":false,"is_disabled":false,"rental_uris":{"android":"levelo://app?vid=df2b8475-a5e2-4fdd-845d-1882e2ae9b8d","ios":"levelo://app?vid=df2b8475-a5e2-4fdd-845d-1882e2ae9b8d"},"vehicle_type_id":"4","last_reported":1720120010,"current_range_meters":0,"station_id":"ce4bh692rcd13ifvqea0","pricing_plan_id":"cebpf4jnsgd1na2vs0mg"},{"bike_id":"e94fe800-f906-4e26-8eaf-92a8c5b80799","system_id":"levelo_inurba_marseille","lat":43.29258,"lon":5.38438,"is_reserved":false,"is_disabled":false,"rental_uris":{"android":"levelo://app?vid=e94fe800-f906-4e26-8eaf-92a8c5b80799","ios":"levelo://app?vid=e94fe800-f906-4e26-8eaf-92a8c5b80799"},"vehicle_type_id":"4","last_reported":1720120010,"current_range_meters":2800,"station_id":"ce4bh692rcd13ifvqea0","pricing_plan_id":"cebpf4jnsgd1na2vs0mg"},{"bike_id":"6be39001-396f-4883-87ef-bd926c9c43a9","system_id":"levelo_inurba_marseille","lat":43.29263,"lon":5.38451,"is_reserved":false,"is_disabled":false,"rental_uris":{"android":"levelo://app?vid=6be39001-396f-4883-87ef-bd926c9c43a9","ios":"levelo://app?vid=6be39001-396f-4883-87ef-bd926c9c43a9"},"vehicle_type_id":"4","last_reported":1720120010,"current_range_meters":0,"station_id":"ce4bh692rcd13ifvqea0","pricing_plan_id":"cebpf4jnsgd1na2vs0mg"},{"bike_id":"8cf60029-95c5-46d9-9a8a-e2430013b9af","system_id":"levelo_inurba_marseille","lat":43.292644,"lon":5.384257,"is_reserved":false,"is_disabled":false,"rental_uris":{"android":"levelo://app?vid=8cf60029-95c5-46d9-9a8a-e2430013b9af","ios":"levelo://app?vid=8cf60029-95c5-46d9-9a8a-e2430013b9af"},"vehicle_type_id":"4","last_reported":1720120010,"current_range_meters":14800,"station_id":"ce4bh692rcd13ifvqea0","pricing_plan_id":"cebpf4jnsgd1na2vs0mg"},{"bike_id":"5698f271-3996-4efa-8444-e4c4bdc166a0","system_id":"levelo_inurba_marseille","lat":43.29258,"lon":5.38445,"is_reserved":false,"is_disabled":false,"rental_uris":{"android":"levelo://app?vid=5698f271-3996-4efa-8444-e4c4bdc166a0","ios":"levelo://app?vid=5698f271-3996-4efa-8444-e4c4bdc166a0"},"vehicle_type_id":"4","last_reported":1720120010,"current_range_meters":25200,"station_id":"ce4bh692rcd13ifvqea0","pricing_plan_id":"cebpf4jnsgd1na2vs0mg"},{"bike_id":"3aab227f-ef29-4c22-90b5-6a2cbb09033d","system_id":"levelo_inurba_marseille","lat":43.29255,"lon":5.38446,"is_reserved":false,"is_disabled":false,"rental_uris":{"android":"levelo://app?vid=3aab227f-ef29-4c22-90b5-6a2cbb09033d","ios":"levelo://app?vid=3aab227f-ef29-4c22-90b5-6a2cbb09033d"},"vehicle_type_id":"4","last_reported":1720120010,"current_range_meters":0,"station_id":"ce4bh692rcd13ifvqea0","pricing_plan_id":"cebpf4jnsgd1na2vs0mg"},{"bike_id":"42507cb0-3af1-4cc3-8570-827783d4643f","system_id":"levelo_inurba_marseille","lat":43.292644,"lon":5.384257,"is_reserved":false,"is_disabled":false,"rental_uris":{"android":"levelo://app?vid=42507cb0-3af1-4cc3-8570-827783d4643f","ios":"levelo://app?vid=42507cb0-3af1-4cc3-8570-827783d4643f"},"vehicle_type_id":"4","last_reported":1720120010,"current_range_meters":2000,"station_id":"ce4bh692rcd13ifvqea0","pricing_plan_id":"cebpf4jnsgd1na2vs0mg"},{"bike_id":"e7b2385a-71f4-4980-9deb-693439736770","system_id":"levelo_inurba_marseille","lat":43.292644,"lon":5.384257,"is_reserved":false,"is_disabled":false,"rental_uris":{"android":"levelo://app?vid=e7b2385a-71f4-4980-9deb-693439736770","ios":"levelo://app?vid=e7b2385a-71f4-4980-9deb-693439736770"},"vehicle_type_id":"4","last_reported":1720120010,"current_range_meters":16400,"station_id":"ce4bh692rcd13ifvqea0","pricing_plan_id":"cebpf4jnsgd1na2vs0mg"},{"bike_id":"93ae4876-b955-483c-b636-48a06a071a24","system_id":"levelo_inurba_marseille","lat":43.290995,"lon":5.381361,"is_reserved":false,"is_disabled":false,"rental_uris":{"android":"levelo://app?vid=93ae4876-b955-483c-b636-48a06a071a24","ios":"levelo://app?vid=93ae4876-b955-483c-b636-48a06a071a24"},"vehicle_type_id":"4","last_reported":1720120010,"current_range_meters":2800,"station_id":"ce4bh512rcd13ifvqe2g","pricing_plan_id":"cebpf4jnsgd1na2vs0mg"},{"bike_id":"105e43b9-48c8-4c43-9495-6cf7198826e7","system_id":"levelo_inurba_marseille","lat":43.295169,"lon":5.390426,"is_reserved":false,"is_disabled":false,"rental_uris":{"android":"levelo://app?vid=105e43b9-48c8-4c43-9495-6cf7198826e7","ios":"levelo://app?vid=105e43b9-48c8-4c43-9495-6cf7198826e7"},"vehicle_type_id":"4","last_reported":1720120010,"current_range_meters":400,"station_id":"ce4bh3p2rcd13ifvqdp0","pricing_plan_id":"cebpf4jnsgd1na2vs0mg"},{"bike_id":"19246aca-d20a-4578-a50f-6ac39028f470","system_id":"levelo_inurba_marseille","lat":43.297815,"lon":5.393548,"is_reserved":false,"is_disabled":false,"rental_uris":{"android":"levelo://app?vid=19246aca-d20a-4578-a50f-6ac39028f470","ios":"levelo://app?vid=19246aca-d20a-4578-a50f-6ac39028f470"},"vehicle_type_id":"4","last_reported":1720120010,"current_range_meters":27200,"station_id":"chh1huq6cuj3fo74tm60","pricing_plan_id":"cebpf4jnsgd1na2vs0mg"},{"bike_id":"1234dbdd-67fc-4391-a9b9-9a02c2db4675","system_id":"levelo_inurba_marseille","lat":43.29529,"lon":5.3904,"is_reserved":false,"is_disabled":false,"rental_uris":{"android":"levelo://app?vid=1234dbdd-67fc-4391-a9b9-9a02c2db4675","ios":"levelo://app?vid=1234dbdd-67fc-4391-a9b9-9a02c2db4675"},"vehicle_type_id":"4","last_reported":1720120010,"current_range_meters":0,"station_id":"ce4bh3p2rcd13ifvqdp0","pricing_plan_id":"cebpf4jnsgd1na2vs0mg"},{"bike_id":"cffb1c18-6432-4a85-918d-1bbcbde5ef8a","system_id":"levelo_inurba_marseille","lat":43.295169,"lon":5.390426,"is_reserved":false,"is_disabled":false,"rental_uris":{"android":"levelo://app?vid=cffb1c18-6432-4a85-918d-1bbcbde5ef8a","ios":"levelo://app?vid=cffb1c18-6432-4a85-918d-1bbcbde5ef8a"},"vehicle_type_id":"4","last_reported":1720120010,"current_range_meters":1600,"station_id":"ce4bh3p2rcd13ifvqdp0","pricing_plan_id":"cebpf4jnsgd1na2vs0mg"},{"bike_id":"333447f5-3631-4d83-a08f-d08e4a4566d8","system_id":"levelo_inurba_marseille","lat":43.295169,"lon":5.390426,"is_reserved":false,"is_disabled":false,"rental_uris":{"android":"levelo://app?vid=333447f5-3631-4d83-a08f-d08e4a4566d8","ios":"levelo://app?vid=333447f5-3631-4d83-a08f-d08e4a4566d8"},"vehicle_type_id":"4","last_reported":1720120010,"current_range_meters":16000,"station_id":"ce4bh3p2rcd13ifvqdp0","pricing_plan_id":"cebpf4jnsgd1na2vs0mg"},{"bike_id":"b7420e40-d906-4cdc-95d8-4d588c56d70f","system_id":"levelo_inurba_marseille","lat":43.295169,"lon":5.390426,"is_reserved":false,"is_disabled":false,"rental_uris":{"android":"levelo://app?vid=b7420e40-d906-4cdc-95d8-4d588c56d70f","ios":"levelo://app?vid=b7420e40-d906-4cdc-95d8-4d588c56d70f"},"vehicle_type_id":"4","last_reported":1720120010,"current_range_meters":1600,"station_id":"ce4bh3p2rcd13ifvqdp0","pricing_plan_id":"cebpf4jnsgd1na2vs0mg"},{"bike_id":"a2baf236-9841-4c21-8bc8-eedc0e0d548c","system_id":"levelo_inurba_marseille","lat":43.295169,"lon":5.390426,"is_reserved":false,"is_disabled":false,"rental_uris":{"android":"levelo://app?vid=a2baf236-9841-4c21-8bc8-eedc0e0d548c","ios":"levelo://app?vid=a2baf236-9841-4c21-8bc8-eedc0e0d548c"},"vehicle_type_id":"4","last_reported":1720120010,"current_range_meters":10400,"station_id":"ce4bh3p2rcd13ifvqdp0","pricing_plan_id":"cebpf4jnsgd1na2vs0mg"},{"bike_id":"eee0091f-8d29-4daa-a833-1db74560aa5c","system_id":"levelo_inurba_marseille","lat":43.312609,"lon":5.401662,"is_reserved":false,"is_disabled":false,"rental_uris":{"android":"levelo://app?vid=eee0091f-8d29-4daa-a833-1db74560aa5c","ios":"levelo://app?vid=eee0091f-8d29-4daa-a833-1db74560aa5c"},"vehicle_type_id":"4","last_reported":1720120010,"current_range_meters":20000,"station_id":"ce4bh092rcd13ifvqd30","pricing_plan_id":"cebpf4jnsgd1na2vs0mg"},{"bike_id":"e3ab9aac-1a34-482d-b9a4-38a76e002b13","system_id":"levelo_inurba_marseille","lat":43.290094,"lon":5.381264,"is_reserved":false,"is_disabled":false,"rental_uris":{"android":"levelo://app?vid=e3ab9aac-1a34-482d-b9a4-38a76e002b13","ios":"levelo://app?vid=e3ab9aac-1a34-482d-b9a4-38a76e002b13"},"vehicle_type_id":"4","last_reported":1720120010,"current_range_meters":9200,"station_id":"ce4bh4p2rcd13ifvqe1g","pricing_plan_id":"cebpf4jnsgd1na2vs0mg"},{"bike_id":"05b1c7cc-26d6-4f22-b556-c52957d68259","system_id":"levelo_inurba_marseille","lat":43.28849,"lon":5.35841,"is_reserved":false,"is_disabled":false,"rental_uris":{"android":"levelo://app?vid=05b1c7cc-26d6-4f22-b556-c52957d68259","ios":"levelo://app?vid=05b1c7cc-26d6-4f22-b556-c52957d68259"},"vehicle_type_id":"4","last_reported":1720120010,"current_range_meters":4800,"station_id":"ce4bhb12rcd13ifvqem0","pricing_plan_id":"cebpf4jnsgd1na2vs0mg"},{"bike_id":"01c56117-65e1-4ca7-8724-7b8b4419c3e6","system_id":"levelo_inurba_marseille","lat":43.312609,"lon":5.401662,"is_reserved":false,"is_disabled":false,"rental_uris":{"android":"levelo://app?vid=01c56117-65e1-4ca7-8724-7b8b4419c3e6","ios":"levelo://app?vid=01c56117-65e1-4ca7-8724-7b8b4419c3e6"},"vehicle_type_id":"4","last_reported":1720120010,"current_range_meters":16000,"station_id":"ce4bh092rcd13ifvqd30","pricing_plan_id":"cebpf4jnsgd1na2vs0mg"},{"bike_id":"35a5c68b-3f3a-4b64-a20d-faa7c7efd968","system_id":"levelo_inurba_marseille","lat":43.33729,"lon":5.37388,"is_reserved":false,"is_disabled":false,"rental_uris":{"android":"levelo://app?vid=35a5c68b-3f3a-4b64-a20d-faa7c7efd968","ios":"levelo://app?vid=35a5c68b-3f3a-4b64-a20d-faa7c7efd968"},"vehicle_type_id":"4","last_reported":1720120010,"current_range_meters":30000,"station_id":"","pricing_plan_id":"cebpf4jnsgd1na2vs0mg"},{"bike_id":"e6325aa9-5c45-4576-93d0-2f5f6f921b86","system_id":"levelo_inurba_marseille","lat":43.309589,"lon":5.390258,"is_reserved":false,"is_disabled":false,"rental_uris":{"android":"levelo://app?vid=e6325aa9-5c45-4576-93d0-2f5f6f921b86","ios":"levelo://app?vid=e6325aa9-5c45-4576-93d0-2f5f6f921b86"},"vehicle_type_id":"4","last_reported":1720120010,"current_range_meters":27200,"station_id":"ce4bgup2rcd13ifvqco0","pricing_plan_id":"cebpf4jnsgd1na2vs0mg"},{"bike_id":"61a124c6-7fd1-45f5-954d-3c86c43c368d","system_id":"levelo_inurba_marseille","lat":43.3374,"lon":5.37444,"is_reserved":false,"is_disabled":false,"rental_uris":{"android":"levelo://app?vid=61a124c6-7fd1-45f5-954d-3c86c43c368d","ios":"levelo://app?vid=61a124c6-7fd1-45f5-954d-3c86c43c368d"},"vehicle_type_id":"4","last_reported":1720120010,"current_range_meters":26800,"station_id":"","pricing_plan_id":"cebpf4jnsgd1na2vs0mg"},{"bike_id":"e1596da8-3841-488f-adf9-c63dc2bd8292","system_id":"levelo_inurba_marseille","lat":43.3374,"lon":5.37448,"is_reserved":false,"is_disabled":false,"rental_uris":{"android":"levelo://app?vid=e1596da8-3841-488f-adf9-c63dc2bd8292","ios":"levelo://app?vid=e1596da8-3841-488f-adf9-c63dc2bd8292"},"vehicle_type_id":"4","last_reported":1720120010,"current_range_meters":4000,"station_id":"","pricing_plan_id":"cebpf4jnsgd1na2vs0mg"},{"bike_id":"3d88704c-c4b8-4eac-8eeb-91b9c543abf8","system_id":"levelo_inurba_marseille","lat":43.312602,"lon":5.401706,"is_reserved":false,"is_disabled":false,"rental_uris":{"android":"levelo://app?vid=3d88704c-c4b8-4eac-8eeb-91b9c543abf8","ios":"levelo://app?vid=3d88704c-c4b8-4eac-8eeb-91b9c543abf8"},"vehicle_type_id":"4","last_reported":1720120010,"current_range_meters":0,"station_id":"ce4bh092rcd13ifvqd30","pricing_plan_id":"cebpf4jnsgd1na2vs0mg"},{"bike_id":"668b6270-367b-4f6c-b750-d67dec44cb4f","system_id":"levelo_inurba_marseille","lat":43.337436,"lon":5.374544,"is_reserved":false,"is_disabled":false,"rental_uris":{"android":"levelo://app?vid=668b6270-367b-4f6c-b750-d67dec44cb4f","ios":"levelo://app?vid=668b6270-367b-4f6c-b750-d67dec44cb4f"},"vehicle_type_id":"4","last_reported":1720120010,"current_range_meters":24800,"station_id":"","pricing_plan_id":"cebpf4jnsgd1na2vs0mg"},{"bike_id":"b092c885-b782-4c2e-a75b-e5d4bbf4db1a","system_id":"levelo_inurba_marseille","lat":43.309371,"lon":5.401449,"is_reserved":false,"is_disabled":false,"rental_uris":{"android":"levelo://app?vid=b092c885-b782-4c2e-a75b-e5d4bbf4db1a","ios":"levelo://app?vid=b092c885-b782-4c2e-a75b-e5d4bbf4db1a"},"vehicle_type_id":"4","last_reported":1720120010,"current_range_meters":22000,"station_id":"ce4bgvp2rcd13ifvqct0","pricing_plan_id":"cebpf4jnsgd1na2vs0mg"},{"bike_id":"967ccb9d-cc43-4aba-8a14-0fca8191b339","system_id":"levelo_inurba_marseille","lat":43.312731,"lon":5.401727,"is_reserved":false,"is_disabled":false,"rental_uris":{"android":"levelo://app?vid=967ccb9d-cc43-4aba-8a14-0fca8191b339","ios":"levelo://app?vid=967ccb9d-cc43-4aba-8a14-0fca8191b339"},"vehicle_type_id":"4","last_reported":1720120010,"current_range_meters":0,"station_id":"","pricing_plan_id":"cebpf4jnsgd1na2vs0mg"},{"bike_id":"8f54af09-cf0b-4919-8ae7-5734dae5cd4b","system_id":"levelo_inurba_marseille","lat":43.309371,"lon":5.401449,"is_reserved":false,"is_disabled":false,"rental_uris":{"android":"levelo://app?vid=8f54af09-cf0b-4919-8ae7-5734dae5cd4b","ios":"levelo://app?vid=8f54af09-cf0b-4919-8ae7-5734dae5cd4b"},"vehicle_type_id":"4","last_reported":1720120010,"current_range_meters":1600,"station_id":"ce4bgvp2rcd13ifvqct0","pricing_plan_id":"cebpf4jnsgd1na2vs0mg"},{"bike_id":"8d6f9573-315d-46d2-a1a1-401b72c0ee54","system_id":"levelo_inurba_marseille","lat":43.312609,"lon":5.401662,"is_reserved":false,"is_disabled":false,"rental_uris":{"android":"levelo://app?vid=8d6f9573-315d-46d2-a1a1-401b72c0ee54","ios":"levelo://app?vid=8d6f9573-315d-46d2-a1a1-401b72c0ee54"},"vehicle_type_id":"4","last_reported":1720120010,"current_range_meters":6000,"station_id":"ce4bh092rcd13ifvqd30","pricing_plan_id":"cebpf4jnsgd1na2vs0mg"},{"bike_id":"350dfeb4-3df7-47ec-bb69-08ad5482c10c","system_id":"levelo_inurba_marseille","lat":43.337483,"lon":5.374414,"is_reserved":false,"is_disabled":false,"rental_uris":{"android":"levelo://app?vid=350dfeb4-3df7-47ec-bb69-08ad5482c10c","ios":"levelo://app?vid=350dfeb4-3df7-47ec-bb69-08ad5482c10c"},"vehicle_type_id":"4","last_reported":1720120010,"current_range_meters":29200,"station_id":"","pricing_plan_id":"cebpf4jnsgd1na2vs0mg"},{"bike_id":"ae1537ff-bda6-4f69-9ba2-8fe258813555","system_id":"levelo_inurba_marseille","lat":43.312609,"lon":5.401662,"is_reserved":false,"is_disabled":false,"rental_uris":{"android":"levelo://app?vid=ae1537ff-bda6-4f69-9ba2-8fe258813555","ios":"levelo://app?vid=ae1537ff-bda6-4f69-9ba2-8fe258813555"},"vehicle_type_id":"4","last_reported":1720120010,"current_range_meters":0,"station_id":"ce4bh092rcd13ifvqd30","pricing_plan_id":"cebpf4jnsgd1na2vs0mg"},{"bike_id":"9b81cef5-7c06-4133-bbd8-ce7feb5a50f7","system_id":"levelo_inurba_marseille","lat":43.309371,"lon":5.401449,"is_reserved":false,"is_disabled":false,"rental_uris":{"android":"levelo://app?vid=9b81cef5-7c06-4133-bbd8-ce7feb5a50f7","ios":"levelo://app?vid=9b81cef5-7c06-4133-bbd8-ce7feb5a50f7"},"vehicle_type_id":"4","last_reported":1720120010,"current_range_meters":17200,"station_id":"ce4bgvp2rcd13ifvqct0","pricing_plan_id":"cebpf4jnsgd1na2vs0mg"},{"bike_id":"fe2a26c9-796d-440e-99f1-e6c7337a55a5","system_id":"levelo_inurba_marseille","lat":43.312609,"lon":5.401662,"is_reserved":false,"is_disabled":false,"rental_uris":{"android":"levelo://app?vid=fe2a26c9-796d-440e-99f1-e6c7337a55a5","ios":"levelo://app?vid=fe2a26c9-796d-440e-99f1-e6c7337a55a5"},"vehicle_type_id":"4","last_reported":1720120010,"current_range_meters":18000,"station_id":"ce4bh092rcd13ifvqd30","pricing_plan_id":"cebpf4jnsgd1na2vs0mg"},{"bike_id":"ccfdcf20-e3eb-4024-a8a0-c2d9c486f87f","system_id":"levelo_inurba_marseille","lat":43.309371,"lon":5.401449,"is_reserved":false,"is_disabled":false,"rental_uris":{"android":"levelo://app?vid=ccfdcf20-e3eb-4024-a8a0-c2d9c486f87f","ios":"levelo://app?vid=ccfdcf20-e3eb-4024-a8a0-c2d9c486f87f"},"vehicle_type_id":"4","last_reported":1720120010,"current_range_meters":18400,"station_id":"ce4bgvp2rcd13ifvqct0","pricing_plan_id":"cebpf4jnsgd1na2vs0mg"},{"bike_id":"e967651c-2bc0-42d8-a1aa-99e45186633e","system_id":"levelo_inurba_marseille","lat":43.309371,"lon":5.401449,"is_reserved":false,"is_disabled":false,"rental_uris":{"android":"levelo://app?vid=e967651c-2bc0-42d8-a1aa-99e45186633e","ios":"levelo://app?vid=e967651c-2bc0-42d8-a1aa-99e45186633e"},"vehicle_type_id":"4","last_reported":1720120010,"current_range_meters":19200,"station_id":"ce4bgvp2rcd13ifvqct0","pricing_plan_id":"cebpf4jnsgd1na2vs0mg"},{"bike_id":"79618f47-6d23-40ad-9a34-ffc1eaa0d7ee","system_id":"levelo_inurba_marseille","lat":43.309371,"lon":5.401449,"is_reserved":false,"is_disabled":false,"rental_uris":{"android":"levelo://app?vid=79618f47-6d23-40ad-9a34-ffc1eaa0d7ee","ios":"levelo://app?vid=79618f47-6d23-40ad-9a34-ffc1eaa0d7ee"},"vehicle_type_id":"4","last_reported":1720120010,"current_range_meters":2800,"station_id":"ce4bgvp2rcd13ifvqct0","pricing_plan_id":"cebpf4jnsgd1na2vs0mg"},{"bike_id":"863bf980-0640-4edb-a117-5dac7c1857df","system_id":"levelo_inurba_marseille","lat":43.309371,"lon":5.401449,"is_reserved":false,"is_disabled":false,"rental_uris":{"android":"levelo://app?vid=863bf980-0640-4edb-a117-5dac7c1857df","ios":"levelo://app?vid=863bf980-0640-4edb-a117-5dac7c1857df"},"vehicle_type_id":"4","last_reported":1720120010,"current_range_meters":1600,"station_id":"ce4bgvp2rcd13ifvqct0","pricing_plan_id":"cebpf4jnsgd1na2vs0mg"},{"bike_id":"c949c5e6-9a6b-4387-bbc4-4da6fa420227","system_id":"levelo_inurba_marseille","lat":43.33755,"lon":5.37423,"is_reserved":false,"is_disabled":false,"rental_uris":{"android":"levelo://app?vid=c949c5e6-9a6b-4387-bbc4-4da6fa420227","ios":"levelo://app?vid=c949c5e6-9a6b-4387-bbc4-4da6fa420227"},"vehicle_type_id":"4","last_reported":1720120010,"current_range_meters":26000,"station_id":"","pricing_plan_id":"cebpf4jnsgd1na2vs0mg"},{"bike_id":"f7b90582-72ef-44b9-be3c-10965a5f20f8","system_id":"levelo_inurba_marseille","lat":43.337524,"lon":5.374469,"is_reserved":false,"is_disabled":false,"rental_uris":{"android":"levelo://app?vid=f7b90582-72ef-44b9-be3c-10965a5f20f8","ios":"levelo://app?vid=f7b90582-72ef-44b9-be3c-10965a5f20f8"},"vehicle_type_id":"4","last_reported":1720120010,"current_range_meters":25200,"station_id":"","pricing_plan_id":"cebpf4jnsgd1na2vs0mg"},{"bike_id":"81f0b4b4-cd1a-4b29-8763-5917889ed16c","system_id":"levelo_inurba_marseille","lat":43.309371,"lon":5.401449,"is_reserved":false,"is_disabled":false,"rental_uris":{"android":"levelo://app?vid=81f0b4b4-cd1a-4b29-8763-5917889ed16c","ios":"levelo://app?vid=81f0b4b4-cd1a-4b29-8763-5917889ed16c"},"vehicle_type_id":"4","last_reported":1720120010,"current_range_meters":10800,"station_id":"ce4bgvp2rcd13ifvqct0","pricing_plan_id":"cebpf4jnsgd1na2vs0mg"},{"bike_id":"52274915-6a0a-4647-8a82-6fe2280a5d34","system_id":"levelo_inurba_marseille","lat":43.309371,"lon":5.401449,"is_reserved":false,"is_disabled":false,"rental_uris":{"android":"levelo://app?vid=52274915-6a0a-4647-8a82-6fe2280a5d34","ios":"levelo://app?vid=52274915-6a0a-4647-8a82-6fe2280a5d34"},"vehicle_type_id":"4","last_reported":1720120010,"current_range_meters":8800,"station_id":"ce4bgvp2rcd13ifvqct0","pricing_plan_id":"cebpf4jnsgd1na2vs0mg"},{"bike_id":"268a261a-d7ab-409f-863b-7e797fa4522e","system_id":"levelo_inurba_marseille","lat":43.33756,"lon":5.37454,"is_reserved":false,"is_disabled":false,"rental_uris":{"android":"levelo://app?vid=268a261a-d7ab-409f-863b-7e797fa4522e","ios":"levelo://app?vid=268a261a-d7ab-409f-863b-7e797fa4522e"},"vehicle_type_id":"4","last_reported":1720120010,"current_range_meters":28800,"station_id":"","pricing_plan_id":"cebpf4jnsgd1na2vs0mg"},{"bike_id":"2d552ba8-a7c6-425a-b149-10d0d4d18252","system_id":"levelo_inurba_marseille","lat":43.33761,"lon":5.37438,"is_reserved":false,"is_disabled":false,"rental_uris":{"android":"levelo://app?vid=2d552ba8-a7c6-425a-b149-10d0d4d18252","ios":"levelo://app?vid=2d552ba8-a7c6-425a-b149-10d0d4d18252"},"vehicle_type_id":"4","last_reported":1720120010,"current_range_meters":10800,"station_id":"","pricing_plan_id":"cebpf4jnsgd1na2vs0mg"},{"bike_id":"95f91891-7abb-4bc1-ad3a-80dd3e134f8e","system_id":"levelo_inurba_marseille","lat":43.337607,"lon":5.374443,"is_reserved":false,"is_disabled":false,"rental_uris":{"android":"levelo://app?vid=95f91891-7abb-4bc1-ad3a-80dd3e134f8e","ios":"levelo://app?vid=95f91891-7abb-4bc1-ad3a-80dd3e134f8e"},"vehicle_type_id":"4","last_reported":1720120010,"current_range_meters":29600,"station_id":"","pricing_plan_id":"cebpf4jnsgd1na2vs0mg"},{"bike_id":"053346b1-70c3-4aa2-b952-e509b9391d16","system_id":"levelo_inurba_marseille","lat":43.33762,"lon":5.37438,"is_reserved":false,"is_disabled":false,"rental_uris":{"android":"levelo://app?vid=053346b1-70c3-4aa2-b952-e509b9391d16","ios":"levelo://app?vid=053346b1-70c3-4aa2-b952-e509b9391d16"},"vehicle_type_id":"4","last_reported":1720120010,"current_range_meters":19600,"station_id":"","pricing_plan_id":"cebpf4jnsgd1na2vs0mg"},{"bike_id":"d8b1e2be-dced-4fc9-9de1-299d47ee0a02","system_id":"levelo_inurba_marseille","lat":43.33761,"lon":5.37446,"is_reserved":false,"is_disabled":false,"rental_uris":{"android":"levelo://app?vid=d8b1e2be-dced-4fc9-9de1-299d47ee0a02","ios":"levelo://app?vid=d8b1e2be-dced-4fc9-9de1-299d47ee0a02"},"vehicle_type_id":"4","last_reported":1720120010,"current_range_meters":31200,"station_id":"","pricing_plan_id":"cebpf4jnsgd1na2vs0mg"},{"bike_id":"501d1471-018f-4f4f-a66e-4f356803d824","system_id":"levelo_inurba_marseille","lat":43.337619,"lon":5.374407,"is_reserved":false,"is_disabled":false,"rental_uris":{"android":"levelo://app?vid=501d1471-018f-4f4f-a66e-4f356803d824","ios":"levelo://app?vid=501d1471-018f-4f4f-a66e-4f356803d824"},"vehicle_type_id":"4","last_reported":1720120010,"current_range_meters":29600,"station_id":"","pricing_plan_id":"cebpf4jnsgd1na2vs0mg"},{"bike_id":"74b0e430-9ed5-4ca4-ae5f-95447d28f904","system_id":"levelo_inurba_marseille","lat":43.337607,"lon":5.37449,"is_reserved":false,"is_disabled":false,"rental_uris":{"android":"levelo://app?vid=74b0e430-9ed5-4ca4-ae5f-95447d28f904","ios":"levelo://app?vid=74b0e430-9ed5-4ca4-ae5f-95447d28f904"},"vehicle_type_id":"4","last_reported":1720120010,"current_range_meters":27600,"station_id":"","pricing_plan_id":"cebpf4jnsgd1na2vs0mg"},{"bike_id":"7521861a-977e-43b8-b3b8-9252f5f41b26","system_id":"levelo_inurba_marseille","lat":43.33763,"lon":5.37435,"is_reserved":false,"is_disabled":false,"rental_uris":{"android":"levelo://app?vid=7521861a-977e-43b8-b3b8-9252f5f41b26","ios":"levelo://app?vid=7521861a-977e-43b8-b3b8-9252f5f41b26"},"vehicle_type_id":"4","last_reported":1720120010,"current_range_meters":29200,"station_id":"","pricing_plan_id":"cebpf4jnsgd1na2vs0mg"},{"bike_id":"3bd92717-40ae-4dd8-88f8-c809a275b478","system_id":"levelo_inurba_marseille","lat":43.33761,"lon":5.374565,"is_reserved":false,"is_disabled":false,"rental_uris":{"android":"levelo://app?vid=3bd92717-40ae-4dd8-88f8-c809a275b478","ios":"levelo://app?vid=3bd92717-40ae-4dd8-88f8-c809a275b478"},"vehicle_type_id":"4","last_reported":1720120010,"current_range_meters":26800,"station_id":"","pricing_plan_id":"cebpf4jnsgd1na2vs0mg"},{"bike_id":"e4109c4a-d7a2-4ed6-afc8-242d11ff39ac","system_id":"levelo_inurba_marseille","lat":43.33763,"lon":5.374451,"is_reserved":false,"is_disabled":false,"rental_uris":{"android":"levelo://app?vid=e4109c4a-d7a2-4ed6-afc8-242d11ff39ac","ios":"levelo://app?vid=e4109c4a-d7a2-4ed6-afc8-242d11ff39ac"},"vehicle_type_id":"4","last_reported":1720120010,"current_range_meters":30400,"station_id":"","pricing_plan_id":"cebpf4jnsgd1na2vs0mg"},{"bike_id":"42f67f08-8e3a-4411-8138-adef5d593281","system_id":"levelo_inurba_marseille","lat":43.30642,"lon":5.401031,"is_reserved":false,"is_disabled":false,"rental_uris":{"android":"levelo://app?vid=42f67f08-8e3a-4411-8138-adef5d593281","ios":"levelo://app?vid=42f67f08-8e3a-4411-8138-adef5d593281"},"vehicle_type_id":"4","last_reported":1720120010,"current_range_meters":16000,"station_id":"ce4bh112rcd13ifvqda0","pricing_plan_id":"cebpf4jnsgd1na2vs0mg"},{"bike_id":"935ec80d-3901-44ba-926a-6ecf5b46cb6b","system_id":"levelo_inurba_marseille","lat":43.33757,"lon":5.37488,"is_reserved":false,"is_disabled":false,"rental_uris":{"android":"levelo://app?vid=935ec80d-3901-44ba-926a-6ecf5b46cb6b","ios":"levelo://app?vid=935ec80d-3901-44ba-926a-6ecf5b46cb6b"},"vehicle_type_id":"4","last_reported":1720120010,"current_range_meters":28800,"station_id":"","pricing_plan_id":"cebpf4jnsgd1na2vs0mg"},{"bike_id":"c5b8a15c-beee-4e49-a1f8-75c22c4db605","system_id":"levelo_inurba_marseille","lat":43.337643,"lon":5.374439,"is_reserved":false,"is_disabled":false,"rental_uris":{"android":"levelo://app?vid=c5b8a15c-beee-4e49-a1f8-75c22c4db605","ios":"levelo://app?vid=c5b8a15c-beee-4e49-a1f8-75c22c4db605"},"vehicle_type_id":"4","last_reported":1720120010,"current_range_meters":29600,"station_id":"","pricing_plan_id":"cebpf4jnsgd1na2vs0mg"},{"bike_id":"7774f6c3-c956-414c-8e2c-82dbb18a916a","system_id":"levelo_inurba_marseille","lat":43.337637,"lon":5.37448,"is_reserved":false,"is_disabled":false,"rental_uris":{"android":"levelo://app?vid=7774f6c3-c956-414c-8e2c-82dbb18a916a","ios":"levelo://app?vid=7774f6c3-c956-414c-8e2c-82dbb18a916a"},"vehicle_type_id":"4","last_reported":1720120010,"current_range_meters":8800,"station_id":"","pricing_plan_id":"cebpf4jnsgd1na2vs0mg"},