{"last_updated":1758550278,"ttl":60,"version":"2.2","data":{"bikes":[{"bike_id":"fcb3f6af-c7d4-4ccc-be82-7f951e8865a2","system_id":"levelo_inurba_marseille","lat":43.211992,"lon":5.350656,"is_reserved":false,"is_disabled":false,"rental_uris":{"android":"levelo://app?vid=fcb3f6af-c7d4-4ccc-be82-7f951e8865a2","ios":"levelo://app?vid=fcb3f6af-c7d4-4ccc-be82-7f951e8865a2"},"vehicle_type_id":"4","last_reported":1758550278,"current_range_meters":2800,"station_id":"st_cvj6sg6p6f1abm77japg","pricing_plan_id":"cebpf4jnsgd1na2vs0mg"},{"bike_id":"617dca4b-4508-4d52-9e62-d583d919ac44","system_id":"levelo_inurba_marseille","lat":43.297401,"lon":5.371216,"is_reserved":false,"is_disabled":false,"rental_uris":{"android":"levelo://app?vid=617dca4b-4508-4d52-9e62-d583d919ac44","ios":"levelo://app?vid=617dca4b-4508-4d52-9e62-d583d919ac44"},"vehicle_type_id":"4","last_reported":1758550278,"current_range_meters":2800,"station_id":"","pricing_plan_id":"cebpf4jnsgd1na2vs0mg"},{"bike_id":"477ba137-cf6b-454a-b9c6-5328cde469ea","system_id":"levelo_inurba_marseille","lat":43.3116,"lon":5.38719,"is_reserved":false,"is_disabled":false,"rental_uris":{"android":"levelo://app?vid=477ba137-cf6b-454a-b9c6-5328cde469ea","ios":"levelo://app?vid=477ba137-cf6b-454a-b9c6-5328cde469ea"},"vehicle_type_id":"4","last_reported":1758550278,"current_range_meters":2800,"station_id":"ce4bgv12rcd13ifvqcp0","pricing_plan_id":"cebpf4jnsgd1na2vs0mg"},{"bike_id":"7f8546b1-b73b-4ae1-8e17-ca39446c0ce8","system_id":"levelo_inurba_marseille","lat":43.26026,"lon":5.37571,"is_reserved":false,"is_disabled":false,"rental_uris":{"android":"levelo://app?vid=7f8546b1-b73b-4ae1-8e17-ca39446c0ce8","ios":"levelo://app?vid=7f8546b1-b73b-4ae1-8e17-ca39446c0ce8"},"vehicle_type_id":"4","last_reported":1758550278,"current_range_meters":3200,"station_id":"ce4bhgh2rcd13ifvqfa0","pricing_plan_id":"cebpf4jnsgd1na2vs0mg"},{"bike_id":"4355c610-d384-40c3-9eed-2026ae698a31","system_id":"levelo_inurba_marseille","lat":43.29553,"lon":5.42286,"is_reserved":false,"is_disabled":false,"rental_uris":{"android":"levelo://app?vid=4355c610-d384-40c3-9eed-2026ae698a31","ios":"levelo://app?vid=4355c610-d384-40c3-9eed-2026ae698a31"},"vehicle_type_id":"4","last_reported":1758550278,"current_range_meters":3200,"station_id":"ce4bhph2rcd13ifvqhdg","pricing_plan_id":"cebpf4jnsgd1na2vs0mg"},{"bike_id":"488a8dcc-368d-403e-9456-bf1a5cf96bfd","system_id":"levelo_inurba_marseille","lat":43.21186,"lon":5.35072,"is_reserved":false,"is_disabled":false,"rental_uris":{"android":"levelo://app?vid=488a8dcc-368d-403e-9456-bf1a5cf96bfd","ios":"levelo://app?vid=488a8dcc-368d-403e-9456-bf1a5cf96bfd"},"vehicle_type_id":"4","last_reported":1758550278,"current_range_meters":3200,"station_id":"st_cvj6sg6p6f1abm77japg","pricing_plan_id":"cebpf4jnsgd1na2vs0mg"},{"bike_id":"92d7345a-cafb-4b42-99c3-30300ef854f3","system_id":"levelo_inurba_marseille","lat":43.31709,"lon":5.43704,"is_reserved":false,"is_disabled":false,"rental_uris":{"android":"levelo://app?vid=92d7345a-cafb-4b42-99c3-30300ef854f3","ios":"levelo://app?vid=92d7345a-cafb-4b42-99c3-30300ef854f3"},"vehicle_type_id":"4","last_reported":1758550278,"current_range_meters":3200,"station_id":"ce4bhp92rcd13ifvqhcg","pricing_plan_id":"cebpf4jnsgd1na2vs0mg"},{"bike_id":"4512762c-7bbd-4b62-bfc7-55991820b69e","system_id":"levelo_inurba_marseille","lat":43.279,"lon":5.37996,"is_reserved":false,"is_disabled":false,"rental_uris":{"android":"levelo://app?vid=4512762c-7bbd-4b62-bfc7-55991820b69e","ios":"levelo://app?vid=4512762c-7bbd-4b62-bfc7-55991820b69e"},"vehicle_type_id":"4","last_reported":1758550278,"current_range_meters":3200,"station_id":"ce4bhf92rcd13ifvqf50","pricing_plan_id":"cebpf4jnsgd1na2vs0mg"},{"bike_id":"cc1f29d1-1836-42b0-98cc-ba65dc08876b","system_id":"levelo_inurba_marseille","lat":43.29567,"lon":5.39981,"is_reserved":false,"is_disabled":false,"rental_uris":{"android":"levelo://app?vid=cc1f29d1-1836-42b0-98cc-ba65dc08876b","ios":"levelo://app?vid=cc1f29d1-1836-42b0-98cc-ba65dc08876b"},"vehicle_type_id":"4","last_reported":1758550278,"current_range_meters":3600,"station_id":"ce4bh312rcd13ifvqdj0","pricing_plan_id":"cebpf4jnsgd1na2vs0mg"},{"bike_id":"d7c25918-4ee2-4f07-aafe-045313861472","system_id":"levelo_inurba_marseille","lat":43.27438,"lon":5.36118,"is_reserved":false,"is_disabled":false,"rental_uris":{"android":"levelo://app?vid=d7c25918-4ee2-4f07-aafe-045313861472","ios":"levelo://app?vid=d7c25918-4ee2-4f07-aafe-045313861472"},"vehicle_type_id":"4","last_reported":1758550278,"current_range_meters":3600,"station_id":"","pricing_plan_id":"cebpf4jnsgd1na2vs0mg"},{"bike_id":"1464cc56-b494-44ed-8a0e-cefcea0dcf88","system_id":"levelo_inurba_marseille","lat":43.32333,"lon":5.4062,"is_reserved":false,"is_disabled":false,"rental_uris":{"android":"levelo://app?vid=1464cc56-b494-44ed-8a0e-cefcea0dcf88","ios":"levelo://app?vid=1464cc56-b494-44ed-8a0e-cefcea0dcf88"},"vehicle_type_id":"4","last_reported":1758550278,"current_range_meters":3600,"station_id":"ce4bhq92rcd13ifvqhjg","pricing_plan_id":"cebpf4jnsgd1na2vs0mg"},{"bike_id":"7f644e31-f0dc-42f7-b9ed-5ab061b9dd36","system_id":"levelo_inurba_marseille","lat":43.30931,"lon":5.40126,"is_reserved":false,"is_disabled":false,"rental_uris":{"android":"levelo://app?vid=7f644e31-f0dc-42f7-b9ed-5ab061b9dd36","ios":"levelo://app?vid=7f644e31-f0dc-42f7-b9ed-5ab061b9dd36"},"vehicle_type_id":"4","last_reported":1758550278,"current_range_meters":3600,"station_id":"ce4bgvp2rcd13ifvqct0","pricing_plan_id":"cebpf4jnsgd1na2vs0mg"},{"bike_id":"a7072187-4487-4352-b422-3906f83c0b5d","system_id":"levelo_inurba_marseille","lat":43.28273,"lon":5.35074,"is_reserved":false,"is_disabled":false,"rental_uris":{"android":"levelo://app?vid=a7072187-4487-4352-b422-3906f83c0b5d","ios":"levelo://app?vid=a7072187-4487-4352-b422-3906f83c0b5d"},"vehicle_type_id":"4","last_reported":1758550278,"current_range_meters":3600,"station_id":"ce4bhbp2rcd13ifvqerg","pricing_plan_id":"cebpf4jnsgd1na2vs0mg"},{"bike_id":"0f7caa9f-1d1a-40d7-9b4a-2f8720e63681","system_id":"levelo_inurba_marseille","lat":43.308424,"lon":5.375811,"is_reserved":false,"is_disabled":false,"rental_uris":{"android":"levelo://app?vid=0f7caa9f-1d1a-40d7-9b4a-2f8720e63681","ios":"levelo://app?vid=0f7caa9f-1d1a-40d7-9b4a-2f8720e63681"},"vehicle_type_id":"4","last_reported":1758550278,"current_range_meters":4000,"station_id":"","pricing_plan_id":"cebpf4jnsgd1na2vs0mg"},{"bike_id":"76c084e4-b00e-4197-b955-5e8b92c7c2ea","system_id":"levelo_inurba_marseille","lat":43.29039,"lon":5.35914,"is_reserved":false,"is_disabled":false,"rental_uris":{"android":"levelo://app?vid=76c084e4-b00e-4197-b955-5e8b92c7c2ea","ios":"levelo://app?vid=76c084e4-b00e-4197-b955-5e8b92c7c2ea"},"vehicle_type_id":"4","last_reported":1758550278,"current_range_meters":3600,"station_id":"ce4bha92rcd13ifvqeg0","pricing_plan_id":"cebpf4jnsgd1na2vs0mg"},{"bike_id":"f9e6947b-cf35-44c7-b1f5-6d96d76da62b","system_id":"levelo_inurba_marseille","lat":43.269542,"lon":5.386252,"is_reserved":false,"is_disabled":false,"rental_uris":{"android":"levelo://app?vid=f9e6947b-cf35-44c7-b1f5-6d96d76da62b","ios":"levelo://app?vid=f9e6947b-cf35-44c7-b1f5-6d96d76da62b"},"vehicle_type_id":"4","last_reported":1758550278,"current_range_meters":4000,"station_id":"ce4bhh92rcd13ifvqfh0","pricing_plan_id":"cebpf4jnsgd1na2vs0mg"},{"bike_id":"345961fe-e704-47e0-942b-c393e7c0075d","system_id":"levelo_inurba_marseille","lat":43.29298,"lon":5.37456,"is_reserved":false,"is_disabled":false,"rental_uris":{"android":"levelo://app?vid=345961fe-e704-47e0-942b-c393e7c0075d","ios":"levelo://app?vid=345961fe-e704-47e0-942b-c393e7c0075d"},"vehicle_type_id":"4","last_reported":1758550278,"current_range_meters":4000,"station_id":"ce4bgi12rcd13ifvqb70","pricing_plan_id":"cebpf4jnsgd1na2vs0mg"},{"bike_id":"7e39f761-0fe4-4eb9-8592-5744db05ea96","system_id":"levelo_inurba_marseille","lat":43.308988,"lon":5.371994,"is_reserved":false,"is_disabled":false,"rental_uris":{"android":"levelo://app?vid=7e39f761-0fe4-4eb9-8592-5744db05ea96","ios":"levelo://app?vid=7e39f761-0fe4-4eb9-8592-5744db05ea96"},"vehicle_type_id":"4","last_reported":1758550278,"current_range_meters":4000,"station_id":"ce4bguh2rcd13ifvqckg","pricing_plan_id":"cebpf4jnsgd1na2vs0mg"},{"bike_id":"00076d5a-06f5-45af-8c55-5d9c8b8764d7","system_id":"levelo_inurba_marseille","lat":43.26564,"lon":5.39,"is_reserved":false,"is_disabled":false,"rental_uris":{"android":"levelo://app?vid=00076d5a-06f5-45af-8c55-5d9c8b8764d7","ios":"levelo://app?vid=00076d5a-06f5-45af-8c55-5d9c8b8764d7"},"vehicle_type_id":"4","last_reported":1758550278,"current_range_meters":4400,"station_id":"ce4bhe12rcd13ifvqf30","pricing_plan_id":"cebpf4jnsgd1na2vs0mg"},{"bike_id":"d03d2122-82c2-4380-9a1b-4bb17bb01ccf","system_id":"levelo_inurba_marseille","lat":43.2767,"lon":5.38869,"is_reserved":false,"is_disabled":false,"rental_uris":{"android":"levelo://app?vid=d03d2122-82c2-4380-9a1b-4bb17bb01ccf","ios":"levelo://app?vid=d03d2122-82c2-4380-9a1b-4bb17bb01ccf"},"vehicle_type_id":"4","last_reported":1758550278,"current_range_meters":4000,"station_id":"ce4bhi12rcd13ifvqfo0","pricing_plan_id":"cebpf4jnsgd1na2vs0mg"},{"bike_id":"a6351dbc-b9f2-47b8-b897-4832bd123808","system_id":"levelo_inurba_marseille","lat":43.32109,"lon":5.36767,"is_reserved":false,"is_disabled":false,"rental_uris":{"android":"levelo://app?vid=a6351dbc-b9f2-47b8-b897-4832bd123808","ios":"levelo://app?vid=a6351dbc-b9f2-47b8-b897-4832bd123808"},"vehicle_type_id":"4","last_reported":1758550278,"current_range_meters":4800,"station_id":"ce4bhrh2rcd13ifvqhug","pricing_plan_id":"cebpf4jnsgd1na2vs0mg"},{"bike_id":"305e5009-7e1e-4f2a-aa54-2ac87d5a15f1","system_id":"levelo_inurba_marseille","lat":43.28416,"lon":5.34975,"is_reserved":false,"is_disabled":false,"rental_uris":{"android":"levelo://app?vid=305e5009-7e1e-4f2a-aa54-2ac87d5a15f1","ios":"levelo://app?vid=305e5009-7e1e-4f2a-aa54-2ac87d5a15f1"},"vehicle_type_id":"4","last_reported":1758550278,"current_range_meters":4800,"station_id":"ce4bhbh2rcd13ifvqepg","pricing_plan_id":"cebpf4jnsgd1na2vs0mg"},{"bike_id":"c1843d42-9f15-4235-8c7f-0c60147cb155","system_id":"levelo_inurba_marseille","lat":43.211965,"lon":5.350669,"is_reserved":false,"is_disabled":false,"rental_uris":{"android":"levelo://app?vid=c1843d42-9f15-4235-8c7f-0c60147cb155","ios":"levelo://app?vid=c1843d42-9f15-4235-8c7f-0c60147cb155"},"vehicle_type_id":"4","last_reported":1758550278,"current_range_meters":4800,"station_id":"st_cvj6sg6p6f1abm77japg","pricing_plan_id":"cebpf4jnsgd1na2vs0mg"},{"bike_id":"852c48bb-4155-4b4a-8d59-82ecac63be81","system_id":"levelo_inurba_marseille","lat":43.30165,"lon":5.38049,"is_reserved":false,"is_disabled":false,"rental_uris":{"android":"levelo://app?vid=852c48bb-4155-4b4a-8d59-82ecac63be81","ios":"levelo://app?vid=852c48bb-4155-4b4a-8d59-82ecac63be81"},"vehicle_type_id":"4","last_reported":1758550278,"current_range_meters":4800,"station_id":"ce4bgjp2rcd13ifvqbh0","pricing_plan_id":"cebpf4jnsgd1na2vs0mg"},{"bike_id":"4ab19df5-86ca-4a12-b44c-ea7115bcc09a","system_id":"levelo_inurba_marseille","lat":43.23961,"lon":5.36632,"is_reserved":false,"is_disabled":false,"rental_uris":{"android":"levelo://app?vid=4ab19df5-86ca-4a12-b44c-ea7115bcc09a","ios":"levelo://app?vid=4ab19df5-86ca-4a12-b44c-ea7115bcc09a"},"vehicle_type_id":"4","last_reported":1758550278,"current_range_meters":5600,"station_id":"ce4bhi12rcd13ifvqfp0","pricing_plan_id":"cebpf4jnsgd1na2vs0mg"},{"bike_id":"a07a513e-e5a9-4481-8592-d991379bc662","system_id":"levelo_inurba_marseille","lat":43.337536,"lon":5.374536,"is_reserved":false,"is_disabled":false,"rental_uris":{"android":"levelo://app?vid=a07a513e-e5a9-4481-8592-d991379bc662","ios":"levelo://app?vid=a07a513e-e5a9-4481-8592-d991379bc662"},"vehicle_type_id":"4","last_reported":1758550278,"current_range_meters":5600,"station_id":"","pricing_plan_id":"cebpf4jnsgd1na2vs0mg"},{"bike_id":"99aaf21c-6567-4828-b7e3-2d51814eb73d","system_id":"levelo_inurba_marseille","lat":43.30205,"lon":5.39478,"is_reserved":false,"is_disabled":false,"rental_uris":{"android":"levelo://app?vid=99aaf21c-6567-4828-b7e3-2d51814eb73d","ios":"levelo://app?vid=99aaf21c-6567-4828-b7e3-2d51814eb73d"},"vehicle_type_id":"4","last_reported":1758550278,"current_range_meters":6000,"station_id":"ce4bh0p2rcd13ifvqd70","pricing_plan_id":"cebpf4jnsgd1na2vs0mg"},{"bike_id":"a433c60d-6f8d-4ebf-8abc-6dd34db807cc","system_id":"levelo_inurba_marseille","lat":43.31321,"lon":5.39694,"is_reserved":false,"is_disabled":false,"rental_uris":{"android":"levelo://app?vid=a433c60d-6f8d-4ebf-8abc-6dd34db807cc","ios":"levelo://app?vid=a433c60d-6f8d-4ebf-8abc-6dd34db807cc"},"vehicle_type_id":"4","last_reported":1758550278,"current_range_meters":5600,"station_id":"ce4bgvp2rcd13ifvqcu0","pricing_plan_id":"cebpf4jnsgd1na2vs0mg"},{"bike_id":"9129be9c-2808-4e06-b498-83586287b0d9","system_id":"levelo_inurba_marseille","lat":43.29619,"lon":5.37159,"is_reserved":false,"is_disabled":false,"rental_uris":{"android":"levelo://app?vid=9129be9c-2808-4e06-b498-83586287b0d9","ios":"levelo://app?vid=9129be9c-2808-4e06-b498-83586287b0d9"},"vehicle_type_id":"4","last_reported":1758550278,"current_range_meters":6000,"station_id":"ce4bgnh2rcd13ifvqc0g","pricing_plan_id":"cebpf4jnsgd1na2vs0mg"},{"bike_id":"213f818a-2fc2-423a-8734-2921a1895f7c","system_id":"levelo_inurba_marseille","lat":43.21184,"lon":5.35073,"is_reserved":false,"is_disabled":false,"rental_uris":{"android":"levelo://app?vid=213f818a-2fc2-423a-8734-2921a1895f7c","ios":"levelo://app?vid=213f818a-2fc2-423a-8734-2921a1895f7c"},"vehicle_type_id":"4","last_reported":1758550278,"current_range_meters":6400,"station_id":"st_cvj6sg6p6f1abm77japg","pricing_plan_id":"cebpf4jnsgd1na2vs0mg"},{"bike_id":"9c2996b7-a4f5-4bed-945b-f9e0be6f15fc","system_id":"levelo_inurba_marseille","lat":43.28415,"lon":5.34986,"is_reserved":false,"is_disabled":false,"rental_uris":{"android":"levelo://app?vid=9c2996b7-a4f5-4bed-945b-f9e0be6f15fc","ios":"levelo://app?vid=9c2996b7-a4f5-4bed-945b-f9e0be6f15fc"},"vehicle_type_id":"4","last_reported":1758550278,"current_range_meters":6400,"station_id":"ce4bhbh2rcd13ifvqepg","pricing_plan_id":"cebpf4jnsgd1na2vs0mg"},{"bike_id":"2289a0ff-9c3e-4f79-ad38-4b41158d6057","system_id":"levelo_inurba_marseille","lat":43.29882,"lon":5.37911,"is_reserved":false,"is_disabled":false,"rental_uris":{"android":"levelo://app?vid=2289a0ff-9c3e-4f79-ad38-4b41158d6057","ios":"levelo://app?vid=2289a0ff-9c3e-4f79-ad38-4b41158d6057"},"vehicle_type_id":"4","last_reported":1758550278,"current_range_meters":6400,"station_id":"","pricing_plan_id":"cebpf4jnsgd1na2vs0mg"},{"bike_id":"b243c188-09a0-4a4d-97e4-89ffd4adf024","system_id":"levelo_inurba_marseille","lat":43.32476,"lon":5.36563,"is_reserved":false,"is_disabled":false,"rental_uris":{"android":"levelo://app?vid=b243c188-09a0-4a4d-97e4-89ffd4adf024","ios":"levelo://app?vid=b243c188-09a0-4a4d-97e4-89ffd4adf024"},"vehicle_type_id":"4","last_reported":1758550278,"current_range_meters":6400,"station_id":"ce4bhs12rcd13ifvqhvg","pricing_plan_id":"cebpf4jnsgd1na2vs0mg"},{"bike_id":"55d1bc08-fd54-4a82-afc7-2adcaa7b1c4e","system_id":"levelo_inurba_marseille","lat":43.30034,"lon":5.3768,"is_reserved":false,"is_disabled":false,"rental_uris":{"android":"levelo://app?vid=55d1bc08-fd54-4a82-afc7-2adcaa7b1c4e","ios":"levelo://app?vid=55d1bc08-fd54-4a82-afc7-2adcaa7b1c4e"},"vehicle_type_id":"4","last_reported":1758550278,"current_range_meters":6800,"station_id":"","pricing_plan_id":"cebpf4jnsgd1na2vs0mg"},{"bike_id":"d1c930dd-155e-413b-a518-66f7bc3f37cd","system_id":"levelo_inurba_marseille","lat":43.217512,"lon":5.346027,"is_reserved":false,"is_disabled":false,"rental_uris":{"android":"levelo://app?vid=d1c930dd-155e-413b-a518-66f7bc3f37cd","ios":"levelo://app?vid=d1c930dd-155e-413b-a518-66f7bc3f37cd"},"vehicle_type_id":"4","last_reported":1758550278,"current_range_meters":6800,"station_id":"st_cvj6r9ubvosntc0bgbag","pricing_plan_id":"cebpf4jnsgd1na2vs0mg"},{"bike_id":"2015c1f2-c286-408a-b930-50d865ce0bb9","system_id":"levelo_inurba_marseille","lat":43.21197,"lon":5.35069,"is_reserved":false,"is_disabled":false,"rental_uris":{"android":"levelo://app?vid=2015c1f2-c286-408a-b930-50d865ce0bb9","ios":"levelo://app?vid=2015c1f2-c286-408a-b930-50d865ce0bb9"},"vehicle_type_id":"4","last_reported":1758550278,"current_range_meters":6800,"station_id":"st_cvj6sg6p6f1abm77japg","pricing_plan_id":"cebpf4jnsgd1na2vs0mg"},{"bike_id":"4eb51f3d-147b-4cbf-b4c4-a6400fd444ed","system_id":"levelo_inurba_marseille","lat":43.29293,"lon":5.37461,"is_reserved":false,"is_disabled":false,"rental_uris":{"android":"levelo://app?vid=4eb51f3d-147b-4cbf-b4c4-a6400fd444ed","ios":"levelo://app?vid=4eb51f3d-147b-4cbf-b4c4-a6400fd444ed"},"vehicle_type_id":"4","last_reported":1758550278,"current_range_meters":7200,"station_id":"ce4bgi12rcd13ifvqb70","pricing_plan_id":"cebpf4jnsgd1na2vs0mg"},{"bike_id":"6fb1eda2-7a25-42e4-a6c7-3f05122f7c14","system_id":"levelo_inurba_marseille","lat":43.29798,"lon":5.38106,"is_reserved":false,"is_disabled":false,"rental_uris":{"android":"levelo://app?vid=6fb1eda2-7a25-42e4-a6c7-3f05122f7c14","ios":"levelo://app?vid=6fb1eda2-7a25-42e4-a6c7-3f05122f7c14"},"vehicle_type_id":"4","last_reported":1758550278,"current_range_meters":7200,"station_id":"ce4bgip2rcd13ifvqbb0","pricing_plan_id":"cebpf4jnsgd1na2vs0mg"},{"bike_id":"4fa50408-98f8-45a9-a8d2-2f2b97729674","system_id":"levelo_inurba_marseille","lat":43.29227,"lon":5.36073,"is_reserved":false,"is_disabled":false,"rental_uris":{"android":"levelo://app?vid=4fa50408-98f8-45a9-a8d2-2f2b97729674","ios":"levelo://app?vid=4fa50408-98f8-45a9-a8d2-2f2b97729674"},"vehicle_type_id":"4","last_reported":1758550278,"current_range_meters":7200,"station_id":"ce4bhbh2rcd13ifvqeqg","pricing_plan_id":"cebpf4jnsgd1na2vs0mg"},{"bike_id":"68adab37-f5ad-4072-b58a-fe6c68285ca6","system_id":"levelo_inurba_marseille","lat":43.30615,"lon":5.37656,"is_reserved":false,"is_disabled":false,"rental_uris":{"android":"levelo://app?vid=68adab37-f5ad-4072-b58a-fe6c68285ca6","ios":"levelo://app?vid=68adab37-f5ad-4072-b58a-fe6c68285ca6"},"vehicle_type_id":"4","last_reported":1758550278,"current_range_meters":7200,"station_id":"","pricing_plan_id":"cebpf4jnsgd1na2vs0mg"},{"bike_id":"5319fae8-be79-4d87-b5d0-b333eba32d6a","system_id":"levelo_inurba_marseille","lat":43.21182,"lon":5.35071,"is_reserved":false,"is_disabled":false,"rental_uris":{"android":"levelo://app?vid=5319fae8-be79-4d87-b5d0-b333eba32d6a","ios":"levelo://app?vid=5319fae8-be79-4d87-b5d0-b333eba32d6a"},"vehicle_type_id":"4","last_reported":1758550278,"current_range_meters":7200,"station_id":"st_cvj6sg6p6f1abm77japg","pricing_plan_id":"cebpf4jnsgd1na2vs0mg"},{"bike_id":"8ee20c93-70f7-410f-a68e-34639f0d48bc","system_id":"levelo_inurba_marseille","lat":43.284329,"lon":5.392,"is_reserved":false,"is_disabled":false,"rental_uris":{"android":"levelo://app?vid=8ee20c93-70f7-410f-a68e-34639f0d48bc","ios":"levelo://app?vid=8ee20c93-70f7-410f-a68e-34639f0d48bc"},"vehicle_type_id":"4","last_reported":1758550278,"current_range_meters":6800,"station_id":"ce4bhoh2rcd13ifvqh5g","pricing_plan_id":"cebpf4jnsgd1na2vs0mg"},{"bike_id":"e4b2d285-3bf6-4185-8d37-b97547330ac4","system_id":"levelo_inurba_marseille","lat":43.296153,"lon":5.381161,"is_reserved":false,"is_disabled":false,"rental_uris":{"android":"levelo://app?vid=e4b2d285-3bf6-4185-8d37-b97547330ac4","ios":"levelo://app?vid=e4b2d285-3bf6-4185-8d37-b97547330ac4"},"vehicle_type_id":"4","last_reported":1758550278,"current_range_meters":7200,"station_id":"ce4bgl12rcd13ifvqbo0","pricing_plan_id":"cebpf4jnsgd1na2vs0mg"},{"bike_id":"52769905-1974-4a15-870d-166eb9d05a52","system_id":"levelo_inurba_marseille","lat":43.26563,"lon":5.3899,"is_reserved":false,"is_disabled":false,"rental_uris":{"android":"levelo://app?vid=52769905-1974-4a15-870d-166eb9d05a52","ios":"levelo://app?vid=52769905-1974-4a15-870d-166eb9d05a52"},"vehicle_type_id":"4","last_reported":1758550278,"current_range_meters":7200,"station_id":"ce4bhe12rcd13ifvqf30","pricing_plan_id":"cebpf4jnsgd1na2vs0mg"},{"bike_id":"84fb865d-b27a-400f-b195-08469b75771e","system_id":"levelo_inurba_marseille","lat":43.30907,"lon":5.36845,"is_reserved":false,"is_disabled":false,"rental_uris":{"android":"levelo://app?vid=84fb865d-b27a-400f-b195-08469b75771e","ios":"levelo://app?vid=84fb865d-b27a-400f-b195-08469b75771e"},"vehicle_type_id":"4","last_reported":1758550278,"current_range_meters":7200,"station_id":"ce4bgn92rcd13ifvqbvg","pricing_plan_id":"cebpf4jnsgd1na2vs0mg"},{"bike_id":"7afb9d7f-3a19-445b-b750-cf033a432046","system_id":"levelo_inurba_marseille","lat":43.25488,"lon":5.3765,"is_reserved":false,"is_disabled":false,"rental_uris":{"android":"levelo://app?vid=7afb9d7f-3a19-445b-b750-cf033a432046","ios":"levelo://app?vid=7afb9d7f-3a19-445b-b750-cf033a432046"},"vehicle_type_id":"4","last_reported":1758550278,"current_range_meters":7200,"station_id":"ce4bhh12rcd13ifvqff0","pricing_plan_id":"cebpf4jnsgd1na2vs0mg"},{"bike_id":"59e4fbc8-58d7-4b5b-be6b-596aae423ca4","system_id":"levelo_inurba_marseille","lat":43.30783,"lon":5.37647,"is_reserved":false,"is_disabled":false,"rental_uris":{"android":"levelo://app?vid=59e4fbc8-58d7-4b5b-be6b-596aae423ca4","ios":"levelo://app?vid=59e4fbc8-58d7-4b5b-be6b-596aae423ca4"},"vehicle_type_id":"4","last_reported":1758550278,"current_range_meters":8000,"station_id":"ce4bgv92rcd13ifvqcq0","pricing_plan_id":"cebpf4jnsgd1na2vs0mg"},{"bike_id":"7436bdf4-791e-4f4d-8de4-d740888e1816","system_id":"levelo_inurba_marseille","lat":43.304474,"lon":5.378945,"is_reserved":false,"is_disabled":false,"rental_uris":{"android":"levelo://app?vid=7436bdf4-791e-4f4d-8de4-d740888e1816","ios":"levelo://app?vid=7436bdf4-791e-4f4d-8de4-d740888e1816"},"vehicle_type_id":"4","last_reported":1758550278,"current_range_meters":7200,"station_id":"ce4bgup2rcd13ifvqcn0","pricing_plan_id":"cebpf4jnsgd1na2vs0mg"},{"bike_id":"fe1e9a64-2961-49c1-9c7b-1aadcdfc929b","system_id":"levelo_inurba_marseille","lat":43.30905,"lon":5.3684,"is_reserved":false,"is_disabled":false,"rental_uris":{"android":"levelo://app?vid=fe1e9a64-2961-49c1-9c7b-1aadcdfc929b","ios":"levelo://app?vid=fe1e9a64-2961-49c1-9c7b-1aadcdfc929b"},"vehicle_type_id":"4","last_reported":1758550278,"current_range_meters":8000,"station_id":"ce4bgn92rcd13ifvqbvg","pricing_plan_id":"cebpf4jnsgd1na2vs0mg"},{"bike_id":"525ed2b1-0e3a-4c9c-b9c5-24418d55753a","system_id":"levelo_inurba_marseille","lat":43.28848,"lon":5.3932,"is_reserved":false,"is_disabled":false,"rental_uris":{"android":"levelo://app?vid=525ed2b1-0e3a-4c9c-b9c5-24418d55753a","ios":"levelo://app?vid=525ed2b1-0e3a-4c9c-b9c5-24418d55753a"},"vehicle_type_id":"4","last_reported":1758550278,"current_range_meters":7200,"station_id":"ce4bh2p2rcd13ifvqdi0","pricing_plan_id":"cebpf4jnsgd1na2vs0mg"},{"bike_id":"dc16fe0c-d4a8-4881-bbe4-0421e16be95c","system_id":"levelo_inurba_marseille","lat":43.29594,"lon":5.38088,"is_reserved":false,"is_disabled":false,"rental_uris":{"android":"levelo://app?vid=dc16fe0c-d4a8-4881-bbe4-0421e16be95c","ios":"levelo://app?vid=dc16fe0c-d4a8-4881-bbe4-0421e16be95c"},"vehicle_type_id":"4","last_reported":1758550278,"current_range_meters":8400,"station_id":"ce4bgl12rcd13ifvqbo0","pricing_plan_id":"cebpf4jnsgd1na2vs0mg"},{"bike_id":"8dc15938-e750-4d5b-bea5-081a3b18b9a9","system_id":"levelo_inurba_marseille","lat":43.29261,"lon":5.3844,"is_reserved":false,"is_disabled":false,"rental_uris":{"android":"levelo://app?vid=8dc15938-e750-4d5b-bea5-081a3b18b9a9","ios":"levelo://app?vid=8dc15938-e750-4d5b-bea5-081a3b18b9a9"},"vehicle_type_id":"4","last_reported":1758550278,"current_range_meters":6400,"station_id":"ce4bh692rcd13ifvqea0","pricing_plan_id":"cebpf4jnsgd1na2vs0mg"},{"bike_id":"3bdd5bb9-a0e9-4635-93b6-b52acf859d7a","system_id":"levelo_inurba_marseille","lat":43.28261,"lon":5.35048,"is_reserved":false,"is_disabled":true,"rental_uris":{"android":"levelo://app?vid=3bdd5bb9-a0e9-4635-93b6-b52acf859d7a","ios":"levelo://app?vid=3bdd5bb9-a0e9-4635-93b6-b52acf859d7a"},"vehicle_type_id":"4","last_reported":1758550278,"current_range_meters":8400,"station_id":"ce4bhbp2rcd13ifvqerg","pricing_plan_id":"cebpf4jnsgd1na2vs0mg"},{"bike_id":"a19ab9a0-7b29-4ef1-9433-62953b866275","system_id":"levelo_inurba_marseille","lat":43.31706,"lon":5.37803,"is_reserved":false,"is_disabled":false,"rental_uris":{"android":"levelo://app?vid=a19ab9a0-7b29-4ef1-9433-62953b866275","ios":"levelo://app?vid=a19ab9a0-7b29-4ef1-9433-62953b866275"},"vehicle_type_id":"4","last_reported":1758550278,"current_range_meters":8400,"station_id":"","pricing_plan_id":"cebpf4jnsgd1na2vs0mg"},{"bike_id":"2d461091-fc69-4e51-95b6-8c6265ac9358","system_id":"levelo_inurba_marseille","lat":43.30197,"lon":5.39464,"is_reserved":false,"is_disabled":false,"rental_uris":{"android":"levelo://app?vid=2d461091-fc69-4e51-95b6-8c6265ac9358","ios":"levelo://app?vid=2d461091-fc69-4e51-95b6-8c6265ac9358"},"vehicle_type_id":"4","last_reported":1758550278,"current_range_meters":8400,"station_id":"ce4bh0p2rcd13ifvqd70","pricing_plan_id":"cebpf4jnsgd1na2vs0mg"},{"bike_id":"c50562ba-d714-4f38-a641-5e0cb170bed4","system_id":"levelo_inurba_marseille","lat":43.3092,"lon":5.368328,"is_reserved":false,"is_disabled":false,"rental_uris":{"android":"levelo://app?vid=c50562ba-d714-4f38-a641-5e0cb170bed4","ios":"levelo://app?vid=c50562ba-d714-4f38-a641-5e0cb170bed4"},"vehicle_type_id":"4","last_reported":1758550278,"current_range_meters":6400,"station_id":"ce4bgn92rcd13ifvqbvg","pricing_plan_id":"cebpf4jnsgd1na2vs0mg"},{"bike_id":"f581ccb4-ae4a-44ef-9aee-8da2f62ff531","system_id":"levelo_inurba_marseille","lat":43.31244,"lon":5.36824,"is_reserved":false,"is_disabled":false,"rental_uris":{"android":"levelo://app?vid=f581ccb4-ae4a-44ef-9aee-8da2f62ff531","ios":"levelo://app?vid=f581ccb4-ae4a-44ef-9aee-8da2f62ff531"},"vehicle_type_id":"4","last_reported":1758550278,"current_range_meters":8800,"station_id":"ce4bgl92rcd13ifvqbq0","pricing_plan_id":"cebpf4jnsgd1na2vs0mg"},{"bike_id":"4bc02256-5e2b-44c0-9f77-e499671e456e","system_id":"levelo_inurba_marseille","lat":43.25577,"lon":5.38229,"is_reserved":false,"is_disabled":false,"rental_uris":{"android":"levelo://app?vid=4bc02256-5e2b-44c0-9f77-e499671e456e","ios":"levelo://app?vid=4bc02256-5e2b-44c0-9f77-e499671e456e"},"vehicle_type_id":"4","last_reported":1758550278,"current_range_meters":8800,"station_id":"ce4bhih2rcd13ifvqfs0","pricing_plan_id":"cebpf4jnsgd1na2vs0mg"},{"bike_id":"9278c8e4-f92e-4b80-9d1a-f8764c260a72","system_id":"levelo_inurba_marseille","lat":43.21748,"lon":5.34602,"is_reserved":false,"is_disabled":false,"rental_uris":{"android":"levelo://app?vid=9278c8e4-f92e-4b80-9d1a-f8764c260a72","ios":"levelo://app?vid=9278c8e4-f92e-4b80-9d1a-f8764c260a72"},"vehicle_type_id":"4","last_reported":1758550278,"current_range_meters":8800,"station_id":"st_cvj6r9ubvosntc0bgbag","pricing_plan_id":"cebpf4jnsgd1na2vs0mg"},{"bike_id":"f4c44fec-f85b-485d-963a-17fb9d0c562f","system_id":"levelo_inurba_marseille","lat":43.29525,"lon":5.37503,"is_reserved":false,"is_disabled":false,"rental_uris":{"android":"levelo://app?vid=f4c44fec-f85b-485d-963a-17fb9d0c562f","ios":"levelo://app?vid=f4c44fec-f85b-485d-963a-17fb9d0c562f"},"vehicle_type_id":"4","last_reported":1758550278,"current_range_meters":8400,"station_id":"ce4bgkp2rcd13ifvqbmg","pricing_plan_id":"cebpf4jnsgd1na2vs0mg"},{"bike_id":"e86857f8-f405-4657-b145-ec58ed187087","system_id":"levelo_inurba_marseille","lat":43.31484,"lon":5.3881,"is_reserved":false,"is_disabled":false,"rental_uris":{"android":"levelo://app?vid=e86857f8-f405-4657-b145-ec58ed187087","ios":"levelo://app?vid=e86857f8-f405-4657-b145-ec58ed187087"},"vehicle_type_id":"4","last_reported":1758550278,"current_range_meters":8800,"station_id":"ce4bgt92rcd13ifvqcf0","pricing_plan_id":"cebpf4jnsgd1na2vs0mg"},{"bike_id":"d2fdaaf6-1cbd-4491-8525-f3014d9a7f1a","system_id":"levelo_inurba_marseille","lat":43.21179,"lon":5.35066,"is_reserved":false,"is_disabled":true,"rental_uris":{"android":"levelo://app?vid=d2fdaaf6-1cbd-4491-8525-f3014d9a7f1a","ios":"levelo://app?vid=d2fdaaf6-1cbd-4491-8525-f3014d9a7f1a"},"vehicle_type_id":"4","last_reported":1758550278,"current_range_meters":8800,"station_id":"st_cvj6sg6p6f1abm77japg","pricing_plan_id":"cebpf4jnsgd1na2vs0mg"},{"bike_id":"118b6d7e-3328-44e2-ae13-d04071b8c00f","system_id":"levelo_inurba_marseille","lat":43.21192,"lon":5.35069,"is_reserved":false,"is_disabled":false,"rental_uris":{"android":"levelo://app?vid=118b6d7e-3328-44e2-ae13-d04071b8c00f","ios":"levelo://app?vid=118b6d7e-3328-44e2-ae13-d04071b8c00f"},"vehicle_type_id":"4","last_reported":1758550278,"current_range_meters":9200,"station_id":"st_cvj6sg6p6f1abm77japg","pricing_plan_id":"cebpf4jnsgd1na2vs0mg"},{"bike_id":"0c8a92f3-f5d4-48dc-bbf5-8177c0a48b95","system_id":"levelo_inurba_marseille","lat":43.29623,"lon":5.38091,"is_reserved":false,"is_disabled":false,"rental_uris":{"android":"levelo://app?vid=0c8a92f3-f5d4-48dc-bbf5-8177c0a48b95","ios":"levelo://app?vid=0c8a92f3-f5d4-48dc-bbf5-8177c0a48b95"},"vehicle_type_id":"4","last_reported":1758550278,"current_range_meters":9200,"station_id":"ce4bgl12rcd13ifvqbo0","pricing_plan_id":"cebpf4jnsgd1na2vs0mg"},{"bike_id":"2f23c4a6-6d37-4b68-85a4-1a7f58ad91d2","system_id":"levelo_inurba_marseille","lat":43.26552,"lon":5.38993,"is_reserved":false,"is_disabled":false,"rental_uris":{"android":"levelo://app?vid=2f23c4a6-6d37-4b68-85a4-1a7f58ad91d2","ios":"levelo://app?vid=2f23c4a6-6d37-4b68-85a4-1a7f58ad91d2"},"vehicle_type_id":"4","last_reported":1758550278,"current_range_meters":9200,"station_id":"ce4bhe12rcd13ifvqf30","pricing_plan_id":"cebpf4jnsgd1na2vs0mg"},{"bike_id":"a95a546a-691f-414b-9f19-eb455305a59b","system_id":"levelo_inurba_marseille","lat":43.21744,"lon":5.34604,"is_reserved":false,"is_disabled":false,"rental_uris":{"android":"levelo://app?vid=a95a546a-691f-414b-9f19-eb455305a59b","ios":"levelo://app?vid=a95a546a-691f-414b-9f19-eb455305a59b"},"vehicle_type_id":"4","last_reported":1758550278,"current_range_meters":9200,"station_id":"st_cvj6r9ubvosntc0bgbag","pricing_plan_id":"cebpf4jnsgd1na2vs0mg"},{"bike_id":"d8ef8968-447e-44f5-b7c8-b0f6f87f5336","system_id":"levelo_inurba_marseille","lat":43.217489,"lon":5.34602,"is_reserved":false,"is_disabled":false,"rental_uris":{"android":"levelo://app?vid=d8ef8968-447e-44f5-b7c8-b0f6f87f5336","ios":"levelo://app?vid=d8ef8968-447e-44f5-b7c8-b0f6f87f5336"},"vehicle_type_id":"4","last_reported":1758550278,"current_range_meters":9200,"station_id":"st_cvj6r9ubvosntc0bgbag","pricing_plan_id":"cebpf4jnsgd1na2vs0mg"},{"bike_id":"363d99e5-837c-43c8-abcc-c80ef2e2786a","system_id":"levelo_inurba_marseille","lat":43.21199,"lon":5.35066,"is_reserved":false,"is_disabled":false,"rental_uris":{"android":"levelo://app?vid=363d99e5-837c-43c8-abcc-c80ef2e2786a","ios":"levelo://app?vid=363d99e5-837c-43c8-abcc-c80ef2e2786a"},"vehicle_type_id":"4","last_reported":1758550278,"current_range_meters":9200,"station_id":"st_cvj6sg6p6f1abm77japg","pricing_plan_id":"cebpf4jnsgd1na2vs0mg"},{"bike_id":"c887c007-fb12-43fe-a69d-b0e1d49601be","system_id":"levelo_inurba_marseille","lat":43.21745,"lon":5.34597,"is_reserved":false,"is_disabled":false,"rental_uris":{"android":"levelo://app?vid=c887c007-fb12-43fe-a69d-b0e1d49601be","ios":"levelo://app?vid=c887c007-fb12-43fe-a69d-b0e1d49601be"},"vehicle_type_id":"4","last_reported":1758550278,"current_range_meters":9200,"station_id":"st_cvj6r9ubvosntc0bgbag","pricing_plan_id":"cebpf4jnsgd1na2vs0mg"},{"bike_id":"76bbf107-7ec5-4826-b296-ab629ecd14ab","system_id":"levelo_inurba_marseille","lat":43.2981,"lon":5.42104,"is_reserved":false,"is_disabled":false,"rental_uris":{"android":"levelo://app?vid=76bbf107-7ec5-4826-b296-ab629ecd14ab","ios":"levelo://app?vid=76bbf107-7ec5-4826-b296-ab629ecd14ab"},"vehicle_type_id":"4","last_reported":1758550278,"current_range_meters":9200,"station_id":"","pricing_plan_id":"cebpf4jnsgd1na2vs0mg"},{"bike_id":"8a569a47-46ff-4e91-972f-c6991b590b75","system_id":"levelo_inurba_marseille","lat":43.30238,"lon":5.40077,"is_reserved":false,"is_disabled":false,"rental_uris":{"android":"levelo://app?vid=8a569a47-46ff-4e91-972f-c6991b590b75","ios":"levelo://app?vid=8a569a47-46ff-4e91-972f-c6991b590b75"},"vehicle_type_id":"4","last_reported":1758550278,"current_range_meters":9600,"station_id":"ce4bgvh2rcd13ifvqcs0","pricing_plan_id":"cebpf4jnsgd1na2vs0mg"},{"bike_id":"ca7cfd93-60d9-4fda-b2da-28a86ec02074","system_id":"levelo_inurba_marseille","lat":43.33479,"lon":5.3624,"is_reserved":false,"is_disabled":false,"rental_uris":{"android":"levelo://app?vid=ca7cfd93-60d9-4fda-b2da-28a86ec02074","ios":"levelo://app?vid=ca7cfd93-60d9-4fda-b2da-28a86ec02074"},"vehicle_type_id":"4","last_reported":1758550278,"current_range_meters":9600,"station_id":"","pricing_plan_id":"cebpf4jnsgd1na2vs0mg"},{"bike_id":"2d95a58f-9522-4c45-9e5a-2c2623d81d34","system_id":"levelo_inurba_marseille","lat":43.284546,"lon":5.375725,"is_reserved":false,"is_disabled":false,"rental_uris":{"android":"levelo://app?vid=2d95a58f-9522-4c45-9e5a-2c2623d81d34","ios":"levelo://app?vid=2d95a58f-9522-4c45-9e5a-2c2623d81d34"},"vehicle_type_id":"4","last_reported":1758550278,"current_range_meters":9600,"station_id":"ce4bh412rcd13ifvqds0","pricing_plan_id":"cebpf4jnsgd1na2vs0mg"},{"bike_id":"9176512c-2cc1-4df2-a8e0-6be514fbcdbf","system_id":"levelo_inurba_marseille","lat":43.33748,"lon":5.37465,"is_reserved":false,"is_disabled":false,"rental_uris":{"android":"levelo://app?vid=9176512c-2cc1-4df2-a8e0-6be514fbcdbf","ios":"levelo://app?vid=9176512c-2cc1-4df2-a8e0-6be514fbcdbf"},"vehicle_type_id":"4","last_reported":1758550278,"current_range_meters":9600,"station_id":"","pricing_plan_id":"cebpf4jnsgd1na2vs0mg"},{"bike_id":"7fd6618c-ad69-41a0-aa26-2ffa20f84f45","system_id":"levelo_inurba_marseille","lat":43.3148,"lon":5.37305,"is_reserved":false,"is_disabled":false,"rental_uris":{"android":"levelo://app?vid=7fd6618c-ad69-41a0-aa26-2ffa20f84f45","ios":"levelo://app?vid=7fd6618c-ad69-41a0-aa26-2ffa20f84f45"},"vehicle_type_id":"4","last_reported":1758550278,"current_range_meters":9600,"station_id":"ce4bgt12rcd13ifvqcd0","pricing_plan_id":"cebpf4jnsgd1na2vs0mg"},{"bike_id":"438ead59-de14-4fa0-a61d-03a70a4122ae","system_id":"levelo_inurba_marseille","lat":43.97285,"lon":4.89134,"is_reserved":false,"is_disabled":true,"rental_uris":{"android":"levelo://app?vid=438ead59-de14-4fa0-a61d-03a70a4122ae","ios":"levelo://app?vid=438ead59-de14-4fa0-a61d-03a70a4122ae"},"vehicle_type_id":"4","last_reported":1758550278,"current_range_meters":9600,"station_id":"","pricing_plan_id":"cebpf4jnsgd1na2vs0mg"},{"bike_id":"2a89ad27-080f-4d45-833d-c99fce47a989","system_id":"levelo_inurba_marseille","lat":43.3055,"lon":5.36708,"is_reserved":false,"is_disabled":false,"rental_uris":{"android":"levelo://app?vid=2a89ad27-080f-4d45-833d-c99fce47a989","ios":"levelo://app?vid=2a89ad27-080f-4d45-833d-c99fce47a989"},"vehicle_type_id":"4","last_reported":1758550278,"current_range_meters":9600,"station_id":"ce4bgrp2rcd13ifvqc9g","pricing_plan_id":"cebpf4jnsgd1na2vs0mg"},{"bike_id":"0402438e-d72b-4870-8e22-17facef5f22b","system_id":"levelo_inurba_marseille","lat":43.29592,"lon":5.39162,"is_reserved":false,"is_disabled":false,"rental_uris":{"android":"levelo://app?vid=0402438e-d72b-4870-8e22-17facef5f22b","ios":"levelo://app?vid=0402438e-d72b-4870-8e22-17facef5f22b"},"vehicle_type_id":"4","last_reported":1758550278,"current_range_meters":10000,"station_id":"","pricing_plan_id":"cebpf4jnsgd1na2vs0mg"},{"bike_id":"06c1091d-078c-4b41-843d-2ab33fe407c9","system_id":"levelo_inurba_marseille","lat":43.30795,"lon":5.43515,"is_reserved":false,"is_disabled":false,"rental_uris":{"android":"levelo://app?vid=06c1091d-078c-4b41-843d-2ab33fe407c9","ios":"levelo://app?vid=06c1091d-078c-4b41-843d-2ab33fe407c9"},"vehicle_type_id":"4","last_reported":1758550278,"current_range_meters":9600,"station_id":"ce4bhph2rcd13ifvqheg","pricing_plan_id":"cebpf4jnsgd1na2vs0mg"},{"bike_id":"eb867823-1460-4667-bda9-2b6896a9ae41","system_id":"levelo_inurba_marseille","lat":43.27923,"lon":5.39566,"is_reserved":false,"is_disabled":false,"rental_uris":{"android":"levelo://app?vid=eb867823-1460-4667-bda9-2b6896a9ae41","ios":"levelo://app?vid=eb867823-1460-4667-bda9-2b6896a9ae41"},"vehicle_type_id":"4","last_reported":1758550278,"current_range_meters":10000,"station_id":"ce4bhf92rcd13ifvqf40","pricing_plan_id":"cebpf4jnsgd1na2vs0mg"},{"bike_id":"d344a5a6-ecd3-4290-8ed0-770794776383","system_id":"levelo_inurba_marseille","lat":43.322813,"lon":5.382657,"is_reserved":false,"is_disabled":false,"rental_uris":{"android":"levelo://app?vid=d344a5a6-ecd3-4290-8ed0-770794776383","ios":"levelo://app?vid=d344a5a6-ecd3-4290-8ed0-770794776383"},"vehicle_type_id":"4","last_reported":1758550278,"current_range_meters":10000,"station_id":"ce4bhr12rcd13ifvqhqg","pricing_plan_id":"cebpf4jnsgd1na2vs0mg"},{"bike_id":"cd91dfeb-6eb0-4d3e-a1fd-e6e1021d4e69","system_id":"levelo_inurba_marseille","lat":43.28013,"lon":5.36947,"is_reserved":false,"is_disabled":false,"rental_uris":{"android":"levelo://app?vid=cd91dfeb-6eb0-4d3e-a1fd-e6e1021d4e69","ios":"levelo://app?vid=cd91dfeb-6eb0-4d3e-a1fd-e6e1021d4e69"},"vehicle_type_id":"4","last_reported":1758550278,"current_range_meters":10000,"station_id":"ce4bha12rcd13ifvqef0","pricing_plan_id":"cebpf4jnsgd1na2vs0mg"},{"bike_id":"e6bda7f0-2237-4d50-b7ca-c25207b3c961","system_id":"levelo_inurba_marseille","lat":43.27997,"lon":5.4167,"is_reserved":false,"is_disabled":false,"rental_uris":{"android":"levelo://app?vid=e6bda7f0-2237-4d50-b7ca-c25207b3c961","ios":"levelo://app?vid=e6bda7f0-2237-4d50-b7ca-c25207b3c961"},"vehicle_type_id":"4","last_reported":1758550278,"current_range_meters":10000,"station_id":"ce4bho12rcd13ifvqh1g","pricing_plan_id":"cebpf4jnsgd1na2vs0mg"},{"bike_id":"e78163f7-85a4-48c6-906f-0d1c09b57635","system_id":"levelo_inurba_marseille","lat":43.29972,"lon":5.38476,"is_reserved":false,"is_disabled":false,"rental_uris":{"android":"levelo://app?vid=e78163f7-85a4-48c6-906f-0d1c09b57635","ios":"levelo://app?vid=e78163f7-85a4-48c6-906f-0d1c09b57635"},"vehicle_type_id":"4","last_reported":1758550278,"current_range_meters":9600,"station_id":"ce4bgj92rcd13ifvqbd0","pricing_plan_id":"cebpf4jnsgd1na2vs0mg"},{"bike_id":"048d716b-c615-4014-b6c4-07d4957cdc85","system_id":"levelo_inurba_marseille","lat":43.21187,"lon":5.35073,"is_reserved":false,"is_disabled":false,"rental_uris":{"android":"levelo://app?vid=048d716b-c615-4014-b6c4-07d4957cdc85","ios":"levelo://app?vid=048d716b-c615-4014-b6c4-07d4957cdc85"},"vehicle_type_id":"4","last_reported":1758550278,"current_range_meters":10800,"station_id":"st_cvj6sg6p6f1abm77japg","pricing_plan_id":"cebpf4jnsgd1na2vs0mg"},{"bike_id":"2bc0a34a-1f97-4b08-8781-257efd89471c","system_id":"levelo_inurba_marseille","lat":43.32686,"lon":5.40288,"is_reserved":false,"is_disabled":false,"rental_uris":{"android":"levelo://app?vid=2bc0a34a-1f97-4b08-8781-257efd89471c","ios":"levelo://app?vid=2bc0a34a-1f97-4b08-8781-257efd89471c"},"vehicle_type_id":"4","last_reported":1758550278,"current_range_meters":10800,"station_id":"","pricing_plan_id":"cebpf4jnsgd1na2vs0mg"},{"bike_id":"20d2719a-c9cc-4c45-9ee9-a3c8b9fc5aaa","system_id":"levelo_inurba_marseille","lat":43.32649,"lon":5.40986,"is_reserved":false,"is_disabled":false,"rental_uris":{"android":"levelo://app?vid=20d2719a-c9cc-4c45-9ee9-a3c8b9fc5aaa","ios":"levelo://app?vid=20d2719a-c9cc-4c45-9ee9-a3c8b9fc5aaa"},"vehicle_type_id":"4","last_reported":1758550278,"current_range_meters":10800,"station_id":"ce4bhpp2rcd13ifvqhgg","pricing_plan_id":"cebpf4jnsgd1na2vs0mg"},{"bike_id":"1acc509b-af85-4b58-bd74-e0c052811dd7","system_id":"levelo_inurba_marseille","lat":43.30284,"lon":5.396613,"is_reserved":false,"is_disabled":false,"rental_uris":{"android":"levelo://app?vid=1acc509b-af85-4b58-bd74-e0c052811dd7","ios":"levelo://app?vid=1acc509b-af85-4b58-bd74-e0c052811dd7"},"vehicle_type_id":"4","last_reported":1758550278,"current_range_meters":11200,"station_id":"","pricing_plan_id":"cebpf4jnsgd1na2vs0mg"},{"bike_id":"c3e9ec78-d16b-45ba-a192-2cfab652bb22","system_id":"levelo_inurba_marseille","lat":43.29619,"lon":5.3698,"is_reserved":false,"is_disabled":false,"rental_uris":{"android":"levelo://app?vid=c3e9ec78-d16b-45ba-a192-2cfab652bb22","ios":"levelo://app?vid=c3e9ec78-d16b-45ba-a192-2cfab652bb22"},"vehicle_type_id":"4","last_reported":1758550278,"current_range_meters":11200,"station_id":"","pricing_plan_id":"cebpf4jnsgd1na2vs0mg"},{"bike_id":"73a47ed3-2bac-4b25-b142-c2965ea2594a","system_id":"levelo_inurba_marseille","lat":43.291858,"lon":5.393212,"is_reserved":false,"is_disabled":false,"rental_uris":{"android":"levelo://app?vid=73a47ed3-2bac-4b25-b142-c2965ea2594a","ios":"levelo://app?vid=73a47ed3-2bac-4b25-b142-c2965ea2594a"},"vehicle_type_id":"4","last_reported":1758550278,"current_range_meters":11600,"station_id":"ce4bh192rcd13ifvqdd0","pricing_plan_id":"cebpf4jnsgd1na2vs0mg"},{"bike_id":"b8ca04f3-fe6c-4980-951a-f17740f76400","system_id":"levelo_inurba_marseille","lat":43.30919,"lon":5.3687,"is_reserved":false,"is_disabled":false,"rental_uris":{"android":"levelo://app?vid=b8ca04f3-fe6c-4980-951a-f17740f76400","ios":"levelo://app?vid=b8ca04f3-fe6c-4980-951a-f17740f76400"},"vehicle_type_id":"4","last_reported":1758550278,"current_range_meters":11600,"station_id":"ce4bgn92rcd13ifvqbvg","pricing_plan_id":"cebpf4jnsgd1na2vs0mg"},{"bike_id":"d662d586-6b92-43ec-97c9-8e079edcda76","system_id":"levelo_inurba_marseille","lat":43.23189,"lon":5.39978,"is_reserved":false,"is_disabled":false,"rental_uris":{"android":"levelo://app?vid=d662d586-6b92-43ec-97c9-8e079edcda76","ios":"levelo://app?vid=d662d586-6b92-43ec-97c9-8e079edcda76"},"vehicle_type_id":"4","last_reported":1758550278,"current_range_meters":11600,"station_id":"ce4bhn12rcd13ifvqgqg","pricing_plan_id":"cebpf4jnsgd1na2vs0mg"},{"bike_id":"771a223d-3df4-451b-8833-a04584a1f1a8","system_id":"levelo_inurba_marseille","lat":43.249342,"lon":5.374958,"is_reserved":false,"is_disabled":false,"rental_uris":{"android":"levelo://app?vid=771a223d-3df4-451b-8833-a04584a1f1a8","ios":"levelo://app?vid=771a223d-3df4-451b-8833-a04584a1f1a8"},"vehicle_type_id":"4","last_reported":1758550278,"current_range_meters":11600,"station_id":"ce4bhgh2rcd13ifvqfb0","pricing_plan_id":"cebpf4jnsgd1na2vs0mg"},{"bike_id":"d64a3c34-4f58-4a33-9858-96d7eeac0575","system_id":"levelo_inurba_marseille","lat":43.22939,"lon":5.3539,"is_reserved":false,"is_disabled":false,"rental_uris":{"android":"levelo://app?vid=d64a3c34-4f58-4a33-9858-96d7eeac0575","ios":"levelo://app?vid=d64a3c34-4f58-4a33-9858-96d7eeac0575"},"vehicle_type_id":"4","last_reported":1758550278,"current_range_meters":12000,"station_id":"cpo3532slgdg3j2ikp40","pricing_plan_id":"cebpf4jnsgd1na2vs0mg"},{"bike_id":"4f645b2f-8e26-48da-bb4b-8c374ac13384","system_id":"levelo_inurba_marseille","lat":43.21185,"lon":5.35075,"is_reserved":false,"is_disabled":false,"rental_uris":{"android":"levelo://app?vid=4f645b2f-8e26-48da-bb4b-8c374ac13384","ios":"levelo://app?vid=4f645b2f-8e26-48da-bb4b-8c374ac13384"},"vehicle_type_id":"4","last_reported":1758550278,"current_range_meters":12000,"station_id":"st_cvj6sg6p6f1abm77japg","pricing_plan_id":"cebpf4jnsgd1na2vs0mg"},{"bike_id":"29c74516-e9b5-4dcd-ab7c-95a3fda3ecd6","system_id":"levelo_inurba_marseille","lat":43.28671,"lon":5.38662,"is_reserved":false,"is_disabled":false,"rental_uris":{"android":"levelo://app?vid=29c74516-e9b5-4dcd-ab7c-95a3fda3ecd6","ios":"levelo://app?vid=29c74516-e9b5-4dcd-ab7c-95a3fda3ecd6"},"vehicle_type_id":"4","last_reported":1758550278,"current_range_meters":12000,"station_id":"ce4bh492rcd13ifvqdug","pricing_plan_id":"cebpf4jnsgd1na2vs0mg"},{"bike_id":"c46575d3-d222-4081-9970-3a38bb708282","system_id":"levelo_inurba_marseille","lat":43.2293,"lon":5.35378,"is_reserved":false,"is_disabled":false,"rental_uris":{"android":"levelo://app?vid=c46575d3-d222-4081-9970-3a38bb708282","ios":"levelo://app?vid=c46575d3-d222-4081-9970-3a38bb708282"},"vehicle_type_id":"4","last_reported":1758550278,"current_range_meters":12000,"station_id":"cpo3532slgdg3j2ikp40","pricing_plan_id":"cebpf4jnsgd1na2vs0mg"},{"bike_id":"43d57fd4-047e-4ac8-97e5-ec9b96239472","system_id":"levelo_inurba_marseille","lat":43.33123,"lon":5.39726,"is_reserved":false,"is_disabled":false,"rental_uris":{"android":"levelo://app?vid=43d57fd4-047e-4ac8-97e5-ec9b96239472","ios":"levelo://app?vid=43d57fd4-047e-4ac8-97e5-ec9b96239472"},"vehicle_type_id":"4","last_reported":1758550278,"current_range_meters":12000,"station_id":"","pricing_plan_id":"cebpf4jnsgd1na2vs0mg"},{"bike_id":"aa615de6-88cf-4553-9e37-2b398204d202","system_id":"levelo_inurba_marseille","lat":43.211919,"lon":5.350714,"is_reserved":false,"is_disabled":false,"rental_uris":{"android":"levelo://app?vid=aa615de6-88cf-4553-9e37-2b398204d202","ios":"levelo://app?vid=aa615de6-88cf-4553-9e37-2b398204d202"},"vehicle_type_id":"4","last_reported":1758550278,"current_range_meters":12400,"station_id":"st_cvj6sg6p6f1abm77japg","pricing_plan_id":"cebpf4jnsgd1na2vs0mg"},{"bike_id":"e644cf6b-6b8b-4380-9c7c-7183905f1b6a","system_id":"levelo_inurba_marseille","lat":43.29866,"lon":5.39733,"is_reserved":false,"is_disabled":false,"rental_uris":{"android":"levelo://app?vid=e644cf6b-6b8b-4380-9c7c-7183905f1b6a","ios":"levelo://app?vid=e644cf6b-6b8b-4380-9c7c-7183905f1b6a"},"vehicle_type_id":"4","last_reported":1758550278,"current_range_meters":12000,"station_id":"ce4bh0h2rcd13ifvqd50","pricing_plan_id":"cebpf4jnsgd1na2vs0mg"},{"bike_id":"13a79454-5f9c-4bad-ab85-5d8f476a768a","system_id":"levelo_inurba_marseille","lat":43.27991,"lon":5.41667,"is_reserved":false,"is_disabled":false,"rental_uris":{"android":"levelo://app?vid=13a79454-5f9c-4bad-ab85-5d8f476a768a","ios":"levelo://app?vid=13a79454-5f9c-4bad-ab85-5d8f476a768a"},"vehicle_type_id":"4","last_reported":1758550278,"current_range_meters":12400,"station_id":"ce4bho12rcd13ifvqh1g","pricing_plan_id":"cebpf4jnsgd1na2vs0mg"},{"bike_id":"56d5634d-0d0c-4617-94cb-7878bf0dca4f","system_id":"levelo_inurba_marseille","lat":43.30326,"lon":5.40433,"is_reserved":false,"is_disabled":false,"rental_uris":{"android":"levelo://app?vid=56d5634d-0d0c-4617-94cb-7878bf0dca4f","ios":"levelo://app?vid=56d5634d-0d0c-4617-94cb-7878bf0dca4f"},"vehicle_type_id":"4","last_reported":1758550278,"current_range_meters":12800,"station_id":"ce4bh012rcd13ifvqd10","pricing_plan_id":"cebpf4jnsgd1na2vs0mg"},{"bike_id":"4dee0855-78a5-437a-b600-46774699a53b","system_id":"levelo_inurba_marseille","lat":43.24805,"lon":5.37456,"is_reserved":false,"is_disabled":false,"rental_uris":{"android":"levelo://app?vid=4dee0855-78a5-437a-b600-46774699a53b","ios":"levelo://app?vid=4dee0855-78a5-437a-b600-46774699a53b"},"vehicle_type_id":"4","last_reported":1758550278,"current_range_meters":12400,"station_id":"ce4bhgh2rcd13ifvqfb0","pricing_plan_id":"cebpf4jnsgd1na2vs0mg"},{"bike_id":"1c64ce83-8502-4a91-9413-396b0627bcd6","system_id":"levelo_inurba_marseille","lat":43.31712,"lon":5.43706,"is_reserved":false,"is_disabled":false,"rental_uris":{"android":"levelo://app?vid=1c64ce83-8502-4a91-9413-396b0627bcd6","ios":"levelo://app?vid=1c64ce83-8502-4a91-9413-396b0627bcd6"},"vehicle_type_id":"4","last_reported":1758550278,"current_range_meters":12800,"station_id":"ce4bhp92rcd13ifvqhcg","pricing_plan_id":"cebpf4jnsgd1na2vs0mg"},{"bike_id":"77d35c23-a4cc-4938-b7fa-b4ba2dfe6ae5","system_id":"levelo_inurba_marseille","lat":43.28148,"lon":5.42637,"is_reserved":false,"is_disabled":false,"rental_uris":{"android":"levelo://app?vid=77d35c23-a4cc-4938-b7fa-b4ba2dfe6ae5","ios":"levelo://app?vid=77d35c23-a4cc-4938-b7fa-b4ba2dfe6ae5"},"vehicle_type_id":"4","last_reported":1758550278,"current_range_meters":12800,"station_id":"ce4bhnh2rcd13ifvqgug","pricing_plan_id":"cebpf4jnsgd1na2vs0mg"},{"bike_id":"90e14a2d-1c9e-457a-a1d7-7257e3270581","system_id":"levelo_inurba_marseille","lat":43.27996,"lon":5.41677,"is_reserved":false,"is_disabled":true,"rental_uris":{"android":"levelo://app?vid=90e14a2d-1c9e-457a-a1d7-7257e3270581","ios":"levelo://app?vid=90e14a2d-1c9e-457a-a1d7-7257e3270581"},"vehicle_type_id":"4","last_reported":1758550278,"current_range_meters":12800,"station_id":"ce4bho12rcd13ifvqh1g","pricing_plan_id":"cebpf4jnsgd1na2vs0mg"},{"bike_id":"9913f366-eacc-474c-bb91-1aaedb012dd5","system_id":"levelo_inurba_marseille","lat":43.26778,"lon":5.39416,"is_reserved":false,"is_disabled":false,"rental_uris":{"android":"levelo://app?vid=9913f366-eacc-474c-bb91-1aaedb012dd5","ios":"levelo://app?vid=9913f366-eacc-474c-bb91-1aaedb012dd5"},"vehicle_type_id":"4","last_reported":1758550278,"current_range_meters":12800,"station_id":"ce4bhh12rcd13ifvqfg0","pricing_plan_id":"cebpf4jnsgd1na2vs0mg"},{"bike_id":"6c733acb-28d1-4983-8b7f-0298bd40ad85","system_id":"levelo_inurba_marseille","lat":43.27564,"lon":5.38413,"is_reserved":false,"is_disabled":false,"rental_uris":{"android":"levelo://app?vid=6c733acb-28d1-4983-8b7f-0298bd40ad85","ios":"levelo://app?vid=6c733acb-28d1-4983-8b7f-0298bd40ad85"},"vehicle_type_id":"4","last_reported":1758550278,"current_range_meters":12800,"station_id":"ce4bhh92rcd13ifvqfi0","pricing_plan_id":"cebpf4jnsgd1na2vs0mg"},{"bike_id":"cb1f526e-cff7-4035-83a6-889297e76bff","system_id":"levelo_inurba_marseille","lat":43.30925,"lon":5.40125,"is_reserved":false,"is_disabled":false,"rental_uris":{"android":"levelo://app?vid=cb1f526e-cff7-4035-83a6-889297e76bff","ios":"levelo://app?vid=cb1f526e-cff7-4035-83a6-889297e76bff"},"vehicle_type_id":"4","last_reported":1758550278,"current_range_meters":12800,"station_id":"ce4bgvp2rcd13ifvqct0","pricing_plan_id":"cebpf4jnsgd1na2vs0mg"},{"bike_id":"40e948ef-baaf-4666-b1e4-f799ea86a8d4","system_id":"levelo_inurba_marseille","lat":43.32284,"lon":5.38271,"is_reserved":false,"is_disabled":false,"rental_uris":{"android":"levelo://app?vid=40e948ef-baaf-4666-b1e4-f799ea86a8d4","ios":"levelo://app?vid=40e948ef-baaf-4666-b1e4-f799ea86a8d4"},"vehicle_type_id":"4","last_reported":1758550278,"current_range_meters":12800,"station_id":"ce4bhr12rcd13ifvqhqg","pricing_plan_id":"cebpf4jnsgd1na2vs0mg"},{"bike_id":"b32b1217-900c-4c61-b6f0-001c3720db26","system_id":"levelo_inurba_marseille","lat":43.29715,"lon":5.3661,"is_reserved":false,"is_disabled":false,"rental_uris":{"android":"levelo://app?vid=b32b1217-900c-4c61-b6f0-001c3720db26","ios":"levelo://app?vid=b32b1217-900c-4c61-b6f0-001c3720db26"},"vehicle_type_id":"4","last_reported":1758550278,"current_range_meters":12800,"station_id":"ce4bgn12rcd13ifvqbt0","pricing_plan_id":"cebpf4jnsgd1na2vs0mg"},{"bike_id":"94dc763b-5c60-4e8c-a6fc-573bcaf8f7f0","system_id":"levelo_inurba_marseille","lat":43.32464,"lon":5.36533,"is_reserved":false,"is_disabled":false,"rental_uris":{"android":"levelo://app?vid=94dc763b-5c60-4e8c-a6fc-573bcaf8f7f0","ios":"levelo://app?vid=94dc763b-5c60-4e8c-a6fc-573bcaf8f7f0"},"vehicle_type_id":"4","last_reported":1758550278,"current_range_meters":13600,"station_id":"ce4bhs12rcd13ifvqhvg","pricing_plan_id":"cebpf4jnsgd1na2vs0mg"},{"bike_id":"51ebdaa7-8625-47ab-882c-16842edfbd5b","system_id":"levelo_inurba_marseille","lat":43.29879,"lon":5.38906,"is_reserved":false,"is_disabled":false,"rental_uris":{"android":"levelo://app?vid=51ebdaa7-8625-47ab-882c-16842edfbd5b","ios":"levelo://app?vid=51ebdaa7-8625-47ab-882c-16842edfbd5b"},"vehicle_type_id":"4","last_reported":1758550278,"current_range_meters":12800,"station_id":"ce4bh392rcd13ifvqdl0","pricing_plan_id":"cebpf4jnsgd1na2vs0mg"},{"bike_id":"c1b8bb54-328d-4d53-b541-cfb9ce34db66","system_id":"levelo_inurba_marseille","lat":43.29939,"lon":5.36538,"is_reserved":false,"is_disabled":false,"rental_uris":{"android":"levelo://app?vid=c1b8bb54-328d-4d53-b541-cfb9ce34db66","ios":"levelo://app?vid=c1b8bb54-328d-4d53-b541-cfb9ce34db66"},"vehicle_type_id":"4","last_reported":1758550278,"current_range_meters":13600,"station_id":"ce4bgm92rcd13ifvqbr0","pricing_plan_id":"cebpf4jnsgd1na2vs0mg"},{"bike_id":"60096599-2468-46c1-a4af-cfaf194b2e7b","system_id":"levelo_inurba_marseille","lat":43.2795,"lon":5.41656,"is_reserved":false,"is_disabled":false,"rental_uris":{"android":"levelo://app?vid=60096599-2468-46c1-a4af-cfaf194b2e7b","ios":"levelo://app?vid=60096599-2468-46c1-a4af-cfaf194b2e7b"},"vehicle_type_id":"4","last_reported":1758550278,"current_range_meters":13600,"station_id":"ce4bho12rcd13ifvqh1g","pricing_plan_id":"cebpf4jnsgd1na2vs0mg"},{"bike_id":"f0fca713-2b9c-4144-bedb-3a48811b75eb","system_id":"levelo_inurba_marseille","lat":43.32285,"lon":5.3828,"is_reserved":false,"is_disabled":false,"rental_uris":{"android":"levelo://app?vid=f0fca713-2b9c-4144-bedb-3a48811b75eb","ios":"levelo://app?vid=f0fca713-2b9c-4144-bedb-3a48811b75eb"},"vehicle_type_id":"4","last_reported":1758550278,"current_range_meters":13600,"station_id":"ce4bhr12rcd13ifvqhqg","pricing_plan_id":"cebpf4jnsgd1na2vs0mg"},{"bike_id":"05314476-c461-495e-b029-d08f89cc439d","system_id":"levelo_inurba_marseille","lat":43.28152,"lon":5.42638,"is_reserved":false,"is_disabled":false,"rental_uris":{"android":"levelo://app?vid=05314476-c461-495e-b029-d08f89cc439d","ios":"levelo://app?vid=05314476-c461-495e-b029-d08f89cc439d"},"vehicle_type_id":"4","last_reported":1758550278,"current_range_meters":14000,"station_id":"ce4bhnh2rcd13ifvqgug","pricing_plan_id":"cebpf4jnsgd1na2vs0mg"},{"bike_id":"ba7c82f9-eb89-44f7-a0d8-1e03779a00da","system_id":"levelo_inurba_marseille","lat":43.24996,"lon":5.38931,"is_reserved":false,"is_disabled":false,"rental_uris":{"android":"levelo://app?vid=ba7c82f9-eb89-44f7-a0d8-1e03779a00da","ios":"levelo://app?vid=ba7c82f9-eb89-44f7-a0d8-1e03779a00da"},"vehicle_type_id":"4","last_reported":1758550278,"current_range_meters":13600,"station_id":"ce4bhgp2rcd13ifvqfd0","pricing_plan_id":"cebpf4jnsgd1na2vs0mg"},{"bike_id":"3fc867c9-ec47-4da0-bc27-177a911f177a","system_id":"levelo_inurba_marseille","lat":43.30556,"lon":5.36683,"is_reserved":false,"is_disabled":false,"rental_uris":{"android":"levelo://app?vid=3fc867c9-ec47-4da0-bc27-177a911f177a","ios":"levelo://app?vid=3fc867c9-ec47-4da0-bc27-177a911f177a"},"vehicle_type_id":"4","last_reported":1758550278,"current_range_meters":14000,"station_id":"ce4bgrp2rcd13ifvqc9g","pricing_plan_id":"cebpf4jnsgd1na2vs0mg"},{"bike_id":"77eeb9b5-0e68-4a7b-b5d1-530ce6c04cd4","system_id":"levelo_inurba_marseille","lat":43.22928,"lon":5.35374,"is_reserved":false,"is_disabled":false,"rental_uris":{"android":"levelo://app?vid=77eeb9b5-0e68-4a7b-b5d1-530ce6c04cd4","ios":"levelo://app?vid=77eeb9b5-0e68-4a7b-b5d1-530ce6c04cd4"},"vehicle_type_id":"4","last_reported":1758550278,"current_range_meters":14000,"station_id":"cpo3532slgdg3j2ikp40","pricing_plan_id":"cebpf4jnsgd1na2vs0mg"},{"bike_id":"ce85ebd8-124e-478e-aa23-370a421b04a4","system_id":"levelo_inurba_marseille","lat":43.30532,"lon":5.38419,"is_reserved":false,"is_disabled":false,"rental_uris":{"android":"levelo://app?vid=ce85ebd8-124e-478e-aa23-370a421b04a4","ios":"levelo://app?vid=ce85ebd8-124e-478e-aa23-370a421b04a4"},"vehicle_type_id":"4","last_reported":1758550278,"current_range_meters":14000,"station_id":"ce4bgg92rcd13ifvqb30","pricing_plan_id":"cebpf4jnsgd1na2vs0mg"},{"bike_id":"39a3abd8-d491-4325-8aa5-146ffee5b7dc","system_id":"levelo_inurba_marseille","lat":43.29801,"lon":5.40408,"is_reserved":false,"is_disabled":false,"rental_uris":{"android":"levelo://app?vid=39a3abd8-d491-4325-8aa5-146ffee5b7dc","ios":"levelo://app?vid=39a3abd8-d491-4325-8aa5-146ffee5b7dc"},"vehicle_type_id":"4","last_reported":1758550278,"current_range_meters":14000,"station_id":"ce4bh112rcd13ifvqd90","pricing_plan_id":"cebpf4jnsgd1na2vs0mg"},{"bike_id":"51d92c87-aa59-4783-b818-f9c5a7eebd73","system_id":"levelo_inurba_marseille","lat":43.295167,"lon":5.373943,"is_reserved":false,"is_disabled":false,"rental_uris":{"android":"levelo://app?vid=51d92c87-aa59-4783-b818-f9c5a7eebd73","ios":"levelo://app?vid=51d92c87-aa59-4783-b818-f9c5a7eebd73"},"vehicle_type_id":"4","last_reported":1758550278,"current_range_meters":14400,"station_id":"","pricing_plan_id":"cebpf4jnsgd1na2vs0mg"},{"bike_id":"62eaae68-9b47-41eb-8ba6-65c6ba669dac","system_id":"levelo_inurba_marseille","lat":43.30885,"lon":5.37171,"is_reserved":false,"is_disabled":false,"rental_uris":{"android":"levelo://app?vid=62eaae68-9b47-41eb-8ba6-65c6ba669dac","ios":"levelo://app?vid=62eaae68-9b47-41eb-8ba6-65c6ba669dac"},"vehicle_type_id":"4","last_reported":1758550278,"current_range_meters":14400,"station_id":"ce4bguh2rcd13ifvqckg","pricing_plan_id":"cebpf4jnsgd1na2vs0mg"},{"bike_id":"0b2230e3-adb9-421c-91b1-c113eb397705","system_id":"levelo_inurba_marseille","lat":43.289043,"lon":5.376487,"is_reserved":false,"is_disabled":false,"rental_uris":{"android":"levelo://app?vid=0b2230e3-adb9-421c-91b1-c113eb397705","ios":"levelo://app?vid=0b2230e3-adb9-421c-91b1-c113eb397705"},"vehicle_type_id":"4","last_reported":1758550278,"current_range_meters":14400,"station_id":"","pricing_plan_id":"cebpf4jnsgd1na2vs0mg"},{"bike_id":"3c1f8d36-3f53-4c54-9d0e-bef36c7b1388","system_id":"levelo_inurba_marseille","lat":43.30124,"lon":5.37422,"is_reserved":false,"is_disabled":false,"rental_uris":{"android":"levelo://app?vid=3c1f8d36-3f53-4c54-9d0e-bef36c7b1388","ios":"levelo://app?vid=3c1f8d36-3f53-4c54-9d0e-bef36c7b1388"},"vehicle_type_id":"4","last_reported":1758550278,"current_range_meters":14400,"station_id":"ce4bgs92rcd13ifvqcc0","pricing_plan_id":"cebpf4jnsgd1na2vs0mg"},{"bike_id":"b2be2404-53eb-4f74-9829-8104df3de106","system_id":"levelo_inurba_marseille","lat":43.33609,"lon":5.35424,"is_reserved":false,"is_disabled":false,"rental_uris":{"android":"levelo://app?vid=b2be2404-53eb-4f74-9829-8104df3de106","ios":"levelo://app?vid=b2be2404-53eb-4f74-9829-8104df3de106"},"vehicle_type_id":"4","last_reported":1758550278,"current_range_meters":14400,"station_id":"","pricing_plan_id":"cebpf4jnsgd1na2vs0mg"},{"bike_id":"08290126-3e1a-461a-92dd-00654aee402b","system_id":"levelo_inurba_marseille","lat":43.21192,"lon":5.3507,"is_reserved":false,"is_disabled":false,"rental_uris":{"android":"levelo://app?vid=08290126-3e1a-461a-92dd-00654aee402b","ios":"levelo://app?vid=08290126-3e1a-461a-92dd-00654aee402b"},"vehicle_type_id":"4","last_reported":1758550278,"current_range_meters":14800,"station_id":"st_cvj6sg6p6f1abm77japg","pricing_plan_id":"cebpf4jnsgd1na2vs0mg"},{"bike_id":"bcc26225-3fc0-4f7b-b807-ef403cb82bf9","system_id":"levelo_inurba_marseille","lat":43.265502,"lon":5.372965,"is_reserved":false,"is_disabled":false,"rental_uris":{"android":"levelo://app?vid=bcc26225-3fc0-4f7b-b807-ef403cb82bf9","ios":"levelo://app?vid=bcc26225-3fc0-4f7b-b807-ef403cb82bf9"},"vehicle_type_id":"4","last_reported":1758550278,"current_range_meters":14800,"station_id":"ce4bhg12rcd13ifvqf70","pricing_plan_id":"cebpf4jnsgd1na2vs0mg"},{"bike_id":"94d430e6-52b3-4d21-80c9-c6dd4519a8fb","system_id":"levelo_inurba_marseille","lat":43.3177,"lon":5.38305,"is_reserved":false,"is_disabled":false,"rental_uris":{"android":"levelo://app?vid=94d430e6-52b3-4d21-80c9-c6dd4519a8fb","ios":"levelo://app?vid=94d430e6-52b3-4d21-80c9-c6dd4519a8fb"},"vehicle_type_id":"4","last_reported":1758550278,"current_range_meters":14800,"station_id":"","pricing_plan_id":"cebpf4jnsgd1na2vs0mg"},{"bike_id":"8857edc2-75f2-43f1-b06e-1a629940be4d","system_id":"levelo_inurba_marseille","lat":43.29056,"lon":5.37152,"is_reserved":false,"is_disabled":false,"rental_uris":{"android":"levelo://app?vid=8857edc2-75f2-43f1-b06e-1a629940be4d","ios":"levelo://app?vid=8857edc2-75f2-43f1-b06e-1a629940be4d"},"vehicle_type_id":"4","last_reported":1758550278,"current_range_meters":14800,"station_id":"ce4bh5p2rcd13ifvqe4g","pricing_plan_id":"cebpf4jnsgd1na2vs0mg"},{"bike_id":"734f7642-3883-459d-a35c-8b9c5ee266ae","system_id":"levelo_inurba_marseille","lat":43.270735,"lon":5.422749,"is_reserved":false,"is_disabled":false,"rental_uris":{"android":"levelo://app?vid=734f7642-3883-459d-a35c-8b9c5ee266ae","ios":"levelo://app?vid=734f7642-3883-459d-a35c-8b9c5ee266ae"},"vehicle_type_id":"4","last_reported":1758550278,"current_range_meters":15200,"station_id":"ce4bhk92rcd13ifvqgb0","pricing_plan_id":"cebpf4jnsgd1na2vs0mg"},{"bike_id":"5f842832-4ff8-49ff-8ba3-51ff241068df","system_id":"levelo_inurba_marseille","lat":43.272048,"lon":5.391917,"is_reserved":false,"is_disabled":false,"rental_uris":{"android":"levelo://app?vid=5f842832-4ff8-49ff-8ba3-51ff241068df","ios":"levelo://app?vid=5f842832-4ff8-49ff-8ba3-51ff241068df"},"vehicle_type_id":"4","last_reported":1758550278,"current_range_meters":15200,"station_id":"ce4bhhp2rcd13ifvqfm0","pricing_plan_id":"cebpf4jnsgd1na2vs0mg"},{"bike_id":"ef75d15d-c28a-4fe7-853a-ed887e41d629","system_id":"levelo_inurba_marseille","lat":43.21749,"lon":5.34595,"is_reserved":false,"is_disabled":false,"rental_uris":{"android":"levelo://app?vid=ef75d15d-c28a-4fe7-853a-ed887e41d629","ios":"levelo://app?vid=ef75d15d-c28a-4fe7-853a-ed887e41d629"},"vehicle_type_id":"4","last_reported":1758550278,"current_range_meters":15200,"station_id":"st_cvj6r9ubvosntc0bgbag","pricing_plan_id":"cebpf4jnsgd1na2vs0mg"},{"bike_id":"7014eaa8-3a2f-4612-a32c-bde41386c793","system_id":"levelo_inurba_marseille","lat":43.32335,"lon":5.4063,"is_reserved":false,"is_disabled":false,"rental_uris":{"android":"levelo://app?vid=7014eaa8-3a2f-4612-a32c-bde41386c793","ios":"levelo://app?vid=7014eaa8-3a2f-4612-a32c-bde41386c793"},"vehicle_type_id":"4","last_reported":1758550278,"current_range_meters":15200,"station_id":"ce4bhq92rcd13ifvqhjg","pricing_plan_id":"cebpf4jnsgd1na2vs0mg"},{"bike_id":"4c011120-58cb-47bd-988b-7f1cba38a456","system_id":"levelo_inurba_marseille","lat":43.24641,"lon":5.43136,"is_reserved":false,"is_disabled":false,"rental_uris":{"android":"levelo://app?vid=4c011120-58cb-47bd-988b-7f1cba38a456","ios":"levelo://app?vid=4c011120-58cb-47bd-988b-7f1cba38a456"},"vehicle_type_id":"4","last_reported":1758550278,"current_range_meters":15200,"station_id":"st_d2m6c4gdas8pm72e190g","pricing_plan_id":"cebpf4jnsgd1na2vs0mg"},{"bike_id":"40bdb74e-7bb1-4d2e-a0c5-057b534ce1d8","system_id":"levelo_inurba_marseille","lat":43.265517,"lon":5.372842,"is_reserved":false,"is_disabled":false,"rental_uris":{"android":"levelo://app?vid=40bdb74e-7bb1-4d2e-a0c5-057b534ce1d8","ios":"levelo://app?vid=40bdb74e-7bb1-4d2e-a0c5-057b534ce1d8"},"vehicle_type_id":"4","last_reported":1758550278,"current_range_meters":16000,"station_id":"","pricing_plan_id":"cebpf4jnsgd1na2vs0mg"},{"bike_id":"6c2ccec1-b13f-4ca6-9191-d1ab1fc484ed","system_id":"levelo_inurba_marseille","lat":43.21207,"lon":5.35032,"is_reserved":false,"is_disabled":false,"rental_uris":{"android":"levelo://app?vid=6c2ccec1-b13f-4ca6-9191-d1ab1fc484ed","ios":"levelo://app?vid=6c2ccec1-b13f-4ca6-9191-d1ab1fc484ed"},"vehicle_type_id":"4","last_reported":1758550278,"current_range_meters":16000,"station_id":"","pricing_plan_id":"cebpf4jnsgd1na2vs0mg"},{"bike_id":"34072093-f9b6-4017-998e-95b181d82c91","system_id":"levelo_inurba_marseille","lat":43.29449,"lon":5.38822,"is_reserved":false,"is_disabled":false,"rental_uris":{"android":"levelo://app?vid=34072093-f9b6-4017-998e-95b181d82c91","ios":"levelo://app?vid=34072093-f9b6-4017-998e-95b181d82c91"},"vehicle_type_id":"4","last_reported":1758550278,"current_range_meters":16000,"station_id":"","pricing_plan_id":"cebpf4jnsgd1na2vs0mg"},{"bike_id":"75aab3be-272c-40dd-839c-82de4a155771","system_id":"levelo_inurba_marseille","lat":43.27945,"lon":5.38751,"is_reserved":false,"is_disabled":false,"rental_uris":{"android":"levelo://app?vid=75aab3be-272c-40dd-839c-82de4a155771","ios":"levelo://app?vid=75aab3be-272c-40dd-839c-82de4a155771"},"vehicle_type_id":"4","last_reported":1758550278,"current_range_meters":16000,"station_id":"ce4bhg12rcd13ifvqf80","pricing_plan_id":"cebpf4jnsgd1na2vs0mg"},{"bike_id":"bde89fb8-7b32-443a-b7cc-0c5464a9571f","system_id":"levelo_inurba_marseille","lat":43.28151,"lon":5.42646,"is_reserved":false,"is_disabled":false,"rental_uris":{"android":"levelo://app?vid=bde89fb8-7b32-443a-b7cc-0c5464a9571f","ios":"levelo://app?vid=bde89fb8-7b32-443a-b7cc-0c5464a9571f"},"vehicle_type_id":"4","last_reported":1758550278,"current_range_meters":16000,"station_id":"ce4bhnh2rcd13ifvqgug","pricing_plan_id":"cebpf4jnsgd1na2vs0mg"},{"bike_id":"84adb9bb-c954-487b-a703-25865bec42bd","system_id":"levelo_inurba_marseille","lat":43.27917,"lon":5.39582,"is_reserved":false,"is_disabled":false,"rental_uris":{"android":"levelo://app?vid=84adb9bb-c954-487b-a703-25865bec42bd","ios":"levelo://app?vid=84adb9bb-c954-487b-a703-25865bec42bd"},"vehicle_type_id":"4","last_reported":1758550278,"current_range_meters":16000,"station_id":"ce4bhf92rcd13ifvqf40","pricing_plan_id":"cebpf4jnsgd1na2vs0mg"},{"bike_id":"f6643338-8557-4c14-a45f-5c714f3ab079","system_id":"levelo_inurba_marseille","lat":43.3171,"lon":5.43709,"is_reserved":false,"is_disabled":false,"rental_uris":{"android":"levelo://app?vid=f6643338-8557-4c14-a45f-5c714f3ab079","ios":"levelo://app?vid=f6643338-8557-4c14-a45f-5c714f3ab079"},"vehicle_type_id":"4","last_reported":1758550278,"current_range_meters":16000,"station_id":"ce4bhp92rcd13ifvqhcg","pricing_plan_id":"cebpf4jnsgd1na2vs0mg"},{"bike_id":"d80cb768-6893-4d2e-b91c-58c7f98e4468","system_id":"levelo_inurba_marseille","lat":43.27065,"lon":5.42275,"is_reserved":false,"is_disabled":false,"rental_uris":{"android":"levelo://app?vid=d80cb768-6893-4d2e-b91c-58c7f98e4468","ios":"levelo://app?vid=d80cb768-6893-4d2e-b91c-58c7f98e4468"},"vehicle_type_id":"4","last_reported":1758550278,"current_range_meters":16400,"station_id":"ce4bhk92rcd13ifvqgb0","pricing_plan_id":"cebpf4jnsgd1na2vs0mg"},{"bike_id":"530d8326-4aef-4cf5-8029-e47d819e0e13","system_id":"levelo_inurba_marseille","lat":43.293535,"lon":5.37437,"is_reserved":false,"is_disabled":false,"rental_uris":{"android":"levelo://app?vid=530d8326-4aef-4cf5-8029-e47d819e0e13","ios":"levelo://app?vid=530d8326-4aef-4cf5-8029-e47d819e0e13"},"vehicle_type_id":"4","last_reported":1758550278,"current_range_meters":16400,"station_id":"","pricing_plan_id":"cebpf4jnsgd1na2vs0mg"},{"bike_id":"0163730e-f682-4707-a459-be35b6d5d3a4","system_id":"levelo_inurba_marseille","lat":43.330224,"lon":5.39037,"is_reserved":false,"is_disabled":false,"rental_uris":{"android":"levelo://app?vid=0163730e-f682-4707-a459-be35b6d5d3a4","ios":"levelo://app?vid=0163730e-f682-4707-a459-be35b6d5d3a4"},"vehicle_type_id":"4","last_reported":1758550278,"current_range_meters":16400,"station_id":"ce4bhr92rcd13ifvqhrg","pricing_plan_id":"cebpf4jnsgd1na2vs0mg"},{"bike_id":"4519ded0-f3b9-42bd-af35-e69456d100e8","system_id":"levelo_inurba_marseille","lat":43.29277,"lon":5.38347,"is_reserved":false,"is_disabled":false,"rental_uris":{"android":"levelo://app?vid=4519ded0-f3b9-42bd-af35-e69456d100e8","ios":"levelo://app?vid=4519ded0-f3b9-42bd-af35-e69456d100e8"},"vehicle_type_id":"4","last_reported":1758550278,"current_range_meters":16400,"station_id":"","pricing_plan_id":"cebpf4jnsgd1na2vs0mg"},{"bike_id":"314fce10-8311-4e5a-b099-8a2b46d7d991","system_id":"levelo_inurba_marseille","lat":43.21749,"lon":5.34596,"is_reserved":false,"is_disabled":false,"rental_uris":{"android":"levelo://app?vid=314fce10-8311-4e5a-b099-8a2b46d7d991","ios":"levelo://app?vid=314fce10-8311-4e5a-b099-8a2b46d7d991"},"vehicle_type_id":"4","last_reported":1758550278,"current_range_meters":16400,"station_id":"st_cvj6r9ubvosntc0bgbag","pricing_plan_id":"cebpf4jnsgd1na2vs0mg"},{"bike_id":"12e77a2f-3171-44d0-8d53-e7a881052ae9","system_id":"levelo_inurba_marseille","lat":43.23072,"lon":5.35499,"is_reserved":false,"is_disabled":false,"rental_uris":{"android":"levelo://app?vid=12e77a2f-3171-44d0-8d53-e7a881052ae9","ios":"levelo://app?vid=12e77a2f-3171-44d0-8d53-e7a881052ae9"},"vehicle_type_id":"4","last_reported":1758550278,"current_range_meters":16800,"station_id":"cpo3342slgdg3j2ifvpg","pricing_plan_id":"cebpf4jnsgd1na2vs0mg"},{"bike_id":"df1dfc6f-ed41-43d8-aa4d-f1e91b76d7fe","system_id":"levelo_inurba_marseille","lat":43.24954,"lon":5.39004,"is_reserved":false,"is_disabled":false,"rental_uris":{"android":"levelo://app?vid=df1dfc6f-ed41-43d8-aa4d-f1e91b76d7fe","ios":"levelo://app?vid=df1dfc6f-ed41-43d8-aa4d-f1e91b76d7fe"},"vehicle_type_id":"4","last_reported":1758550278,"current_range_meters":16800,"station_id":"","pricing_plan_id":"cebpf4jnsgd1na2vs0mg"},{"bike_id":"5337dcdc-c6f5-44ae-a466-a1ebe14dfbb3","system_id":"levelo_inurba_marseille","lat":43.24178,"lon":5.36403,"is_reserved":false,"is_disabled":false,"rental_uris":{"android":"levelo://app?vid=5337dcdc-c6f5-44ae-a466-a1ebe14dfbb3","ios":"levelo://app?vid=5337dcdc-c6f5-44ae-a466-a1ebe14dfbb3"},"vehicle_type_id":"4","last_reported":1758550278,"current_range_meters":16800,"station_id":"cpo36qri1sfpv3e86is0","pricing_plan_id":"cebpf4jnsgd1na2vs0mg"},{"bike_id":"b3f802a0-bdcf-44a3-8fac-8801877afd6c","system_id":"levelo_inurba_marseille","lat":43.30591,"lon":5.3723,"is_reserved":false,"is_disabled":false,"rental_uris":{"android":"levelo://app?vid=b3f802a0-bdcf-44a3-8fac-8801877afd6c","ios":"levelo://app?vid=b3f802a0-bdcf-44a3-8fac-8801877afd6c"},"vehicle_type_id":"4","last_reported":1758550278,"current_range_meters":16800,"station_id":"ce4bgqh2rcd13ifvqc4g","pricing_plan_id":"cebpf4jnsgd1na2vs0mg"},{"bike_id":"3b8d521b-d1a3-4e21-b151-8fc8c161ad9d","system_id":"levelo_inurba_marseille","lat":43.28626,"lon":5.35107,"is_reserved":false,"is_disabled":false,"rental_uris":{"android":"levelo://app?vid=3b8d521b-d1a3-4e21-b151-8fc8c161ad9d","ios":"levelo://app?vid=3b8d521b-d1a3-4e21-b151-8fc8c161ad9d"},"vehicle_type_id":"4","last_reported":1758550278,"current_range_meters":16800,"station_id":"ce4bhch2rcd13ifvqeug","pricing_plan_id":"cebpf4jnsgd1na2vs0mg"},{"bike_id":"ec2660f7-68b1-4255-8dc4-559a4741aea0","system_id":"levelo_inurba_marseille","lat":43.305437,"lon":5.36528,"is_reserved":false,"is_disabled":false,"rental_uris":{"android":"levelo://app?vid=ec2660f7-68b1-4255-8dc4-559a4741aea0","ios":"levelo://app?vid=ec2660f7-68b1-4255-8dc4-559a4741aea0"},"vehicle_type_id":"4","last_reported":1758550278,"current_range_meters":16800,"station_id":"ce4bgs12rcd13ifvqcag","pricing_plan_id":"cebpf4jnsgd1na2vs0mg"},{"bike_id":"1bd15d7d-863b-4efe-a63b-d74d884432b0","system_id":"levelo_inurba_marseille","lat":43.2987,"lon":5.39728,"is_reserved":false,"is_disabled":false,"rental_uris":{"android":"levelo://app?vid=1bd15d7d-863b-4efe-a63b-d74d884432b0","ios":"levelo://app?vid=1bd15d7d-863b-4efe-a63b-d74d884432b0"},"vehicle_type_id":"4","last_reported":1758550278,"current_range_meters":16800,"station_id":"ce4bh0h2rcd13ifvqd50","pricing_plan_id":"cebpf4jnsgd1na2vs0mg"},{"bike_id":"8aa1f4a5-ce10-4dc8-ad09-652566773495","system_id":"levelo_inurba_marseille","lat":43.31273,"lon":5.36846,"is_reserved":false,"is_disabled":true,"rental_uris":{"android":"levelo://app?vid=8aa1f4a5-ce10-4dc8-ad09-652566773495","ios":"levelo://app?vid=8aa1f4a5-ce10-4dc8-ad09-652566773495"},"vehicle_type_id":"4","last_reported":1758550278,"current_range_meters":16800,"station_id":"","pricing_plan_id":"cebpf4jnsgd1na2vs0mg"},{"bike_id":"6210641e-392b-400e-990b-b6f0b5af54f0","system_id":"levelo_inurba_marseille","lat":43.32363,"lon":5.36713,"is_reserved":false,"is_disabled":false,"rental_uris":{"android":"levelo://app?vid=6210641e-392b-400e-990b-b6f0b5af54f0","ios":"levelo://app?vid=6210641e-392b-400e-990b-b6f0b5af54f0"},"vehicle_type_id":"4","last_reported":1758550278,"current_range_meters":16800,"station_id":"ce4bhsh2rcd13ifvqi2g","pricing_plan_id":"cebpf4jnsgd1na2vs0mg"},{"bike_id":"e3380cb8-a056-4b82-b45f-ff7011733809","system_id":"levelo_inurba_marseille","lat":43.25114,"lon":5.40324,"is_reserved":false,"is_disabled":false,"rental_uris":{"android":"levelo://app?vid=e3380cb8-a056-4b82-b45f-ff7011733809","ios":"levelo://app?vid=e3380cb8-a056-4b82-b45f-ff7011733809"},"vehicle_type_id":"4","last_reported":1758550278,"current_range_meters":17200,"station_id":"ce4bhlh2rcd13ifvqgig","pricing_plan_id":"cebpf4jnsgd1na2vs0mg"},{"bike_id":"577d0e24-bf90-43b8-a759-bea08b7d7e19","system_id":"levelo_inurba_marseille","lat":43.230578,"lon":5.354852,"is_reserved":false,"is_disabled":false,"rental_uris":{"android":"levelo://app?vid=577d0e24-bf90-43b8-a759-bea08b7d7e19","ios":"levelo://app?vid=577d0e24-bf90-43b8-a759-bea08b7d7e19"},"vehicle_type_id":"4","last_reported":1758550278,"current_range_meters":16800,"station_id":"cpo3342slgdg3j2ifvpg","pricing_plan_id":"cebpf4jnsgd1na2vs0mg"},{"bike_id":"4e416ea8-8ff9-4de9-b3a4-e969017608aa","system_id":"levelo_inurba_marseille","lat":43.23961,"lon":5.36628,"is_reserved":false,"is_disabled":false,"rental_uris":{"android":"levelo://app?vid=4e416ea8-8ff9-4de9-b3a4-e969017608aa","ios":"levelo://app?vid=4e416ea8-8ff9-4de9-b3a4-e969017608aa"},"vehicle_type_id":"4","last_reported":1758550278,"current_range_meters":17200,"station_id":"ce4bhi12rcd13ifvqfp0","pricing_plan_id":"cebpf4jnsgd1na2vs0mg"},{"bike_id":"8081ba73-d2a6-490e-a03b-d8260dd18c01","system_id":"levelo_inurba_marseille","lat":43.26576,"lon":5.390135,"is_reserved":false,"is_disabled":false,"rental_uris":{"android":"levelo://app?vid=8081ba73-d2a6-490e-a03b-d8260dd18c01","ios":"levelo://app?vid=8081ba73-d2a6-490e-a03b-d8260dd18c01"},"vehicle_type_id":"4","last_reported":1758550278,"current_range_meters":17200,"station_id":"ce4bhe12rcd13ifvqf30","pricing_plan_id":"cebpf4jnsgd1na2vs0mg"},{"bike_id":"21bb353f-2989-4607-b5fb-56a4b46b67bb","system_id":"levelo_inurba_marseille","lat":43.24163,"lon":5.36388,"is_reserved":false,"is_disabled":false,"rental_uris":{"android":"levelo://app?vid=21bb353f-2989-4607-b5fb-56a4b46b67bb","ios":"levelo://app?vid=21bb353f-2989-4607-b5fb-56a4b46b67bb"},"vehicle_type_id":"4","last_reported":1758550278,"current_range_meters":17200,"station_id":"cpo36qri1sfpv3e86is0","pricing_plan_id":"cebpf4jnsgd1na2vs0mg"},{"bike_id":"0b53635f-f17e-45ad-81c1-5680b91c3102","system_id":"levelo_inurba_marseille","lat":43.32471,"lon":5.36553,"is_reserved":false,"is_disabled":false,"rental_uris":{"android":"levelo://app?vid=0b53635f-f17e-45ad-81c1-5680b91c3102","ios":"levelo://app?vid=0b53635f-f17e-45ad-81c1-5680b91c3102"},"vehicle_type_id":"4","last_reported":1758550278,"current_range_meters":17200,"station_id":"ce4bhs12rcd13ifvqhvg","pricing_plan_id":"cebpf4jnsgd1na2vs0mg"},{"bike_id":"a3458b89-3417-491e-a691-6a74358b75ac","system_id":"levelo_inurba_marseille","lat":43.2781,"lon":5.40713,"is_reserved":false,"is_disabled":false,"rental_uris":{"android":"levelo://app?vid=a3458b89-3417-491e-a691-6a74358b75ac","ios":"levelo://app?vid=a3458b89-3417-491e-a691-6a74358b75ac"},"vehicle_type_id":"4","last_reported":1758550278,"current_range_meters":17200,"station_id":"ce4bhnh2rcd13ifvqgtg","pricing_plan_id":"cebpf4jnsgd1na2vs0mg"},{"bike_id":"2b8a7b75-2ac8-48a2-8531-7901e18dd054","system_id":"levelo_inurba_marseille","lat":43.24385,"lon":5.37067,"is_reserved":false,"is_disabled":false,"rental_uris":{"android":"levelo://app?vid=2b8a7b75-2ac8-48a2-8531-7901e18dd054","ios":"levelo://app?vid=2b8a7b75-2ac8-48a2-8531-7901e18dd054"},"vehicle_type_id":"4","last_reported":1758550278,"current_range_meters":17600,"station_id":"ce4bhhh2rcd13ifvqfk0","pricing_plan_id":"cebpf4jnsgd1na2vs0mg"},{"bike_id":"28eb32c4-4f86-476b-8b2a-eb674175843e","system_id":"levelo_inurba_marseille","lat":43.265645,"lon":5.390127,"is_reserved":false,"is_disabled":false,"rental_uris":{"android":"levelo://app?vid=28eb32c4-4f86-476b-8b2a-eb674175843e","ios":"levelo://app?vid=28eb32c4-4f86-476b-8b2a-eb674175843e"},"vehicle_type_id":"4","last_reported":1758550278,"current_range_meters":17600,"station_id":"ce4bhe12rcd13ifvqf30","pricing_plan_id":"cebpf4jnsgd1na2vs0mg"},{"bike_id":"ab7a9b94-bbad-4ddc-80dd-c3c1614ee135","system_id":"levelo_inurba_marseille","lat":43.2621,"lon":5.3744,"is_reserved":false,"is_disabled":false,"rental_uris":{"android":"levelo://app?vid=ab7a9b94-bbad-4ddc-80dd-c3c1614ee135","ios":"levelo://app?vid=ab7a9b94-bbad-4ddc-80dd-c3c1614ee135"},"vehicle_type_id":"4","last_reported":1758550278,"current_range_meters":16000,"station_id":"ce4bhgp2rcd13ifvqfc0","pricing_plan_id":"cebpf4jnsgd1na2vs0mg"},{"bike_id":"13150c61-152d-436d-8daa-c280ed483848","system_id":"levelo_inurba_marseille","lat":43.32022,"lon":5.41572,"is_reserved":false,"is_disabled":false,"rental_uris":{"android":"levelo://app?vid=13150c61-152d-436d-8daa-c280ed483848","ios":"levelo://app?vid=13150c61-152d-436d-8daa-c280ed483848"},"vehicle_type_id":"4","last_reported":1758550278,"current_range_meters":17200,"station_id":"ce4bhq92rcd13ifvqhkg","pricing_plan_id":"cebpf4jnsgd1na2vs0mg"},{"bike_id":"e13b6690-2e78-494e-9a53-aa900d18e8ff","system_id":"levelo_inurba_marseille","lat":43.31693,"lon":5.37796,"is_reserved":false,"is_disabled":false,"rental_uris":{"android":"levelo://app?vid=e13b6690-2e78-494e-9a53-aa900d18e8ff","ios":"levelo://app?vid=e13b6690-2e78-494e-9a53-aa900d18e8ff"},"vehicle_type_id":"4","last_reported":1758550278,"current_range_meters":17600,"station_id":"","pricing_plan_id":"cebpf4jnsgd1na2vs0mg"},{"bike_id":"ce692d82-0609-4011-978c-317239d450b0","system_id":"levelo_inurba_marseille","lat":43.29965,"lon":5.3849,"is_reserved":false,"is_disabled":false,"rental_uris":{"android":"levelo://app?vid=ce692d82-0609-4011-978c-317239d450b0","ios":"levelo://app?vid=ce692d82-0609-4011-978c-317239d450b0"},"vehicle_type_id":"4","last_reported":1758550278,"current_range_meters":17600,"station_id":"ce4bgj92rcd13ifvqbd0","pricing_plan_id":"cebpf4jnsgd1na2vs0mg"},{"bike_id":"9e391076-32da-4bb9-bc95-64fdff9710c0","system_id":"levelo_inurba_marseille","lat":43.31323,"lon":5.39688,"is_reserved":false,"is_disabled":false,"rental_uris":{"android":"levelo://app?vid=9e391076-32da-4bb9-bc95-64fdff9710c0","ios":"levelo://app?vid=9e391076-32da-4bb9-bc95-64fdff9710c0"},"vehicle_type_id":"4","last_reported":1758550278,"current_range_meters":17200,"station_id":"ce4bgvp2rcd13ifvqcu0","pricing_plan_id":"cebpf4jnsgd1na2vs0mg"},{"bike_id":"a3957254-c7b5-441b-a03f-ab5ad0d2f066","system_id":"levelo_inurba_marseille","lat":43.28411,"lon":5.34978,"is_reserved":false,"is_disabled":false,"rental_uris":{"android":"levelo://app?vid=a3957254-c7b5-441b-a03f-ab5ad0d2f066","ios":"levelo://app?vid=a3957254-c7b5-441b-a03f-ab5ad0d2f066"},"vehicle_type_id":"4","last_reported":1758550278,"current_range_meters":18000,"station_id":"ce4bhbh2rcd13ifvqepg","pricing_plan_id":"cebpf4jnsgd1na2vs0mg"},{"bike_id":"4289f147-3fa1-47c9-be23-03ad2de17af0","system_id":"levelo_inurba_marseille","lat":43.30913,"lon":5.40159,"is_reserved":false,"is_disabled":false,"rental_uris":{"android":"levelo://app?vid=4289f147-3fa1-47c9-be23-03ad2de17af0","ios":"levelo://app?vid=4289f147-3fa1-47c9-be23-03ad2de17af0"},"vehicle_type_id":"4","last_reported":1758550278,"current_range_meters":18000,"station_id":"ce4bgvp2rcd13ifvqct0","pricing_plan_id":"cebpf4jnsgd1na2vs0mg"},{"bike_id":"4dfb4c69-9635-4461-bd30-9650c147c871","system_id":"levelo_inurba_marseille","lat":43.31689,"lon":5.3778,"is_reserved":false,"is_disabled":false,"rental_uris":{"android":"levelo://app?vid=4dfb4c69-9635-4461-bd30-9650c147c871","ios":"levelo://app?vid=4dfb4c69-9635-4461-bd30-9650c147c871"},"vehicle_type_id":"4","last_reported":1758550278,"current_range_meters":18000,"station_id":"ce4bgth2rcd13ifvqch0","pricing_plan_id":"cebpf4jnsgd1na2vs0mg"},{"bike_id":"08e88631-e676-4b74-9a2d-b3fd06d5280b","system_id":"levelo_inurba_marseille","lat":43.31161,"lon":5.38724,"is_reserved":false,"is_disabled":false,"rental_uris":{"android":"levelo://app?vid=08e88631-e676-4b74-9a2d-b3fd06d5280b","ios":"levelo://app?vid=08e88631-e676-4b74-9a2d-b3fd06d5280b"},"vehicle_type_id":"4","last_reported":1758550278,"current_range_meters":17600,"station_id":"ce4bgv12rcd13ifvqcp0","pricing_plan_id":"cebpf4jnsgd1na2vs0mg"},{"bike_id":"a545d611-006a-48f6-a34f-1e07956e279e","system_id":"levelo_inurba_marseille","lat":43.31521,"lon":5.3802,"is_reserved":false,"is_disabled":false,"rental_uris":{"android":"levelo://app?vid=a545d611-006a-48f6-a34f-1e07956e279e","ios":"levelo://app?vid=a545d611-006a-48f6-a34f-1e07956e279e"},"vehicle_type_id":"4","last_reported":1758550278,"current_range_meters":18000,"station_id":"ce4bhsp2rcd13ifvqi50","pricing_plan_id":"cebpf4jnsgd1na2vs0mg"},{"bike_id":"c4349acd-8478-4731-95c3-84be594f529f","system_id":"levelo_inurba_marseille","lat":43.30919,"lon":5.40144,"is_reserved":false,"is_disabled":false,"rental_uris":{"android":"levelo://app?vid=c4349acd-8478-4731-95c3-84be594f529f","ios":"levelo://app?vid=c4349acd-8478-4731-95c3-84be594f529f"},"vehicle_type_id":"4","last_reported":1758550278,"current_range_meters":18000,"station_id":"ce4bgvp2rcd13ifvqct0","pricing_plan_id":"cebpf4jnsgd1na2vs0mg"},{"bike_id":"07074187-f7d0-4c9c-8007-3c4d0edd4745","system_id":"levelo_inurba_marseille","lat":43.31379,"lon":5.36755,"is_reserved":false,"is_disabled":false,"rental_uris":{"android":"levelo://app?vid=07074187-f7d0-4c9c-8007-3c4d0edd4745","ios":"levelo://app?vid=07074187-f7d0-4c9c-8007-3c4d0edd4745"},"vehicle_type_id":"4","last_reported":1758550278,"current_range_meters":18000,"station_id":"","pricing_plan_id":"cebpf4jnsgd1na2vs0mg"},{"bike_id":"dc856001-3a3c-4b5f-99fb-438fb00afc9f","system_id":"levelo_inurba_marseille","lat":43.295338,"lon":5.385361,"is_reserved":false,"is_disabled":false,"rental_uris":{"android":"levelo://app?vid=dc856001-3a3c-4b5f-99fb-438fb00afc9f","ios":"levelo://app?vid=dc856001-3a3c-4b5f-99fb-438fb00afc9f"},"vehicle_type_id":"4","last_reported":1758550278,"current_range_meters":18000,"station_id":"ce4bgih2rcd13ifvqba0","pricing_plan_id":"cebpf4jnsgd1na2vs0mg"},{"bike_id":"3a2f0200-19f6-4563-8356-bbb5c698396a","system_id":"levelo_inurba_marseille","lat":43.21753,"lon":5.34574,"is_reserved":false,"is_disabled":false,"rental_uris":{"android":"levelo://app?vid=3a2f0200-19f6-4563-8356-bbb5c698396a","ios":"levelo://app?vid=3a2f0200-19f6-4563-8356-bbb5c698396a"},"vehicle_type_id":"4","last_reported":1758550278,"current_range_meters":18000,"station_id":"st_cvj6r9ubvosntc0bgbag","pricing_plan_id":"cebpf4jnsgd1na2vs0mg"},{"bike_id":"84be3e54-c732-4508-9904-6aceaca4b3cb","system_id":"levelo_inurba_marseille","lat":43.31231,"lon":5.36851,"is_reserved":false,"is_disabled":false,"rental_uris":{"android":"levelo://app?vid=84be3e54-c732-4508-9904-6aceaca4b3cb","ios":"levelo://app?vid=84be3e54-c732-4508-9904-6aceaca4b3cb"},"vehicle_type_id":"4","last_reported":1758550278,"current_range_meters":18000,"station_id":"ce4bgl92rcd13ifvqbq0","pricing_plan_id":"cebpf4jnsgd1na2vs0mg"},{"bike_id":"82cf0824-8b89-4611-a6ad-9c62a46366b8","system_id":"levelo_inurba_marseille","lat":43.3122,"lon":5.36861,"is_reserved":false,"is_disabled":false,"rental_uris":{"android":"levelo://app?vid=82cf0824-8b89-4611-a6ad-9c62a46366b8","ios":"levelo://app?vid=82cf0824-8b89-4611-a6ad-9c62a46366b8"},"vehicle_type_id":"4","last_reported":1758550278,"current_range_meters":18000,"station_id":"ce4bgl92rcd13ifvqbq0","pricing_plan_id":"cebpf4jnsgd1na2vs0mg"},{"bike_id":"7c0482c3-9253-4d1b-b4f3-be55cdb7721d","system_id":"levelo_inurba_marseille","lat":43.33757,"lon":5.37466,"is_reserved":false,"is_disabled":false,"rental_uris":{"android":"levelo://app?vid=7c0482c3-9253-4d1b-b4f3-be55cdb7721d","ios":"levelo://app?vid=7c0482c3-9253-4d1b-b4f3-be55cdb7721d"},"vehicle_type_id":"4","last_reported":1758550278,"current_range_meters":18800,"station_id":"","pricing_plan_id":"cebpf4jnsgd1na2vs0mg"},{"bike_id":"2e195247-11f9-440b-bc51-9300e1a0e171","system_id":"levelo_inurba_marseille","lat":43.322864,"lon":5.38259,"is_reserved":false,"is_disabled":false,"rental_uris":{"android":"levelo://app?vid=2e195247-11f9-440b-bc51-9300e1a0e171","ios":"levelo://app?vid=2e195247-11f9-440b-bc51-9300e1a0e171"},"vehicle_type_id":"4","last_reported":1758550278,"current_range_meters":18800,"station_id":"ce4bhr12rcd13ifvqhqg","pricing_plan_id":"cebpf4jnsgd1na2vs0mg"},{"bike_id":"901e1a35-0aae-4e53-a876-5e86f7354e36","system_id":"levelo_inurba_marseille","lat":43.24177,"lon":5.39722,"is_reserved":false,"is_disabled":false,"rental_uris":{"android":"levelo://app?vid=901e1a35-0aae-4e53-a876-5e86f7354e36","ios":"levelo://app?vid=901e1a35-0aae-4e53-a876-5e86f7354e36"},"vehicle_type_id":"4","last_reported":1758550278,"current_range_meters":18800,"station_id":"ce4bhn12rcd13ifvqgpg","pricing_plan_id":"cebpf4jnsgd1na2vs0mg"},{"bike_id":"d0bd8550-6edb-4a20-b60d-0db75ea73dbf","system_id":"levelo_inurba_marseille","lat":43.22579,"lon":5.41609,"is_reserved":false,"is_disabled":false,"rental_uris":{"android":"levelo://app?vid=d0bd8550-6edb-4a20-b60d-0db75ea73dbf","ios":"levelo://app?vid=d0bd8550-6edb-4a20-b60d-0db75ea73dbf"},"vehicle_type_id":"4","last_reported":1758550278,"current_range_meters":18800,"station_id":"st_d2o4gvlbi1j2169b742g","pricing_plan_id":"cebpf4jnsgd1na2vs0mg"},{"bike_id":"781f61f1-9221-4b14-842e-c3a99e74f6c3","system_id":"levelo_inurba_marseille","lat":43.27066,"lon":5.42264,"is_reserved":false,"is_disabled":false,"rental_uris":{"android":"levelo://app?vid=781f61f1-9221-4b14-842e-c3a99e74f6c3","ios":"levelo://app?vid=781f61f1-9221-4b14-842e-c3a99e74f6c3"},"vehicle_type_id":"4","last_reported":1758550278,"current_range_meters":18800,"station_id":"ce4bhk92rcd13ifvqgb0","pricing_plan_id":"cebpf4jnsgd1na2vs0mg"},{"bike_id":"0cc437e9-d666-4e10-b6dc-685270412547","system_id":"levelo_inurba_marseille","lat":43.29601,"lon":5.38099,"is_reserved":false,"is_disabled":false,"rental_uris":{"android":"levelo://app?vid=0cc437e9-d666-4e10-b6dc-685270412547","ios":"levelo://app?vid=0cc437e9-d666-4e10-b6dc-685270412547"},"vehicle_type_id":"4","last_reported":1758550278,"current_range_meters":18800,"station_id":"ce4bgl12rcd13ifvqbo0","pricing_plan_id":"cebpf4jnsgd1na2vs0mg"},{"bike_id":"da0213e9-b674-47fd-9574-f34179841e49","system_id":"levelo_inurba_marseille","lat":43.27051,"lon":5.40257,"is_reserved":false,"is_disabled":false,"rental_uris":{"android":"levelo://app?vid=da0213e9-b674-47fd-9574-f34179841e49","ios":"levelo://app?vid=da0213e9-b674-47fd-9574-f34179841e49"},"vehicle_type_id":"4","last_reported":1758550278,"current_range_meters":18800,"station_id":"ce4bhk92rcd13ifvqgc0","pricing_plan_id":"cebpf4jnsgd1na2vs0mg"},{"bike_id":"8c6ec981-673e-4087-a438-e08d5ca5d9c1","system_id":"levelo_inurba_marseille","lat":43.24164,"lon":5.36379,"is_reserved":false,"is_disabled":false,"rental_uris":{"android":"levelo://app?vid=8c6ec981-673e-4087-a438-e08d5ca5d9c1","ios":"levelo://app?vid=8c6ec981-673e-4087-a438-e08d5ca5d9c1"},"vehicle_type_id":"4","last_reported":1758550278,"current_range_meters":18800,"station_id":"cpo36qri1sfpv3e86is0","pricing_plan_id":"cebpf4jnsgd1na2vs0mg"},{"bike_id":"1964a7c4-f341-4518-b3f3-4cff78a650f1","system_id":"levelo_inurba_marseille","lat":43.32465,"lon":5.36549,"is_reserved":false,"is_disabled":false,"rental_uris":{"android":"levelo://app?vid=1964a7c4-f341-4518-b3f3-4cff78a650f1","ios":"levelo://app?vid=1964a7c4-f341-4518-b3f3-4cff78a650f1"},"vehicle_type_id":"4","last_reported":1758550278,"current_range_meters":18800,"station_id":"ce4bhs12rcd13ifvqhvg","pricing_plan_id":"cebpf4jnsgd1na2vs0mg"},{"bike_id":"620438fb-11f0-49cb-b600-78739d113653","system_id":"levelo_inurba_marseille","lat":43.28599,"lon":5.38467,"is_reserved":false,"is_disabled":false,"rental_uris":{"android":"levelo://app?vid=620438fb-11f0-49cb-b600-78739d113653","ios":"levelo://app?vid=620438fb-11f0-49cb-b600-78739d113653"},"vehicle_type_id":"4","last_reported":1758550278,"current_range_meters":18800,"station_id":"","pricing_plan_id":"cebpf4jnsgd1na2vs0mg"},{"bike_id":"49902547-7bb9-4ce9-9206-a021180466f2","system_id":"levelo_inurba_marseille","lat":43.3044,"lon":5.38904,"is_reserved":false,"is_disabled":false,"rental_uris":{"android":"levelo://app?vid=49902547-7bb9-4ce9-9206-a021180466f2","ios":"levelo://app?vid=49902547-7bb9-4ce9-9206-a021180466f2"},"vehicle_type_id":"4","last_reported":1758550278,"current_range_meters":19200,"station_id":"ce4bgk12rcd13ifvqbi0","pricing_plan_id":"cebpf4jnsgd1na2vs0mg"},{"bike_id":"a2bd9630-4256-4916-a9a9-5610995eafa8","system_id":"levelo_inurba_marseille","lat":43.24956,"lon":5.40478,"is_reserved":false,"is_disabled":false,"rental_uris":{"android":"levelo://app?vid=a2bd9630-4256-4916-a9a9-5610995eafa8","ios":"levelo://app?vid=a2bd9630-4256-4916-a9a9-5610995eafa8"},"vehicle_type_id":"4","last_reported":1758550278,"current_range_meters":19200,"station_id":"st_d2ngiaodas8pm72gd1h0","pricing_plan_id":"cebpf4jnsgd1na2vs0mg"},{"bike_id":"f8e45868-0255-4480-81ec-36d51cc9f1d0","system_id":"levelo_inurba_marseille","lat":43.23182,"lon":5.39972,"is_reserved":false,"is_disabled":false,"rental_uris":{"android":"levelo://app?vid=f8e45868-0255-4480-81ec-36d51cc9f1d0","ios":"levelo://app?vid=f8e45868-0255-4480-81ec-36d51cc9f1d0"},"vehicle_type_id":"4","last_reported":1758550278,"current_range_meters":18800,"station_id":"ce4bhn12rcd13ifvqgqg","pricing_plan_id":"cebpf4jnsgd1na2vs0mg"},{"bike_id":"7c168d52-716a-4676-83ac-ac5c19212d7c","system_id":"levelo_inurba_marseille","lat":43.28254,"lon":5.35068,"is_reserved":false,"is_disabled":false,"rental_uris":{"android":"levelo://app?vid=7c168d52-716a-4676-83ac-ac5c19212d7c","ios":"levelo://app?vid=7c168d52-716a-4676-83ac-ac5c19212d7c"},"vehicle_type_id":"4","last_reported":1758550278,"current_range_meters":19200,"station_id":"ce4bhbp2rcd13ifvqerg","pricing_plan_id":"cebpf4jnsgd1na2vs0mg"},{"bike_id":"01efc648-7473-4ba1-a780-462e1509a2fb","system_id":"levelo_inurba_marseille","lat":43.31325,"lon":5.39693,"is_reserved":false,"is_disabled":false,"rental_uris":{"android":"levelo://app?vid=01efc648-7473-4ba1-a780-462e1509a2fb","ios":"levelo://app?vid=01efc648-7473-4ba1-a780-462e1509a2fb"},"vehicle_type_id":"4","last_reported":1758550278,"current_range_meters":19200,"station_id":"ce4bgvp2rcd13ifvqcu0","pricing_plan_id":"cebpf4jnsgd1na2vs0mg"},{"bike_id":"2e2d96ae-b475-4e94-836a-12bff95b3f2e","system_id":"levelo_inurba_marseille","lat":43.251201,"lon":5.403168,"is_reserved":false,"is_disabled":false,"rental_uris":{"android":"levelo://app?vid=2e2d96ae-b475-4e94-836a-12bff95b3f2e","ios":"levelo://app?vid=2e2d96ae-b475-4e94-836a-12bff95b3f2e"},"vehicle_type_id":"4","last_reported":1758550278,"current_range_meters":18800,"station_id":"ce4bhlh2rcd13ifvqgig","pricing_plan_id":"cebpf4jnsgd1na2vs0mg"},{"bike_id":"81a4e843-1ca8-451f-883b-38a53b43ad96","system_id":"levelo_inurba_marseille","lat":43.29865,"lon":5.39723,"is_reserved":false,"is_disabled":false,"rental_uris":{"android":"levelo://app?vid=81a4e843-1ca8-451f-883b-38a53b43ad96","ios":"levelo://app?vid=81a4e843-1ca8-451f-883b-38a53b43ad96"},"vehicle_type_id":"4","last_reported":1758550278,"current_range_meters":19200,"station_id":"ce4bh0h2rcd13ifvqd50","pricing_plan_id":"cebpf4jnsgd1na2vs0mg"},{"bike_id":"489b5faf-42d2-4c81-98ea-9c6b6a958fca","system_id":"levelo_inurba_marseille","lat":43.21749,"lon":5.34602,"is_reserved":false,"is_disabled":false,"rental_uris":{"android":"levelo://app?vid=489b5faf-42d2-4c81-98ea-9c6b6a958fca","ios":"levelo://app?vid=489b5faf-42d2-4c81-98ea-9c6b6a958fca"},"vehicle_type_id":"4","last_reported":1758550278,"current_range_meters":19200,"station_id":"st_cvj6r9ubvosntc0bgbag","pricing_plan_id":"cebpf4jnsgd1na2vs0mg"},{"bike_id":"d4fcd38c-416c-408e-addc-9f2b139b37b9","system_id":"levelo_inurba_marseille","lat":43.28617,"lon":5.35091,"is_reserved":false,"is_disabled":false,"rental_uris":{"android":"levelo://app?vid=d4fcd38c-416c-408e-addc-9f2b139b37b9","ios":"levelo://app?vid=d4fcd38c-416c-408e-addc-9f2b139b37b9"},"vehicle_type_id":"4","last_reported":1758550278,"current_range_meters":20000,"station_id":"ce4bhch2rcd13ifvqeug","pricing_plan_id":"cebpf4jnsgd1na2vs0mg"},{"bike_id":"1cf59bf6-fd42-4d67-9f59-87015f79a41c","system_id":"levelo_inurba_marseille","lat":43.29528,"lon":5.39397,"is_reserved":false,"is_disabled":false,"rental_uris":{"android":"levelo://app?vid=1cf59bf6-fd42-4d67-9f59-87015f79a41c","ios":"levelo://app?vid=1cf59bf6-fd42-4d67-9f59-87015f79a41c"},"vehicle_type_id":"4","last_reported":1758550278,"current_range_meters":19200,"station_id":"ce4bh292rcd13ifvqdf0","pricing_plan_id":"cebpf4jnsgd1na2vs0mg"},{"bike_id":"d24dd466-02ce-4a40-865e-e4b5699b5ac4","system_id":"levelo_inurba_marseille","lat":43.292636,"lon":5.384441,"is_reserved":false,"is_disabled":false,"rental_uris":{"android":"levelo://app?vid=d24dd466-02ce-4a40-865e-e4b5699b5ac4","ios":"levelo://app?vid=d24dd466-02ce-4a40-865e-e4b5699b5ac4"},"vehicle_type_id":"4","last_reported":1758550278,"current_range_meters":19600,"station_id":"","pricing_plan_id":"cebpf4jnsgd1na2vs0mg"},{"bike_id":"aaecd3a7-54b5-4b57-b950-863c1d95f02c","system_id":"levelo_inurba_marseille","lat":43.25927,"lon":5.40911,"is_reserved":false,"is_disabled":false,"rental_uris":{"android":"levelo://app?vid=aaecd3a7-54b5-4b57-b950-863c1d95f02c","ios":"levelo://app?vid=aaecd3a7-54b5-4b57-b950-863c1d95f02c"},"vehicle_type_id":"4","last_reported":1758550278,"current_range_meters":19600,"station_id":"ce4bhm92rcd13ifvqglg","pricing_plan_id":"cebpf4jnsgd1na2vs0mg"},{"bike_id":"06a24bce-028d-4b4a-b4a3-d45296145db5","system_id":"levelo_inurba_marseille","lat":43.28425,"lon":5.34991,"is_reserved":false,"is_disabled":true,"rental_uris":{"android":"levelo://app?vid=06a24bce-028d-4b4a-b4a3-d45296145db5","ios":"levelo://app?vid=06a24bce-028d-4b4a-b4a3-d45296145db5"},"vehicle_type_id":"4","last_reported":1758550278,"current_range_meters":19600,"station_id":"ce4bhch2rcd13ifvqeug","pricing_plan_id":"cebpf4jnsgd1na2vs0mg"},{"bike_id":"315df36b-57a6-4c3f-9de4-ac73c15e0d22","system_id":"levelo_inurba_marseille","lat":43.32357,"lon":5.36725,"is_reserved":false,"is_disabled":false,"rental_uris":{"android":"levelo://app?vid=315df36b-57a6-4c3f-9de4-ac73c15e0d22","ios":"levelo://app?vid=315df36b-57a6-4c3f-9de4-ac73c15e0d22"},"vehicle_type_id":"4","last_reported":1758550278,"current_range_meters":19600,"station_id":"ce4bhsh2rcd13ifvqi2g","pricing_plan_id":"cebpf4jnsgd1na2vs0mg"},{"bike_id":"eb22dfdb-8618-458e-b283-af3846fe978a","system_id":"levelo_inurba_marseille","lat":43.21196,"lon":5.35072,"is_reserved":false,"is_disabled":false,"rental_uris":{"android":"levelo://app?vid=eb22dfdb-8618-458e-b283-af3846fe978a","ios":"levelo://app?vid=eb22dfdb-8618-458e-b283-af3846fe978a"},"vehicle_type_id":"4","last_reported":1758550278,"current_range_meters":19600,"station_id":"st_cvj6sg6p6f1abm77japg","pricing_plan_id":"cebpf4jnsgd1na2vs0mg"},{"bike_id":"0375bfdd-e440-450e-8cf3-4163c37f09ca","system_id":"levelo_inurba_marseille","lat":43.26572,"lon":5.3901,"is_reserved":false,"is_disabled":false,"rental_uris":{"android":"levelo://app?vid=0375bfdd-e440-450e-8cf3-4163c37f09ca","ios":"levelo://app?vid=0375bfdd-e440-450e-8cf3-4163c37f09ca"},"vehicle_type_id":"4","last_reported":1758550278,"current_range_meters":20000,"station_id":"ce4bhe12rcd13ifvqf30","pricing_plan_id":"cebpf4jnsgd1na2vs0mg"},{"bike_id":"221e2196-afaa-4d6b-90ce-70b458e00445","system_id":"levelo_inurba_marseille","lat":43.25712,"lon":5.411203,"is_reserved":false,"is_disabled":false,"rental_uris":{"android":"levelo://app?vid=221e2196-afaa-4d6b-90ce-70b458e00445","ios":"levelo://app?vid=221e2196-afaa-4d6b-90ce-70b458e00445"},"vehicle_type_id":"4","last_reported":1758550278,"current_range_meters":20000,"station_id":"ce4bhkp2rcd13ifvqgd0","pricing_plan_id":"cebpf4jnsgd1na2vs0mg"},{"bike_id":"eb5190fa-bd30-41b7-a548-e0c86b66b114","system_id":"levelo_inurba_marseille","lat":43.3053,"lon":5.36534,"is_reserved":false,"is_disabled":false,"rental_uris":{"android":"levelo://app?vid=eb5190fa-bd30-41b7-a548-e0c86b66b114","ios":"levelo://app?vid=eb5190fa-bd30-41b7-a548-e0c86b66b114"},"vehicle_type_id":"4","last_reported":1758550278,"current_range_meters":20000,"station_id":"ce4bgs12rcd13ifvqcag","pricing_plan_id":"cebpf4jnsgd1na2vs0mg"},{"bike_id":"aec795af-edb4-4cb9-ad24-bcd1425b355e","system_id":"levelo_inurba_marseille","lat":43.27685,"lon":5.38874,"is_reserved":false,"is_disabled":false,"rental_uris":{"android":"levelo://app?vid=aec795af-edb4-4cb9-ad24-bcd1425b355e","ios":"levelo://app?vid=aec795af-edb4-4cb9-ad24-bcd1425b355e"},"vehicle_type_id":"4","last_reported":1758550278,"current_range_meters":20000,"station_id":"ce4bhi12rcd13ifvqfo0","pricing_plan_id":"cebpf4jnsgd1na2vs0mg"},{"bike_id":"dddca5ef-4a33-499b-936a-6d8e6136a417","system_id":"levelo_inurba_marseille","lat":43.22934,"lon":5.35371,"is_reserved":false,"is_disabled":false,"rental_uris":{"android":"levelo://app?vid=dddca5ef-4a33-499b-936a-6d8e6136a417","ios":"levelo://app?vid=dddca5ef-4a33-499b-936a-6d8e6136a417"},"vehicle_type_id":"4","last_reported":1758550278,"current_range_meters":20000,"station_id":"cpo3532slgdg3j2ikp40","pricing_plan_id":"cebpf4jnsgd1na2vs0mg"},{"bike_id":"8d6f9637-3082-48de-8f7d-338a378e9a52","system_id":"levelo_inurba_marseille","lat":43.28929,"lon":5.39627,"is_reserved":false,"is_disabled":false,"rental_uris":{"android":"levelo://app?vid=8d6f9637-3082-48de-8f7d-338a378e9a52","ios":"levelo://app?vid=8d6f9637-3082-48de-8f7d-338a378e9a52"},"vehicle_type_id":"4","last_reported":1758550278,"current_range_meters":20000,"station_id":"ce4bh3h2rcd13ifvqdn0","pricing_plan_id":"cebpf4jnsgd1na2vs0mg"},{"bike_id":"ae120358-f216-4068-ad01-4086055189dc","system_id":"levelo_inurba_marseille","lat":43.23957,"lon":5.366367,"is_reserved":false,"is_disabled":false,"rental_uris":{"android":"levelo://app?vid=ae120358-f216-4068-ad01-4086055189dc","ios":"levelo://app?vid=ae120358-f216-4068-ad01-4086055189dc"},"vehicle_type_id":"4","last_reported":1758550278,"current_range_meters":20400,"station_id":"ce4bhi12rcd13ifvqfp0","pricing_plan_id":"cebpf4jnsgd1na2vs0mg"},{"bike_id":"8bdc26a8-dc8f-4331-aca0-2cb41632ca44","system_id":"levelo_inurba_marseille","lat":43.274271,"lon":5.394024,"is_reserved":false,"is_disabled":false,"rental_uris":{"android":"levelo://app?vid=8bdc26a8-dc8f-4331-aca0-2cb41632ca44","ios":"levelo://app?vid=8bdc26a8-dc8f-4331-aca0-2cb41632ca44"},"vehicle_type_id":"4","last_reported":1758550278,"current_range_meters":20400,"station_id":"ce4bhdp2rcd13ifvqf20","pricing_plan_id":"cebpf4jnsgd1na2vs0mg"},{"bike_id":"2da365e3-379b-4013-8549-104cca848cf6","system_id":"levelo_inurba_marseille","lat":43.30798,"lon":5.38157,"is_reserved":false,"is_disabled":false,"rental_uris":{"android":"levelo://app?vid=2da365e3-379b-4013-8549-104cca848cf6","ios":"levelo://app?vid=2da365e3-379b-4013-8549-104cca848cf6"},"vehicle_type_id":"4","last_reported":1758550278,"current_range_meters":20400,"station_id":"ce4bgt12rcd13ifvqce0","pricing_plan_id":"cebpf4jnsgd1na2vs0mg"},{"bike_id":"d773683a-4225-440f-97d9-3566833042e4","system_id":"levelo_inurba_marseille","lat":43.29594,"lon":5.38098,"is_reserved":false,"is_disabled":false,"rental_uris":{"android":"levelo://app?vid=d773683a-4225-440f-97d9-3566833042e4","ios":"levelo://app?vid=d773683a-4225-440f-97d9-3566833042e4"},"vehicle_type_id":"4","last_reported":1758550278,"current_range_meters":20400,"station_id":"ce4bgl12rcd13ifvqbo0","pricing_plan_id":"cebpf4jnsgd1na2vs0mg"},{"bike_id":"18dc947d-2e61-440c-9e9c-3a0c5e136b99","system_id":"levelo_inurba_marseille","lat":43.29621,"lon":5.37692,"is_reserved":false,"is_disabled":false,"rental_uris":{"android":"levelo://app?vid=18dc947d-2e61-440c-9e9c-3a0c5e136b99","ios":"levelo://app?vid=18dc947d-2e61-440c-9e9c-3a0c5e136b99"},"vehicle_type_id":"4","last_reported":1758550278,"current_range_meters":20400,"station_id":"ce4bgi92rcd13ifvqb90","pricing_plan_id":"cebpf4jnsgd1na2vs0mg"},{"bike_id":"256595de-240d-4c5f-a89b-19203ce847b4","system_id":"levelo_inurba_marseille","lat":43.28718,"lon":5.37946,"is_reserved":false,"is_disabled":false,"rental_uris":{"android":"levelo://app?vid=256595de-240d-4c5f-a89b-19203ce847b4","ios":"levelo://app?vid=256595de-240d-4c5f-a89b-19203ce847b4"},"vehicle_type_id":"4","last_reported":1758550278,"current_range_meters":20800,"station_id":"ce4bh9p2rcd13ifvqec0","pricing_plan_id":"cebpf4jnsgd1na2vs0mg"},{"bike_id":"d006181b-b46b-4fea-8675-345ce0f130d6","system_id":"levelo_inurba_marseille","lat":43.310098,"lon":5.368266,"is_reserved":false,"is_disabled":false,"rental_uris":{"android":"levelo://app?vid=d006181b-b46b-4fea-8675-345ce0f130d6","ios":"levelo://app?vid=d006181b-b46b-4fea-8675-345ce0f130d6"},"vehicle_type_id":"4","last_reported":1758550278,"current_range_meters":20800,"station_id":"","pricing_plan_id":"cebpf4jnsgd1na2vs0mg"},