{"last_updated":1685113556,"ttl":30,"version":"2.2","data":{"bikes":[{"bike_id":"a7b09062-48fe-48ec-9334-e75786a7e2f1","system_id":"levelo_inurba_marseille","lat":43.314811,"lon":5.373104,"is_reserved":false,"is_disabled":false,"rental_uris":{"android":"levelo://app?vid=a7b09062-48fe-48ec-9334-e75786a7e2f1","ios":"levelo://app?vid=a7b09062-48fe-48ec-9334-e75786a7e2f1"},"vehicle_type_id":"4","last_reported":1685113557,"current_range_meters":10400,"station_id":"ce4bgt12rcd13ifvqcd0","pricing_plan_id":"free"},{"bike_id":"f42de6ea-8fe6-40e5-9650-3efb45c3f1de","system_id":"levelo_inurba_marseille","lat":43.309076,"lon":5.368465,"is_reserved":false,"is_disabled":false,"rental_uris":{"android":"levelo://app?vid=f42de6ea-8fe6-40e5-9650-3efb45c3f1de","ios":"levelo://app?vid=f42de6ea-8fe6-40e5-9650-3efb45c3f1de"},"vehicle_type_id":"4","last_reported":1685113557,"current_range_meters":3200,"station_id":"ce4bgn92rcd13ifvqbvg","pricing_plan_id":"free"},{"bike_id":"122cf004-c517-4c38-86eb-0724085fecd9","system_id":"levelo_inurba_marseille","lat":43.314811,"lon":5.373104,"is_reserved":false,"is_disabled":false,"rental_uris":{"android":"levelo://app?vid=122cf004-c517-4c38-86eb-0724085fecd9","ios":"levelo://app?vid=122cf004-c517-4c38-86eb-0724085fecd9"},"vehicle_type_id":"4","last_reported":1685113557,"current_range_meters":18800,"station_id":"ce4bgt12rcd13ifvqcd0","pricing_plan_id":"free"},{"bike_id":"0a6062cc-7086-4d4a-8a46-0afccf6c87e0","system_id":"levelo_inurba_marseille","lat":43.30563,"lon":5.36557,"is_reserved":false,"is_disabled":false,"rental_uris":{"android":"levelo://app?vid=0a6062cc-7086-4d4a-8a46-0afccf6c87e0","ios":"levelo://app?vid=0a6062cc-7086-4d4a-8a46-0afccf6c87e0"},"vehicle_type_id":"4","last_reported":1685113557,"current_range_meters":28400,"station_id":"ce4bgs12rcd13ifvqcag","pricing_plan_id":"free"},{"bike_id":"1b64ab5a-3859-4ebe-8cbc-88e2436ea8d0","system_id":"levelo_inurba_marseille","lat":43.30538,"lon":5.3655,"is_reserved":false,"is_disabled":false,"rental_uris":{"android":"levelo://app?vid=1b64ab5a-3859-4ebe-8cbc-88e2436ea8d0","ios":"levelo://app?vid=1b64ab5a-3859-4ebe-8cbc-88e2436ea8d0"},"vehicle_type_id":"4","last_reported":1685113557,"current_range_meters":0,"station_id":"","pricing_plan_id":"free"},{"bike_id":"8d3478fa-b673-491f-ac79-beb6c5519fdc","system_id":"levelo_inurba_marseille","lat":43.305368,"lon":5.367343,"is_reserved":false,"is_disabled":false,"rental_uris":{"android":"levelo://app?vid=8d3478fa-b673-491f-ac79-beb6c5519fdc","ios":"levelo://app?vid=8d3478fa-b673-491f-ac79-beb6c5519fdc"},"vehicle_type_id":"4","last_reported":1685113557,"current_range_meters":12800,"station_id":"ce4bgrp2rcd13ifvqc9g","pricing_plan_id":"free"},{"bike_id":"26ffb7c1-dfff-434c-8734-8723ca682b71","system_id":"levelo_inurba_marseille","lat":43.30499,"lon":5.36713,"is_reserved":false,"is_disabled":false,"rental_uris":{"android":"levelo://app?vid=26ffb7c1-dfff-434c-8734-8723ca682b71","ios":"levelo://app?vid=26ffb7c1-dfff-434c-8734-8723ca682b71"},"vehicle_type_id":"4","last_reported":1685113557,"current_range_meters":18400,"station_id":"","pricing_plan_id":"free"},{"bike_id":"6e525f8e-fada-438b-8962-be17960116b6","system_id":"levelo_inurba_marseille","lat":43.311131,"lon":5.377651,"is_reserved":false,"is_disabled":false,"rental_uris":{"android":"levelo://app?vid=6e525f8e-fada-438b-8962-be17960116b6","ios":"levelo://app?vid=6e525f8e-fada-438b-8962-be17960116b6"},"vehicle_type_id":"4","last_reported":1685113557,"current_range_meters":22400,"station_id":"ce4bgt92rcd13ifvqcg0","pricing_plan_id":"free"},{"bike_id":"bf817006-0f77-4407-b98a-e75a9db127e0","system_id":"levelo_inurba_marseille","lat":43.31714,"lon":5.37746,"is_reserved":false,"is_disabled":false,"rental_uris":{"android":"levelo://app?vid=bf817006-0f77-4407-b98a-e75a9db127e0","ios":"levelo://app?vid=bf817006-0f77-4407-b98a-e75a9db127e0"},"vehicle_type_id":"4","last_reported":1685113557,"current_range_meters":23200,"station_id":"ce4bgth2rcd13ifvqch0","pricing_plan_id":"free"},{"bike_id":"8d3b898a-41aa-4f28-b1a2-33ce656ae17f","system_id":"levelo_inurba_marseille","lat":43.317075,"lon":5.377367,"is_reserved":false,"is_disabled":false,"rental_uris":{"android":"levelo://app?vid=8d3b898a-41aa-4f28-b1a2-33ce656ae17f","ios":"levelo://app?vid=8d3b898a-41aa-4f28-b1a2-33ce656ae17f"},"vehicle_type_id":"4","last_reported":1685113557,"current_range_meters":31200,"station_id":"ce4bgth2rcd13ifvqch0","pricing_plan_id":"free"},{"bike_id":"53b73a03-1ea9-4616-877f-850722ecc6a5","system_id":"levelo_inurba_marseille","lat":43.30365,"lon":5.36503,"is_reserved":false,"is_disabled":false,"rental_uris":{"android":"levelo://app?vid=53b73a03-1ea9-4616-877f-850722ecc6a5","ios":"levelo://app?vid=53b73a03-1ea9-4616-877f-850722ecc6a5"},"vehicle_type_id":"4","last_reported":1685113557,"current_range_meters":15200,"station_id":"","pricing_plan_id":"free"},{"bike_id":"fd38c318-e10c-4ea0-8386-140691495f8d","system_id":"levelo_inurba_marseille","lat":43.31713,"lon":5.37832,"is_reserved":false,"is_disabled":false,"rental_uris":{"android":"levelo://app?vid=fd38c318-e10c-4ea0-8386-140691495f8d","ios":"levelo://app?vid=fd38c318-e10c-4ea0-8386-140691495f8d"},"vehicle_type_id":"4","last_reported":1685113557,"current_range_meters":24400,"station_id":"","pricing_plan_id":"free"},{"bike_id":"95c26382-10e7-44fc-9963-e7d4ba5ba9cb","system_id":"levelo_inurba_marseille","lat":43.30304,"lon":5.368987,"is_reserved":false,"is_disabled":false,"rental_uris":{"android":"levelo://app?vid=95c26382-10e7-44fc-9963-e7d4ba5ba9cb","ios":"levelo://app?vid=95c26382-10e7-44fc-9963-e7d4ba5ba9cb"},"vehicle_type_id":"4","last_reported":1685113557,"current_range_meters":29600,"station_id":"ce4bgqh2rcd13ifvqc5g","pricing_plan_id":"free"},{"bike_id":"ec25e4d7-da61-47e3-ac54-8c714086c417","system_id":"levelo_inurba_marseille","lat":43.315289,"lon":5.380349,"is_reserved":false,"is_disabled":false,"rental_uris":{"android":"levelo://app?vid=ec25e4d7-da61-47e3-ac54-8c714086c417","ios":"levelo://app?vid=ec25e4d7-da61-47e3-ac54-8c714086c417"},"vehicle_type_id":"4","last_reported":1685113557,"current_range_meters":1600,"station_id":"ce4bhsp2rcd13ifvqi50","pricing_plan_id":"free"},{"bike_id":"aac9a0ca-cacc-419b-9cd9-c08d8c656c89","system_id":"levelo_inurba_marseille","lat":43.30799,"lon":5.38151,"is_reserved":false,"is_disabled":false,"rental_uris":{"android":"levelo://app?vid=aac9a0ca-cacc-419b-9cd9-c08d8c656c89","ios":"levelo://app?vid=aac9a0ca-cacc-419b-9cd9-c08d8c656c89"},"vehicle_type_id":"4","last_reported":1685113557,"current_range_meters":8000,"station_id":"","pricing_plan_id":"free"},{"bike_id":"b4ba5273-2d6a-40eb-8623-3e0b67492d46","system_id":"levelo_inurba_marseille","lat":43.307945,"lon":5.381515,"is_reserved":false,"is_disabled":false,"rental_uris":{"android":"levelo://app?vid=b4ba5273-2d6a-40eb-8623-3e0b67492d46","ios":"levelo://app?vid=b4ba5273-2d6a-40eb-8623-3e0b67492d46"},"vehicle_type_id":"4","last_reported":1685113557,"current_range_meters":3200,"station_id":"","pricing_plan_id":"free"},{"bike_id":"6cff25ca-6669-4103-b8ae-c63dcb2183bc","system_id":"levelo_inurba_marseille","lat":43.308012,"lon":5.381511,"is_reserved":false,"is_disabled":false,"rental_uris":{"android":"levelo://app?vid=6cff25ca-6669-4103-b8ae-c63dcb2183bc","ios":"levelo://app?vid=6cff25ca-6669-4103-b8ae-c63dcb2183bc"},"vehicle_type_id":"4","last_reported":1685113557,"current_range_meters":5600,"station_id":"ce4bgt12rcd13ifvqce0","pricing_plan_id":"free"},{"bike_id":"5861c3b8-fa4c-492d-8d88-fd0c99489c40","system_id":"levelo_inurba_marseille","lat":43.30428,"lon":5.378,"is_reserved":false,"is_disabled":false,"rental_uris":{"android":"levelo://app?vid=5861c3b8-fa4c-492d-8d88-fd0c99489c40","ios":"levelo://app?vid=5861c3b8-fa4c-492d-8d88-fd0c99489c40"},"vehicle_type_id":"4","last_reported":1685113557,"current_range_meters":6000,"station_id":"","pricing_plan_id":"free"},{"bike_id":"cefcc7f2-c4b8-4a3e-8767-146923fe6f77","system_id":"levelo_inurba_marseille","lat":43.304606,"lon":5.379026,"is_reserved":false,"is_disabled":false,"rental_uris":{"android":"levelo://app?vid=cefcc7f2-c4b8-4a3e-8767-146923fe6f77","ios":"levelo://app?vid=cefcc7f2-c4b8-4a3e-8767-146923fe6f77"},"vehicle_type_id":"4","last_reported":1685113557,"current_range_meters":21600,"station_id":"ce4bgup2rcd13ifvqcn0","pricing_plan_id":"free"},{"bike_id":"eed83a84-d1ea-4cf5-b21b-9f89641f4ebd","system_id":"levelo_inurba_marseille","lat":43.304606,"lon":5.379026,"is_reserved":false,"is_disabled":false,"rental_uris":{"android":"levelo://app?vid=eed83a84-d1ea-4cf5-b21b-9f89641f4ebd","ios":"levelo://app?vid=eed83a84-d1ea-4cf5-b21b-9f89641f4ebd"},"vehicle_type_id":"4","last_reported":1685113557,"current_range_meters":800,"station_id":"ce4bgup2rcd13ifvqcn0","pricing_plan_id":"free"},{"bike_id":"48b4e6de-7659-4c51-bc03-5d8dcb480558","system_id":"levelo_inurba_marseille","lat":43.30463,"lon":5.379113,"is_reserved":false,"is_disabled":false,"rental_uris":{"android":"levelo://app?vid=48b4e6de-7659-4c51-bc03-5d8dcb480558","ios":"levelo://app?vid=48b4e6de-7659-4c51-bc03-5d8dcb480558"},"vehicle_type_id":"4","last_reported":1685113557,"current_range_meters":2400,"station_id":"","pricing_plan_id":"free"},{"bike_id":"f97da2a2-82dc-43d3-b876-1f9cc9f4f6dc","system_id":"levelo_inurba_marseille","lat":43.304606,"lon":5.379026,"is_reserved":false,"is_disabled":false,"rental_uris":{"android":"levelo://app?vid=f97da2a2-82dc-43d3-b876-1f9cc9f4f6dc","ios":"levelo://app?vid=f97da2a2-82dc-43d3-b876-1f9cc9f4f6dc"},"vehicle_type_id":"4","last_reported":1685113557,"current_range_meters":23600,"station_id":"ce4bgup2rcd13ifvqcn0","pricing_plan_id":"free"},{"bike_id":"b3433456-ef08-4876-a161-fe700101ad21","system_id":"levelo_inurba_marseille","lat":43.30142,"lon":5.37398,"is_reserved":false,"is_disabled":false,"rental_uris":{"android":"levelo://app?vid=b3433456-ef08-4876-a161-fe700101ad21","ios":"levelo://app?vid=b3433456-ef08-4876-a161-fe700101ad21"},"vehicle_type_id":"4","last_reported":1685113557,"current_range_meters":7200,"station_id":"","pricing_plan_id":"free"},{"bike_id":"a69ee53e-2e86-4afb-a71f-a8ee5d37e6d7","system_id":"levelo_inurba_marseille","lat":43.30142,"lon":5.374,"is_reserved":false,"is_disabled":false,"rental_uris":{"android":"levelo://app?vid=a69ee53e-2e86-4afb-a71f-a8ee5d37e6d7","ios":"levelo://app?vid=a69ee53e-2e86-4afb-a71f-a8ee5d37e6d7"},"vehicle_type_id":"4","last_reported":1685113557,"current_range_meters":2000,"station_id":"","pricing_plan_id":"free"},{"bike_id":"bfdcad51-97fc-4fc5-8b82-c545596782cd","system_id":"levelo_inurba_marseille","lat":43.319935,"lon":5.381699,"is_reserved":false,"is_disabled":false,"rental_uris":{"android":"levelo://app?vid=bfdcad51-97fc-4fc5-8b82-c545596782cd","ios":"levelo://app?vid=bfdcad51-97fc-4fc5-8b82-c545596782cd"},"vehicle_type_id":"4","last_reported":1685113557,"current_range_meters":28400,"station_id":"ce4bhr12rcd13ifvqhpg","pricing_plan_id":"free"},{"bike_id":"ec2bf9d8-bdcd-4d00-823b-5e25cb80cc6b","system_id":"levelo_inurba_marseille","lat":43.31995,"lon":5.38155,"is_reserved":false,"is_disabled":false,"rental_uris":{"android":"levelo://app?vid=ec2bf9d8-bdcd-4d00-823b-5e25cb80cc6b","ios":"levelo://app?vid=ec2bf9d8-bdcd-4d00-823b-5e25cb80cc6b"},"vehicle_type_id":"4","last_reported":1685113557,"current_range_meters":28400,"station_id":"ce4bhr12rcd13ifvqhpg","pricing_plan_id":"free"},{"bike_id":"530a238a-2fe4-4ada-b174-d32325afbdf2","system_id":"levelo_inurba_marseille","lat":43.31997,"lon":5.38154,"is_reserved":false,"is_disabled":false,"rental_uris":{"android":"levelo://app?vid=530a238a-2fe4-4ada-b174-d32325afbdf2","ios":"levelo://app?vid=530a238a-2fe4-4ada-b174-d32325afbdf2"},"vehicle_type_id":"4","last_reported":1685113557,"current_range_meters":25600,"station_id":"ce4bhr12rcd13ifvqhpg","pricing_plan_id":"free"},{"bike_id":"e5571f58-adb6-49b7-8c86-2d757ae8e1a0","system_id":"levelo_inurba_marseille","lat":43.319935,"lon":5.381699,"is_reserved":false,"is_disabled":false,"rental_uris":{"android":"levelo://app?vid=e5571f58-adb6-49b7-8c86-2d757ae8e1a0","ios":"levelo://app?vid=e5571f58-adb6-49b7-8c86-2d757ae8e1a0"},"vehicle_type_id":"4","last_reported":1685113557,"current_range_meters":18000,"station_id":"ce4bhr12rcd13ifvqhpg","pricing_plan_id":"free"},{"bike_id":"ed0af2c9-d311-4056-bf56-2135ca45404c","system_id":"levelo_inurba_marseille","lat":43.32001,"lon":5.38152,"is_reserved":false,"is_disabled":false,"rental_uris":{"android":"levelo://app?vid=ed0af2c9-d311-4056-bf56-2135ca45404c","ios":"levelo://app?vid=ed0af2c9-d311-4056-bf56-2135ca45404c"},"vehicle_type_id":"4","last_reported":1685113557,"current_range_meters":18800,"station_id":"ce4bhr12rcd13ifvqhpg","pricing_plan_id":"free"},{"bike_id":"15085faf-94d1-454c-8de1-c9482918e24b","system_id":"levelo_inurba_marseille","lat":43.32,"lon":5.38173,"is_reserved":false,"is_disabled":false,"rental_uris":{"android":"levelo://app?vid=15085faf-94d1-454c-8de1-c9482918e24b","ios":"levelo://app?vid=15085faf-94d1-454c-8de1-c9482918e24b"},"vehicle_type_id":"4","last_reported":1685113557,"current_range_meters":8800,"station_id":"ce4bhr12rcd13ifvqhpg","pricing_plan_id":"free"},{"bike_id":"a3bb66bb-2216-4fbe-885b-467d51fa1213","system_id":"levelo_inurba_marseille","lat":43.313571,"lon":5.384829,"is_reserved":false,"is_disabled":false,"rental_uris":{"android":"levelo://app?vid=a3bb66bb-2216-4fbe-885b-467d51fa1213","ios":"levelo://app?vid=a3bb66bb-2216-4fbe-885b-467d51fa1213"},"vehicle_type_id":"4","last_reported":1685113557,"current_range_meters":4000,"station_id":"ce4bgt92rcd13ifvqcf0","pricing_plan_id":"free"},{"bike_id":"6c9bfc00-074e-4140-8b20-3755cf51e70b","system_id":"levelo_inurba_marseille","lat":43.313571,"lon":5.384829,"is_reserved":false,"is_disabled":false,"rental_uris":{"android":"levelo://app?vid=6c9bfc00-074e-4140-8b20-3755cf51e70b","ios":"levelo://app?vid=6c9bfc00-074e-4140-8b20-3755cf51e70b"},"vehicle_type_id":"4","last_reported":1685113557,"current_range_meters":20000,"station_id":"ce4bgt92rcd13ifvqcf0","pricing_plan_id":"free"},{"bike_id":"5ada71fe-6105-4bc3-b995-4c14490d5b0e","system_id":"levelo_inurba_marseille","lat":43.299222,"lon":5.365554,"is_reserved":false,"is_disabled":false,"rental_uris":{"android":"levelo://app?vid=5ada71fe-6105-4bc3-b995-4c14490d5b0e","ios":"levelo://app?vid=5ada71fe-6105-4bc3-b995-4c14490d5b0e"},"vehicle_type_id":"4","last_reported":1685113557,"current_range_meters":4000,"station_id":"ce4bgm92rcd13ifvqbr0","pricing_plan_id":"free"},{"bike_id":"0d6739ca-c2fe-4c7a-a843-4491068a992b","system_id":"levelo_inurba_marseille","lat":43.31371,"lon":5.38515,"is_reserved":false,"is_disabled":false,"rental_uris":{"android":"levelo://app?vid=0d6739ca-c2fe-4c7a-a843-4491068a992b","ios":"levelo://app?vid=0d6739ca-c2fe-4c7a-a843-4491068a992b"},"vehicle_type_id":"4","last_reported":1685113557,"current_range_meters":24000,"station_id":"","pricing_plan_id":"free"},{"bike_id":"7835b17b-8043-45ce-9dfb-e499898bfd51","system_id":"levelo_inurba_marseille","lat":43.29853,"lon":5.36286,"is_reserved":false,"is_disabled":false,"rental_uris":{"android":"levelo://app?vid=7835b17b-8043-45ce-9dfb-e499898bfd51","ios":"levelo://app?vid=7835b17b-8043-45ce-9dfb-e499898bfd51"},"vehicle_type_id":"4","last_reported":1685113557,"current_range_meters":21200,"station_id":"ce4bgpp2rcd13ifvqc3g","pricing_plan_id":"free"},{"bike_id":"d2d25fca-3667-43cf-a739-6d1518645353","system_id":"levelo_inurba_marseille","lat":43.29854,"lon":5.36278,"is_reserved":false,"is_disabled":false,"rental_uris":{"android":"levelo://app?vid=d2d25fca-3667-43cf-a739-6d1518645353","ios":"levelo://app?vid=d2d25fca-3667-43cf-a739-6d1518645353"},"vehicle_type_id":"4","last_reported":1685113557,"current_range_meters":31200,"station_id":"ce4bgpp2rcd13ifvqc3g","pricing_plan_id":"free"},{"bike_id":"bb99bfe7-aa66-4ae9-bbad-72a26db2b4a8","system_id":"levelo_inurba_marseille","lat":43.29848,"lon":5.36281,"is_reserved":false,"is_disabled":false,"rental_uris":{"android":"levelo://app?vid=bb99bfe7-aa66-4ae9-bbad-72a26db2b4a8","ios":"levelo://app?vid=bb99bfe7-aa66-4ae9-bbad-72a26db2b4a8"},"vehicle_type_id":"4","last_reported":1685113557,"current_range_meters":18000,"station_id":"ce4bgpp2rcd13ifvqc3g","pricing_plan_id":"free"},{"bike_id":"792f2d03-3398-4b28-b0ef-e7cc779a854e","system_id":"levelo_inurba_marseille","lat":43.298433,"lon":5.362774,"is_reserved":false,"is_disabled":false,"rental_uris":{"android":"levelo://app?vid=792f2d03-3398-4b28-b0ef-e7cc779a854e","ios":"levelo://app?vid=792f2d03-3398-4b28-b0ef-e7cc779a854e"},"vehicle_type_id":"4","last_reported":1685113557,"current_range_meters":7600,"station_id":"ce4bgpp2rcd13ifvqc3g","pricing_plan_id":"free"},{"bike_id":"f79326b5-d545-4ae8-a197-2f193d7892a4","system_id":"levelo_inurba_marseille","lat":43.31177,"lon":5.38717,"is_reserved":false,"is_disabled":false,"rental_uris":{"android":"levelo://app?vid=f79326b5-d545-4ae8-a197-2f193d7892a4","ios":"levelo://app?vid=f79326b5-d545-4ae8-a197-2f193d7892a4"},"vehicle_type_id":"4","last_reported":1685113557,"current_range_meters":1600,"station_id":"ce4bgv12rcd13ifvqcp0","pricing_plan_id":"free"},{"bike_id":"c1a05d9a-ad97-4a75-ac1f-858564516ae2","system_id":"levelo_inurba_marseille","lat":43.29762,"lon":5.36596,"is_reserved":false,"is_disabled":false,"rental_uris":{"android":"levelo://app?vid=c1a05d9a-ad97-4a75-ac1f-858564516ae2","ios":"levelo://app?vid=c1a05d9a-ad97-4a75-ac1f-858564516ae2"},"vehicle_type_id":"4","last_reported":1685113557,"current_range_meters":2400,"station_id":"","pricing_plan_id":"free"},{"bike_id":"fad50468-bff6-4eb0-bc39-08e7203bec60","system_id":"levelo_inurba_marseille","lat":43.328371,"lon":5.366909,"is_reserved":false,"is_disabled":false,"rental_uris":{"android":"levelo://app?vid=fad50468-bff6-4eb0-bc39-08e7203bec60","ios":"levelo://app?vid=fad50468-bff6-4eb0-bc39-08e7203bec60"},"vehicle_type_id":"4","last_reported":1685113557,"current_range_meters":12800,"station_id":"ce4bhs92rcd13ifvqi0g","pricing_plan_id":"free"},{"bike_id":"429b97c6-a371-4978-8ba9-f3c604051290","system_id":"levelo_inurba_marseille","lat":43.29722,"lon":5.36613,"is_reserved":false,"is_disabled":false,"rental_uris":{"android":"levelo://app?vid=429b97c6-a371-4978-8ba9-f3c604051290","ios":"levelo://app?vid=429b97c6-a371-4978-8ba9-f3c604051290"},"vehicle_type_id":"4","last_reported":1685113557,"current_range_meters":12000,"station_id":"","pricing_plan_id":"free"},{"bike_id":"4fe812b5-a152-4f6f-a5e4-5b2d482ba70f","system_id":"levelo_inurba_marseille","lat":43.32831,"lon":5.36687,"is_reserved":false,"is_disabled":false,"rental_uris":{"android":"levelo://app?vid=4fe812b5-a152-4f6f-a5e4-5b2d482ba70f","ios":"levelo://app?vid=4fe812b5-a152-4f6f-a5e4-5b2d482ba70f"},"vehicle_type_id":"4","last_reported":1685113557,"current_range_meters":14800,"station_id":"ce4bhs92rcd13ifvqi0g","pricing_plan_id":"free"},{"bike_id":"15bdd509-ac6b-486d-a3af-74b1c552f2cb","system_id":"levelo_inurba_marseille","lat":43.32832,"lon":5.36688,"is_reserved":false,"is_disabled":false,"rental_uris":{"android":"levelo://app?vid=15bdd509-ac6b-486d-a3af-74b1c552f2cb","ios":"levelo://app?vid=15bdd509-ac6b-486d-a3af-74b1c552f2cb"},"vehicle_type_id":"4","last_reported":1685113557,"current_range_meters":15600,"station_id":"ce4bhs92rcd13ifvqi0g","pricing_plan_id":"free"},{"bike_id":"bbf06f8d-4083-4a31-beff-723604c0f8b8","system_id":"levelo_inurba_marseille","lat":43.32835,"lon":5.36692,"is_reserved":false,"is_disabled":false,"rental_uris":{"android":"levelo://app?vid=bbf06f8d-4083-4a31-beff-723604c0f8b8","ios":"levelo://app?vid=bbf06f8d-4083-4a31-beff-723604c0f8b8"},"vehicle_type_id":"4","last_reported":1685113557,"current_range_meters":0,"station_id":"ce4bhs92rcd13ifvqi0g","pricing_plan_id":"free"},{"bike_id":"4bd720e4-aec2-484b-bf84-7b6cf8400a43","system_id":"levelo_inurba_marseille","lat":43.29713,"lon":5.36606,"is_reserved":false,"is_disabled":false,"rental_uris":{"android":"levelo://app?vid=4bd720e4-aec2-484b-bf84-7b6cf8400a43","ios":"levelo://app?vid=4bd720e4-aec2-484b-bf84-7b6cf8400a43"},"vehicle_type_id":"4","last_reported":1685113557,"current_range_meters":11200,"station_id":"","pricing_plan_id":"free"},{"bike_id":"b5387c8b-1aeb-4c0b-bf7e-29bd1cef36b6","system_id":"levelo_inurba_marseille","lat":43.29708,"lon":5.36613,"is_reserved":false,"is_disabled":false,"rental_uris":{"android":"levelo://app?vid=b5387c8b-1aeb-4c0b-bf7e-29bd1cef36b6","ios":"levelo://app?vid=b5387c8b-1aeb-4c0b-bf7e-29bd1cef36b6"},"vehicle_type_id":"4","last_reported":1685113557,"current_range_meters":19600,"station_id":"","pricing_plan_id":"free"},{"bike_id":"fd2f7b4b-349a-4854-83fe-5b667e45995a","system_id":"levelo_inurba_marseille","lat":43.31508,"lon":5.38919,"is_reserved":false,"is_disabled":false,"rental_uris":{"android":"levelo://app?vid=fd2f7b4b-349a-4854-83fe-5b667e45995a","ios":"levelo://app?vid=fd2f7b4b-349a-4854-83fe-5b667e45995a"},"vehicle_type_id":"4","last_reported":1685113557,"current_range_meters":24000,"station_id":"","pricing_plan_id":"free"},{"bike_id":"c0ffbdc0-c379-4c13-9546-cb7f94d19a22","system_id":"levelo_inurba_marseille","lat":43.2968,"lon":5.37291,"is_reserved":false,"is_disabled":false,"rental_uris":{"android":"levelo://app?vid=c0ffbdc0-c379-4c13-9546-cb7f94d19a22","ios":"levelo://app?vid=c0ffbdc0-c379-4c13-9546-cb7f94d19a22"},"vehicle_type_id":"4","last_reported":1685113557,"current_range_meters":400,"station_id":"ce4bgk12rcd13ifvqbj0","pricing_plan_id":"free"},{"bike_id":"5efb3b29-d8b2-49f2-9510-c93071a0705f","system_id":"levelo_inurba_marseille","lat":43.2968,"lon":5.37291,"is_reserved":false,"is_disabled":false,"rental_uris":{"android":"levelo://app?vid=5efb3b29-d8b2-49f2-9510-c93071a0705f","ios":"levelo://app?vid=5efb3b29-d8b2-49f2-9510-c93071a0705f"},"vehicle_type_id":"4","last_reported":1685113557,"current_range_meters":11200,"station_id":"ce4bgk12rcd13ifvqbj0","pricing_plan_id":"free"},{"bike_id":"cfda8c49-ed9e-4d59-85ae-5c2ad191fe5d","system_id":"levelo_inurba_marseille","lat":43.296131,"lon":5.370791,"is_reserved":false,"is_disabled":false,"rental_uris":{"android":"levelo://app?vid=cfda8c49-ed9e-4d59-85ae-5c2ad191fe5d","ios":"levelo://app?vid=cfda8c49-ed9e-4d59-85ae-5c2ad191fe5d"},"vehicle_type_id":"4","last_reported":1685113557,"current_range_meters":3600,"station_id":"ce4bgnh2rcd13ifvqc0g","pricing_plan_id":"free"},{"bike_id":"14fba054-9c93-4773-9ef5-871d6cf840cb","system_id":"levelo_inurba_marseille","lat":43.29622,"lon":5.37172,"is_reserved":false,"is_disabled":false,"rental_uris":{"android":"levelo://app?vid=14fba054-9c93-4773-9ef5-871d6cf840cb","ios":"levelo://app?vid=14fba054-9c93-4773-9ef5-871d6cf840cb"},"vehicle_type_id":"4","last_reported":1685113557,"current_range_meters":9600,"station_id":"","pricing_plan_id":"free"},{"bike_id":"c0be1f67-d35c-4ba2-b00e-b0beff23425c","system_id":"levelo_inurba_marseille","lat":43.299028,"lon":5.381509,"is_reserved":false,"is_disabled":false,"rental_uris":{"android":"levelo://app?vid=c0be1f67-d35c-4ba2-b00e-b0beff23425c","ios":"levelo://app?vid=c0be1f67-d35c-4ba2-b00e-b0beff23425c"},"vehicle_type_id":"4","last_reported":1685113557,"current_range_meters":4000,"station_id":"ce4bgj12rcd13ifvqbc0","pricing_plan_id":"free"},{"bike_id":"99348560-7265-421e-b797-62188692fa7d","system_id":"levelo_inurba_marseille","lat":43.309589,"lon":5.390258,"is_reserved":false,"is_disabled":false,"rental_uris":{"android":"levelo://app?vid=99348560-7265-421e-b797-62188692fa7d","ios":"levelo://app?vid=99348560-7265-421e-b797-62188692fa7d"},"vehicle_type_id":"4","last_reported":1685113557,"current_range_meters":1200,"station_id":"ce4bgup2rcd13ifvqco0","pricing_plan_id":"free"},{"bike_id":"bad45bda-caa7-4463-bac7-2e8891ac4c2b","system_id":"levelo_inurba_marseille","lat":43.304278,"lon":5.388868,"is_reserved":false,"is_disabled":false,"rental_uris":{"android":"levelo://app?vid=bad45bda-caa7-4463-bac7-2e8891ac4c2b","ios":"levelo://app?vid=bad45bda-caa7-4463-bac7-2e8891ac4c2b"},"vehicle_type_id":"4","last_reported":1685113557,"current_range_meters":400,"station_id":"ce4bgk12rcd13ifvqbi0","pricing_plan_id":"free"},{"bike_id":"185097ec-8bdb-4c42-8a3d-b7da8f423dd3","system_id":"levelo_inurba_marseille","lat":43.299707,"lon":5.384859,"is_reserved":false,"is_disabled":false,"rental_uris":{"android":"levelo://app?vid=185097ec-8bdb-4c42-8a3d-b7da8f423dd3","ios":"levelo://app?vid=185097ec-8bdb-4c42-8a3d-b7da8f423dd3"},"vehicle_type_id":"4","last_reported":1685113557,"current_range_meters":12400,"station_id":"ce4bgj92rcd13ifvqbd0","pricing_plan_id":"free"},{"bike_id":"d1ec6f0a-6ed5-4966-abd9-a579c92d97f2","system_id":"levelo_inurba_marseille","lat":43.296556,"lon":5.381226,"is_reserved":false,"is_disabled":false,"rental_uris":{"android":"levelo://app?vid=d1ec6f0a-6ed5-4966-abd9-a579c92d97f2","ios":"levelo://app?vid=d1ec6f0a-6ed5-4966-abd9-a579c92d97f2"},"vehicle_type_id":"4","last_reported":1685113557,"current_range_meters":16400,"station_id":"ce4bhk92rcd13ifvqgb0","pricing_plan_id":"free"},{"bike_id":"484f7f64-ffd8-434e-bcbe-cd4b40b71ec9","system_id":"levelo_inurba_marseille","lat":43.32367,"lon":5.388836,"is_reserved":false,"is_disabled":false,"rental_uris":{"android":"levelo://app?vid=484f7f64-ffd8-434e-bcbe-cd4b40b71ec9","ios":"levelo://app?vid=484f7f64-ffd8-434e-bcbe-cd4b40b71ec9"},"vehicle_type_id":"4","last_reported":1685113557,"current_range_meters":5200,"station_id":"ce4bhqp2rcd13ifvqhog","pricing_plan_id":"free"},{"bike_id":"eb919dee-7924-4349-b9ec-b54f7f96aefd","system_id":"levelo_inurba_marseille","lat":43.32367,"lon":5.388836,"is_reserved":false,"is_disabled":false,"rental_uris":{"android":"levelo://app?vid=eb919dee-7924-4349-b9ec-b54f7f96aefd","ios":"levelo://app?vid=eb919dee-7924-4349-b9ec-b54f7f96aefd"},"vehicle_type_id":"4","last_reported":1685113557,"current_range_meters":19600,"station_id":"ce4bhqp2rcd13ifvqhog","pricing_plan_id":"free"},{"bike_id":"c7c3096c-16f4-480a-95e8-bed80989e496","system_id":"levelo_inurba_marseille","lat":43.32367,"lon":5.388836,"is_reserved":false,"is_disabled":false,"rental_uris":{"android":"levelo://app?vid=c7c3096c-16f4-480a-95e8-bed80989e496","ios":"levelo://app?vid=c7c3096c-16f4-480a-95e8-bed80989e496"},"vehicle_type_id":"4","last_reported":1685113557,"current_range_meters":2000,"station_id":"ce4bhqp2rcd13ifvqhog","pricing_plan_id":"free"},{"bike_id":"ab6cae80-7f6e-4231-ae91-23f9c5cde088","system_id":"levelo_inurba_marseille","lat":43.32363,"lon":5.38886,"is_reserved":false,"is_disabled":false,"rental_uris":{"android":"levelo://app?vid=ab6cae80-7f6e-4231-ae91-23f9c5cde088","ios":"levelo://app?vid=ab6cae80-7f6e-4231-ae91-23f9c5cde088"},"vehicle_type_id":"4","last_reported":1685113557,"current_range_meters":19200,"station_id":"ce4bhqp2rcd13ifvqhog","pricing_plan_id":"free"},{"bike_id":"96c91e5e-1df6-4a07-8ff7-600bd9d1f35f","system_id":"levelo_inurba_marseille","lat":43.32367,"lon":5.388836,"is_reserved":false,"is_disabled":false,"rental_uris":{"android":"levelo://app?vid=96c91e5e-1df6-4a07-8ff7-600bd9d1f35f","ios":"levelo://app?vid=96c91e5e-1df6-4a07-8ff7-600bd9d1f35f"},"vehicle_type_id":"4","last_reported":1685113557,"current_range_meters":19600,"station_id":"ce4bhqp2rcd13ifvqhog","pricing_plan_id":"free"},{"bike_id":"ea43772f-2395-42c4-b560-8f7fc0af06f0","system_id":"levelo_inurba_marseille","lat":43.292749,"lon":5.368398,"is_reserved":false,"is_disabled":false,"rental_uris":{"android":"levelo://app?vid=ea43772f-2395-42c4-b560-8f7fc0af06f0","ios":"levelo://app?vid=ea43772f-2395-42c4-b560-8f7fc0af06f0"},"vehicle_type_id":"4","last_reported":1685113557,"current_range_meters":23200,"station_id":"ce4bhbp2rcd13ifvqesg","pricing_plan_id":"free"},{"bike_id":"09ec7ec4-e2c2-41e9-bfcd-064e6c5fc7d0","system_id":"levelo_inurba_marseille","lat":43.29234,"lon":5.36084,"is_reserved":false,"is_disabled":false,"rental_uris":{"android":"levelo://app?vid=09ec7ec4-e2c2-41e9-bfcd-064e6c5fc7d0","ios":"levelo://app?vid=09ec7ec4-e2c2-41e9-bfcd-064e6c5fc7d0"},"vehicle_type_id":"4","last_reported":1685113557,"current_range_meters":2800,"station_id":"ce4bhbh2rcd13ifvqeqg","pricing_plan_id":"free"},{"bike_id":"cda4f17d-ef3f-486a-b695-7ad31044f18f","system_id":"levelo_inurba_marseille","lat":43.2936,"lon":5.37835,"is_reserved":false,"is_disabled":false,"rental_uris":{"android":"levelo://app?vid=cda4f17d-ef3f-486a-b695-7ad31044f18f","ios":"levelo://app?vid=cda4f17d-ef3f-486a-b695-7ad31044f18f"},"vehicle_type_id":"4","last_reported":1685113557,"current_range_meters":0,"station_id":"ce4bgjh2rcd13ifvqbf0","pricing_plan_id":"free"},{"bike_id":"097556ac-833f-40d8-b281-58c8c0fec64a","system_id":"levelo_inurba_marseille","lat":43.298764,"lon":5.388973,"is_reserved":false,"is_disabled":false,"rental_uris":{"android":"levelo://app?vid=097556ac-833f-40d8-b281-58c8c0fec64a","ios":"levelo://app?vid=097556ac-833f-40d8-b281-58c8c0fec64a"},"vehicle_type_id":"4","last_reported":1685113557,"current_range_meters":12000,"station_id":"ce4bh392rcd13ifvqdl0","pricing_plan_id":"free"},{"bike_id":"e4657d22-f26c-484e-94f7-1a24d78a9d94","system_id":"levelo_inurba_marseille","lat":43.291994,"lon":5.357886,"is_reserved":false,"is_disabled":false,"rental_uris":{"android":"levelo://app?vid=e4657d22-f26c-484e-94f7-1a24d78a9d94","ios":"levelo://app?vid=e4657d22-f26c-484e-94f7-1a24d78a9d94"},"vehicle_type_id":"4","last_reported":1685113557,"current_range_meters":2400,"station_id":"ce4bhb12rcd13ifvqel0","pricing_plan_id":"free"},{"bike_id":"5e5d756d-38e7-472c-839e-0c8d35063b63","system_id":"levelo_inurba_marseille","lat":43.309038,"lon":5.396546,"is_reserved":false,"is_disabled":false,"rental_uris":{"android":"levelo://app?vid=5e5d756d-38e7-472c-839e-0c8d35063b63","ios":"levelo://app?vid=5e5d756d-38e7-472c-839e-0c8d35063b63"},"vehicle_type_id":"4","last_reported":1685113557,"current_range_meters":400,"station_id":"ce4bh012rcd13ifvqcv0","pricing_plan_id":"free"},{"bike_id":"aec93b4b-96a4-4325-9c1c-ca6c7210000d","system_id":"levelo_inurba_marseille","lat":43.313291,"lon":5.396838,"is_reserved":false,"is_disabled":false,"rental_uris":{"android":"levelo://app?vid=aec93b4b-96a4-4325-9c1c-ca6c7210000d","ios":"levelo://app?vid=aec93b4b-96a4-4325-9c1c-ca6c7210000d"},"vehicle_type_id":"4","last_reported":1685113557,"current_range_meters":5200,"station_id":"ce4bgvp2rcd13ifvqcu0","pricing_plan_id":"free"},{"bike_id":"05e7472a-b0fe-41b7-aaaa-7a1bdb3d72fb","system_id":"levelo_inurba_marseille","lat":43.313291,"lon":5.396838,"is_reserved":false,"is_disabled":false,"rental_uris":{"android":"levelo://app?vid=05e7472a-b0fe-41b7-aaaa-7a1bdb3d72fb","ios":"levelo://app?vid=05e7472a-b0fe-41b7-aaaa-7a1bdb3d72fb"},"vehicle_type_id":"4","last_reported":1685113557,"current_range_meters":0,"station_id":"ce4bgvp2rcd13ifvqcu0","pricing_plan_id":"free"},{"bike_id":"00979beb-73f4-4576-9c48-efa7962f64a9","system_id":"levelo_inurba_marseille","lat":43.31324,"lon":5.39693,"is_reserved":false,"is_disabled":false,"rental_uris":{"android":"levelo://app?vid=00979beb-73f4-4576-9c48-efa7962f64a9","ios":"levelo://app?vid=00979beb-73f4-4576-9c48-efa7962f64a9"},"vehicle_type_id":"4","last_reported":1685113557,"current_range_meters":18000,"station_id":"ce4bgvp2rcd13ifvqcu0","pricing_plan_id":"free"},{"bike_id":"612d8e3f-4189-43fd-a53e-ecec4f100dbb","system_id":"levelo_inurba_marseille","lat":43.29529,"lon":5.385581,"is_reserved":false,"is_disabled":false,"rental_uris":{"android":"levelo://app?vid=612d8e3f-4189-43fd-a53e-ecec4f100dbb","ios":"levelo://app?vid=612d8e3f-4189-43fd-a53e-ecec4f100dbb"},"vehicle_type_id":"4","last_reported":1685113557,"current_range_meters":25200,"station_id":"ce4bgih2rcd13ifvqba0","pricing_plan_id":"free"},{"bike_id":"0bc8a460-1d58-4da9-8669-25663f762205","system_id":"levelo_inurba_marseille","lat":43.30266,"lon":5.39395,"is_reserved":false,"is_disabled":false,"rental_uris":{"android":"levelo://app?vid=0bc8a460-1d58-4da9-8669-25663f762205","ios":"levelo://app?vid=0bc8a460-1d58-4da9-8669-25663f762205"},"vehicle_type_id":"4","last_reported":1685113557,"current_range_meters":20000,"station_id":"","pricing_plan_id":"free"},{"bike_id":"ea3cd150-0b54-414e-84d6-755c8f215599","system_id":"levelo_inurba_marseille","lat":43.290631,"lon":5.359244,"is_reserved":false,"is_disabled":false,"rental_uris":{"android":"levelo://app?vid=ea3cd150-0b54-414e-84d6-755c8f215599","ios":"levelo://app?vid=ea3cd150-0b54-414e-84d6-755c8f215599"},"vehicle_type_id":"4","last_reported":1685113557,"current_range_meters":12800,"station_id":"ce4bha92rcd13ifvqeg0","pricing_plan_id":"free"},{"bike_id":"f31848b7-b154-42cd-959b-8d597c28aca1","system_id":"levelo_inurba_marseille","lat":43.292644,"lon":5.384257,"is_reserved":false,"is_disabled":false,"rental_uris":{"android":"levelo://app?vid=f31848b7-b154-42cd-959b-8d597c28aca1","ios":"levelo://app?vid=f31848b7-b154-42cd-959b-8d597c28aca1"},"vehicle_type_id":"4","last_reported":1685113557,"current_range_meters":24400,"station_id":"ce4bh692rcd13ifvqea0","pricing_plan_id":"free"},{"bike_id":"bdb40517-72f8-46d8-bb85-b99c84bb3e94","system_id":"levelo_inurba_marseille","lat":43.304274,"lon":5.397513,"is_reserved":false,"is_disabled":false,"rental_uris":{"android":"levelo://app?vid=bdb40517-72f8-46d8-bb85-b99c84bb3e94","ios":"levelo://app?vid=bdb40517-72f8-46d8-bb85-b99c84bb3e94"},"vehicle_type_id":"4","last_reported":1685113557,"current_range_meters":22400,"station_id":"ce4bh092rcd13ifvqd20","pricing_plan_id":"free"},{"bike_id":"b912ad75-ccae-43f8-9b19-0d3264f35189","system_id":"levelo_inurba_marseille","lat":43.292644,"lon":5.384257,"is_reserved":false,"is_disabled":false,"rental_uris":{"android":"levelo://app?vid=b912ad75-ccae-43f8-9b19-0d3264f35189","ios":"levelo://app?vid=b912ad75-ccae-43f8-9b19-0d3264f35189"},"vehicle_type_id":"4","last_reported":1685113557,"current_range_meters":1200,"station_id":"ce4bh692rcd13ifvqea0","pricing_plan_id":"free"},{"bike_id":"fd00a66f-4578-46b0-b265-75057ad6f019","system_id":"levelo_inurba_marseille","lat":43.28856,"lon":5.358371,"is_reserved":false,"is_disabled":false,"rental_uris":{"android":"levelo://app?vid=fd00a66f-4578-46b0-b265-75057ad6f019","ios":"levelo://app?vid=fd00a66f-4578-46b0-b265-75057ad6f019"},"vehicle_type_id":"4","last_reported":1685113557,"current_range_meters":16400,"station_id":"ce4bhb12rcd13ifvqem0","pricing_plan_id":"free"},{"bike_id":"4e58d1b0-eecf-4925-b372-dcfa7123634d","system_id":"levelo_inurba_marseille","lat":43.28856,"lon":5.358371,"is_reserved":false,"is_disabled":false,"rental_uris":{"android":"levelo://app?vid=4e58d1b0-eecf-4925-b372-dcfa7123634d","ios":"levelo://app?vid=4e58d1b0-eecf-4925-b372-dcfa7123634d"},"vehicle_type_id":"4","last_reported":1685113557,"current_range_meters":26000,"station_id":"ce4bhb12rcd13ifvqem0","pricing_plan_id":"free"},{"bike_id":"02362672-78e1-4667-9a77-d71f91f94365","system_id":"levelo_inurba_marseille","lat":43.33751,"lon":5.37434,"is_reserved":false,"is_disabled":false,"rental_uris":{"android":"levelo://app?vid=02362672-78e1-4667-9a77-d71f91f94365","ios":"levelo://app?vid=02362672-78e1-4667-9a77-d71f91f94365"},"vehicle_type_id":"4","last_reported":1685113557,"current_range_meters":20000,"station_id":"","pricing_plan_id":"free"},{"bike_id":"0f915385-1fd5-4f54-896c-f56a11a31d3d","system_id":"levelo_inurba_marseille","lat":43.33756,"lon":5.37426,"is_reserved":false,"is_disabled":false,"rental_uris":{"android":"levelo://app?vid=0f915385-1fd5-4f54-896c-f56a11a31d3d","ios":"levelo://app?vid=0f915385-1fd5-4f54-896c-f56a11a31d3d"},"vehicle_type_id":"4","last_reported":1685113557,"current_range_meters":22800,"station_id":"","pricing_plan_id":"free"},{"bike_id":"556c6db1-2600-4c2b-9521-aae8453517c1","system_id":"levelo_inurba_marseille","lat":43.33758,"lon":5.37443,"is_reserved":false,"is_disabled":false,"rental_uris":{"android":"levelo://app?vid=556c6db1-2600-4c2b-9521-aae8453517c1","ios":"levelo://app?vid=556c6db1-2600-4c2b-9521-aae8453517c1"},"vehicle_type_id":"4","last_reported":1685113557,"current_range_meters":21600,"station_id":"","pricing_plan_id":"free"},{"bike_id":"141c14ea-594b-43ee-894e-8c44af1dcd73","system_id":"levelo_inurba_marseille","lat":43.33758,"lon":5.3745,"is_reserved":false,"is_disabled":false,"rental_uris":{"android":"levelo://app?vid=141c14ea-594b-43ee-894e-8c44af1dcd73","ios":"levelo://app?vid=141c14ea-594b-43ee-894e-8c44af1dcd73"},"vehicle_type_id":"4","last_reported":1685113557,"current_range_meters":15600,"station_id":"","pricing_plan_id":"free"},{"bike_id":"1490fad1-fe90-4399-a2f2-79545cf03a2b","system_id":"levelo_inurba_marseille","lat":43.337578,"lon":5.374791,"is_reserved":false,"is_disabled":false,"rental_uris":{"android":"levelo://app?vid=1490fad1-fe90-4399-a2f2-79545cf03a2b","ios":"levelo://app?vid=1490fad1-fe90-4399-a2f2-79545cf03a2b"},"vehicle_type_id":"4","last_reported":1685113557,"current_range_meters":30800,"station_id":"","pricing_plan_id":"free"},{"bike_id":"5bd96745-9a19-4fe7-b597-4db9cabdc957","system_id":"levelo_inurba_marseille","lat":43.33769,"lon":5.37432,"is_reserved":false,"is_disabled":false,"rental_uris":{"android":"levelo://app?vid=5bd96745-9a19-4fe7-b597-4db9cabdc957","ios":"levelo://app?vid=5bd96745-9a19-4fe7-b597-4db9cabdc957"},"vehicle_type_id":"4","last_reported":1685113557,"current_range_meters":29200,"station_id":"","pricing_plan_id":"free"},{"bike_id":"574d1f5d-99fd-4de7-87d2-203d0dd9a30b","system_id":"levelo_inurba_marseille","lat":43.30642,"lon":5.401031,"is_reserved":false,"is_disabled":false,"rental_uris":{"android":"levelo://app?vid=574d1f5d-99fd-4de7-87d2-203d0dd9a30b","ios":"levelo://app?vid=574d1f5d-99fd-4de7-87d2-203d0dd9a30b"},"vehicle_type_id":"4","last_reported":1685113557,"current_range_meters":2400,"station_id":"ce4bh112rcd13ifvqda0","pricing_plan_id":"free"},{"bike_id":"eb8ac404-8a95-4fc7-819a-ea19315069af","system_id":"levelo_inurba_marseille","lat":43.33779,"lon":5.37439,"is_reserved":false,"is_disabled":false,"rental_uris":{"android":"levelo://app?vid=eb8ac404-8a95-4fc7-819a-ea19315069af","ios":"levelo://app?vid=eb8ac404-8a95-4fc7-819a-ea19315069af"},"vehicle_type_id":"4","last_reported":1685113557,"current_range_meters":27600,"station_id":"","pricing_plan_id":"free"},{"bike_id":"4c61cdc2-9c56-42ff-a4b9-ddeecc15cc6f","system_id":"levelo_inurba_marseille","lat":43.301117,"lon":5.398795,"is_reserved":false,"is_disabled":false,"rental_uris":{"android":"levelo://app?vid=4c61cdc2-9c56-42ff-a4b9-ddeecc15cc6f","ios":"levelo://app?vid=4c61cdc2-9c56-42ff-a4b9-ddeecc15cc6f"},"vehicle_type_id":"4","last_reported":1685113557,"current_range_meters":0,"station_id":"ce4bh0h2rcd13ifvqd40","pricing_plan_id":"free"},{"bike_id":"b7c253de-e732-45dd-a528-b5e4f8e2c065","system_id":"levelo_inurba_marseille","lat":43.28676,"lon":5.3636,"is_reserved":false,"is_disabled":false,"rental_uris":{"android":"levelo://app?vid=b7c253de-e732-45dd-a528-b5e4f8e2c065","ios":"levelo://app?vid=b7c253de-e732-45dd-a528-b5e4f8e2c065"},"vehicle_type_id":"4","last_reported":1685113557,"current_range_meters":17600,"station_id":"","pricing_plan_id":"free"},{"bike_id":"7b12f414-86c1-4a04-88fc-0d3e27f0855b","system_id":"levelo_inurba_marseille","lat":43.295194,"lon":5.39397,"is_reserved":false,"is_disabled":false,"rental_uris":{"android":"levelo://app?vid=7b12f414-86c1-4a04-88fc-0d3e27f0855b","ios":"levelo://app?vid=7b12f414-86c1-4a04-88fc-0d3e27f0855b"},"vehicle_type_id":"4","last_reported":1685113557,"current_range_meters":0,"station_id":"ce4bh292rcd13ifvqdf0","pricing_plan_id":"free"},{"bike_id":"9acfc62b-aca0-47da-9dab-bc8055a5f614","system_id":"levelo_inurba_marseille","lat":43.290345,"lon":5.38646,"is_reserved":false,"is_disabled":false,"rental_uris":{"android":"levelo://app?vid=9acfc62b-aca0-47da-9dab-bc8055a5f614","ios":"levelo://app?vid=9acfc62b-aca0-47da-9dab-bc8055a5f614"},"vehicle_type_id":"4","last_reported":1685113557,"current_range_meters":29600,"station_id":"ce4bh4p2rcd13ifvqe0g","pricing_plan_id":"free"},{"bike_id":"cfb2c489-a22e-41d7-875a-76f7f6804143","system_id":"levelo_inurba_marseille","lat":43.287184,"lon":5.37937,"is_reserved":false,"is_disabled":false,"rental_uris":{"android":"levelo://app?vid=cfb2c489-a22e-41d7-875a-76f7f6804143","ios":"levelo://app?vid=cfb2c489-a22e-41d7-875a-76f7f6804143"},"vehicle_type_id":"4","last_reported":1685113557,"current_range_meters":8400,"station_id":"ce4bh9p2rcd13ifvqec0","pricing_plan_id":"free"},{"bike_id":"abd567b2-8451-4fed-b5af-de79867ae7bf","system_id":"levelo_inurba_marseille","lat":43.287185,"lon":5.379373,"is_reserved":false,"is_disabled":false,"rental_uris":{"android":"levelo://app?vid=abd567b2-8451-4fed-b5af-de79867ae7bf","ios":"levelo://app?vid=abd567b2-8451-4fed-b5af-de79867ae7bf"},"vehicle_type_id":"4","last_reported":1685113557,"current_range_meters":10000,"station_id":"ce4bh9p2rcd13ifvqec0","pricing_plan_id":"free"},{"bike_id":"cdeb3364-4136-409e-b6da-2574510511a3","system_id":"levelo_inurba_marseille","lat":43.28713,"lon":5.37929,"is_reserved":false,"is_disabled":false,"rental_uris":{"android":"levelo://app?vid=cdeb3364-4136-409e-b6da-2574510511a3","ios":"levelo://app?vid=cdeb3364-4136-409e-b6da-2574510511a3"},"vehicle_type_id":"4","last_reported":1685113557,"current_range_meters":20000,"station_id":"ce4bh9p2rcd13ifvqec0","pricing_plan_id":"free"},{"bike_id":"4d9d70a6-b736-47da-abe2-f14423d2eb04","system_id":"levelo_inurba_marseille","lat":43.316517,"lon":5.404375,"is_reserved":false,"is_disabled":false,"rental_uris":{"android":"levelo://app?vid=4d9d70a6-b736-47da-abe2-f14423d2eb04","ios":"levelo://app?vid=4d9d70a6-b736-47da-abe2-f14423d2eb04"},"vehicle_type_id":"4","last_reported":1685113557,"current_range_meters":16800,"station_id":"ce4bh012rcd13ifvqd00","pricing_plan_id":"free"},{"bike_id":"2994270d-e1ff-44b7-9e04-5c65c84c78ba","system_id":"levelo_inurba_marseille","lat":43.29198,"lon":5.39323,"is_reserved":false,"is_disabled":false,"rental_uris":{"android":"levelo://app?vid=2994270d-e1ff-44b7-9e04-5c65c84c78ba","ios":"levelo://app?vid=2994270d-e1ff-44b7-9e04-5c65c84c78ba"},"vehicle_type_id":"4","last_reported":1685113557,"current_range_meters":18400,"station_id":"","pricing_plan_id":"free"},{"bike_id":"aa1b51cf-1118-4054-b410-3d6d7d286fbe","system_id":"levelo_inurba_marseille","lat":43.291994,"lon":5.392907,"is_reserved":false,"is_disabled":false,"rental_uris":{"android":"levelo://app?vid=aa1b51cf-1118-4054-b410-3d6d7d286fbe","ios":"levelo://app?vid=aa1b51cf-1118-4054-b410-3d6d7d286fbe"},"vehicle_type_id":"4","last_reported":1685113557,"current_range_meters":13600,"station_id":"ce4bh192rcd13ifvqdd0","pricing_plan_id":"free"},{"bike_id":"ff34aca6-e004-4045-b976-4c7b1a5230f4","system_id":"levelo_inurba_marseille","lat":43.291994,"lon":5.392907,"is_reserved":false,"is_disabled":false,"rental_uris":{"android":"levelo://app?vid=ff34aca6-e004-4045-b976-4c7b1a5230f4","ios":"levelo://app?vid=ff34aca6-e004-4045-b976-4c7b1a5230f4"},"vehicle_type_id":"4","last_reported":1685113557,"current_range_meters":29600,"station_id":"ce4bh192rcd13ifvqdd0","pricing_plan_id":"free"},{"bike_id":"09ad2036-09d4-4872-8574-e7e187d166f0","system_id":"levelo_inurba_marseille","lat":43.291994,"lon":5.392907,"is_reserved":false,"is_disabled":false,"rental_uris":{"android":"levelo://app?vid=09ad2036-09d4-4872-8574-e7e187d166f0","ios":"levelo://app?vid=09ad2036-09d4-4872-8574-e7e187d166f0"},"vehicle_type_id":"4","last_reported":1685113557,"current_range_meters":29200,"station_id":"ce4bh192rcd13ifvqdd0","pricing_plan_id":"free"},{"bike_id":"7bcd85df-4874-497e-ad68-c07228fb1ab6","system_id":"levelo_inurba_marseille","lat":43.291994,"lon":5.392907,"is_reserved":false,"is_disabled":false,"rental_uris":{"android":"levelo://app?vid=7bcd85df-4874-497e-ad68-c07228fb1ab6","ios":"levelo://app?vid=7bcd85df-4874-497e-ad68-c07228fb1ab6"},"vehicle_type_id":"4","last_reported":1685113557,"current_range_meters":21200,"station_id":"ce4bh192rcd13ifvqdd0","pricing_plan_id":"free"},{"bike_id":"4518ea44-b836-40b4-b981-b76a47243adf","system_id":"levelo_inurba_marseille","lat":43.291994,"lon":5.392907,"is_reserved":false,"is_disabled":false,"rental_uris":{"android":"levelo://app?vid=4518ea44-b836-40b4-b981-b76a47243adf","ios":"levelo://app?vid=4518ea44-b836-40b4-b981-b76a47243adf"},"vehicle_type_id":"4","last_reported":1685113557,"current_range_meters":31200,"station_id":"ce4bh192rcd13ifvqdd0","pricing_plan_id":"free"},{"bike_id":"42ffa542-2a3f-44e6-bd45-52640b2fdc4e","system_id":"levelo_inurba_marseille","lat":43.291994,"lon":5.392907,"is_reserved":false,"is_disabled":false,"rental_uris":{"android":"levelo://app?vid=42ffa542-2a3f-44e6-bd45-52640b2fdc4e","ios":"levelo://app?vid=42ffa542-2a3f-44e6-bd45-52640b2fdc4e"},"vehicle_type_id":"4","last_reported":1685113557,"current_range_meters":22800,"station_id":"ce4bh192rcd13ifvqdd0","pricing_plan_id":"free"},{"bike_id":"3818d568-32c3-4e16-b093-5ab66e1b0e2e","system_id":"levelo_inurba_marseille","lat":43.291994,"lon":5.392907,"is_reserved":false,"is_disabled":false,"rental_uris":{"android":"levelo://app?vid=3818d568-32c3-4e16-b093-5ab66e1b0e2e","ios":"levelo://app?vid=3818d568-32c3-4e16-b093-5ab66e1b0e2e"},"vehicle_type_id":"4","last_reported":1685113557,"current_range_meters":31200,"station_id":"ce4bh192rcd13ifvqdd0","pricing_plan_id":"free"},{"bike_id":"cf638474-0a43-4a8e-b410-95d5cb8c215d","system_id":"levelo_inurba_marseille","lat":43.28462,"lon":5.35885,"is_reserved":false,"is_disabled":false,"rental_uris":{"android":"levelo://app?vid=cf638474-0a43-4a8e-b410-95d5cb8c215d","ios":"levelo://app?vid=cf638474-0a43-4a8e-b410-95d5cb8c215d"},"vehicle_type_id":"4","last_reported":1685113557,"current_range_meters":7200,"station_id":"ce4bhah2rcd13ifvqei0","pricing_plan_id":"free"},{"bike_id":"e17d914b-a40f-407f-b84e-9126e9bbea6c","system_id":"levelo_inurba_marseille","lat":43.2846,"lon":5.35897,"is_reserved":false,"is_disabled":false,"rental_uris":{"android":"levelo://app?vid=e17d914b-a40f-407f-b84e-9126e9bbea6c","ios":"levelo://app?vid=e17d914b-a40f-407f-b84e-9126e9bbea6c"},"vehicle_type_id":"4","last_reported":1685113557,"current_range_meters":0,"station_id":"ce4bhah2rcd13ifvqei0","pricing_plan_id":"free"},{"bike_id":"f69f31a3-49b8-49fe-bdac-035df2337d43","system_id":"levelo_inurba_marseille","lat":43.284534,"lon":5.358662,"is_reserved":false,"is_disabled":false,"rental_uris":{"android":"levelo://app?vid=f69f31a3-49b8-49fe-bdac-035df2337d43","ios":"levelo://app?vid=f69f31a3-49b8-49fe-bdac-035df2337d43"},"vehicle_type_id":"4","last_reported":1685113557,"current_range_meters":27600,"station_id":"ce4bhah2rcd13ifvqei0","pricing_plan_id":"free"},{"bike_id":"c4809f32-f549-46a2-aef7-d5149773d7bc","system_id":"levelo_inurba_marseille","lat":43.285848,"lon":5.350787,"is_reserved":false,"is_disabled":false,"rental_uris":{"android":"levelo://app?vid=c4809f32-f549-46a2-aef7-d5149773d7bc","ios":"levelo://app?vid=c4809f32-f549-46a2-aef7-d5149773d7bc"},"vehicle_type_id":"4","last_reported":1685113557,"current_range_meters":3600,"station_id":"ce4bhch2rcd13ifvqeug","pricing_plan_id":"free"},{"bike_id":"49dd9f92-f8a3-4d92-9c0f-2b3426bd267a","system_id":"levelo_inurba_marseille","lat":43.2862,"lon":5.35105,"is_reserved":false,"is_disabled":false,"rental_uris":{"android":"levelo://app?vid=49dd9f92-f8a3-4d92-9c0f-2b3426bd267a","ios":"levelo://app?vid=49dd9f92-f8a3-4d92-9c0f-2b3426bd267a"},"vehicle_type_id":"4","last_reported":1685113557,"current_range_meters":17200,"station_id":"","pricing_plan_id":"free"},{"bike_id":"3ebef172-227e-4c2e-98fe-8b85185e2549","system_id":"levelo_inurba_marseille","lat":43.28616,"lon":5.35115,"is_reserved":false,"is_disabled":false,"rental_uris":{"android":"levelo://app?vid=3ebef172-227e-4c2e-98fe-8b85185e2549","ios":"levelo://app?vid=3ebef172-227e-4c2e-98fe-8b85185e2549"},"vehicle_type_id":"4","last_reported":1685113557,"current_range_meters":1200,"station_id":"","pricing_plan_id":"free"},{"bike_id":"18a291a1-3aec-4fa1-a48d-1805f14dd9ab","system_id":"levelo_inurba_marseille","lat":43.28617,"lon":5.35104,"is_reserved":false,"is_disabled":false,"rental_uris":{"android":"levelo://app?vid=18a291a1-3aec-4fa1-a48d-1805f14dd9ab","ios":"levelo://app?vid=18a291a1-3aec-4fa1-a48d-1805f14dd9ab"},"vehicle_type_id":"4","last_reported":1685113557,"current_range_meters":12400,"station_id":"","pricing_plan_id":"free"},{"bike_id":"2b6d59ab-5591-442d-b846-ad01cefd02e0","system_id":"levelo_inurba_marseille","lat":43.28616,"lon":5.35106,"is_reserved":false,"is_disabled":false,"rental_uris":{"android":"levelo://app?vid=2b6d59ab-5591-442d-b846-ad01cefd02e0","ios":"levelo://app?vid=2b6d59ab-5591-442d-b846-ad01cefd02e0"},"vehicle_type_id":"4","last_reported":1685113557,"current_range_meters":24000,"station_id":"","pricing_plan_id":"free"},{"bike_id":"d7852626-c36f-4db6-aebb-bd05991a9cdd","system_id":"levelo_inurba_marseille","lat":43.28617,"lon":5.35101,"is_reserved":false,"is_disabled":false,"rental_uris":{"android":"levelo://app?vid=d7852626-c36f-4db6-aebb-bd05991a9cdd","ios":"levelo://app?vid=d7852626-c36f-4db6-aebb-bd05991a9cdd"},"vehicle_type_id":"4","last_reported":1685113557,"current_range_meters":24400,"station_id":"","pricing_plan_id":"free"},{"bike_id":"f869904a-024a-40de-82df-96b2be6c425b","system_id":"levelo_inurba_marseille","lat":43.28619,"lon":5.35093,"is_reserved":false,"is_disabled":false,"rental_uris":{"android":"levelo://app?vid=f869904a-024a-40de-82df-96b2be6c425b","ios":"levelo://app?vid=f869904a-024a-40de-82df-96b2be6c425b"},"vehicle_type_id":"4","last_reported":1685113557,"current_range_meters":19200,"station_id":"","pricing_plan_id":"free"},{"bike_id":"8615e419-6141-4061-abad-4dcc3df9f42f","system_id":"levelo_inurba_marseille","lat":43.28616,"lon":5.35096,"is_reserved":false,"is_disabled":false,"rental_uris":{"android":"levelo://app?vid=8615e419-6141-4061-abad-4dcc3df9f42f","ios":"levelo://app?vid=8615e419-6141-4061-abad-4dcc3df9f42f"},"vehicle_type_id":"4","last_reported":1685113557,"current_range_meters":20400,"station_id":"","pricing_plan_id":"free"},{"bike_id":"c4d26c57-7abb-4084-be07-03a29a84f7b7","system_id":"levelo_inurba_marseille","lat":43.28614,"lon":5.35095,"is_reserved":false,"is_disabled":false,"rental_uris":{"android":"levelo://app?vid=c4d26c57-7abb-4084-be07-03a29a84f7b7","ios":"levelo://app?vid=c4d26c57-7abb-4084-be07-03a29a84f7b7"},"vehicle_type_id":"4","last_reported":1685113557,"current_range_meters":4400,"station_id":"","pricing_plan_id":"free"},{"bike_id":"5371bbd7-c92f-4fd0-bddb-eca2c7cd5808","system_id":"levelo_inurba_marseille","lat":43.323464,"lon":5.406297,"is_reserved":false,"is_disabled":false,"rental_uris":{"android":"levelo://app?vid=5371bbd7-c92f-4fd0-bddb-eca2c7cd5808","ios":"levelo://app?vid=5371bbd7-c92f-4fd0-bddb-eca2c7cd5808"},"vehicle_type_id":"4","last_reported":1685113557,"current_range_meters":31600,"station_id":"ce4bhq92rcd13ifvqhjg","pricing_plan_id":"free"},{"bike_id":"d5fd31a8-b7a4-48f5-9751-f4ba7b16e78e","system_id":"levelo_inurba_marseille","lat":43.323464,"lon":5.406297,"is_reserved":false,"is_disabled":false,"rental_uris":{"android":"levelo://app?vid=d5fd31a8-b7a4-48f5-9751-f4ba7b16e78e","ios":"levelo://app?vid=d5fd31a8-b7a4-48f5-9751-f4ba7b16e78e"},"vehicle_type_id":"4","last_reported":1685113557,"current_range_meters":31600,"station_id":"ce4bhq92rcd13ifvqhjg","pricing_plan_id":"free"},{"bike_id":"8a020ae7-a135-40f5-a875-00dfaa32e0ce","system_id":"levelo_inurba_marseille","lat":43.323464,"lon":5.406297,"is_reserved":false,"is_disabled":false,"rental_uris":{"android":"levelo://app?vid=8a020ae7-a135-40f5-a875-00dfaa32e0ce","ios":"levelo://app?vid=8a020ae7-a135-40f5-a875-00dfaa32e0ce"},"vehicle_type_id":"4","last_reported":1685113557,"current_range_meters":16000,"station_id":"ce4bhq92rcd13ifvqhjg","pricing_plan_id":"free"},{"bike_id":"e28a274d-67f0-472b-8b39-da84563c923e","system_id":"levelo_inurba_marseille","lat":43.323464,"lon":5.406297,"is_reserved":false,"is_disabled":false,"rental_uris":{"android":"levelo://app?vid=e28a274d-67f0-472b-8b39-da84563c923e","ios":"levelo://app?vid=e28a274d-67f0-472b-8b39-da84563c923e"},"vehicle_type_id":"4","last_reported":1685113557,"current_range_meters":24800,"station_id":"ce4bhq92rcd13ifvqhjg","pricing_plan_id":"free"},{"bike_id":"8233b1fc-cd93-4fa3-8a96-9704b82265f5","system_id":"levelo_inurba_marseille","lat":43.32342,"lon":5.40624,"is_reserved":false,"is_disabled":false,"rental_uris":{"android":"levelo://app?vid=8233b1fc-cd93-4fa3-8a96-9704b82265f5","ios":"levelo://app?vid=8233b1fc-cd93-4fa3-8a96-9704b82265f5"},"vehicle_type_id":"4","last_reported":1685113557,"current_range_meters":10800,"station_id":"ce4bhq92rcd13ifvqhjg","pricing_plan_id":"free"},{"bike_id":"31e8938e-1265-45b1-900e-6b6f81afe991","system_id":"levelo_inurba_marseille","lat":43.284787,"lon":5.384116,"is_reserved":false,"is_disabled":false,"rental_uris":{"android":"levelo://app?vid=31e8938e-1265-45b1-900e-6b6f81afe991","ios":"levelo://app?vid=31e8938e-1265-45b1-900e-6b6f81afe991"},"vehicle_type_id":"4","last_reported":1685113557,"current_range_meters":6800,"station_id":"ce4bh512rcd13ifvqe3g","pricing_plan_id":"free"},{"bike_id":"e2b6a29b-4b99-4e07-9a7e-d725980931ef","system_id":"levelo_inurba_marseille","lat":43.284787,"lon":5.384116,"is_reserved":false,"is_disabled":false,"rental_uris":{"android":"levelo://app?vid=e2b6a29b-4b99-4e07-9a7e-d725980931ef","ios":"levelo://app?vid=e2b6a29b-4b99-4e07-9a7e-d725980931ef"},"vehicle_type_id":"4","last_reported":1685113557,"current_range_meters":22400,"station_id":"ce4bh512rcd13ifvqe3g","pricing_plan_id":"free"},{"bike_id":"0ce44751-f2b3-4d0b-88f3-ad0a257c6f8e","system_id":"levelo_inurba_marseille","lat":43.283494,"lon":5.380945,"is_reserved":false,"is_disabled":false,"rental_uris":{"android":"levelo://app?vid=0ce44751-f2b3-4d0b-88f3-ad0a257c6f8e","ios":"levelo://app?vid=0ce44751-f2b3-4d0b-88f3-ad0a257c6f8e"},"vehicle_type_id":"4","last_reported":1685113557,"current_range_meters":400,"station_id":"ce4bh412rcd13ifvqdr0","pricing_plan_id":"free"},{"bike_id":"a865a68d-1f67-4b49-8400-a8ec1138c0d0","system_id":"levelo_inurba_marseille","lat":43.284219,"lon":5.3497,"is_reserved":false,"is_disabled":false,"rental_uris":{"android":"levelo://app?vid=a865a68d-1f67-4b49-8400-a8ec1138c0d0","ios":"levelo://app?vid=a865a68d-1f67-4b49-8400-a8ec1138c0d0"},"vehicle_type_id":"4","last_reported":1685113557,"current_range_meters":12800,"station_id":"ce4bhbh2rcd13ifvqepg","pricing_plan_id":"free"},{"bike_id":"fc481904-3c18-401f-9d5c-0fc24ce499bf","system_id":"levelo_inurba_marseille","lat":43.284219,"lon":5.3497,"is_reserved":false,"is_disabled":false,"rental_uris":{"android":"levelo://app?vid=fc481904-3c18-401f-9d5c-0fc24ce499bf","ios":"levelo://app?vid=fc481904-3c18-401f-9d5c-0fc24ce499bf"},"vehicle_type_id":"4","last_reported":1685113557,"current_range_meters":28400,"station_id":"ce4bhbh2rcd13ifvqepg","pricing_plan_id":"free"},{"bike_id":"a1a65f11-c52f-4086-8ff6-ae2bb85d6b44","system_id":"levelo_inurba_marseille","lat":43.284219,"lon":5.3497,"is_reserved":false,"is_disabled":false,"rental_uris":{"android":"levelo://app?vid=a1a65f11-c52f-4086-8ff6-ae2bb85d6b44","ios":"levelo://app?vid=a1a65f11-c52f-4086-8ff6-ae2bb85d6b44"},"vehicle_type_id":"4","last_reported":1685113557,"current_range_meters":25600,"station_id":"ce4bhbh2rcd13ifvqepg","pricing_plan_id":"free"},{"bike_id":"6af6a80a-de0d-445d-9b7d-d590e54ba869","system_id":"levelo_inurba_marseille","lat":43.284219,"lon":5.3497,"is_reserved":false,"is_disabled":false,"rental_uris":{"android":"levelo://app?vid=6af6a80a-de0d-445d-9b7d-d590e54ba869","ios":"levelo://app?vid=6af6a80a-de0d-445d-9b7d-d590e54ba869"},"vehicle_type_id":"4","last_reported":1685113557,"current_range_meters":22000,"station_id":"ce4bhbh2rcd13ifvqepg","pricing_plan_id":"free"},{"bike_id":"c1b5a593-338e-4a0e-baf3-5acff3c11b07","system_id":"levelo_inurba_marseille","lat":43.284217,"lon":5.349697,"is_reserved":false,"is_disabled":false,"rental_uris":{"android":"levelo://app?vid=c1b5a593-338e-4a0e-baf3-5acff3c11b07","ios":"levelo://app?vid=c1b5a593-338e-4a0e-baf3-5acff3c11b07"},"vehicle_type_id":"4","last_reported":1685113557,"current_range_meters":3200,"station_id":"ce4bhbh2rcd13ifvqepg","pricing_plan_id":"free"},{"bike_id":"3b5da2c0-edf3-45a3-8a0a-019a98d5412a","system_id":"levelo_inurba_marseille","lat":43.284219,"lon":5.3497,"is_reserved":false,"is_disabled":false,"rental_uris":{"android":"levelo://app?vid=3b5da2c0-edf3-45a3-8a0a-019a98d5412a","ios":"levelo://app?vid=3b5da2c0-edf3-45a3-8a0a-019a98d5412a"},"vehicle_type_id":"4","last_reported":1685113557,"current_range_meters":28000,"station_id":"ce4bhbh2rcd13ifvqepg","pricing_plan_id":"free"},{"bike_id":"7abf4691-2fbb-4295-9b1a-f3599ee3dc54","system_id":"levelo_inurba_marseille","lat":43.28423,"lon":5.3499,"is_reserved":false,"is_disabled":false,"rental_uris":{"android":"levelo://app?vid=7abf4691-2fbb-4295-9b1a-f3599ee3dc54","ios":"levelo://app?vid=7abf4691-2fbb-4295-9b1a-f3599ee3dc54"},"vehicle_type_id":"4","last_reported":1685113557,"current_range_meters":6800,"station_id":"ce4bhbh2rcd13ifvqepg","pricing_plan_id":"free"},{"bike_id":"9ea88ce3-5f18-4e25-94d7-5ca15ad37761","system_id":"levelo_inurba_marseille","lat":43.284219,"lon":5.3497,"is_reserved":false,"is_disabled":false,"rental_uris":{"android":"levelo://app?vid=9ea88ce3-5f18-4e25-94d7-5ca15ad37761","ios":"levelo://app?vid=9ea88ce3-5f18-4e25-94d7-5ca15ad37761"},"vehicle_type_id":"4","last_reported":1685113557,"current_range_meters":23600,"station_id":"ce4bhbh2rcd13ifvqepg","pricing_plan_id":"free"},{"bike_id":"b40d15e8-400c-428c-bdc6-1a8591d1c177","system_id":"levelo_inurba_marseille","lat":43.284219,"lon":5.3497,"is_reserved":false,"is_disabled":false,"rental_uris":{"android":"levelo://app?vid=b40d15e8-400c-428c-bdc6-1a8591d1c177","ios":"levelo://app?vid=b40d15e8-400c-428c-bdc6-1a8591d1c177"},"vehicle_type_id":"4","last_reported":1685113557,"current_range_meters":8800,"station_id":"ce4bhbh2rcd13ifvqepg","pricing_plan_id":"free"},{"bike_id":"a72fe822-ad11-4b74-bd9f-9d65f8e38ce3","system_id":"levelo_inurba_marseille","lat":43.28422,"lon":5.3499,"is_reserved":false,"is_disabled":false,"rental_uris":{"android":"levelo://app?vid=a72fe822-ad11-4b74-bd9f-9d65f8e38ce3","ios":"levelo://app?vid=a72fe822-ad11-4b74-bd9f-9d65f8e38ce3"},"vehicle_type_id":"4","last_reported":1685113557,"current_range_meters":14800,"station_id":"ce4bhbh2rcd13ifvqepg","pricing_plan_id":"free"},{"bike_id":"66830269-16b3-4d07-bf87-3e42c6cce05d","system_id":"levelo_inurba_marseille","lat":43.284219,"lon":5.3497,"is_reserved":false,"is_disabled":false,"rental_uris":{"android":"levelo://app?vid=66830269-16b3-4d07-bf87-3e42c6cce05d","ios":"levelo://app?vid=66830269-16b3-4d07-bf87-3e42c6cce05d"},"vehicle_type_id":"4","last_reported":1685113557,"current_range_meters":2400,"station_id":"ce4bhbh2rcd13ifvqepg","pricing_plan_id":"free"},{"bike_id":"97cc22b0-a116-4fee-ab26-d49cafb040a0","system_id":"levelo_inurba_marseille","lat":43.284217,"lon":5.349697,"is_reserved":false,"is_disabled":false,"rental_uris":{"android":"levelo://app?vid=97cc22b0-a116-4fee-ab26-d49cafb040a0","ios":"levelo://app?vid=97cc22b0-a116-4fee-ab26-d49cafb040a0"},"vehicle_type_id":"4","last_reported":1685113557,"current_range_meters":27200,"station_id":"ce4bhbh2rcd13ifvqepg","pricing_plan_id":"free"},{"bike_id":"44aca793-9416-423f-814c-ace47abd9708","system_id":"levelo_inurba_marseille","lat":43.284219,"lon":5.3497,"is_reserved":false,"is_disabled":false,"rental_uris":{"android":"levelo://app?vid=44aca793-9416-423f-814c-ace47abd9708","ios":"levelo://app?vid=44aca793-9416-423f-814c-ace47abd9708"},"vehicle_type_id":"4","last_reported":1685113557,"current_range_meters":31600,"station_id":"ce4bhbh2rcd13ifvqepg","pricing_plan_id":"free"},{"bike_id":"7bcaf1e4-4184-4b42-ace6-846f8a1d19ba","system_id":"levelo_inurba_marseille","lat":43.284217,"lon":5.349697,"is_reserved":false,"is_disabled":false,"rental_uris":{"android":"levelo://app?vid=7bcaf1e4-4184-4b42-ace6-846f8a1d19ba","ios":"levelo://app?vid=7bcaf1e4-4184-4b42-ace6-846f8a1d19ba"},"vehicle_type_id":"4","last_reported":1685113557,"current_range_meters":22800,"station_id":"ce4bhbh2rcd13ifvqepg","pricing_plan_id":"free"},{"bike_id":"ac982ae6-42ae-4c7d-82ab-4d1cafcd8812","system_id":"levelo_inurba_marseille","lat":43.284219,"lon":5.3497,"is_reserved":false,"is_disabled":false,"rental_uris":{"android":"levelo://app?vid=ac982ae6-42ae-4c7d-82ab-4d1cafcd8812","ios":"levelo://app?vid=ac982ae6-42ae-4c7d-82ab-4d1cafcd8812"},"vehicle_type_id":"4","last_reported":1685113557,"current_range_meters":17600,"station_id":"ce4bhbh2rcd13ifvqepg","pricing_plan_id":"free"},{"bike_id":"89a6cc19-d709-4246-858e-77026ac30d4f","system_id":"levelo_inurba_marseille","lat":43.284219,"lon":5.3497,"is_reserved":false,"is_disabled":false,"rental_uris":{"android":"levelo://app?vid=89a6cc19-d709-4246-858e-77026ac30d4f","ios":"levelo://app?vid=89a6cc19-d709-4246-858e-77026ac30d4f"},"vehicle_type_id":"4","last_reported":1685113557,"current_range_meters":19200,"station_id":"ce4bhbh2rcd13ifvqepg","pricing_plan_id":"free"},{"bike_id":"b0c6a50f-f17d-44e6-9928-e382f4a6369c","system_id":"levelo_inurba_marseille","lat":43.284217,"lon":5.349697,"is_reserved":false,"is_disabled":false,"rental_uris":{"android":"levelo://app?vid=b0c6a50f-f17d-44e6-9928-e382f4a6369c","ios":"levelo://app?vid=b0c6a50f-f17d-44e6-9928-e382f4a6369c"},"vehicle_type_id":"4","last_reported":1685113557,"current_range_meters":30400,"station_id":"ce4bhbh2rcd13ifvqepg","pricing_plan_id":"free"},{"bike_id":"81e026e6-ad0c-463a-90d0-c27c4336147b","system_id":"levelo_inurba_marseille","lat":43.284217,"lon":5.349697,"is_reserved":false,"is_disabled":false,"rental_uris":{"android":"levelo://app?vid=81e026e6-ad0c-463a-90d0-c27c4336147b","ios":"levelo://app?vid=81e026e6-ad0c-463a-90d0-c27c4336147b"},"vehicle_type_id":"4","last_reported":1685113557,"current_range_meters":30800,"station_id":"ce4bhbh2rcd13ifvqepg","pricing_plan_id":"free"},{"bike_id":"803bf64c-127a-4e30-8230-35a70536eb00","system_id":"levelo_inurba_marseille","lat":43.284217,"lon":5.349697,"is_reserved":false,"is_disabled":false,"rental_uris":{"android":"levelo://app?vid=803bf64c-127a-4e30-8230-35a70536eb00","ios":"levelo://app?vid=803bf64c-127a-4e30-8230-35a70536eb00"},"vehicle_type_id":"4","last_reported":1685113557,"current_range_meters":25200,"station_id":"ce4bhbh2rcd13ifvqepg","pricing_plan_id":"free"},{"bike_id":"7562e487-4c43-4d5f-9d0e-4805541a72f7","system_id":"levelo_inurba_marseille","lat":43.28418,"lon":5.34985,"is_reserved":false,"is_disabled":false,"rental_uris":{"android":"levelo://app?vid=7562e487-4c43-4d5f-9d0e-4805541a72f7","ios":"levelo://app?vid=7562e487-4c43-4d5f-9d0e-4805541a72f7"},"vehicle_type_id":"4","last_reported":1685113557,"current_range_meters":20800,"station_id":"ce4bhbh2rcd13ifvqepg","pricing_plan_id":"free"},{"bike_id":"0e591382-95d3-4511-8980-f7c9229c9391","system_id":"levelo_inurba_marseille","lat":43.284219,"lon":5.3497,"is_reserved":false,"is_disabled":false,"rental_uris":{"android":"levelo://app?vid=0e591382-95d3-4511-8980-f7c9229c9391","ios":"levelo://app?vid=0e591382-95d3-4511-8980-f7c9229c9391"},"vehicle_type_id":"4","last_reported":1685113557,"current_range_meters":23600,"station_id":"ce4bhbh2rcd13ifvqepg","pricing_plan_id":"free"},{"bike_id":"16dd8129-4609-4b85-99d5-0767a343e09b","system_id":"levelo_inurba_marseille","lat":43.284217,"lon":5.349697,"is_reserved":false,"is_disabled":false,"rental_uris":{"android":"levelo://app?vid=16dd8129-4609-4b85-99d5-0767a343e09b","ios":"levelo://app?vid=16dd8129-4609-4b85-99d5-0767a343e09b"},"vehicle_type_id":"4","last_reported":1685113557,"current_range_meters":6800,"station_id":"ce4bhbh2rcd13ifvqepg","pricing_plan_id":"free"},{"bike_id":"8320c784-9548-430c-9366-269299032c44","system_id":"levelo_inurba_marseille","lat":43.284217,"lon":5.349697,"is_reserved":false,"is_disabled":false,"rental_uris":{"android":"levelo://app?vid=8320c784-9548-430c-9366-269299032c44","ios":"levelo://app?vid=8320c784-9548-430c-9366-269299032c44"},"vehicle_type_id":"4","last_reported":1685113557,"current_range_meters":17600,"station_id":"ce4bhbh2rcd13ifvqepg","pricing_plan_id":"free"},{"bike_id":"9ec743a5-3b94-4ba2-ae58-bc2fa485b465","system_id":"levelo_inurba_marseille","lat":43.284217,"lon":5.349697,"is_reserved":false,"is_disabled":false,"rental_uris":{"android":"levelo://app?vid=9ec743a5-3b94-4ba2-ae58-bc2fa485b465","ios":"levelo://app?vid=9ec743a5-3b94-4ba2-ae58-bc2fa485b465"},"vehicle_type_id":"4","last_reported":1685113557,"current_range_meters":31600,"station_id":"ce4bhbh2rcd13ifvqepg","pricing_plan_id":"free"},{"bike_id":"772db8f9-ab27-4fa3-b635-d77d7911a8bc","system_id":"levelo_inurba_marseille","lat":43.284217,"lon":5.349697,"is_reserved":false,"is_disabled":false,"rental_uris":{"android":"levelo://app?vid=772db8f9-ab27-4fa3-b635-d77d7911a8bc","ios":"levelo://app?vid=772db8f9-ab27-4fa3-b635-d77d7911a8bc"},"vehicle_type_id":"4","last_reported":1685113557,"current_range_meters":27600,"station_id":"ce4bhbh2rcd13ifvqepg","pricing_plan_id":"free"},{"bike_id":"7497cf3a-da30-433b-b35c-7b88585b7d88","system_id":"levelo_inurba_marseille","lat":43.284217,"lon":5.349697,"is_reserved":false,"is_disabled":false,"rental_uris":{"android":"levelo://app?vid=7497cf3a-da30-433b-b35c-7b88585b7d88","ios":"levelo://app?vid=7497cf3a-da30-433b-b35c-7b88585b7d88"},"vehicle_type_id":"4","last_reported":1685113557,"current_range_meters":28000,"station_id":"ce4bhbh2rcd13ifvqepg","pricing_plan_id":"free"},{"bike_id":"e2243640-0133-4553-9ff8-ea00479089d1","system_id":"levelo_inurba_marseille","lat":43.284217,"lon":5.349697,"is_reserved":false,"is_disabled":false,"rental_uris":{"android":"levelo://app?vid=e2243640-0133-4553-9ff8-ea00479089d1","ios":"levelo://app?vid=e2243640-0133-4553-9ff8-ea00479089d1"},"vehicle_type_id":"4","last_reported":1685113557,"current_range_meters":5600,"station_id":"ce4bhbh2rcd13ifvqepg","pricing_plan_id":"free"},{"bike_id":"376d766e-b2c7-4935-9bc4-d384e4236693","system_id":"levelo_inurba_marseille","lat":43.284217,"lon":5.349697,"is_reserved":false,"is_disabled":false,"rental_uris":{"android":"levelo://app?vid=376d766e-b2c7-4935-9bc4-d384e4236693","ios":"levelo://app?vid=376d766e-b2c7-4935-9bc4-d384e4236693"},"vehicle_type_id":"4","last_reported":1685113557,"current_range_meters":24400,"station_id":"ce4bhbh2rcd13ifvqepg","pricing_plan_id":"free"},{"bike_id":"6b54a7c0-fb18-4ecf-93c6-53a01a487f14","system_id":"levelo_inurba_marseille","lat":43.28279,"lon":5.35077,"is_reserved":false,"is_disabled":false,"rental_uris":{"android":"levelo://app?vid=6b54a7c0-fb18-4ecf-93c6-53a01a487f14","ios":"levelo://app?vid=6b54a7c0-fb18-4ecf-93c6-53a01a487f14"},"vehicle_type_id":"4","last_reported":1685113557,"current_range_meters":20000,"station_id":"ce4bhbp2rcd13ifvqerg","pricing_plan_id":"free"},{"bike_id":"c35d2e73-643e-40ea-ad3a-0d9d9f818f3f","system_id":"levelo_inurba_marseille","lat":43.2828,"lon":5.3507,"is_reserved":false,"is_disabled":false,"rental_uris":{"android":"levelo://app?vid=c35d2e73-643e-40ea-ad3a-0d9d9f818f3f","ios":"levelo://app?vid=c35d2e73-643e-40ea-ad3a-0d9d9f818f3f"},"vehicle_type_id":"4","last_reported":1685113557,"current_range_meters":7600,"station_id":"ce4bhbp2rcd13ifvqerg","pricing_plan_id":"free"},{"bike_id":"402daf18-6b42-4be9-ab94-285d45086a40","system_id":"levelo_inurba_marseille","lat":43.28277,"lon":5.3508,"is_reserved":false,"is_disabled":false,"rental_uris":{"android":"levelo://app?vid=402daf18-6b42-4be9-ab94-285d45086a40","ios":"levelo://app?vid=402daf18-6b42-4be9-ab94-285d45086a40"},"vehicle_type_id":"4","last_reported":1685113557,"current_range_meters":24000,"station_id":"ce4bhbp2rcd13ifvqerg","pricing_plan_id":"free"},{"bike_id":"3c2b8451-0cc3-4d72-89df-3128462d3559","system_id":"levelo_inurba_marseille","lat":43.28276,"lon":5.35076,"is_reserved":false,"is_disabled":false,"rental_uris":{"android":"levelo://app?vid=3c2b8451-0cc3-4d72-89df-3128462d3559","ios":"levelo://app?vid=3c2b8451-0cc3-4d72-89df-3128462d3559"},"vehicle_type_id":"4","last_reported":1685113557,"current_range_meters":2000,"station_id":"ce4bhbp2rcd13ifvqerg","pricing_plan_id":"free"},{"bike_id":"a9edac98-b2de-4fa6-b963-711eb5767bc4","system_id":"levelo_inurba_marseille","lat":43.283502,"lon":5.386471,"is_reserved":false,"is_disabled":false,"rental_uris":{"android":"levelo://app?vid=a9edac98-b2de-4fa6-b963-711eb5767bc4","ios":"levelo://app?vid=a9edac98-b2de-4fa6-b963-711eb5767bc4"},"vehicle_type_id":"4","last_reported":1685113557,"current_range_meters":15200,"station_id":"ce4bh492rcd13ifvqdvg","pricing_plan_id":"free"},{"bike_id":"7acf91c4-7728-4cb2-82bf-863d9723ea12","system_id":"levelo_inurba_marseille","lat":43.28276,"lon":5.35073,"is_reserved":false,"is_disabled":false,"rental_uris":{"android":"levelo://app?vid=7acf91c4-7728-4cb2-82bf-863d9723ea12","ios":"levelo://app?vid=7acf91c4-7728-4cb2-82bf-863d9723ea12"},"vehicle_type_id":"4","last_reported":1685113557,"current_range_meters":10000,"station_id":"ce4bhbp2rcd13ifvqerg","pricing_plan_id":"free"},{"bike_id":"c4fe44fc-6bf8-46f2-86ea-c7e3d5779d21","system_id":"levelo_inurba_marseille","lat":43.28275,"lon":5.35074,"is_reserved":false,"is_disabled":false,"rental_uris":{"android":"levelo://app?vid=c4fe44fc-6bf8-46f2-86ea-c7e3d5779d21","ios":"levelo://app?vid=c4fe44fc-6bf8-46f2-86ea-c7e3d5779d21"},"vehicle_type_id":"4","last_reported":1685113557,"current_range_meters":22000,"station_id":"ce4bhbp2rcd13ifvqerg","pricing_plan_id":"free"},{"bike_id":"40b19453-514f-4fa5-966c-30f2868fa07a","system_id":"levelo_inurba_marseille","lat":43.28274,"lon":5.35076,"is_reserved":false,"is_disabled":false,"rental_uris":{"android":"levelo://app?vid=40b19453-514f-4fa5-966c-30f2868fa07a","ios":"levelo://app?vid=40b19453-514f-4fa5-966c-30f2868fa07a"},"vehicle_type_id":"4","last_reported":1685113557,"current_range_meters":6000,"station_id":"ce4bhbp2rcd13ifvqerg","pricing_plan_id":"free"},{"bike_id":"fc626297-e4e4-49ad-830f-a6f110eb91e6","system_id":"levelo_inurba_marseille","lat":43.28274,"lon":5.35076,"is_reserved":false,"is_disabled":false,"rental_uris":{"android":"levelo://app?vid=fc626297-e4e4-49ad-830f-a6f110eb91e6","ios":"levelo://app?vid=fc626297-e4e4-49ad-830f-a6f110eb91e6"},"vehicle_type_id":"4","last_reported":1685113557,"current_range_meters":17200,"station_id":"ce4bhbp2rcd13ifvqerg","pricing_plan_id":"free"},{"bike_id":"70963459-03b0-4065-996c-dd7253d5ee93","system_id":"levelo_inurba_marseille","lat":43.2827,"lon":5.35076,"is_reserved":false,"is_disabled":false,"rental_uris":{"android":"levelo://app?vid=70963459-03b0-4065-996c-dd7253d5ee93","ios":"levelo://app?vid=70963459-03b0-4065-996c-dd7253d5ee93"},"vehicle_type_id":"4","last_reported":1685113557,"current_range_meters":20800,"station_id":"ce4bhbp2rcd13ifvqerg","pricing_plan_id":"free"},{"bike_id":"8796fa30-ef59-4eeb-ab00-d4648c0cdf85","system_id":"levelo_inurba_marseille","lat":43.28272,"lon":5.35067,"is_reserved":false,"is_disabled":false,"rental_uris":{"android":"levelo://app?vid=8796fa30-ef59-4eeb-ab00-d4648c0cdf85","ios":"levelo://app?vid=8796fa30-ef59-4eeb-ab00-d4648c0cdf85"},"vehicle_type_id":"4","last_reported":1685113557,"current_range_meters":13200,"station_id":"ce4bhbp2rcd13ifvqerg","pricing_plan_id":"free"},{"bike_id":"5cc14d48-c4d7-4229-a1a7-85bfdb3d5d49","system_id":"levelo_inurba_marseille","lat":43.28274,"lon":5.3506,"is_reserved":false,"is_disabled":false,"rental_uris":{"android":"levelo://app?vid=5cc14d48-c4d7-4229-a1a7-85bfdb3d5d49","ios":"levelo://app?vid=5cc14d48-c4d7-4229-a1a7-85bfdb3d5d49"},"vehicle_type_id":"4","last_reported":1685113557,"current_range_meters":18400,"station_id":"ce4bhbp2rcd13ifvqerg","pricing_plan_id":"free"},{"bike_id":"e3232dbb-0eba-40a2-a7c5-c4fc60dc0d2c","system_id":"levelo_inurba_marseille","lat":43.2827,"lon":5.35072,"is_reserved":false,"is_disabled":false,"rental_uris":{"android":"levelo://app?vid=e3232dbb-0eba-40a2-a7c5-c4fc60dc0d2c","ios":"levelo://app?vid=e3232dbb-0eba-40a2-a7c5-c4fc60dc0d2c"},"vehicle_type_id":"4","last_reported":1685113557,"current_range_meters":14000,"station_id":"ce4bhbp2rcd13ifvqerg","pricing_plan_id":"free"},{"bike_id":"003f8a19-be3a-475f-8da1-2f72041411f4","system_id":"levelo_inurba_marseille","lat":43.2827,"lon":5.35071,"is_reserved":false,"is_disabled":false,"rental_uris":{"android":"levelo://app?vid=003f8a19-be3a-475f-8da1-2f72041411f4","ios":"levelo://app?vid=003f8a19-be3a-475f-8da1-2f72041411f4"},"vehicle_type_id":"4","last_reported":1685113557,"current_range_meters":25200,"station_id":"ce4bhbp2rcd13ifvqerg","pricing_plan_id":"free"},{"bike_id":"6c88c95f-8cc5-4ee7-b5c5-6c898e0b9dfb","system_id":"levelo_inurba_marseille","lat":43.282744,"lon":5.350533,"is_reserved":false,"is_disabled":false,"rental_uris":{"android":"levelo://app?vid=6c88c95f-8cc5-4ee7-b5c5-6c898e0b9dfb","ios":"levelo://app?vid=6c88c95f-8cc5-4ee7-b5c5-6c898e0b9dfb"},"vehicle_type_id":"4","last_reported":1685113557,"current_range_meters":800,"station_id":"ce4bhbp2rcd13ifvqerg","pricing_plan_id":"free"},{"bike_id":"61a61e69-49ec-4599-9b04-7a7edfad2d8c","system_id":"levelo_inurba_marseille","lat":43.282744,"lon":5.350533,"is_reserved":false,"is_disabled":false,"rental_uris":{"android":"levelo://app?vid=61a61e69-49ec-4599-9b04-7a7edfad2d8c","ios":"levelo://app?vid=61a61e69-49ec-4599-9b04-7a7edfad2d8c"},"vehicle_type_id":"4","last_reported":1685113557,"current_range_meters":11600,"station_id":"ce4bhbp2rcd13ifvqerg","pricing_plan_id":"free"},{"bike_id":"b503946f-47ef-4d10-aba5-55cf8af4ace7","system_id":"levelo_inurba_marseille","lat":43.282744,"lon":5.350533,"is_reserved":false,"is_disabled":false,"rental_uris":{"android":"levelo://app?vid=b503946f-47ef-4d10-aba5-55cf8af4ace7","ios":"levelo://app?vid=b503946f-47ef-4d10-aba5-55cf8af4ace7"},"vehicle_type_id":"4","last_reported":1685113557,"current_range_meters":15600,"station_id":"ce4bhbp2rcd13ifvqerg","pricing_plan_id":"free"},{"bike_id":"e16ae30e-74ad-4178-94cc-2db5ee12838f","system_id":"levelo_inurba_marseille","lat":43.28265,"lon":5.35074,"is_reserved":false,"is_disabled":false,"rental_uris":{"android":"levelo://app?vid=e16ae30e-74ad-4178-94cc-2db5ee12838f","ios":"levelo://app?vid=e16ae30e-74ad-4178-94cc-2db5ee12838f"},"vehicle_type_id":"4","last_reported":1685113557,"current_range_meters":31600,"station_id":"ce4bhbp2rcd13ifvqerg","pricing_plan_id":"free"},{"bike_id":"02dfa9d7-f094-4a6b-b68a-babb1d90fc7b","system_id":"levelo_inurba_marseille","lat":43.2827,"lon":5.35055,"is_reserved":false,"is_disabled":false,"rental_uris":{"android":"levelo://app?vid=02dfa9d7-f094-4a6b-b68a-babb1d90fc7b","ios":"levelo://app?vid=02dfa9d7-f094-4a6b-b68a-babb1d90fc7b"},"vehicle_type_id":"4","last_reported":1685113557,"current_range_meters":5200,"station_id":"ce4bhbp2rcd13ifvqerg","pricing_plan_id":"free"},{"bike_id":"1720e73b-aaad-4f42-aa8f-7638fd5a185b","system_id":"levelo_inurba_marseille","lat":43.282744,"lon":5.350533,"is_reserved":false,"is_disabled":false,"rental_uris":{"android":"levelo://app?vid=1720e73b-aaad-4f42-aa8f-7638fd5a185b","ios":"levelo://app?vid=1720e73b-aaad-4f42-aa8f-7638fd5a185b"},"vehicle_type_id":"4","last_reported":1685113557,"current_range_meters":8800,"station_id":"ce4bhbp2rcd13ifvqerg","pricing_plan_id":"free"},{"bike_id":"286ee17d-922f-40b1-87cb-ba61bcb2364f","system_id":"levelo_inurba_marseille","lat":43.28266,"lon":5.35065,"is_reserved":false,"is_disabled":false,"rental_uris":{"android":"levelo://app?vid=286ee17d-922f-40b1-87cb-ba61bcb2364f","ios":"levelo://app?vid=286ee17d-922f-40b1-87cb-ba61bcb2364f"},"vehicle_type_id":"4","last_reported":1685113557,"current_range_meters":16400,"station_id":"ce4bhbp2rcd13ifvqerg","pricing_plan_id":"free"},{"bike_id":"e8bea679-e72d-41b0-baa6-0c1674e1a223","system_id":"levelo_inurba_marseille","lat":43.282754,"lon":5.350519,"is_reserved":false,"is_disabled":false,"rental_uris":{"android":"levelo://app?vid=e8bea679-e72d-41b0-baa6-0c1674e1a223","ios":"levelo://app?vid=e8bea679-e72d-41b0-baa6-0c1674e1a223"},"vehicle_type_id":"4","last_reported":1685113557,"current_range_meters":22800,"station_id":"ce4bhbp2rcd13ifvqerg","pricing_plan_id":"free"},{"bike_id":"ebc0a23c-d592-4bfd-b812-41e39d4309ff","system_id":"levelo_inurba_marseille","lat":43.282642,"lon":5.350679,"is_reserved":false,"is_disabled":false,"rental_uris":{"android":"levelo://app?vid=ebc0a23c-d592-4bfd-b812-41e39d4309ff","ios":"levelo://app?vid=ebc0a23c-d592-4bfd-b812-41e39d4309ff"},"vehicle_type_id":"4","last_reported":1685113557,"current_range_meters":16000,"station_id":"ce4bhbp2rcd13ifvqerg","pricing_plan_id":"free"},{"bike_id":"a6d0eed3-22a0-456b-93cc-e5a7fd56bd0a","system_id":"levelo_inurba_marseille","lat":43.28264,"lon":5.35068,"is_reserved":false,"is_disabled":false,"rental_uris":{"android":"levelo://app?vid=a6d0eed3-22a0-456b-93cc-e5a7fd56bd0a","ios":"levelo://app?vid=a6d0eed3-22a0-456b-93cc-e5a7fd56bd0a"},"vehicle_type_id":"4","last_reported":1685113557,"current_range_meters":0,"station_id":"ce4bhbp2rcd13ifvqerg","pricing_plan_id":"free"},{"bike_id":"0cf89b30-6776-4aaf-8793-4103365a866d","system_id":"levelo_inurba_marseille","lat":43.28264,"lon":5.35067,"is_reserved":false,"is_disabled":false,"rental_uris":{"android":"levelo://app?vid=0cf89b30-6776-4aaf-8793-4103365a866d","ios":"levelo://app?vid=0cf89b30-6776-4aaf-8793-4103365a866d"},"vehicle_type_id":"4","last_reported":1685113557,"current_range_meters":9200,"station_id":"ce4bhbp2rcd13ifvqerg","pricing_plan_id":"free"},{"bike_id":"a7ab8dc9-ade4-4339-8069-cc7d14c1e53a","system_id":"levelo_inurba_marseille","lat":43.282624,"lon":5.350676,"is_reserved":false,"is_disabled":false,"rental_uris":{"android":"levelo://app?vid=a7ab8dc9-ade4-4339-8069-cc7d14c1e53a","ios":"levelo://app?vid=a7ab8dc9-ade4-4339-8069-cc7d14c1e53a"},"vehicle_type_id":"4","last_reported":1685113557,"current_range_meters":7600,"station_id":"ce4bhbp2rcd13ifvqerg","pricing_plan_id":"free"},{"bike_id":"f455a2f3-1523-4931-92b1-684feb83068e","system_id":"levelo_inurba_marseille","lat":43.28261,"lon":5.35068,"is_reserved":false,"is_disabled":false,"rental_uris":{"android":"levelo://app?vid=f455a2f3-1523-4931-92b1-684feb83068e","ios":"levelo://app?vid=f455a2f3-1523-4931-92b1-684feb83068e"},"vehicle_type_id":"4","last_reported":1685113557,"current_range_meters":20400,"station_id":"ce4bhbp2rcd13ifvqerg","pricing_plan_id":"free"},{"bike_id":"55f14722-6585-4773-946a-4e7a53ad4be5","system_id":"levelo_inurba_marseille","lat":43.282744,"lon":5.350533,"is_reserved":false,"is_disabled":false,"rental_uris":{"android":"levelo://app?vid=55f14722-6585-4773-946a-4e7a53ad4be5","ios":"levelo://app?vid=55f14722-6585-4773-946a-4e7a53ad4be5"},"vehicle_type_id":"4","last_reported":1685113557,"current_range_meters":2000,"station_id":"ce4bhbp2rcd13ifvqerg","pricing_plan_id":"free"},{"bike_id":"fafc40a3-39f5-4ff3-886e-ef510a367727","system_id":"levelo_inurba_marseille","lat":43.282744,"lon":5.350533,"is_reserved":false,"is_disabled":false,"rental_uris":{"android":"levelo://app?vid=fafc40a3-39f5-4ff3-886e-ef510a367727","ios":"levelo://app?vid=fafc40a3-39f5-4ff3-886e-ef510a367727"},"vehicle_type_id":"4","last_reported":1685113557,"current_range_meters":31200,"station_id":"ce4bhbp2rcd13ifvqerg","pricing_plan_id":"free"},{"bike_id":"419c26f1-9f0d-4e1f-9d7f-40145c7d2120","system_id":"levelo_inurba_marseille","lat":43.282744,"lon":5.350533,"is_reserved":false,"is_disabled":false,"rental_uris":{"android":"levelo://app?vid=419c26f1-9f0d-4e1f-9d7f-40145c7d2120","ios":"levelo://app?vid=419c26f1-9f0d-4e1f-9d7f-40145c7d2120"},"vehicle_type_id":"4","last_reported":1685113557,"current_range_meters":800,"station_id":"ce4bhbp2rcd13ifvqerg","pricing_plan_id":"free"},{"bike_id":"947d68f9-43f0-4aa2-aad1-a5f6b662c190","system_id":"levelo_inurba_marseille","lat":43.283502,"lon":5.386471,"is_reserved":false,"is_disabled":false,"rental_uris":{"android":"levelo://app?vid=947d68f9-43f0-4aa2-aad1-a5f6b662c190","ios":"levelo://app?vid=947d68f9-43f0-4aa2-aad1-a5f6b662c190"},"vehicle_type_id":"4","last_reported":1685113557,"current_range_meters":30800,"station_id":"ce4bh492rcd13ifvqdvg","pricing_plan_id":"free"},{"bike_id":"0d316057-ba3d-427e-a014-633e43f9f85d","system_id":"levelo_inurba_marseille","lat":43.28039,"lon":5.369297,"is_reserved":false,"is_disabled":false,"rental_uris":{"android":"levelo://app?vid=0d316057-ba3d-427e-a014-633e43f9f85d","ios":"levelo://app?vid=0d316057-ba3d-427e-a014-633e43f9f85d"},"vehicle_type_id":"4","last_reported":1685113557,"current_range_meters":17600,"station_id":"ce4bha12rcd13ifvqef0","pricing_plan_id":"free"},{"bike_id":"4d86ce40-e406-44d0-9e2e-59dcfae65e59","system_id":"levelo_inurba_marseille","lat":43.29041,"lon":5.39947,"is_reserved":false,"is_disabled":false,"rental_uris":{"android":"levelo://app?vid=4d86ce40-e406-44d0-9e2e-59dcfae65e59","ios":"levelo://app?vid=4d86ce40-e406-44d0-9e2e-59dcfae65e59"},"vehicle_type_id":"4","last_reported":1685113557,"current_range_meters":0,"station_id":"ce4bh392rcd13ifvqdm0","pricing_plan_id":"free"},{"bike_id":"bece9be7-8b72-4f0b-a13e-2bd96d8d9b6a","system_id":"levelo_inurba_marseille","lat":43.296263,"lon":5.40601,"is_reserved":false,"is_disabled":false,"rental_uris":{"android":"levelo://app?vid=bece9be7-8b72-4f0b-a13e-2bd96d8d9b6a","ios":"levelo://app?vid=bece9be7-8b72-4f0b-a13e-2bd96d8d9b6a"},"vehicle_type_id":"4","last_reported":1685113557,"current_range_meters":2400,"station_id":"ce4bh0h2rcd13ifvqd60","pricing_plan_id":"free"},{"bike_id":"fab2a02b-3318-4a15-8fa7-33a83c9cbb4b","system_id":"levelo_inurba_marseille","lat":43.281044,"lon":5.378308,"is_reserved":false,"is_disabled":false,"rental_uris":{"android":"levelo://app?vid=fab2a02b-3318-4a15-8fa7-33a83c9cbb4b","ios":"levelo://app?vid=fab2a02b-3318-4a15-8fa7-33a83c9cbb4b"},"vehicle_type_id":"4","last_reported":1685113557,"current_range_meters":18400,"station_id":"ce4bha12rcd13ifvqee0","pricing_plan_id":"free"},{"bike_id":"e89c4984-32de-44d0-8e30-0611c752c60d","system_id":"levelo_inurba_marseille","lat":43.281044,"lon":5.378308,"is_reserved":false,"is_disabled":false,"rental_uris":{"android":"levelo://app?vid=e89c4984-32de-44d0-8e30-0611c752c60d","ios":"levelo://app?vid=e89c4984-32de-44d0-8e30-0611c752c60d"},"vehicle_type_id":"4","last_reported":1685113557,"current_range_meters":10000,"station_id":"ce4bha12rcd13ifvqee0","pricing_plan_id":"free"},{"bike_id":"0e852e9d-7350-48e2-a74e-60db272d94f0","system_id":"levelo_inurba_marseille","lat":43.281044,"lon":5.378308,"is_reserved":false,"is_disabled":false,"rental_uris":{"android":"levelo://app?vid=0e852e9d-7350-48e2-a74e-60db272d94f0","ios":"levelo://app?vid=0e852e9d-7350-48e2-a74e-60db272d94f0"},"vehicle_type_id":"4","last_reported":1685113557,"current_range_meters":12800,"station_id":"ce4bha12rcd13ifvqee0","pricing_plan_id":"free"},{"bike_id":"916479e5-7775-4b36-9f78-53b2abfe23f4","system_id":"levelo_inurba_marseille","lat":43.281,"lon":5.37839,"is_reserved":false,"is_disabled":false,"rental_uris":{"android":"levelo://app?vid=916479e5-7775-4b36-9f78-53b2abfe23f4","ios":"levelo://app?vid=916479e5-7775-4b36-9f78-53b2abfe23f4"},"vehicle_type_id":"4","last_reported":1685113557,"current_range_meters":21600,"station_id":"ce4bha12rcd13ifvqee0","pricing_plan_id":"free"},{"bike_id":"11860358-8499-4bf2-aec0-8d6d23623831","system_id":"levelo_inurba_marseille","lat":43.28099,"lon":5.3784,"is_reserved":false,"is_disabled":false,"rental_uris":{"android":"levelo://app?vid=11860358-8499-4bf2-aec0-8d6d23623831","ios":"levelo://app?vid=11860358-8499-4bf2-aec0-8d6d23623831"},"vehicle_type_id":"4","last_reported":1685113557,"current_range_meters":17600,"station_id":"ce4bha12rcd13ifvqee0","pricing_plan_id":"free"},{"bike_id":"ffa0841a-f2c9-4036-a22c-42eeb3e2a174","system_id":"levelo_inurba_marseille","lat":43.28093,"lon":5.3784,"is_reserved":false,"is_disabled":false,"rental_uris":{"android":"levelo://app?vid=ffa0841a-f2c9-4036-a22c-42eeb3e2a174","ios":"levelo://app?vid=ffa0841a-f2c9-4036-a22c-42eeb3e2a174"},"vehicle_type_id":"4","last_reported":1685113557,"current_range_meters":4800,"station_id":"ce4bha12rcd13ifvqee0","pricing_plan_id":"free"},{"bike_id":"292e5d00-e48c-49d7-846b-da094a6ac3a2","system_id":"levelo_inurba_marseille","lat":43.287061,"lon":5.399911,"is_reserved":false,"is_disabled":false,"rental_uris":{"android":"levelo://app?vid=292e5d00-e48c-49d7-846b-da094a6ac3a2","ios":"levelo://app?vid=292e5d00-e48c-49d7-846b-da094a6ac3a2"},"vehicle_type_id":"4","last_reported":1685113557,"current_range_meters":7600,"station_id":"ce4bho92rcd13ifvqh3g","pricing_plan_id":"free"},{"bike_id":"b6b64acc-18bb-4115-8571-e3e4aea21729","system_id":"levelo_inurba_marseille","lat":43.28429,"lon":5.39536,"is_reserved":false,"is_disabled":false,"rental_uris":{"android":"levelo://app?vid=b6b64acc-18bb-4115-8571-e3e4aea21729","ios":"levelo://app?vid=b6b64acc-18bb-4115-8571-e3e4aea21729"},"vehicle_type_id":"4","last_reported":1685113557,"current_range_meters":20400,"station_id":"","pricing_plan_id":"free"},{"bike_id":"88f9c75c-ab75-4091-963d-97775d1c3d56","system_id":"levelo_inurba_marseille","lat":43.320045,"lon":5.415046,"is_reserved":false,"is_disabled":false,"rental_uris":{"android":"levelo://app?vid=88f9c75c-ab75-4091-963d-97775d1c3d56","ios":"levelo://app?vid=88f9c75c-ab75-4091-963d-97775d1c3d56"},"vehicle_type_id":"4","last_reported":1685113557,"current_range_meters":19200,"station_id":"ce4bhq92rcd13ifvqhkg","pricing_plan_id":"free"},{"bike_id":"12f44368-16be-4d1d-a0a9-73499427be77","system_id":"levelo_inurba_marseille","lat":43.292571,"lon":5.409107,"is_reserved":false,"is_disabled":false,"rental_uris":{"android":"levelo://app?vid=12f44368-16be-4d1d-a0a9-73499427be77","ios":"levelo://app?vid=12f44368-16be-4d1d-a0a9-73499427be77"},"vehicle_type_id":"4","last_reported":1685113557,"current_range_meters":5200,"station_id":"ce4bh192rcd13ifvqdc0","pricing_plan_id":"free"},{"bike_id":"e21b67af-16cc-439d-9ae2-ee4c795ed8f0","system_id":"levelo_inurba_marseille","lat":43.292571,"lon":5.409107,"is_reserved":false,"is_disabled":false,"rental_uris":{"android":"levelo://app?vid=e21b67af-16cc-439d-9ae2-ee4c795ed8f0","ios":"levelo://app?vid=e21b67af-16cc-439d-9ae2-ee4c795ed8f0"},"vehicle_type_id":"4","last_reported":1685113557,"current_range_meters":0,"station_id":"ce4bh192rcd13ifvqdc0","pricing_plan_id":"free"},{"bike_id":"ac5bb4a5-ad58-4d54-8b98-f0f06e95fb19","system_id":"levelo_inurba_marseille","lat":43.292571,"lon":5.409107,"is_reserved":false,"is_disabled":false,"rental_uris":{"android":"levelo://app?vid=ac5bb4a5-ad58-4d54-8b98-f0f06e95fb19","ios":"levelo://app?vid=ac5bb4a5-ad58-4d54-8b98-f0f06e95fb19"},"vehicle_type_id":"4","last_reported":1685113557,"current_range_meters":800,"station_id":"ce4bh192rcd13ifvqdc0","pricing_plan_id":"free"},{"bike_id":"25f5486c-e769-453e-bf7b-2569aecba16a","system_id":"levelo_inurba_marseille","lat":43.292571,"lon":5.409107,"is_reserved":false,"is_disabled":false,"rental_uris":{"android":"levelo://app?vid=25f5486c-e769-453e-bf7b-2569aecba16a","ios":"levelo://app?vid=25f5486c-e769-453e-bf7b-2569aecba16a"},"vehicle_type_id":"4","last_reported":1685113557,"current_range_meters":14800,"station_id":"ce4bh192rcd13ifvqdc0","pricing_plan_id":"free"},{"bike_id":"7efe1978-4df0-45ca-871a-99f98474b110","system_id":"levelo_inurba_marseille","lat":43.292571,"lon":5.409107,"is_reserved":false,"is_disabled":false,"rental_uris":{"android":"levelo://app?vid=7efe1978-4df0-45ca-871a-99f98474b110","ios":"levelo://app?vid=7efe1978-4df0-45ca-871a-99f98474b110"},"vehicle_type_id":"4","last_reported":1685113557,"current_range_meters":4800,"station_id":"ce4bh192rcd13ifvqdc0","pricing_plan_id":"free"},{"bike_id":"4cf9740b-2e0c-4b0d-ba48-21964d517d06","system_id":"levelo_inurba_marseille","lat":43.27622,"lon":5.36111,"is_reserved":false,"is_disabled":false,"rental_uris":{"android":"levelo://app?vid=4cf9740b-2e0c-4b0d-ba48-21964d517d06","ios":"levelo://app?vid=4cf9740b-2e0c-4b0d-ba48-21964d517d06"},"vehicle_type_id":"4","last_reported":1685113557,"current_range_meters":18000,"station_id":"ce4bgj92rcd13ifvqbe0","pricing_plan_id":"free"},{"bike_id":"29ccf1ed-768a-4ac9-abfd-26b77b287c79","system_id":"levelo_inurba_marseille","lat":43.27621,"lon":5.36113,"is_reserved":false,"is_disabled":false,"rental_uris":{"android":"levelo://app?vid=29ccf1ed-768a-4ac9-abfd-26b77b287c79","ios":"levelo://app?vid=29ccf1ed-768a-4ac9-abfd-26b77b287c79"},"vehicle_type_id":"4","last_reported":1685113557,"current_range_meters":3200,"station_id":"ce4bgj92rcd13ifvqbe0","pricing_plan_id":"free"},{"bike_id":"0c7f4ed8-c258-4510-984d-ad6297004c3f","system_id":"levelo_inurba_marseille","lat":43.27621,"lon":5.36107,"is_reserved":false,"is_disabled":false,"rental_uris":{"android":"levelo://app?vid=0c7f4ed8-c258-4510-984d-ad6297004c3f","ios":"levelo://app?vid=0c7f4ed8-c258-4510-984d-ad6297004c3f"},"vehicle_type_id":"4","last_reported":1685113557,"current_range_meters":2400,"station_id":"ce4bgj92rcd13ifvqbe0","pricing_plan_id":"free"},{"bike_id":"3a5d7784-b101-4bb7-ad2f-0f618708a43c","system_id":"levelo_inurba_marseille","lat":43.2762,"lon":5.36107,"is_reserved":false,"is_disabled":false,"rental_uris":{"android":"levelo://app?vid=3a5d7784-b101-4bb7-ad2f-0f618708a43c","ios":"levelo://app?vid=3a5d7784-b101-4bb7-ad2f-0f618708a43c"},"vehicle_type_id":"4","last_reported":1685113557,"current_range_meters":25200,"station_id":"ce4bgj92rcd13ifvqbe0","pricing_plan_id":"free"},{"bike_id":"9d091c5b-315c-432b-aa9d-f05fbe9c5c72","system_id":"levelo_inurba_marseille","lat":43.27619,"lon":5.36112,"is_reserved":false,"is_disabled":false,"rental_uris":{"android":"levelo://app?vid=9d091c5b-315c-432b-aa9d-f05fbe9c5c72","ios":"levelo://app?vid=9d091c5b-315c-432b-aa9d-f05fbe9c5c72"},"vehicle_type_id":"4","last_reported":1685113557,"current_range_meters":22400,"station_id":"ce4bgj92rcd13ifvqbe0","pricing_plan_id":"free"},{"bike_id":"b6789996-2a25-4da1-97a6-bd94ff18e4c5","system_id":"levelo_inurba_marseille","lat":43.27619,"lon":5.36112,"is_reserved":false,"is_disabled":false,"rental_uris":{"android":"levelo://app?vid=b6789996-2a25-4da1-97a6-bd94ff18e4c5","ios":"levelo://app?vid=b6789996-2a25-4da1-97a6-bd94ff18e4c5"},"vehicle_type_id":"4","last_reported":1685113557,"current_range_meters":26400,"station_id":"ce4bgj92rcd13ifvqbe0","pricing_plan_id":"free"},{"bike_id":"713aae44-19a1-4eea-9336-8c6d11084a47","system_id":"levelo_inurba_marseille","lat":43.27619,"lon":5.36103,"is_reserved":false,"is_disabled":false,"rental_uris":{"android":"levelo://app?vid=713aae44-19a1-4eea-9336-8c6d11084a47","ios":"levelo://app?vid=713aae44-19a1-4eea-9336-8c6d11084a47"},"vehicle_type_id":"4","last_reported":1685113557,"current_range_meters":8400,"station_id":"ce4bgj92rcd13ifvqbe0","pricing_plan_id":"free"},{"bike_id":"7dd2be40-d869-41db-93e9-a5ee8dc8df03","system_id":"levelo_inurba_marseille","lat":43.27618,"lon":5.36114,"is_reserved":false,"is_disabled":false,"rental_uris":{"android":"levelo://app?vid=7dd2be40-d869-41db-93e9-a5ee8dc8df03","ios":"levelo://app?vid=7dd2be40-d869-41db-93e9-a5ee8dc8df03"},"vehicle_type_id":"4","last_reported":1685113557,"current_range_meters":6000,"station_id":"ce4bgj92rcd13ifvqbe0","pricing_plan_id":"free"},{"bike_id":"0b193b3c-8023-4274-b218-288d34b7af09","system_id":"levelo_inurba_marseille","lat":43.280784,"lon":5.396622,"is_reserved":false,"is_disabled":false,"rental_uris":{"android":"levelo://app?vid=0b193b3c-8023-4274-b218-288d34b7af09","ios":"levelo://app?vid=0b193b3c-8023-4274-b218-288d34b7af09"},"vehicle_type_id":"4","last_reported":1685113557,"current_range_meters":6000,"station_id":"ce4bho12rcd13ifvqh2g","pricing_plan_id":"free"},{"bike_id":"d4851ef6-2a80-458e-9273-b44ca9d2388b","system_id":"levelo_inurba_marseille","lat":43.280784,"lon":5.396622,"is_reserved":false,"is_disabled":false,"rental_uris":{"android":"levelo://app?vid=d4851ef6-2a80-458e-9273-b44ca9d2388b","ios":"levelo://app?vid=d4851ef6-2a80-458e-9273-b44ca9d2388b"},"vehicle_type_id":"4","last_reported":1685113557,"current_range_meters":2400,"station_id":"ce4bho12rcd13ifvqh2g","pricing_plan_id":"free"},{"bike_id":"76beb227-344c-4c54-ba87-7512a850efec","system_id":"levelo_inurba_marseille","lat":43.303837,"lon":5.418724,"is_reserved":false,"is_disabled":false,"rental_uris":{"android":"levelo://app?vid=76beb227-344c-4c54-ba87-7512a850efec","ios":"levelo://app?vid=76beb227-344c-4c54-ba87-7512a850efec"},"vehicle_type_id":"4","last_reported":1685113557,"current_range_meters":14400,"station_id":"ce4bhop2rcd13ifvqh7g","pricing_plan_id":"free"},{"bike_id":"51b79956-b720-4872-b460-e3235ba3203c","system_id":"levelo_inurba_marseille","lat":43.273613,"lon":5.362705,"is_reserved":false,"is_disabled":false,"rental_uris":{"android":"levelo://app?vid=51b79956-b720-4872-b460-e3235ba3203c","ios":"levelo://app?vid=51b79956-b720-4872-b460-e3235ba3203c"},"vehicle_type_id":"4","last_reported":1685113557,"current_range_meters":20800,"station_id":"ce4bhbh2rcd13ifvqeo0","pricing_plan_id":"free"},{"bike_id":"79499019-c70f-42bd-bde0-b271ad9fce6e","system_id":"levelo_inurba_marseille","lat":43.273613,"lon":5.362705,"is_reserved":false,"is_disabled":false,"rental_uris":{"android":"levelo://app?vid=79499019-c70f-42bd-bde0-b271ad9fce6e","ios":"levelo://app?vid=79499019-c70f-42bd-bde0-b271ad9fce6e"},"vehicle_type_id":"4","last_reported":1685113557,"current_range_meters":21200,"station_id":"ce4bhbh2rcd13ifvqeo0","pricing_plan_id":"free"},{"bike_id":"55dec593-638f-456f-a53c-9c2bddd598df","system_id":"levelo_inurba_marseille","lat":43.273613,"lon":5.362705,"is_reserved":false,"is_disabled":false,"rental_uris":{"android":"levelo://app?vid=55dec593-638f-456f-a53c-9c2bddd598df","ios":"levelo://app?vid=55dec593-638f-456f-a53c-9c2bddd598df"},"vehicle_type_id":"4","last_reported":1685113557,"current_range_meters":31200,"station_id":"ce4bhbh2rcd13ifvqeo0","pricing_plan_id":"free"},{"bike_id":"9c9e1aaa-d40a-47cc-974f-4024047be166","system_id":"levelo_inurba_marseille","lat":43.273799,"lon":5.362953,"is_reserved":false,"is_disabled":false,"rental_uris":{"android":"levelo://app?vid=9c9e1aaa-d40a-47cc-974f-4024047be166","ios":"levelo://app?vid=9c9e1aaa-d40a-47cc-974f-4024047be166"},"vehicle_type_id":"4","last_reported":1685113557,"current_range_meters":24800,"station_id":"ce4bhbh2rcd13ifvqeo0","pricing_plan_id":"free"},{"bike_id":"dce6b700-b659-4265-9f2c-b92e10c533c2","system_id":"levelo_inurba_marseille","lat":43.273609,"lon":5.362708,"is_reserved":false,"is_disabled":false,"rental_uris":{"android":"levelo://app?vid=dce6b700-b659-4265-9f2c-b92e10c533c2","ios":"levelo://app?vid=dce6b700-b659-4265-9f2c-b92e10c533c2"},"vehicle_type_id":"4","last_reported":1685113557,"current_range_meters":30400,"station_id":"ce4bhbh2rcd13ifvqeo0","pricing_plan_id":"free"},{"bike_id":"65070c2b-3a20-49aa-af1b-6e11644f66ab","system_id":"levelo_inurba_marseille","lat":43.273609,"lon":5.362708,"is_reserved":false,"is_disabled":false,"rental_uris":{"android":"levelo://app?vid=65070c2b-3a20-49aa-af1b-6e11644f66ab","ios":"levelo://app?vid=65070c2b-3a20-49aa-af1b-6e11644f66ab"},"vehicle_type_id":"4","last_reported":1685113557,"current_range_meters":16000,"station_id":"ce4bhbh2rcd13ifvqeo0","pricing_plan_id":"free"},{"bike_id":"5820b062-c358-450d-93b0-5a41bb09cb29","system_id":"levelo_inurba_marseille","lat":43.273613,"lon":5.362705,"is_reserved":false,"is_disabled":false,"rental_uris":{"android":"levelo://app?vid=5820b062-c358-450d-93b0-5a41bb09cb29","ios":"levelo://app?vid=5820b062-c358-450d-93b0-5a41bb09cb29"},"vehicle_type_id":"4","last_reported":1685113557,"current_range_meters":31200,"station_id":"ce4bhbh2rcd13ifvqeo0","pricing_plan_id":"free"},{"bike_id":"a65ebaa2-6c27-430e-821b-ab323b54423d","system_id":"levelo_inurba_marseille","lat":43.273613,"lon":5.362705,"is_reserved":false,"is_disabled":false,"rental_uris":{"android":"levelo://app?vid=a65ebaa2-6c27-430e-821b-ab323b54423d","ios":"levelo://app?vid=a65ebaa2-6c27-430e-821b-ab323b54423d"},"vehicle_type_id":"4","last_reported":1685113557,"current_range_meters":31200,"station_id":"ce4bhbh2rcd13ifvqeo0","pricing_plan_id":"free"},{"bike_id":"11bc3b88-c260-45de-af96-b32b6258daa7","system_id":"levelo_inurba_marseille","lat":43.273609,"lon":5.362708,"is_reserved":false,"is_disabled":false,"rental_uris":{"android":"levelo://app?vid=11bc3b88-c260-45de-af96-b32b6258daa7","ios":"levelo://app?vid=11bc3b88-c260-45de-af96-b32b6258daa7"},"vehicle_type_id":"4","last_reported":1685113557,"current_range_meters":27600,"station_id":"ce4bhbh2rcd13ifvqeo0","pricing_plan_id":"free"},{"bike_id":"cb253bd9-763c-48ce-bcff-45cadd8048de","system_id":"levelo_inurba_marseille","lat":43.273609,"lon":5.362708,"is_reserved":false,"is_disabled":false,"rental_uris":{"android":"levelo://app?vid=cb253bd9-763c-48ce-bcff-45cadd8048de","ios":"levelo://app?vid=cb253bd9-763c-48ce-bcff-45cadd8048de"},"vehicle_type_id":"4","last_reported":1685113557,"current_range_meters":28000,"station_id":"ce4bhbh2rcd13ifvqeo0","pricing_plan_id":"free"},{"bike_id":"ff346941-ba6d-4faa-a584-02c36e45347e","system_id":"levelo_inurba_marseille","lat":43.273613,"lon":5.362705,"is_reserved":false,"is_disabled":false,"rental_uris":{"android":"levelo://app?vid=ff346941-ba6d-4faa-a584-02c36e45347e","ios":"levelo://app?vid=ff346941-ba6d-4faa-a584-02c36e45347e"},"vehicle_type_id":"4","last_reported":1685113557,"current_range_meters":19200,"station_id":"ce4bhbh2rcd13ifvqeo0","pricing_plan_id":"free"},{"bike_id":"53133c4d-c701-4097-a43e-49cabbd6ea00","system_id":"levelo_inurba_marseille","lat":43.273613,"lon":5.362705,"is_reserved":false,"is_disabled":false,"rental_uris":{"android":"levelo://app?vid=53133c4d-c701-4097-a43e-49cabbd6ea00","ios":"levelo://app?vid=53133c4d-c701-4097-a43e-49cabbd6ea00"},"vehicle_type_id":"4","last_reported":1685113557,"current_range_meters":30400,"station_id":"ce4bhbh2rcd13ifvqeo0","pricing_plan_id":"free"},{"bike_id":"fd6d5586-ec38-444e-b5c8-ff6cfa35f1ac","system_id":"levelo_inurba_marseille","lat":43.273613,"lon":5.362705,"is_reserved":false,"is_disabled":false,"rental_uris":{"android":"levelo://app?vid=fd6d5586-ec38-444e-b5c8-ff6cfa35f1ac","ios":"levelo://app?vid=fd6d5586-ec38-444e-b5c8-ff6cfa35f1ac"},"vehicle_type_id":"4","last_reported":1685113557,"current_range_meters":31200,"station_id":"ce4bhbh2rcd13ifvqeo0","pricing_plan_id":"free"},{"bike_id":"d18bad31-9c5b-49ad-bc8c-1b3683448f20","system_id":"levelo_inurba_marseille","lat":43.273776,"lon":5.362578,"is_reserved":false,"is_disabled":false,"rental_uris":{"android":"levelo://app?vid=d18bad31-9c5b-49ad-bc8c-1b3683448f20","ios":"levelo://app?vid=d18bad31-9c5b-49ad-bc8c-1b3683448f20"},"vehicle_type_id":"4","last_reported":1685113557,"current_range_meters":27200,"station_id":"ce4bhbh2rcd13ifvqeo0","pricing_plan_id":"free"},{"bike_id":"7e27dd66-7f2e-4e57-a406-5c57116dfac1","system_id":"levelo_inurba_marseille","lat":43.273613,"lon":5.362705,"is_reserved":false,"is_disabled":false,"rental_uris":{"android":"levelo://app?vid=7e27dd66-7f2e-4e57-a406-5c57116dfac1","ios":"levelo://app?vid=7e27dd66-7f2e-4e57-a406-5c57116dfac1"},"vehicle_type_id":"4","last_reported":1685113557,"current_range_meters":31200,"station_id":"ce4bhbh2rcd13ifvqeo0","pricing_plan_id":"free"},{"bike_id":"2edc5e24-8002-451c-b944-8faa62cfb67b","system_id":"levelo_inurba_marseille","lat":43.273613,"lon":5.362705,"is_reserved":false,"is_disabled":false,"rental_uris":{"android":"levelo://app?vid=2edc5e24-8002-451c-b944-8faa62cfb67b","ios":"levelo://app?vid=2edc5e24-8002-451c-b944-8faa62cfb67b"},"vehicle_type_id":"4","last_reported":1685113557,"current_range_meters":15200,"station_id":"ce4bhbh2rcd13ifvqeo0","pricing_plan_id":"free"},{"bike_id":"1f2e9c97-2fbb-42f8-a020-94da046fa22c","system_id":"levelo_inurba_marseille","lat":43.273613,"lon":5.362705,"is_reserved":false,"is_disabled":false,"rental_uris":{"android":"levelo://app?vid=1f2e9c97-2fbb-42f8-a020-94da046fa22c","ios":"levelo://app?vid=1f2e9c97-2fbb-42f8-a020-94da046fa22c"},"vehicle_type_id":"4","last_reported":1685113557,"current_range_meters":31200,"station_id":"ce4bhbh2rcd13ifvqeo0","pricing_plan_id":"free"},{"bike_id":"241fb517-af5c-4f59-b518-652eb3a744cc","system_id":"levelo_inurba_marseille","lat":43.273613,"lon":5.362705,"is_reserved":false,"is_disabled":false,"rental_uris":{"android":"levelo://app?vid=241fb517-af5c-4f59-b518-652eb3a744cc","ios":"levelo://app?vid=241fb517-af5c-4f59-b518-652eb3a744cc"},"vehicle_type_id":"4","last_reported":1685113557,"current_range_meters":15200,"station_id":"ce4bhbh2rcd13ifvqeo0","pricing_plan_id":"free"},