{"last_updated":1742317744,"ttl":60,"version":"2.2","data":{"bikes":[{"bike_id":"0fd5aa92-dc68-413f-ac6b-83b8fb561b7b","system_id":"levelo_inurba_marseille","lat":43.33737,"lon":5.3918,"is_reserved":false,"is_disabled":false,"rental_uris":{"android":"levelo://app?vid=0fd5aa92-dc68-413f-ac6b-83b8fb561b7b","ios":"levelo://app?vid=0fd5aa92-dc68-413f-ac6b-83b8fb561b7b"},"vehicle_type_id":"4","last_reported":1742317744,"current_range_meters":2800,"station_id":"ce4bhr92rcd13ifvqhsg","pricing_plan_id":"cebpf4jnsgd1na2vs0mg"},{"bike_id":"f1c40536-740f-40b0-8b91-b4355eaf1d09","system_id":"levelo_inurba_marseille","lat":43.29229,"lon":5.36073,"is_reserved":false,"is_disabled":false,"rental_uris":{"android":"levelo://app?vid=f1c40536-740f-40b0-8b91-b4355eaf1d09","ios":"levelo://app?vid=f1c40536-740f-40b0-8b91-b4355eaf1d09"},"vehicle_type_id":"4","last_reported":1742317744,"current_range_meters":2800,"station_id":"ce4bhbh2rcd13ifvqeqg","pricing_plan_id":"cebpf4jnsgd1na2vs0mg"},{"bike_id":"95e6a699-aff0-4153-a06f-fbcb8be90003","system_id":"levelo_inurba_marseille","lat":43.27999,"lon":5.41662,"is_reserved":false,"is_disabled":false,"rental_uris":{"android":"levelo://app?vid=95e6a699-aff0-4153-a06f-fbcb8be90003","ios":"levelo://app?vid=95e6a699-aff0-4153-a06f-fbcb8be90003"},"vehicle_type_id":"4","last_reported":1742317744,"current_range_meters":2800,"station_id":"ce4bho12rcd13ifvqh1g","pricing_plan_id":"cebpf4jnsgd1na2vs0mg"},{"bike_id":"1d81a048-a6d6-4732-bc96-422394fc0cdd","system_id":"levelo_inurba_marseille","lat":43.27328,"lon":5.39111,"is_reserved":false,"is_disabled":true,"rental_uris":{"android":"levelo://app?vid=1d81a048-a6d6-4732-bc96-422394fc0cdd","ios":"levelo://app?vid=1d81a048-a6d6-4732-bc96-422394fc0cdd"},"vehicle_type_id":"4","last_reported":1742317744,"current_range_meters":3200,"station_id":"ce4bhgp2rcd13ifvqfe0","pricing_plan_id":"cebpf4jnsgd1na2vs0mg"},{"bike_id":"1cc165cd-76b3-48f6-abfe-c2f4a5badb52","system_id":"levelo_inurba_marseille","lat":43.28077,"lon":5.39648,"is_reserved":false,"is_disabled":false,"rental_uris":{"android":"levelo://app?vid=1cc165cd-76b3-48f6-abfe-c2f4a5badb52","ios":"levelo://app?vid=1cc165cd-76b3-48f6-abfe-c2f4a5badb52"},"vehicle_type_id":"4","last_reported":1742317744,"current_range_meters":3200,"station_id":"ce4bho12rcd13ifvqh2g","pricing_plan_id":"cebpf4jnsgd1na2vs0mg"},{"bike_id":"327ff85e-d483-4c11-bd85-a3a62f3739d6","system_id":"levelo_inurba_marseille","lat":43.29057,"lon":5.35909,"is_reserved":false,"is_disabled":false,"rental_uris":{"android":"levelo://app?vid=327ff85e-d483-4c11-bd85-a3a62f3739d6","ios":"levelo://app?vid=327ff85e-d483-4c11-bd85-a3a62f3739d6"},"vehicle_type_id":"4","last_reported":1742317744,"current_range_meters":3200,"station_id":"ce4bha92rcd13ifvqeg0","pricing_plan_id":"cebpf4jnsgd1na2vs0mg"},{"bike_id":"0aa1b556-f028-4544-aeb8-11eecb689d4d","system_id":"levelo_inurba_marseille","lat":43.290375,"lon":5.386536,"is_reserved":false,"is_disabled":false,"rental_uris":{"android":"levelo://app?vid=0aa1b556-f028-4544-aeb8-11eecb689d4d","ios":"levelo://app?vid=0aa1b556-f028-4544-aeb8-11eecb689d4d"},"vehicle_type_id":"4","last_reported":1742317744,"current_range_meters":4000,"station_id":"ce4bhgp2rcd13ifvqfe0","pricing_plan_id":"cebpf4jnsgd1na2vs0mg"},{"bike_id":"effa4a25-70e2-4b36-b85f-2dfad7e52e85","system_id":"levelo_inurba_marseille","lat":43.25582,"lon":5.38243,"is_reserved":false,"is_disabled":false,"rental_uris":{"android":"levelo://app?vid=effa4a25-70e2-4b36-b85f-2dfad7e52e85","ios":"levelo://app?vid=effa4a25-70e2-4b36-b85f-2dfad7e52e85"},"vehicle_type_id":"4","last_reported":1742317744,"current_range_meters":3600,"station_id":"ce4bhih2rcd13ifvqfs0","pricing_plan_id":"cebpf4jnsgd1na2vs0mg"},{"bike_id":"e86bf23f-29da-46c7-ba34-fd32ff63c40d","system_id":"levelo_inurba_marseille","lat":43.27952,"lon":5.41054,"is_reserved":false,"is_disabled":false,"rental_uris":{"android":"levelo://app?vid=e86bf23f-29da-46c7-ba34-fd32ff63c40d","ios":"levelo://app?vid=e86bf23f-29da-46c7-ba34-fd32ff63c40d"},"vehicle_type_id":"4","last_reported":1742317744,"current_range_meters":3600,"station_id":"ce4bhnp2rcd13ifvqh0g","pricing_plan_id":"cebpf4jnsgd1na2vs0mg"},{"bike_id":"e687940f-3c9c-4a24-82d3-cc513234d0f2","system_id":"levelo_inurba_marseille","lat":43.26237,"lon":5.40475,"is_reserved":false,"is_disabled":true,"rental_uris":{"android":"levelo://app?vid=e687940f-3c9c-4a24-82d3-cc513234d0f2","ios":"levelo://app?vid=e687940f-3c9c-4a24-82d3-cc513234d0f2"},"vehicle_type_id":"4","last_reported":1742317744,"current_range_meters":3600,"station_id":"ce4bhmh2rcd13ifvqgmg","pricing_plan_id":"cebpf4jnsgd1na2vs0mg"},{"bike_id":"460cad94-7ea5-46a4-84bd-4b2efd0fadfb","system_id":"levelo_inurba_marseille","lat":43.32366,"lon":5.38894,"is_reserved":false,"is_disabled":false,"rental_uris":{"android":"levelo://app?vid=460cad94-7ea5-46a4-84bd-4b2efd0fadfb","ios":"levelo://app?vid=460cad94-7ea5-46a4-84bd-4b2efd0fadfb"},"vehicle_type_id":"4","last_reported":1742317744,"current_range_meters":3600,"station_id":"ce4bhqp2rcd13ifvqhog","pricing_plan_id":"cebpf4jnsgd1na2vs0mg"},{"bike_id":"22d53f36-fa8a-4781-bae7-1a2e9fd271d4","system_id":"levelo_inurba_marseille","lat":43.30307,"lon":5.39215,"is_reserved":false,"is_disabled":false,"rental_uris":{"android":"levelo://app?vid=22d53f36-fa8a-4781-bae7-1a2e9fd271d4","ios":"levelo://app?vid=22d53f36-fa8a-4781-bae7-1a2e9fd271d4"},"vehicle_type_id":"4","last_reported":1742317744,"current_range_meters":3600,"station_id":"ce4bgkh2rcd13ifvqbk0","pricing_plan_id":"cebpf4jnsgd1na2vs0mg"},{"bike_id":"365c2145-0388-4284-ba2a-3537d7ef9d48","system_id":"levelo_inurba_marseille","lat":43.25101,"lon":5.40322,"is_reserved":false,"is_disabled":false,"rental_uris":{"android":"levelo://app?vid=365c2145-0388-4284-ba2a-3537d7ef9d48","ios":"levelo://app?vid=365c2145-0388-4284-ba2a-3537d7ef9d48"},"vehicle_type_id":"4","last_reported":1742317744,"current_range_meters":3600,"station_id":"ce4bhlh2rcd13ifvqgig","pricing_plan_id":"cebpf4jnsgd1na2vs0mg"},{"bike_id":"f61787cc-cd80-4ded-b68e-b40d3dde1cc6","system_id":"levelo_inurba_marseille","lat":43.295782,"lon":5.366765,"is_reserved":false,"is_disabled":false,"rental_uris":{"android":"levelo://app?vid=f61787cc-cd80-4ded-b68e-b40d3dde1cc6","ios":"levelo://app?vid=f61787cc-cd80-4ded-b68e-b40d3dde1cc6"},"vehicle_type_id":"4","last_reported":1742317744,"current_range_meters":4000,"station_id":"ce4bgn12rcd13ifvqbt0","pricing_plan_id":"cebpf4jnsgd1na2vs0mg"},{"bike_id":"370de47c-45d4-457c-bbb2-ef21c5e81e9f","system_id":"levelo_inurba_marseille","lat":43.27422,"lon":5.39419,"is_reserved":false,"is_disabled":false,"rental_uris":{"android":"levelo://app?vid=370de47c-45d4-457c-bbb2-ef21c5e81e9f","ios":"levelo://app?vid=370de47c-45d4-457c-bbb2-ef21c5e81e9f"},"vehicle_type_id":"4","last_reported":1742317744,"current_range_meters":3600,"station_id":"ce4bhdp2rcd13ifvqf20","pricing_plan_id":"cebpf4jnsgd1na2vs0mg"},{"bike_id":"f3ae76f8-6a80-4192-9f43-fde72504cdf9","system_id":"levelo_inurba_marseille","lat":43.29771,"lon":5.37104,"is_reserved":false,"is_disabled":false,"rental_uris":{"android":"levelo://app?vid=f3ae76f8-6a80-4192-9f43-fde72504cdf9","ios":"levelo://app?vid=f3ae76f8-6a80-4192-9f43-fde72504cdf9"},"vehicle_type_id":"4","last_reported":1742317744,"current_range_meters":4000,"station_id":"ce4bgop2rcd13ifvqc1g","pricing_plan_id":"cebpf4jnsgd1na2vs0mg"},{"bike_id":"624e2f62-a64e-429c-914d-20d5d83adcc7","system_id":"levelo_inurba_marseille","lat":43.29099,"lon":5.37195,"is_reserved":false,"is_disabled":false,"rental_uris":{"android":"levelo://app?vid=624e2f62-a64e-429c-914d-20d5d83adcc7","ios":"levelo://app?vid=624e2f62-a64e-429c-914d-20d5d83adcc7"},"vehicle_type_id":"4","last_reported":1742317744,"current_range_meters":3600,"station_id":"ce4bh5p2rcd13ifvqe4g","pricing_plan_id":"cebpf4jnsgd1na2vs0mg"},{"bike_id":"bba3f1e7-53d2-4b2f-b476-2831b1f605dd","system_id":"levelo_inurba_marseille","lat":43.28845,"lon":5.35855,"is_reserved":false,"is_disabled":false,"rental_uris":{"android":"levelo://app?vid=bba3f1e7-53d2-4b2f-b476-2831b1f605dd","ios":"levelo://app?vid=bba3f1e7-53d2-4b2f-b476-2831b1f605dd"},"vehicle_type_id":"4","last_reported":1742317744,"current_range_meters":4000,"station_id":"ce4bhb12rcd13ifvqem0","pricing_plan_id":"cebpf4jnsgd1na2vs0mg"},{"bike_id":"9846109d-7ed5-4f34-952f-ed14e5146918","system_id":"levelo_inurba_marseille","lat":43.29272,"lon":5.38432,"is_reserved":false,"is_disabled":false,"rental_uris":{"android":"levelo://app?vid=9846109d-7ed5-4f34-952f-ed14e5146918","ios":"levelo://app?vid=9846109d-7ed5-4f34-952f-ed14e5146918"},"vehicle_type_id":"4","last_reported":1742317744,"current_range_meters":4400,"station_id":"ce4bh692rcd13ifvqea0","pricing_plan_id":"cebpf4jnsgd1na2vs0mg"},{"bike_id":"58bbee37-4d3c-49d7-950b-0dab65de1a68","system_id":"levelo_inurba_marseille","lat":43.30555,"lon":5.36531,"is_reserved":false,"is_disabled":false,"rental_uris":{"android":"levelo://app?vid=58bbee37-4d3c-49d7-950b-0dab65de1a68","ios":"levelo://app?vid=58bbee37-4d3c-49d7-950b-0dab65de1a68"},"vehicle_type_id":"4","last_reported":1742317744,"current_range_meters":4400,"station_id":"ce4bgs12rcd13ifvqcag","pricing_plan_id":"cebpf4jnsgd1na2vs0mg"},{"bike_id":"057c4299-c24d-4a02-8ede-b4bf9523726b","system_id":"levelo_inurba_marseille","lat":43.23199,"lon":5.43742,"is_reserved":false,"is_disabled":true,"rental_uris":{"android":"levelo://app?vid=057c4299-c24d-4a02-8ede-b4bf9523726b","ios":"levelo://app?vid=057c4299-c24d-4a02-8ede-b4bf9523726b"},"vehicle_type_id":"4","last_reported":1742317744,"current_range_meters":4800,"station_id":"ce4bhmp2rcd13ifvqgog","pricing_plan_id":"cebpf4jnsgd1na2vs0mg"},{"bike_id":"95538cd0-1a9a-4af4-b94b-6418dfcaa2f8","system_id":"levelo_inurba_marseille","lat":43.28488,"lon":5.38414,"is_reserved":false,"is_disabled":false,"rental_uris":{"android":"levelo://app?vid=95538cd0-1a9a-4af4-b94b-6418dfcaa2f8","ios":"levelo://app?vid=95538cd0-1a9a-4af4-b94b-6418dfcaa2f8"},"vehicle_type_id":"4","last_reported":1742317744,"current_range_meters":4800,"station_id":"ce4bh512rcd13ifvqe3g","pricing_plan_id":"cebpf4jnsgd1na2vs0mg"},{"bike_id":"8009f3a6-1c49-4774-af31-c1f9f2dbc75e","system_id":"levelo_inurba_marseille","lat":43.30857,"lon":5.37315,"is_reserved":false,"is_disabled":false,"rental_uris":{"android":"levelo://app?vid=8009f3a6-1c49-4774-af31-c1f9f2dbc75e","ios":"levelo://app?vid=8009f3a6-1c49-4774-af31-c1f9f2dbc75e"},"vehicle_type_id":"4","last_reported":1742317744,"current_range_meters":4800,"station_id":"","pricing_plan_id":"cebpf4jnsgd1na2vs0mg"},{"bike_id":"1fa896ea-afb3-4791-a9ec-cb89ca78076a","system_id":"levelo_inurba_marseille","lat":43.27972,"lon":5.38744,"is_reserved":false,"is_disabled":false,"rental_uris":{"android":"levelo://app?vid=1fa896ea-afb3-4791-a9ec-cb89ca78076a","ios":"levelo://app?vid=1fa896ea-afb3-4791-a9ec-cb89ca78076a"},"vehicle_type_id":"4","last_reported":1742317744,"current_range_meters":5600,"station_id":"ce4bhg12rcd13ifvqf80","pricing_plan_id":"cebpf4jnsgd1na2vs0mg"},{"bike_id":"22153511-b1c3-436f-a3f2-52433237645e","system_id":"levelo_inurba_marseille","lat":43.26059,"lon":5.39397,"is_reserved":false,"is_disabled":false,"rental_uris":{"android":"levelo://app?vid=22153511-b1c3-436f-a3f2-52433237645e","ios":"levelo://app?vid=22153511-b1c3-436f-a3f2-52433237645e"},"vehicle_type_id":"4","last_reported":1742317744,"current_range_meters":4800,"station_id":"ce4bhh92rcd13ifvqfj0","pricing_plan_id":"cebpf4jnsgd1na2vs0mg"},{"bike_id":"60222d3e-6d9d-4bc3-87d3-864e443534d5","system_id":"levelo_inurba_marseille","lat":43.260686,"lon":5.394006,"is_reserved":false,"is_disabled":false,"rental_uris":{"android":"levelo://app?vid=60222d3e-6d9d-4bc3-87d3-864e443534d5","ios":"levelo://app?vid=60222d3e-6d9d-4bc3-87d3-864e443534d5"},"vehicle_type_id":"4","last_reported":1742317744,"current_range_meters":4800,"station_id":"ce4bhkp2rcd13ifvqgd0","pricing_plan_id":"cebpf4jnsgd1na2vs0mg"},{"bike_id":"b7428697-8b41-4d23-874a-67d0c3d4ad52","system_id":"levelo_inurba_marseille","lat":43.28752,"lon":5.38897,"is_reserved":false,"is_disabled":false,"rental_uris":{"android":"levelo://app?vid=b7428697-8b41-4d23-874a-67d0c3d4ad52","ios":"levelo://app?vid=b7428697-8b41-4d23-874a-67d0c3d4ad52"},"vehicle_type_id":"4","last_reported":1742317744,"current_range_meters":4800,"station_id":"ce4bhh12rcd13ifvqfg0","pricing_plan_id":"cebpf4jnsgd1na2vs0mg"},{"bike_id":"bad1d8df-73f7-4be2-83c4-8a5bc15335b3","system_id":"levelo_inurba_marseille","lat":43.28436,"lon":5.3926,"is_reserved":false,"is_disabled":false,"rental_uris":{"android":"levelo://app?vid=bad1d8df-73f7-4be2-83c4-8a5bc15335b3","ios":"levelo://app?vid=bad1d8df-73f7-4be2-83c4-8a5bc15335b3"},"vehicle_type_id":"4","last_reported":1742317744,"current_range_meters":4800,"station_id":"ce4bhoh2rcd13ifvqh5g","pricing_plan_id":"cebpf4jnsgd1na2vs0mg"},{"bike_id":"42f90e14-c8c9-49c5-9bbc-9b30a4e1a272","system_id":"levelo_inurba_marseille","lat":43.30132,"lon":5.39926,"is_reserved":false,"is_disabled":false,"rental_uris":{"android":"levelo://app?vid=42f90e14-c8c9-49c5-9bbc-9b30a4e1a272","ios":"levelo://app?vid=42f90e14-c8c9-49c5-9bbc-9b30a4e1a272"},"vehicle_type_id":"4","last_reported":1742317744,"current_range_meters":4800,"station_id":"","pricing_plan_id":"cebpf4jnsgd1na2vs0mg"},{"bike_id":"a6b5e5b4-9d7f-48d1-8091-443821ac7fa8","system_id":"levelo_inurba_marseille","lat":43.30153,"lon":5.38089,"is_reserved":false,"is_disabled":false,"rental_uris":{"android":"levelo://app?vid=a6b5e5b4-9d7f-48d1-8091-443821ac7fa8","ios":"levelo://app?vid=a6b5e5b4-9d7f-48d1-8091-443821ac7fa8"},"vehicle_type_id":"4","last_reported":1742317744,"current_range_meters":4800,"station_id":"ce4bgjp2rcd13ifvqbh0","pricing_plan_id":"cebpf4jnsgd1na2vs0mg"},{"bike_id":"fa5f15ab-8994-45e1-84de-31aa4c8b3ced","system_id":"levelo_inurba_marseille","lat":43.23187,"lon":5.35549,"is_reserved":false,"is_disabled":false,"rental_uris":{"android":"levelo://app?vid=fa5f15ab-8994-45e1-84de-31aa4c8b3ced","ios":"levelo://app?vid=fa5f15ab-8994-45e1-84de-31aa4c8b3ced"},"vehicle_type_id":"4","last_reported":1742317744,"current_range_meters":5600,"station_id":"ce4bhu92rcd13ifvqi70","pricing_plan_id":"cebpf4jnsgd1na2vs0mg"},{"bike_id":"acc8cb64-5945-4798-ada0-e4616c75b8b3","system_id":"levelo_inurba_marseille","lat":43.27908,"lon":5.38008,"is_reserved":false,"is_disabled":false,"rental_uris":{"android":"levelo://app?vid=acc8cb64-5945-4798-ada0-e4616c75b8b3","ios":"levelo://app?vid=acc8cb64-5945-4798-ada0-e4616c75b8b3"},"vehicle_type_id":"4","last_reported":1742317744,"current_range_meters":5600,"station_id":"ce4bhf92rcd13ifvqf50","pricing_plan_id":"cebpf4jnsgd1na2vs0mg"},{"bike_id":"454a2388-ab6c-49cb-9b4e-da3a98314bd7","system_id":"levelo_inurba_marseille","lat":43.26788,"lon":5.39418,"is_reserved":false,"is_disabled":false,"rental_uris":{"android":"levelo://app?vid=454a2388-ab6c-49cb-9b4e-da3a98314bd7","ios":"levelo://app?vid=454a2388-ab6c-49cb-9b4e-da3a98314bd7"},"vehicle_type_id":"4","last_reported":1742317744,"current_range_meters":5600,"station_id":"ce4bhh12rcd13ifvqfg0","pricing_plan_id":"cebpf4jnsgd1na2vs0mg"},{"bike_id":"557cb455-f40d-43e7-8696-c7af6b7afb5e","system_id":"levelo_inurba_marseille","lat":43.30307,"lon":5.39215,"is_reserved":false,"is_disabled":false,"rental_uris":{"android":"levelo://app?vid=557cb455-f40d-43e7-8696-c7af6b7afb5e","ios":"levelo://app?vid=557cb455-f40d-43e7-8696-c7af6b7afb5e"},"vehicle_type_id":"4","last_reported":1742317744,"current_range_meters":6000,"station_id":"ce4bgkh2rcd13ifvqbk0","pricing_plan_id":"cebpf4jnsgd1na2vs0mg"},{"bike_id":"7630c449-e775-412b-bdee-ce674296212a","system_id":"levelo_inurba_marseille","lat":43.28,"lon":5.41664,"is_reserved":false,"is_disabled":false,"rental_uris":{"android":"levelo://app?vid=7630c449-e775-412b-bdee-ce674296212a","ios":"levelo://app?vid=7630c449-e775-412b-bdee-ce674296212a"},"vehicle_type_id":"4","last_reported":1742317744,"current_range_meters":5600,"station_id":"ce4bho12rcd13ifvqh1g","pricing_plan_id":"cebpf4jnsgd1na2vs0mg"},{"bike_id":"d4895844-ef23-457c-9bf3-3e7faded201e","system_id":"levelo_inurba_marseille","lat":43.3414,"lon":5.4091,"is_reserved":false,"is_disabled":false,"rental_uris":{"android":"levelo://app?vid=d4895844-ef23-457c-9bf3-3e7faded201e","ios":"levelo://app?vid=d4895844-ef23-457c-9bf3-3e7faded201e"},"vehicle_type_id":"4","last_reported":1742317744,"current_range_meters":6000,"station_id":"ce4bhqh2rcd13ifvqhlg","pricing_plan_id":"cebpf4jnsgd1na2vs0mg"},{"bike_id":"baa2f442-77ed-4160-b65f-6f9204542153","system_id":"levelo_inurba_marseille","lat":43.29613,"lon":5.38108,"is_reserved":false,"is_disabled":false,"rental_uris":{"android":"levelo://app?vid=baa2f442-77ed-4160-b65f-6f9204542153","ios":"levelo://app?vid=baa2f442-77ed-4160-b65f-6f9204542153"},"vehicle_type_id":"4","last_reported":1742317744,"current_range_meters":6400,"station_id":"ce4bgl12rcd13ifvqbo0","pricing_plan_id":"cebpf4jnsgd1na2vs0mg"},{"bike_id":"3db91aa6-845b-4ce3-9a81-55687c0461bc","system_id":"levelo_inurba_marseille","lat":43.25026,"lon":5.38942,"is_reserved":false,"is_disabled":false,"rental_uris":{"android":"levelo://app?vid=3db91aa6-845b-4ce3-9a81-55687c0461bc","ios":"levelo://app?vid=3db91aa6-845b-4ce3-9a81-55687c0461bc"},"vehicle_type_id":"4","last_reported":1742317744,"current_range_meters":6400,"station_id":"ce4bhgp2rcd13ifvqfd0","pricing_plan_id":"cebpf4jnsgd1na2vs0mg"},{"bike_id":"2665cc4b-07ed-4ae6-a66f-2b09983c709d","system_id":"levelo_inurba_marseille","lat":43.33761,"lon":5.37489,"is_reserved":false,"is_disabled":false,"rental_uris":{"android":"levelo://app?vid=2665cc4b-07ed-4ae6-a66f-2b09983c709d","ios":"levelo://app?vid=2665cc4b-07ed-4ae6-a66f-2b09983c709d"},"vehicle_type_id":"4","last_reported":1742317744,"current_range_meters":6400,"station_id":"","pricing_plan_id":"cebpf4jnsgd1na2vs0mg"},{"bike_id":"d2aaccab-2375-4b01-b177-400c90b263c2","system_id":"levelo_inurba_marseille","lat":43.28156,"lon":5.42635,"is_reserved":false,"is_disabled":false,"rental_uris":{"android":"levelo://app?vid=d2aaccab-2375-4b01-b177-400c90b263c2","ios":"levelo://app?vid=d2aaccab-2375-4b01-b177-400c90b263c2"},"vehicle_type_id":"4","last_reported":1742317744,"current_range_meters":6400,"station_id":"ce4bhnh2rcd13ifvqgug","pricing_plan_id":"cebpf4jnsgd1na2vs0mg"},{"bike_id":"1e01d44a-d762-4424-a433-5674339e6db9","system_id":"levelo_inurba_marseille","lat":43.28547,"lon":5.39493,"is_reserved":false,"is_disabled":false,"rental_uris":{"android":"levelo://app?vid=1e01d44a-d762-4424-a433-5674339e6db9","ios":"levelo://app?vid=1e01d44a-d762-4424-a433-5674339e6db9"},"vehicle_type_id":"4","last_reported":1742317744,"current_range_meters":1600,"station_id":"ce4bh292rcd13ifvqdg0","pricing_plan_id":"cebpf4jnsgd1na2vs0mg"},{"bike_id":"55c83ebf-913d-48a1-abee-3e29e6909fd2","system_id":"levelo_inurba_marseille","lat":43.27992,"lon":5.4166,"is_reserved":false,"is_disabled":true,"rental_uris":{"android":"levelo://app?vid=55c83ebf-913d-48a1-abee-3e29e6909fd2","ios":"levelo://app?vid=55c83ebf-913d-48a1-abee-3e29e6909fd2"},"vehicle_type_id":"4","last_reported":1742317744,"current_range_meters":6400,"station_id":"ce4bho12rcd13ifvqh1g","pricing_plan_id":"cebpf4jnsgd1na2vs0mg"},{"bike_id":"b1b41327-66f3-4983-ac80-93a6af2a034d","system_id":"levelo_inurba_marseille","lat":43.23065,"lon":5.35514,"is_reserved":false,"is_disabled":false,"rental_uris":{"android":"levelo://app?vid=b1b41327-66f3-4983-ac80-93a6af2a034d","ios":"levelo://app?vid=b1b41327-66f3-4983-ac80-93a6af2a034d"},"vehicle_type_id":"4","last_reported":1742317744,"current_range_meters":6800,"station_id":"cpo3342slgdg3j2ifvpg","pricing_plan_id":"cebpf4jnsgd1na2vs0mg"},{"bike_id":"6d8e8090-a4c7-4966-a3f4-a833922b9e5a","system_id":"levelo_inurba_marseille","lat":43.23202,"lon":5.35547,"is_reserved":false,"is_disabled":false,"rental_uris":{"android":"levelo://app?vid=6d8e8090-a4c7-4966-a3f4-a833922b9e5a","ios":"levelo://app?vid=6d8e8090-a4c7-4966-a3f4-a833922b9e5a"},"vehicle_type_id":"4","last_reported":1742317744,"current_range_meters":6800,"station_id":"ce4bhu92rcd13ifvqi70","pricing_plan_id":"cebpf4jnsgd1na2vs0mg"},{"bike_id":"7c77b91c-086d-423e-a21c-2c6c6d3ccebb","system_id":"levelo_inurba_marseille","lat":43.29303,"lon":5.37448,"is_reserved":false,"is_disabled":false,"rental_uris":{"android":"levelo://app?vid=7c77b91c-086d-423e-a21c-2c6c6d3ccebb","ios":"levelo://app?vid=7c77b91c-086d-423e-a21c-2c6c6d3ccebb"},"vehicle_type_id":"4","last_reported":1742317744,"current_range_meters":6800,"station_id":"ce4bgi12rcd13ifvqb70","pricing_plan_id":"cebpf4jnsgd1na2vs0mg"},{"bike_id":"0d3accb9-853e-4df0-b9d8-4607b8048f46","system_id":"levelo_inurba_marseille","lat":43.241694,"lon":5.363946,"is_reserved":false,"is_disabled":false,"rental_uris":{"android":"levelo://app?vid=0d3accb9-853e-4df0-b9d8-4607b8048f46","ios":"levelo://app?vid=0d3accb9-853e-4df0-b9d8-4607b8048f46"},"vehicle_type_id":"4","last_reported":1742317744,"current_range_meters":6800,"station_id":"cpo36qri1sfpv3e86is0","pricing_plan_id":"cebpf4jnsgd1na2vs0mg"},{"bike_id":"bf53558a-323c-40e3-9c37-ac64ba388e1c","system_id":"levelo_inurba_marseille","lat":43.23962,"lon":5.36645,"is_reserved":false,"is_disabled":false,"rental_uris":{"android":"levelo://app?vid=bf53558a-323c-40e3-9c37-ac64ba388e1c","ios":"levelo://app?vid=bf53558a-323c-40e3-9c37-ac64ba388e1c"},"vehicle_type_id":"4","last_reported":1742317744,"current_range_meters":6800,"station_id":"ce4bhi12rcd13ifvqfp0","pricing_plan_id":"cebpf4jnsgd1na2vs0mg"},{"bike_id":"b04bc3df-fe5a-4b5c-9d29-7e6cc66b2690","system_id":"levelo_inurba_marseille","lat":43.29872,"lon":5.3972,"is_reserved":false,"is_disabled":false,"rental_uris":{"android":"levelo://app?vid=b04bc3df-fe5a-4b5c-9d29-7e6cc66b2690","ios":"levelo://app?vid=b04bc3df-fe5a-4b5c-9d29-7e6cc66b2690"},"vehicle_type_id":"4","last_reported":1742317744,"current_range_meters":7200,"station_id":"ce4bh0h2rcd13ifvqd50","pricing_plan_id":"cebpf4jnsgd1na2vs0mg"},{"bike_id":"9334d5f0-0b87-4de8-bc6c-542f202bbf2e","system_id":"levelo_inurba_marseille","lat":43.29787,"lon":5.371,"is_reserved":false,"is_disabled":false,"rental_uris":{"android":"levelo://app?vid=9334d5f0-0b87-4de8-bc6c-542f202bbf2e","ios":"levelo://app?vid=9334d5f0-0b87-4de8-bc6c-542f202bbf2e"},"vehicle_type_id":"4","last_reported":1742317744,"current_range_meters":7200,"station_id":"ce4bgop2rcd13ifvqc1g","pricing_plan_id":"cebpf4jnsgd1na2vs0mg"},{"bike_id":"0414c92c-7144-48ed-abc0-69cdccd9ea5d","system_id":"levelo_inurba_marseille","lat":43.24193,"lon":5.3973,"is_reserved":false,"is_disabled":false,"rental_uris":{"android":"levelo://app?vid=0414c92c-7144-48ed-abc0-69cdccd9ea5d","ios":"levelo://app?vid=0414c92c-7144-48ed-abc0-69cdccd9ea5d"},"vehicle_type_id":"4","last_reported":1742317744,"current_range_meters":7200,"station_id":"ce4bhn12rcd13ifvqgpg","pricing_plan_id":"cebpf4jnsgd1na2vs0mg"},{"bike_id":"35cb1776-fa23-4e2a-8e48-57ce60999c69","system_id":"levelo_inurba_marseille","lat":43.33028,"lon":5.39056,"is_reserved":false,"is_disabled":false,"rental_uris":{"android":"levelo://app?vid=35cb1776-fa23-4e2a-8e48-57ce60999c69","ios":"levelo://app?vid=35cb1776-fa23-4e2a-8e48-57ce60999c69"},"vehicle_type_id":"4","last_reported":1742317744,"current_range_meters":7200,"station_id":"ce4bhr92rcd13ifvqhrg","pricing_plan_id":"cebpf4jnsgd1na2vs0mg"},{"bike_id":"35695dd4-791c-4486-b261-10bd7a9e52e9","system_id":"levelo_inurba_marseille","lat":43.26247,"lon":5.4047,"is_reserved":false,"is_disabled":true,"rental_uris":{"android":"levelo://app?vid=35695dd4-791c-4486-b261-10bd7a9e52e9","ios":"levelo://app?vid=35695dd4-791c-4486-b261-10bd7a9e52e9"},"vehicle_type_id":"4","last_reported":1742317744,"current_range_meters":7200,"station_id":"ce4bhmh2rcd13ifvqgmg","pricing_plan_id":"cebpf4jnsgd1na2vs0mg"},{"bike_id":"a3fec295-68aa-470d-940b-bfa62c541ae0","system_id":"levelo_inurba_marseille","lat":43.26577,"lon":5.39032,"is_reserved":false,"is_disabled":false,"rental_uris":{"android":"levelo://app?vid=a3fec295-68aa-470d-940b-bfa62c541ae0","ios":"levelo://app?vid=a3fec295-68aa-470d-940b-bfa62c541ae0"},"vehicle_type_id":"4","last_reported":1742317744,"current_range_meters":7200,"station_id":"ce4bhe12rcd13ifvqf30","pricing_plan_id":"cebpf4jnsgd1na2vs0mg"},{"bike_id":"8a4e1b2e-8fac-480b-a668-ef6a620a9814","system_id":"levelo_inurba_marseille","lat":43.27875,"lon":5.42421,"is_reserved":false,"is_disabled":false,"rental_uris":{"android":"levelo://app?vid=8a4e1b2e-8fac-480b-a668-ef6a620a9814","ios":"levelo://app?vid=8a4e1b2e-8fac-480b-a668-ef6a620a9814"},"vehicle_type_id":"4","last_reported":1742317744,"current_range_meters":7200,"station_id":"","pricing_plan_id":"cebpf4jnsgd1na2vs0mg"},{"bike_id":"8fe7e33b-57fc-439c-ba02-015988635c80","system_id":"levelo_inurba_marseille","lat":43.27065,"lon":5.42282,"is_reserved":false,"is_disabled":true,"rental_uris":{"android":"levelo://app?vid=8fe7e33b-57fc-439c-ba02-015988635c80","ios":"levelo://app?vid=8fe7e33b-57fc-439c-ba02-015988635c80"},"vehicle_type_id":"4","last_reported":1742317744,"current_range_meters":7200,"station_id":"ce4bhk92rcd13ifvqgb0","pricing_plan_id":"cebpf4jnsgd1na2vs0mg"},{"bike_id":"e94b1f20-3e0e-4dcb-9056-1e4af333e85a","system_id":"levelo_inurba_marseille","lat":43.29174,"lon":5.39308,"is_reserved":false,"is_disabled":true,"rental_uris":{"android":"levelo://app?vid=e94b1f20-3e0e-4dcb-9056-1e4af333e85a","ios":"levelo://app?vid=e94b1f20-3e0e-4dcb-9056-1e4af333e85a"},"vehicle_type_id":"4","last_reported":1742317744,"current_range_meters":7200,"station_id":"ce4bh192rcd13ifvqdd0","pricing_plan_id":"cebpf4jnsgd1na2vs0mg"},{"bike_id":"02677437-5c51-4db2-a129-df8f38f5f618","system_id":"levelo_inurba_marseille","lat":43.29523,"lon":5.38548,"is_reserved":false,"is_disabled":false,"rental_uris":{"android":"levelo://app?vid=02677437-5c51-4db2-a129-df8f38f5f618","ios":"levelo://app?vid=02677437-5c51-4db2-a129-df8f38f5f618"},"vehicle_type_id":"4","last_reported":1742317744,"current_range_meters":7200,"station_id":"ce4bgih2rcd13ifvqba0","pricing_plan_id":"cebpf4jnsgd1na2vs0mg"},{"bike_id":"0528e54f-24f4-4d7d-a0bc-ef2bf93f4bf9","system_id":"levelo_inurba_marseille","lat":43.27833,"lon":5.39215,"is_reserved":false,"is_disabled":false,"rental_uris":{"android":"levelo://app?vid=0528e54f-24f4-4d7d-a0bc-ef2bf93f4bf9","ios":"levelo://app?vid=0528e54f-24f4-4d7d-a0bc-ef2bf93f4bf9"},"vehicle_type_id":"4","last_reported":1742317744,"current_range_meters":7200,"station_id":"ce4bhjp2rcd13ifvqga0","pricing_plan_id":"cebpf4jnsgd1na2vs0mg"},{"bike_id":"5b27da58-9a0f-42dd-a3fc-c404568e4634","system_id":"levelo_inurba_marseille","lat":43.2815,"lon":5.42641,"is_reserved":false,"is_disabled":false,"rental_uris":{"android":"levelo://app?vid=5b27da58-9a0f-42dd-a3fc-c404568e4634","ios":"levelo://app?vid=5b27da58-9a0f-42dd-a3fc-c404568e4634"},"vehicle_type_id":"4","last_reported":1742317744,"current_range_meters":7200,"station_id":"ce4bhnh2rcd13ifvqgug","pricing_plan_id":"cebpf4jnsgd1na2vs0mg"},{"bike_id":"6368f354-6da7-4884-a394-062f1a963ed6","system_id":"levelo_inurba_marseille","lat":43.29288,"lon":5.42792,"is_reserved":false,"is_disabled":false,"rental_uris":{"android":"levelo://app?vid=6368f354-6da7-4884-a394-062f1a963ed6","ios":"levelo://app?vid=6368f354-6da7-4884-a394-062f1a963ed6"},"vehicle_type_id":"4","last_reported":1742317744,"current_range_meters":7200,"station_id":"","pricing_plan_id":"cebpf4jnsgd1na2vs0mg"},{"bike_id":"75259fb5-57c5-4f37-addb-f2d92f9fba78","system_id":"levelo_inurba_marseille","lat":43.2802,"lon":5.36946,"is_reserved":false,"is_disabled":false,"rental_uris":{"android":"levelo://app?vid=75259fb5-57c5-4f37-addb-f2d92f9fba78","ios":"levelo://app?vid=75259fb5-57c5-4f37-addb-f2d92f9fba78"},"vehicle_type_id":"4","last_reported":1742317744,"current_range_meters":8000,"station_id":"ce4bha12rcd13ifvqef0","pricing_plan_id":"cebpf4jnsgd1na2vs0mg"},{"bike_id":"97a1e633-c2b3-487e-8569-9036bf18d175","system_id":"levelo_inurba_marseille","lat":43.24174,"lon":5.36416,"is_reserved":false,"is_disabled":false,"rental_uris":{"android":"levelo://app?vid=97a1e633-c2b3-487e-8569-9036bf18d175","ios":"levelo://app?vid=97a1e633-c2b3-487e-8569-9036bf18d175"},"vehicle_type_id":"4","last_reported":1742317744,"current_range_meters":8000,"station_id":"cpo36qri1sfpv3e86is0","pricing_plan_id":"cebpf4jnsgd1na2vs0mg"},{"bike_id":"52bd4f14-775f-459f-9791-851d088e69cb","system_id":"levelo_inurba_marseille","lat":43.24997,"lon":5.38934,"is_reserved":false,"is_disabled":false,"rental_uris":{"android":"levelo://app?vid=52bd4f14-775f-459f-9791-851d088e69cb","ios":"levelo://app?vid=52bd4f14-775f-459f-9791-851d088e69cb"},"vehicle_type_id":"4","last_reported":1742317744,"current_range_meters":8000,"station_id":"ce4bhgp2rcd13ifvqfd0","pricing_plan_id":"cebpf4jnsgd1na2vs0mg"},{"bike_id":"5ef16bdb-aff7-4fc7-96d0-e2852a1e3cf3","system_id":"levelo_inurba_marseille","lat":43.26558,"lon":5.37291,"is_reserved":false,"is_disabled":false,"rental_uris":{"android":"levelo://app?vid=5ef16bdb-aff7-4fc7-96d0-e2852a1e3cf3","ios":"levelo://app?vid=5ef16bdb-aff7-4fc7-96d0-e2852a1e3cf3"},"vehicle_type_id":"4","last_reported":1742317744,"current_range_meters":8000,"station_id":"ce4bhg12rcd13ifvqf70","pricing_plan_id":"cebpf4jnsgd1na2vs0mg"},{"bike_id":"10b17d45-81b5-40a2-938b-cc817dd1eaf7","system_id":"levelo_inurba_marseille","lat":43.25008,"lon":5.38916,"is_reserved":false,"is_disabled":true,"rental_uris":{"android":"levelo://app?vid=10b17d45-81b5-40a2-938b-cc817dd1eaf7","ios":"levelo://app?vid=10b17d45-81b5-40a2-938b-cc817dd1eaf7"},"vehicle_type_id":"4","last_reported":1742317744,"current_range_meters":8000,"station_id":"ce4bhgp2rcd13ifvqfd0","pricing_plan_id":"cebpf4jnsgd1na2vs0mg"},{"bike_id":"5367c4d3-3768-47c5-993c-8465df0f38c1","system_id":"levelo_inurba_marseille","lat":43.28002,"lon":5.41664,"is_reserved":false,"is_disabled":false,"rental_uris":{"android":"levelo://app?vid=5367c4d3-3768-47c5-993c-8465df0f38c1","ios":"levelo://app?vid=5367c4d3-3768-47c5-993c-8465df0f38c1"},"vehicle_type_id":"4","last_reported":1742317744,"current_range_meters":8000,"station_id":"ce4bho12rcd13ifvqh1g","pricing_plan_id":"cebpf4jnsgd1na2vs0mg"},{"bike_id":"38233fcc-45aa-475d-b774-1f1525a8fb6d","system_id":"levelo_inurba_marseille","lat":43.26058,"lon":5.39402,"is_reserved":false,"is_disabled":false,"rental_uris":{"android":"levelo://app?vid=38233fcc-45aa-475d-b774-1f1525a8fb6d","ios":"levelo://app?vid=38233fcc-45aa-475d-b774-1f1525a8fb6d"},"vehicle_type_id":"4","last_reported":1742317744,"current_range_meters":8000,"station_id":"ce4bhh92rcd13ifvqfj0","pricing_plan_id":"cebpf4jnsgd1na2vs0mg"},{"bike_id":"f35aa0b2-1d09-46d4-a433-fc6a72cbdd93","system_id":"levelo_inurba_marseille","lat":43.30155,"lon":5.38087,"is_reserved":false,"is_disabled":false,"rental_uris":{"android":"levelo://app?vid=f35aa0b2-1d09-46d4-a433-fc6a72cbdd93","ios":"levelo://app?vid=f35aa0b2-1d09-46d4-a433-fc6a72cbdd93"},"vehicle_type_id":"4","last_reported":1742317744,"current_range_meters":8400,"station_id":"ce4bgjp2rcd13ifvqbh0","pricing_plan_id":"cebpf4jnsgd1na2vs0mg"},{"bike_id":"9c231993-1adf-4ea4-8231-4ef3a4c422e0","system_id":"levelo_inurba_marseille","lat":43.26551,"lon":5.37294,"is_reserved":false,"is_disabled":false,"rental_uris":{"android":"levelo://app?vid=9c231993-1adf-4ea4-8231-4ef3a4c422e0","ios":"levelo://app?vid=9c231993-1adf-4ea4-8231-4ef3a4c422e0"},"vehicle_type_id":"4","last_reported":1742317744,"current_range_meters":8400,"station_id":"ce4bhg12rcd13ifvqf70","pricing_plan_id":"cebpf4jnsgd1na2vs0mg"},{"bike_id":"c1ef1a89-bbc6-4999-9e32-1ddffd418121","system_id":"levelo_inurba_marseille","lat":43.290355,"lon":5.35911,"is_reserved":false,"is_disabled":false,"rental_uris":{"android":"levelo://app?vid=c1ef1a89-bbc6-4999-9e32-1ddffd418121","ios":"levelo://app?vid=c1ef1a89-bbc6-4999-9e32-1ddffd418121"},"vehicle_type_id":"4","last_reported":1742317744,"current_range_meters":8400,"station_id":"ce4bha92rcd13ifvqeg0","pricing_plan_id":"cebpf4jnsgd1na2vs0mg"},{"bike_id":"e0aae63a-e9c7-4800-b4b0-4202f2eccb40","system_id":"levelo_inurba_marseille","lat":43.30313,"lon":5.39211,"is_reserved":false,"is_disabled":false,"rental_uris":{"android":"levelo://app?vid=e0aae63a-e9c7-4800-b4b0-4202f2eccb40","ios":"levelo://app?vid=e0aae63a-e9c7-4800-b4b0-4202f2eccb40"},"vehicle_type_id":"4","last_reported":1742317744,"current_range_meters":8400,"station_id":"ce4bgkh2rcd13ifvqbk0","pricing_plan_id":"cebpf4jnsgd1na2vs0mg"},{"bike_id":"a31c77d8-4378-47d6-8c3a-a5063f16fc9d","system_id":"levelo_inurba_marseille","lat":43.27813,"lon":5.40734,"is_reserved":false,"is_disabled":false,"rental_uris":{"android":"levelo://app?vid=a31c77d8-4378-47d6-8c3a-a5063f16fc9d","ios":"levelo://app?vid=a31c77d8-4378-47d6-8c3a-a5063f16fc9d"},"vehicle_type_id":"4","last_reported":1742317744,"current_range_meters":8400,"station_id":"ce4bhnh2rcd13ifvqgtg","pricing_plan_id":"cebpf4jnsgd1na2vs0mg"},{"bike_id":"1c97a599-f382-487e-ab30-7bff6cb01ecd","system_id":"levelo_inurba_marseille","lat":43.29007,"lon":5.35613,"is_reserved":false,"is_disabled":false,"rental_uris":{"android":"levelo://app?vid=1c97a599-f382-487e-ab30-7bff6cb01ecd","ios":"levelo://app?vid=1c97a599-f382-487e-ab30-7bff6cb01ecd"},"vehicle_type_id":"4","last_reported":1742317744,"current_range_meters":8400,"station_id":"ce4bhb92rcd13ifvqen0","pricing_plan_id":"cebpf4jnsgd1na2vs0mg"},{"bike_id":"58b4643a-3850-45ee-b408-25aee485e073","system_id":"levelo_inurba_marseille","lat":43.25123,"lon":5.40337,"is_reserved":false,"is_disabled":false,"rental_uris":{"android":"levelo://app?vid=58b4643a-3850-45ee-b408-25aee485e073","ios":"levelo://app?vid=58b4643a-3850-45ee-b408-25aee485e073"},"vehicle_type_id":"4","last_reported":1742317744,"current_range_meters":8800,"station_id":"ce4bhlh2rcd13ifvqgig","pricing_plan_id":"cebpf4jnsgd1na2vs0mg"},{"bike_id":"1f4d04b1-8f45-4926-aad8-072dc7b7d942","system_id":"levelo_inurba_marseille","lat":43.28036,"lon":5.36944,"is_reserved":false,"is_disabled":false,"rental_uris":{"android":"levelo://app?vid=1f4d04b1-8f45-4926-aad8-072dc7b7d942","ios":"levelo://app?vid=1f4d04b1-8f45-4926-aad8-072dc7b7d942"},"vehicle_type_id":"4","last_reported":1742317744,"current_range_meters":8800,"station_id":"ce4bha12rcd13ifvqef0","pricing_plan_id":"cebpf4jnsgd1na2vs0mg"},{"bike_id":"41f1c508-3979-4300-851e-cbf91992f036","system_id":"levelo_inurba_marseille","lat":43.25496,"lon":5.37649,"is_reserved":false,"is_disabled":false,"rental_uris":{"android":"levelo://app?vid=41f1c508-3979-4300-851e-cbf91992f036","ios":"levelo://app?vid=41f1c508-3979-4300-851e-cbf91992f036"},"vehicle_type_id":"4","last_reported":1742317744,"current_range_meters":8400,"station_id":"ce4bhh12rcd13ifvqff0","pricing_plan_id":"cebpf4jnsgd1na2vs0mg"},{"bike_id":"3cb99481-b8e0-4aa0-b449-ceee2f91c4ea","system_id":"levelo_inurba_marseille","lat":43.29587,"lon":5.3674,"is_reserved":false,"is_disabled":false,"rental_uris":{"android":"levelo://app?vid=3cb99481-b8e0-4aa0-b449-ceee2f91c4ea","ios":"levelo://app?vid=3cb99481-b8e0-4aa0-b449-ceee2f91c4ea"},"vehicle_type_id":"4","last_reported":1742317744,"current_range_meters":8800,"station_id":"ce4bgph2rcd13ifvqc2g","pricing_plan_id":"cebpf4jnsgd1na2vs0mg"},{"bike_id":"2e1c9b27-bb46-4223-94a6-6d251aad7971","system_id":"levelo_inurba_marseille","lat":43.27903,"lon":5.38013,"is_reserved":false,"is_disabled":false,"rental_uris":{"android":"levelo://app?vid=2e1c9b27-bb46-4223-94a6-6d251aad7971","ios":"levelo://app?vid=2e1c9b27-bb46-4223-94a6-6d251aad7971"},"vehicle_type_id":"4","last_reported":1742317744,"current_range_meters":8800,"station_id":"ce4bhf92rcd13ifvqf50","pricing_plan_id":"cebpf4jnsgd1na2vs0mg"},{"bike_id":"dc4b0144-c32d-4e15-a0df-e6c10cdc8422","system_id":"levelo_inurba_marseille","lat":43.2902,"lon":5.38148,"is_reserved":false,"is_disabled":false,"rental_uris":{"android":"levelo://app?vid=dc4b0144-c32d-4e15-a0df-e6c10cdc8422","ios":"levelo://app?vid=dc4b0144-c32d-4e15-a0df-e6c10cdc8422"},"vehicle_type_id":"4","last_reported":1742317744,"current_range_meters":8800,"station_id":"ce4bh4p2rcd13ifvqe1g","pricing_plan_id":"cebpf4jnsgd1na2vs0mg"},{"bike_id":"8f430995-95cb-4daf-8eba-e85091920f16","system_id":"levelo_inurba_marseille","lat":43.27897,"lon":5.38296,"is_reserved":false,"is_disabled":false,"rental_uris":{"android":"levelo://app?vid=8f430995-95cb-4daf-8eba-e85091920f16","ios":"levelo://app?vid=8f430995-95cb-4daf-8eba-e85091920f16"},"vehicle_type_id":"4","last_reported":1742317744,"current_range_meters":8800,"station_id":"ce4bhoh2rcd13ifvqh5g","pricing_plan_id":"cebpf4jnsgd1na2vs0mg"},{"bike_id":"0b60e72b-d8b1-4266-9b63-b94b87c1ad4b","system_id":"levelo_inurba_marseille","lat":43.23205,"lon":5.39982,"is_reserved":false,"is_disabled":false,"rental_uris":{"android":"levelo://app?vid=0b60e72b-d8b1-4266-9b63-b94b87c1ad4b","ios":"levelo://app?vid=0b60e72b-d8b1-4266-9b63-b94b87c1ad4b"},"vehicle_type_id":"4","last_reported":1742317744,"current_range_meters":9200,"station_id":"ce4bhn12rcd13ifvqgqg","pricing_plan_id":"cebpf4jnsgd1na2vs0mg"},{"bike_id":"d4c1c4b0-3739-4e44-95dc-a25732776bb0","system_id":"levelo_inurba_marseille","lat":43.23966,"lon":5.36634,"is_reserved":false,"is_disabled":false,"rental_uris":{"android":"levelo://app?vid=d4c1c4b0-3739-4e44-95dc-a25732776bb0","ios":"levelo://app?vid=d4c1c4b0-3739-4e44-95dc-a25732776bb0"},"vehicle_type_id":"4","last_reported":1742317744,"current_range_meters":9200,"station_id":"ce4bhi12rcd13ifvqfp0","pricing_plan_id":"cebpf4jnsgd1na2vs0mg"},{"bike_id":"ef9a065f-2f5f-43de-b8fe-e1330e70cd47","system_id":"levelo_inurba_marseille","lat":43.30084,"lon":5.3906,"is_reserved":false,"is_disabled":false,"rental_uris":{"android":"levelo://app?vid=ef9a065f-2f5f-43de-b8fe-e1330e70cd47","ios":"levelo://app?vid=ef9a065f-2f5f-43de-b8fe-e1330e70cd47"},"vehicle_type_id":"4","last_reported":1742317744,"current_range_meters":9200,"station_id":"ce4bh192rcd13ifvqdb0","pricing_plan_id":"cebpf4jnsgd1na2vs0mg"},{"bike_id":"e22545c2-84cf-42ea-81eb-6b2d2c7957d0","system_id":"levelo_inurba_marseille","lat":43.30338,"lon":5.40449,"is_reserved":false,"is_disabled":false,"rental_uris":{"android":"levelo://app?vid=e22545c2-84cf-42ea-81eb-6b2d2c7957d0","ios":"levelo://app?vid=e22545c2-84cf-42ea-81eb-6b2d2c7957d0"},"vehicle_type_id":"4","last_reported":1742317744,"current_range_meters":9200,"station_id":"ce4bh012rcd13ifvqd10","pricing_plan_id":"cebpf4jnsgd1na2vs0mg"},{"bike_id":"adffc0b0-8550-43a2-a64b-d727ff4ea905","system_id":"levelo_inurba_marseille","lat":43.23195,"lon":5.35572,"is_reserved":false,"is_disabled":false,"rental_uris":{"android":"levelo://app?vid=adffc0b0-8550-43a2-a64b-d727ff4ea905","ios":"levelo://app?vid=adffc0b0-8550-43a2-a64b-d727ff4ea905"},"vehicle_type_id":"4","last_reported":1742317744,"current_range_meters":9200,"station_id":"ce4bhu92rcd13ifvqi70","pricing_plan_id":"cebpf4jnsgd1na2vs0mg"},{"bike_id":"4d734232-7cf9-46b1-93c3-5be835eea71a","system_id":"levelo_inurba_marseille","lat":43.27812,"lon":5.40714,"is_reserved":false,"is_disabled":false,"rental_uris":{"android":"levelo://app?vid=4d734232-7cf9-46b1-93c3-5be835eea71a","ios":"levelo://app?vid=4d734232-7cf9-46b1-93c3-5be835eea71a"},"vehicle_type_id":"4","last_reported":1742317744,"current_range_meters":8800,"station_id":"ce4bhnh2rcd13ifvqgtg","pricing_plan_id":"cebpf4jnsgd1na2vs0mg"},{"bike_id":"d0ecd06f-b344-485c-8550-9fa5bf448f53","system_id":"levelo_inurba_marseille","lat":43.25827,"lon":5.3944,"is_reserved":false,"is_disabled":false,"rental_uris":{"android":"levelo://app?vid=d0ecd06f-b344-485c-8550-9fa5bf448f53","ios":"levelo://app?vid=d0ecd06f-b344-485c-8550-9fa5bf448f53"},"vehicle_type_id":"4","last_reported":1742317744,"current_range_meters":9200,"station_id":"ce4bhip2rcd13ifvqft0","pricing_plan_id":"cebpf4jnsgd1na2vs0mg"},{"bike_id":"01ec6899-9e70-425a-a91b-c49e5fc36660","system_id":"levelo_inurba_marseille","lat":43.24811,"lon":5.3746,"is_reserved":false,"is_disabled":false,"rental_uris":{"android":"levelo://app?vid=01ec6899-9e70-425a-a91b-c49e5fc36660","ios":"levelo://app?vid=01ec6899-9e70-425a-a91b-c49e5fc36660"},"vehicle_type_id":"4","last_reported":1742317744,"current_range_meters":9200,"station_id":"ce4bhgh2rcd13ifvqfb0","pricing_plan_id":"cebpf4jnsgd1na2vs0mg"},{"bike_id":"049b5602-ba3f-4a09-ad40-b8c54e6f1cb6","system_id":"levelo_inurba_marseille","lat":43.25005,"lon":5.38915,"is_reserved":false,"is_disabled":true,"rental_uris":{"android":"levelo://app?vid=049b5602-ba3f-4a09-ad40-b8c54e6f1cb6","ios":"levelo://app?vid=049b5602-ba3f-4a09-ad40-b8c54e6f1cb6"},"vehicle_type_id":"4","last_reported":1742317744,"current_range_meters":9200,"station_id":"ce4bhgp2rcd13ifvqfd0","pricing_plan_id":"cebpf4jnsgd1na2vs0mg"},{"bike_id":"15645d94-7469-4019-9aed-16b0915fbe2f","system_id":"levelo_inurba_marseille","lat":43.32823,"lon":5.39149,"is_reserved":false,"is_disabled":false,"rental_uris":{"android":"levelo://app?vid=15645d94-7469-4019-9aed-16b0915fbe2f","ios":"levelo://app?vid=15645d94-7469-4019-9aed-16b0915fbe2f"},"vehicle_type_id":"4","last_reported":1742317744,"current_range_meters":9200,"station_id":"","pricing_plan_id":"cebpf4jnsgd1na2vs0mg"},{"bike_id":"7cedafd4-7267-4ead-a541-0e70c90314fc","system_id":"levelo_inurba_marseille","lat":43.3149,"lon":5.37314,"is_reserved":false,"is_disabled":false,"rental_uris":{"android":"levelo://app?vid=7cedafd4-7267-4ead-a541-0e70c90314fc","ios":"levelo://app?vid=7cedafd4-7267-4ead-a541-0e70c90314fc"},"vehicle_type_id":"4","last_reported":1742317744,"current_range_meters":9200,"station_id":"ce4bgt12rcd13ifvqcd0","pricing_plan_id":"cebpf4jnsgd1na2vs0mg"},{"bike_id":"2fc9495d-c829-4229-a4db-5c8674880d7a","system_id":"levelo_inurba_marseille","lat":43.23059,"lon":5.35498,"is_reserved":false,"is_disabled":false,"rental_uris":{"android":"levelo://app?vid=2fc9495d-c829-4229-a4db-5c8674880d7a","ios":"levelo://app?vid=2fc9495d-c829-4229-a4db-5c8674880d7a"},"vehicle_type_id":"4","last_reported":1742317744,"current_range_meters":9200,"station_id":"cpo3342slgdg3j2ifvpg","pricing_plan_id":"cebpf4jnsgd1na2vs0mg"},{"bike_id":"244972ac-6b8e-496c-8ff7-a07dcecb25e0","system_id":"levelo_inurba_marseille","lat":43.28083,"lon":5.39644,"is_reserved":false,"is_disabled":false,"rental_uris":{"android":"levelo://app?vid=244972ac-6b8e-496c-8ff7-a07dcecb25e0","ios":"levelo://app?vid=244972ac-6b8e-496c-8ff7-a07dcecb25e0"},"vehicle_type_id":"4","last_reported":1742317744,"current_range_meters":9200,"station_id":"ce4bho12rcd13ifvqh2g","pricing_plan_id":"cebpf4jnsgd1na2vs0mg"},{"bike_id":"6ae6f76c-6a01-4d75-9d3f-dfa610803a78","system_id":"levelo_inurba_marseille","lat":43.23064,"lon":5.35493,"is_reserved":false,"is_disabled":false,"rental_uris":{"android":"levelo://app?vid=6ae6f76c-6a01-4d75-9d3f-dfa610803a78","ios":"levelo://app?vid=6ae6f76c-6a01-4d75-9d3f-dfa610803a78"},"vehicle_type_id":"4","last_reported":1742317744,"current_range_meters":9600,"station_id":"cpo3342slgdg3j2ifvpg","pricing_plan_id":"cebpf4jnsgd1na2vs0mg"},{"bike_id":"519efbbc-7577-4063-8eac-658ef30e98a3","system_id":"levelo_inurba_marseille","lat":43.2499,"lon":5.38941,"is_reserved":false,"is_disabled":false,"rental_uris":{"android":"levelo://app?vid=519efbbc-7577-4063-8eac-658ef30e98a3","ios":"levelo://app?vid=519efbbc-7577-4063-8eac-658ef30e98a3"},"vehicle_type_id":"4","last_reported":1742317744,"current_range_meters":9600,"station_id":"ce4bhgp2rcd13ifvqfd0","pricing_plan_id":"cebpf4jnsgd1na2vs0mg"},{"bike_id":"b611c071-f0bb-41a2-aa25-420b921bc079","system_id":"levelo_inurba_marseille","lat":43.23088,"lon":5.35517,"is_reserved":false,"is_disabled":false,"rental_uris":{"android":"levelo://app?vid=b611c071-f0bb-41a2-aa25-420b921bc079","ios":"levelo://app?vid=b611c071-f0bb-41a2-aa25-420b921bc079"},"vehicle_type_id":"4","last_reported":1742317744,"current_range_meters":9600,"station_id":"cpo3342slgdg3j2ifvpg","pricing_plan_id":"cebpf4jnsgd1na2vs0mg"},{"bike_id":"5481968a-3599-45fd-becd-1875e396b90e","system_id":"levelo_inurba_marseille","lat":43.26212,"lon":5.37444,"is_reserved":false,"is_disabled":false,"rental_uris":{"android":"levelo://app?vid=5481968a-3599-45fd-becd-1875e396b90e","ios":"levelo://app?vid=5481968a-3599-45fd-becd-1875e396b90e"},"vehicle_type_id":"4","last_reported":1742317744,"current_range_meters":9600,"station_id":"ce4bhgp2rcd13ifvqfc0","pricing_plan_id":"cebpf4jnsgd1na2vs0mg"},{"bike_id":"b4b31a50-6872-4e26-8c4a-ff0c6b44ac79","system_id":"levelo_inurba_marseille","lat":43.2886,"lon":5.3588,"is_reserved":false,"is_disabled":false,"rental_uris":{"android":"levelo://app?vid=b4b31a50-6872-4e26-8c4a-ff0c6b44ac79","ios":"levelo://app?vid=b4b31a50-6872-4e26-8c4a-ff0c6b44ac79"},"vehicle_type_id":"4","last_reported":1742317744,"current_range_meters":9200,"station_id":"ce4bhb12rcd13ifvqem0","pricing_plan_id":"cebpf4jnsgd1na2vs0mg"},{"bike_id":"32b820b4-bfea-4619-8af3-b6f8f3ed6e0e","system_id":"levelo_inurba_marseille","lat":43.2318,"lon":5.39986,"is_reserved":false,"is_disabled":false,"rental_uris":{"android":"levelo://app?vid=32b820b4-bfea-4619-8af3-b6f8f3ed6e0e","ios":"levelo://app?vid=32b820b4-bfea-4619-8af3-b6f8f3ed6e0e"},"vehicle_type_id":"4","last_reported":1742317744,"current_range_meters":9600,"station_id":"ce4bhn12rcd13ifvqgqg","pricing_plan_id":"cebpf4jnsgd1na2vs0mg"},{"bike_id":"c994a2b5-7328-48a9-9188-c2b99051f0e6","system_id":"levelo_inurba_marseille","lat":43.27429,"lon":5.39425,"is_reserved":false,"is_disabled":false,"rental_uris":{"android":"levelo://app?vid=c994a2b5-7328-48a9-9188-c2b99051f0e6","ios":"levelo://app?vid=c994a2b5-7328-48a9-9188-c2b99051f0e6"},"vehicle_type_id":"4","last_reported":1742317744,"current_range_meters":9600,"station_id":"ce4bhdp2rcd13ifvqf20","pricing_plan_id":"cebpf4jnsgd1na2vs0mg"},{"bike_id":"d1cecdb0-0137-4836-99ec-a7dbfa3dc8b7","system_id":"levelo_inurba_marseille","lat":43.29534,"lon":5.39031,"is_reserved":false,"is_disabled":false,"rental_uris":{"android":"levelo://app?vid=d1cecdb0-0137-4836-99ec-a7dbfa3dc8b7","ios":"levelo://app?vid=d1cecdb0-0137-4836-99ec-a7dbfa3dc8b7"},"vehicle_type_id":"4","last_reported":1742317744,"current_range_meters":10000,"station_id":"ce4bh3p2rcd13ifvqdp0","pricing_plan_id":"cebpf4jnsgd1na2vs0mg"},{"bike_id":"5cf5c086-2665-4e88-babc-0ea274fec319","system_id":"levelo_inurba_marseille","lat":43.28458,"lon":5.35895,"is_reserved":false,"is_disabled":false,"rental_uris":{"android":"levelo://app?vid=5cf5c086-2665-4e88-babc-0ea274fec319","ios":"levelo://app?vid=5cf5c086-2665-4e88-babc-0ea274fec319"},"vehicle_type_id":"4","last_reported":1742317744,"current_range_meters":11200,"station_id":"ce4bhah2rcd13ifvqei0","pricing_plan_id":"cebpf4jnsgd1na2vs0mg"},{"bike_id":"f158cb0f-0380-45cd-a82f-e7d941bda018","system_id":"levelo_inurba_marseille","lat":43.31723,"lon":5.43725,"is_reserved":false,"is_disabled":false,"rental_uris":{"android":"levelo://app?vid=f158cb0f-0380-45cd-a82f-e7d941bda018","ios":"levelo://app?vid=f158cb0f-0380-45cd-a82f-e7d941bda018"},"vehicle_type_id":"4","last_reported":1742317744,"current_range_meters":10000,"station_id":"ce4bhp92rcd13ifvqhcg","pricing_plan_id":"cebpf4jnsgd1na2vs0mg"},{"bike_id":"d740f9a8-8915-4113-905e-45a00c225c15","system_id":"levelo_inurba_marseille","lat":43.28458,"lon":5.35885,"is_reserved":false,"is_disabled":false,"rental_uris":{"android":"levelo://app?vid=d740f9a8-8915-4113-905e-45a00c225c15","ios":"levelo://app?vid=d740f9a8-8915-4113-905e-45a00c225c15"},"vehicle_type_id":"4","last_reported":1742317744,"current_range_meters":10000,"station_id":"ce4bhah2rcd13ifvqei0","pricing_plan_id":"cebpf4jnsgd1na2vs0mg"},{"bike_id":"f1dcd5b6-294c-4f9f-a5dc-52ba2710eacb","system_id":"levelo_inurba_marseille","lat":43.23181,"lon":5.39988,"is_reserved":false,"is_disabled":false,"rental_uris":{"android":"levelo://app?vid=f1dcd5b6-294c-4f9f-a5dc-52ba2710eacb","ios":"levelo://app?vid=f1dcd5b6-294c-4f9f-a5dc-52ba2710eacb"},"vehicle_type_id":"4","last_reported":1742317744,"current_range_meters":10000,"station_id":"ce4bhn12rcd13ifvqgqg","pricing_plan_id":"cebpf4jnsgd1na2vs0mg"},{"bike_id":"ff2a24dc-d06f-4ad0-875b-37b9079febeb","system_id":"levelo_inurba_marseille","lat":43.25586,"lon":5.38251,"is_reserved":false,"is_disabled":false,"rental_uris":{"android":"levelo://app?vid=ff2a24dc-d06f-4ad0-875b-37b9079febeb","ios":"levelo://app?vid=ff2a24dc-d06f-4ad0-875b-37b9079febeb"},"vehicle_type_id":"4","last_reported":1742317744,"current_range_meters":10000,"station_id":"ce4bhih2rcd13ifvqfs0","pricing_plan_id":"cebpf4jnsgd1na2vs0mg"},{"bike_id":"c619487e-4d07-4844-be34-765d99954cf0","system_id":"levelo_inurba_marseille","lat":43.293235,"lon":5.401909,"is_reserved":false,"is_disabled":false,"rental_uris":{"android":"levelo://app?vid=c619487e-4d07-4844-be34-765d99954cf0","ios":"levelo://app?vid=c619487e-4d07-4844-be34-765d99954cf0"},"vehicle_type_id":"4","last_reported":1742317744,"current_range_meters":10000,"station_id":"ce4bgg92rcd13ifvqb30","pricing_plan_id":"cebpf4jnsgd1na2vs0mg"},{"bike_id":"d1069439-00e9-4aad-ad31-ab5b44b63348","system_id":"levelo_inurba_marseille","lat":43.31709,"lon":5.40473,"is_reserved":false,"is_disabled":true,"rental_uris":{"android":"levelo://app?vid=d1069439-00e9-4aad-ad31-ab5b44b63348","ios":"levelo://app?vid=d1069439-00e9-4aad-ad31-ab5b44b63348"},"vehicle_type_id":"4","last_reported":1742317744,"current_range_meters":10000,"station_id":"ce4bh012rcd13ifvqd00","pricing_plan_id":"cebpf4jnsgd1na2vs0mg"},{"bike_id":"79f81ea3-76dd-47f7-8563-0e9d257ff0dc","system_id":"levelo_inurba_marseille","lat":43.24544,"lon":5.39511,"is_reserved":false,"is_disabled":false,"rental_uris":{"android":"levelo://app?vid=79f81ea3-76dd-47f7-8563-0e9d257ff0dc","ios":"levelo://app?vid=79f81ea3-76dd-47f7-8563-0e9d257ff0dc"},"vehicle_type_id":"4","last_reported":1742317744,"current_range_meters":10000,"station_id":"ce4bhlp2rcd13ifvqgjg","pricing_plan_id":"cebpf4jnsgd1na2vs0mg"},{"bike_id":"4efc50b2-c352-4264-a793-04072db6f36e","system_id":"levelo_inurba_marseille","lat":43.24679,"lon":5.39448,"is_reserved":false,"is_disabled":false,"rental_uris":{"android":"levelo://app?vid=4efc50b2-c352-4264-a793-04072db6f36e","ios":"levelo://app?vid=4efc50b2-c352-4264-a793-04072db6f36e"},"vehicle_type_id":"4","last_reported":1742317744,"current_range_meters":10000,"station_id":"","pricing_plan_id":"cebpf4jnsgd1na2vs0mg"},{"bike_id":"d00028dc-9b0d-47df-ad9d-778d21fb21b2","system_id":"levelo_inurba_marseille","lat":43.23188,"lon":5.35547,"is_reserved":false,"is_disabled":false,"rental_uris":{"android":"levelo://app?vid=d00028dc-9b0d-47df-ad9d-778d21fb21b2","ios":"levelo://app?vid=d00028dc-9b0d-47df-ad9d-778d21fb21b2"},"vehicle_type_id":"4","last_reported":1742317744,"current_range_meters":10800,"station_id":"ce4bhu92rcd13ifvqi70","pricing_plan_id":"cebpf4jnsgd1na2vs0mg"},{"bike_id":"ca1c0a28-8faf-435f-9d8b-370c3a07ff34","system_id":"levelo_inurba_marseille","lat":43.24171,"lon":5.36391,"is_reserved":false,"is_disabled":false,"rental_uris":{"android":"levelo://app?vid=ca1c0a28-8faf-435f-9d8b-370c3a07ff34","ios":"levelo://app?vid=ca1c0a28-8faf-435f-9d8b-370c3a07ff34"},"vehicle_type_id":"4","last_reported":1742317744,"current_range_meters":10800,"station_id":"cpo36qri1sfpv3e86is0","pricing_plan_id":"cebpf4jnsgd1na2vs0mg"},{"bike_id":"539fc8c4-24e6-4af1-852f-0f9aae2257a1","system_id":"levelo_inurba_marseille","lat":43.23204,"lon":5.35574,"is_reserved":false,"is_disabled":false,"rental_uris":{"android":"levelo://app?vid=539fc8c4-24e6-4af1-852f-0f9aae2257a1","ios":"levelo://app?vid=539fc8c4-24e6-4af1-852f-0f9aae2257a1"},"vehicle_type_id":"4","last_reported":1742317744,"current_range_meters":10800,"station_id":"ce4bhu92rcd13ifvqi70","pricing_plan_id":"cebpf4jnsgd1na2vs0mg"},{"bike_id":"5bead0f2-5ada-420f-bea0-acb8d2ad9da4","system_id":"levelo_inurba_marseille","lat":43.23202,"lon":5.39979,"is_reserved":false,"is_disabled":false,"rental_uris":{"android":"levelo://app?vid=5bead0f2-5ada-420f-bea0-acb8d2ad9da4","ios":"levelo://app?vid=5bead0f2-5ada-420f-bea0-acb8d2ad9da4"},"vehicle_type_id":"4","last_reported":1742317744,"current_range_meters":10800,"station_id":"ce4bhn12rcd13ifvqgqg","pricing_plan_id":"cebpf4jnsgd1na2vs0mg"},{"bike_id":"9e9c2495-9473-40c9-b829-bb02ab558426","system_id":"levelo_inurba_marseille","lat":43.2795,"lon":5.41046,"is_reserved":false,"is_disabled":false,"rental_uris":{"android":"levelo://app?vid=9e9c2495-9473-40c9-b829-bb02ab558426","ios":"levelo://app?vid=9e9c2495-9473-40c9-b829-bb02ab558426"},"vehicle_type_id":"4","last_reported":1742317744,"current_range_meters":10800,"station_id":"ce4bhnp2rcd13ifvqh0g","pricing_plan_id":"cebpf4jnsgd1na2vs0mg"},{"bike_id":"6b162ed9-3599-4156-a34b-2df90433ae5c","system_id":"levelo_inurba_marseille","lat":43.24184,"lon":5.39742,"is_reserved":false,"is_disabled":false,"rental_uris":{"android":"levelo://app?vid=6b162ed9-3599-4156-a34b-2df90433ae5c","ios":"levelo://app?vid=6b162ed9-3599-4156-a34b-2df90433ae5c"},"vehicle_type_id":"4","last_reported":1742317744,"current_range_meters":10800,"station_id":"ce4bhn12rcd13ifvqgpg","pricing_plan_id":"cebpf4jnsgd1na2vs0mg"},{"bike_id":"e387d531-3e82-4ed7-934e-86ca1a79c9a5","system_id":"levelo_inurba_marseille","lat":43.26215,"lon":5.37444,"is_reserved":false,"is_disabled":false,"rental_uris":{"android":"levelo://app?vid=e387d531-3e82-4ed7-934e-86ca1a79c9a5","ios":"levelo://app?vid=e387d531-3e82-4ed7-934e-86ca1a79c9a5"},"vehicle_type_id":"4","last_reported":1742317744,"current_range_meters":11200,"station_id":"ce4bhgp2rcd13ifvqfc0","pricing_plan_id":"cebpf4jnsgd1na2vs0mg"},{"bike_id":"9ba33970-d4fb-4623-b322-cc8f90d0e8a7","system_id":"levelo_inurba_marseille","lat":43.2894,"lon":5.36638,"is_reserved":false,"is_disabled":false,"rental_uris":{"android":"levelo://app?vid=9ba33970-d4fb-4623-b322-cc8f90d0e8a7","ios":"levelo://app?vid=9ba33970-d4fb-4623-b322-cc8f90d0e8a7"},"vehicle_type_id":"4","last_reported":1742317744,"current_range_meters":10800,"station_id":"ce4bhap2rcd13ifvqek0","pricing_plan_id":"cebpf4jnsgd1na2vs0mg"},{"bike_id":"ab11fa9b-759f-447f-a4f1-b143e2360775","system_id":"levelo_inurba_marseille","lat":43.31343,"lon":5.39166,"is_reserved":false,"is_disabled":false,"rental_uris":{"android":"levelo://app?vid=ab11fa9b-759f-447f-a4f1-b143e2360775","ios":"levelo://app?vid=ab11fa9b-759f-447f-a4f1-b143e2360775"},"vehicle_type_id":"4","last_reported":1742317744,"current_range_meters":11200,"station_id":"","pricing_plan_id":"cebpf4jnsgd1na2vs0mg"},{"bike_id":"501f7fd9-069d-4c8f-b512-803a0a667daa","system_id":"levelo_inurba_marseille","lat":43.31712,"lon":5.43707,"is_reserved":false,"is_disabled":false,"rental_uris":{"android":"levelo://app?vid=501f7fd9-069d-4c8f-b512-803a0a667daa","ios":"levelo://app?vid=501f7fd9-069d-4c8f-b512-803a0a667daa"},"vehicle_type_id":"4","last_reported":1742317744,"current_range_meters":11200,"station_id":"ce4bhp92rcd13ifvqhcg","pricing_plan_id":"cebpf4jnsgd1na2vs0mg"},{"bike_id":"c6bcec49-2bc3-4c0c-b575-18d4394c1237","system_id":"levelo_inurba_marseille","lat":43.30794,"lon":5.37657,"is_reserved":false,"is_disabled":false,"rental_uris":{"android":"levelo://app?vid=c6bcec49-2bc3-4c0c-b575-18d4394c1237","ios":"levelo://app?vid=c6bcec49-2bc3-4c0c-b575-18d4394c1237"},"vehicle_type_id":"4","last_reported":1742317744,"current_range_meters":11200,"station_id":"ce4bgv92rcd13ifvqcq0","pricing_plan_id":"cebpf4jnsgd1na2vs0mg"},{"bike_id":"0cb439ba-c73c-4e00-a10d-d81c8bff11ec","system_id":"levelo_inurba_marseille","lat":43.32485,"lon":5.36554,"is_reserved":false,"is_disabled":false,"rental_uris":{"android":"levelo://app?vid=0cb439ba-c73c-4e00-a10d-d81c8bff11ec","ios":"levelo://app?vid=0cb439ba-c73c-4e00-a10d-d81c8bff11ec"},"vehicle_type_id":"4","last_reported":1742317744,"current_range_meters":11600,"station_id":"ce4bhs12rcd13ifvqhvg","pricing_plan_id":"cebpf4jnsgd1na2vs0mg"},{"bike_id":"33cee87d-54df-4382-b486-e00c9953097c","system_id":"levelo_inurba_marseille","lat":43.25486,"lon":5.37637,"is_reserved":false,"is_disabled":false,"rental_uris":{"android":"levelo://app?vid=33cee87d-54df-4382-b486-e00c9953097c","ios":"levelo://app?vid=33cee87d-54df-4382-b486-e00c9953097c"},"vehicle_type_id":"4","last_reported":1742317744,"current_range_meters":11600,"station_id":"ce4bhh12rcd13ifvqff0","pricing_plan_id":"cebpf4jnsgd1na2vs0mg"},{"bike_id":"18126f6d-bc81-4835-8118-ecc2758395d7","system_id":"levelo_inurba_marseille","lat":43.26995,"lon":5.39805,"is_reserved":false,"is_disabled":false,"rental_uris":{"android":"levelo://app?vid=18126f6d-bc81-4835-8118-ecc2758395d7","ios":"levelo://app?vid=18126f6d-bc81-4835-8118-ecc2758395d7"},"vehicle_type_id":"4","last_reported":1742317744,"current_range_meters":11600,"station_id":"","pricing_plan_id":"cebpf4jnsgd1na2vs0mg"},{"bike_id":"928acc1a-2049-4392-8b2a-86d98fa3ce63","system_id":"levelo_inurba_marseille","lat":43.29293,"lon":5.3747,"is_reserved":false,"is_disabled":false,"rental_uris":{"android":"levelo://app?vid=928acc1a-2049-4392-8b2a-86d98fa3ce63","ios":"levelo://app?vid=928acc1a-2049-4392-8b2a-86d98fa3ce63"},"vehicle_type_id":"4","last_reported":1742317744,"current_range_meters":11200,"station_id":"ce4bgi12rcd13ifvqb70","pricing_plan_id":"cebpf4jnsgd1na2vs0mg"},{"bike_id":"600cc878-7c2a-4cf4-9af6-86a428b733cc","system_id":"levelo_inurba_marseille","lat":43.3021,"lon":5.39463,"is_reserved":false,"is_disabled":true,"rental_uris":{"android":"levelo://app?vid=600cc878-7c2a-4cf4-9af6-86a428b733cc","ios":"levelo://app?vid=600cc878-7c2a-4cf4-9af6-86a428b733cc"},"vehicle_type_id":"4","last_reported":1742317744,"current_range_meters":12000,"station_id":"ce4bh0p2rcd13ifvqd70","pricing_plan_id":"cebpf4jnsgd1na2vs0mg"},{"bike_id":"85abd036-667f-4e0d-85d7-bb941c3d5d16","system_id":"levelo_inurba_marseille","lat":43.24807,"lon":5.37457,"is_reserved":false,"is_disabled":false,"rental_uris":{"android":"levelo://app?vid=85abd036-667f-4e0d-85d7-bb941c3d5d16","ios":"levelo://app?vid=85abd036-667f-4e0d-85d7-bb941c3d5d16"},"vehicle_type_id":"4","last_reported":1742317744,"current_range_meters":12000,"station_id":"ce4bhgh2rcd13ifvqfb0","pricing_plan_id":"cebpf4jnsgd1na2vs0mg"},{"bike_id":"fdef642a-c263-44da-b5c7-c530d02aa41a","system_id":"levelo_inurba_marseille","lat":43.290402,"lon":5.359211,"is_reserved":false,"is_disabled":false,"rental_uris":{"android":"levelo://app?vid=fdef642a-c263-44da-b5c7-c530d02aa41a","ios":"levelo://app?vid=fdef642a-c263-44da-b5c7-c530d02aa41a"},"vehicle_type_id":"4","last_reported":1742317744,"current_range_meters":12000,"station_id":"ce4bha92rcd13ifvqeg0","pricing_plan_id":"cebpf4jnsgd1na2vs0mg"},{"bike_id":"04a71377-4f4c-4f5f-bdb5-46b77b1d760f","system_id":"levelo_inurba_marseille","lat":43.30802,"lon":5.43522,"is_reserved":false,"is_disabled":false,"rental_uris":{"android":"levelo://app?vid=04a71377-4f4c-4f5f-bdb5-46b77b1d760f","ios":"levelo://app?vid=04a71377-4f4c-4f5f-bdb5-46b77b1d760f"},"vehicle_type_id":"4","last_reported":1742317744,"current_range_meters":12000,"station_id":"ce4bhph2rcd13ifvqheg","pricing_plan_id":"cebpf4jnsgd1na2vs0mg"},{"bike_id":"0f668e98-5ad7-4ba3-b1eb-c8d25e30b586","system_id":"levelo_inurba_marseille","lat":43.28574,"lon":5.39494,"is_reserved":false,"is_disabled":false,"rental_uris":{"android":"levelo://app?vid=0f668e98-5ad7-4ba3-b1eb-c8d25e30b586","ios":"levelo://app?vid=0f668e98-5ad7-4ba3-b1eb-c8d25e30b586"},"vehicle_type_id":"4","last_reported":1742317744,"current_range_meters":12000,"station_id":"ce4bh292rcd13ifvqdg0","pricing_plan_id":"cebpf4jnsgd1na2vs0mg"},{"bike_id":"dfc06428-26dd-469e-ad8b-e5dcae6968bf","system_id":"levelo_inurba_marseille","lat":43.27816,"lon":5.40714,"is_reserved":false,"is_disabled":false,"rental_uris":{"android":"levelo://app?vid=dfc06428-26dd-469e-ad8b-e5dcae6968bf","ios":"levelo://app?vid=dfc06428-26dd-469e-ad8b-e5dcae6968bf"},"vehicle_type_id":"4","last_reported":1742317744,"current_range_meters":12000,"station_id":"ce4bhnh2rcd13ifvqgtg","pricing_plan_id":"cebpf4jnsgd1na2vs0mg"},{"bike_id":"c77afbd9-3c92-483e-b741-514e12b43ad2","system_id":"levelo_inurba_marseille","lat":43.28268,"lon":5.35073,"is_reserved":false,"is_disabled":false,"rental_uris":{"android":"levelo://app?vid=c77afbd9-3c92-483e-b741-514e12b43ad2","ios":"levelo://app?vid=c77afbd9-3c92-483e-b741-514e12b43ad2"},"vehicle_type_id":"4","last_reported":1742317744,"current_range_meters":12000,"station_id":"ce4bhbp2rcd13ifvqerg","pricing_plan_id":"cebpf4jnsgd1na2vs0mg"},{"bike_id":"99369338-c895-4492-9077-87edcb7cce33","system_id":"levelo_inurba_marseille","lat":43.29001,"lon":5.35608,"is_reserved":false,"is_disabled":false,"rental_uris":{"android":"levelo://app?vid=99369338-c895-4492-9077-87edcb7cce33","ios":"levelo://app?vid=99369338-c895-4492-9077-87edcb7cce33"},"vehicle_type_id":"4","last_reported":1742317744,"current_range_meters":12000,"station_id":"ce4bhb92rcd13ifvqen0","pricing_plan_id":"cebpf4jnsgd1na2vs0mg"},{"bike_id":"76a9aae7-4778-4cdc-b462-e76f0be90c92","system_id":"levelo_inurba_marseille","lat":43.29197,"lon":5.3581,"is_reserved":false,"is_disabled":false,"rental_uris":{"android":"levelo://app?vid=76a9aae7-4778-4cdc-b462-e76f0be90c92","ios":"levelo://app?vid=76a9aae7-4778-4cdc-b462-e76f0be90c92"},"vehicle_type_id":"4","last_reported":1742317744,"current_range_meters":12000,"station_id":"ce4bhb12rcd13ifvqel0","pricing_plan_id":"cebpf4jnsgd1na2vs0mg"},{"bike_id":"89cb3140-d211-4c4d-97ca-7e01c3c4da90","system_id":"levelo_inurba_marseille","lat":43.23191,"lon":5.355604,"is_reserved":false,"is_disabled":false,"rental_uris":{"android":"levelo://app?vid=89cb3140-d211-4c4d-97ca-7e01c3c4da90","ios":"levelo://app?vid=89cb3140-d211-4c4d-97ca-7e01c3c4da90"},"vehicle_type_id":"4","last_reported":1742317744,"current_range_meters":12000,"station_id":"ce4bhu92rcd13ifvqi70","pricing_plan_id":"cebpf4jnsgd1na2vs0mg"},{"bike_id":"23f67dfa-4494-415e-9953-3c7a789164b4","system_id":"levelo_inurba_marseille","lat":43.27996,"lon":5.40039,"is_reserved":false,"is_disabled":false,"rental_uris":{"android":"levelo://app?vid=23f67dfa-4494-415e-9953-3c7a789164b4","ios":"levelo://app?vid=23f67dfa-4494-415e-9953-3c7a789164b4"},"vehicle_type_id":"4","last_reported":1742317744,"current_range_meters":12000,"station_id":"ce4bho92rcd13ifvqh4g","pricing_plan_id":"cebpf4jnsgd1na2vs0mg"},{"bike_id":"4b1455e3-a129-4c21-aa44-d1039bebb628","system_id":"levelo_inurba_marseille","lat":43.27816,"lon":5.40713,"is_reserved":false,"is_disabled":false,"rental_uris":{"android":"levelo://app?vid=4b1455e3-a129-4c21-aa44-d1039bebb628","ios":"levelo://app?vid=4b1455e3-a129-4c21-aa44-d1039bebb628"},"vehicle_type_id":"4","last_reported":1742317744,"current_range_meters":12400,"station_id":"ce4bhnh2rcd13ifvqgtg","pricing_plan_id":"cebpf4jnsgd1na2vs0mg"},{"bike_id":"b132483d-1d99-4f2a-9ca2-8544144e934f","system_id":"levelo_inurba_marseille","lat":43.32367,"lon":5.38887,"is_reserved":false,"is_disabled":false,"rental_uris":{"android":"levelo://app?vid=b132483d-1d99-4f2a-9ca2-8544144e934f","ios":"levelo://app?vid=b132483d-1d99-4f2a-9ca2-8544144e934f"},"vehicle_type_id":"4","last_reported":1742317744,"current_range_meters":12400,"station_id":"ce4bhqp2rcd13ifvqhog","pricing_plan_id":"cebpf4jnsgd1na2vs0mg"},{"bike_id":"22111304-d253-48de-9ebe-849da3952082","system_id":"levelo_inurba_marseille","lat":43.27923,"lon":5.37971,"is_reserved":false,"is_disabled":false,"rental_uris":{"android":"levelo://app?vid=22111304-d253-48de-9ebe-849da3952082","ios":"levelo://app?vid=22111304-d253-48de-9ebe-849da3952082"},"vehicle_type_id":"4","last_reported":1742317744,"current_range_meters":12400,"station_id":"ce4bhf92rcd13ifvqf50","pricing_plan_id":"cebpf4jnsgd1na2vs0mg"},{"bike_id":"75e8bee3-0a10-4522-9d7e-72ece2846129","system_id":"levelo_inurba_marseille","lat":43.33023,"lon":5.39053,"is_reserved":false,"is_disabled":false,"rental_uris":{"android":"levelo://app?vid=75e8bee3-0a10-4522-9d7e-72ece2846129","ios":"levelo://app?vid=75e8bee3-0a10-4522-9d7e-72ece2846129"},"vehicle_type_id":"4","last_reported":1742317744,"current_range_meters":12400,"station_id":"ce4bhr92rcd13ifvqhrg","pricing_plan_id":"cebpf4jnsgd1na2vs0mg"},{"bike_id":"f142dc05-f5d3-4cbc-afe5-c54cd3d760d6","system_id":"levelo_inurba_marseille","lat":43.28121,"lon":5.39635,"is_reserved":false,"is_disabled":false,"rental_uris":{"android":"levelo://app?vid=f142dc05-f5d3-4cbc-afe5-c54cd3d760d6","ios":"levelo://app?vid=f142dc05-f5d3-4cbc-afe5-c54cd3d760d6"},"vehicle_type_id":"4","last_reported":1742317744,"current_range_meters":12400,"station_id":"","pricing_plan_id":"cebpf4jnsgd1na2vs0mg"},{"bike_id":"cabc56a7-dd90-4978-a4aa-b0149cec9ec6","system_id":"levelo_inurba_marseille","lat":43.25496,"lon":5.37648,"is_reserved":false,"is_disabled":false,"rental_uris":{"android":"levelo://app?vid=cabc56a7-dd90-4978-a4aa-b0149cec9ec6","ios":"levelo://app?vid=cabc56a7-dd90-4978-a4aa-b0149cec9ec6"},"vehicle_type_id":"4","last_reported":1742317744,"current_range_meters":12400,"station_id":"ce4bhh12rcd13ifvqff0","pricing_plan_id":"cebpf4jnsgd1na2vs0mg"},{"bike_id":"2f7401e7-3647-4aa1-86a7-73633e0eeb27","system_id":"levelo_inurba_marseille","lat":43.24388,"lon":5.37058,"is_reserved":false,"is_disabled":false,"rental_uris":{"android":"levelo://app?vid=2f7401e7-3647-4aa1-86a7-73633e0eeb27","ios":"levelo://app?vid=2f7401e7-3647-4aa1-86a7-73633e0eeb27"},"vehicle_type_id":"4","last_reported":1742317744,"current_range_meters":12400,"station_id":"ce4bhhh2rcd13ifvqfk0","pricing_plan_id":"cebpf4jnsgd1na2vs0mg"},{"bike_id":"2f81072d-393e-424e-a87c-b2168c87d3d2","system_id":"levelo_inurba_marseille","lat":43.31089,"lon":5.42435,"is_reserved":false,"is_disabled":false,"rental_uris":{"android":"levelo://app?vid=2f81072d-393e-424e-a87c-b2168c87d3d2","ios":"levelo://app?vid=2f81072d-393e-424e-a87c-b2168c87d3d2"},"vehicle_type_id":"4","last_reported":1742317744,"current_range_meters":12800,"station_id":"ce4bhp92rcd13ifvqhag","pricing_plan_id":"cebpf4jnsgd1na2vs0mg"},{"bike_id":"018c9b38-f869-4e63-a3d6-8ea4864a2567","system_id":"levelo_inurba_marseille","lat":43.30862,"lon":5.41886,"is_reserved":false,"is_disabled":false,"rental_uris":{"android":"levelo://app?vid=018c9b38-f869-4e63-a3d6-8ea4864a2567","ios":"levelo://app?vid=018c9b38-f869-4e63-a3d6-8ea4864a2567"},"vehicle_type_id":"4","last_reported":1742317744,"current_range_meters":12800,"station_id":"","pricing_plan_id":"cebpf4jnsgd1na2vs0mg"},{"bike_id":"44647773-1fb5-4bbf-972a-f8fec5a4f217","system_id":"levelo_inurba_marseille","lat":43.30936,"lon":5.40153,"is_reserved":false,"is_disabled":false,"rental_uris":{"android":"levelo://app?vid=44647773-1fb5-4bbf-972a-f8fec5a4f217","ios":"levelo://app?vid=44647773-1fb5-4bbf-972a-f8fec5a4f217"},"vehicle_type_id":"4","last_reported":1742317744,"current_range_meters":12400,"station_id":"ce4bgvp2rcd13ifvqct0","pricing_plan_id":"cebpf4jnsgd1na2vs0mg"},{"bike_id":"33f6f053-0d1f-4f30-9978-12a9f0041d3d","system_id":"levelo_inurba_marseille","lat":43.304859,"lon":5.365468,"is_reserved":false,"is_disabled":false,"rental_uris":{"android":"levelo://app?vid=33f6f053-0d1f-4f30-9978-12a9f0041d3d","ios":"levelo://app?vid=33f6f053-0d1f-4f30-9978-12a9f0041d3d"},"vehicle_type_id":"4","last_reported":1742317744,"current_range_meters":12800,"station_id":"ce4bhgh2rcd13ifvqfb0","pricing_plan_id":"cebpf4jnsgd1na2vs0mg"},{"bike_id":"9ae9b629-e6e2-41f1-856f-3252f9ec9995","system_id":"levelo_inurba_marseille","lat":43.26571,"lon":5.37304,"is_reserved":false,"is_disabled":false,"rental_uris":{"android":"levelo://app?vid=9ae9b629-e6e2-41f1-856f-3252f9ec9995","ios":"levelo://app?vid=9ae9b629-e6e2-41f1-856f-3252f9ec9995"},"vehicle_type_id":"4","last_reported":1742317744,"current_range_meters":12800,"station_id":"ce4bhg12rcd13ifvqf70","pricing_plan_id":"cebpf4jnsgd1na2vs0mg"},{"bike_id":"2bf3a154-88c1-4244-a51a-9a3bf4253422","system_id":"levelo_inurba_marseille","lat":43.27997,"lon":5.40016,"is_reserved":false,"is_disabled":false,"rental_uris":{"android":"levelo://app?vid=2bf3a154-88c1-4244-a51a-9a3bf4253422","ios":"levelo://app?vid=2bf3a154-88c1-4244-a51a-9a3bf4253422"},"vehicle_type_id":"4","last_reported":1742317744,"current_range_meters":12800,"station_id":"ce4bho92rcd13ifvqh4g","pricing_plan_id":"cebpf4jnsgd1na2vs0mg"},{"bike_id":"d8c1ae52-2a9e-4470-a363-aadad54f73dd","system_id":"levelo_inurba_marseille","lat":43.26224,"lon":5.40463,"is_reserved":false,"is_disabled":false,"rental_uris":{"android":"levelo://app?vid=d8c1ae52-2a9e-4470-a363-aadad54f73dd","ios":"levelo://app?vid=d8c1ae52-2a9e-4470-a363-aadad54f73dd"},"vehicle_type_id":"4","last_reported":1742317744,"current_range_meters":12800,"station_id":"ce4bhmh2rcd13ifvqgmg","pricing_plan_id":"cebpf4jnsgd1na2vs0mg"},{"bike_id":"2db4dc7f-f814-4644-bab0-805bfa2d55bd","system_id":"levelo_inurba_marseille","lat":43.26551,"lon":5.37275,"is_reserved":false,"is_disabled":false,"rental_uris":{"android":"levelo://app?vid=2db4dc7f-f814-4644-bab0-805bfa2d55bd","ios":"levelo://app?vid=2db4dc7f-f814-4644-bab0-805bfa2d55bd"},"vehicle_type_id":"4","last_reported":1742317744,"current_range_meters":12800,"station_id":"ce4bhg12rcd13ifvqf70","pricing_plan_id":"cebpf4jnsgd1na2vs0mg"},{"bike_id":"62f7539b-b047-479e-84e9-11e5c010431d","system_id":"levelo_inurba_marseille","lat":43.30034,"lon":5.40023,"is_reserved":false,"is_disabled":false,"rental_uris":{"android":"levelo://app?vid=62f7539b-b047-479e-84e9-11e5c010431d","ios":"levelo://app?vid=62f7539b-b047-479e-84e9-11e5c010431d"},"vehicle_type_id":"4","last_reported":1742317744,"current_range_meters":12800,"station_id":"","pricing_plan_id":"cebpf4jnsgd1na2vs0mg"},{"bike_id":"9b72665f-6df6-40b4-a3db-a0111a18ef9e","system_id":"levelo_inurba_marseille","lat":43.26211,"lon":5.37447,"is_reserved":false,"is_disabled":false,"rental_uris":{"android":"levelo://app?vid=9b72665f-6df6-40b4-a3db-a0111a18ef9e","ios":"levelo://app?vid=9b72665f-6df6-40b4-a3db-a0111a18ef9e"},"vehicle_type_id":"4","last_reported":1742317744,"current_range_meters":13600,"station_id":"ce4bhgp2rcd13ifvqfc0","pricing_plan_id":"cebpf4jnsgd1na2vs0mg"},{"bike_id":"7f61d7be-d227-44df-9b33-b8f4965e514f","system_id":"levelo_inurba_marseille","lat":43.23188,"lon":5.35563,"is_reserved":false,"is_disabled":false,"rental_uris":{"android":"levelo://app?vid=7f61d7be-d227-44df-9b33-b8f4965e514f","ios":"levelo://app?vid=7f61d7be-d227-44df-9b33-b8f4965e514f"},"vehicle_type_id":"4","last_reported":1742317744,"current_range_meters":13600,"station_id":"ce4bhu92rcd13ifvqi70","pricing_plan_id":"cebpf4jnsgd1na2vs0mg"},{"bike_id":"e908f6ed-7a16-477f-9f53-3c44a2e12817","system_id":"levelo_inurba_marseille","lat":43.30787,"lon":5.37648,"is_reserved":false,"is_disabled":false,"rental_uris":{"android":"levelo://app?vid=e908f6ed-7a16-477f-9f53-3c44a2e12817","ios":"levelo://app?vid=e908f6ed-7a16-477f-9f53-3c44a2e12817"},"vehicle_type_id":"4","last_reported":1742317744,"current_range_meters":13600,"station_id":"ce4bgt12rcd13ifvqcd0","pricing_plan_id":"cebpf4jnsgd1na2vs0mg"},{"bike_id":"ff037ac5-a7ea-45e6-93cf-7d394f2f7759","system_id":"levelo_inurba_marseille","lat":43.30512,"lon":5.36556,"is_reserved":false,"is_disabled":false,"rental_uris":{"android":"levelo://app?vid=ff037ac5-a7ea-45e6-93cf-7d394f2f7759","ios":"levelo://app?vid=ff037ac5-a7ea-45e6-93cf-7d394f2f7759"},"vehicle_type_id":"4","last_reported":1742317744,"current_range_meters":13600,"station_id":"","pricing_plan_id":"cebpf4jnsgd1na2vs0mg"},{"bike_id":"26836c87-2147-41b7-afed-e66458af42b2","system_id":"levelo_inurba_marseille","lat":43.25084,"lon":5.39519,"is_reserved":false,"is_disabled":false,"rental_uris":{"android":"levelo://app?vid=26836c87-2147-41b7-afed-e66458af42b2","ios":"levelo://app?vid=26836c87-2147-41b7-afed-e66458af42b2"},"vehicle_type_id":"4","last_reported":1742317744,"current_range_meters":13600,"station_id":"ce4bhm12rcd13ifvqgkg","pricing_plan_id":"cebpf4jnsgd1na2vs0mg"},{"bike_id":"df56c532-99b4-4544-806e-5f34024219b7","system_id":"levelo_inurba_marseille","lat":43.29268,"lon":5.3843,"is_reserved":false,"is_disabled":false,"rental_uris":{"android":"levelo://app?vid=df56c532-99b4-4544-806e-5f34024219b7","ios":"levelo://app?vid=df56c532-99b4-4544-806e-5f34024219b7"},"vehicle_type_id":"4","last_reported":1742317744,"current_range_meters":13600,"station_id":"ce4bh692rcd13ifvqea0","pricing_plan_id":"cebpf4jnsgd1na2vs0mg"},{"bike_id":"bfa40974-876e-403f-8ee9-98898195442a","system_id":"levelo_inurba_marseille","lat":43.28471,"lon":5.35891,"is_reserved":false,"is_disabled":false,"rental_uris":{"android":"levelo://app?vid=bfa40974-876e-403f-8ee9-98898195442a","ios":"levelo://app?vid=bfa40974-876e-403f-8ee9-98898195442a"},"vehicle_type_id":"4","last_reported":1742317744,"current_range_meters":13600,"station_id":"ce4bhah2rcd13ifvqei0","pricing_plan_id":"cebpf4jnsgd1na2vs0mg"},{"bike_id":"21b4eae0-3c35-4e2a-9758-cb4a50316a87","system_id":"levelo_inurba_marseille","lat":43.29461,"lon":5.39758,"is_reserved":false,"is_disabled":false,"rental_uris":{"android":"levelo://app?vid=21b4eae0-3c35-4e2a-9758-cb4a50316a87","ios":"levelo://app?vid=21b4eae0-3c35-4e2a-9758-cb4a50316a87"},"vehicle_type_id":"4","last_reported":1742317744,"current_range_meters":14000,"station_id":"ce4bh3h2rcd13ifvqdo0","pricing_plan_id":"cebpf4jnsgd1na2vs0mg"},{"bike_id":"7c3baf44-953e-4bba-9100-4685bf1e6739","system_id":"levelo_inurba_marseille","lat":43.25554,"lon":5.38233,"is_reserved":false,"is_disabled":false,"rental_uris":{"android":"levelo://app?vid=7c3baf44-953e-4bba-9100-4685bf1e6739","ios":"levelo://app?vid=7c3baf44-953e-4bba-9100-4685bf1e6739"},"vehicle_type_id":"4","last_reported":1742317744,"current_range_meters":14000,"station_id":"ce4bhih2rcd13ifvqfs0","pricing_plan_id":"cebpf4jnsgd1na2vs0mg"},{"bike_id":"429ce60a-12a7-434d-b8bb-adca5dc3a481","system_id":"levelo_inurba_marseille","lat":43.27617,"lon":5.3611,"is_reserved":false,"is_disabled":false,"rental_uris":{"android":"levelo://app?vid=429ce60a-12a7-434d-b8bb-adca5dc3a481","ios":"levelo://app?vid=429ce60a-12a7-434d-b8bb-adca5dc3a481"},"vehicle_type_id":"4","last_reported":1742317744,"current_range_meters":14000,"station_id":"ce4bgj92rcd13ifvqbe0","pricing_plan_id":"cebpf4jnsgd1na2vs0mg"},{"bike_id":"bc264940-2e4b-44da-a81b-e37c9201f095","system_id":"levelo_inurba_marseille","lat":43.29933,"lon":5.36549,"is_reserved":false,"is_disabled":false,"rental_uris":{"android":"levelo://app?vid=bc264940-2e4b-44da-a81b-e37c9201f095","ios":"levelo://app?vid=bc264940-2e4b-44da-a81b-e37c9201f095"},"vehicle_type_id":"4","last_reported":1742317744,"current_range_meters":14000,"station_id":"ce4bgm92rcd13ifvqbr0","pricing_plan_id":"cebpf4jnsgd1na2vs0mg"},{"bike_id":"0c517139-2c8b-479e-84d2-c0fa03d8763f","system_id":"levelo_inurba_marseille","lat":43.26225,"lon":5.40456,"is_reserved":false,"is_disabled":false,"rental_uris":{"android":"levelo://app?vid=0c517139-2c8b-479e-84d2-c0fa03d8763f","ios":"levelo://app?vid=0c517139-2c8b-479e-84d2-c0fa03d8763f"},"vehicle_type_id":"4","last_reported":1742317744,"current_range_meters":14000,"station_id":"ce4bhmh2rcd13ifvqgmg","pricing_plan_id":"cebpf4jnsgd1na2vs0mg"},{"bike_id":"06a6152a-e477-491f-83ed-9b68fd573e32","system_id":"levelo_inurba_marseille","lat":43.25825,"lon":5.39434,"is_reserved":false,"is_disabled":false,"rental_uris":{"android":"levelo://app?vid=06a6152a-e477-491f-83ed-9b68fd573e32","ios":"levelo://app?vid=06a6152a-e477-491f-83ed-9b68fd573e32"},"vehicle_type_id":"4","last_reported":1742317744,"current_range_meters":14000,"station_id":"ce4bhip2rcd13ifvqft0","pricing_plan_id":"cebpf4jnsgd1na2vs0mg"},{"bike_id":"93b656ce-bf57-474a-b7d7-efffbbb1ac9d","system_id":"levelo_inurba_marseille","lat":43.2919,"lon":5.35809,"is_reserved":false,"is_disabled":false,"rental_uris":{"android":"levelo://app?vid=93b656ce-bf57-474a-b7d7-efffbbb1ac9d","ios":"levelo://app?vid=93b656ce-bf57-474a-b7d7-efffbbb1ac9d"},"vehicle_type_id":"4","last_reported":1742317744,"current_range_meters":14400,"station_id":"ce4bhb12rcd13ifvqel0","pricing_plan_id":"cebpf4jnsgd1na2vs0mg"},{"bike_id":"e60c1153-ceb4-4f72-92cd-2dc1051b5e4c","system_id":"levelo_inurba_marseille","lat":43.26066,"lon":5.39392,"is_reserved":false,"is_disabled":true,"rental_uris":{"android":"levelo://app?vid=e60c1153-ceb4-4f72-92cd-2dc1051b5e4c","ios":"levelo://app?vid=e60c1153-ceb4-4f72-92cd-2dc1051b5e4c"},"vehicle_type_id":"4","last_reported":1742317744,"current_range_meters":14400,"station_id":"ce4bhh92rcd13ifvqfj0","pricing_plan_id":"cebpf4jnsgd1na2vs0mg"},{"bike_id":"7c616bb0-690f-408d-ab4b-c8cd321a6075","system_id":"levelo_inurba_marseille","lat":43.29517,"lon":5.39037,"is_reserved":false,"is_disabled":false,"rental_uris":{"android":"levelo://app?vid=7c616bb0-690f-408d-ab4b-c8cd321a6075","ios":"levelo://app?vid=7c616bb0-690f-408d-ab4b-c8cd321a6075"},"vehicle_type_id":"4","last_reported":1742317744,"current_range_meters":14400,"station_id":"ce4bh3p2rcd13ifvqdp0","pricing_plan_id":"cebpf4jnsgd1na2vs0mg"},{"bike_id":"e096e1f2-4f14-440c-a969-7d84de0eb85e","system_id":"levelo_inurba_marseille","lat":43.29198,"lon":5.35808,"is_reserved":false,"is_disabled":false,"rental_uris":{"android":"levelo://app?vid=e096e1f2-4f14-440c-a969-7d84de0eb85e","ios":"levelo://app?vid=e096e1f2-4f14-440c-a969-7d84de0eb85e"},"vehicle_type_id":"4","last_reported":1742317744,"current_range_meters":14400,"station_id":"ce4bhb12rcd13ifvqel0","pricing_plan_id":"cebpf4jnsgd1na2vs0mg"},{"bike_id":"3455258b-4135-46b9-9a26-10bf95160e40","system_id":"levelo_inurba_marseille","lat":43.23196,"lon":5.35557,"is_reserved":false,"is_disabled":false,"rental_uris":{"android":"levelo://app?vid=3455258b-4135-46b9-9a26-10bf95160e40","ios":"levelo://app?vid=3455258b-4135-46b9-9a26-10bf95160e40"},"vehicle_type_id":"4","last_reported":1742317744,"current_range_meters":14400,"station_id":"ce4bhu92rcd13ifvqi70","pricing_plan_id":"cebpf4jnsgd1na2vs0mg"},{"bike_id":"69741035-b623-4bf2-9c5f-f63dce3640dd","system_id":"levelo_inurba_marseille","lat":43.29227,"lon":5.36073,"is_reserved":false,"is_disabled":false,"rental_uris":{"android":"levelo://app?vid=69741035-b623-4bf2-9c5f-f63dce3640dd","ios":"levelo://app?vid=69741035-b623-4bf2-9c5f-f63dce3640dd"},"vehicle_type_id":"4","last_reported":1742317744,"current_range_meters":14000,"station_id":"ce4bhbh2rcd13ifvqeqg","pricing_plan_id":"cebpf4jnsgd1na2vs0mg"},{"bike_id":"78c7f344-224f-4ee1-abbd-94f4d94ef023","system_id":"levelo_inurba_marseille","lat":43.23955,"lon":5.36642,"is_reserved":false,"is_disabled":true,"rental_uris":{"android":"levelo://app?vid=78c7f344-224f-4ee1-abbd-94f4d94ef023","ios":"levelo://app?vid=78c7f344-224f-4ee1-abbd-94f4d94ef023"},"vehicle_type_id":"4","last_reported":1742317744,"current_range_meters":14800,"station_id":"ce4bhi12rcd13ifvqfp0","pricing_plan_id":"cebpf4jnsgd1na2vs0mg"},{"bike_id":"9ca3bb79-a2d6-4b1d-bacb-81aee7604188","system_id":"levelo_inurba_marseille","lat":43.28569,"lon":5.395,"is_reserved":false,"is_disabled":false,"rental_uris":{"android":"levelo://app?vid=9ca3bb79-a2d6-4b1d-bacb-81aee7604188","ios":"levelo://app?vid=9ca3bb79-a2d6-4b1d-bacb-81aee7604188"},"vehicle_type_id":"4","last_reported":1742317744,"current_range_meters":14800,"station_id":"ce4bh292rcd13ifvqdg0","pricing_plan_id":"cebpf4jnsgd1na2vs0mg"},{"bike_id":"6c2b3d14-7ff6-42b7-8c47-aa6706f79ee7","system_id":"levelo_inurba_marseille","lat":43.26236,"lon":5.40482,"is_reserved":false,"is_disabled":false,"rental_uris":{"android":"levelo://app?vid=6c2b3d14-7ff6-42b7-8c47-aa6706f79ee7","ios":"levelo://app?vid=6c2b3d14-7ff6-42b7-8c47-aa6706f79ee7"},"vehicle_type_id":"4","last_reported":1742317744,"current_range_meters":14800,"station_id":"ce4bhmh2rcd13ifvqgmg","pricing_plan_id":"cebpf4jnsgd1na2vs0mg"},{"bike_id":"7da589eb-a0d1-4d3d-9b57-80ee9fe3e625","system_id":"levelo_inurba_marseille","lat":43.30889,"lon":5.39654,"is_reserved":false,"is_disabled":false,"rental_uris":{"android":"levelo://app?vid=7da589eb-a0d1-4d3d-9b57-80ee9fe3e625","ios":"levelo://app?vid=7da589eb-a0d1-4d3d-9b57-80ee9fe3e625"},"vehicle_type_id":"4","last_reported":1742317744,"current_range_meters":14800,"station_id":"ce4bh012rcd13ifvqcv0","pricing_plan_id":"cebpf4jnsgd1na2vs0mg"},{"bike_id":"65b6530b-6e5c-4ce5-a2d1-7154e9c6656c","system_id":"levelo_inurba_marseille","lat":43.30809,"lon":5.43529,"is_reserved":false,"is_disabled":false,"rental_uris":{"android":"levelo://app?vid=65b6530b-6e5c-4ce5-a2d1-7154e9c6656c","ios":"levelo://app?vid=65b6530b-6e5c-4ce5-a2d1-7154e9c6656c"},"vehicle_type_id":"4","last_reported":1742317744,"current_range_meters":14800,"station_id":"ce4bhph2rcd13ifvqheg","pricing_plan_id":"cebpf4jnsgd1na2vs0mg"},{"bike_id":"40519983-510e-4b9a-9562-e0995123f6e0","system_id":"levelo_inurba_marseille","lat":43.23202,"lon":5.35558,"is_reserved":false,"is_disabled":false,"rental_uris":{"android":"levelo://app?vid=40519983-510e-4b9a-9562-e0995123f6e0","ios":"levelo://app?vid=40519983-510e-4b9a-9562-e0995123f6e0"},"vehicle_type_id":"4","last_reported":1742317744,"current_range_meters":14800,"station_id":"ce4bhu92rcd13ifvqi70","pricing_plan_id":"cebpf4jnsgd1na2vs0mg"},{"bike_id":"6d7c3b5d-9891-4efb-8d65-43f91951ce1a","system_id":"levelo_inurba_marseille","lat":43.3136,"lon":5.38472,"is_reserved":false,"is_disabled":false,"rental_uris":{"android":"levelo://app?vid=6d7c3b5d-9891-4efb-8d65-43f91951ce1a","ios":"levelo://app?vid=6d7c3b5d-9891-4efb-8d65-43f91951ce1a"},"vehicle_type_id":"4","last_reported":1742317744,"current_range_meters":14800,"station_id":"ce4bgt92rcd13ifvqcf0","pricing_plan_id":"cebpf4jnsgd1na2vs0mg"},{"bike_id":"2273a99d-9ec8-40fd-b2df-0ca03bee13dd","system_id":"levelo_inurba_marseille","lat":43.27951,"lon":5.41037,"is_reserved":false,"is_disabled":false,"rental_uris":{"android":"levelo://app?vid=2273a99d-9ec8-40fd-b2df-0ca03bee13dd","ios":"levelo://app?vid=2273a99d-9ec8-40fd-b2df-0ca03bee13dd"},"vehicle_type_id":"4","last_reported":1742317744,"current_range_meters":14800,"station_id":"ce4bhnp2rcd13ifvqh0g","pricing_plan_id":"cebpf4jnsgd1na2vs0mg"},{"bike_id":"0212fd51-042d-4949-9b48-e5dd0753fe79","system_id":"levelo_inurba_marseille","lat":43.29558,"lon":5.42291,"is_reserved":false,"is_disabled":false,"rental_uris":{"android":"levelo://app?vid=0212fd51-042d-4949-9b48-e5dd0753fe79","ios":"levelo://app?vid=0212fd51-042d-4949-9b48-e5dd0753fe79"},"vehicle_type_id":"4","last_reported":1742317744,"current_range_meters":15200,"station_id":"ce4bhph2rcd13ifvqhdg","pricing_plan_id":"cebpf4jnsgd1na2vs0mg"},{"bike_id":"fbc0cf88-e636-444f-bc09-73ab69261ce5","system_id":"levelo_inurba_marseille","lat":43.3169,"lon":5.37781,"is_reserved":false,"is_disabled":false,"rental_uris":{"android":"levelo://app?vid=fbc0cf88-e636-444f-bc09-73ab69261ce5","ios":"levelo://app?vid=fbc0cf88-e636-444f-bc09-73ab69261ce5"},"vehicle_type_id":"4","last_reported":1742317744,"current_range_meters":14800,"station_id":"ce4bgth2rcd13ifvqch0","pricing_plan_id":"cebpf4jnsgd1na2vs0mg"},{"bike_id":"26c3156d-8d38-4b11-92b6-f3f49ed4bf9b","system_id":"levelo_inurba_marseille","lat":43.27911,"lon":5.41215,"is_reserved":false,"is_disabled":false,"rental_uris":{"android":"levelo://app?vid=26c3156d-8d38-4b11-92b6-f3f49ed4bf9b","ios":"levelo://app?vid=26c3156d-8d38-4b11-92b6-f3f49ed4bf9b"},"vehicle_type_id":"4","last_reported":1742317744,"current_range_meters":15200,"station_id":"","pricing_plan_id":"cebpf4jnsgd1na2vs0mg"},{"bike_id":"1187290c-9977-4a2d-bc4b-463330005c0f","system_id":"levelo_inurba_marseille","lat":43.28274,"lon":5.35059,"is_reserved":false,"is_disabled":false,"rental_uris":{"android":"levelo://app?vid=1187290c-9977-4a2d-bc4b-463330005c0f","ios":"levelo://app?vid=1187290c-9977-4a2d-bc4b-463330005c0f"},"vehicle_type_id":"4","last_reported":1742317744,"current_range_meters":15200,"station_id":"ce4bhbp2rcd13ifvqerg","pricing_plan_id":"cebpf4jnsgd1na2vs0mg"},{"bike_id":"8dd335a9-d646-4252-bd0b-ac0bca8d2ef3","system_id":"levelo_inurba_marseille","lat":43.32112,"lon":5.36769,"is_reserved":false,"is_disabled":false,"rental_uris":{"android":"levelo://app?vid=8dd335a9-d646-4252-bd0b-ac0bca8d2ef3","ios":"levelo://app?vid=8dd335a9-d646-4252-bd0b-ac0bca8d2ef3"},"vehicle_type_id":"4","last_reported":1742317744,"current_range_meters":15200,"station_id":"ce4bhrh2rcd13ifvqhug","pricing_plan_id":"cebpf4jnsgd1na2vs0mg"},{"bike_id":"14040204-5465-4db0-ab0e-41e91dfa7e0d","system_id":"levelo_inurba_marseille","lat":43.3139,"lon":5.3744,"is_reserved":false,"is_disabled":false,"rental_uris":{"android":"levelo://app?vid=14040204-5465-4db0-ab0e-41e91dfa7e0d","ios":"levelo://app?vid=14040204-5465-4db0-ab0e-41e91dfa7e0d"},"vehicle_type_id":"4","last_reported":1742317744,"current_range_meters":16000,"station_id":"","pricing_plan_id":"cebpf4jnsgd1na2vs0mg"},{"bike_id":"6cc4e633-5234-4fa8-af4d-825123a66969","system_id":"levelo_inurba_marseille","lat":43.30123,"lon":5.3987,"is_reserved":false,"is_disabled":false,"rental_uris":{"android":"levelo://app?vid=6cc4e633-5234-4fa8-af4d-825123a66969","ios":"levelo://app?vid=6cc4e633-5234-4fa8-af4d-825123a66969"},"vehicle_type_id":"4","last_reported":1742317744,"current_range_meters":16000,"station_id":"ce4bh0h2rcd13ifvqd40","pricing_plan_id":"cebpf4jnsgd1na2vs0mg"},{"bike_id":"52fd6ce0-2375-4358-873f-c7f7ee93fc18","system_id":"levelo_inurba_marseille","lat":43.2931,"lon":5.37188,"is_reserved":false,"is_disabled":false,"rental_uris":{"android":"levelo://app?vid=52fd6ce0-2375-4358-873f-c7f7ee93fc18","ios":"levelo://app?vid=52fd6ce0-2375-4358-873f-c7f7ee93fc18"},"vehicle_type_id":"4","last_reported":1742317744,"current_range_meters":16000,"station_id":"ce4bgh92rcd13ifvqb40","pricing_plan_id":"cebpf4jnsgd1na2vs0mg"},{"bike_id":"070755ad-56f6-4279-b47a-b08adcb30ed7","system_id":"levelo_inurba_marseille","lat":43.26197,"lon":5.37453,"is_reserved":false,"is_disabled":false,"rental_uris":{"android":"levelo://app?vid=070755ad-56f6-4279-b47a-b08adcb30ed7","ios":"levelo://app?vid=070755ad-56f6-4279-b47a-b08adcb30ed7"},"vehicle_type_id":"4","last_reported":1742317744,"current_range_meters":16000,"station_id":"ce4bhgp2rcd13ifvqfc0","pricing_plan_id":"cebpf4jnsgd1na2vs0mg"},{"bike_id":"3d3f34ac-4b6b-43ac-807a-4f142193ce18","system_id":"levelo_inurba_marseille","lat":43.27569,"lon":5.38453,"is_reserved":false,"is_disabled":false,"rental_uris":{"android":"levelo://app?vid=3d3f34ac-4b6b-43ac-807a-4f142193ce18","ios":"levelo://app?vid=3d3f34ac-4b6b-43ac-807a-4f142193ce18"},"vehicle_type_id":"4","last_reported":1742317744,"current_range_meters":15200,"station_id":"ce4bhh92rcd13ifvqfi0","pricing_plan_id":"cebpf4jnsgd1na2vs0mg"},{"bike_id":"35a79951-26ca-49e1-9b31-0544bec3dd2a","system_id":"levelo_inurba_marseille","lat":43.31236,"lon":5.37107,"is_reserved":false,"is_disabled":false,"rental_uris":{"android":"levelo://app?vid=35a79951-26ca-49e1-9b31-0544bec3dd2a","ios":"levelo://app?vid=35a79951-26ca-49e1-9b31-0544bec3dd2a"},"vehicle_type_id":"4","last_reported":1742317744,"current_range_meters":16000,"station_id":"","pricing_plan_id":"cebpf4jnsgd1na2vs0mg"},{"bike_id":"4430f9ca-9b33-4bd3-b4b7-40f0419981c1","system_id":"levelo_inurba_marseille","lat":43.27824,"lon":5.4074,"is_reserved":false,"is_disabled":false,"rental_uris":{"android":"levelo://app?vid=4430f9ca-9b33-4bd3-b4b7-40f0419981c1","ios":"levelo://app?vid=4430f9ca-9b33-4bd3-b4b7-40f0419981c1"},"vehicle_type_id":"4","last_reported":1742317744,"current_range_meters":16000,"station_id":"ce4bhnh2rcd13ifvqgtg","pricing_plan_id":"cebpf4jnsgd1na2vs0mg"},{"bike_id":"e81bd458-3780-4d28-8fda-da33a1afffed","system_id":"levelo_inurba_marseille","lat":43.28275,"lon":5.35056,"is_reserved":false,"is_disabled":false,"rental_uris":{"android":"levelo://app?vid=e81bd458-3780-4d28-8fda-da33a1afffed","ios":"levelo://app?vid=e81bd458-3780-4d28-8fda-da33a1afffed"},"vehicle_type_id":"4","last_reported":1742317744,"current_range_meters":16000,"station_id":"ce4bhbp2rcd13ifvqerg","pricing_plan_id":"cebpf4jnsgd1na2vs0mg"},{"bike_id":"079a4904-eaed-4a1b-93ea-d6ccfe81b7a5","system_id":"levelo_inurba_marseille","lat":43.28093,"lon":5.39679,"is_reserved":false,"is_disabled":false,"rental_uris":{"android":"levelo://app?vid=079a4904-eaed-4a1b-93ea-d6ccfe81b7a5","ios":"levelo://app?vid=079a4904-eaed-4a1b-93ea-d6ccfe81b7a5"},"vehicle_type_id":"4","last_reported":1742317744,"current_range_meters":16000,"station_id":"ce4bho12rcd13ifvqh2g","pricing_plan_id":"cebpf4jnsgd1na2vs0mg"},{"bike_id":"4a529a04-a02c-489b-b187-392d4992e8e1","system_id":"levelo_inurba_marseille","lat":43.26814,"lon":5.40282,"is_reserved":false,"is_disabled":false,"rental_uris":{"android":"levelo://app?vid=4a529a04-a02c-489b-b187-392d4992e8e1","ios":"levelo://app?vid=4a529a04-a02c-489b-b187-392d4992e8e1"},"vehicle_type_id":"4","last_reported":1742317744,"current_range_meters":16000,"station_id":"ce501612rcd8frsf0b60","pricing_plan_id":"cebpf4jnsgd1na2vs0mg"},{"bike_id":"7d249c39-24d1-4aed-bedb-5a54a93b6f3c","system_id":"levelo_inurba_marseille","lat":43.28705,"lon":5.37388,"is_reserved":false,"is_disabled":false,"rental_uris":{"android":"levelo://app?vid=7d249c39-24d1-4aed-bedb-5a54a93b6f3c","ios":"levelo://app?vid=7d249c39-24d1-4aed-bedb-5a54a93b6f3c"},"vehicle_type_id":"4","last_reported":1742317744,"current_range_meters":16000,"station_id":"ce4bh3p2rcd13ifvqdq0","pricing_plan_id":"cebpf4jnsgd1na2vs0mg"},{"bike_id":"55e8f23e-819a-44d1-a8ea-1af260788b3d","system_id":"levelo_inurba_marseille","lat":43.28845,"lon":5.35884,"is_reserved":false,"is_disabled":false,"rental_uris":{"android":"levelo://app?vid=55e8f23e-819a-44d1-a8ea-1af260788b3d","ios":"levelo://app?vid=55e8f23e-819a-44d1-a8ea-1af260788b3d"},"vehicle_type_id":"4","last_reported":1742317744,"current_range_meters":16400,"station_id":"ce4bhb12rcd13ifvqem0","pricing_plan_id":"cebpf4jnsgd1na2vs0mg"},{"bike_id":"7df0e4a6-81c2-41b7-add0-217f1aa2912e","system_id":"levelo_inurba_marseille","lat":43.2987,"lon":5.39729,"is_reserved":false,"is_disabled":false,"rental_uris":{"android":"levelo://app?vid=7df0e4a6-81c2-41b7-add0-217f1aa2912e","ios":"levelo://app?vid=7df0e4a6-81c2-41b7-add0-217f1aa2912e"},"vehicle_type_id":"4","last_reported":1742317744,"current_range_meters":16400,"station_id":"ce4bh0h2rcd13ifvqd50","pricing_plan_id":"cebpf4jnsgd1na2vs0mg"},{"bike_id":"0d29bf77-f4d6-4e9e-869a-61fb7ae61c72","system_id":"levelo_inurba_marseille","lat":43.30804,"lon":5.43529,"is_reserved":false,"is_disabled":false,"rental_uris":{"android":"levelo://app?vid=0d29bf77-f4d6-4e9e-869a-61fb7ae61c72","ios":"levelo://app?vid=0d29bf77-f4d6-4e9e-869a-61fb7ae61c72"},"vehicle_type_id":"4","last_reported":1742317744,"current_range_meters":16000,"station_id":"ce4bhph2rcd13ifvqheg","pricing_plan_id":"cebpf4jnsgd1na2vs0mg"},{"bike_id":"c906f81a-5191-4941-9abb-3d53b5a6404b","system_id":"levelo_inurba_marseille","lat":43.30126,"lon":5.39855,"is_reserved":false,"is_disabled":false,"rental_uris":{"android":"levelo://app?vid=c906f81a-5191-4941-9abb-3d53b5a6404b","ios":"levelo://app?vid=c906f81a-5191-4941-9abb-3d53b5a6404b"},"vehicle_type_id":"4","last_reported":1742317744,"current_range_meters":16400,"station_id":"ce4bh0h2rcd13ifvqd40","pricing_plan_id":"cebpf4jnsgd1na2vs0mg"},{"bike_id":"948d306b-42e0-4ba6-93a8-a10bb3eef8e3","system_id":"levelo_inurba_marseille","lat":43.26261,"lon":5.40478,"is_reserved":false,"is_disabled":false,"rental_uris":{"android":"levelo://app?vid=948d306b-42e0-4ba6-93a8-a10bb3eef8e3","ios":"levelo://app?vid=948d306b-42e0-4ba6-93a8-a10bb3eef8e3"},"vehicle_type_id":"4","last_reported":1742317744,"current_range_meters":16400,"station_id":"ce4bhmh2rcd13ifvqgmg","pricing_plan_id":"cebpf4jnsgd1na2vs0mg"},{"bike_id":"4cc9b1ef-84db-4f89-ae15-b459717d80ae","system_id":"levelo_inurba_marseille","lat":43.32805,"lon":5.39176,"is_reserved":false,"is_disabled":false,"rental_uris":{"android":"levelo://app?vid=4cc9b1ef-84db-4f89-ae15-b459717d80ae","ios":"levelo://app?vid=4cc9b1ef-84db-4f89-ae15-b459717d80ae"},"vehicle_type_id":"4","last_reported":1742317744,"current_range_meters":16400,"station_id":"","pricing_plan_id":"cebpf4jnsgd1na2vs0mg"},{"bike_id":"282501fa-b8c1-4280-bdaf-327c67bd3e01","system_id":"levelo_inurba_marseille","lat":43.30805,"lon":5.43531,"is_reserved":false,"is_disabled":false,"rental_uris":{"android":"levelo://app?vid=282501fa-b8c1-4280-bdaf-327c67bd3e01","ios":"levelo://app?vid=282501fa-b8c1-4280-bdaf-327c67bd3e01"},"vehicle_type_id":"4","last_reported":1742317744,"current_range_meters":16400,"station_id":"ce4bhph2rcd13ifvqheg","pricing_plan_id":"cebpf4jnsgd1na2vs0mg"},{"bike_id":"0facce62-ec8a-411a-a1e6-5d69c47fc333","system_id":"levelo_inurba_marseille","lat":43.3045,"lon":5.36717,"is_reserved":false,"is_disabled":false,"rental_uris":{"android":"levelo://app?vid=0facce62-ec8a-411a-a1e6-5d69c47fc333","ios":"levelo://app?vid=0facce62-ec8a-411a-a1e6-5d69c47fc333"},"vehicle_type_id":"4","last_reported":1742317744,"current_range_meters":16400,"station_id":"","pricing_plan_id":"cebpf4jnsgd1na2vs0mg"},{"bike_id":"c2d5a123-d09a-4b21-a2ef-a198ad54bfc2","system_id":"levelo_inurba_marseille","lat":43.23062,"lon":5.35496,"is_reserved":false,"is_disabled":false,"rental_uris":{"android":"levelo://app?vid=c2d5a123-d09a-4b21-a2ef-a198ad54bfc2","ios":"levelo://app?vid=c2d5a123-d09a-4b21-a2ef-a198ad54bfc2"},"vehicle_type_id":"4","last_reported":1742317744,"current_range_meters":16800,"station_id":"cpo3342slgdg3j2ifvpg","pricing_plan_id":"cebpf4jnsgd1na2vs0mg"},{"bike_id":"5cb5d24f-7715-45ca-995c-c61dcec20f4f","system_id":"levelo_inurba_marseille","lat":43.27945,"lon":5.41042,"is_reserved":false,"is_disabled":false,"rental_uris":{"android":"levelo://app?vid=5cb5d24f-7715-45ca-995c-c61dcec20f4f","ios":"levelo://app?vid=5cb5d24f-7715-45ca-995c-c61dcec20f4f"},"vehicle_type_id":"4","last_reported":1742317744,"current_range_meters":16800,"station_id":"ce4bhnp2rcd13ifvqh0g","pricing_plan_id":"cebpf4jnsgd1na2vs0mg"},{"bike_id":"b0d2fd39-c5b7-4eb0-bbb9-af7d841ce0e3","system_id":"levelo_inurba_marseille","lat":43.24166,"lon":5.36403,"is_reserved":false,"is_disabled":true,"rental_uris":{"android":"levelo://app?vid=b0d2fd39-c5b7-4eb0-bbb9-af7d841ce0e3","ios":"levelo://app?vid=b0d2fd39-c5b7-4eb0-bbb9-af7d841ce0e3"},"vehicle_type_id":"4","last_reported":1742317744,"current_range_meters":16800,"station_id":"cpo36qri1sfpv3e86is0","pricing_plan_id":"cebpf4jnsgd1na2vs0mg"},{"bike_id":"308d9482-2ea5-474f-a039-beb909d1aca5","system_id":"levelo_inurba_marseille","lat":43.27952,"lon":5.4104,"is_reserved":false,"is_disabled":true,"rental_uris":{"android":"levelo://app?vid=308d9482-2ea5-474f-a039-beb909d1aca5","ios":"levelo://app?vid=308d9482-2ea5-474f-a039-beb909d1aca5"},"vehicle_type_id":"4","last_reported":1742317744,"current_range_meters":16800,"station_id":"ce4bhnp2rcd13ifvqh0g","pricing_plan_id":"cebpf4jnsgd1na2vs0mg"},{"bike_id":"181fa231-4918-4dd5-85b1-e6dcc1ae17fb","system_id":"levelo_inurba_marseille","lat":43.29533,"lon":5.38537,"is_reserved":false,"is_disabled":false,"rental_uris":{"android":"levelo://app?vid=181fa231-4918-4dd5-85b1-e6dcc1ae17fb","ios":"levelo://app?vid=181fa231-4918-4dd5-85b1-e6dcc1ae17fb"},"vehicle_type_id":"4","last_reported":1742317744,"current_range_meters":16800,"station_id":"ce4bgih2rcd13ifvqba0","pricing_plan_id":"cebpf4jnsgd1na2vs0mg"},{"bike_id":"94fb62d9-0935-43a6-a740-885d700d8f37","system_id":"levelo_inurba_marseille","lat":43.28666,"lon":5.36354,"is_reserved":false,"is_disabled":false,"rental_uris":{"android":"levelo://app?vid=94fb62d9-0935-43a6-a740-885d700d8f37","ios":"levelo://app?vid=94fb62d9-0935-43a6-a740-885d700d8f37"},"vehicle_type_id":"4","last_reported":1742317744,"current_range_meters":16800,"station_id":"ce4bhah2rcd13ifvqej0","pricing_plan_id":"cebpf4jnsgd1na2vs0mg"},{"bike_id":"41f5c78d-667d-49d6-a5df-78acca23ffe8","system_id":"levelo_inurba_marseille","lat":43.29188,"lon":5.35815,"is_reserved":false,"is_disabled":false,"rental_uris":{"android":"levelo://app?vid=41f5c78d-667d-49d6-a5df-78acca23ffe8","ios":"levelo://app?vid=41f5c78d-667d-49d6-a5df-78acca23ffe8"},"vehicle_type_id":"4","last_reported":1742317744,"current_range_meters":16800,"station_id":"ce4bhb12rcd13ifvqel0","pricing_plan_id":"cebpf4jnsgd1na2vs0mg"},{"bike_id":"b74ef7b6-57d6-49f5-8805-22424fb11fec","system_id":"levelo_inurba_marseille","lat":43.28102,"lon":5.37834,"is_reserved":false,"is_disabled":false,"rental_uris":{"android":"levelo://app?vid=b74ef7b6-57d6-49f5-8805-22424fb11fec","ios":"levelo://app?vid=b74ef7b6-57d6-49f5-8805-22424fb11fec"},"vehicle_type_id":"4","last_reported":1742317744,"current_range_meters":16800,"station_id":"ce4bha12rcd13ifvqee0","pricing_plan_id":"cebpf4jnsgd1na2vs0mg"},{"bike_id":"60d1cd73-a2fe-4cab-b6b0-64769b16801e","system_id":"levelo_inurba_marseille","lat":43.29003,"lon":5.35607,"is_reserved":false,"is_disabled":false,"rental_uris":{"android":"levelo://app?vid=60d1cd73-a2fe-4cab-b6b0-64769b16801e","ios":"levelo://app?vid=60d1cd73-a2fe-4cab-b6b0-64769b16801e"},"vehicle_type_id":"4","last_reported":1742317744,"current_range_meters":17200,"station_id":"ce4bhb92rcd13ifvqen0","pricing_plan_id":"cebpf4jnsgd1na2vs0mg"},{"bike_id":"0331b5aa-ec16-48fd-8d0a-72b186e1c92d","system_id":"levelo_inurba_marseille","lat":43.29966,"lon":5.38491,"is_reserved":false,"is_disabled":false,"rental_uris":{"android":"levelo://app?vid=0331b5aa-ec16-48fd-8d0a-72b186e1c92d","ios":"levelo://app?vid=0331b5aa-ec16-48fd-8d0a-72b186e1c92d"},"vehicle_type_id":"4","last_reported":1742317744,"current_range_meters":17200,"station_id":"ce4bgj92rcd13ifvqbd0","pricing_plan_id":"cebpf4jnsgd1na2vs0mg"},{"bike_id":"e9b2380b-4f38-4985-af6d-ae085635dbc8","system_id":"levelo_inurba_marseille","lat":43.2318,"lon":5.39984,"is_reserved":false,"is_disabled":false,"rental_uris":{"android":"levelo://app?vid=e9b2380b-4f38-4985-af6d-ae085635dbc8","ios":"levelo://app?vid=e9b2380b-4f38-4985-af6d-ae085635dbc8"},"vehicle_type_id":"4","last_reported":1742317744,"current_range_meters":17200,"station_id":"ce4bhn12rcd13ifvqgqg","pricing_plan_id":"cebpf4jnsgd1na2vs0mg"},{"bike_id":"c956f6d8-2c15-448e-b773-af7fda1bb067","system_id":"levelo_inurba_marseille","lat":43.28608,"lon":5.3707,"is_reserved":false,"is_disabled":false,"rental_uris":{"android":"levelo://app?vid=c956f6d8-2c15-448e-b773-af7fda1bb067","ios":"levelo://app?vid=c956f6d8-2c15-448e-b773-af7fda1bb067"},"vehicle_type_id":"4","last_reported":1742317744,"current_range_meters":17200,"station_id":"ce4bht12rcd13ifvqi60","pricing_plan_id":"cebpf4jnsgd1na2vs0mg"},{"bike_id":"06917796-3f32-4db5-99ab-a3f0745ee722","system_id":"levelo_inurba_marseille","lat":43.28271,"lon":5.35071,"is_reserved":false,"is_disabled":false,"rental_uris":{"android":"levelo://app?vid=06917796-3f32-4db5-99ab-a3f0745ee722","ios":"levelo://app?vid=06917796-3f32-4db5-99ab-a3f0745ee722"},"vehicle_type_id":"4","last_reported":1742317744,"current_range_meters":17200,"station_id":"ce4bhbp2rcd13ifvqerg","pricing_plan_id":"cebpf4jnsgd1na2vs0mg"},{"bike_id":"9d26c008-8ec1-4269-9cd2-f45774f03ccb","system_id":"levelo_inurba_marseille","lat":43.27934,"lon":5.3793,"is_reserved":false,"is_disabled":false,"rental_uris":{"android":"levelo://app?vid=9d26c008-8ec1-4269-9cd2-f45774f03ccb","ios":"levelo://app?vid=9d26c008-8ec1-4269-9cd2-f45774f03ccb"},"vehicle_type_id":"4","last_reported":1742317744,"current_range_meters":17200,"station_id":"","pricing_plan_id":"cebpf4jnsgd1na2vs0mg"},{"bike_id":"8e93be54-21ff-4bc7-a9f4-0ba1be0b6598","system_id":"levelo_inurba_marseille","lat":43.28457,"lon":5.35883,"is_reserved":false,"is_disabled":false,"rental_uris":{"android":"levelo://app?vid=8e93be54-21ff-4bc7-a9f4-0ba1be0b6598","ios":"levelo://app?vid=8e93be54-21ff-4bc7-a9f4-0ba1be0b6598"},"vehicle_type_id":"4","last_reported":1742317744,"current_range_meters":17200,"station_id":"ce4bhah2rcd13ifvqei0","pricing_plan_id":"cebpf4jnsgd1na2vs0mg"},{"bike_id":"2543f07c-384d-4d26-b96b-bdb27c2c83b4","system_id":"levelo_inurba_marseille","lat":43.27897,"lon":5.38007,"is_reserved":false,"is_disabled":false,"rental_uris":{"android":"levelo://app?vid=2543f07c-384d-4d26-b96b-bdb27c2c83b4","ios":"levelo://app?vid=2543f07c-384d-4d26-b96b-bdb27c2c83b4"},"vehicle_type_id":"4","last_reported":1742317744,"current_range_meters":17600,"station_id":"ce4bhf92rcd13ifvqf50","pricing_plan_id":"cebpf4jnsgd1na2vs0mg"},{"bike_id":"ec320371-942f-4c0e-8a7a-4cd57fb60b79","system_id":"levelo_inurba_marseille","lat":43.29037,"lon":5.38655,"is_reserved":false,"is_disabled":false,"rental_uris":{"android":"levelo://app?vid=ec320371-942f-4c0e-8a7a-4cd57fb60b79","ios":"levelo://app?vid=ec320371-942f-4c0e-8a7a-4cd57fb60b79"},