{"last_updated":1724612856,"ttl":30,"version":"2.2","data":{"bikes":[{"bike_id":"199e5702-d53a-49f8-a2df-d58f33f7444c","system_id":"levelo_inurba_marseille","lat":43.31481,"lon":5.37308,"is_reserved":false,"is_disabled":false,"rental_uris":{"android":"levelo://app?vid=199e5702-d53a-49f8-a2df-d58f33f7444c","ios":"levelo://app?vid=199e5702-d53a-49f8-a2df-d58f33f7444c"},"vehicle_type_id":"4","last_reported":1724612856,"current_range_meters":0,"station_id":"ce4bgt12rcd13ifvqcd0","pricing_plan_id":"cebpf4jnsgd1na2vs0mg"},{"bike_id":"99c1aff6-4430-4efa-8e3e-ac868d89f8f9","system_id":"levelo_inurba_marseille","lat":43.314811,"lon":5.373103,"is_reserved":false,"is_disabled":false,"rental_uris":{"android":"levelo://app?vid=99c1aff6-4430-4efa-8e3e-ac868d89f8f9","ios":"levelo://app?vid=99c1aff6-4430-4efa-8e3e-ac868d89f8f9"},"vehicle_type_id":"4","last_reported":1724612856,"current_range_meters":26800,"station_id":"ce4bgt12rcd13ifvqcd0","pricing_plan_id":"cebpf4jnsgd1na2vs0mg"},{"bike_id":"cc621f22-0226-40b4-8a8d-0506d06749e3","system_id":"levelo_inurba_marseille","lat":43.30143,"lon":5.37413,"is_reserved":false,"is_disabled":false,"rental_uris":{"android":"levelo://app?vid=cc621f22-0226-40b4-8a8d-0506d06749e3","ios":"levelo://app?vid=cc621f22-0226-40b4-8a8d-0506d06749e3"},"vehicle_type_id":"4","last_reported":1724612856,"current_range_meters":29600,"station_id":"ce4bgs92rcd13ifvqcc0","pricing_plan_id":"cebpf4jnsgd1na2vs0mg"},{"bike_id":"65157917-8546-48ba-a9d6-0fbc3148685b","system_id":"levelo_inurba_marseille","lat":43.305712,"lon":5.365641,"is_reserved":false,"is_disabled":false,"rental_uris":{"android":"levelo://app?vid=65157917-8546-48ba-a9d6-0fbc3148685b","ios":"levelo://app?vid=65157917-8546-48ba-a9d6-0fbc3148685b"},"vehicle_type_id":"4","last_reported":1724612856,"current_range_meters":3600,"station_id":"ce4bgs12rcd13ifvqcag","pricing_plan_id":"cebpf4jnsgd1na2vs0mg"},{"bike_id":"29056adc-9189-4ef7-a839-ca153f3edc09","system_id":"levelo_inurba_marseille","lat":43.305712,"lon":5.365641,"is_reserved":false,"is_disabled":false,"rental_uris":{"android":"levelo://app?vid=29056adc-9189-4ef7-a839-ca153f3edc09","ios":"levelo://app?vid=29056adc-9189-4ef7-a839-ca153f3edc09"},"vehicle_type_id":"4","last_reported":1724612856,"current_range_meters":18000,"station_id":"ce4bgs12rcd13ifvqcag","pricing_plan_id":"cebpf4jnsgd1na2vs0mg"},{"bike_id":"a6e8cf9c-e94f-4204-8da5-bb79a901f9ee","system_id":"levelo_inurba_marseille","lat":43.305714,"lon":5.365633,"is_reserved":false,"is_disabled":false,"rental_uris":{"android":"levelo://app?vid=a6e8cf9c-e94f-4204-8da5-bb79a901f9ee","ios":"levelo://app?vid=a6e8cf9c-e94f-4204-8da5-bb79a901f9ee"},"vehicle_type_id":"4","last_reported":1724612856,"current_range_meters":1600,"station_id":"ce4bgs12rcd13ifvqcag","pricing_plan_id":"cebpf4jnsgd1na2vs0mg"},{"bike_id":"b022a158-086f-4943-ba9f-15b8a133ee0b","system_id":"levelo_inurba_marseille","lat":43.30537,"lon":5.367345,"is_reserved":false,"is_disabled":false,"rental_uris":{"android":"levelo://app?vid=b022a158-086f-4943-ba9f-15b8a133ee0b","ios":"levelo://app?vid=b022a158-086f-4943-ba9f-15b8a133ee0b"},"vehicle_type_id":"4","last_reported":1724612856,"current_range_meters":0,"station_id":"ce4bgrp2rcd13ifvqc9g","pricing_plan_id":"cebpf4jnsgd1na2vs0mg"},{"bike_id":"128f6f9f-a3a4-42fc-a259-21cb5c51ab1d","system_id":"levelo_inurba_marseille","lat":43.305706,"lon":5.365654,"is_reserved":false,"is_disabled":false,"rental_uris":{"android":"levelo://app?vid=128f6f9f-a3a4-42fc-a259-21cb5c51ab1d","ios":"levelo://app?vid=128f6f9f-a3a4-42fc-a259-21cb5c51ab1d"},"vehicle_type_id":"4","last_reported":1724612856,"current_range_meters":16400,"station_id":"ce4bgs12rcd13ifvqcag","pricing_plan_id":"cebpf4jnsgd1na2vs0mg"},{"bike_id":"726c72c0-fa70-4cb2-9953-01862c23e20a","system_id":"levelo_inurba_marseille","lat":43.305714,"lon":5.365633,"is_reserved":false,"is_disabled":false,"rental_uris":{"android":"levelo://app?vid=726c72c0-fa70-4cb2-9953-01862c23e20a","ios":"levelo://app?vid=726c72c0-fa70-4cb2-9953-01862c23e20a"},"vehicle_type_id":"4","last_reported":1724612856,"current_range_meters":4400,"station_id":"ce4bgs12rcd13ifvqcag","pricing_plan_id":"cebpf4jnsgd1na2vs0mg"},{"bike_id":"09f30522-37d6-4568-8f14-b327477a0d95","system_id":"levelo_inurba_marseille","lat":43.30537,"lon":5.367345,"is_reserved":false,"is_disabled":false,"rental_uris":{"android":"levelo://app?vid=09f30522-37d6-4568-8f14-b327477a0d95","ios":"levelo://app?vid=09f30522-37d6-4568-8f14-b327477a0d95"},"vehicle_type_id":"4","last_reported":1724612856,"current_range_meters":1200,"station_id":"ce4bgrp2rcd13ifvqc9g","pricing_plan_id":"cebpf4jnsgd1na2vs0mg"},{"bike_id":"fc48e35e-7866-4075-a8db-d2da87298a9f","system_id":"levelo_inurba_marseille","lat":43.305706,"lon":5.365654,"is_reserved":false,"is_disabled":false,"rental_uris":{"android":"levelo://app?vid=fc48e35e-7866-4075-a8db-d2da87298a9f","ios":"levelo://app?vid=fc48e35e-7866-4075-a8db-d2da87298a9f"},"vehicle_type_id":"4","last_reported":1724612856,"current_range_meters":12000,"station_id":"ce4bgs12rcd13ifvqcag","pricing_plan_id":"cebpf4jnsgd1na2vs0mg"},{"bike_id":"92fcf943-baac-453b-bd80-02ad5b3bf391","system_id":"levelo_inurba_marseille","lat":43.305706,"lon":5.365654,"is_reserved":false,"is_disabled":false,"rental_uris":{"android":"levelo://app?vid=92fcf943-baac-453b-bd80-02ad5b3bf391","ios":"levelo://app?vid=92fcf943-baac-453b-bd80-02ad5b3bf391"},"vehicle_type_id":"4","last_reported":1724612856,"current_range_meters":20800,"station_id":"ce4bgs12rcd13ifvqcag","pricing_plan_id":"cebpf4jnsgd1na2vs0mg"},{"bike_id":"39c64957-f84e-4b24-8807-2f6f99988974","system_id":"levelo_inurba_marseille","lat":43.311199,"lon":5.37781,"is_reserved":false,"is_disabled":false,"rental_uris":{"android":"levelo://app?vid=39c64957-f84e-4b24-8807-2f6f99988974","ios":"levelo://app?vid=39c64957-f84e-4b24-8807-2f6f99988974"},"vehicle_type_id":"4","last_reported":1724612856,"current_range_meters":0,"station_id":"ce4bgt92rcd13ifvqcg0","pricing_plan_id":"cebpf4jnsgd1na2vs0mg"},{"bike_id":"0695ccd6-dee0-41e3-9ee2-02e9af3e26f6","system_id":"levelo_inurba_marseille","lat":43.324771,"lon":5.36557,"is_reserved":false,"is_disabled":false,"rental_uris":{"android":"levelo://app?vid=0695ccd6-dee0-41e3-9ee2-02e9af3e26f6","ios":"levelo://app?vid=0695ccd6-dee0-41e3-9ee2-02e9af3e26f6"},"vehicle_type_id":"4","last_reported":1724612856,"current_range_meters":5600,"station_id":"ce4bhs12rcd13ifvqhvg","pricing_plan_id":"cebpf4jnsgd1na2vs0mg"},{"bike_id":"f8866dbd-8e34-4b7a-9157-45f59ffcda26","system_id":"levelo_inurba_marseille","lat":43.279742,"lon":5.38744,"is_reserved":false,"is_disabled":false,"rental_uris":{"android":"levelo://app?vid=f8866dbd-8e34-4b7a-9157-45f59ffcda26","ios":"levelo://app?vid=f8866dbd-8e34-4b7a-9157-45f59ffcda26"},"vehicle_type_id":"4","last_reported":1724612856,"current_range_meters":22400,"station_id":"ce4bhg12rcd13ifvqf80","pricing_plan_id":"cebpf4jnsgd1na2vs0mg"},{"bike_id":"23c4fc5a-d904-4d9f-b381-01fa3114ce05","system_id":"levelo_inurba_marseille","lat":43.315289,"lon":5.380349,"is_reserved":false,"is_disabled":false,"rental_uris":{"android":"levelo://app?vid=23c4fc5a-d904-4d9f-b381-01fa3114ce05","ios":"levelo://app?vid=23c4fc5a-d904-4d9f-b381-01fa3114ce05"},"vehicle_type_id":"4","last_reported":1724612856,"current_range_meters":14400,"station_id":"ce4bhsp2rcd13ifvqi50","pricing_plan_id":"cebpf4jnsgd1na2vs0mg"},{"bike_id":"82c2e719-0850-4cd6-b4b1-3d45b3c20b5d","system_id":"levelo_inurba_marseille","lat":43.31524,"lon":5.38037,"is_reserved":false,"is_disabled":false,"rental_uris":{"android":"levelo://app?vid=82c2e719-0850-4cd6-b4b1-3d45b3c20b5d","ios":"levelo://app?vid=82c2e719-0850-4cd6-b4b1-3d45b3c20b5d"},"vehicle_type_id":"4","last_reported":1724612856,"current_range_meters":21600,"station_id":"ce4bhsp2rcd13ifvqi50","pricing_plan_id":"cebpf4jnsgd1na2vs0mg"},{"bike_id":"567fe943-9fa4-47c1-b456-a0ddb8a7faf6","system_id":"levelo_inurba_marseille","lat":43.31527,"lon":5.3804,"is_reserved":false,"is_disabled":false,"rental_uris":{"android":"levelo://app?vid=567fe943-9fa4-47c1-b456-a0ddb8a7faf6","ios":"levelo://app?vid=567fe943-9fa4-47c1-b456-a0ddb8a7faf6"},"vehicle_type_id":"4","last_reported":1724612856,"current_range_meters":21600,"station_id":"ce4bhsp2rcd13ifvqi50","pricing_plan_id":"cebpf4jnsgd1na2vs0mg"},{"bike_id":"d22fde8f-61a8-4ba7-aabf-c5840fc7206c","system_id":"levelo_inurba_marseille","lat":43.315257,"lon":5.380463,"is_reserved":false,"is_disabled":false,"rental_uris":{"android":"levelo://app?vid=d22fde8f-61a8-4ba7-aabf-c5840fc7206c","ios":"levelo://app?vid=d22fde8f-61a8-4ba7-aabf-c5840fc7206c"},"vehicle_type_id":"4","last_reported":1724612856,"current_range_meters":0,"station_id":"ce4bhsp2rcd13ifvqi50","pricing_plan_id":"cebpf4jnsgd1na2vs0mg"},{"bike_id":"df2c8160-75aa-4e57-b705-6e834ff32236","system_id":"levelo_inurba_marseille","lat":43.308012,"lon":5.381511,"is_reserved":false,"is_disabled":false,"rental_uris":{"android":"levelo://app?vid=df2c8160-75aa-4e57-b705-6e834ff32236","ios":"levelo://app?vid=df2c8160-75aa-4e57-b705-6e834ff32236"},"vehicle_type_id":"4","last_reported":1724612856,"current_range_meters":400,"station_id":"ce4bgt12rcd13ifvqce0","pricing_plan_id":"cebpf4jnsgd1na2vs0mg"},{"bike_id":"fed44e7d-a70f-4ac6-8fed-4e3ae2efb36e","system_id":"levelo_inurba_marseille","lat":43.304606,"lon":5.379026,"is_reserved":false,"is_disabled":false,"rental_uris":{"android":"levelo://app?vid=fed44e7d-a70f-4ac6-8fed-4e3ae2efb36e","ios":"levelo://app?vid=fed44e7d-a70f-4ac6-8fed-4e3ae2efb36e"},"vehicle_type_id":"4","last_reported":1724612856,"current_range_meters":4000,"station_id":"ce4bgup2rcd13ifvqcn0","pricing_plan_id":"cebpf4jnsgd1na2vs0mg"},{"bike_id":"d6a551e6-9641-42d5-be53-a905abbe0129","system_id":"levelo_inurba_marseille","lat":43.324771,"lon":5.36557,"is_reserved":false,"is_disabled":false,"rental_uris":{"android":"levelo://app?vid=d6a551e6-9641-42d5-be53-a905abbe0129","ios":"levelo://app?vid=d6a551e6-9641-42d5-be53-a905abbe0129"},"vehicle_type_id":"4","last_reported":1724612856,"current_range_meters":31600,"station_id":"ce4bhs12rcd13ifvqhvg","pricing_plan_id":"cebpf4jnsgd1na2vs0mg"},{"bike_id":"5a8894f7-2c45-45d9-9f4f-011823dc62c6","system_id":"levelo_inurba_marseille","lat":43.324771,"lon":5.36557,"is_reserved":false,"is_disabled":false,"rental_uris":{"android":"levelo://app?vid=5a8894f7-2c45-45d9-9f4f-011823dc62c6","ios":"levelo://app?vid=5a8894f7-2c45-45d9-9f4f-011823dc62c6"},"vehicle_type_id":"4","last_reported":1724612856,"current_range_meters":21600,"station_id":"ce4bhs12rcd13ifvqhvg","pricing_plan_id":"cebpf4jnsgd1na2vs0mg"},{"bike_id":"f74c7ab2-b71e-4c31-8284-4841f6584271","system_id":"levelo_inurba_marseille","lat":43.32483,"lon":5.365648,"is_reserved":false,"is_disabled":false,"rental_uris":{"android":"levelo://app?vid=f74c7ab2-b71e-4c31-8284-4841f6584271","ios":"levelo://app?vid=f74c7ab2-b71e-4c31-8284-4841f6584271"},"vehicle_type_id":"4","last_reported":1724612856,"current_range_meters":16000,"station_id":"ce4bhs12rcd13ifvqhvg","pricing_plan_id":"cebpf4jnsgd1na2vs0mg"},{"bike_id":"83d7180c-2f2f-4526-afd8-bf89c1839d1d","system_id":"levelo_inurba_marseille","lat":43.324838,"lon":5.365711,"is_reserved":false,"is_disabled":false,"rental_uris":{"android":"levelo://app?vid=83d7180c-2f2f-4526-afd8-bf89c1839d1d","ios":"levelo://app?vid=83d7180c-2f2f-4526-afd8-bf89c1839d1d"},"vehicle_type_id":"4","last_reported":1724612856,"current_range_meters":8400,"station_id":"ce4bhs12rcd13ifvqhvg","pricing_plan_id":"cebpf4jnsgd1na2vs0mg"},{"bike_id":"c30c57e5-e6a4-4301-8c1f-bb1d7a5e5a91","system_id":"levelo_inurba_marseille","lat":43.324852,"lon":5.365761,"is_reserved":false,"is_disabled":false,"rental_uris":{"android":"levelo://app?vid=c30c57e5-e6a4-4301-8c1f-bb1d7a5e5a91","ios":"levelo://app?vid=c30c57e5-e6a4-4301-8c1f-bb1d7a5e5a91"},"vehicle_type_id":"4","last_reported":1724612856,"current_range_meters":20800,"station_id":"ce4bhs12rcd13ifvqhvg","pricing_plan_id":"cebpf4jnsgd1na2vs0mg"},{"bike_id":"4b068ad2-1221-4476-9487-2b7eb5619d8a","system_id":"levelo_inurba_marseille","lat":43.31366,"lon":5.38364,"is_reserved":false,"is_disabled":false,"rental_uris":{"android":"levelo://app?vid=4b068ad2-1221-4476-9487-2b7eb5619d8a","ios":"levelo://app?vid=4b068ad2-1221-4476-9487-2b7eb5619d8a"},"vehicle_type_id":"4","last_reported":1724612856,"current_range_meters":0,"station_id":"","pricing_plan_id":"cebpf4jnsgd1na2vs0mg"},{"bike_id":"dbb96350-e5e8-4765-90c5-8f9f7ac28069","system_id":"levelo_inurba_marseille","lat":43.310804,"lon":5.38359,"is_reserved":false,"is_disabled":false,"rental_uris":{"android":"levelo://app?vid=dbb96350-e5e8-4765-90c5-8f9f7ac28069","ios":"levelo://app?vid=dbb96350-e5e8-4765-90c5-8f9f7ac28069"},"vehicle_type_id":"4","last_reported":1724612856,"current_range_meters":6000,"station_id":"ce4bgv92rcd13ifvqcr0","pricing_plan_id":"cebpf4jnsgd1na2vs0mg"},{"bike_id":"d7353e87-f889-4234-b1a2-19fd00cbd95d","system_id":"levelo_inurba_marseille","lat":43.310804,"lon":5.38359,"is_reserved":false,"is_disabled":false,"rental_uris":{"android":"levelo://app?vid=d7353e87-f889-4234-b1a2-19fd00cbd95d","ios":"levelo://app?vid=d7353e87-f889-4234-b1a2-19fd00cbd95d"},"vehicle_type_id":"4","last_reported":1724612856,"current_range_meters":26400,"station_id":"ce4bgv92rcd13ifvqcr0","pricing_plan_id":"cebpf4jnsgd1na2vs0mg"},{"bike_id":"f8a9ffc5-0d4c-4354-9cdd-df76e882db83","system_id":"levelo_inurba_marseille","lat":43.310804,"lon":5.38359,"is_reserved":false,"is_disabled":false,"rental_uris":{"android":"levelo://app?vid=f8a9ffc5-0d4c-4354-9cdd-df76e882db83","ios":"levelo://app?vid=f8a9ffc5-0d4c-4354-9cdd-df76e882db83"},"vehicle_type_id":"4","last_reported":1724612856,"current_range_meters":17200,"station_id":"ce4bgv92rcd13ifvqcr0","pricing_plan_id":"cebpf4jnsgd1na2vs0mg"},{"bike_id":"ca5f9304-5291-4a89-bd1b-f6d4596323a3","system_id":"levelo_inurba_marseille","lat":43.302784,"lon":5.377158,"is_reserved":false,"is_disabled":false,"rental_uris":{"android":"levelo://app?vid=ca5f9304-5291-4a89-bd1b-f6d4596323a3","ios":"levelo://app?vid=ca5f9304-5291-4a89-bd1b-f6d4596323a3"},"vehicle_type_id":"4","last_reported":1724612856,"current_range_meters":29600,"station_id":"ce4bguh2rcd13ifvqcj0","pricing_plan_id":"cebpf4jnsgd1na2vs0mg"},{"bike_id":"131793f3-fbbf-4595-a1da-8704ef00bb50","system_id":"levelo_inurba_marseille","lat":43.30143,"lon":5.37413,"is_reserved":false,"is_disabled":false,"rental_uris":{"android":"levelo://app?vid=131793f3-fbbf-4595-a1da-8704ef00bb50","ios":"levelo://app?vid=131793f3-fbbf-4595-a1da-8704ef00bb50"},"vehicle_type_id":"4","last_reported":1724612856,"current_range_meters":20400,"station_id":"ce4bgs92rcd13ifvqcc0","pricing_plan_id":"cebpf4jnsgd1na2vs0mg"},{"bike_id":"4e8b81e4-7510-4625-9327-f5ed104dba9f","system_id":"levelo_inurba_marseille","lat":43.30143,"lon":5.37413,"is_reserved":false,"is_disabled":false,"rental_uris":{"android":"levelo://app?vid=4e8b81e4-7510-4625-9327-f5ed104dba9f","ios":"levelo://app?vid=4e8b81e4-7510-4625-9327-f5ed104dba9f"},"vehicle_type_id":"4","last_reported":1724612856,"current_range_meters":21600,"station_id":"ce4bgs92rcd13ifvqcc0","pricing_plan_id":"cebpf4jnsgd1na2vs0mg"},{"bike_id":"0509c888-846b-4ef0-bea6-9b36817e7760","system_id":"levelo_inurba_marseille","lat":43.31965,"lon":5.3815,"is_reserved":false,"is_disabled":false,"rental_uris":{"android":"levelo://app?vid=0509c888-846b-4ef0-bea6-9b36817e7760","ios":"levelo://app?vid=0509c888-846b-4ef0-bea6-9b36817e7760"},"vehicle_type_id":"4","last_reported":1724612856,"current_range_meters":6400,"station_id":"ce4bhr12rcd13ifvqhpg","pricing_plan_id":"cebpf4jnsgd1na2vs0mg"},{"bike_id":"c14fc72b-70e8-4b8e-be15-ae7d121c90be","system_id":"levelo_inurba_marseille","lat":43.302784,"lon":5.377158,"is_reserved":false,"is_disabled":false,"rental_uris":{"android":"levelo://app?vid=c14fc72b-70e8-4b8e-be15-ae7d121c90be","ios":"levelo://app?vid=c14fc72b-70e8-4b8e-be15-ae7d121c90be"},"vehicle_type_id":"4","last_reported":1724612856,"current_range_meters":2000,"station_id":"ce4bguh2rcd13ifvqcj0","pricing_plan_id":"cebpf4jnsgd1na2vs0mg"},{"bike_id":"0e766717-db28-4b0b-833a-923c936ee174","system_id":"levelo_inurba_marseille","lat":43.30011,"lon":5.36401,"is_reserved":false,"is_disabled":false,"rental_uris":{"android":"levelo://app?vid=0e766717-db28-4b0b-833a-923c936ee174","ios":"levelo://app?vid=0e766717-db28-4b0b-833a-923c936ee174"},"vehicle_type_id":"4","last_reported":1724612856,"current_range_meters":10400,"station_id":"","pricing_plan_id":"cebpf4jnsgd1na2vs0mg"},{"bike_id":"5736ed4e-9dc7-4fa5-90a1-403587840cbd","system_id":"levelo_inurba_marseille","lat":43.319935,"lon":5.381699,"is_reserved":false,"is_disabled":false,"rental_uris":{"android":"levelo://app?vid=5736ed4e-9dc7-4fa5-90a1-403587840cbd","ios":"levelo://app?vid=5736ed4e-9dc7-4fa5-90a1-403587840cbd"},"vehicle_type_id":"4","last_reported":1724612856,"current_range_meters":25600,"station_id":"ce4bhr12rcd13ifvqhpg","pricing_plan_id":"cebpf4jnsgd1na2vs0mg"},{"bike_id":"585da6d7-cf3a-4419-85d1-36ed88740a5f","system_id":"levelo_inurba_marseille","lat":43.319935,"lon":5.381699,"is_reserved":false,"is_disabled":false,"rental_uris":{"android":"levelo://app?vid=585da6d7-cf3a-4419-85d1-36ed88740a5f","ios":"levelo://app?vid=585da6d7-cf3a-4419-85d1-36ed88740a5f"},"vehicle_type_id":"4","last_reported":1724612856,"current_range_meters":23200,"station_id":"ce4bhr12rcd13ifvqhpg","pricing_plan_id":"cebpf4jnsgd1na2vs0mg"},{"bike_id":"31c450a6-b323-48a1-bd67-283710f020ec","system_id":"levelo_inurba_marseille","lat":43.313571,"lon":5.384829,"is_reserved":false,"is_disabled":false,"rental_uris":{"android":"levelo://app?vid=31c450a6-b323-48a1-bd67-283710f020ec","ios":"levelo://app?vid=31c450a6-b323-48a1-bd67-283710f020ec"},"vehicle_type_id":"4","last_reported":1724612856,"current_range_meters":9600,"station_id":"ce4bgt92rcd13ifvqcf0","pricing_plan_id":"cebpf4jnsgd1na2vs0mg"},{"bike_id":"81e99243-3d22-4c28-b253-c83162903b25","system_id":"levelo_inurba_marseille","lat":43.313571,"lon":5.384829,"is_reserved":false,"is_disabled":false,"rental_uris":{"android":"levelo://app?vid=81e99243-3d22-4c28-b253-c83162903b25","ios":"levelo://app?vid=81e99243-3d22-4c28-b253-c83162903b25"},"vehicle_type_id":"4","last_reported":1724612856,"current_range_meters":3600,"station_id":"ce4bgt92rcd13ifvqcf0","pricing_plan_id":"cebpf4jnsgd1na2vs0mg"},{"bike_id":"4ddb7d25-c546-4247-b330-50730f25d047","system_id":"levelo_inurba_marseille","lat":43.313571,"lon":5.384829,"is_reserved":false,"is_disabled":false,"rental_uris":{"android":"levelo://app?vid=4ddb7d25-c546-4247-b330-50730f25d047","ios":"levelo://app?vid=4ddb7d25-c546-4247-b330-50730f25d047"},"vehicle_type_id":"4","last_reported":1724612856,"current_range_meters":18400,"station_id":"ce4bgt92rcd13ifvqcf0","pricing_plan_id":"cebpf4jnsgd1na2vs0mg"},{"bike_id":"81ac3ed2-4887-4c5c-93b1-0ff9dc4d98fc","system_id":"levelo_inurba_marseille","lat":43.313571,"lon":5.384829,"is_reserved":false,"is_disabled":false,"rental_uris":{"android":"levelo://app?vid=81ac3ed2-4887-4c5c-93b1-0ff9dc4d98fc","ios":"levelo://app?vid=81ac3ed2-4887-4c5c-93b1-0ff9dc4d98fc"},"vehicle_type_id":"4","last_reported":1724612856,"current_range_meters":3200,"station_id":"ce4bgt92rcd13ifvqcf0","pricing_plan_id":"cebpf4jnsgd1na2vs0mg"},{"bike_id":"820defe7-e862-46e2-acaa-f5030965a1fa","system_id":"levelo_inurba_marseille","lat":43.313571,"lon":5.384829,"is_reserved":false,"is_disabled":false,"rental_uris":{"android":"levelo://app?vid=820defe7-e862-46e2-acaa-f5030965a1fa","ios":"levelo://app?vid=820defe7-e862-46e2-acaa-f5030965a1fa"},"vehicle_type_id":"4","last_reported":1724612856,"current_range_meters":22800,"station_id":"ce4bgt92rcd13ifvqcf0","pricing_plan_id":"cebpf4jnsgd1na2vs0mg"},{"bike_id":"ac97c923-8746-4f19-a430-8c40b7d8ee2f","system_id":"levelo_inurba_marseille","lat":43.313571,"lon":5.384829,"is_reserved":false,"is_disabled":false,"rental_uris":{"android":"levelo://app?vid=ac97c923-8746-4f19-a430-8c40b7d8ee2f","ios":"levelo://app?vid=ac97c923-8746-4f19-a430-8c40b7d8ee2f"},"vehicle_type_id":"4","last_reported":1724612856,"current_range_meters":26800,"station_id":"ce4bgt92rcd13ifvqcf0","pricing_plan_id":"cebpf4jnsgd1na2vs0mg"},{"bike_id":"903ff698-c991-4673-9fc7-5bb6ce077b9e","system_id":"levelo_inurba_marseille","lat":43.29853,"lon":5.36295,"is_reserved":false,"is_disabled":false,"rental_uris":{"android":"levelo://app?vid=903ff698-c991-4673-9fc7-5bb6ce077b9e","ios":"levelo://app?vid=903ff698-c991-4673-9fc7-5bb6ce077b9e"},"vehicle_type_id":"4","last_reported":1724612856,"current_range_meters":22400,"station_id":"","pricing_plan_id":"cebpf4jnsgd1na2vs0mg"},{"bike_id":"aeccc666-c000-4bab-83a3-e81e6229d25d","system_id":"levelo_inurba_marseille","lat":43.298433,"lon":5.362774,"is_reserved":false,"is_disabled":false,"rental_uris":{"android":"levelo://app?vid=aeccc666-c000-4bab-83a3-e81e6229d25d","ios":"levelo://app?vid=aeccc666-c000-4bab-83a3-e81e6229d25d"},"vehicle_type_id":"4","last_reported":1724612856,"current_range_meters":20800,"station_id":"ce4bgpp2rcd13ifvqc3g","pricing_plan_id":"cebpf4jnsgd1na2vs0mg"},{"bike_id":"243346ef-da58-4eea-a51b-85d074a93c45","system_id":"levelo_inurba_marseille","lat":43.305364,"lon":5.384119,"is_reserved":false,"is_disabled":false,"rental_uris":{"android":"levelo://app?vid=243346ef-da58-4eea-a51b-85d074a93c45","ios":"levelo://app?vid=243346ef-da58-4eea-a51b-85d074a93c45"},"vehicle_type_id":"4","last_reported":1724612856,"current_range_meters":3600,"station_id":"ce4bgg92rcd13ifvqb30","pricing_plan_id":"cebpf4jnsgd1na2vs0mg"},{"bike_id":"7a87a4d1-e94a-44df-97eb-4c6dbeefee0b","system_id":"levelo_inurba_marseille","lat":43.311722,"lon":5.387247,"is_reserved":false,"is_disabled":false,"rental_uris":{"android":"levelo://app?vid=7a87a4d1-e94a-44df-97eb-4c6dbeefee0b","ios":"levelo://app?vid=7a87a4d1-e94a-44df-97eb-4c6dbeefee0b"},"vehicle_type_id":"4","last_reported":1724612856,"current_range_meters":27600,"station_id":"ce4bgv12rcd13ifvqcp0","pricing_plan_id":"cebpf4jnsgd1na2vs0mg"},{"bike_id":"9926d8fd-019c-46c2-9da9-fc004514f418","system_id":"levelo_inurba_marseille","lat":43.311722,"lon":5.387247,"is_reserved":false,"is_disabled":false,"rental_uris":{"android":"levelo://app?vid=9926d8fd-019c-46c2-9da9-fc004514f418","ios":"levelo://app?vid=9926d8fd-019c-46c2-9da9-fc004514f418"},"vehicle_type_id":"4","last_reported":1724612856,"current_range_meters":16400,"station_id":"ce4bgv12rcd13ifvqcp0","pricing_plan_id":"cebpf4jnsgd1na2vs0mg"},{"bike_id":"4d1c5e00-1756-43aa-9cbc-7642a7276358","system_id":"levelo_inurba_marseille","lat":43.299243,"lon":5.37481,"is_reserved":false,"is_disabled":false,"rental_uris":{"android":"levelo://app?vid=4d1c5e00-1756-43aa-9cbc-7642a7276358","ios":"levelo://app?vid=4d1c5e00-1756-43aa-9cbc-7642a7276358"},"vehicle_type_id":"4","last_reported":1724612856,"current_range_meters":17200,"station_id":"ce4bgjh2rcd13ifvqbg0","pricing_plan_id":"cebpf4jnsgd1na2vs0mg"},{"bike_id":"d8da5a26-a590-4574-9d73-d88f8c4b667d","system_id":"levelo_inurba_marseille","lat":43.299243,"lon":5.37481,"is_reserved":false,"is_disabled":false,"rental_uris":{"android":"levelo://app?vid=d8da5a26-a590-4574-9d73-d88f8c4b667d","ios":"levelo://app?vid=d8da5a26-a590-4574-9d73-d88f8c4b667d"},"vehicle_type_id":"4","last_reported":1724612856,"current_range_meters":22800,"station_id":"ce4bgjh2rcd13ifvqbg0","pricing_plan_id":"cebpf4jnsgd1na2vs0mg"},{"bike_id":"b8b52b5b-2a28-4e9c-b896-d226963e1a51","system_id":"levelo_inurba_marseille","lat":43.301417,"lon":5.3809,"is_reserved":false,"is_disabled":false,"rental_uris":{"android":"levelo://app?vid=b8b52b5b-2a28-4e9c-b896-d226963e1a51","ios":"levelo://app?vid=b8b52b5b-2a28-4e9c-b896-d226963e1a51"},"vehicle_type_id":"4","last_reported":1724612856,"current_range_meters":27200,"station_id":"ce4bgjp2rcd13ifvqbh0","pricing_plan_id":"cebpf4jnsgd1na2vs0mg"},{"bike_id":"1600b445-4c74-401c-8ded-fbe3246e677e","system_id":"levelo_inurba_marseille","lat":43.322914,"lon":5.38258,"is_reserved":false,"is_disabled":false,"rental_uris":{"android":"levelo://app?vid=1600b445-4c74-401c-8ded-fbe3246e677e","ios":"levelo://app?vid=1600b445-4c74-401c-8ded-fbe3246e677e"},"vehicle_type_id":"4","last_reported":1724612856,"current_range_meters":24400,"station_id":"ce4bhr12rcd13ifvqhqg","pricing_plan_id":"cebpf4jnsgd1na2vs0mg"},{"bike_id":"a19735c7-d458-458c-9347-50a9f6762dd4","system_id":"levelo_inurba_marseille","lat":43.29891,"lon":5.37589,"is_reserved":false,"is_disabled":false,"rental_uris":{"android":"levelo://app?vid=a19735c7-d458-458c-9347-50a9f6762dd4","ios":"levelo://app?vid=a19735c7-d458-458c-9347-50a9f6762dd4"},"vehicle_type_id":"4","last_reported":1724612856,"current_range_meters":4800,"station_id":"","pricing_plan_id":"cebpf4jnsgd1na2vs0mg"},{"bike_id":"43637faa-bc57-4af9-9031-ccf7137dafc6","system_id":"levelo_inurba_marseille","lat":43.322958,"lon":5.382622,"is_reserved":false,"is_disabled":false,"rental_uris":{"android":"levelo://app?vid=43637faa-bc57-4af9-9031-ccf7137dafc6","ios":"levelo://app?vid=43637faa-bc57-4af9-9031-ccf7137dafc6"},"vehicle_type_id":"4","last_reported":1724612856,"current_range_meters":18000,"station_id":"ce4bhr12rcd13ifvqhqg","pricing_plan_id":"cebpf4jnsgd1na2vs0mg"},{"bike_id":"9d463c10-4f62-4795-a9e4-99e0d13224f9","system_id":"levelo_inurba_marseille","lat":43.322872,"lon":5.382756,"is_reserved":false,"is_disabled":false,"rental_uris":{"android":"levelo://app?vid=9d463c10-4f62-4795-a9e4-99e0d13224f9","ios":"levelo://app?vid=9d463c10-4f62-4795-a9e4-99e0d13224f9"},"vehicle_type_id":"4","last_reported":1724612856,"current_range_meters":22000,"station_id":"ce4bhr12rcd13ifvqhqg","pricing_plan_id":"cebpf4jnsgd1na2vs0mg"},{"bike_id":"157a7a7a-c5db-4889-8b8a-e132f5965eb3","system_id":"levelo_inurba_marseille","lat":43.29718,"lon":5.36614,"is_reserved":false,"is_disabled":false,"rental_uris":{"android":"levelo://app?vid=157a7a7a-c5db-4889-8b8a-e132f5965eb3","ios":"levelo://app?vid=157a7a7a-c5db-4889-8b8a-e132f5965eb3"},"vehicle_type_id":"4","last_reported":1724612856,"current_range_meters":6400,"station_id":"ce4bgn12rcd13ifvqbt0","pricing_plan_id":"cebpf4jnsgd1na2vs0mg"},{"bike_id":"fe9753e6-f2eb-4b22-961e-9d1ecbcf4d0e","system_id":"levelo_inurba_marseille","lat":43.29711,"lon":5.36613,"is_reserved":false,"is_disabled":false,"rental_uris":{"android":"levelo://app?vid=fe9753e6-f2eb-4b22-961e-9d1ecbcf4d0e","ios":"levelo://app?vid=fe9753e6-f2eb-4b22-961e-9d1ecbcf4d0e"},"vehicle_type_id":"4","last_reported":1724612856,"current_range_meters":9600,"station_id":"ce4bgn12rcd13ifvqbt0","pricing_plan_id":"cebpf4jnsgd1na2vs0mg"},{"bike_id":"0b0596c3-8980-4715-8971-414ab0ac1494","system_id":"levelo_inurba_marseille","lat":43.297163,"lon":5.365866,"is_reserved":false,"is_disabled":false,"rental_uris":{"android":"levelo://app?vid=0b0596c3-8980-4715-8971-414ab0ac1494","ios":"levelo://app?vid=0b0596c3-8980-4715-8971-414ab0ac1494"},"vehicle_type_id":"4","last_reported":1724612856,"current_range_meters":4000,"station_id":"ce4bgn12rcd13ifvqbt0","pricing_plan_id":"cebpf4jnsgd1na2vs0mg"},{"bike_id":"86ff4931-277c-4c74-bc65-3b015e167595","system_id":"levelo_inurba_marseille","lat":43.297163,"lon":5.365866,"is_reserved":false,"is_disabled":false,"rental_uris":{"android":"levelo://app?vid=86ff4931-277c-4c74-bc65-3b015e167595","ios":"levelo://app?vid=86ff4931-277c-4c74-bc65-3b015e167595"},"vehicle_type_id":"4","last_reported":1724612856,"current_range_meters":14000,"station_id":"ce4bgn12rcd13ifvqbt0","pricing_plan_id":"cebpf4jnsgd1na2vs0mg"},{"bike_id":"5a25dd36-05fa-4d72-9438-3cf4234ef78d","system_id":"levelo_inurba_marseille","lat":43.326947,"lon":5.378908,"is_reserved":false,"is_disabled":false,"rental_uris":{"android":"levelo://app?vid=5a25dd36-05fa-4d72-9438-3cf4234ef78d","ios":"levelo://app?vid=5a25dd36-05fa-4d72-9438-3cf4234ef78d"},"vehicle_type_id":"4","last_reported":1724612856,"current_range_meters":9200,"station_id":"","pricing_plan_id":"cebpf4jnsgd1na2vs0mg"},{"bike_id":"9b27aca0-2bbf-4afc-92f3-6c845669063d","system_id":"levelo_inurba_marseille","lat":43.326946,"lon":5.378963,"is_reserved":false,"is_disabled":false,"rental_uris":{"android":"levelo://app?vid=9b27aca0-2bbf-4afc-92f3-6c845669063d","ios":"levelo://app?vid=9b27aca0-2bbf-4afc-92f3-6c845669063d"},"vehicle_type_id":"4","last_reported":1724612856,"current_range_meters":11200,"station_id":"","pricing_plan_id":"cebpf4jnsgd1na2vs0mg"},{"bike_id":"0f80e4a7-dd24-4bcb-898e-d82ea20cfec9","system_id":"levelo_inurba_marseille","lat":43.2963,"lon":5.36031,"is_reserved":false,"is_disabled":false,"rental_uris":{"android":"levelo://app?vid=0f80e4a7-dd24-4bcb-898e-d82ea20cfec9","ios":"levelo://app?vid=0f80e4a7-dd24-4bcb-898e-d82ea20cfec9"},"vehicle_type_id":"4","last_reported":1724612856,"current_range_meters":0,"station_id":"","pricing_plan_id":"cebpf4jnsgd1na2vs0mg"},{"bike_id":"8f8b78b1-e39f-48b7-81fd-ee99bc91a514","system_id":"levelo_inurba_marseille","lat":43.296921,"lon":5.376579,"is_reserved":false,"is_disabled":false,"rental_uris":{"android":"levelo://app?vid=8f8b78b1-e39f-48b7-81fd-ee99bc91a514","ios":"levelo://app?vid=8f8b78b1-e39f-48b7-81fd-ee99bc91a514"},"vehicle_type_id":"4","last_reported":1724612856,"current_range_meters":2000,"station_id":"ce4bgkh2rcd13ifvqbl0","pricing_plan_id":"cebpf4jnsgd1na2vs0mg"},{"bike_id":"84a608cf-4436-4162-8073-799da4700e79","system_id":"levelo_inurba_marseille","lat":43.299028,"lon":5.381509,"is_reserved":false,"is_disabled":false,"rental_uris":{"android":"levelo://app?vid=84a608cf-4436-4162-8073-799da4700e79","ios":"levelo://app?vid=84a608cf-4436-4162-8073-799da4700e79"},"vehicle_type_id":"4","last_reported":1724612856,"current_range_meters":800,"station_id":"ce4bgj12rcd13ifvqbc0","pricing_plan_id":"cebpf4jnsgd1na2vs0mg"},{"bike_id":"8dce3cdc-e8bd-4dcc-9588-942058955dcb","system_id":"levelo_inurba_marseille","lat":43.299028,"lon":5.381509,"is_reserved":false,"is_disabled":false,"rental_uris":{"android":"levelo://app?vid=8dce3cdc-e8bd-4dcc-9588-942058955dcb","ios":"levelo://app?vid=8dce3cdc-e8bd-4dcc-9588-942058955dcb"},"vehicle_type_id":"4","last_reported":1724612856,"current_range_meters":6400,"station_id":"ce4bgj12rcd13ifvqbc0","pricing_plan_id":"cebpf4jnsgd1na2vs0mg"},{"bike_id":"1b1a735f-ae5f-4a4d-9175-3d1e3d1aca21","system_id":"levelo_inurba_marseille","lat":43.296935,"lon":5.376544,"is_reserved":false,"is_disabled":false,"rental_uris":{"android":"levelo://app?vid=1b1a735f-ae5f-4a4d-9175-3d1e3d1aca21","ios":"levelo://app?vid=1b1a735f-ae5f-4a4d-9175-3d1e3d1aca21"},"vehicle_type_id":"4","last_reported":1724612856,"current_range_meters":17200,"station_id":"ce4bgkh2rcd13ifvqbl0","pricing_plan_id":"cebpf4jnsgd1na2vs0mg"},{"bike_id":"8f5fdaab-1d13-447d-8f52-ed2b3bf1460b","system_id":"levelo_inurba_marseille","lat":43.296935,"lon":5.376544,"is_reserved":false,"is_disabled":false,"rental_uris":{"android":"levelo://app?vid=8f5fdaab-1d13-447d-8f52-ed2b3bf1460b","ios":"levelo://app?vid=8f5fdaab-1d13-447d-8f52-ed2b3bf1460b"},"vehicle_type_id":"4","last_reported":1724612856,"current_range_meters":26400,"station_id":"ce4bgkh2rcd13ifvqbl0","pricing_plan_id":"cebpf4jnsgd1na2vs0mg"},{"bike_id":"3e4b8875-96e8-42a0-b70e-b38ecfc11df2","system_id":"levelo_inurba_marseille","lat":43.309589,"lon":5.390258,"is_reserved":false,"is_disabled":false,"rental_uris":{"android":"levelo://app?vid=3e4b8875-96e8-42a0-b70e-b38ecfc11df2","ios":"levelo://app?vid=3e4b8875-96e8-42a0-b70e-b38ecfc11df2"},"vehicle_type_id":"4","last_reported":1724612856,"current_range_meters":27600,"station_id":"ce4bgup2rcd13ifvqco0","pricing_plan_id":"cebpf4jnsgd1na2vs0mg"},{"bike_id":"f666c241-1b29-4504-bad7-3d71aeb34fa5","system_id":"levelo_inurba_marseille","lat":43.30964,"lon":5.3904,"is_reserved":false,"is_disabled":false,"rental_uris":{"android":"levelo://app?vid=f666c241-1b29-4504-bad7-3d71aeb34fa5","ios":"levelo://app?vid=f666c241-1b29-4504-bad7-3d71aeb34fa5"},"vehicle_type_id":"4","last_reported":1724612856,"current_range_meters":0,"station_id":"ce4bgup2rcd13ifvqco0","pricing_plan_id":"cebpf4jnsgd1na2vs0mg"},{"bike_id":"52f1982b-38f1-46d5-8417-d7d5efa760ed","system_id":"levelo_inurba_marseille","lat":43.309589,"lon":5.390258,"is_reserved":false,"is_disabled":false,"rental_uris":{"android":"levelo://app?vid=52f1982b-38f1-46d5-8417-d7d5efa760ed","ios":"levelo://app?vid=52f1982b-38f1-46d5-8417-d7d5efa760ed"},"vehicle_type_id":"4","last_reported":1724612856,"current_range_meters":9200,"station_id":"ce4bgup2rcd13ifvqco0","pricing_plan_id":"cebpf4jnsgd1na2vs0mg"},{"bike_id":"a1ca34db-b14d-4560-9bbd-c5a1f7208b3f","system_id":"levelo_inurba_marseille","lat":43.309589,"lon":5.390258,"is_reserved":false,"is_disabled":false,"rental_uris":{"android":"levelo://app?vid=a1ca34db-b14d-4560-9bbd-c5a1f7208b3f","ios":"levelo://app?vid=a1ca34db-b14d-4560-9bbd-c5a1f7208b3f"},"vehicle_type_id":"4","last_reported":1724612856,"current_range_meters":3600,"station_id":"ce4bgup2rcd13ifvqco0","pricing_plan_id":"cebpf4jnsgd1na2vs0mg"},{"bike_id":"798a801c-1276-4917-a156-2f514299cc30","system_id":"levelo_inurba_marseille","lat":43.309589,"lon":5.390258,"is_reserved":false,"is_disabled":false,"rental_uris":{"android":"levelo://app?vid=798a801c-1276-4917-a156-2f514299cc30","ios":"levelo://app?vid=798a801c-1276-4917-a156-2f514299cc30"},"vehicle_type_id":"4","last_reported":1724612856,"current_range_meters":2800,"station_id":"ce4bgup2rcd13ifvqco0","pricing_plan_id":"cebpf4jnsgd1na2vs0mg"},{"bike_id":"047eff78-1882-4999-b192-8225710cf58e","system_id":"levelo_inurba_marseille","lat":43.29579,"lon":5.36112,"is_reserved":false,"is_disabled":false,"rental_uris":{"android":"levelo://app?vid=047eff78-1882-4999-b192-8225710cf58e","ios":"levelo://app?vid=047eff78-1882-4999-b192-8225710cf58e"},"vehicle_type_id":"4","last_reported":1724612856,"current_range_meters":19200,"station_id":"","pricing_plan_id":"cebpf4jnsgd1na2vs0mg"},{"bike_id":"e6fd205d-6a33-4337-837d-c3b0ba2eac92","system_id":"levelo_inurba_marseille","lat":43.317557,"lon":5.390173,"is_reserved":false,"is_disabled":false,"rental_uris":{"android":"levelo://app?vid=e6fd205d-6a33-4337-837d-c3b0ba2eac92","ios":"levelo://app?vid=e6fd205d-6a33-4337-837d-c3b0ba2eac92"},"vehicle_type_id":"4","last_reported":1724612856,"current_range_meters":18400,"station_id":"ce4bhqp2rcd13ifvqhng","pricing_plan_id":"cebpf4jnsgd1na2vs0mg"},{"bike_id":"fb942b64-5a3b-40fa-9b46-64af085f9cff","system_id":"levelo_inurba_marseille","lat":43.317557,"lon":5.390173,"is_reserved":false,"is_disabled":false,"rental_uris":{"android":"levelo://app?vid=fb942b64-5a3b-40fa-9b46-64af085f9cff","ios":"levelo://app?vid=fb942b64-5a3b-40fa-9b46-64af085f9cff"},"vehicle_type_id":"4","last_reported":1724612856,"current_range_meters":12000,"station_id":"ce4bhqp2rcd13ifvqhng","pricing_plan_id":"cebpf4jnsgd1na2vs0mg"},{"bike_id":"83ed9b6a-deea-4f8d-a9f4-3f45357a6f08","system_id":"levelo_inurba_marseille","lat":43.29749,"lon":5.37948,"is_reserved":false,"is_disabled":false,"rental_uris":{"android":"levelo://app?vid=83ed9b6a-deea-4f8d-a9f4-3f45357a6f08","ios":"levelo://app?vid=83ed9b6a-deea-4f8d-a9f4-3f45357a6f08"},"vehicle_type_id":"4","last_reported":1724612856,"current_range_meters":18000,"station_id":"","pricing_plan_id":"cebpf4jnsgd1na2vs0mg"},{"bike_id":"4764328a-31c4-4d70-957c-8ab7b1d0e6e0","system_id":"levelo_inurba_marseille","lat":43.298037,"lon":5.381066,"is_reserved":false,"is_disabled":false,"rental_uris":{"android":"levelo://app?vid=4764328a-31c4-4d70-957c-8ab7b1d0e6e0","ios":"levelo://app?vid=4764328a-31c4-4d70-957c-8ab7b1d0e6e0"},"vehicle_type_id":"4","last_reported":1724612856,"current_range_meters":0,"station_id":"ce4bgip2rcd13ifvqbb0","pricing_plan_id":"cebpf4jnsgd1na2vs0mg"},{"bike_id":"58d6660c-3ac5-4167-a1c5-8131c105ad77","system_id":"levelo_inurba_marseille","lat":43.29623,"lon":5.376707,"is_reserved":false,"is_disabled":false,"rental_uris":{"android":"levelo://app?vid=58d6660c-3ac5-4167-a1c5-8131c105ad77","ios":"levelo://app?vid=58d6660c-3ac5-4167-a1c5-8131c105ad77"},"vehicle_type_id":"4","last_reported":1724612856,"current_range_meters":5600,"station_id":"ce4bgi92rcd13ifvqb90","pricing_plan_id":"cebpf4jnsgd1na2vs0mg"},{"bike_id":"307051e2-f22a-4311-8e6d-2140f2bedbc9","system_id":"levelo_inurba_marseille","lat":43.298,"lon":5.38111,"is_reserved":false,"is_disabled":false,"rental_uris":{"android":"levelo://app?vid=307051e2-f22a-4311-8e6d-2140f2bedbc9","ios":"levelo://app?vid=307051e2-f22a-4311-8e6d-2140f2bedbc9"},"vehicle_type_id":"4","last_reported":1724612856,"current_range_meters":0,"station_id":"ce4bgip2rcd13ifvqbb0","pricing_plan_id":"cebpf4jnsgd1na2vs0mg"},{"bike_id":"178afe1d-fa9b-44c9-a1da-f0d6e694e2eb","system_id":"levelo_inurba_marseille","lat":43.298977,"lon":5.382907,"is_reserved":false,"is_disabled":false,"rental_uris":{"android":"levelo://app?vid=178afe1d-fa9b-44c9-a1da-f0d6e694e2eb","ios":"levelo://app?vid=178afe1d-fa9b-44c9-a1da-f0d6e694e2eb"},"vehicle_type_id":"4","last_reported":1724612856,"current_range_meters":1200,"station_id":"","pricing_plan_id":"cebpf4jnsgd1na2vs0mg"},{"bike_id":"0d8bb79d-ba48-4ceb-9cd4-204a040e94d0","system_id":"levelo_inurba_marseille","lat":43.295748,"lon":5.37522,"is_reserved":false,"is_disabled":false,"rental_uris":{"android":"levelo://app?vid=0d8bb79d-ba48-4ceb-9cd4-204a040e94d0","ios":"levelo://app?vid=0d8bb79d-ba48-4ceb-9cd4-204a040e94d0"},"vehicle_type_id":"4","last_reported":1724612856,"current_range_meters":0,"station_id":"ce4bgh92rcd13ifvqb50","pricing_plan_id":"cebpf4jnsgd1na2vs0mg"},{"bike_id":"f2456dec-8351-42f2-9dac-a8d290c74296","system_id":"levelo_inurba_marseille","lat":43.295748,"lon":5.37522,"is_reserved":false,"is_disabled":false,"rental_uris":{"android":"levelo://app?vid=f2456dec-8351-42f2-9dac-a8d290c74296","ios":"levelo://app?vid=f2456dec-8351-42f2-9dac-a8d290c74296"},"vehicle_type_id":"4","last_reported":1724612856,"current_range_meters":14400,"station_id":"ce4bgh92rcd13ifvqb50","pricing_plan_id":"cebpf4jnsgd1na2vs0mg"},{"bike_id":"6f665577-2638-4d15-8aad-7ff26434c925","system_id":"levelo_inurba_marseille","lat":43.295748,"lon":5.37522,"is_reserved":false,"is_disabled":false,"rental_uris":{"android":"levelo://app?vid=6f665577-2638-4d15-8aad-7ff26434c925","ios":"levelo://app?vid=6f665577-2638-4d15-8aad-7ff26434c925"},"vehicle_type_id":"4","last_reported":1724612856,"current_range_meters":10000,"station_id":"ce4bgh92rcd13ifvqb50","pricing_plan_id":"cebpf4jnsgd1na2vs0mg"},{"bike_id":"4b4b767f-fa3d-4815-9b66-837ff1bbd4e8","system_id":"levelo_inurba_marseille","lat":43.295403,"lon":5.375167,"is_reserved":false,"is_disabled":false,"rental_uris":{"android":"levelo://app?vid=4b4b767f-fa3d-4815-9b66-837ff1bbd4e8","ios":"levelo://app?vid=4b4b767f-fa3d-4815-9b66-837ff1bbd4e8"},"vehicle_type_id":"4","last_reported":1724612856,"current_range_meters":29200,"station_id":"","pricing_plan_id":"cebpf4jnsgd1na2vs0mg"},{"bike_id":"9e7d7914-6698-407b-9f12-b605e1792dfe","system_id":"levelo_inurba_marseille","lat":43.295279,"lon":5.375048,"is_reserved":false,"is_disabled":false,"rental_uris":{"android":"levelo://app?vid=9e7d7914-6698-407b-9f12-b605e1792dfe","ios":"levelo://app?vid=9e7d7914-6698-407b-9f12-b605e1792dfe"},"vehicle_type_id":"4","last_reported":1724612856,"current_range_meters":0,"station_id":"ce4bgkp2rcd13ifvqbmg","pricing_plan_id":"cebpf4jnsgd1na2vs0mg"},{"bike_id":"f5e462b7-f8e0-4db2-ba6b-1b959650cf2c","system_id":"levelo_inurba_marseille","lat":43.299717,"lon":5.384845,"is_reserved":false,"is_disabled":false,"rental_uris":{"android":"levelo://app?vid=f5e462b7-f8e0-4db2-ba6b-1b959650cf2c","ios":"levelo://app?vid=f5e462b7-f8e0-4db2-ba6b-1b959650cf2c"},"vehicle_type_id":"4","last_reported":1724612856,"current_range_meters":21600,"station_id":"ce4bgj92rcd13ifvqbd0","pricing_plan_id":"cebpf4jnsgd1na2vs0mg"},{"bike_id":"c80938ea-44d2-42a3-bfe9-90ba10592de0","system_id":"levelo_inurba_marseille","lat":43.301396,"lon":5.387812,"is_reserved":false,"is_disabled":false,"rental_uris":{"android":"levelo://app?vid=c80938ea-44d2-42a3-bfe9-90ba10592de0","ios":"levelo://app?vid=c80938ea-44d2-42a3-bfe9-90ba10592de0"},"vehicle_type_id":"4","last_reported":1724612856,"current_range_meters":8800,"station_id":"ce4bghh2rcd13ifvqb60","pricing_plan_id":"cebpf4jnsgd1na2vs0mg"},{"bike_id":"e9f43118-4f53-4435-8e12-a9693a896f53","system_id":"levelo_inurba_marseille","lat":43.32367,"lon":5.388836,"is_reserved":false,"is_disabled":false,"rental_uris":{"android":"levelo://app?vid=e9f43118-4f53-4435-8e12-a9693a896f53","ios":"levelo://app?vid=e9f43118-4f53-4435-8e12-a9693a896f53"},"vehicle_type_id":"4","last_reported":1724612856,"current_range_meters":1600,"station_id":"ce4bhqp2rcd13ifvqhog","pricing_plan_id":"cebpf4jnsgd1na2vs0mg"},{"bike_id":"a1ee482f-2a7a-407c-90ad-26034a19fdf3","system_id":"levelo_inurba_marseille","lat":43.32367,"lon":5.388836,"is_reserved":false,"is_disabled":false,"rental_uris":{"android":"levelo://app?vid=a1ee482f-2a7a-407c-90ad-26034a19fdf3","ios":"levelo://app?vid=a1ee482f-2a7a-407c-90ad-26034a19fdf3"},"vehicle_type_id":"4","last_reported":1724612856,"current_range_meters":10400,"station_id":"ce4bhqp2rcd13ifvqhog","pricing_plan_id":"cebpf4jnsgd1na2vs0mg"},{"bike_id":"0ab2a5d2-04be-4d33-b9b1-f5ece5f825fe","system_id":"levelo_inurba_marseille","lat":43.32367,"lon":5.388836,"is_reserved":false,"is_disabled":false,"rental_uris":{"android":"levelo://app?vid=0ab2a5d2-04be-4d33-b9b1-f5ece5f825fe","ios":"levelo://app?vid=0ab2a5d2-04be-4d33-b9b1-f5ece5f825fe"},"vehicle_type_id":"4","last_reported":1724612856,"current_range_meters":4000,"station_id":"ce4bhqp2rcd13ifvqhog","pricing_plan_id":"cebpf4jnsgd1na2vs0mg"},{"bike_id":"697bef2b-ec40-4e76-920c-1086fa418649","system_id":"levelo_inurba_marseille","lat":43.32367,"lon":5.388836,"is_reserved":false,"is_disabled":false,"rental_uris":{"android":"levelo://app?vid=697bef2b-ec40-4e76-920c-1086fa418649","ios":"levelo://app?vid=697bef2b-ec40-4e76-920c-1086fa418649"},"vehicle_type_id":"4","last_reported":1724612856,"current_range_meters":0,"station_id":"ce4bhqp2rcd13ifvqhog","pricing_plan_id":"cebpf4jnsgd1na2vs0mg"},{"bike_id":"19e4abfa-83f2-4e7e-b881-34e23f2ce4c4","system_id":"levelo_inurba_marseille","lat":43.29323,"lon":5.37039,"is_reserved":false,"is_disabled":false,"rental_uris":{"android":"levelo://app?vid=19e4abfa-83f2-4e7e-b881-34e23f2ce4c4","ios":"levelo://app?vid=19e4abfa-83f2-4e7e-b881-34e23f2ce4c4"},"vehicle_type_id":"4","last_reported":1724612856,"current_range_meters":18000,"station_id":"ce4bgi92rcd13ifvqb90","pricing_plan_id":"cebpf4jnsgd1na2vs0mg"},{"bike_id":"9ef8187d-6fc4-4d0f-bad6-c8e7c3a76ba7","system_id":"levelo_inurba_marseille","lat":43.293055,"lon":5.371873,"is_reserved":false,"is_disabled":false,"rental_uris":{"android":"levelo://app?vid=9ef8187d-6fc4-4d0f-bad6-c8e7c3a76ba7","ios":"levelo://app?vid=9ef8187d-6fc4-4d0f-bad6-c8e7c3a76ba7"},"vehicle_type_id":"4","last_reported":1724612856,"current_range_meters":11600,"station_id":"","pricing_plan_id":"cebpf4jnsgd1na2vs0mg"},{"bike_id":"e9c36324-924e-447e-8b0a-a5b2507ee66e","system_id":"levelo_inurba_marseille","lat":43.293259,"lon":5.371586,"is_reserved":false,"is_disabled":false,"rental_uris":{"android":"levelo://app?vid=e9c36324-924e-447e-8b0a-a5b2507ee66e","ios":"levelo://app?vid=e9c36324-924e-447e-8b0a-a5b2507ee66e"},"vehicle_type_id":"4","last_reported":1724612856,"current_range_meters":5600,"station_id":"ce4bgh92rcd13ifvqb40","pricing_plan_id":"cebpf4jnsgd1na2vs0mg"},{"bike_id":"cd6eb22b-67b5-43f2-9e74-c29c631ef10d","system_id":"levelo_inurba_marseille","lat":43.290103,"lon":5.356114,"is_reserved":false,"is_disabled":false,"rental_uris":{"android":"levelo://app?vid=cd6eb22b-67b5-43f2-9e74-c29c631ef10d","ios":"levelo://app?vid=cd6eb22b-67b5-43f2-9e74-c29c631ef10d"},"vehicle_type_id":"4","last_reported":1724612856,"current_range_meters":0,"station_id":"ce4bhb92rcd13ifvqen0","pricing_plan_id":"cebpf4jnsgd1na2vs0mg"},{"bike_id":"3250c7e2-0a12-4dc0-a341-5530dc402405","system_id":"levelo_inurba_marseille","lat":43.292749,"lon":5.368402,"is_reserved":false,"is_disabled":false,"rental_uris":{"android":"levelo://app?vid=3250c7e2-0a12-4dc0-a341-5530dc402405","ios":"levelo://app?vid=3250c7e2-0a12-4dc0-a341-5530dc402405"},"vehicle_type_id":"4","last_reported":1724612856,"current_range_meters":28800,"station_id":"ce4bhbp2rcd13ifvqesg","pricing_plan_id":"cebpf4jnsgd1na2vs0mg"},{"bike_id":"c0e94686-485d-44f4-a70d-c7306ab0a20c","system_id":"levelo_inurba_marseille","lat":43.292749,"lon":5.368402,"is_reserved":false,"is_disabled":false,"rental_uris":{"android":"levelo://app?vid=c0e94686-485d-44f4-a70d-c7306ab0a20c","ios":"levelo://app?vid=c0e94686-485d-44f4-a70d-c7306ab0a20c"},"vehicle_type_id":"4","last_reported":1724612856,"current_range_meters":28000,"station_id":"ce4bhbp2rcd13ifvqesg","pricing_plan_id":"cebpf4jnsgd1na2vs0mg"},{"bike_id":"5e62bb2b-1e9b-4649-a543-de0d7c5f0f8c","system_id":"levelo_inurba_marseille","lat":43.29293,"lon":5.37172,"is_reserved":false,"is_disabled":false,"rental_uris":{"android":"levelo://app?vid=5e62bb2b-1e9b-4649-a543-de0d7c5f0f8c","ios":"levelo://app?vid=5e62bb2b-1e9b-4649-a543-de0d7c5f0f8c"},"vehicle_type_id":"4","last_reported":1724612856,"current_range_meters":14400,"station_id":"ce4bgh92rcd13ifvqb40","pricing_plan_id":"cebpf4jnsgd1na2vs0mg"},{"bike_id":"4d01eb7e-4ec0-45bb-aca1-2f227ee2094a","system_id":"levelo_inurba_marseille","lat":43.292749,"lon":5.368402,"is_reserved":false,"is_disabled":false,"rental_uris":{"android":"levelo://app?vid=4d01eb7e-4ec0-45bb-aca1-2f227ee2094a","ios":"levelo://app?vid=4d01eb7e-4ec0-45bb-aca1-2f227ee2094a"},"vehicle_type_id":"4","last_reported":1724612856,"current_range_meters":0,"station_id":"ce4bhbp2rcd13ifvqesg","pricing_plan_id":"cebpf4jnsgd1na2vs0mg"},{"bike_id":"0112448a-56ab-4d89-bb97-12a83b32ad76","system_id":"levelo_inurba_marseille","lat":43.29304,"lon":5.37449,"is_reserved":false,"is_disabled":false,"rental_uris":{"android":"levelo://app?vid=0112448a-56ab-4d89-bb97-12a83b32ad76","ios":"levelo://app?vid=0112448a-56ab-4d89-bb97-12a83b32ad76"},"vehicle_type_id":"4","last_reported":1724612856,"current_range_meters":0,"station_id":"ce4bgi12rcd13ifvqb70","pricing_plan_id":"cebpf4jnsgd1na2vs0mg"},{"bike_id":"4f205e6d-775c-43ce-bb16-038c468f2239","system_id":"levelo_inurba_marseille","lat":43.293009,"lon":5.374584,"is_reserved":false,"is_disabled":false,"rental_uris":{"android":"levelo://app?vid=4f205e6d-775c-43ce-bb16-038c468f2239","ios":"levelo://app?vid=4f205e6d-775c-43ce-bb16-038c468f2239"},"vehicle_type_id":"4","last_reported":1724612856,"current_range_meters":19200,"station_id":"ce4bgi12rcd13ifvqb70","pricing_plan_id":"cebpf4jnsgd1na2vs0mg"},{"bike_id":"8398ef43-2422-4d4e-b583-8da209b2a6bc","system_id":"levelo_inurba_marseille","lat":43.293009,"lon":5.374584,"is_reserved":false,"is_disabled":false,"rental_uris":{"android":"levelo://app?vid=8398ef43-2422-4d4e-b583-8da209b2a6bc","ios":"levelo://app?vid=8398ef43-2422-4d4e-b583-8da209b2a6bc"},"vehicle_type_id":"4","last_reported":1724612856,"current_range_meters":1200,"station_id":"ce4bgi12rcd13ifvqb70","pricing_plan_id":"cebpf4jnsgd1na2vs0mg"},{"bike_id":"001454f8-3939-4de6-8f6f-f0d68d63e032","system_id":"levelo_inurba_marseille","lat":43.305994,"lon":5.393687,"is_reserved":false,"is_disabled":false,"rental_uris":{"android":"levelo://app?vid=001454f8-3939-4de6-8f6f-f0d68d63e032","ios":"levelo://app?vid=001454f8-3939-4de6-8f6f-f0d68d63e032"},"vehicle_type_id":"4","last_reported":1724612856,"current_range_meters":10800,"station_id":"ce4bh0p2rcd13ifvqd80","pricing_plan_id":"cebpf4jnsgd1na2vs0mg"},{"bike_id":"54b634f4-33f3-4b81-a2a1-6676137f29b4","system_id":"levelo_inurba_marseille","lat":43.305994,"lon":5.393687,"is_reserved":false,"is_disabled":false,"rental_uris":{"android":"levelo://app?vid=54b634f4-33f3-4b81-a2a1-6676137f29b4","ios":"levelo://app?vid=54b634f4-33f3-4b81-a2a1-6676137f29b4"},"vehicle_type_id":"4","last_reported":1724612856,"current_range_meters":28000,"station_id":"ce4bh0p2rcd13ifvqd80","pricing_plan_id":"cebpf4jnsgd1na2vs0mg"},{"bike_id":"7165bfca-c536-413a-9797-b16907b7d9b3","system_id":"levelo_inurba_marseille","lat":43.30591,"lon":5.3936,"is_reserved":false,"is_disabled":false,"rental_uris":{"android":"levelo://app?vid=7165bfca-c536-413a-9797-b16907b7d9b3","ios":"levelo://app?vid=7165bfca-c536-413a-9797-b16907b7d9b3"},"vehicle_type_id":"4","last_reported":1724612856,"current_range_meters":24400,"station_id":"ce4bh0p2rcd13ifvqd80","pricing_plan_id":"cebpf4jnsgd1na2vs0mg"},{"bike_id":"e026c367-e32d-4251-8e8d-c87846d30fed","system_id":"levelo_inurba_marseille","lat":43.293009,"lon":5.374584,"is_reserved":false,"is_disabled":false,"rental_uris":{"android":"levelo://app?vid=e026c367-e32d-4251-8e8d-c87846d30fed","ios":"levelo://app?vid=e026c367-e32d-4251-8e8d-c87846d30fed"},"vehicle_type_id":"4","last_reported":1724612856,"current_range_meters":10400,"station_id":"ce4bgi12rcd13ifvqb70","pricing_plan_id":"cebpf4jnsgd1na2vs0mg"},{"bike_id":"806f1f41-1adf-4f7b-bc10-3c4ac8c25088","system_id":"levelo_inurba_marseille","lat":43.292311,"lon":5.360731,"is_reserved":false,"is_disabled":false,"rental_uris":{"android":"levelo://app?vid=806f1f41-1adf-4f7b-bc10-3c4ac8c25088","ios":"levelo://app?vid=806f1f41-1adf-4f7b-bc10-3c4ac8c25088"},"vehicle_type_id":"4","last_reported":1724612856,"current_range_meters":13200,"station_id":"ce4bhbh2rcd13ifvqeqg","pricing_plan_id":"cebpf4jnsgd1na2vs0mg"},{"bike_id":"f5ad40f5-9991-4a4a-b2df-1cae1d40ccad","system_id":"levelo_inurba_marseille","lat":43.29177,"lon":5.37168,"is_reserved":false,"is_disabled":false,"rental_uris":{"android":"levelo://app?vid=f5ad40f5-9991-4a4a-b2df-1cae1d40ccad","ios":"levelo://app?vid=f5ad40f5-9991-4a4a-b2df-1cae1d40ccad"},"vehicle_type_id":"4","last_reported":1724612856,"current_range_meters":0,"station_id":"ce4bha92rcd13ifvqeh0","pricing_plan_id":"cebpf4jnsgd1na2vs0mg"},{"bike_id":"71415070-b213-4f96-ad94-478c08f25a84","system_id":"levelo_inurba_marseille","lat":43.298764,"lon":5.388973,"is_reserved":false,"is_disabled":false,"rental_uris":{"android":"levelo://app?vid=71415070-b213-4f96-ad94-478c08f25a84","ios":"levelo://app?vid=71415070-b213-4f96-ad94-478c08f25a84"},"vehicle_type_id":"4","last_reported":1724612856,"current_range_meters":13200,"station_id":"ce4bh392rcd13ifvqdl0","pricing_plan_id":"cebpf4jnsgd1na2vs0mg"},{"bike_id":"800c2cc9-266f-4287-a465-3594803b836b","system_id":"levelo_inurba_marseille","lat":43.29168,"lon":5.37164,"is_reserved":false,"is_disabled":false,"rental_uris":{"android":"levelo://app?vid=800c2cc9-266f-4287-a465-3594803b836b","ios":"levelo://app?vid=800c2cc9-266f-4287-a465-3594803b836b"},"vehicle_type_id":"4","last_reported":1724612856,"current_range_meters":5200,"station_id":"ce4bha92rcd13ifvqeh0","pricing_plan_id":"cebpf4jnsgd1na2vs0mg"},{"bike_id":"1611d8aa-a4d2-4c4a-a6bf-8607300e9696","system_id":"levelo_inurba_marseille","lat":43.29167,"lon":5.371685,"is_reserved":false,"is_disabled":false,"rental_uris":{"android":"levelo://app?vid=1611d8aa-a4d2-4c4a-a6bf-8607300e9696","ios":"levelo://app?vid=1611d8aa-a4d2-4c4a-a6bf-8607300e9696"},"vehicle_type_id":"4","last_reported":1724612856,"current_range_meters":17600,"station_id":"ce4bha92rcd13ifvqeh0","pricing_plan_id":"cebpf4jnsgd1na2vs0mg"},{"bike_id":"f69d8970-3a33-4a05-bc33-ace367e201b7","system_id":"levelo_inurba_marseille","lat":43.29165,"lon":5.37165,"is_reserved":false,"is_disabled":false,"rental_uris":{"android":"levelo://app?vid=f69d8970-3a33-4a05-bc33-ace367e201b7","ios":"levelo://app?vid=f69d8970-3a33-4a05-bc33-ace367e201b7"},"vehicle_type_id":"4","last_reported":1724612856,"current_range_meters":6800,"station_id":"ce4bha92rcd13ifvqeh0","pricing_plan_id":"cebpf4jnsgd1na2vs0mg"},{"bike_id":"83439373-8792-47f7-b1a0-b7985939a7d2","system_id":"levelo_inurba_marseille","lat":43.291671,"lon":5.371575,"is_reserved":false,"is_disabled":false,"rental_uris":{"android":"levelo://app?vid=83439373-8792-47f7-b1a0-b7985939a7d2","ios":"levelo://app?vid=83439373-8792-47f7-b1a0-b7985939a7d2"},"vehicle_type_id":"4","last_reported":1724612856,"current_range_meters":0,"station_id":"ce4bha92rcd13ifvqeh0","pricing_plan_id":"cebpf4jnsgd1na2vs0mg"},{"bike_id":"88d19492-030c-42c9-8e92-3f50eb73d1fe","system_id":"levelo_inurba_marseille","lat":43.298764,"lon":5.388973,"is_reserved":false,"is_disabled":false,"rental_uris":{"android":"levelo://app?vid=88d19492-030c-42c9-8e92-3f50eb73d1fe","ios":"levelo://app?vid=88d19492-030c-42c9-8e92-3f50eb73d1fe"},"vehicle_type_id":"4","last_reported":1724612856,"current_range_meters":2000,"station_id":"ce4bh392rcd13ifvqdl0","pricing_plan_id":"cebpf4jnsgd1na2vs0mg"},{"bike_id":"5cb9e99e-ed29-4671-892b-bd8ac29f2df8","system_id":"levelo_inurba_marseille","lat":43.29162,"lon":5.37168,"is_reserved":false,"is_disabled":false,"rental_uris":{"android":"levelo://app?vid=5cb9e99e-ed29-4671-892b-bd8ac29f2df8","ios":"levelo://app?vid=5cb9e99e-ed29-4671-892b-bd8ac29f2df8"},"vehicle_type_id":"4","last_reported":1724612856,"current_range_meters":10800,"station_id":"ce4bha92rcd13ifvqeh0","pricing_plan_id":"cebpf4jnsgd1na2vs0mg"},{"bike_id":"4f4c18bd-8f5f-4355-9777-792ba1ea3c9e","system_id":"levelo_inurba_marseille","lat":43.291671,"lon":5.371575,"is_reserved":false,"is_disabled":false,"rental_uris":{"android":"levelo://app?vid=4f4c18bd-8f5f-4355-9777-792ba1ea3c9e","ios":"levelo://app?vid=4f4c18bd-8f5f-4355-9777-792ba1ea3c9e"},"vehicle_type_id":"4","last_reported":1724612856,"current_range_meters":20400,"station_id":"ce4bha92rcd13ifvqeh0","pricing_plan_id":"cebpf4jnsgd1na2vs0mg"},{"bike_id":"47cc336f-b081-4b0e-8784-62524dd2482f","system_id":"levelo_inurba_marseille","lat":43.29194,"lon":5.35796,"is_reserved":false,"is_disabled":false,"rental_uris":{"android":"levelo://app?vid=47cc336f-b081-4b0e-8784-62524dd2482f","ios":"levelo://app?vid=47cc336f-b081-4b0e-8784-62524dd2482f"},"vehicle_type_id":"4","last_reported":1724612856,"current_range_meters":0,"station_id":"ce4bhb12rcd13ifvqel0","pricing_plan_id":"cebpf4jnsgd1na2vs0mg"},{"bike_id":"609ea411-92f9-46ca-a133-d7b70a157b96","system_id":"levelo_inurba_marseille","lat":43.313291,"lon":5.396838,"is_reserved":false,"is_disabled":false,"rental_uris":{"android":"levelo://app?vid=609ea411-92f9-46ca-a133-d7b70a157b96","ios":"levelo://app?vid=609ea411-92f9-46ca-a133-d7b70a157b96"},"vehicle_type_id":"4","last_reported":1724612856,"current_range_meters":15600,"station_id":"ce4bgvp2rcd13ifvqcu0","pricing_plan_id":"cebpf4jnsgd1na2vs0mg"},{"bike_id":"d8c245f8-a9f0-4b33-9660-d10633b9a6fb","system_id":"levelo_inurba_marseille","lat":43.313291,"lon":5.396838,"is_reserved":false,"is_disabled":false,"rental_uris":{"android":"levelo://app?vid=d8c245f8-a9f0-4b33-9660-d10633b9a6fb","ios":"levelo://app?vid=d8c245f8-a9f0-4b33-9660-d10633b9a6fb"},"vehicle_type_id":"4","last_reported":1724612856,"current_range_meters":17200,"station_id":"ce4bgvp2rcd13ifvqcu0","pricing_plan_id":"cebpf4jnsgd1na2vs0mg"},{"bike_id":"67d7baea-3a76-4f43-8d97-c8909ec1de43","system_id":"levelo_inurba_marseille","lat":43.313291,"lon":5.396838,"is_reserved":false,"is_disabled":false,"rental_uris":{"android":"levelo://app?vid=67d7baea-3a76-4f43-8d97-c8909ec1de43","ios":"levelo://app?vid=67d7baea-3a76-4f43-8d97-c8909ec1de43"},"vehicle_type_id":"4","last_reported":1724612856,"current_range_meters":3600,"station_id":"ce4bgvp2rcd13ifvqcu0","pricing_plan_id":"cebpf4jnsgd1na2vs0mg"},{"bike_id":"8375b614-c6c8-4236-9d4b-fe38b2e794b6","system_id":"levelo_inurba_marseille","lat":43.309038,"lon":5.396546,"is_reserved":false,"is_disabled":false,"rental_uris":{"android":"levelo://app?vid=8375b614-c6c8-4236-9d4b-fe38b2e794b6","ios":"levelo://app?vid=8375b614-c6c8-4236-9d4b-fe38b2e794b6"},"vehicle_type_id":"4","last_reported":1724612856,"current_range_meters":5600,"station_id":"ce4bh012rcd13ifvqcv0","pricing_plan_id":"cebpf4jnsgd1na2vs0mg"},{"bike_id":"fb594468-6f43-4ffd-9f15-aeccfeeb11de","system_id":"levelo_inurba_marseille","lat":43.2953,"lon":5.38541,"is_reserved":false,"is_disabled":false,"rental_uris":{"android":"levelo://app?vid=fb594468-6f43-4ffd-9f15-aeccfeeb11de","ios":"levelo://app?vid=fb594468-6f43-4ffd-9f15-aeccfeeb11de"},"vehicle_type_id":"4","last_reported":1724612856,"current_range_meters":31200,"station_id":"ce4bgih2rcd13ifvqba0","pricing_plan_id":"cebpf4jnsgd1na2vs0mg"},{"bike_id":"af2b0476-eda6-4e38-80b6-d42a7ae05421","system_id":"levelo_inurba_marseille","lat":43.29529,"lon":5.385581,"is_reserved":false,"is_disabled":false,"rental_uris":{"android":"levelo://app?vid=af2b0476-eda6-4e38-80b6-d42a7ae05421","ios":"levelo://app?vid=af2b0476-eda6-4e38-80b6-d42a7ae05421"},"vehicle_type_id":"4","last_reported":1724612856,"current_range_meters":23200,"station_id":"ce4bgih2rcd13ifvqba0","pricing_plan_id":"cebpf4jnsgd1na2vs0mg"},{"bike_id":"00b39f94-9fb5-4dbd-8021-b1b1fb540913","system_id":"levelo_inurba_marseille","lat":43.29529,"lon":5.385581,"is_reserved":false,"is_disabled":false,"rental_uris":{"android":"levelo://app?vid=00b39f94-9fb5-4dbd-8021-b1b1fb540913","ios":"levelo://app?vid=00b39f94-9fb5-4dbd-8021-b1b1fb540913"},"vehicle_type_id":"4","last_reported":1724612856,"current_range_meters":30000,"station_id":"ce4bgih2rcd13ifvqba0","pricing_plan_id":"cebpf4jnsgd1na2vs0mg"},{"bike_id":"ee4924c1-97a1-4cee-abe0-c8214b305d92","system_id":"levelo_inurba_marseille","lat":43.29529,"lon":5.385581,"is_reserved":false,"is_disabled":false,"rental_uris":{"android":"levelo://app?vid=ee4924c1-97a1-4cee-abe0-c8214b305d92","ios":"levelo://app?vid=ee4924c1-97a1-4cee-abe0-c8214b305d92"},"vehicle_type_id":"4","last_reported":1724612856,"current_range_meters":5600,"station_id":"ce4bgih2rcd13ifvqba0","pricing_plan_id":"cebpf4jnsgd1na2vs0mg"},{"bike_id":"c0d082bb-83b6-47d9-811a-b087c3717c6a","system_id":"levelo_inurba_marseille","lat":43.29529,"lon":5.385581,"is_reserved":false,"is_disabled":false,"rental_uris":{"android":"levelo://app?vid=c0d082bb-83b6-47d9-811a-b087c3717c6a","ios":"levelo://app?vid=c0d082bb-83b6-47d9-811a-b087c3717c6a"},"vehicle_type_id":"4","last_reported":1724612856,"current_range_meters":11200,"station_id":"ce4bgih2rcd13ifvqba0","pricing_plan_id":"cebpf4jnsgd1na2vs0mg"},{"bike_id":"9de109c2-dea9-4217-81b2-3eb085caf99a","system_id":"levelo_inurba_marseille","lat":43.33467,"lon":5.36113,"is_reserved":false,"is_disabled":false,"rental_uris":{"android":"levelo://app?vid=9de109c2-dea9-4217-81b2-3eb085caf99a","ios":"levelo://app?vid=9de109c2-dea9-4217-81b2-3eb085caf99a"},"vehicle_type_id":"4","last_reported":1724612856,"current_range_meters":14400,"station_id":"","pricing_plan_id":"cebpf4jnsgd1na2vs0mg"},{"bike_id":"d9cfca03-2b65-4660-858b-e879ef53d78e","system_id":"levelo_inurba_marseille","lat":43.290779,"lon":5.371482,"is_reserved":false,"is_disabled":false,"rental_uris":{"android":"levelo://app?vid=d9cfca03-2b65-4660-858b-e879ef53d78e","ios":"levelo://app?vid=d9cfca03-2b65-4660-858b-e879ef53d78e"},"vehicle_type_id":"4","last_reported":1724612856,"current_range_meters":800,"station_id":"ce4bh5p2rcd13ifvqe4g","pricing_plan_id":"cebpf4jnsgd1na2vs0mg"},{"bike_id":"0b99142c-dfbc-4a9c-a553-e7455f89ef1a","system_id":"levelo_inurba_marseille","lat":43.290327,"lon":5.375711,"is_reserved":false,"is_disabled":false,"rental_uris":{"android":"levelo://app?vid=0b99142c-dfbc-4a9c-a553-e7455f89ef1a","ios":"levelo://app?vid=0b99142c-dfbc-4a9c-a553-e7455f89ef1a"},"vehicle_type_id":"4","last_reported":1724612856,"current_range_meters":10000,"station_id":"ce4bh692rcd13ifvqe90","pricing_plan_id":"cebpf4jnsgd1na2vs0mg"},{"bike_id":"3a2e845e-fa45-4754-a79f-c7d162abd6be","system_id":"levelo_inurba_marseille","lat":43.290327,"lon":5.375711,"is_reserved":false,"is_disabled":false,"rental_uris":{"android":"levelo://app?vid=3a2e845e-fa45-4754-a79f-c7d162abd6be","ios":"levelo://app?vid=3a2e845e-fa45-4754-a79f-c7d162abd6be"},"vehicle_type_id":"4","last_reported":1724612856,"current_range_meters":0,"station_id":"ce4bh692rcd13ifvqe90","pricing_plan_id":"cebpf4jnsgd1na2vs0mg"},{"bike_id":"8afbddf0-5e94-4b2d-b46a-5b3491a55ec4","system_id":"levelo_inurba_marseille","lat":43.294162,"lon":5.386292,"is_reserved":false,"is_disabled":false,"rental_uris":{"android":"levelo://app?vid=8afbddf0-5e94-4b2d-b46a-5b3491a55ec4","ios":"levelo://app?vid=8afbddf0-5e94-4b2d-b46a-5b3491a55ec4"},"vehicle_type_id":"4","last_reported":1724612856,"current_range_meters":0,"station_id":"ce4bh2h2rcd13ifvqdh0","pricing_plan_id":"cebpf4jnsgd1na2vs0mg"},{"bike_id":"4da47e99-6cae-4de3-8797-de6c27f25969","system_id":"levelo_inurba_marseille","lat":43.29421,"lon":5.38616,"is_reserved":false,"is_disabled":false,"rental_uris":{"android":"levelo://app?vid=4da47e99-6cae-4de3-8797-de6c27f25969","ios":"levelo://app?vid=4da47e99-6cae-4de3-8797-de6c27f25969"},"vehicle_type_id":"4","last_reported":1724612856,"current_range_meters":26000,"station_id":"ce4bh2h2rcd13ifvqdh0","pricing_plan_id":"cebpf4jnsgd1na2vs0mg"},{"bike_id":"61957d83-17c3-4449-8acf-21da37cbf736","system_id":"levelo_inurba_marseille","lat":43.2942,"lon":5.38622,"is_reserved":false,"is_disabled":false,"rental_uris":{"android":"levelo://app?vid=61957d83-17c3-4449-8acf-21da37cbf736","ios":"levelo://app?vid=61957d83-17c3-4449-8acf-21da37cbf736"},"vehicle_type_id":"4","last_reported":1724612856,"current_range_meters":31200,"station_id":"ce4bh2h2rcd13ifvqdh0","pricing_plan_id":"cebpf4jnsgd1na2vs0mg"},{"bike_id":"19b6ebf2-0fcf-4349-a09d-d88053ba0082","system_id":"levelo_inurba_marseille","lat":43.2942,"lon":5.38622,"is_reserved":false,"is_disabled":false,"rental_uris":{"android":"levelo://app?vid=19b6ebf2-0fcf-4349-a09d-d88053ba0082","ios":"levelo://app?vid=19b6ebf2-0fcf-4349-a09d-d88053ba0082"},"vehicle_type_id":"4","last_reported":1724612856,"current_range_meters":14000,"station_id":"ce4bh2h2rcd13ifvqdh0","pricing_plan_id":"cebpf4jnsgd1na2vs0mg"},{"bike_id":"d100ec96-546c-40a6-9507-a10854c66cae","system_id":"levelo_inurba_marseille","lat":43.29415,"lon":5.38618,"is_reserved":false,"is_disabled":false,"rental_uris":{"android":"levelo://app?vid=d100ec96-546c-40a6-9507-a10854c66cae","ios":"levelo://app?vid=d100ec96-546c-40a6-9507-a10854c66cae"},"vehicle_type_id":"4","last_reported":1724612856,"current_range_meters":0,"station_id":"ce4bh2h2rcd13ifvqdh0","pricing_plan_id":"cebpf4jnsgd1na2vs0mg"},{"bike_id":"9ca72a71-0259-4de3-ab2d-ef55bd605085","system_id":"levelo_inurba_marseille","lat":43.29035,"lon":5.37572,"is_reserved":false,"is_disabled":false,"rental_uris":{"android":"levelo://app?vid=9ca72a71-0259-4de3-ab2d-ef55bd605085","ios":"levelo://app?vid=9ca72a71-0259-4de3-ab2d-ef55bd605085"},"vehicle_type_id":"4","last_reported":1724612856,"current_range_meters":27600,"station_id":"ce4bh692rcd13ifvqe90","pricing_plan_id":"cebpf4jnsgd1na2vs0mg"},{"bike_id":"6c863a7a-0dc5-4b75-be67-70f10b2d999f","system_id":"levelo_inurba_marseille","lat":43.2942,"lon":5.38629,"is_reserved":false,"is_disabled":false,"rental_uris":{"android":"levelo://app?vid=6c863a7a-0dc5-4b75-be67-70f10b2d999f","ios":"levelo://app?vid=6c863a7a-0dc5-4b75-be67-70f10b2d999f"},"vehicle_type_id":"4","last_reported":1724612856,"current_range_meters":2800,"station_id":"ce4bh2h2rcd13ifvqdh0","pricing_plan_id":"cebpf4jnsgd1na2vs0mg"},{"bike_id":"f6c7604d-b0c3-45f5-8082-c955195dcf00","system_id":"levelo_inurba_marseille","lat":43.29416,"lon":5.38623,"is_reserved":false,"is_disabled":false,"rental_uris":{"android":"levelo://app?vid=f6c7604d-b0c3-45f5-8082-c955195dcf00","ios":"levelo://app?vid=f6c7604d-b0c3-45f5-8082-c955195dcf00"},"vehicle_type_id":"4","last_reported":1724612856,"current_range_meters":26000,"station_id":"ce4bh2h2rcd13ifvqdh0","pricing_plan_id":"cebpf4jnsgd1na2vs0mg"},{"bike_id":"854feb12-ce7a-418b-b245-1eb4274ffba9","system_id":"levelo_inurba_marseille","lat":43.294162,"lon":5.386292,"is_reserved":false,"is_disabled":false,"rental_uris":{"android":"levelo://app?vid=854feb12-ce7a-418b-b245-1eb4274ffba9","ios":"levelo://app?vid=854feb12-ce7a-418b-b245-1eb4274ffba9"},"vehicle_type_id":"4","last_reported":1724612856,"current_range_meters":17200,"station_id":"ce4bh2h2rcd13ifvqdh0","pricing_plan_id":"cebpf4jnsgd1na2vs0mg"},{"bike_id":"366a4b60-be08-43e4-aafc-256d695d5857","system_id":"levelo_inurba_marseille","lat":43.294178,"lon":5.386265,"is_reserved":false,"is_disabled":false,"rental_uris":{"android":"levelo://app?vid=366a4b60-be08-43e4-aafc-256d695d5857","ios":"levelo://app?vid=366a4b60-be08-43e4-aafc-256d695d5857"},"vehicle_type_id":"4","last_reported":1724612856,"current_range_meters":30800,"station_id":"ce4bh2h2rcd13ifvqdh0","pricing_plan_id":"cebpf4jnsgd1na2vs0mg"},{"bike_id":"7bc4970b-b154-4f95-a8ef-61922f0ec4e4","system_id":"levelo_inurba_marseille","lat":43.29418,"lon":5.38627,"is_reserved":false,"is_disabled":false,"rental_uris":{"android":"levelo://app?vid=7bc4970b-b154-4f95-a8ef-61922f0ec4e4","ios":"levelo://app?vid=7bc4970b-b154-4f95-a8ef-61922f0ec4e4"},"vehicle_type_id":"4","last_reported":1724612856,"current_range_meters":4000,"station_id":"ce4bh2h2rcd13ifvqdh0","pricing_plan_id":"cebpf4jnsgd1na2vs0mg"},{"bike_id":"83f1337e-c0f5-4726-854d-5610ba923f75","system_id":"levelo_inurba_marseille","lat":43.2942,"lon":5.38631,"is_reserved":false,"is_disabled":false,"rental_uris":{"android":"levelo://app?vid=83f1337e-c0f5-4726-854d-5610ba923f75","ios":"levelo://app?vid=83f1337e-c0f5-4726-854d-5610ba923f75"},"vehicle_type_id":"4","last_reported":1724612856,"current_range_meters":26800,"station_id":"ce4bh2h2rcd13ifvqdh0","pricing_plan_id":"cebpf4jnsgd1na2vs0mg"},{"bike_id":"ea39c2ef-c7de-4b71-997a-33ccc9331c0e","system_id":"levelo_inurba_marseille","lat":43.29417,"lon":5.38626,"is_reserved":false,"is_disabled":false,"rental_uris":{"android":"levelo://app?vid=ea39c2ef-c7de-4b71-997a-33ccc9331c0e","ios":"levelo://app?vid=ea39c2ef-c7de-4b71-997a-33ccc9331c0e"},"vehicle_type_id":"4","last_reported":1724612856,"current_range_meters":22400,"station_id":"ce4bh2h2rcd13ifvqdh0","pricing_plan_id":"cebpf4jnsgd1na2vs0mg"},{"bike_id":"6eddbffc-a324-45d6-9293-53a7cd00efec","system_id":"levelo_inurba_marseille","lat":43.294153,"lon":5.386305,"is_reserved":false,"is_disabled":false,"rental_uris":{"android":"levelo://app?vid=6eddbffc-a324-45d6-9293-53a7cd00efec","ios":"levelo://app?vid=6eddbffc-a324-45d6-9293-53a7cd00efec"},"vehicle_type_id":"4","last_reported":1724612856,"current_range_meters":12000,"station_id":"ce4bh2h2rcd13ifvqdh0","pricing_plan_id":"cebpf4jnsgd1na2vs0mg"},{"bike_id":"bb234798-d28d-47c3-8ef2-1f7272169628","system_id":"levelo_inurba_marseille","lat":43.29416,"lon":5.38625,"is_reserved":false,"is_disabled":false,"rental_uris":{"android":"levelo://app?vid=bb234798-d28d-47c3-8ef2-1f7272169628","ios":"levelo://app?vid=bb234798-d28d-47c3-8ef2-1f7272169628"},"vehicle_type_id":"4","last_reported":1724612856,"current_range_meters":25200,"station_id":"ce4bh2h2rcd13ifvqdh0","pricing_plan_id":"cebpf4jnsgd1na2vs0mg"},{"bike_id":"f298f786-8ace-48c2-9492-4d176987aca7","system_id":"levelo_inurba_marseille","lat":43.294162,"lon":5.386292,"is_reserved":false,"is_disabled":false,"rental_uris":{"android":"levelo://app?vid=f298f786-8ace-48c2-9492-4d176987aca7","ios":"levelo://app?vid=f298f786-8ace-48c2-9492-4d176987aca7"},"vehicle_type_id":"4","last_reported":1724612856,"current_range_meters":26800,"station_id":"ce4bh2h2rcd13ifvqdh0","pricing_plan_id":"cebpf4jnsgd1na2vs0mg"},{"bike_id":"a49bd19b-6dd3-4523-8615-a6c1d17fecd5","system_id":"levelo_inurba_marseille","lat":43.273125,"lon":5.390731,"is_reserved":false,"is_disabled":false,"rental_uris":{"android":"levelo://app?vid=a49bd19b-6dd3-4523-8615-a6c1d17fecd5","ios":"levelo://app?vid=a49bd19b-6dd3-4523-8615-a6c1d17fecd5"},"vehicle_type_id":"4","last_reported":1724612856,"current_range_meters":4400,"station_id":"ce4bhgp2rcd13ifvqfe0","pricing_plan_id":"cebpf4jnsgd1na2vs0mg"},{"bike_id":"96700961-dfb5-48d8-a547-95828f9b6dab","system_id":"levelo_inurba_marseille","lat":43.29417,"lon":5.38628,"is_reserved":false,"is_disabled":false,"rental_uris":{"android":"levelo://app?vid=96700961-dfb5-48d8-a547-95828f9b6dab","ios":"levelo://app?vid=96700961-dfb5-48d8-a547-95828f9b6dab"},"vehicle_type_id":"4","last_reported":1724612856,"current_range_meters":13600,"station_id":"ce4bh2h2rcd13ifvqdh0","pricing_plan_id":"cebpf4jnsgd1na2vs0mg"},{"bike_id":"8e9ab7e5-8fff-4c5b-b860-20a5943d597a","system_id":"levelo_inurba_marseille","lat":43.29415,"lon":5.38629,"is_reserved":false,"is_disabled":false,"rental_uris":{"android":"levelo://app?vid=8e9ab7e5-8fff-4c5b-b860-20a5943d597a","ios":"levelo://app?vid=8e9ab7e5-8fff-4c5b-b860-20a5943d597a"},"vehicle_type_id":"4","last_reported":1724612856,"current_range_meters":18400,"station_id":"ce4bh2h2rcd13ifvqdh0","pricing_plan_id":"cebpf4jnsgd1na2vs0mg"},{"bike_id":"97ea6ae1-f718-432b-8d48-4b759169ecda","system_id":"levelo_inurba_marseille","lat":43.29415,"lon":5.38629,"is_reserved":false,"is_disabled":false,"rental_uris":{"android":"levelo://app?vid=97ea6ae1-f718-432b-8d48-4b759169ecda","ios":"levelo://app?vid=97ea6ae1-f718-432b-8d48-4b759169ecda"},"vehicle_type_id":"4","last_reported":1724612856,"current_range_meters":13200,"station_id":"ce4bh2h2rcd13ifvqdh0","pricing_plan_id":"cebpf4jnsgd1na2vs0mg"},{"bike_id":"45417b9d-b5c9-48a8-a9e4-60c39ebf4de7","system_id":"levelo_inurba_marseille","lat":43.29416,"lon":5.38631,"is_reserved":false,"is_disabled":false,"rental_uris":{"android":"levelo://app?vid=45417b9d-b5c9-48a8-a9e4-60c39ebf4de7","ios":"levelo://app?vid=45417b9d-b5c9-48a8-a9e4-60c39ebf4de7"},"vehicle_type_id":"4","last_reported":1724612856,"current_range_meters":0,"station_id":"ce4bh2h2rcd13ifvqdh0","pricing_plan_id":"cebpf4jnsgd1na2vs0mg"},{"bike_id":"d386c4dd-3280-4956-9913-70f6a5ac8ca3","system_id":"levelo_inurba_marseille","lat":43.29412,"lon":5.38625,"is_reserved":false,"is_disabled":false,"rental_uris":{"android":"levelo://app?vid=d386c4dd-3280-4956-9913-70f6a5ac8ca3","ios":"levelo://app?vid=d386c4dd-3280-4956-9913-70f6a5ac8ca3"},"vehicle_type_id":"4","last_reported":1724612856,"current_range_meters":31200,"station_id":"ce4bh2h2rcd13ifvqdh0","pricing_plan_id":"cebpf4jnsgd1na2vs0mg"},{"bike_id":"52425d4e-2fd9-4031-91c3-60a1b00fd16d","system_id":"levelo_inurba_marseille","lat":43.29413,"lon":5.3863,"is_reserved":false,"is_disabled":false,"rental_uris":{"android":"levelo://app?vid=52425d4e-2fd9-4031-91c3-60a1b00fd16d","ios":"levelo://app?vid=52425d4e-2fd9-4031-91c3-60a1b00fd16d"},"vehicle_type_id":"4","last_reported":1724612856,"current_range_meters":24400,"station_id":"ce4bh2h2rcd13ifvqdh0","pricing_plan_id":"cebpf4jnsgd1na2vs0mg"},{"bike_id":"e73ebf73-fd5d-4750-b902-f8f8e9c68e98","system_id":"levelo_inurba_marseille","lat":43.289468,"lon":5.363719,"is_reserved":false,"is_disabled":false,"rental_uris":{"android":"levelo://app?vid=e73ebf73-fd5d-4750-b902-f8f8e9c68e98","ios":"levelo://app?vid=e73ebf73-fd5d-4750-b902-f8f8e9c68e98"},"vehicle_type_id":"4","last_reported":1724612856,"current_range_meters":10400,"station_id":"ce4bhc92rcd13ifvqetg","pricing_plan_id":"cebpf4jnsgd1na2vs0mg"},{"bike_id":"4c4528cc-73cb-495c-9b2f-af3fc9d78632","system_id":"levelo_inurba_marseille","lat":43.289184,"lon":5.366408,"is_reserved":false,"is_disabled":false,"rental_uris":{"android":"levelo://app?vid=4c4528cc-73cb-495c-9b2f-af3fc9d78632","ios":"levelo://app?vid=4c4528cc-73cb-495c-9b2f-af3fc9d78632"},"vehicle_type_id":"4","last_reported":1724612856,"current_range_meters":12400,"station_id":"ce4bhap2rcd13ifvqek0","pricing_plan_id":"cebpf4jnsgd1na2vs0mg"},{"bike_id":"8574182d-79c8-4a3d-bac1-ca86a7e6e0aa","system_id":"levelo_inurba_marseille","lat":43.290327,"lon":5.375711,"is_reserved":false,"is_disabled":false,"rental_uris":{"android":"levelo://app?vid=8574182d-79c8-4a3d-bac1-ca86a7e6e0aa","ios":"levelo://app?vid=8574182d-79c8-4a3d-bac1-ca86a7e6e0aa"},"vehicle_type_id":"4","last_reported":1724612856,"current_range_meters":0,"station_id":"ce4bh692rcd13ifvqe90","pricing_plan_id":"cebpf4jnsgd1na2vs0mg"},{"bike_id":"f99e5ed5-9df6-4572-96e8-0cd32e76b712","system_id":"levelo_inurba_marseille","lat":43.29529,"lon":5.385581,"is_reserved":false,"is_disabled":false,"rental_uris":{"android":"levelo://app?vid=f99e5ed5-9df6-4572-96e8-0cd32e76b712","ios":"levelo://app?vid=f99e5ed5-9df6-4572-96e8-0cd32e76b712"},"vehicle_type_id":"4","last_reported":1724612856,"current_range_meters":19600,"station_id":"ce4bgih2rcd13ifvqba0","pricing_plan_id":"cebpf4jnsgd1na2vs0mg"},{"bike_id":"eb8f3ac5-4db3-46b6-8bb8-196805e0f430","system_id":"levelo_inurba_marseille","lat":43.289184,"lon":5.366408,"is_reserved":false,"is_disabled":false,"rental_uris":{"android":"levelo://app?vid=eb8f3ac5-4db3-46b6-8bb8-196805e0f430","ios":"levelo://app?vid=eb8f3ac5-4db3-46b6-8bb8-196805e0f430"},"vehicle_type_id":"4","last_reported":1724612856,"current_range_meters":22400,"station_id":"ce4bhap2rcd13ifvqek0","pricing_plan_id":"cebpf4jnsgd1na2vs0mg"},{"bike_id":"b6e86e18-9cc6-454a-959f-c564f329a003","system_id":"levelo_inurba_marseille","lat":43.29417,"lon":5.38651,"is_reserved":false,"is_disabled":false,"rental_uris":{"android":"levelo://app?vid=b6e86e18-9cc6-454a-959f-c564f329a003","ios":"levelo://app?vid=b6e86e18-9cc6-454a-959f-c564f329a003"},"vehicle_type_id":"4","last_reported":1724612856,"current_range_meters":22800,"station_id":"ce4bh2h2rcd13ifvqdh0","pricing_plan_id":"cebpf4jnsgd1na2vs0mg"},{"bike_id":"3faa78d2-b6f5-4fda-b388-9941be458708","system_id":"levelo_inurba_marseille","lat":43.293972,"lon":5.386534,"is_reserved":false,"is_disabled":false,"rental_uris":{"android":"levelo://app?vid=3faa78d2-b6f5-4fda-b388-9941be458708","ios":"levelo://app?vid=3faa78d2-b6f5-4fda-b388-9941be458708"},"vehicle_type_id":"4","last_reported":1724612856,"current_range_meters":1200,"station_id":"ce4bh2h2rcd13ifvqdh0","pricing_plan_id":"cebpf4jnsgd1na2vs0mg"},{"bike_id":"e400aa65-fa40-4733-9ad0-5df37cdbc1b8","system_id":"levelo_inurba_marseille","lat":43.2928,"lon":5.38445,"is_reserved":false,"is_disabled":false,"rental_uris":{"android":"levelo://app?vid=e400aa65-fa40-4733-9ad0-5df37cdbc1b8","ios":"levelo://app?vid=e400aa65-fa40-4733-9ad0-5df37cdbc1b8"},"vehicle_type_id":"4","last_reported":1724612856,"current_range_meters":0,"station_id":"ce4bh692rcd13ifvqea0","pricing_plan_id":"cebpf4jnsgd1na2vs0mg"},{"bike_id":"710b50a3-91ae-4cf9-8e8d-53c8c0be3972","system_id":"levelo_inurba_marseille","lat":43.292644,"lon":5.384257,"is_reserved":false,"is_disabled":false,"rental_uris":{"android":"levelo://app?vid=710b50a3-91ae-4cf9-8e8d-53c8c0be3972","ios":"levelo://app?vid=710b50a3-91ae-4cf9-8e8d-53c8c0be3972"},"vehicle_type_id":"4","last_reported":1724612856,"current_range_meters":2400,"station_id":"ce4bh692rcd13ifvqea0","pricing_plan_id":"cebpf4jnsgd1na2vs0mg"},{"bike_id":"da8a3b99-14c4-4b0f-8920-f9d6ea762d17","system_id":"levelo_inurba_marseille","lat":43.292642,"lon":5.384254,"is_reserved":false,"is_disabled":false,"rental_uris":{"android":"levelo://app?vid=da8a3b99-14c4-4b0f-8920-f9d6ea762d17","ios":"levelo://app?vid=da8a3b99-14c4-4b0f-8920-f9d6ea762d17"},"vehicle_type_id":"4","last_reported":1724612856,"current_range_meters":1600,"station_id":"ce4bh692rcd13ifvqea0","pricing_plan_id":"cebpf4jnsgd1na2vs0mg"},{"bike_id":"644d94cb-8205-44d9-9151-07d628c08983","system_id":"levelo_inurba_marseille","lat":43.292642,"lon":5.384254,"is_reserved":false,"is_disabled":false,"rental_uris":{"android":"levelo://app?vid=644d94cb-8205-44d9-9151-07d628c08983","ios":"levelo://app?vid=644d94cb-8205-44d9-9151-07d628c08983"},"vehicle_type_id":"4","last_reported":1724612856,"current_range_meters":0,"station_id":"ce4bh692rcd13ifvqea0","pricing_plan_id":"cebpf4jnsgd1na2vs0mg"},{"bike_id":"574175ec-c1db-44d6-a29a-0398147b7fd5","system_id":"levelo_inurba_marseille","lat":43.292642,"lon":5.384254,"is_reserved":false,"is_disabled":false,"rental_uris":{"android":"levelo://app?vid=574175ec-c1db-44d6-a29a-0398147b7fd5","ios":"levelo://app?vid=574175ec-c1db-44d6-a29a-0398147b7fd5"},"vehicle_type_id":"4","last_reported":1724612856,"current_range_meters":8000,"station_id":"ce4bh692rcd13ifvqea0","pricing_plan_id":"cebpf4jnsgd1na2vs0mg"},{"bike_id":"5e727236-c679-4cab-844c-a2e9d0313e10","system_id":"levelo_inurba_marseille","lat":43.292642,"lon":5.384254,"is_reserved":false,"is_disabled":false,"rental_uris":{"android":"levelo://app?vid=5e727236-c679-4cab-844c-a2e9d0313e10","ios":"levelo://app?vid=5e727236-c679-4cab-844c-a2e9d0313e10"},"vehicle_type_id":"4","last_reported":1724612856,"current_range_meters":24400,"station_id":"ce4bh692rcd13ifvqea0","pricing_plan_id":"cebpf4jnsgd1na2vs0mg"},{"bike_id":"c778e074-ce50-4eba-8b77-78a228b853dc","system_id":"levelo_inurba_marseille","lat":43.292644,"lon":5.384257,"is_reserved":false,"is_disabled":false,"rental_uris":{"android":"levelo://app?vid=c778e074-ce50-4eba-8b77-78a228b853dc","ios":"levelo://app?vid=c778e074-ce50-4eba-8b77-78a228b853dc"},"vehicle_type_id":"4","last_reported":1724612856,"current_range_meters":6400,"station_id":"ce4bh692rcd13ifvqea0","pricing_plan_id":"cebpf4jnsgd1na2vs0mg"},{"bike_id":"69e57e88-d5db-420c-a8cf-94655d172b72","system_id":"levelo_inurba_marseille","lat":43.292644,"lon":5.384257,"is_reserved":false,"is_disabled":false,"rental_uris":{"android":"levelo://app?vid=69e57e88-d5db-420c-a8cf-94655d172b72","ios":"levelo://app?vid=69e57e88-d5db-420c-a8cf-94655d172b72"},"vehicle_type_id":"4","last_reported":1724612856,"current_range_meters":400,"station_id":"ce4bh692rcd13ifvqea0","pricing_plan_id":"cebpf4jnsgd1na2vs0mg"},{"bike_id":"ec456788-d55f-4ce1-9618-57910df16da5","system_id":"levelo_inurba_marseille","lat":43.29261,"lon":5.38437,"is_reserved":false,"is_disabled":false,"rental_uris":{"android":"levelo://app?vid=ec456788-d55f-4ce1-9618-57910df16da5","ios":"levelo://app?vid=ec456788-d55f-4ce1-9618-57910df16da5"},"vehicle_type_id":"4","last_reported":1724612856,"current_range_meters":12000,"station_id":"ce4bh692rcd13ifvqea0","pricing_plan_id":"cebpf4jnsgd1na2vs0mg"},{"bike_id":"3f40647a-8ade-46bb-88bf-0e85f231abf2","system_id":"levelo_inurba_marseille","lat":43.292642,"lon":5.384254,"is_reserved":false,"is_disabled":false,"rental_uris":{"android":"levelo://app?vid=3f40647a-8ade-46bb-88bf-0e85f231abf2","ios":"levelo://app?vid=3f40647a-8ade-46bb-88bf-0e85f231abf2"},"vehicle_type_id":"4","last_reported":1724612856,"current_range_meters":12000,"station_id":"ce4bh692rcd13ifvqea0","pricing_plan_id":"cebpf4jnsgd1na2vs0mg"},{"bike_id":"c3cb94fe-c601-4c65-8974-2c0c1510c076","system_id":"levelo_inurba_marseille","lat":43.292644,"lon":5.384257,"is_reserved":false,"is_disabled":false,"rental_uris":{"android":"levelo://app?vid=c3cb94fe-c601-4c65-8974-2c0c1510c076","ios":"levelo://app?vid=c3cb94fe-c601-4c65-8974-2c0c1510c076"},"vehicle_type_id":"4","last_reported":1724612856,"current_range_meters":17200,"station_id":"ce4bh692rcd13ifvqea0","pricing_plan_id":"cebpf4jnsgd1na2vs0mg"},{"bike_id":"0aaae529-3f79-4cd7-9682-0883b350f5d5","system_id":"levelo_inurba_marseille","lat":43.292613,"lon":5.384403,"is_reserved":false,"is_disabled":false,"rental_uris":{"android":"levelo://app?vid=0aaae529-3f79-4cd7-9682-0883b350f5d5","ios":"levelo://app?vid=0aaae529-3f79-4cd7-9682-0883b350f5d5"},"vehicle_type_id":"4","last_reported":1724612856,"current_range_meters":29600,"station_id":"ce4bh692rcd13ifvqea0","pricing_plan_id":"cebpf4jnsgd1na2vs0mg"},{"bike_id":"18653427-3219-48ee-849b-a4b8b713b0cb","system_id":"levelo_inurba_marseille","lat":43.29261,"lon":5.38443,"is_reserved":false,"is_disabled":false,"rental_uris":{"android":"levelo://app?vid=18653427-3219-48ee-849b-a4b8b713b0cb","ios":"levelo://app?vid=18653427-3219-48ee-849b-a4b8b713b0cb"},"vehicle_type_id":"4","last_reported":1724612856,"current_range_meters":20800,"station_id":"ce4bh692rcd13ifvqea0","pricing_plan_id":"cebpf4jnsgd1na2vs0mg"},{"bike_id":"12f2cd65-1d83-49cd-b588-278e00b09716","system_id":"levelo_inurba_marseille","lat":43.292642,"lon":5.384254,"is_reserved":false,"is_disabled":false,"rental_uris":{"android":"levelo://app?vid=12f2cd65-1d83-49cd-b588-278e00b09716","ios":"levelo://app?vid=12f2cd65-1d83-49cd-b588-278e00b09716"},"vehicle_type_id":"4","last_reported":1724612856,"current_range_meters":24400,"station_id":"ce4bh692rcd13ifvqea0","pricing_plan_id":"cebpf4jnsgd1na2vs0mg"},{"bike_id":"a263bac8-5ec4-4dc5-b2bf-48cac89e68ac","system_id":"levelo_inurba_marseille","lat":43.292547,"lon":5.38441,"is_reserved":false,"is_disabled":false,"rental_uris":{"android":"levelo://app?vid=a263bac8-5ec4-4dc5-b2bf-48cac89e68ac","ios":"levelo://app?vid=a263bac8-5ec4-4dc5-b2bf-48cac89e68ac"},"vehicle_type_id":"4","last_reported":1724612856,"current_range_meters":3200,"station_id":"ce4bh692rcd13ifvqea0","pricing_plan_id":"cebpf4jnsgd1na2vs0mg"},{"bike_id":"1089c7ea-4819-4591-b051-b67aa4e9b3d2","system_id":"levelo_inurba_marseille","lat":43.292644,"lon":5.384257,"is_reserved":false,"is_disabled":false,"rental_uris":{"android":"levelo://app?vid=1089c7ea-4819-4591-b051-b67aa4e9b3d2","ios":"levelo://app?vid=1089c7ea-4819-4591-b051-b67aa4e9b3d2"},"vehicle_type_id":"4","last_reported":1724612856,"current_range_meters":31200,"station_id":"ce4bh692rcd13ifvqea0","pricing_plan_id":"cebpf4jnsgd1na2vs0mg"},{"bike_id":"dadff383-6809-4653-8401-9b4e97a5d5b0","system_id":"levelo_inurba_marseille","lat":43.292644,"lon":5.384257,"is_reserved":false,"is_disabled":false,"rental_uris":{"android":"levelo://app?vid=dadff383-6809-4653-8401-9b4e97a5d5b0","ios":"levelo://app?vid=dadff383-6809-4653-8401-9b4e97a5d5b0"},"vehicle_type_id":"4","last_reported":1724612856,"current_range_meters":30400,"station_id":"ce4bh692rcd13ifvqea0","pricing_plan_id":"cebpf4jnsgd1na2vs0mg"},{"bike_id":"75874ba0-c1fa-4e18-b740-a220a3d7d728","system_id":"levelo_inurba_marseille","lat":43.290103,"lon":5.356114,"is_reserved":false,"is_disabled":false,"rental_uris":{"android":"levelo://app?vid=75874ba0-c1fa-4e18-b740-a220a3d7d728","ios":"levelo://app?vid=75874ba0-c1fa-4e18-b740-a220a3d7d728"},"vehicle_type_id":"4","last_reported":1724612856,"current_range_meters":1200,"station_id":"ce4bhb92rcd13ifvqen0","pricing_plan_id":"cebpf4jnsgd1na2vs0mg"},{"bike_id":"94c8019c-2f1d-4912-9de7-a84bd8c87712","system_id":"levelo_inurba_marseille","lat":43.29003,"lon":5.35616,"is_reserved":false,"is_disabled":false,"rental_uris":{"android":"levelo://app?vid=94c8019c-2f1d-4912-9de7-a84bd8c87712","ios":"levelo://app?vid=94c8019c-2f1d-4912-9de7-a84bd8c87712"},"vehicle_type_id":"4","last_reported":1724612856,"current_range_meters":31200,"station_id":"ce4bhb92rcd13ifvqen0","pricing_plan_id":"cebpf4jnsgd1na2vs0mg"},{"bike_id":"f43bceb9-0534-4e45-9ca6-b26df854c9fc","system_id":"levelo_inurba_marseille","lat":43.290995,"lon":5.381361,"is_reserved":false,"is_disabled":false,"rental_uris":{"android":"levelo://app?vid=f43bceb9-0534-4e45-9ca6-b26df854c9fc","ios":"levelo://app?vid=f43bceb9-0534-4e45-9ca6-b26df854c9fc"},"vehicle_type_id":"4","last_reported":1724612856,"current_range_meters":2800,"station_id":"ce4bh512rcd13ifvqe2g","pricing_plan_id":"cebpf4jnsgd1na2vs0mg"},{"bike_id":"8fa8f47c-f896-47d4-8d5a-f68680fc8920","system_id":"levelo_inurba_marseille","lat":43.290995,"lon":5.381361,"is_reserved":false,"is_disabled":false,"rental_uris":{"android":"levelo://app?vid=8fa8f47c-f896-47d4-8d5a-f68680fc8920","ios":"levelo://app?vid=8fa8f47c-f896-47d4-8d5a-f68680fc8920"},"vehicle_type_id":"4","last_reported":1724612856,"current_range_meters":20400,"station_id":"ce4bh512rcd13ifvqe2g","pricing_plan_id":"cebpf4jnsgd1na2vs0mg"},{"bike_id":"4d1575cb-0ba2-4e35-b82f-253fefdf40fc","system_id":"levelo_inurba_marseille","lat":43.304188,"lon":5.412904,"is_reserved":false,"is_disabled":false,"rental_uris":{"android":"levelo://app?vid=4d1575cb-0ba2-4e35-b82f-253fefdf40fc","ios":"levelo://app?vid=4d1575cb-0ba2-4e35-b82f-253fefdf40fc"},"vehicle_type_id":"4","last_reported":1724612856,"current_range_meters":0,"station_id":"ce4bhop2rcd13ifvqh8g","pricing_plan_id":"cebpf4jnsgd1na2vs0mg"},{"bike_id":"03d921f4-84de-4de0-bb96-ff8ff7ae372d","system_id":"levelo_inurba_marseille","lat":43.295169,"lon":5.390426,"is_reserved":false,"is_disabled":false,"rental_uris":{"android":"levelo://app?vid=03d921f4-84de-4de0-bb96-ff8ff7ae372d","ios":"levelo://app?vid=03d921f4-84de-4de0-bb96-ff8ff7ae372d"},"vehicle_type_id":"4","last_reported":1724612856,"current_range_meters":31200,"station_id":"ce4bh3p2rcd13ifvqdp0","pricing_plan_id":"cebpf4jnsgd1na2vs0mg"},{"bike_id":"e24cf5ad-2a76-40f7-a271-2ecc094636ae","system_id":"levelo_inurba_marseille","lat":43.330442,"lon":5.389148,"is_reserved":false,"is_disabled":false,"rental_uris":{"android":"levelo://app?vid=e24cf5ad-2a76-40f7-a271-2ecc094636ae","ios":"levelo://app?vid=e24cf5ad-2a76-40f7-a271-2ecc094636ae"},"vehicle_type_id":"4","last_reported":1724612856,"current_range_meters":18000,"station_id":"ce4bhr92rcd13ifvqhrg","pricing_plan_id":"cebpf4jnsgd1na2vs0mg"},{"bike_id":"b2fabd9e-3b03-4375-8d2a-b9bf95cd5a4d","system_id":"levelo_inurba_marseille","lat":43.330442,"lon":5.389148,"is_reserved":false,"is_disabled":false,"rental_uris":{"android":"levelo://app?vid=b2fabd9e-3b03-4375-8d2a-b9bf95cd5a4d","ios":"levelo://app?vid=b2fabd9e-3b03-4375-8d2a-b9bf95cd5a4d"},"vehicle_type_id":"4","last_reported":1724612856,"current_range_meters":22800,"station_id":"ce4bhr92rcd13ifvqhrg","pricing_plan_id":"cebpf4jnsgd1na2vs0mg"},{"bike_id":"970fae7b-2bb2-44d9-b0cc-a82282916b69","system_id":"levelo_inurba_marseille","lat":43.33023,"lon":5.39043,"is_reserved":false,"is_disabled":false,"rental_uris":{"android":"levelo://app?vid=970fae7b-2bb2-44d9-b0cc-a82282916b69","ios":"levelo://app?vid=970fae7b-2bb2-44d9-b0cc-a82282916b69"},"vehicle_type_id":"4","last_reported":1724612856,"current_range_meters":0,"station_id":"ce4bhr92rcd13ifvqhrg","pricing_plan_id":"cebpf4jnsgd1na2vs0mg"},{"bike_id":"0356e7c6-107c-487e-a391-99a355aae6be","system_id":"levelo_inurba_marseille","lat":43.330442,"lon":5.389148,"is_reserved":false,"is_disabled":false,"rental_uris":{"android":"levelo://app?vid=0356e7c6-107c-487e-a391-99a355aae6be","ios":"levelo://app?vid=0356e7c6-107c-487e-a391-99a355aae6be"},"vehicle_type_id":"4","last_reported":1724612856,"current_range_meters":26000,"station_id":"ce4bhr92rcd13ifvqhrg","pricing_plan_id":"cebpf4jnsgd1na2vs0mg"},{"bike_id":"2f411b73-7e20-4c3b-abf8-0c2d4968564a","system_id":"levelo_inurba_marseille","lat":43.33026,"lon":5.39046,"is_reserved":false,"is_disabled":false,"rental_uris":{"android":"levelo://app?vid=2f411b73-7e20-4c3b-abf8-0c2d4968564a","ios":"levelo://app?vid=2f411b73-7e20-4c3b-abf8-0c2d4968564a"},"vehicle_type_id":"4","last_reported":1724612856,"current_range_meters":6400,"station_id":"ce4bhr92rcd13ifvqhrg","pricing_plan_id":"cebpf4jnsgd1na2vs0mg"},{"bike_id":"f77f4418-1eb7-4e04-842e-fb560358dc6d","system_id":"levelo_inurba_marseille","lat":43.30513,"lon":5.399023,"is_reserved":false,"is_disabled":false,"rental_uris":{"android":"levelo://app?vid=f77f4418-1eb7-4e04-842e-fb560358dc6d","ios":"levelo://app?vid=f77f4418-1eb7-4e04-842e-fb560358dc6d"},"vehicle_type_id":"4","last_reported":1724612856,"current_range_meters":7200,"station_id":"","pricing_plan_id":"cebpf4jnsgd1na2vs0mg"},{"bike_id":"7b4adca6-2ab8-45f9-a512-acd74d38043d","system_id":"levelo_inurba_marseille","lat":43.2901,"lon":5.381269,"is_reserved":false,"is_disabled":false,"rental_uris":{"android":"levelo://app?vid=7b4adca6-2ab8-45f9-a512-acd74d38043d","ios":"levelo://app?vid=7b4adca6-2ab8-45f9-a512-acd74d38043d"},"vehicle_type_id":"4","last_reported":1724612856,"current_range_meters":25200,"station_id":"ce4bh4p2rcd13ifvqe1g","pricing_plan_id":"cebpf4jnsgd1na2vs0mg"},{"bike_id":"df1bd676-60ff-4958-8c90-1872467d8f27","system_id":"levelo_inurba_marseille","lat":43.2901,"lon":5.381269,"is_reserved":false,"is_disabled":false,"rental_uris":{"android":"levelo://app?vid=df1bd676-60ff-4958-8c90-1872467d8f27","ios":"levelo://app?vid=df1bd676-60ff-4958-8c90-1872467d8f27"},"vehicle_type_id":"4","last_reported":1724612856,"current_range_meters":0,"station_id":"ce4bh4p2rcd13ifvqe1g","pricing_plan_id":"cebpf4jnsgd1na2vs0mg"},{"bike_id":"a8c828f3-2fc8-4497-a215-dc3d8a9325fe","system_id":"levelo_inurba_marseille","lat":43.295169,"lon":5.390426,"is_reserved":false,"is_disabled":false,"rental_uris":{"android":"levelo://app?vid=a8c828f3-2fc8-4497-a215-dc3d8a9325fe","ios":"levelo://app?vid=a8c828f3-2fc8-4497-a215-dc3d8a9325fe"},"vehicle_type_id":"4","last_reported":1724612856,"current_range_meters":16400,"station_id":"ce4bh3p2rcd13ifvqdp0","pricing_plan_id":"cebpf4jnsgd1na2vs0mg"},{"bike_id":"c3b58a26-0558-45a3-8a6d-fb6598e43c6c","system_id":"levelo_inurba_marseille","lat":43.312609,"lon":5.401662,"is_reserved":false,"is_disabled":false,"rental_uris":{"android":"levelo://app?vid=c3b58a26-0558-45a3-8a6d-fb6598e43c6c","ios":"levelo://app?vid=c3b58a26-0558-45a3-8a6d-fb6598e43c6c"},"vehicle_type_id":"4","last_reported":1724612856,"current_range_meters":4800,"station_id":"ce4bh092rcd13ifvqd30","pricing_plan_id":"cebpf4jnsgd1na2vs0mg"},{"bike_id":"831f6ccd-7749-4ca2-8b01-dc0b8b27076e","system_id":"levelo_inurba_marseille","lat":43.3128,"lon":5.401682,"is_reserved":false,"is_disabled":false,"rental_uris":{"android":"levelo://app?vid=831f6ccd-7749-4ca2-8b01-dc0b8b27076e","ios":"levelo://app?vid=831f6ccd-7749-4ca2-8b01-dc0b8b27076e"},"vehicle_type_id":"4","last_reported":1724612856,"current_range_meters":0,"station_id":"ce4bh092rcd13ifvqd30","pricing_plan_id":"cebpf4jnsgd1na2vs0mg"},{"bike_id":"6714f448-80de-404c-98c7-d8c9ec3e3be8","system_id":"levelo_inurba_marseille","lat":43.312609,"lon":5.401662,"is_reserved":false,"is_disabled":false,"rental_uris":{"android":"levelo://app?vid=6714f448-80de-404c-98c7-d8c9ec3e3be8","ios":"levelo://app?vid=6714f448-80de-404c-98c7-d8c9ec3e3be8"},"vehicle_type_id":"4","last_reported":1724612856,"current_range_meters":24000,"station_id":"ce4bh092rcd13ifvqd30","pricing_plan_id":"cebpf4jnsgd1na2vs0mg"},{"bike_id":"be89fe1f-566b-4d4c-ae93-9e5fcc5f685b","system_id":"levelo_inurba_marseille","lat":43.312609,"lon":5.401662,"is_reserved":false,"is_disabled":false,"rental_uris":{"android":"levelo://app?vid=be89fe1f-566b-4d4c-ae93-9e5fcc5f685b","ios":"levelo://app?vid=be89fe1f-566b-4d4c-ae93-9e5fcc5f685b"},"vehicle_type_id":"4","last_reported":1724612856,"current_range_meters":16000,"station_id":"ce4bh092rcd13ifvqd30","pricing_plan_id":"cebpf4jnsgd1na2vs0mg"},{"bike_id":"30081d5c-6ea9-41cb-bcd9-885e30575c1d","system_id":"levelo_inurba_marseille","lat":43.312609,"lon":5.401662,"is_reserved":false,"is_disabled":false,"rental_uris":{"android":"levelo://app?vid=30081d5c-6ea9-41cb-bcd9-885e30575c1d","ios":"levelo://app?vid=30081d5c-6ea9-41cb-bcd9-885e30575c1d"},"vehicle_type_id":"4","last_reported":1724612856,"current_range_meters":27200,"station_id":"ce4bh092rcd13ifvqd30","pricing_plan_id":"cebpf4jnsgd1na2vs0mg"},{"bike_id":"8dec0b52-c35c-4e45-8dd1-0bb6e5d11eb0","system_id":"levelo_inurba_marseille","lat":43.309371,"lon":5.401449,"is_reserved":false,"is_disabled":false,"rental_uris":{"android":"levelo://app?vid=8dec0b52-c35c-4e45-8dd1-0bb6e5d11eb0","ios":"levelo://app?vid=8dec0b52-c35c-4e45-8dd1-0bb6e5d11eb0"},"vehicle_type_id":"4","last_reported":1724612856,"current_range_meters":28800,"station_id":"ce4bgvp2rcd13ifvqct0","pricing_plan_id":"cebpf4jnsgd1na2vs0mg"},{"bike_id":"9732a888-10d8-49c4-87a8-5eb3e17aaf33","system_id":"levelo_inurba_marseille","lat":43.312609,"lon":5.401662,"is_reserved":false,"is_disabled":false,"rental_uris":{"android":"levelo://app?vid=9732a888-10d8-49c4-87a8-5eb3e17aaf33","ios":"levelo://app?vid=9732a888-10d8-49c4-87a8-5eb3e17aaf33"},"vehicle_type_id":"4","last_reported":1724612856,"current_range_meters":31600,"station_id":"ce4bh092rcd13ifvqd30","pricing_plan_id":"cebpf4jnsgd1na2vs0mg"},{"bike_id":"fba97a86-0938-489d-8b51-af83ea98d54c","system_id":"levelo_inurba_marseille","lat":43.309371,"lon":5.401449,"is_reserved":false,"is_disabled":false,"rental_uris":{"android":"levelo://app?vid=fba97a86-0938-489d-8b51-af83ea98d54c","ios":"levelo://app?vid=fba97a86-0938-489d-8b51-af83ea98d54c"},"vehicle_type_id":"4","last_reported":1724612856,"current_range_meters":12800,"station_id":"ce4bgvp2rcd13ifvqct0","pricing_plan_id":"cebpf4jnsgd1na2vs0mg"},{"bike_id":"4406f420-66a7-4969-8061-63943001c6fe","system_id":"levelo_inurba_marseille","lat":43.309371,"lon":5.401449,"is_reserved":false,"is_disabled":false,"rental_uris":{"android":"levelo://app?vid=4406f420-66a7-4969-8061-63943001c6fe","ios":"levelo://app?vid=4406f420-66a7-4969-8061-63943001c6fe"},"vehicle_type_id":"4","last_reported":1724612856,"current_range_meters":6000,"station_id":"ce4bgvp2rcd13ifvqct0","pricing_plan_id":"cebpf4jnsgd1na2vs0mg"},{"bike_id":"a0e34b23-4dd9-45fc-8739-f707ec590116","system_id":"levelo_inurba_marseille","lat":43.312609,"lon":5.401662,"is_reserved":false,"is_disabled":false,"rental_uris":{"android":"levelo://app?vid=a0e34b23-4dd9-45fc-8739-f707ec590116","ios":"levelo://app?vid=a0e34b23-4dd9-45fc-8739-f707ec590116"},"vehicle_type_id":"4","last_reported":1724612856,"current_range_meters":25200,"station_id":"ce4bh092rcd13ifvqd30","pricing_plan_id":"cebpf4jnsgd1na2vs0mg"},{"bike_id":"9ec3d770-57a1-4ee3-8821-86236ebb7c46","system_id":"levelo_inurba_marseille","lat":43.312609,"lon":5.401662,"is_reserved":false,"is_disabled":false,"rental_uris":{"android":"levelo://app?vid=9ec3d770-57a1-4ee3-8821-86236ebb7c46","ios":"levelo://app?vid=9ec3d770-57a1-4ee3-8821-86236ebb7c46"},"vehicle_type_id":"4","last_reported":1724612856,"current_range_meters":24000,"station_id":"ce4bh092rcd13ifvqd30","pricing_plan_id":"cebpf4jnsgd1na2vs0mg"},{"bike_id":"63316a8e-9678-4c29-a469-225b2160804c","system_id":"levelo_inurba_marseille","lat":43.309371,"lon":5.401449,"is_reserved":false,"is_disabled":false,"rental_uris":{"android":"levelo://app?vid=63316a8e-9678-4c29-a469-225b2160804c","ios":"levelo://app?vid=63316a8e-9678-4c29-a469-225b2160804c"},"vehicle_type_id":"4","last_reported":1724612856,"current_range_meters":15200,"station_id":"ce4bgvp2rcd13ifvqct0","pricing_plan_id":"cebpf4jnsgd1na2vs0mg"},{"bike_id":"c594b3e3-1ba6-43b9-a1c1-be8533666e55","system_id":"levelo_inurba_marseille","lat":43.33751,"lon":5.37441,"is_reserved":false,"is_disabled":false,"rental_uris":{"android":"levelo://app?vid=c594b3e3-1ba6-43b9-a1c1-be8533666e55","ios":"levelo://app?vid=c594b3e3-1ba6-43b9-a1c1-be8533666e55"},"vehicle_type_id":"4","last_reported":1724612856,"current_range_meters":22400,"station_id":"","pricing_plan_id":"cebpf4jnsgd1na2vs0mg"},{"bike_id":"ce0f7c36-b06c-4adf-9c36-dffbc9deafca","system_id":"levelo_inurba_marseille","lat":43.309371,"lon":5.401449,"is_reserved":false,"is_disabled":false,"rental_uris":{"android":"levelo://app?vid=ce0f7c36-b06c-4adf-9c36-dffbc9deafca","ios":"levelo://app?vid=ce0f7c36-b06c-4adf-9c36-dffbc9deafca"},"vehicle_type_id":"4","last_reported":1724612856,"current_range_meters":19600,"station_id":"ce4bgvp2rcd13ifvqct0","pricing_plan_id":"cebpf4jnsgd1na2vs0mg"},{"bike_id":"dfa062e6-965a-46e3-86c5-1dc86503ede5","system_id":"levelo_inurba_marseille","lat":43.287805,"lon":5.373689,"is_reserved":false,"is_disabled":false,"rental_uris":{"android":"levelo://app?vid=dfa062e6-965a-46e3-86c5-1dc86503ede5","ios":"levelo://app?vid=dfa062e6-965a-46e3-86c5-1dc86503ede5"},"vehicle_type_id":"4","last_reported":1724612856,"current_range_meters":29600,"station_id":"","pricing_plan_id":"cebpf4jnsgd1na2vs0mg"},{"bike_id":"db399c75-49ad-4419-a288-38737e32025d","system_id":"levelo_inurba_marseille","lat":43.337552,"lon":5.374572,"is_reserved":false,"is_disabled":false,"rental_uris":{"android":"levelo://app?vid=db399c75-49ad-4419-a288-38737e32025d","ios":"levelo://app?vid=db399c75-49ad-4419-a288-38737e32025d"},"vehicle_type_id":"4","last_reported":1724612856,"current_range_meters":24000,"station_id":"","pricing_plan_id":"cebpf4jnsgd1na2vs0mg"},{"bike_id":"a6de0161-1a37-4484-af54-217f3b7611b4","system_id":"levelo_inurba_marseille","lat":43.3375,"lon":5.37493,"is_reserved":false,"is_disabled":false,"rental_uris":{"android":"levelo://app?vid=a6de0161-1a37-4484-af54-217f3b7611b4","ios":"levelo://app?vid=a6de0161-1a37-4484-af54-217f3b7611b4"},"vehicle_type_id":"4","last_reported":1724612856,"current_range_meters":28400,"station_id":"","pricing_plan_id":"cebpf4jnsgd1na2vs0mg"},{"bike_id":"cdc35d34-57e9-43e1-ac36-c0218dd5a9e1","system_id":"levelo_inurba_marseille","lat":43.337512,"lon":5.374915,"is_reserved":false,"is_disabled":false,"rental_uris":{"android":"levelo://app?vid=cdc35d34-57e9-43e1-ac36-c0218dd5a9e1","ios":"levelo://app?vid=cdc35d34-57e9-43e1-ac36-c0218dd5a9e1"},"vehicle_type_id":"4","last_reported":1724612856,"current_range_meters":17200,"station_id":"","pricing_plan_id":"cebpf4jnsgd1na2vs0mg"},{"bike_id":"1b635017-1f6d-4ccf-887c-5535d999fc49","system_id":"levelo_inurba_marseille","lat":43.33768,"lon":5.37436,"is_reserved":false,"is_disabled":false,"rental_uris":{"android":"levelo://app?vid=1b635017-1f6d-4ccf-887c-5535d999fc49","ios":"levelo://app?vid=1b635017-1f6d-4ccf-887c-5535d999fc49"},"vehicle_type_id":"4","last_reported":1724612856,"current_range_meters":9600,"station_id":"","pricing_plan_id":"cebpf4jnsgd1na2vs0mg"},{"bike_id":"e74b2c1b-a4ed-436c-ac87-75ab61f9c077","system_id":"levelo_inurba_marseille","lat":43.30644,"lon":5.40093,"is_reserved":false,"is_disabled":false,"rental_uris":{"android":"levelo://app?vid=e74b2c1b-a4ed-436c-ac87-75ab61f9c077","ios":"levelo://app?vid=e74b2c1b-a4ed-436c-ac87-75ab61f9c077"},"vehicle_type_id":"4","last_reported":1724612856,"current_range_meters":4800,"station_id":"ce4bh112rcd13ifvqda0","pricing_plan_id":"cebpf4jnsgd1na2vs0mg"},{"bike_id":"5f1292b5-6400-4c7a-9137-ecd18d90e54b","system_id":"levelo_inurba_marseille","lat":43.28727,"lon":5.36078,"is_reserved":false,"is_disabled":false,"rental_uris":{"android":"levelo://app?vid=5f1292b5-6400-4c7a-9137-ecd18d90e54b","ios":"levelo://app?vid=5f1292b5-6400-4c7a-9137-ecd18d90e54b"},"vehicle_type_id":"4","last_reported":1724612856,"current_range_meters":11600,"station_id":"cki0cbj6b192h4jlfktg","pricing_plan_id":"cebpf4jnsgd1na2vs0mg"},{"bike_id":"1fea7d7f-63c8-4c4c-8c6f-b627f08e1eed","system_id":"levelo_inurba_marseille","lat":43.2871,"lon":5.37395,"is_reserved":false,"is_disabled":false,"rental_uris":{"android":"levelo://app?vid=1fea7d7f-63c8-4c4c-8c6f-b627f08e1eed","ios":"levelo://app?vid=1fea7d7f-63c8-4c4c-8c6f-b627f08e1eed"},"vehicle_type_id":"4","last_reported":1724612856,"current_range_meters":1200,"station_id":"ce4bh3p2rcd13ifvqdq0","pricing_plan_id":"cebpf4jnsgd1na2vs0mg"},{"bike_id":"6fd414bb-ed88-4cd0-9a81-e33433bc2477","system_id":"levelo_inurba_marseille","lat":43.286593,"lon":5.363346,"is_reserved":false,"is_disabled":false,"rental_uris":{"android":"levelo://app?vid=6fd414bb-ed88-4cd0-9a81-e33433bc2477","ios":"levelo://app?vid=6fd414bb-ed88-4cd0-9a81-e33433bc2477"},"vehicle_type_id":"4","last_reported":1724612856,"current_range_meters":30800,"station_id":"ce4bhah2rcd13ifvqej0","pricing_plan_id":"cebpf4jnsgd1na2vs0mg"},{"bike_id":"676b4443-ea3d-4089-b5a9-d0f71324b983","system_id":"levelo_inurba_marseille","lat":43.28708,"lon":5.374,"is_reserved":false,"is_disabled":false,"rental_uris":{"android":"levelo://app?vid=676b4443-ea3d-4089-b5a9-d0f71324b983","ios":"levelo://app?vid=676b4443-ea3d-4089-b5a9-d0f71324b983"},"vehicle_type_id":"4","last_reported":1724612856,"current_range_meters":0,"station_id":"ce4bh3p2rcd13ifvqdq0","pricing_plan_id":"cebpf4jnsgd1na2vs0mg"},{"bike_id":"7134f016-c5b8-4376-92b1-cc1778649772","system_id":"levelo_inurba_marseille","lat":43.286961,"lon":5.373785,"is_reserved":false,"is_disabled":false,"rental_uris":{"android":"levelo://app?vid=7134f016-c5b8-4376-92b1-cc1778649772","ios":"levelo://app?vid=7134f016-c5b8-4376-92b1-cc1778649772"},"vehicle_type_id":"4","last_reported":1724612856,"current_range_meters":13200,"station_id":"ce4bh3p2rcd13ifvqdq0","pricing_plan_id":"cebpf4jnsgd1na2vs0mg"},{"bike_id":"1976e650-95cf-4075-ba9c-f26e6bda3729","system_id":"levelo_inurba_marseille","lat":43.286961,"lon":5.373785,"is_reserved":false,"is_disabled":false,"rental_uris":{"android":"levelo://app?vid=1976e650-95cf-4075-ba9c-f26e6bda3729","ios":"levelo://app?vid=1976e650-95cf-4075-ba9c-f26e6bda3729"},"vehicle_type_id":"4","last_reported":1724612856,"current_range_meters":0,"station_id":"ce4bh3p2rcd13ifvqdq0","pricing_plan_id":"cebpf4jnsgd1na2vs0mg"},