{"last_updated":1778802296,"ttl":60,"version":"2.2","data":{"bikes":[{"bike_id":"6e45b7ea-c9e7-480c-8b3c-a1dcee9e3192","system_id":"levelo_inurba_marseille","lat":43.27823,"lon":5.40677,"is_reserved":false,"is_disabled":false,"rental_uris":{"android":"levelo://app?vid=6e45b7ea-c9e7-480c-8b3c-a1dcee9e3192","ios":"levelo://app?vid=6e45b7ea-c9e7-480c-8b3c-a1dcee9e3192"},"vehicle_type_id":"4","last_reported":1778802297,"current_range_meters":2800,"station_id":"ce4bhnh2rcd13ifvqgtg","pricing_plan_id":"cebpf4jnsgd1na2vs0mg"},{"bike_id":"9ab50b43-e773-44c6-bb05-ba7e50aa1266","system_id":"levelo_inurba_marseille","lat":43.30925,"lon":5.40178,"is_reserved":false,"is_disabled":false,"rental_uris":{"android":"levelo://app?vid=9ab50b43-e773-44c6-bb05-ba7e50aa1266","ios":"levelo://app?vid=9ab50b43-e773-44c6-bb05-ba7e50aa1266"},"vehicle_type_id":"4","last_reported":1778802297,"current_range_meters":2800,"station_id":"ce4bgvp2rcd13ifvqct0","pricing_plan_id":"cebpf4jnsgd1na2vs0mg"},{"bike_id":"80fc07cc-8acf-47df-924a-e97132c371a3","system_id":"levelo_inurba_marseille","lat":43.28442,"lon":5.359,"is_reserved":false,"is_disabled":true,"rental_uris":{"android":"levelo://app?vid=80fc07cc-8acf-47df-924a-e97132c371a3","ios":"levelo://app?vid=80fc07cc-8acf-47df-924a-e97132c371a3"},"vehicle_type_id":"4","last_reported":1778802297,"current_range_meters":2800,"station_id":"ce4bhah2rcd13ifvqei0","pricing_plan_id":"cebpf4jnsgd1na2vs0mg"},{"bike_id":"ab589c5d-ea33-4c8e-b062-dbb34b344522","system_id":"levelo_inurba_marseille","lat":43.26187,"lon":5.40447,"is_reserved":false,"is_disabled":false,"rental_uris":{"android":"levelo://app?vid=ab589c5d-ea33-4c8e-b062-dbb34b344522","ios":"levelo://app?vid=ab589c5d-ea33-4c8e-b062-dbb34b344522"},"vehicle_type_id":"4","last_reported":1778802297,"current_range_meters":2800,"station_id":"ce4bhmh2rcd13ifvqgmg","pricing_plan_id":"cebpf4jnsgd1na2vs0mg"},{"bike_id":"070f4be3-7bc8-4497-a12a-27b796f0ae53","system_id":"levelo_inurba_marseille","lat":43.22564,"lon":5.41631,"is_reserved":false,"is_disabled":false,"rental_uris":{"android":"levelo://app?vid=070f4be3-7bc8-4497-a12a-27b796f0ae53","ios":"levelo://app?vid=070f4be3-7bc8-4497-a12a-27b796f0ae53"},"vehicle_type_id":"4","last_reported":1778802297,"current_range_meters":2800,"station_id":"st_d2o4gvlbi1j2169b742g","pricing_plan_id":"cebpf4jnsgd1na2vs0mg"},{"bike_id":"7fe557f5-b4ef-4660-b571-2728cd72faf0","system_id":"levelo_inurba_marseille","lat":43.32042,"lon":5.41545,"is_reserved":false,"is_disabled":false,"rental_uris":{"android":"levelo://app?vid=7fe557f5-b4ef-4660-b571-2728cd72faf0","ios":"levelo://app?vid=7fe557f5-b4ef-4660-b571-2728cd72faf0"},"vehicle_type_id":"4","last_reported":1778802297,"current_range_meters":2800,"station_id":"ce4bhq92rcd13ifvqhkg","pricing_plan_id":"cebpf4jnsgd1na2vs0mg"},{"bike_id":"a9ba8863-0646-4a30-9ac2-32f86ae49762","system_id":"levelo_inurba_marseille","lat":43.2945,"lon":5.38231,"is_reserved":false,"is_disabled":false,"rental_uris":{"android":"levelo://app?vid=a9ba8863-0646-4a30-9ac2-32f86ae49762","ios":"levelo://app?vid=a9ba8863-0646-4a30-9ac2-32f86ae49762"},"vehicle_type_id":"4","last_reported":1778802297,"current_range_meters":3200,"station_id":"","pricing_plan_id":"cebpf4jnsgd1na2vs0mg"},{"bike_id":"e02f0872-ce90-4ae7-bb8d-e18f31bd9a28","system_id":"levelo_inurba_marseille","lat":43.303072,"lon":5.368896,"is_reserved":false,"is_disabled":false,"rental_uris":{"android":"levelo://app?vid=e02f0872-ce90-4ae7-bb8d-e18f31bd9a28","ios":"levelo://app?vid=e02f0872-ce90-4ae7-bb8d-e18f31bd9a28"},"vehicle_type_id":"4","last_reported":1778802297,"current_range_meters":3200,"station_id":"ce4bgqh2rcd13ifvqc5g","pricing_plan_id":"cebpf4jnsgd1na2vs0mg"},{"bike_id":"3516f707-d44b-458c-b8a7-897b4586e405","system_id":"levelo_inurba_marseille","lat":43.28395,"lon":5.35008,"is_reserved":false,"is_disabled":false,"rental_uris":{"android":"levelo://app?vid=3516f707-d44b-458c-b8a7-897b4586e405","ios":"levelo://app?vid=3516f707-d44b-458c-b8a7-897b4586e405"},"vehicle_type_id":"4","last_reported":1778802297,"current_range_meters":3200,"station_id":"ce4bhbh2rcd13ifvqepg","pricing_plan_id":"cebpf4jnsgd1na2vs0mg"},{"bike_id":"4baa9b72-17a6-459d-8a63-49a6eeb5a1bd","system_id":"levelo_inurba_marseille","lat":43.29255,"lon":5.38434,"is_reserved":false,"is_disabled":true,"rental_uris":{"android":"levelo://app?vid=4baa9b72-17a6-459d-8a63-49a6eeb5a1bd","ios":"levelo://app?vid=4baa9b72-17a6-459d-8a63-49a6eeb5a1bd"},"vehicle_type_id":"4","last_reported":1778802297,"current_range_meters":3200,"station_id":"ce4bh692rcd13ifvqea0","pricing_plan_id":"cebpf4jnsgd1na2vs0mg"},{"bike_id":"ea11b4d1-1979-4d60-80e0-6b6d65088d4f","system_id":"levelo_inurba_marseille","lat":43.27202,"lon":5.39184,"is_reserved":false,"is_disabled":true,"rental_uris":{"android":"levelo://app?vid=ea11b4d1-1979-4d60-80e0-6b6d65088d4f","ios":"levelo://app?vid=ea11b4d1-1979-4d60-80e0-6b6d65088d4f"},"vehicle_type_id":"4","last_reported":1778802297,"current_range_meters":3200,"station_id":"ce4bhhp2rcd13ifvqfm0","pricing_plan_id":"cebpf4jnsgd1na2vs0mg"},{"bike_id":"746b2e35-4920-41bb-a882-646504feda2d","system_id":"levelo_inurba_marseille","lat":43.301422,"lon":5.374063,"is_reserved":false,"is_disabled":false,"rental_uris":{"android":"levelo://app?vid=746b2e35-4920-41bb-a882-646504feda2d","ios":"levelo://app?vid=746b2e35-4920-41bb-a882-646504feda2d"},"vehicle_type_id":"4","last_reported":1778802297,"current_range_meters":3200,"station_id":"ce4bgs92rcd13ifvqcc0","pricing_plan_id":"cebpf4jnsgd1na2vs0mg"},{"bike_id":"5e8620f7-476d-479d-b824-0ee8299b38df","system_id":"levelo_inurba_marseille","lat":43.31212,"lon":5.37819,"is_reserved":false,"is_disabled":false,"rental_uris":{"android":"levelo://app?vid=5e8620f7-476d-479d-b824-0ee8299b38df","ios":"levelo://app?vid=5e8620f7-476d-479d-b824-0ee8299b38df"},"vehicle_type_id":"4","last_reported":1778802297,"current_range_meters":3600,"station_id":"","pricing_plan_id":"cebpf4jnsgd1na2vs0mg"},{"bike_id":"444e590a-d5c6-4ed8-8472-111cbab46855","system_id":"levelo_inurba_marseille","lat":43.24045,"lon":5.37789,"is_reserved":false,"is_disabled":false,"rental_uris":{"android":"levelo://app?vid=444e590a-d5c6-4ed8-8472-111cbab46855","ios":"levelo://app?vid=444e590a-d5c6-4ed8-8472-111cbab46855"},"vehicle_type_id":"4","last_reported":1778802297,"current_range_meters":3600,"station_id":"ce4bhnp2rcd13ifvqgvg","pricing_plan_id":"cebpf4jnsgd1na2vs0mg"},{"bike_id":"16d0bef7-2d54-40df-9202-da3c1a23605b","system_id":"levelo_inurba_marseille","lat":43.30122,"lon":5.43124,"is_reserved":false,"is_disabled":false,"rental_uris":{"android":"levelo://app?vid=16d0bef7-2d54-40df-9202-da3c1a23605b","ios":"levelo://app?vid=16d0bef7-2d54-40df-9202-da3c1a23605b"},"vehicle_type_id":"4","last_reported":1778802297,"current_range_meters":3600,"station_id":"st_d3js3co5814s73ftftug","pricing_plan_id":"cebpf4jnsgd1na2vs0mg"},{"bike_id":"451884af-2111-4fc4-b1be-ddb7a28232bd","system_id":"levelo_inurba_marseille","lat":43.28538,"lon":5.44065,"is_reserved":false,"is_disabled":false,"rental_uris":{"android":"levelo://app?vid=451884af-2111-4fc4-b1be-ddb7a28232bd","ios":"levelo://app?vid=451884af-2111-4fc4-b1be-ddb7a28232bd"},"vehicle_type_id":"4","last_reported":1778802297,"current_range_meters":3600,"station_id":"st_d3j3df2ikq2c7380ej80","pricing_plan_id":"cebpf4jnsgd1na2vs0mg"},{"bike_id":"f6b324ec-97d0-4c9e-8ac0-fb5fdc3c15cf","system_id":"levelo_inurba_marseille","lat":43.30749,"lon":5.42406,"is_reserved":false,"is_disabled":false,"rental_uris":{"android":"levelo://app?vid=f6b324ec-97d0-4c9e-8ac0-fb5fdc3c15cf","ios":"levelo://app?vid=f6b324ec-97d0-4c9e-8ac0-fb5fdc3c15cf"},"vehicle_type_id":"4","last_reported":1778802297,"current_range_meters":3600,"station_id":"","pricing_plan_id":"cebpf4jnsgd1na2vs0mg"},{"bike_id":"1f3f9365-b955-43e2-8796-812d7d10e10e","system_id":"levelo_inurba_marseille","lat":43.2818,"lon":5.39082,"is_reserved":false,"is_disabled":false,"rental_uris":{"android":"levelo://app?vid=1f3f9365-b955-43e2-8796-812d7d10e10e","ios":"levelo://app?vid=1f3f9365-b955-43e2-8796-812d7d10e10e"},"vehicle_type_id":"4","last_reported":1778802297,"current_range_meters":3600,"station_id":"ce4bhn92rcd13ifvqgsg","pricing_plan_id":"cebpf4jnsgd1na2vs0mg"},{"bike_id":"b20006fd-cc9e-4cc6-b314-37df3e2b2762","system_id":"levelo_inurba_marseille","lat":43.27063,"lon":5.38308,"is_reserved":false,"is_disabled":false,"rental_uris":{"android":"levelo://app?vid=b20006fd-cc9e-4cc6-b314-37df3e2b2762","ios":"levelo://app?vid=b20006fd-cc9e-4cc6-b314-37df3e2b2762"},"vehicle_type_id":"4","last_reported":1778802297,"current_range_meters":3600,"station_id":"st_d3n2fo6cfp8s73cte1j0","pricing_plan_id":"cebpf4jnsgd1na2vs0mg"},{"bike_id":"f8a5149b-f19e-4377-9344-32e1511bcbba","system_id":"levelo_inurba_marseille","lat":43.2869,"lon":5.46706,"is_reserved":false,"is_disabled":false,"rental_uris":{"android":"levelo://app?vid=f8a5149b-f19e-4377-9344-32e1511bcbba","ios":"levelo://app?vid=f8a5149b-f19e-4377-9344-32e1511bcbba"},"vehicle_type_id":"4","last_reported":1778802297,"current_range_meters":3600,"station_id":"st_d6tc3vkotcvc738tfjhg","pricing_plan_id":"cebpf4jnsgd1na2vs0mg"},{"bike_id":"0450ae6f-6f17-4c43-8fb9-91bf94b35e18","system_id":"levelo_inurba_marseille","lat":43.30187,"lon":5.36562,"is_reserved":false,"is_disabled":false,"rental_uris":{"android":"levelo://app?vid=0450ae6f-6f17-4c43-8fb9-91bf94b35e18","ios":"levelo://app?vid=0450ae6f-6f17-4c43-8fb9-91bf94b35e18"},"vehicle_type_id":"4","last_reported":1778802297,"current_range_meters":4000,"station_id":"","pricing_plan_id":"cebpf4jnsgd1na2vs0mg"},{"bike_id":"8b467899-d7be-4610-b502-70708c4f8094","system_id":"levelo_inurba_marseille","lat":43.31119,"lon":5.37758,"is_reserved":false,"is_disabled":false,"rental_uris":{"android":"levelo://app?vid=8b467899-d7be-4610-b502-70708c4f8094","ios":"levelo://app?vid=8b467899-d7be-4610-b502-70708c4f8094"},"vehicle_type_id":"4","last_reported":1778802297,"current_range_meters":4000,"station_id":"ce4bgt92rcd13ifvqcg0","pricing_plan_id":"cebpf4jnsgd1na2vs0mg"},{"bike_id":"da9d6cbb-1bc2-4da6-806e-58a26ec7fa3a","system_id":"levelo_inurba_marseille","lat":43.28423,"lon":5.34967,"is_reserved":false,"is_disabled":false,"rental_uris":{"android":"levelo://app?vid=da9d6cbb-1bc2-4da6-806e-58a26ec7fa3a","ios":"levelo://app?vid=da9d6cbb-1bc2-4da6-806e-58a26ec7fa3a"},"vehicle_type_id":"4","last_reported":1778802297,"current_range_meters":4000,"station_id":"ce4bhbh2rcd13ifvqepg","pricing_plan_id":"cebpf4jnsgd1na2vs0mg"},{"bike_id":"9c861895-7fc9-49d9-b3bd-d641d7630397","system_id":"levelo_inurba_marseille","lat":43.23179,"lon":5.39984,"is_reserved":false,"is_disabled":false,"rental_uris":{"android":"levelo://app?vid=9c861895-7fc9-49d9-b3bd-d641d7630397","ios":"levelo://app?vid=9c861895-7fc9-49d9-b3bd-d641d7630397"},"vehicle_type_id":"4","last_reported":1778802297,"current_range_meters":4000,"station_id":"ce4bhn12rcd13ifvqgqg","pricing_plan_id":"cebpf4jnsgd1na2vs0mg"},{"bike_id":"1e376547-28d1-4c71-ad38-dccc2473beb9","system_id":"levelo_inurba_marseille","lat":43.28467,"lon":5.48375,"is_reserved":false,"is_disabled":false,"rental_uris":{"android":"levelo://app?vid=1e376547-28d1-4c71-ad38-dccc2473beb9","ios":"levelo://app?vid=1e376547-28d1-4c71-ad38-dccc2473beb9"},"vehicle_type_id":"4","last_reported":1778802297,"current_range_meters":4000,"station_id":"st_d3svhcjqgbts73a3dn0g","pricing_plan_id":"cebpf4jnsgd1na2vs0mg"},{"bike_id":"9c1d5420-56dc-4356-b6cc-2e544ad1549a","system_id":"levelo_inurba_marseille","lat":43.2996,"lon":5.38899,"is_reserved":false,"is_disabled":false,"rental_uris":{"android":"levelo://app?vid=9c1d5420-56dc-4356-b6cc-2e544ad1549a","ios":"levelo://app?vid=9c1d5420-56dc-4356-b6cc-2e544ad1549a"},"vehicle_type_id":"4","last_reported":1778802297,"current_range_meters":4000,"station_id":"","pricing_plan_id":"cebpf4jnsgd1na2vs0mg"},{"bike_id":"1fd73c5a-499b-426b-a673-b5f37531aaef","system_id":"levelo_inurba_marseille","lat":43.31076,"lon":5.42441,"is_reserved":false,"is_disabled":false,"rental_uris":{"android":"levelo://app?vid=1fd73c5a-499b-426b-a673-b5f37531aaef","ios":"levelo://app?vid=1fd73c5a-499b-426b-a673-b5f37531aaef"},"vehicle_type_id":"4","last_reported":1778802297,"current_range_meters":4400,"station_id":"ce4bhp92rcd13ifvqhag","pricing_plan_id":"cebpf4jnsgd1na2vs0mg"},{"bike_id":"fd6225b0-472a-430a-b26d-b20a281eb878","system_id":"levelo_inurba_marseille","lat":43.2925,"lon":5.40913,"is_reserved":false,"is_disabled":false,"rental_uris":{"android":"levelo://app?vid=fd6225b0-472a-430a-b26d-b20a281eb878","ios":"levelo://app?vid=fd6225b0-472a-430a-b26d-b20a281eb878"},"vehicle_type_id":"4","last_reported":1778802297,"current_range_meters":4400,"station_id":"ce4bh192rcd13ifvqdc0","pricing_plan_id":"cebpf4jnsgd1na2vs0mg"},{"bike_id":"34fb0973-3cfa-4621-94df-f81f5533c6b5","system_id":"levelo_inurba_marseille","lat":43.29023,"lon":5.38653,"is_reserved":false,"is_disabled":false,"rental_uris":{"android":"levelo://app?vid=34fb0973-3cfa-4621-94df-f81f5533c6b5","ios":"levelo://app?vid=34fb0973-3cfa-4621-94df-f81f5533c6b5"},"vehicle_type_id":"4","last_reported":1778802297,"current_range_meters":4400,"station_id":"ce4bh4p2rcd13ifvqe0g","pricing_plan_id":"cebpf4jnsgd1na2vs0mg"},{"bike_id":"0851f791-575d-4580-b469-9a5c98e28a8c","system_id":"levelo_inurba_marseille","lat":43.29133,"lon":5.42442,"is_reserved":false,"is_disabled":false,"rental_uris":{"android":"levelo://app?vid=0851f791-575d-4580-b469-9a5c98e28a8c","ios":"levelo://app?vid=0851f791-575d-4580-b469-9a5c98e28a8c"},"vehicle_type_id":"4","last_reported":1778802297,"current_range_meters":4400,"station_id":"","pricing_plan_id":"cebpf4jnsgd1na2vs0mg"},{"bike_id":"925734c3-1250-45c0-9661-a26d1053b54b","system_id":"levelo_inurba_marseille","lat":43.25579,"lon":5.38226,"is_reserved":false,"is_disabled":false,"rental_uris":{"android":"levelo://app?vid=925734c3-1250-45c0-9661-a26d1053b54b","ios":"levelo://app?vid=925734c3-1250-45c0-9661-a26d1053b54b"},"vehicle_type_id":"4","last_reported":1778802297,"current_range_meters":4400,"station_id":"ce4bhih2rcd13ifvqfs0","pricing_plan_id":"cebpf4jnsgd1na2vs0mg"},{"bike_id":"db547773-5428-49f8-a749-b92f8f9a342a","system_id":"levelo_inurba_marseille","lat":43.23964,"lon":5.36627,"is_reserved":false,"is_disabled":false,"rental_uris":{"android":"levelo://app?vid=db547773-5428-49f8-a749-b92f8f9a342a","ios":"levelo://app?vid=db547773-5428-49f8-a749-b92f8f9a342a"},"vehicle_type_id":"4","last_reported":1778802297,"current_range_meters":4400,"station_id":"ce4bhi12rcd13ifvqfp0","pricing_plan_id":"cebpf4jnsgd1na2vs0mg"},{"bike_id":"3491ea88-5a23-493e-b0a6-ee151b21b349","system_id":"levelo_inurba_marseille","lat":43.28207,"lon":5.39039,"is_reserved":false,"is_disabled":false,"rental_uris":{"android":"levelo://app?vid=3491ea88-5a23-493e-b0a6-ee151b21b349","ios":"levelo://app?vid=3491ea88-5a23-493e-b0a6-ee151b21b349"},"vehicle_type_id":"4","last_reported":1778802297,"current_range_meters":4400,"station_id":"ce4bhn92rcd13ifvqgsg","pricing_plan_id":"cebpf4jnsgd1na2vs0mg"},{"bike_id":"33b84942-cf5f-4afa-869d-950d91a6d306","system_id":"levelo_inurba_marseille","lat":43.2859,"lon":5.38638,"is_reserved":false,"is_disabled":false,"rental_uris":{"android":"levelo://app?vid=33b84942-cf5f-4afa-869d-950d91a6d306","ios":"levelo://app?vid=33b84942-cf5f-4afa-869d-950d91a6d306"},"vehicle_type_id":"4","last_reported":1778802297,"current_range_meters":4400,"station_id":"","pricing_plan_id":"cebpf4jnsgd1na2vs0mg"},{"bike_id":"6e5dfbd9-c03a-40ed-aedc-3c2f2a1d6845","system_id":"levelo_inurba_marseille","lat":43.23712,"lon":5.39929,"is_reserved":false,"is_disabled":false,"rental_uris":{"android":"levelo://app?vid=6e5dfbd9-c03a-40ed-aedc-3c2f2a1d6845","ios":"levelo://app?vid=6e5dfbd9-c03a-40ed-aedc-3c2f2a1d6845"},"vehicle_type_id":"4","last_reported":1778802297,"current_range_meters":4400,"station_id":"","pricing_plan_id":"cebpf4jnsgd1na2vs0mg"},{"bike_id":"e5b4d391-5239-4e67-8337-04ea17f0c662","system_id":"levelo_inurba_marseille","lat":43.27919,"lon":5.39572,"is_reserved":false,"is_disabled":false,"rental_uris":{"android":"levelo://app?vid=e5b4d391-5239-4e67-8337-04ea17f0c662","ios":"levelo://app?vid=e5b4d391-5239-4e67-8337-04ea17f0c662"},"vehicle_type_id":"4","last_reported":1778802297,"current_range_meters":4400,"station_id":"ce4bhf92rcd13ifvqf40","pricing_plan_id":"cebpf4jnsgd1na2vs0mg"},{"bike_id":"36171f44-6e4b-499c-9f3d-272981e78653","system_id":"levelo_inurba_marseille","lat":43.2619,"lon":5.37465,"is_reserved":false,"is_disabled":false,"rental_uris":{"android":"levelo://app?vid=36171f44-6e4b-499c-9f3d-272981e78653","ios":"levelo://app?vid=36171f44-6e4b-499c-9f3d-272981e78653"},"vehicle_type_id":"4","last_reported":1778802297,"current_range_meters":4800,"station_id":"ce4bhgp2rcd13ifvqfc0","pricing_plan_id":"cebpf4jnsgd1na2vs0mg"},{"bike_id":"8cbadb2c-15eb-47a5-955d-61b92ae0b932","system_id":"levelo_inurba_marseille","lat":43.30791,"lon":5.3816,"is_reserved":false,"is_disabled":false,"rental_uris":{"android":"levelo://app?vid=8cbadb2c-15eb-47a5-955d-61b92ae0b932","ios":"levelo://app?vid=8cbadb2c-15eb-47a5-955d-61b92ae0b932"},"vehicle_type_id":"4","last_reported":1778802297,"current_range_meters":4800,"station_id":"ce4bgt12rcd13ifvqce0","pricing_plan_id":"cebpf4jnsgd1na2vs0mg"},{"bike_id":"2351facd-e0b5-47b2-b77a-87fff66ae3e7","system_id":"levelo_inurba_marseille","lat":43.21745,"lon":5.3459,"is_reserved":false,"is_disabled":false,"rental_uris":{"android":"levelo://app?vid=2351facd-e0b5-47b2-b77a-87fff66ae3e7","ios":"levelo://app?vid=2351facd-e0b5-47b2-b77a-87fff66ae3e7"},"vehicle_type_id":"4","last_reported":1778802297,"current_range_meters":5600,"station_id":"st_cvj6r9ubvosntc0bgbag","pricing_plan_id":"cebpf4jnsgd1na2vs0mg"},{"bike_id":"21630f77-eda1-40f0-8566-04dd068e8503","system_id":"levelo_inurba_marseille","lat":43.33542,"lon":5.37499,"is_reserved":false,"is_disabled":false,"rental_uris":{"android":"levelo://app?vid=21630f77-eda1-40f0-8566-04dd068e8503","ios":"levelo://app?vid=21630f77-eda1-40f0-8566-04dd068e8503"},"vehicle_type_id":"4","last_reported":1778802297,"current_range_meters":5600,"station_id":"st_d46tts09ee8s73dlu43g","pricing_plan_id":"cebpf4jnsgd1na2vs0mg"},{"bike_id":"99d016b5-db26-43a2-b902-f07852d3d0a2","system_id":"levelo_inurba_marseille","lat":43.23149,"lon":5.43717,"is_reserved":false,"is_disabled":false,"rental_uris":{"android":"levelo://app?vid=99d016b5-db26-43a2-b902-f07852d3d0a2","ios":"levelo://app?vid=99d016b5-db26-43a2-b902-f07852d3d0a2"},"vehicle_type_id":"4","last_reported":1778802297,"current_range_meters":5600,"station_id":"ce4bhmp2rcd13ifvqgog","pricing_plan_id":"cebpf4jnsgd1na2vs0mg"},{"bike_id":"87ce4688-a9b6-435d-98b0-56df941a79fe","system_id":"levelo_inurba_marseille","lat":43.28615,"lon":5.39896,"is_reserved":false,"is_disabled":false,"rental_uris":{"android":"levelo://app?vid=87ce4688-a9b6-435d-98b0-56df941a79fe","ios":"levelo://app?vid=87ce4688-a9b6-435d-98b0-56df941a79fe"},"vehicle_type_id":"4","last_reported":1778802297,"current_range_meters":5600,"station_id":"st_d4a7ka997mjs738ck50g","pricing_plan_id":"cebpf4jnsgd1na2vs0mg"},{"bike_id":"17874f6c-4d54-44c9-8cdc-701aa7b888c6","system_id":"levelo_inurba_marseille","lat":43.29562,"lon":5.3749,"is_reserved":false,"is_disabled":true,"rental_uris":{"android":"levelo://app?vid=17874f6c-4d54-44c9-8cdc-701aa7b888c6","ios":"levelo://app?vid=17874f6c-4d54-44c9-8cdc-701aa7b888c6"},"vehicle_type_id":"4","last_reported":1778802297,"current_range_meters":5600,"station_id":"ce4bgh92rcd13ifvqb50","pricing_plan_id":"cebpf4jnsgd1na2vs0mg"},{"bike_id":"cc829911-e80c-4481-8d7a-714b6e680c0c","system_id":"levelo_inurba_marseille","lat":43.30305,"lon":5.36903,"is_reserved":false,"is_disabled":false,"rental_uris":{"android":"levelo://app?vid=cc829911-e80c-4481-8d7a-714b6e680c0c","ios":"levelo://app?vid=cc829911-e80c-4481-8d7a-714b6e680c0c"},"vehicle_type_id":"4","last_reported":1778802297,"current_range_meters":5600,"station_id":"ce4bgqh2rcd13ifvqc5g","pricing_plan_id":"cebpf4jnsgd1na2vs0mg"},{"bike_id":"b280a10f-2c1b-4d5d-88dd-1fa8a56e3191","system_id":"levelo_inurba_marseille","lat":43.26561,"lon":5.39043,"is_reserved":false,"is_disabled":false,"rental_uris":{"android":"levelo://app?vid=b280a10f-2c1b-4d5d-88dd-1fa8a56e3191","ios":"levelo://app?vid=b280a10f-2c1b-4d5d-88dd-1fa8a56e3191"},"vehicle_type_id":"4","last_reported":1778802297,"current_range_meters":5600,"station_id":"ce4bhe12rcd13ifvqf30","pricing_plan_id":"cebpf4jnsgd1na2vs0mg"},{"bike_id":"29b4558e-e8d4-4198-958d-0e51be2acce4","system_id":"levelo_inurba_marseille","lat":43.26556,"lon":5.37285,"is_reserved":false,"is_disabled":false,"rental_uris":{"android":"levelo://app?vid=29b4558e-e8d4-4198-958d-0e51be2acce4","ios":"levelo://app?vid=29b4558e-e8d4-4198-958d-0e51be2acce4"},"vehicle_type_id":"4","last_reported":1778802297,"current_range_meters":5600,"station_id":"ce4bhg12rcd13ifvqf70","pricing_plan_id":"cebpf4jnsgd1na2vs0mg"},{"bike_id":"501d5cea-52c1-4650-8f94-f27184eedc64","system_id":"levelo_inurba_marseille","lat":43.30406,"lon":5.39716,"is_reserved":false,"is_disabled":false,"rental_uris":{"android":"levelo://app?vid=501d5cea-52c1-4650-8f94-f27184eedc64","ios":"levelo://app?vid=501d5cea-52c1-4650-8f94-f27184eedc64"},"vehicle_type_id":"4","last_reported":1778802297,"current_range_meters":5600,"station_id":"ce4bh092rcd13ifvqd20","pricing_plan_id":"cebpf4jnsgd1na2vs0mg"},{"bike_id":"8b1a5088-1d38-4514-8b57-325ca8670dbe","system_id":"levelo_inurba_marseille","lat":43.26216,"lon":5.38793,"is_reserved":false,"is_disabled":false,"rental_uris":{"android":"levelo://app?vid=8b1a5088-1d38-4514-8b57-325ca8670dbe","ios":"levelo://app?vid=8b1a5088-1d38-4514-8b57-325ca8670dbe"},"vehicle_type_id":"4","last_reported":1778802297,"current_range_meters":5600,"station_id":"","pricing_plan_id":"cebpf4jnsgd1na2vs0mg"},{"bike_id":"b06e1bda-e59f-423b-9caf-1f463bac74d5","system_id":"levelo_inurba_marseille","lat":43.316879,"lon":5.404735,"is_reserved":false,"is_disabled":false,"rental_uris":{"android":"levelo://app?vid=b06e1bda-e59f-423b-9caf-1f463bac74d5","ios":"levelo://app?vid=b06e1bda-e59f-423b-9caf-1f463bac74d5"},"vehicle_type_id":"4","last_reported":1778802297,"current_range_meters":5600,"station_id":"ce4bh012rcd13ifvqd00","pricing_plan_id":"cebpf4jnsgd1na2vs0mg"},{"bike_id":"07901982-752d-4b1b-a3d8-7d8ebd2d57d5","system_id":"levelo_inurba_marseille","lat":43.31901,"lon":5.36811,"is_reserved":false,"is_disabled":false,"rental_uris":{"android":"levelo://app?vid=07901982-752d-4b1b-a3d8-7d8ebd2d57d5","ios":"levelo://app?vid=07901982-752d-4b1b-a3d8-7d8ebd2d57d5"},"vehicle_type_id":"4","last_reported":1778802297,"current_range_meters":5600,"station_id":"st_d6o2h0d0559c73evc1b0","pricing_plan_id":"cebpf4jnsgd1na2vs0mg"},{"bike_id":"4336eb3e-4dcb-40af-a6f6-5758e7c48f2e","system_id":"levelo_inurba_marseille","lat":43.28862,"lon":5.35837,"is_reserved":false,"is_disabled":false,"rental_uris":{"android":"levelo://app?vid=4336eb3e-4dcb-40af-a6f6-5758e7c48f2e","ios":"levelo://app?vid=4336eb3e-4dcb-40af-a6f6-5758e7c48f2e"},"vehicle_type_id":"4","last_reported":1778802297,"current_range_meters":6000,"station_id":"ce4bhb12rcd13ifvqem0","pricing_plan_id":"cebpf4jnsgd1na2vs0mg"},{"bike_id":"f0dfe750-6a85-4630-8635-ed2adbbe38ba","system_id":"levelo_inurba_marseille","lat":43.31327,"lon":5.3671,"is_reserved":false,"is_disabled":false,"rental_uris":{"android":"levelo://app?vid=f0dfe750-6a85-4630-8635-ed2adbbe38ba","ios":"levelo://app?vid=f0dfe750-6a85-4630-8635-ed2adbbe38ba"},"vehicle_type_id":"4","last_reported":1778802297,"current_range_meters":6000,"station_id":"ce4bgr92rcd13ifvqc6g","pricing_plan_id":"cebpf4jnsgd1na2vs0mg"},{"bike_id":"f319d43d-d58c-4aac-9f61-b07539060c76","system_id":"levelo_inurba_marseille","lat":43.33218,"lon":5.43052,"is_reserved":false,"is_disabled":false,"rental_uris":{"android":"levelo://app?vid=f319d43d-d58c-4aac-9f61-b07539060c76","ios":"levelo://app?vid=f319d43d-d58c-4aac-9f61-b07539060c76"},"vehicle_type_id":"4","last_reported":1778802297,"current_range_meters":6000,"station_id":"","pricing_plan_id":"cebpf4jnsgd1na2vs0mg"},{"bike_id":"50ecd2a5-280a-4059-9de9-3aee985c1f30","system_id":"levelo_inurba_marseille","lat":43.31706,"lon":5.37763,"is_reserved":false,"is_disabled":false,"rental_uris":{"android":"levelo://app?vid=50ecd2a5-280a-4059-9de9-3aee985c1f30","ios":"levelo://app?vid=50ecd2a5-280a-4059-9de9-3aee985c1f30"},"vehicle_type_id":"4","last_reported":1778802297,"current_range_meters":6000,"station_id":"ce4bgth2rcd13ifvqch0","pricing_plan_id":"cebpf4jnsgd1na2vs0mg"},{"bike_id":"c7cc8da8-6564-4f26-9ba4-7dbaf5f793ff","system_id":"levelo_inurba_marseille","lat":43.25473,"lon":5.37653,"is_reserved":false,"is_disabled":false,"rental_uris":{"android":"levelo://app?vid=c7cc8da8-6564-4f26-9ba4-7dbaf5f793ff","ios":"levelo://app?vid=c7cc8da8-6564-4f26-9ba4-7dbaf5f793ff"},"vehicle_type_id":"4","last_reported":1778802297,"current_range_meters":6000,"station_id":"ce4bhh12rcd13ifvqff0","pricing_plan_id":"cebpf4jnsgd1na2vs0mg"},{"bike_id":"8e8da42d-03bd-4b9b-97b5-52713d72ebe4","system_id":"levelo_inurba_marseille","lat":43.32107,"lon":5.36802,"is_reserved":false,"is_disabled":false,"rental_uris":{"android":"levelo://app?vid=8e8da42d-03bd-4b9b-97b5-52713d72ebe4","ios":"levelo://app?vid=8e8da42d-03bd-4b9b-97b5-52713d72ebe4"},"vehicle_type_id":"4","last_reported":1778802297,"current_range_meters":6000,"station_id":"ce4bhrh2rcd13ifvqhug","pricing_plan_id":"cebpf4jnsgd1na2vs0mg"},{"bike_id":"3b66cbc2-f67c-4859-b959-6ef945b847ce","system_id":"levelo_inurba_marseille","lat":43.24812,"lon":5.37441,"is_reserved":false,"is_disabled":false,"rental_uris":{"android":"levelo://app?vid=3b66cbc2-f67c-4859-b959-6ef945b847ce","ios":"levelo://app?vid=3b66cbc2-f67c-4859-b959-6ef945b847ce"},"vehicle_type_id":"4","last_reported":1778802297,"current_range_meters":6000,"station_id":"ce4bhgh2rcd13ifvqfb0","pricing_plan_id":"cebpf4jnsgd1na2vs0mg"},{"bike_id":"e060ee54-6256-40ae-9ad5-aaead461bedc","system_id":"levelo_inurba_marseille","lat":43.28844,"lon":5.39286,"is_reserved":false,"is_disabled":false,"rental_uris":{"android":"levelo://app?vid=e060ee54-6256-40ae-9ad5-aaead461bedc","ios":"levelo://app?vid=e060ee54-6256-40ae-9ad5-aaead461bedc"},"vehicle_type_id":"4","last_reported":1778802297,"current_range_meters":6000,"station_id":"ce4bh2p2rcd13ifvqdi0","pricing_plan_id":"cebpf4jnsgd1na2vs0mg"},{"bike_id":"41370752-6d32-4ea7-b0ca-4e494e59ea57","system_id":"levelo_inurba_marseille","lat":43.28952,"lon":5.36438,"is_reserved":false,"is_disabled":false,"rental_uris":{"android":"levelo://app?vid=41370752-6d32-4ea7-b0ca-4e494e59ea57","ios":"levelo://app?vid=41370752-6d32-4ea7-b0ca-4e494e59ea57"},"vehicle_type_id":"4","last_reported":1778802297,"current_range_meters":6000,"station_id":"","pricing_plan_id":"cebpf4jnsgd1na2vs0mg"},{"bike_id":"063e251d-684c-4baf-a544-856d6726483f","system_id":"levelo_inurba_marseille","lat":43.31275,"lon":5.40169,"is_reserved":false,"is_disabled":false,"rental_uris":{"android":"levelo://app?vid=063e251d-684c-4baf-a544-856d6726483f","ios":"levelo://app?vid=063e251d-684c-4baf-a544-856d6726483f"},"vehicle_type_id":"4","last_reported":1778802297,"current_range_meters":6000,"station_id":"ce4bh092rcd13ifvqd30","pricing_plan_id":"cebpf4jnsgd1na2vs0mg"},{"bike_id":"cf46be16-acd9-4edf-ba5f-56559105c3df","system_id":"levelo_inurba_marseille","lat":43.24799,"lon":5.37503,"is_reserved":false,"is_disabled":false,"rental_uris":{"android":"levelo://app?vid=cf46be16-acd9-4edf-ba5f-56559105c3df","ios":"levelo://app?vid=cf46be16-acd9-4edf-ba5f-56559105c3df"},"vehicle_type_id":"4","last_reported":1778802297,"current_range_meters":6400,"station_id":"ce4bhgh2rcd13ifvqfb0","pricing_plan_id":"cebpf4jnsgd1na2vs0mg"},{"bike_id":"8c86a52e-0f78-4cb5-9502-6a0f1460eb2f","system_id":"levelo_inurba_marseille","lat":43.30366,"lon":5.42483,"is_reserved":false,"is_disabled":false,"rental_uris":{"android":"levelo://app?vid=8c86a52e-0f78-4cb5-9502-6a0f1460eb2f","ios":"levelo://app?vid=8c86a52e-0f78-4cb5-9502-6a0f1460eb2f"},"vehicle_type_id":"4","last_reported":1778802297,"current_range_meters":6400,"station_id":"ce4bhoh2rcd13ifvqh6g","pricing_plan_id":"cebpf4jnsgd1na2vs0mg"},{"bike_id":"8c7c9dc7-311f-4d28-b404-3a7cf27160be","system_id":"levelo_inurba_marseille","lat":43.29782,"lon":5.38543,"is_reserved":false,"is_disabled":false,"rental_uris":{"android":"levelo://app?vid=8c7c9dc7-311f-4d28-b404-3a7cf27160be","ios":"levelo://app?vid=8c7c9dc7-311f-4d28-b404-3a7cf27160be"},"vehicle_type_id":"4","last_reported":1778802297,"current_range_meters":6400,"station_id":"","pricing_plan_id":"cebpf4jnsgd1na2vs0mg"},{"bike_id":"6a26079e-c259-4a56-a844-2c8bca0c51da","system_id":"levelo_inurba_marseille","lat":43.28568,"lon":5.39502,"is_reserved":false,"is_disabled":false,"rental_uris":{"android":"levelo://app?vid=6a26079e-c259-4a56-a844-2c8bca0c51da","ios":"levelo://app?vid=6a26079e-c259-4a56-a844-2c8bca0c51da"},"vehicle_type_id":"4","last_reported":1778802297,"current_range_meters":6400,"station_id":"ce4bh292rcd13ifvqdg0","pricing_plan_id":"cebpf4jnsgd1na2vs0mg"},{"bike_id":"75f753fc-9c52-4208-a22b-7f1d28b00c6c","system_id":"levelo_inurba_marseille","lat":43.24729,"lon":5.39297,"is_reserved":false,"is_disabled":false,"rental_uris":{"android":"levelo://app?vid=75f753fc-9c52-4208-a22b-7f1d28b00c6c","ios":"levelo://app?vid=75f753fc-9c52-4208-a22b-7f1d28b00c6c"},"vehicle_type_id":"4","last_reported":1778802297,"current_range_meters":6400,"station_id":"","pricing_plan_id":"cebpf4jnsgd1na2vs0mg"},{"bike_id":"db8fd6e1-3e2e-4ba5-b4dc-e15fa2785925","system_id":"levelo_inurba_marseille","lat":43.25489,"lon":5.37655,"is_reserved":false,"is_disabled":false,"rental_uris":{"android":"levelo://app?vid=db8fd6e1-3e2e-4ba5-b4dc-e15fa2785925","ios":"levelo://app?vid=db8fd6e1-3e2e-4ba5-b4dc-e15fa2785925"},"vehicle_type_id":"4","last_reported":1778802297,"current_range_meters":6400,"station_id":"ce4bhh12rcd13ifvqff0","pricing_plan_id":"cebpf4jnsgd1na2vs0mg"},{"bike_id":"f4749437-504c-459a-ac2b-50ee037c1395","system_id":"levelo_inurba_marseille","lat":43.26026,"lon":5.37543,"is_reserved":false,"is_disabled":false,"rental_uris":{"android":"levelo://app?vid=f4749437-504c-459a-ac2b-50ee037c1395","ios":"levelo://app?vid=f4749437-504c-459a-ac2b-50ee037c1395"},"vehicle_type_id":"4","last_reported":1778802297,"current_range_meters":6400,"station_id":"ce4bhgh2rcd13ifvqfa0","pricing_plan_id":"cebpf4jnsgd1na2vs0mg"},{"bike_id":"988afeef-8fa0-4222-9994-711b55a606f6","system_id":"levelo_inurba_marseille","lat":43.25351,"lon":5.42172,"is_reserved":false,"is_disabled":false,"rental_uris":{"android":"levelo://app?vid=988afeef-8fa0-4222-9994-711b55a606f6","ios":"levelo://app?vid=988afeef-8fa0-4222-9994-711b55a606f6"},"vehicle_type_id":"4","last_reported":1778802297,"current_range_meters":6400,"station_id":"st_d2m65c5bi1j21697t3ng","pricing_plan_id":"cebpf4jnsgd1na2vs0mg"},{"bike_id":"98f12bd4-e0da-4149-bced-c3e88c88c817","system_id":"levelo_inurba_marseille","lat":43.29432,"lon":5.39737,"is_reserved":false,"is_disabled":false,"rental_uris":{"android":"levelo://app?vid=98f12bd4-e0da-4149-bced-c3e88c88c817","ios":"levelo://app?vid=98f12bd4-e0da-4149-bced-c3e88c88c817"},"vehicle_type_id":"4","last_reported":1778802297,"current_range_meters":6400,"station_id":"ce4bh3h2rcd13ifvqdo0","pricing_plan_id":"cebpf4jnsgd1na2vs0mg"},{"bike_id":"1c4eecf6-c248-4f21-af12-a1da19407bc5","system_id":"levelo_inurba_marseille","lat":43.30789,"lon":5.37644,"is_reserved":false,"is_disabled":false,"rental_uris":{"android":"levelo://app?vid=1c4eecf6-c248-4f21-af12-a1da19407bc5","ios":"levelo://app?vid=1c4eecf6-c248-4f21-af12-a1da19407bc5"},"vehicle_type_id":"4","last_reported":1778802297,"current_range_meters":6400,"station_id":"ce4bgv92rcd13ifvqcq0","pricing_plan_id":"cebpf4jnsgd1na2vs0mg"},{"bike_id":"7c97047b-2262-4fed-8712-0d89900374c4","system_id":"levelo_inurba_marseille","lat":43.24646,"lon":5.38886,"is_reserved":false,"is_disabled":false,"rental_uris":{"android":"levelo://app?vid=7c97047b-2262-4fed-8712-0d89900374c4","ios":"levelo://app?vid=7c97047b-2262-4fed-8712-0d89900374c4"},"vehicle_type_id":"4","last_reported":1778802297,"current_range_meters":6400,"station_id":"ce4bhg12rcd13ifvqf60","pricing_plan_id":"cebpf4jnsgd1na2vs0mg"},{"bike_id":"0f34fb8a-0bdd-4f60-af13-795b8d68e1ca","system_id":"levelo_inurba_marseille","lat":43.29874,"lon":5.38085,"is_reserved":false,"is_disabled":false,"rental_uris":{"android":"levelo://app?vid=0f34fb8a-0bdd-4f60-af13-795b8d68e1ca","ios":"levelo://app?vid=0f34fb8a-0bdd-4f60-af13-795b8d68e1ca"},"vehicle_type_id":"4","last_reported":1778802297,"current_range_meters":6400,"station_id":"","pricing_plan_id":"cebpf4jnsgd1na2vs0mg"},{"bike_id":"5e70c149-f7fa-4313-9070-5d5d06af8c49","system_id":"levelo_inurba_marseille","lat":43.311075,"lon":5.377722,"is_reserved":false,"is_disabled":false,"rental_uris":{"android":"levelo://app?vid=5e70c149-f7fa-4313-9070-5d5d06af8c49","ios":"levelo://app?vid=5e70c149-f7fa-4313-9070-5d5d06af8c49"},"vehicle_type_id":"4","last_reported":1778802297,"current_range_meters":6400,"station_id":"ce4bgt92rcd13ifvqcg0","pricing_plan_id":"cebpf4jnsgd1na2vs0mg"},{"bike_id":"12fc783a-5743-49f1-a8aa-4c1155b53891","system_id":"levelo_inurba_marseille","lat":43.24465,"lon":5.42469,"is_reserved":false,"is_disabled":false,"rental_uris":{"android":"levelo://app?vid=12fc783a-5743-49f1-a8aa-4c1155b53891","ios":"levelo://app?vid=12fc783a-5743-49f1-a8aa-4c1155b53891"},"vehicle_type_id":"4","last_reported":1778802297,"current_range_meters":6800,"station_id":"","pricing_plan_id":"cebpf4jnsgd1na2vs0mg"},{"bike_id":"c59ef67e-59cb-436e-be93-b110e102b5eb","system_id":"levelo_inurba_marseille","lat":43.28704,"lon":5.46688,"is_reserved":false,"is_disabled":false,"rental_uris":{"android":"levelo://app?vid=c59ef67e-59cb-436e-be93-b110e102b5eb","ios":"levelo://app?vid=c59ef67e-59cb-436e-be93-b110e102b5eb"},"vehicle_type_id":"4","last_reported":1778802297,"current_range_meters":6800,"station_id":"st_d6tc3vkotcvc738tfjhg","pricing_plan_id":"cebpf4jnsgd1na2vs0mg"},{"bike_id":"9fcf9d8d-238f-4a11-b40c-4c58f8f84b59","system_id":"levelo_inurba_marseille","lat":43.23148,"lon":5.43716,"is_reserved":false,"is_disabled":false,"rental_uris":{"android":"levelo://app?vid=9fcf9d8d-238f-4a11-b40c-4c58f8f84b59","ios":"levelo://app?vid=9fcf9d8d-238f-4a11-b40c-4c58f8f84b59"},"vehicle_type_id":"4","last_reported":1778802297,"current_range_meters":6800,"station_id":"ce4bhmp2rcd13ifvqgog","pricing_plan_id":"cebpf4jnsgd1na2vs0mg"},{"bike_id":"600ae21f-84ee-4e17-83e0-645ec9d8a39d","system_id":"levelo_inurba_marseille","lat":43.26363,"lon":5.4106,"is_reserved":false,"is_disabled":false,"rental_uris":{"android":"levelo://app?vid=600ae21f-84ee-4e17-83e0-645ec9d8a39d","ios":"levelo://app?vid=600ae21f-84ee-4e17-83e0-645ec9d8a39d"},"vehicle_type_id":"4","last_reported":1778802297,"current_range_meters":6800,"station_id":"st_d4e5ca6na9uc73bfl5fg","pricing_plan_id":"cebpf4jnsgd1na2vs0mg"},{"bike_id":"56ebb272-f35a-4495-95fc-289a89d13fb2","system_id":"levelo_inurba_marseille","lat":43.30819,"lon":5.38155,"is_reserved":false,"is_disabled":false,"rental_uris":{"android":"levelo://app?vid=56ebb272-f35a-4495-95fc-289a89d13fb2","ios":"levelo://app?vid=56ebb272-f35a-4495-95fc-289a89d13fb2"},"vehicle_type_id":"4","last_reported":1778802297,"current_range_meters":6800,"station_id":"ce4bgt12rcd13ifvqce0","pricing_plan_id":"cebpf4jnsgd1na2vs0mg"},{"bike_id":"3a0b52f4-1b47-4413-8330-18f717074337","system_id":"levelo_inurba_marseille","lat":43.2841,"lon":5.37523,"is_reserved":false,"is_disabled":false,"rental_uris":{"android":"levelo://app?vid=3a0b52f4-1b47-4413-8330-18f717074337","ios":"levelo://app?vid=3a0b52f4-1b47-4413-8330-18f717074337"},"vehicle_type_id":"4","last_reported":1778802297,"current_range_meters":6800,"station_id":"ce4bh412rcd13ifvqds0","pricing_plan_id":"cebpf4jnsgd1na2vs0mg"},{"bike_id":"8729db00-a1d9-4736-9fca-f79003d2e8fc","system_id":"levelo_inurba_marseille","lat":43.28528,"lon":5.44081,"is_reserved":false,"is_disabled":false,"rental_uris":{"android":"levelo://app?vid=8729db00-a1d9-4736-9fca-f79003d2e8fc","ios":"levelo://app?vid=8729db00-a1d9-4736-9fca-f79003d2e8fc"},"vehicle_type_id":"4","last_reported":1778802297,"current_range_meters":6800,"station_id":"st_d3j3df2ikq2c7380ej80","pricing_plan_id":"cebpf4jnsgd1na2vs0mg"},{"bike_id":"3417cf8f-8380-49cf-9b96-8708c600b7b9","system_id":"levelo_inurba_marseille","lat":43.2987,"lon":5.38917,"is_reserved":false,"is_disabled":true,"rental_uris":{"android":"levelo://app?vid=3417cf8f-8380-49cf-9b96-8708c600b7b9","ios":"levelo://app?vid=3417cf8f-8380-49cf-9b96-8708c600b7b9"},"vehicle_type_id":"4","last_reported":1778802297,"current_range_meters":6800,"station_id":"ce4bh392rcd13ifvqdl0","pricing_plan_id":"cebpf4jnsgd1na2vs0mg"},{"bike_id":"f5e8d085-0bd0-40db-958c-eda5fc60abc3","system_id":"levelo_inurba_marseille","lat":43.2622,"lon":5.38782,"is_reserved":false,"is_disabled":false,"rental_uris":{"android":"levelo://app?vid=f5e8d085-0bd0-40db-958c-eda5fc60abc3","ios":"levelo://app?vid=f5e8d085-0bd0-40db-958c-eda5fc60abc3"},"vehicle_type_id":"4","last_reported":1778802297,"current_range_meters":6800,"station_id":"","pricing_plan_id":"cebpf4jnsgd1na2vs0mg"},{"bike_id":"09924bdb-e236-4d6d-86a2-12ee8afd31fd","system_id":"levelo_inurba_marseille","lat":43.25484,"lon":5.37648,"is_reserved":false,"is_disabled":false,"rental_uris":{"android":"levelo://app?vid=09924bdb-e236-4d6d-86a2-12ee8afd31fd","ios":"levelo://app?vid=09924bdb-e236-4d6d-86a2-12ee8afd31fd"},"vehicle_type_id":"4","last_reported":1778802297,"current_range_meters":6800,"station_id":"ce4bhh12rcd13ifvqff0","pricing_plan_id":"cebpf4jnsgd1na2vs0mg"},{"bike_id":"7fbd6be8-999f-43d2-8e8e-a4a691a7c961","system_id":"levelo_inurba_marseille","lat":43.25335,"lon":5.42171,"is_reserved":false,"is_disabled":false,"rental_uris":{"android":"levelo://app?vid=7fbd6be8-999f-43d2-8e8e-a4a691a7c961","ios":"levelo://app?vid=7fbd6be8-999f-43d2-8e8e-a4a691a7c961"},"vehicle_type_id":"4","last_reported":1778802297,"current_range_meters":6800,"station_id":"st_d2m65c5bi1j21697t3ng","pricing_plan_id":"cebpf4jnsgd1na2vs0mg"},{"bike_id":"399e8a02-5579-4dbf-b4de-b68767f02a1e","system_id":"levelo_inurba_marseille","lat":43.26186,"lon":5.37437,"is_reserved":false,"is_disabled":false,"rental_uris":{"android":"levelo://app?vid=399e8a02-5579-4dbf-b4de-b68767f02a1e","ios":"levelo://app?vid=399e8a02-5579-4dbf-b4de-b68767f02a1e"},"vehicle_type_id":"4","last_reported":1778802297,"current_range_meters":6800,"station_id":"ce4bhgp2rcd13ifvqfc0","pricing_plan_id":"cebpf4jnsgd1na2vs0mg"},{"bike_id":"4c08e552-05b3-492e-9965-80ac08a5dda5","system_id":"levelo_inurba_marseille","lat":43.27593,"lon":5.39509,"is_reserved":false,"is_disabled":false,"rental_uris":{"android":"levelo://app?vid=4c08e552-05b3-492e-9965-80ac08a5dda5","ios":"levelo://app?vid=4c08e552-05b3-492e-9965-80ac08a5dda5"},"vehicle_type_id":"4","last_reported":1778802297,"current_range_meters":6800,"station_id":"","pricing_plan_id":"cebpf4jnsgd1na2vs0mg"},{"bike_id":"04d3d691-3e5e-41ed-a448-313897978df0","system_id":"levelo_inurba_marseille","lat":43.31056,"lon":5.37179,"is_reserved":false,"is_disabled":false,"rental_uris":{"android":"levelo://app?vid=04d3d691-3e5e-41ed-a448-313897978df0","ios":"levelo://app?vid=04d3d691-3e5e-41ed-a448-313897978df0"},"vehicle_type_id":"4","last_reported":1778802297,"current_range_meters":6800,"station_id":"st_d4kl2rp97mjs73e7tdfg","pricing_plan_id":"cebpf4jnsgd1na2vs0mg"},{"bike_id":"a2a00526-33a2-4133-9639-1bf79490a021","system_id":"levelo_inurba_marseille","lat":43.33179,"lon":5.40682,"is_reserved":false,"is_disabled":false,"rental_uris":{"android":"levelo://app?vid=a2a00526-33a2-4133-9639-1bf79490a021","ios":"levelo://app?vid=a2a00526-33a2-4133-9639-1bf79490a021"},"vehicle_type_id":"4","last_reported":1778802297,"current_range_meters":6800,"station_id":"","pricing_plan_id":"cebpf4jnsgd1na2vs0mg"},{"bike_id":"820c2d91-aeef-411e-8944-84db8c6310a5","system_id":"levelo_inurba_marseille","lat":43.28865,"lon":5.35853,"is_reserved":false,"is_disabled":false,"rental_uris":{"android":"levelo://app?vid=820c2d91-aeef-411e-8944-84db8c6310a5","ios":"levelo://app?vid=820c2d91-aeef-411e-8944-84db8c6310a5"},"vehicle_type_id":"4","last_reported":1778802297,"current_range_meters":6800,"station_id":"ce4bhb12rcd13ifvqem0","pricing_plan_id":"cebpf4jnsgd1na2vs0mg"},{"bike_id":"39481e13-fb19-40b9-9611-cd35a8bf33b1","system_id":"levelo_inurba_marseille","lat":43.27503,"lon":5.41571,"is_reserved":false,"is_disabled":false,"rental_uris":{"android":"levelo://app?vid=39481e13-fb19-40b9-9611-cd35a8bf33b1","ios":"levelo://app?vid=39481e13-fb19-40b9-9611-cd35a8bf33b1"},"vehicle_type_id":"4","last_reported":1778802297,"current_range_meters":7200,"station_id":"st_d6im8g6chgec73a5pndg","pricing_plan_id":"cebpf4jnsgd1na2vs0mg"},{"bike_id":"b38ec2e7-b225-4624-a9d8-c26ecc599591","system_id":"levelo_inurba_marseille","lat":43.28581,"lon":5.39505,"is_reserved":false,"is_disabled":false,"rental_uris":{"android":"levelo://app?vid=b38ec2e7-b225-4624-a9d8-c26ecc599591","ios":"levelo://app?vid=b38ec2e7-b225-4624-a9d8-c26ecc599591"},"vehicle_type_id":"4","last_reported":1778802297,"current_range_meters":7200,"station_id":"ce4bh292rcd13ifvqdg0","pricing_plan_id":"cebpf4jnsgd1na2vs0mg"},{"bike_id":"c62b18ba-aa48-40db-a1b4-06b99deae7f5","system_id":"levelo_inurba_marseille","lat":43.27949,"lon":5.38693,"is_reserved":false,"is_disabled":false,"rental_uris":{"android":"levelo://app?vid=c62b18ba-aa48-40db-a1b4-06b99deae7f5","ios":"levelo://app?vid=c62b18ba-aa48-40db-a1b4-06b99deae7f5"},"vehicle_type_id":"4","last_reported":1778802297,"current_range_meters":7200,"station_id":"ce4bhg12rcd13ifvqf80","pricing_plan_id":"cebpf4jnsgd1na2vs0mg"},{"bike_id":"e2ce1f63-0d73-4c38-b80b-527dbbe87d12","system_id":"levelo_inurba_marseille","lat":43.26211,"lon":5.37433,"is_reserved":false,"is_disabled":false,"rental_uris":{"android":"levelo://app?vid=e2ce1f63-0d73-4c38-b80b-527dbbe87d12","ios":"levelo://app?vid=e2ce1f63-0d73-4c38-b80b-527dbbe87d12"},"vehicle_type_id":"4","last_reported":1778802297,"current_range_meters":7200,"station_id":"ce4bhgp2rcd13ifvqfc0","pricing_plan_id":"cebpf4jnsgd1na2vs0mg"},{"bike_id":"a88bc9ae-d88b-46fc-8169-6fe5eb0d8652","system_id":"levelo_inurba_marseille","lat":43.28478,"lon":5.4843,"is_reserved":false,"is_disabled":false,"rental_uris":{"android":"levelo://app?vid=a88bc9ae-d88b-46fc-8169-6fe5eb0d8652","ios":"levelo://app?vid=a88bc9ae-d88b-46fc-8169-6fe5eb0d8652"},"vehicle_type_id":"4","last_reported":1778802297,"current_range_meters":7200,"station_id":"st_d3svhcjqgbts73a3dn0g","pricing_plan_id":"cebpf4jnsgd1na2vs0mg"},{"bike_id":"cedad8b9-abd3-414a-ac0c-81a26cf0ecf4","system_id":"levelo_inurba_marseille","lat":43.3133,"lon":5.39715,"is_reserved":false,"is_disabled":false,"rental_uris":{"android":"levelo://app?vid=cedad8b9-abd3-414a-ac0c-81a26cf0ecf4","ios":"levelo://app?vid=cedad8b9-abd3-414a-ac0c-81a26cf0ecf4"},"vehicle_type_id":"4","last_reported":1778802297,"current_range_meters":7200,"station_id":"ce4bgvp2rcd13ifvqcu0","pricing_plan_id":"cebpf4jnsgd1na2vs0mg"},{"bike_id":"d7e97781-7864-4d48-a10e-e09d15b1fad1","system_id":"levelo_inurba_marseille","lat":43.29633,"lon":5.38015,"is_reserved":false,"is_disabled":false,"rental_uris":{"android":"levelo://app?vid=d7e97781-7864-4d48-a10e-e09d15b1fad1","ios":"levelo://app?vid=d7e97781-7864-4d48-a10e-e09d15b1fad1"},"vehicle_type_id":"4","last_reported":1778802297,"current_range_meters":7200,"station_id":"","pricing_plan_id":"cebpf4jnsgd1na2vs0mg"},{"bike_id":"d46792ac-f5ff-4481-98df-fd0ffbee973c","system_id":"levelo_inurba_marseille","lat":43.29052,"lon":5.39951,"is_reserved":false,"is_disabled":true,"rental_uris":{"android":"levelo://app?vid=d46792ac-f5ff-4481-98df-fd0ffbee973c","ios":"levelo://app?vid=d46792ac-f5ff-4481-98df-fd0ffbee973c"},"vehicle_type_id":"4","last_reported":1778802297,"current_range_meters":7200,"station_id":"ce4bh392rcd13ifvqdm0","pricing_plan_id":"cebpf4jnsgd1na2vs0mg"},{"bike_id":"781caba9-8a1d-492f-8f32-6bb508d561ff","system_id":"levelo_inurba_marseille","lat":43.28688,"lon":5.42693,"is_reserved":false,"is_disabled":false,"rental_uris":{"android":"levelo://app?vid=781caba9-8a1d-492f-8f32-6bb508d561ff","ios":"levelo://app?vid=781caba9-8a1d-492f-8f32-6bb508d561ff"},"vehicle_type_id":"4","last_reported":1778802297,"current_range_meters":7200,"station_id":"","pricing_plan_id":"cebpf4jnsgd1na2vs0mg"},{"bike_id":"fe944d56-9e4b-4bd5-bb68-a04f1c617363","system_id":"levelo_inurba_marseille","lat":43.28616,"lon":5.35104,"is_reserved":false,"is_disabled":false,"rental_uris":{"android":"levelo://app?vid=fe944d56-9e4b-4bd5-bb68-a04f1c617363","ios":"levelo://app?vid=fe944d56-9e4b-4bd5-bb68-a04f1c617363"},"vehicle_type_id":"4","last_reported":1778802297,"current_range_meters":7200,"station_id":"ce4bhch2rcd13ifvqeug","pricing_plan_id":"cebpf4jnsgd1na2vs0mg"},{"bike_id":"e53adcd6-4f59-4fbc-a29b-267cfe56f44a","system_id":"levelo_inurba_marseille","lat":43.26494,"lon":5.39577,"is_reserved":false,"is_disabled":false,"rental_uris":{"android":"levelo://app?vid=e53adcd6-4f59-4fbc-a29b-267cfe56f44a","ios":"levelo://app?vid=e53adcd6-4f59-4fbc-a29b-267cfe56f44a"},"vehicle_type_id":"4","last_reported":1778802297,"current_range_meters":8000,"station_id":"ce4bhi12rcd13ifvqfq0","pricing_plan_id":"cebpf4jnsgd1na2vs0mg"},{"bike_id":"f081dad8-e43c-45df-a012-7144fff947d7","system_id":"levelo_inurba_marseille","lat":43.28601,"lon":5.35139,"is_reserved":false,"is_disabled":false,"rental_uris":{"android":"levelo://app?vid=f081dad8-e43c-45df-a012-7144fff947d7","ios":"levelo://app?vid=f081dad8-e43c-45df-a012-7144fff947d7"},"vehicle_type_id":"4","last_reported":1778802297,"current_range_meters":8000,"station_id":"ce4bhch2rcd13ifvqeug","pricing_plan_id":"cebpf4jnsgd1na2vs0mg"},{"bike_id":"d406c3ba-1538-473d-9c0d-2befb66cce77","system_id":"levelo_inurba_marseille","lat":43.30951,"lon":5.3905,"is_reserved":false,"is_disabled":false,"rental_uris":{"android":"levelo://app?vid=d406c3ba-1538-473d-9c0d-2befb66cce77","ios":"levelo://app?vid=d406c3ba-1538-473d-9c0d-2befb66cce77"},"vehicle_type_id":"4","last_reported":1778802297,"current_range_meters":8000,"station_id":"ce4bgup2rcd13ifvqco0","pricing_plan_id":"cebpf4jnsgd1na2vs0mg"},{"bike_id":"daf89c1a-ac46-4a29-a9a8-75dba19355f0","system_id":"levelo_inurba_marseille","lat":43.24389,"lon":5.37059,"is_reserved":false,"is_disabled":false,"rental_uris":{"android":"levelo://app?vid=daf89c1a-ac46-4a29-a9a8-75dba19355f0","ios":"levelo://app?vid=daf89c1a-ac46-4a29-a9a8-75dba19355f0"},"vehicle_type_id":"4","last_reported":1778802297,"current_range_meters":8000,"station_id":"ce4bhhh2rcd13ifvqfk0","pricing_plan_id":"cebpf4jnsgd1na2vs0mg"},{"bike_id":"f5f79339-f7bf-4874-a985-2850d221bb5f","system_id":"levelo_inurba_marseille","lat":43.33544,"lon":5.37472,"is_reserved":false,"is_disabled":false,"rental_uris":{"android":"levelo://app?vid=f5f79339-f7bf-4874-a985-2850d221bb5f","ios":"levelo://app?vid=f5f79339-f7bf-4874-a985-2850d221bb5f"},"vehicle_type_id":"4","last_reported":1778802297,"current_range_meters":8000,"station_id":"st_d46tts09ee8s73dlu43g","pricing_plan_id":"cebpf4jnsgd1na2vs0mg"},{"bike_id":"409c3b3b-a922-4e30-9f80-abcbec3d38d4","system_id":"levelo_inurba_marseille","lat":43.29581,"lon":5.38678,"is_reserved":false,"is_disabled":false,"rental_uris":{"android":"levelo://app?vid=409c3b3b-a922-4e30-9f80-abcbec3d38d4","ios":"levelo://app?vid=409c3b3b-a922-4e30-9f80-abcbec3d38d4"},"vehicle_type_id":"4","last_reported":1778802297,"current_range_meters":8000,"station_id":"ce4bgih2rcd13ifvqba0","pricing_plan_id":"cebpf4jnsgd1na2vs0mg"},{"bike_id":"511c1b75-28d0-408e-8090-dcf02c519f9c","system_id":"levelo_inurba_marseille","lat":43.3054,"lon":5.36557,"is_reserved":false,"is_disabled":false,"rental_uris":{"android":"levelo://app?vid=511c1b75-28d0-408e-8090-dcf02c519f9c","ios":"levelo://app?vid=511c1b75-28d0-408e-8090-dcf02c519f9c"},"vehicle_type_id":"4","last_reported":1778802297,"current_range_meters":8000,"station_id":"ce4bgs12rcd13ifvqcag","pricing_plan_id":"cebpf4jnsgd1na2vs0mg"},{"bike_id":"98b788f6-0955-4fd7-8e5b-9bd841faaf5e","system_id":"levelo_inurba_marseille","lat":43.3355,"lon":5.37479,"is_reserved":false,"is_disabled":false,"rental_uris":{"android":"levelo://app?vid=98b788f6-0955-4fd7-8e5b-9bd841faaf5e","ios":"levelo://app?vid=98b788f6-0955-4fd7-8e5b-9bd841faaf5e"},"vehicle_type_id":"4","last_reported":1778802297,"current_range_meters":8000,"station_id":"st_d46tts09ee8s73dlu43g","pricing_plan_id":"cebpf4jnsgd1na2vs0mg"},{"bike_id":"3cae48fe-6e61-4718-836e-21ed86d4a126","system_id":"levelo_inurba_marseille","lat":43.29885,"lon":5.38905,"is_reserved":false,"is_disabled":false,"rental_uris":{"android":"levelo://app?vid=3cae48fe-6e61-4718-836e-21ed86d4a126","ios":"levelo://app?vid=3cae48fe-6e61-4718-836e-21ed86d4a126"},"vehicle_type_id":"4","last_reported":1778802297,"current_range_meters":8000,"station_id":"ce4bh392rcd13ifvqdl0","pricing_plan_id":"cebpf4jnsgd1na2vs0mg"},{"bike_id":"7f5acffe-f62d-41df-8f26-c6a329dd4663","system_id":"levelo_inurba_marseille","lat":43.30874,"lon":5.39662,"is_reserved":false,"is_disabled":false,"rental_uris":{"android":"levelo://app?vid=7f5acffe-f62d-41df-8f26-c6a329dd4663","ios":"levelo://app?vid=7f5acffe-f62d-41df-8f26-c6a329dd4663"},"vehicle_type_id":"4","last_reported":1778802297,"current_range_meters":8000,"station_id":"ce4bh012rcd13ifvqcv0","pricing_plan_id":"cebpf4jnsgd1na2vs0mg"},{"bike_id":"b942de8b-7ed7-423c-b5f5-c55a01482354","system_id":"levelo_inurba_marseille","lat":43.30296,"lon":5.36907,"is_reserved":false,"is_disabled":false,"rental_uris":{"android":"levelo://app?vid=b942de8b-7ed7-423c-b5f5-c55a01482354","ios":"levelo://app?vid=b942de8b-7ed7-423c-b5f5-c55a01482354"},"vehicle_type_id":"4","last_reported":1778802297,"current_range_meters":8000,"station_id":"ce4bgqh2rcd13ifvqc5g","pricing_plan_id":"cebpf4jnsgd1na2vs0mg"},{"bike_id":"3770903e-9831-4a06-8226-646ab042500a","system_id":"levelo_inurba_marseille","lat":43.28533,"lon":5.44101,"is_reserved":false,"is_disabled":false,"rental_uris":{"android":"levelo://app?vid=3770903e-9831-4a06-8226-646ab042500a","ios":"levelo://app?vid=3770903e-9831-4a06-8226-646ab042500a"},"vehicle_type_id":"4","last_reported":1778802297,"current_range_meters":8000,"station_id":"st_d3j3df2ikq2c7380ej80","pricing_plan_id":"cebpf4jnsgd1na2vs0mg"},{"bike_id":"658da880-75f0-4b3a-9be9-ad436002d4d0","system_id":"levelo_inurba_marseille","lat":43.25329,"lon":5.4216,"is_reserved":false,"is_disabled":false,"rental_uris":{"android":"levelo://app?vid=658da880-75f0-4b3a-9be9-ad436002d4d0","ios":"levelo://app?vid=658da880-75f0-4b3a-9be9-ad436002d4d0"},"vehicle_type_id":"4","last_reported":1778802297,"current_range_meters":8000,"station_id":"st_d2m65c5bi1j21697t3ng","pricing_plan_id":"cebpf4jnsgd1na2vs0mg"},{"bike_id":"3125a78f-3ac7-4cbd-b7ab-80700d32dfdb","system_id":"levelo_inurba_marseille","lat":43.290744,"lon":5.371627,"is_reserved":false,"is_disabled":false,"rental_uris":{"android":"levelo://app?vid=3125a78f-3ac7-4cbd-b7ab-80700d32dfdb","ios":"levelo://app?vid=3125a78f-3ac7-4cbd-b7ab-80700d32dfdb"},"vehicle_type_id":"4","last_reported":1778802297,"current_range_meters":8000,"station_id":"ce4bh5p2rcd13ifvqe4g","pricing_plan_id":"cebpf4jnsgd1na2vs0mg"},{"bike_id":"76dbc4d8-816e-474f-a5fe-974900dca69f","system_id":"levelo_inurba_marseille","lat":43.29608,"lon":5.37722,"is_reserved":false,"is_disabled":false,"rental_uris":{"android":"levelo://app?vid=76dbc4d8-816e-474f-a5fe-974900dca69f","ios":"levelo://app?vid=76dbc4d8-816e-474f-a5fe-974900dca69f"},"vehicle_type_id":"4","last_reported":1778802297,"current_range_meters":8000,"station_id":"ce4bgi92rcd13ifvqb90","pricing_plan_id":"cebpf4jnsgd1na2vs0mg"},{"bike_id":"0ae4343c-ae62-4d36-a82a-1c301793282f","system_id":"levelo_inurba_marseille","lat":43.30386,"lon":5.42467,"is_reserved":false,"is_disabled":false,"rental_uris":{"android":"levelo://app?vid=0ae4343c-ae62-4d36-a82a-1c301793282f","ios":"levelo://app?vid=0ae4343c-ae62-4d36-a82a-1c301793282f"},"vehicle_type_id":"4","last_reported":1778802297,"current_range_meters":8400,"station_id":"ce4bhoh2rcd13ifvqh6g","pricing_plan_id":"cebpf4jnsgd1na2vs0mg"},{"bike_id":"f5c43fa3-ab6d-4af1-9674-22af5bbae61c","system_id":"levelo_inurba_marseille","lat":43.30891,"lon":5.3959,"is_reserved":false,"is_disabled":false,"rental_uris":{"android":"levelo://app?vid=f5c43fa3-ab6d-4af1-9674-22af5bbae61c","ios":"levelo://app?vid=f5c43fa3-ab6d-4af1-9674-22af5bbae61c"},"vehicle_type_id":"4","last_reported":1778802297,"current_range_meters":8400,"station_id":"","pricing_plan_id":"cebpf4jnsgd1na2vs0mg"},{"bike_id":"69ee6bed-5601-48fd-a542-34b0427c1ca0","system_id":"levelo_inurba_marseille","lat":43.25635,"lon":5.38538,"is_reserved":false,"is_disabled":false,"rental_uris":{"android":"levelo://app?vid=69ee6bed-5601-48fd-a542-34b0427c1ca0","ios":"levelo://app?vid=69ee6bed-5601-48fd-a542-34b0427c1ca0"},"vehicle_type_id":"4","last_reported":1778802297,"current_range_meters":8400,"station_id":"","pricing_plan_id":"cebpf4jnsgd1na2vs0mg"},{"bike_id":"c5fa3b16-6a1d-48ed-90c5-0d892f974715","system_id":"levelo_inurba_marseille","lat":43.29841,"lon":5.36269,"is_reserved":false,"is_disabled":false,"rental_uris":{"android":"levelo://app?vid=c5fa3b16-6a1d-48ed-90c5-0d892f974715","ios":"levelo://app?vid=c5fa3b16-6a1d-48ed-90c5-0d892f974715"},"vehicle_type_id":"4","last_reported":1778802297,"current_range_meters":8400,"station_id":"ce4bgpp2rcd13ifvqc3g","pricing_plan_id":"cebpf4jnsgd1na2vs0mg"},{"bike_id":"a4882181-b919-4ecc-b9b3-387fb9d8d338","system_id":"levelo_inurba_marseille","lat":43.28489,"lon":5.38445,"is_reserved":false,"is_disabled":false,"rental_uris":{"android":"levelo://app?vid=a4882181-b919-4ecc-b9b3-387fb9d8d338","ios":"levelo://app?vid=a4882181-b919-4ecc-b9b3-387fb9d8d338"},"vehicle_type_id":"4","last_reported":1778802297,"current_range_meters":8400,"station_id":"ce4bh512rcd13ifvqe3g","pricing_plan_id":"cebpf4jnsgd1na2vs0mg"},{"bike_id":"12844884-e294-4141-bf9e-9b78681f58fa","system_id":"levelo_inurba_marseille","lat":43.30432,"lon":5.3896,"is_reserved":false,"is_disabled":false,"rental_uris":{"android":"levelo://app?vid=12844884-e294-4141-bf9e-9b78681f58fa","ios":"levelo://app?vid=12844884-e294-4141-bf9e-9b78681f58fa"},"vehicle_type_id":"4","last_reported":1778802297,"current_range_meters":8400,"station_id":"","pricing_plan_id":"cebpf4jnsgd1na2vs0mg"},{"bike_id":"5678d171-aa4c-4e18-8510-e7723263d165","system_id":"levelo_inurba_marseille","lat":43.23146,"lon":5.43707,"is_reserved":false,"is_disabled":false,"rental_uris":{"android":"levelo://app?vid=5678d171-aa4c-4e18-8510-e7723263d165","ios":"levelo://app?vid=5678d171-aa4c-4e18-8510-e7723263d165"},"vehicle_type_id":"4","last_reported":1778802297,"current_range_meters":8400,"station_id":"ce4bhmp2rcd13ifvqgog","pricing_plan_id":"cebpf4jnsgd1na2vs0mg"},{"bike_id":"27704a09-2a84-4e44-8cae-7a34ca42d9c1","system_id":"levelo_inurba_marseille","lat":43.26655,"lon":5.3725,"is_reserved":false,"is_disabled":false,"rental_uris":{"android":"levelo://app?vid=27704a09-2a84-4e44-8cae-7a34ca42d9c1","ios":"levelo://app?vid=27704a09-2a84-4e44-8cae-7a34ca42d9c1"},"vehicle_type_id":"4","last_reported":1778802297,"current_range_meters":8400,"station_id":"","pricing_plan_id":"cebpf4jnsgd1na2vs0mg"},{"bike_id":"f6256870-c4dd-4b62-b17e-01ae8d80757a","system_id":"levelo_inurba_marseille","lat":43.26232,"lon":5.38752,"is_reserved":false,"is_disabled":false,"rental_uris":{"android":"levelo://app?vid=f6256870-c4dd-4b62-b17e-01ae8d80757a","ios":"levelo://app?vid=f6256870-c4dd-4b62-b17e-01ae8d80757a"},"vehicle_type_id":"4","last_reported":1778802297,"current_range_meters":8400,"station_id":"","pricing_plan_id":"cebpf4jnsgd1na2vs0mg"},{"bike_id":"51f2aac7-f9be-4b98-a404-4dc10e7dae1c","system_id":"levelo_inurba_marseille","lat":43.29854,"lon":5.3628,"is_reserved":false,"is_disabled":false,"rental_uris":{"android":"levelo://app?vid=51f2aac7-f9be-4b98-a404-4dc10e7dae1c","ios":"levelo://app?vid=51f2aac7-f9be-4b98-a404-4dc10e7dae1c"},"vehicle_type_id":"4","last_reported":1778802297,"current_range_meters":8400,"station_id":"ce4bgpp2rcd13ifvqc3g","pricing_plan_id":"cebpf4jnsgd1na2vs0mg"},{"bike_id":"ee8beb7e-e013-4d1c-aa6c-db030df27c05","system_id":"levelo_inurba_marseille","lat":43.29893,"lon":5.38151,"is_reserved":false,"is_disabled":false,"rental_uris":{"android":"levelo://app?vid=ee8beb7e-e013-4d1c-aa6c-db030df27c05","ios":"levelo://app?vid=ee8beb7e-e013-4d1c-aa6c-db030df27c05"},"vehicle_type_id":"4","last_reported":1778802297,"current_range_meters":8400,"station_id":"ce4bgj12rcd13ifvqbc0","pricing_plan_id":"cebpf4jnsgd1na2vs0mg"},{"bike_id":"3cdb0195-4f96-4947-92dd-52d1afc71788","system_id":"levelo_inurba_marseille","lat":43.22557,"lon":5.41652,"is_reserved":false,"is_disabled":false,"rental_uris":{"android":"levelo://app?vid=3cdb0195-4f96-4947-92dd-52d1afc71788","ios":"levelo://app?vid=3cdb0195-4f96-4947-92dd-52d1afc71788"},"vehicle_type_id":"4","last_reported":1778802297,"current_range_meters":8400,"station_id":"st_d2o4gvlbi1j2169b742g","pricing_plan_id":"cebpf4jnsgd1na2vs0mg"},{"bike_id":"d1a7e548-e76e-4d47-8cad-74f36fcb5ab7","system_id":"levelo_inurba_marseille","lat":43.31361,"lon":5.38498,"is_reserved":false,"is_disabled":false,"rental_uris":{"android":"levelo://app?vid=d1a7e548-e76e-4d47-8cad-74f36fcb5ab7","ios":"levelo://app?vid=d1a7e548-e76e-4d47-8cad-74f36fcb5ab7"},"vehicle_type_id":"4","last_reported":1778802297,"current_range_meters":8400,"station_id":"ce4bgt92rcd13ifvqcf0","pricing_plan_id":"cebpf4jnsgd1na2vs0mg"},{"bike_id":"7721e457-13f9-4d25-8803-7e0bf53167c3","system_id":"levelo_inurba_marseille","lat":43.29045,"lon":5.35915,"is_reserved":false,"is_disabled":false,"rental_uris":{"android":"levelo://app?vid=7721e457-13f9-4d25-8803-7e0bf53167c3","ios":"levelo://app?vid=7721e457-13f9-4d25-8803-7e0bf53167c3"},"vehicle_type_id":"4","last_reported":1778802297,"current_range_meters":8400,"station_id":"ce4bha92rcd13ifvqeg0","pricing_plan_id":"cebpf4jnsgd1na2vs0mg"},{"bike_id":"af20cc9b-d3fb-4902-b77a-283d964c8cb8","system_id":"levelo_inurba_marseille","lat":43.28688,"lon":5.46704,"is_reserved":false,"is_disabled":false,"rental_uris":{"android":"levelo://app?vid=af20cc9b-d3fb-4902-b77a-283d964c8cb8","ios":"levelo://app?vid=af20cc9b-d3fb-4902-b77a-283d964c8cb8"},"vehicle_type_id":"4","last_reported":1778802297,"current_range_meters":8400,"station_id":"st_d6tc3vkotcvc738tfjhg","pricing_plan_id":"cebpf4jnsgd1na2vs0mg"},{"bike_id":"c9e64344-17ed-4b4a-b320-753cc1f13f79","system_id":"levelo_inurba_marseille","lat":43.30473,"lon":5.37919,"is_reserved":false,"is_disabled":false,"rental_uris":{"android":"levelo://app?vid=c9e64344-17ed-4b4a-b320-753cc1f13f79","ios":"levelo://app?vid=c9e64344-17ed-4b4a-b320-753cc1f13f79"},"vehicle_type_id":"4","last_reported":1778802297,"current_range_meters":8400,"station_id":"ce4bgup2rcd13ifvqcn0","pricing_plan_id":"cebpf4jnsgd1na2vs0mg"},{"bike_id":"4d1adb8b-faa6-4c2e-8fbc-936628286a75","system_id":"levelo_inurba_marseille","lat":43.26367,"lon":5.40308,"is_reserved":false,"is_disabled":false,"rental_uris":{"android":"levelo://app?vid=4d1adb8b-faa6-4c2e-8fbc-936628286a75","ios":"levelo://app?vid=4d1adb8b-faa6-4c2e-8fbc-936628286a75"},"vehicle_type_id":"4","last_reported":1778802297,"current_range_meters":8400,"station_id":"","pricing_plan_id":"cebpf4jnsgd1na2vs0mg"},{"bike_id":"e5342490-485a-4302-a5b2-800cb8c2300e","system_id":"levelo_inurba_marseille","lat":43.29943,"lon":5.3872,"is_reserved":false,"is_disabled":false,"rental_uris":{"android":"levelo://app?vid=e5342490-485a-4302-a5b2-800cb8c2300e","ios":"levelo://app?vid=e5342490-485a-4302-a5b2-800cb8c2300e"},"vehicle_type_id":"4","last_reported":1778802297,"current_range_meters":8400,"station_id":"","pricing_plan_id":"cebpf4jnsgd1na2vs0mg"},{"bike_id":"dcb505ac-4cc6-4f11-8d3d-d28754416324","system_id":"levelo_inurba_marseille","lat":43.28397,"lon":5.3509,"is_reserved":false,"is_disabled":false,"rental_uris":{"android":"levelo://app?vid=dcb505ac-4cc6-4f11-8d3d-d28754416324","ios":"levelo://app?vid=dcb505ac-4cc6-4f11-8d3d-d28754416324"},"vehicle_type_id":"4","last_reported":1778802297,"current_range_meters":8400,"station_id":"ce4bhbh2rcd13ifvqepg","pricing_plan_id":"cebpf4jnsgd1na2vs0mg"},{"bike_id":"9275dd93-ac1a-4e6e-ba50-f59f37d5eacf","system_id":"levelo_inurba_marseille","lat":43.24441,"lon":5.42552,"is_reserved":false,"is_disabled":false,"rental_uris":{"android":"levelo://app?vid=9275dd93-ac1a-4e6e-ba50-f59f37d5eacf","ios":"levelo://app?vid=9275dd93-ac1a-4e6e-ba50-f59f37d5eacf"},"vehicle_type_id":"4","last_reported":1778802297,"current_range_meters":8400,"station_id":"st_d4a3vfp97mjs738cd8kg","pricing_plan_id":"cebpf4jnsgd1na2vs0mg"},{"bike_id":"2b7b4933-8829-463c-a55e-f6264c1ec7c1","system_id":"levelo_inurba_marseille","lat":43.28694,"lon":5.46698,"is_reserved":false,"is_disabled":false,"rental_uris":{"android":"levelo://app?vid=2b7b4933-8829-463c-a55e-f6264c1ec7c1","ios":"levelo://app?vid=2b7b4933-8829-463c-a55e-f6264c1ec7c1"},"vehicle_type_id":"4","last_reported":1778802297,"current_range_meters":8400,"station_id":"st_d6tc3vkotcvc738tfjhg","pricing_plan_id":"cebpf4jnsgd1na2vs0mg"},{"bike_id":"8b46e691-901f-4394-882a-f00bc785823f","system_id":"levelo_inurba_marseille","lat":43.27814,"lon":5.40714,"is_reserved":false,"is_disabled":false,"rental_uris":{"android":"levelo://app?vid=8b46e691-901f-4394-882a-f00bc785823f","ios":"levelo://app?vid=8b46e691-901f-4394-882a-f00bc785823f"},"vehicle_type_id":"4","last_reported":1778802297,"current_range_meters":8400,"station_id":"ce4bhnh2rcd13ifvqgtg","pricing_plan_id":"cebpf4jnsgd1na2vs0mg"},{"bike_id":"7d5e3739-999a-4364-94f6-8925c1422467","system_id":"levelo_inurba_marseille","lat":43.24074,"lon":5.37759,"is_reserved":false,"is_disabled":false,"rental_uris":{"android":"levelo://app?vid=7d5e3739-999a-4364-94f6-8925c1422467","ios":"levelo://app?vid=7d5e3739-999a-4364-94f6-8925c1422467"},"vehicle_type_id":"4","last_reported":1778802297,"current_range_meters":8800,"station_id":"ce4bhnp2rcd13ifvqgvg","pricing_plan_id":"cebpf4jnsgd1na2vs0mg"},{"bike_id":"53d89b78-fbfa-4765-86e4-2d5e25a39c79","system_id":"levelo_inurba_marseille","lat":43.24806,"lon":5.37439,"is_reserved":false,"is_disabled":false,"rental_uris":{"android":"levelo://app?vid=53d89b78-fbfa-4765-86e4-2d5e25a39c79","ios":"levelo://app?vid=53d89b78-fbfa-4765-86e4-2d5e25a39c79"},"vehicle_type_id":"4","last_reported":1778802297,"current_range_meters":8800,"station_id":"ce4bhgh2rcd13ifvqfb0","pricing_plan_id":"cebpf4jnsgd1na2vs0mg"},{"bike_id":"bde9888f-9b59-42e7-a131-a0b960621f11","system_id":"levelo_inurba_marseille","lat":43.23708,"lon":5.36663,"is_reserved":false,"is_disabled":false,"rental_uris":{"android":"levelo://app?vid=bde9888f-9b59-42e7-a131-a0b960621f11","ios":"levelo://app?vid=bde9888f-9b59-42e7-a131-a0b960621f11"},"vehicle_type_id":"4","last_reported":1778802297,"current_range_meters":8800,"station_id":"","pricing_plan_id":"cebpf4jnsgd1na2vs0mg"},{"bike_id":"ce53c828-abe6-4bce-9c28-c4fd91b5e9ce","system_id":"levelo_inurba_marseille","lat":43.28858,"lon":5.39308,"is_reserved":false,"is_disabled":false,"rental_uris":{"android":"levelo://app?vid=ce53c828-abe6-4bce-9c28-c4fd91b5e9ce","ios":"levelo://app?vid=ce53c828-abe6-4bce-9c28-c4fd91b5e9ce"},"vehicle_type_id":"4","last_reported":1778802297,"current_range_meters":8800,"station_id":"ce4bh2p2rcd13ifvqdi0","pricing_plan_id":"cebpf4jnsgd1na2vs0mg"},{"bike_id":"fa59a2f1-3a57-4d10-8122-2871d8480ac9","system_id":"levelo_inurba_marseille","lat":43.27919,"lon":5.39223,"is_reserved":false,"is_disabled":false,"rental_uris":{"android":"levelo://app?vid=fa59a2f1-3a57-4d10-8122-2871d8480ac9","ios":"levelo://app?vid=fa59a2f1-3a57-4d10-8122-2871d8480ac9"},"vehicle_type_id":"4","last_reported":1778802297,"current_range_meters":8800,"station_id":"","pricing_plan_id":"cebpf4jnsgd1na2vs0mg"},{"bike_id":"992593cf-8c58-433c-b2f5-8a671b870530","system_id":"levelo_inurba_marseille","lat":43.28913,"lon":5.36246,"is_reserved":false,"is_disabled":false,"rental_uris":{"android":"levelo://app?vid=992593cf-8c58-433c-b2f5-8a671b870530","ios":"levelo://app?vid=992593cf-8c58-433c-b2f5-8a671b870530"},"vehicle_type_id":"4","last_reported":1778802297,"current_range_meters":8800,"station_id":"ce4bhc92rcd13ifvqetg","pricing_plan_id":"cebpf4jnsgd1na2vs0mg"},{"bike_id":"824ef9b0-4b09-45b5-b34a-37d98013db94","system_id":"levelo_inurba_marseille","lat":43.31713,"lon":5.42415,"is_reserved":false,"is_disabled":false,"rental_uris":{"android":"levelo://app?vid=824ef9b0-4b09-45b5-b34a-37d98013db94","ios":"levelo://app?vid=824ef9b0-4b09-45b5-b34a-37d98013db94"},"vehicle_type_id":"4","last_reported":1778802297,"current_range_meters":8800,"station_id":"ce4bhp92rcd13ifvqhbg","pricing_plan_id":"cebpf4jnsgd1na2vs0mg"},{"bike_id":"3f31eb34-2034-48e0-acfb-781783e4399a","system_id":"levelo_inurba_marseille","lat":43.30555,"lon":5.36514,"is_reserved":false,"is_disabled":false,"rental_uris":{"android":"levelo://app?vid=3f31eb34-2034-48e0-acfb-781783e4399a","ios":"levelo://app?vid=3f31eb34-2034-48e0-acfb-781783e4399a"},"vehicle_type_id":"4","last_reported":1778802297,"current_range_meters":8800,"station_id":"ce4bgs12rcd13ifvqcag","pricing_plan_id":"cebpf4jnsgd1na2vs0mg"},{"bike_id":"4fb14df7-438c-42fa-8aa0-5f524ef701e9","system_id":"levelo_inurba_marseille","lat":43.25604,"lon":5.41785,"is_reserved":false,"is_disabled":false,"rental_uris":{"android":"levelo://app?vid=4fb14df7-438c-42fa-8aa0-5f524ef701e9","ios":"levelo://app?vid=4fb14df7-438c-42fa-8aa0-5f524ef701e9"},"vehicle_type_id":"4","last_reported":1778802297,"current_range_meters":8800,"station_id":"","pricing_plan_id":"cebpf4jnsgd1na2vs0mg"},{"bike_id":"aad9f584-de40-4638-8e27-42078febf3bb","system_id":"levelo_inurba_marseille","lat":43.32002,"lon":5.38147,"is_reserved":false,"is_disabled":false,"rental_uris":{"android":"levelo://app?vid=aad9f584-de40-4638-8e27-42078febf3bb","ios":"levelo://app?vid=aad9f584-de40-4638-8e27-42078febf3bb"},"vehicle_type_id":"4","last_reported":1778802297,"current_range_meters":8800,"station_id":"ce4bhr12rcd13ifvqhpg","pricing_plan_id":"cebpf4jnsgd1na2vs0mg"},{"bike_id":"7ee2da6a-8ee4-4d3a-99e1-cbb033942c41","system_id":"levelo_inurba_marseille","lat":43.30256,"lon":5.40082,"is_reserved":false,"is_disabled":false,"rental_uris":{"android":"levelo://app?vid=7ee2da6a-8ee4-4d3a-99e1-cbb033942c41","ios":"levelo://app?vid=7ee2da6a-8ee4-4d3a-99e1-cbb033942c41"},"vehicle_type_id":"4","last_reported":1778802297,"current_range_meters":8800,"station_id":"ce4bgvh2rcd13ifvqcs0","pricing_plan_id":"cebpf4jnsgd1na2vs0mg"},{"bike_id":"487f5b2a-e05f-4486-a861-37010242d8f5","system_id":"levelo_inurba_marseille","lat":43.28524,"lon":5.44109,"is_reserved":false,"is_disabled":false,"rental_uris":{"android":"levelo://app?vid=487f5b2a-e05f-4486-a861-37010242d8f5","ios":"levelo://app?vid=487f5b2a-e05f-4486-a861-37010242d8f5"},"vehicle_type_id":"4","last_reported":1778802297,"current_range_meters":8800,"station_id":"st_d3j3df2ikq2c7380ej80","pricing_plan_id":"cebpf4jnsgd1na2vs0mg"},{"bike_id":"1902f9f2-9ba8-46c0-bacf-8cac75c83ba5","system_id":"levelo_inurba_marseille","lat":43.31389,"lon":5.36682,"is_reserved":false,"is_disabled":false,"rental_uris":{"android":"levelo://app?vid=1902f9f2-9ba8-46c0-bacf-8cac75c83ba5","ios":"levelo://app?vid=1902f9f2-9ba8-46c0-bacf-8cac75c83ba5"},"vehicle_type_id":"4","last_reported":1778802297,"current_range_meters":8800,"station_id":"","pricing_plan_id":"cebpf4jnsgd1na2vs0mg"},{"bike_id":"0ee7e7d5-d25e-446f-bfb7-9c213be9c8fc","system_id":"levelo_inurba_marseille","lat":43.23959,"lon":5.36623,"is_reserved":false,"is_disabled":false,"rental_uris":{"android":"levelo://app?vid=0ee7e7d5-d25e-446f-bfb7-9c213be9c8fc","ios":"levelo://app?vid=0ee7e7d5-d25e-446f-bfb7-9c213be9c8fc"},"vehicle_type_id":"4","last_reported":1778802297,"current_range_meters":8800,"station_id":"ce4bhi12rcd13ifvqfp0","pricing_plan_id":"cebpf4jnsgd1na2vs0mg"},{"bike_id":"75fbf40b-61b5-48a3-a920-f758ef4ada58","system_id":"levelo_inurba_marseille","lat":43.30133,"lon":5.38089,"is_reserved":false,"is_disabled":false,"rental_uris":{"android":"levelo://app?vid=75fbf40b-61b5-48a3-a920-f758ef4ada58","ios":"levelo://app?vid=75fbf40b-61b5-48a3-a920-f758ef4ada58"},"vehicle_type_id":"4","last_reported":1778802297,"current_range_meters":8800,"station_id":"ce4bgjp2rcd13ifvqbh0","pricing_plan_id":"cebpf4jnsgd1na2vs0mg"},{"bike_id":"6b379858-4a6b-45a0-96f4-19512c9626ea","system_id":"levelo_inurba_marseille","lat":43.23186,"lon":5.39974,"is_reserved":false,"is_disabled":false,"rental_uris":{"android":"levelo://app?vid=6b379858-4a6b-45a0-96f4-19512c9626ea","ios":"levelo://app?vid=6b379858-4a6b-45a0-96f4-19512c9626ea"},"vehicle_type_id":"4","last_reported":1778802297,"current_range_meters":8800,"station_id":"ce4bhn12rcd13ifvqgqg","pricing_plan_id":"cebpf4jnsgd1na2vs0mg"},{"bike_id":"ab5d2c88-2225-4484-b022-e013d40ae356","system_id":"levelo_inurba_marseille","lat":43.27349,"lon":5.36268,"is_reserved":false,"is_disabled":false,"rental_uris":{"android":"levelo://app?vid=ab5d2c88-2225-4484-b022-e013d40ae356","ios":"levelo://app?vid=ab5d2c88-2225-4484-b022-e013d40ae356"},"vehicle_type_id":"4","last_reported":1778802297,"current_range_meters":8800,"station_id":"ce4bhbh2rcd13ifvqeo0","pricing_plan_id":"cebpf4jnsgd1na2vs0mg"},{"bike_id":"b92da105-00ff-46b1-bd98-22771d6da483","system_id":"levelo_inurba_marseille","lat":43.24321,"lon":5.38431,"is_reserved":false,"is_disabled":false,"rental_uris":{"android":"levelo://app?vid=b92da105-00ff-46b1-bd98-22771d6da483","ios":"levelo://app?vid=b92da105-00ff-46b1-bd98-22771d6da483"},"vehicle_type_id":"4","last_reported":1778802297,"current_range_meters":8800,"station_id":"","pricing_plan_id":"cebpf4jnsgd1na2vs0mg"},{"bike_id":"f829f4b9-58d1-45a6-9014-d64b4b0b3b6f","system_id":"levelo_inurba_marseille","lat":43.29172,"lon":5.37145,"is_reserved":false,"is_disabled":false,"rental_uris":{"android":"levelo://app?vid=f829f4b9-58d1-45a6-9014-d64b4b0b3b6f","ios":"levelo://app?vid=f829f4b9-58d1-45a6-9014-d64b4b0b3b6f"},"vehicle_type_id":"4","last_reported":1778802297,"current_range_meters":9200,"station_id":"ce4bha92rcd13ifvqeh0","pricing_plan_id":"cebpf4jnsgd1na2vs0mg"},{"bike_id":"bcc7cd70-09d4-41be-81e8-50abbfd58e27","system_id":"levelo_inurba_marseille","lat":43.25569,"lon":5.38234,"is_reserved":false,"is_disabled":false,"rental_uris":{"android":"levelo://app?vid=bcc7cd70-09d4-41be-81e8-50abbfd58e27","ios":"levelo://app?vid=bcc7cd70-09d4-41be-81e8-50abbfd58e27"},"vehicle_type_id":"4","last_reported":1778802297,"current_range_meters":9200,"station_id":"ce4bhih2rcd13ifvqfs0","pricing_plan_id":"cebpf4jnsgd1na2vs0mg"},{"bike_id":"2dd5b77a-43fc-43ed-94c9-c76dcd4430a4","system_id":"levelo_inurba_marseille","lat":43.30176,"lon":5.36649,"is_reserved":false,"is_disabled":false,"rental_uris":{"android":"levelo://app?vid=2dd5b77a-43fc-43ed-94c9-c76dcd4430a4","ios":"levelo://app?vid=2dd5b77a-43fc-43ed-94c9-c76dcd4430a4"},"vehicle_type_id":"4","last_reported":1778802297,"current_range_meters":9200,"station_id":"ce4bgrh2rcd13ifvqc8g","pricing_plan_id":"cebpf4jnsgd1na2vs0mg"},{"bike_id":"9b2021d8-c5d8-448d-a392-8636bb8f2d73","system_id":"levelo_inurba_marseille","lat":43.2549,"lon":5.3766,"is_reserved":false,"is_disabled":false,"rental_uris":{"android":"levelo://app?vid=9b2021d8-c5d8-448d-a392-8636bb8f2d73","ios":"levelo://app?vid=9b2021d8-c5d8-448d-a392-8636bb8f2d73"},"vehicle_type_id":"4","last_reported":1778802297,"current_range_meters":9200,"station_id":"ce4bhh12rcd13ifvqff0","pricing_plan_id":"cebpf4jnsgd1na2vs0mg"},{"bike_id":"41245f3e-8502-4c14-9b14-d511a01ed938","system_id":"levelo_inurba_marseille","lat":43.302,"lon":5.38099,"is_reserved":false,"is_disabled":false,"rental_uris":{"android":"levelo://app?vid=41245f3e-8502-4c14-9b14-d511a01ed938","ios":"levelo://app?vid=41245f3e-8502-4c14-9b14-d511a01ed938"},"vehicle_type_id":"4","last_reported":1778802297,"current_range_meters":9200,"station_id":"","pricing_plan_id":"cebpf4jnsgd1na2vs0mg"},{"bike_id":"065c0af5-591b-421a-a738-917f3edd34fb","system_id":"levelo_inurba_marseille","lat":43.32324,"lon":5.38266,"is_reserved":false,"is_disabled":false,"rental_uris":{"android":"levelo://app?vid=065c0af5-591b-421a-a738-917f3edd34fb","ios":"levelo://app?vid=065c0af5-591b-421a-a738-917f3edd34fb"},"vehicle_type_id":"4","last_reported":1778802297,"current_range_meters":9200,"station_id":"ce4bhr12rcd13ifvqhqg","pricing_plan_id":"cebpf4jnsgd1na2vs0mg"},{"bike_id":"e0b16637-3ef6-48f5-a000-6d4a4719dd04","system_id":"levelo_inurba_marseille","lat":43.26213,"lon":5.37445,"is_reserved":false,"is_disabled":false,"rental_uris":{"android":"levelo://app?vid=e0b16637-3ef6-48f5-a000-6d4a4719dd04","ios":"levelo://app?vid=e0b16637-3ef6-48f5-a000-6d4a4719dd04"},"vehicle_type_id":"4","last_reported":1778802297,"current_range_meters":9200,"station_id":"ce4bhgp2rcd13ifvqfc0","pricing_plan_id":"cebpf4jnsgd1na2vs0mg"},{"bike_id":"542d668d-94a3-43d7-8122-dc170ac76fcb","system_id":"levelo_inurba_marseille","lat":43.24494,"lon":5.4252,"is_reserved":false,"is_disabled":false,"rental_uris":{"android":"levelo://app?vid=542d668d-94a3-43d7-8122-dc170ac76fcb","ios":"levelo://app?vid=542d668d-94a3-43d7-8122-dc170ac76fcb"},"vehicle_type_id":"4","last_reported":1778802297,"current_range_meters":9200,"station_id":"st_d4a3vfp97mjs738cd8kg","pricing_plan_id":"cebpf4jnsgd1na2vs0mg"},{"bike_id":"407cb84a-a432-428e-bca1-5a664382f068","system_id":"levelo_inurba_marseille","lat":43.30121,"lon":5.39861,"is_reserved":false,"is_disabled":false,"rental_uris":{"android":"levelo://app?vid=407cb84a-a432-428e-bca1-5a664382f068","ios":"levelo://app?vid=407cb84a-a432-428e-bca1-5a664382f068"},"vehicle_type_id":"4","last_reported":1778802297,"current_range_meters":9200,"station_id":"ce4bh0h2rcd13ifvqd40","pricing_plan_id":"cebpf4jnsgd1na2vs0mg"},{"bike_id":"7e0abb9d-45cd-4f2e-9dc0-1d0641b37ff5","system_id":"levelo_inurba_marseille","lat":43.29251,"lon":5.37623,"is_reserved":false,"is_disabled":true,"rental_uris":{"android":"levelo://app?vid=7e0abb9d-45cd-4f2e-9dc0-1d0641b37ff5","ios":"levelo://app?vid=7e0abb9d-45cd-4f2e-9dc0-1d0641b37ff5"},"vehicle_type_id":"4","last_reported":1778802297,"current_range_meters":9200,"station_id":"ce4bgi12rcd13ifvqb80","pricing_plan_id":"cebpf4jnsgd1na2vs0mg"},{"bike_id":"5fb2702e-ddb4-4bfc-9173-e5d371dcb492","system_id":"levelo_inurba_marseille","lat":43.28612,"lon":5.35093,"is_reserved":false,"is_disabled":false,"rental_uris":{"android":"levelo://app?vid=5fb2702e-ddb4-4bfc-9173-e5d371dcb492","ios":"levelo://app?vid=5fb2702e-ddb4-4bfc-9173-e5d371dcb492"},"vehicle_type_id":"4","last_reported":1778802297,"current_range_meters":9200,"station_id":"ce4bhch2rcd13ifvqeug","pricing_plan_id":"cebpf4jnsgd1na2vs0mg"},{"bike_id":"5086b699-3dcc-4806-b878-78b08fee24d3","system_id":"levelo_inurba_marseille","lat":43.3106,"lon":5.37183,"is_reserved":false,"is_disabled":false,"rental_uris":{"android":"levelo://app?vid=5086b699-3dcc-4806-b878-78b08fee24d3","ios":"levelo://app?vid=5086b699-3dcc-4806-b878-78b08fee24d3"},"vehicle_type_id":"4","last_reported":1778802297,"current_range_meters":9200,"station_id":"st_d4kl2rp97mjs73e7tdfg","pricing_plan_id":"cebpf4jnsgd1na2vs0mg"},{"bike_id":"cf7b705c-7a37-4054-aa6c-b54b5684440f","system_id":"levelo_inurba_marseille","lat":43.23154,"lon":5.43709,"is_reserved":false,"is_disabled":false,"rental_uris":{"android":"levelo://app?vid=cf7b705c-7a37-4054-aa6c-b54b5684440f","ios":"levelo://app?vid=cf7b705c-7a37-4054-aa6c-b54b5684440f"},"vehicle_type_id":"4","last_reported":1778802297,"current_range_meters":9200,"station_id":"ce4bhmp2rcd13ifvqgog","pricing_plan_id":"cebpf4jnsgd1na2vs0mg"},{"bike_id":"43fd08e9-8801-41b6-946e-6e125f9fb580","system_id":"levelo_inurba_marseille","lat":43.28417,"lon":5.34989,"is_reserved":false,"is_disabled":false,"rental_uris":{"android":"levelo://app?vid=43fd08e9-8801-41b6-946e-6e125f9fb580","ios":"levelo://app?vid=43fd08e9-8801-41b6-946e-6e125f9fb580"},"vehicle_type_id":"4","last_reported":1778802297,"current_range_meters":9200,"station_id":"ce4bhbh2rcd13ifvqepg","pricing_plan_id":"cebpf4jnsgd1na2vs0mg"},{"bike_id":"0f02f473-ee92-4932-a24a-51ca976f5c6c","system_id":"levelo_inurba_marseille","lat":43.30875,"lon":5.39654,"is_reserved":false,"is_disabled":false,"rental_uris":{"android":"levelo://app?vid=0f02f473-ee92-4932-a24a-51ca976f5c6c","ios":"levelo://app?vid=0f02f473-ee92-4932-a24a-51ca976f5c6c"},"vehicle_type_id":"4","last_reported":1778802297,"current_range_meters":9200,"station_id":"ce4bh012rcd13ifvqcv0","pricing_plan_id":"cebpf4jnsgd1na2vs0mg"},{"bike_id":"03e84744-5673-4e78-b03d-059e16e5b07c","system_id":"levelo_inurba_marseille","lat":43.2312,"lon":5.43729,"is_reserved":false,"is_disabled":false,"rental_uris":{"android":"levelo://app?vid=03e84744-5673-4e78-b03d-059e16e5b07c","ios":"levelo://app?vid=03e84744-5673-4e78-b03d-059e16e5b07c"},"vehicle_type_id":"4","last_reported":1778802297,"current_range_meters":9200,"station_id":"ce4bhmp2rcd13ifvqgog","pricing_plan_id":"cebpf4jnsgd1na2vs0mg"},{"bike_id":"fb2045b4-b09b-4da4-b84c-8b811fca3a9d","system_id":"levelo_inurba_marseille","lat":43.29178,"lon":5.38616,"is_reserved":false,"is_disabled":false,"rental_uris":{"android":"levelo://app?vid=fb2045b4-b09b-4da4-b84c-8b811fca3a9d","ios":"levelo://app?vid=fb2045b4-b09b-4da4-b84c-8b811fca3a9d"},"vehicle_type_id":"4","last_reported":1778802297,"current_range_meters":9200,"station_id":"","pricing_plan_id":"cebpf4jnsgd1na2vs0mg"},{"bike_id":"fdb1420c-8cba-495e-8621-8fdd81cc0df7","system_id":"levelo_inurba_marseille","lat":43.27984,"lon":5.41653,"is_reserved":false,"is_disabled":false,"rental_uris":{"android":"levelo://app?vid=fdb1420c-8cba-495e-8621-8fdd81cc0df7","ios":"levelo://app?vid=fdb1420c-8cba-495e-8621-8fdd81cc0df7"},"vehicle_type_id":"4","last_reported":1778802297,"current_range_meters":9200,"station_id":"ce4bho12rcd13ifvqh1g","pricing_plan_id":"cebpf4jnsgd1na2vs0mg"},{"bike_id":"3f9370f5-e1d7-4e52-a0f8-2dee3674c4e9","system_id":"levelo_inurba_marseille","lat":43.31721,"lon":5.37763,"is_reserved":false,"is_disabled":false,"rental_uris":{"android":"levelo://app?vid=3f9370f5-e1d7-4e52-a0f8-2dee3674c4e9","ios":"levelo://app?vid=3f9370f5-e1d7-4e52-a0f8-2dee3674c4e9"},"vehicle_type_id":"4","last_reported":1778802297,"current_range_meters":9200,"station_id":"ce4bgth2rcd13ifvqch0","pricing_plan_id":"cebpf4jnsgd1na2vs0mg"},{"bike_id":"2be2dfbb-5fc9-4d40-99ae-8f0a1bd0747d","system_id":"levelo_inurba_marseille","lat":43.22567,"lon":5.41625,"is_reserved":false,"is_disabled":false,"rental_uris":{"android":"levelo://app?vid=2be2dfbb-5fc9-4d40-99ae-8f0a1bd0747d","ios":"levelo://app?vid=2be2dfbb-5fc9-4d40-99ae-8f0a1bd0747d"},"vehicle_type_id":"4","last_reported":1778802297,"current_range_meters":9200,"station_id":"st_d2o4gvlbi1j2169b742g","pricing_plan_id":"cebpf4jnsgd1na2vs0mg"},{"bike_id":"14f10cf8-3c1f-4ae3-ac40-bc26c23ae538","system_id":"levelo_inurba_marseille","lat":43.24723,"lon":5.39253,"is_reserved":false,"is_disabled":false,"rental_uris":{"android":"levelo://app?vid=14f10cf8-3c1f-4ae3-ac40-bc26c23ae538","ios":"levelo://app?vid=14f10cf8-3c1f-4ae3-ac40-bc26c23ae538"},"vehicle_type_id":"4","last_reported":1778802297,"current_range_meters":9200,"station_id":"","pricing_plan_id":"cebpf4jnsgd1na2vs0mg"},{"bike_id":"071b32cd-efb7-4b19-8868-73a0bba63276","system_id":"levelo_inurba_marseille","lat":43.24781,"lon":5.3746,"is_reserved":false,"is_disabled":false,"rental_uris":{"android":"levelo://app?vid=071b32cd-efb7-4b19-8868-73a0bba63276","ios":"levelo://app?vid=071b32cd-efb7-4b19-8868-73a0bba63276"},"vehicle_type_id":"4","last_reported":1778802297,"current_range_meters":9600,"station_id":"ce4bhgh2rcd13ifvqfb0","pricing_plan_id":"cebpf4jnsgd1na2vs0mg"},{"bike_id":"5b0ee32a-a2ec-43aa-bbc3-282ccee7cdc0","system_id":"levelo_inurba_marseille","lat":43.337444,"lon":5.374475,"is_reserved":false,"is_disabled":true,"rental_uris":{"android":"levelo://app?vid=5b0ee32a-a2ec-43aa-bbc3-282ccee7cdc0","ios":"levelo://app?vid=5b0ee32a-a2ec-43aa-bbc3-282ccee7cdc0"},"vehicle_type_id":"4","last_reported":1778802297,"current_range_meters":9600,"station_id":"","pricing_plan_id":"cebpf4jnsgd1na2vs0mg"},{"bike_id":"496cfd2a-05b4-4779-bc7f-5abb7ba16959","system_id":"levelo_inurba_marseille","lat":43.28203,"lon":5.39043,"is_reserved":false,"is_disabled":false,"rental_uris":{"android":"levelo://app?vid=496cfd2a-05b4-4779-bc7f-5abb7ba16959","ios":"levelo://app?vid=496cfd2a-05b4-4779-bc7f-5abb7ba16959"},"vehicle_type_id":"4","last_reported":1778802297,"current_range_meters":9600,"station_id":"ce4bhn92rcd13ifvqgsg","pricing_plan_id":"cebpf4jnsgd1na2vs0mg"},{"bike_id":"fb70838e-1cdf-4cbb-a8a2-4473cf1efe4e","system_id":"levelo_inurba_marseille","lat":43.3016,"lon":5.3807,"is_reserved":false,"is_disabled":false,"rental_uris":{"android":"levelo://app?vid=fb70838e-1cdf-4cbb-a8a2-4473cf1efe4e","ios":"levelo://app?vid=fb70838e-1cdf-4cbb-a8a2-4473cf1efe4e"},"vehicle_type_id":"4","last_reported":1778802297,"current_range_meters":9600,"station_id":"ce4bgjp2rcd13ifvqbh0","pricing_plan_id":"cebpf4jnsgd1na2vs0mg"},{"bike_id":"f9ec5e65-1edb-4966-814e-bd12fe63ccff","system_id":"levelo_inurba_marseille","lat":43.33586,"lon":5.41015,"is_reserved":false,"is_disabled":false,"rental_uris":{"android":"levelo://app?vid=f9ec5e65-1edb-4966-814e-bd12fe63ccff","ios":"levelo://app?vid=f9ec5e65-1edb-4966-814e-bd12fe63ccff"},"vehicle_type_id":"4","last_reported":1778802297,"current_range_meters":9600,"station_id":"ce4bhqh2rcd13ifvqhmg","pricing_plan_id":"cebpf4jnsgd1na2vs0mg"},{"bike_id":"cf098b1d-2906-438f-99f4-4842fdc29b6a","system_id":"levelo_inurba_marseille","lat":43.29602,"lon":5.38102,"is_reserved":false,"is_disabled":false,"rental_uris":{"android":"levelo://app?vid=cf098b1d-2906-438f-99f4-4842fdc29b6a","ios":"levelo://app?vid=cf098b1d-2906-438f-99f4-4842fdc29b6a"},"vehicle_type_id":"4","last_reported":1778802297,"current_range_meters":9600,"station_id":"ce4bgl12rcd13ifvqbo0","pricing_plan_id":"cebpf4jnsgd1na2vs0mg"},{"bike_id":"c2d94750-4596-4cff-bece-2611d31dc541","system_id":"levelo_inurba_marseille","lat":43.23186,"lon":5.39981,"is_reserved":false,"is_disabled":false,"rental_uris":{"android":"levelo://app?vid=c2d94750-4596-4cff-bece-2611d31dc541","ios":"levelo://app?vid=c2d94750-4596-4cff-bece-2611d31dc541"},"vehicle_type_id":"4","last_reported":1778802297,"current_range_meters":9600,"station_id":"ce4bhn12rcd13ifvqgqg","pricing_plan_id":"cebpf4jnsgd1na2vs0mg"},{"bike_id":"0f6fb81d-88a6-48b8-af91-732d590048c4","system_id":"levelo_inurba_marseille","lat":43.28347,"lon":5.38107,"is_reserved":false,"is_disabled":false,"rental_uris":{"android":"levelo://app?vid=0f6fb81d-88a6-48b8-af91-732d590048c4","ios":"levelo://app?vid=0f6fb81d-88a6-48b8-af91-732d590048c4"},"vehicle_type_id":"4","last_reported":1778802297,"current_range_meters":9600,"station_id":"ce4bh412rcd13ifvqdr0","pricing_plan_id":"cebpf4jnsgd1na2vs0mg"},{"bike_id":"51664d14-16b2-48cc-bb95-c2f0a523d053","system_id":"levelo_inurba_marseille","lat":43.29975,"lon":5.43068,"is_reserved":false,"is_disabled":false,"rental_uris":{"android":"levelo://app?vid=51664d14-16b2-48cc-bb95-c2f0a523d053","ios":"levelo://app?vid=51664d14-16b2-48cc-bb95-c2f0a523d053"},"vehicle_type_id":"4","last_reported":1778802297,"current_range_meters":9600,"station_id":"","pricing_plan_id":"cebpf4jnsgd1na2vs0mg"},{"bike_id":"e11887d7-94e5-48e9-a10f-703ade196405","system_id":"levelo_inurba_marseille","lat":43.28719,"lon":5.37943,"is_reserved":false,"is_disabled":false,"rental_uris":{"android":"levelo://app?vid=e11887d7-94e5-48e9-a10f-703ade196405","ios":"levelo://app?vid=e11887d7-94e5-48e9-a10f-703ade196405"},"vehicle_type_id":"4","last_reported":1778802297,"current_range_meters":9600,"station_id":"ce4bh9p2rcd13ifvqec0","pricing_plan_id":"cebpf4jnsgd1na2vs0mg"},{"bike_id":"63d65d42-3911-40ae-ad92-0b8fba9c9805","system_id":"levelo_inurba_marseille","lat":43.24067,"lon":5.37754,"is_reserved":false,"is_disabled":false,"rental_uris":{"android":"levelo://app?vid=63d65d42-3911-40ae-ad92-0b8fba9c9805","ios":"levelo://app?vid=63d65d42-3911-40ae-ad92-0b8fba9c9805"},"vehicle_type_id":"4","last_reported":1778802297,"current_range_meters":9600,"station_id":"ce4bhnp2rcd13ifvqgvg","pricing_plan_id":"cebpf4jnsgd1na2vs0mg"},{"bike_id":"85700384-7ed5-481f-8383-977a4a484f3a","system_id":"levelo_inurba_marseille","lat":43.26415,"lon":5.38714,"is_reserved":false,"is_disabled":false,"rental_uris":{"android":"levelo://app?vid=85700384-7ed5-481f-8383-977a4a484f3a","ios":"levelo://app?vid=85700384-7ed5-481f-8383-977a4a484f3a"},"vehicle_type_id":"4","last_reported":1778802297,"current_range_meters":9600,"station_id":"","pricing_plan_id":"cebpf4jnsgd1na2vs0mg"},{"bike_id":"cefbeb11-85b7-46b3-85c6-aca7465c0a67","system_id":"levelo_inurba_marseille","lat":43.28191,"lon":5.3903,"is_reserved":false,"is_disabled":false,"rental_uris":{"android":"levelo://app?vid=cefbeb11-85b7-46b3-85c6-aca7465c0a67","ios":"levelo://app?vid=cefbeb11-85b7-46b3-85c6-aca7465c0a67"},"vehicle_type_id":"4","last_reported":1778802297,"current_range_meters":9600,"station_id":"","pricing_plan_id":"cebpf4jnsgd1na2vs0mg"},{"bike_id":"245034ef-13bc-42be-8840-165da39a6c37","system_id":"levelo_inurba_marseille","lat":43.31703,"lon":5.37784,"is_reserved":false,"is_disabled":false,"rental_uris":{"android":"levelo://app?vid=245034ef-13bc-42be-8840-165da39a6c37","ios":"levelo://app?vid=245034ef-13bc-42be-8840-165da39a6c37"},"vehicle_type_id":"4","last_reported":1778802297,"current_range_meters":9600,"station_id":"ce4bgth2rcd13ifvqch0","pricing_plan_id":"cebpf4jnsgd1na2vs0mg"},{"bike_id":"d74d3f33-a8dc-4d72-b28b-2cf586e298d3","system_id":"levelo_inurba_marseille","lat":43.2853,"lon":5.44117,"is_reserved":false,"is_disabled":false,"rental_uris":{"android":"levelo://app?vid=d74d3f33-a8dc-4d72-b28b-2cf586e298d3","ios":"levelo://app?vid=d74d3f33-a8dc-4d72-b28b-2cf586e298d3"},"vehicle_type_id":"4","last_reported":1778802297,"current_range_meters":9600,"station_id":"st_d3j3df2ikq2c7380ej80","pricing_plan_id":"cebpf4jnsgd1na2vs0mg"},{"bike_id":"c0cfd3d3-466f-48d3-8921-1e72b828172f","system_id":"levelo_inurba_marseille","lat":43.24466,"lon":5.42586,"is_reserved":false,"is_disabled":false,"rental_uris":{"android":"levelo://app?vid=c0cfd3d3-466f-48d3-8921-1e72b828172f","ios":"levelo://app?vid=c0cfd3d3-466f-48d3-8921-1e72b828172f"},"vehicle_type_id":"4","last_reported":1778802297,"current_range_meters":9600,"station_id":"st_d4a3vfp97mjs738cd8kg","pricing_plan_id":"cebpf4jnsgd1na2vs0mg"},{"bike_id":"2dad678a-eba2-49e6-88bf-98c3fc40e9cc","system_id":"levelo_inurba_marseille","lat":43.24074,"lon":5.37747,"is_reserved":false,"is_disabled":false,"rental_uris":{"android":"levelo://app?vid=2dad678a-eba2-49e6-88bf-98c3fc40e9cc","ios":"levelo://app?vid=2dad678a-eba2-49e6-88bf-98c3fc40e9cc"},"vehicle_type_id":"4","last_reported":1778802297,"current_range_meters":9600,"station_id":"ce4bhnp2rcd13ifvqgvg","pricing_plan_id":"cebpf4jnsgd1na2vs0mg"},{"bike_id":"59e80b5b-31bb-4f08-bb59-581a034e7f28","system_id":"levelo_inurba_marseille","lat":43.28262,"lon":5.35062,"is_reserved":false,"is_disabled":false,"rental_uris":{"android":"levelo://app?vid=59e80b5b-31bb-4f08-bb59-581a034e7f28","ios":"levelo://app?vid=59e80b5b-31bb-4f08-bb59-581a034e7f28"},"vehicle_type_id":"4","last_reported":1778802297,"current_range_meters":9600,"station_id":"ce4bhbp2rcd13ifvqerg","pricing_plan_id":"cebpf4jnsgd1na2vs0mg"},{"bike_id":"e32f6868-cbab-4ffd-9892-2e29eeead741","system_id":"levelo_inurba_marseille","lat":43.30884,"lon":5.39658,"is_reserved":false,"is_disabled":false,"rental_uris":{"android":"levelo://app?vid=e32f6868-cbab-4ffd-9892-2e29eeead741","ios":"levelo://app?vid=e32f6868-cbab-4ffd-9892-2e29eeead741"},"vehicle_type_id":"4","last_reported":1778802297,"current_range_meters":10000,"station_id":"ce4bh012rcd13ifvqcv0","pricing_plan_id":"cebpf4jnsgd1na2vs0mg"},{"bike_id":"4020dd0c-01ce-4494-844b-244bfc2850f4","system_id":"levelo_inurba_marseille","lat":43.30484,"lon":5.37247,"is_reserved":false,"is_disabled":false,"rental_uris":{"android":"levelo://app?vid=4020dd0c-01ce-4494-844b-244bfc2850f4","ios":"levelo://app?vid=4020dd0c-01ce-4494-844b-244bfc2850f4"},"vehicle_type_id":"4","last_reported":1778802297,"current_range_meters":10000,"station_id":"","pricing_plan_id":"cebpf4jnsgd1na2vs0mg"},{"bike_id":"24f270e3-6a33-4c20-91d1-50cadf27be12","system_id":"levelo_inurba_marseille","lat":43.26547,"lon":5.37343,"is_reserved":false,"is_disabled":false,"rental_uris":{"android":"levelo://app?vid=24f270e3-6a33-4c20-91d1-50cadf27be12","ios":"levelo://app?vid=24f270e3-6a33-4c20-91d1-50cadf27be12"},"vehicle_type_id":"4","last_reported":1778802297,"current_range_meters":10000,"station_id":"","pricing_plan_id":"cebpf4jnsgd1na2vs0mg"},{"bike_id":"bbe9c151-1935-4b6a-b00b-9e83ad51252e","system_id":"levelo_inurba_marseille","lat":43.29541,"lon":5.37514,"is_reserved":false,"is_disabled":false,"rental_uris":{"android":"levelo://app?vid=bbe9c151-1935-4b6a-b00b-9e83ad51252e","ios":"levelo://app?vid=bbe9c151-1935-4b6a-b00b-9e83ad51252e"},"vehicle_type_id":"4","last_reported":1778802297,"current_range_meters":10000,"station_id":"ce4bgkp2rcd13ifvqbmg","pricing_plan_id":"cebpf4jnsgd1na2vs0mg"},{"bike_id":"2e12d504-c28b-4790-857a-6e121f8668ac","system_id":"levelo_inurba_marseille","lat":43.292997,"lon":5.374462,"is_reserved":false,"is_disabled":false,"rental_uris":{"android":"levelo://app?vid=2e12d504-c28b-4790-857a-6e121f8668ac","ios":"levelo://app?vid=2e12d504-c28b-4790-857a-6e121f8668ac"},"vehicle_type_id":"4","last_reported":1778802297,"current_range_meters":10000,"station_id":"ce4bgi12rcd13ifvqb70","pricing_plan_id":"cebpf4jnsgd1na2vs0mg"},{"bike_id":"da0bc3e7-9a10-4749-820e-9f1b7b6d4687","system_id":"levelo_inurba_marseille","lat":43.29867,"lon":5.38963,"is_reserved":false,"is_disabled":false,"rental_uris":{"android":"levelo://app?vid=da0bc3e7-9a10-4749-820e-9f1b7b6d4687","ios":"levelo://app?vid=da0bc3e7-9a10-4749-820e-9f1b7b6d4687"},"vehicle_type_id":"4","last_reported":1778802297,"current_range_meters":10000,"station_id":"","pricing_plan_id":"cebpf4jnsgd1na2vs0mg"},{"bike_id":"018f15cc-644b-47a8-88d6-ec93af6db853","system_id":"levelo_inurba_marseille","lat":43.27374,"lon":5.36271,"is_reserved":false,"is_disabled":false,"rental_uris":{"android":"levelo://app?vid=018f15cc-644b-47a8-88d6-ec93af6db853","ios":"levelo://app?vid=018f15cc-644b-47a8-88d6-ec93af6db853"},"vehicle_type_id":"4","last_reported":1778802297,"current_range_meters":10000,"station_id":"ce4bhbh2rcd13ifvqeo0","pricing_plan_id":"cebpf4jnsgd1na2vs0mg"},{"bike_id":"dd902699-4629-4398-8294-766f19c4172b","system_id":"levelo_inurba_marseille","lat":43.26496,"lon":5.39531,"is_reserved":false,"is_disabled":false,"rental_uris":{"android":"levelo://app?vid=dd902699-4629-4398-8294-766f19c4172b","ios":"levelo://app?vid=dd902699-4629-4398-8294-766f19c4172b"},"vehicle_type_id":"4","last_reported":1778802297,"current_range_meters":10000,"station_id":"ce4bhi12rcd13ifvqfq0","pricing_plan_id":"cebpf4jnsgd1na2vs0mg"},{"bike_id":"3ddaac62-2ec6-4996-9089-f520d9c0cbbc","system_id":"levelo_inurba_marseille","lat":43.28614,"lon":5.39876,"is_reserved":false,"is_disabled":false,"rental_uris":{"android":"levelo://app?vid=3ddaac62-2ec6-4996-9089-f520d9c0cbbc","ios":"levelo://app?vid=3ddaac62-2ec6-4996-9089-f520d9c0cbbc"},"vehicle_type_id":"4","last_reported":1778802297,"current_range_meters":10000,"station_id":"st_d4a7ka997mjs738ck50g","pricing_plan_id":"cebpf4jnsgd1na2vs0mg"},{"bike_id":"e0e7175a-ff35-41e3-a2cc-efe2d4f94384","system_id":"levelo_inurba_marseille","lat":43.26188,"lon":5.37431,"is_reserved":false,"is_disabled":false,"rental_uris":{"android":"levelo://app?vid=e0e7175a-ff35-41e3-a2cc-efe2d4f94384","ios":"levelo://app?vid=e0e7175a-ff35-41e3-a2cc-efe2d4f94384"},"vehicle_type_id":"4","last_reported":1778802297,"current_range_meters":10000,"station_id":"ce4bhgp2rcd13ifvqfc0","pricing_plan_id":"cebpf4jnsgd1na2vs0mg"},{"bike_id":"2ad17d08-f228-43c1-ac27-af9161d7c098","system_id":"levelo_inurba_marseille","lat":43.28168,"lon":5.42658,"is_reserved":false,"is_disabled":false,"rental_uris":{"android":"levelo://app?vid=2ad17d08-f228-43c1-ac27-af9161d7c098","ios":"levelo://app?vid=2ad17d08-f228-43c1-ac27-af9161d7c098"},"vehicle_type_id":"4","last_reported":1778802297,"current_range_meters":10000,"station_id":"ce4bhnh2rcd13ifvqgug","pricing_plan_id":"cebpf4jnsgd1na2vs0mg"},{"bike_id":"3cf8b857-ccf8-4970-8bde-d220a00ffb3b","system_id":"levelo_inurba_marseille","lat":43.27918,"lon":5.39563,"is_reserved":false,"is_disabled":false,"rental_uris":{"android":"levelo://app?vid=3cf8b857-ccf8-4970-8bde-d220a00ffb3b","ios":"levelo://app?vid=3cf8b857-ccf8-4970-8bde-d220a00ffb3b"},"vehicle_type_id":"4","last_reported":1778802297,"current_range_meters":10000,"station_id":"ce4bhf92rcd13ifvqf40","pricing_plan_id":"cebpf4jnsgd1na2vs0mg"},{"bike_id":"4f9bc47f-c8d2-46b0-b717-0bc183208676","system_id":"levelo_inurba_marseille","lat":43.30185,"lon":5.36593,"is_reserved":false,"is_disabled":false,"rental_uris":{"android":"levelo://app?vid=4f9bc47f-c8d2-46b0-b717-0bc183208676","ios":"levelo://app?vid=4f9bc47f-c8d2-46b0-b717-0bc183208676"},"vehicle_type_id":"4","last_reported":1778802297,"current_range_meters":10000,"station_id":"ce4bgrh2rcd13ifvqc8g","pricing_plan_id":"cebpf4jnsgd1na2vs0mg"},{"bike_id":"c3f6eca5-27de-4e85-9cc5-99feb6a00024","system_id":"levelo_inurba_marseille","lat":43.28945,"lon":5.36417,"is_reserved":false,"is_disabled":false,"rental_uris":{"android":"levelo://app?vid=c3f6eca5-27de-4e85-9cc5-99feb6a00024","ios":"levelo://app?vid=c3f6eca5-27de-4e85-9cc5-99feb6a00024"},"vehicle_type_id":"4","last_reported":1778802297,"current_range_meters":10000,"station_id":"ce4bhc92rcd13ifvqetg","pricing_plan_id":"cebpf4jnsgd1na2vs0mg"},{"bike_id":"fe0ac0da-2ff6-45c6-a6ca-c142552ce3a0","system_id":"levelo_inurba_marseille","lat":43.26579,"lon":5.39027,"is_reserved":false,"is_disabled":false,"rental_uris":{"android":"levelo://app?vid=fe0ac0da-2ff6-45c6-a6ca-c142552ce3a0","ios":"levelo://app?vid=fe0ac0da-2ff6-45c6-a6ca-c142552ce3a0"},"vehicle_type_id":"4","last_reported":1778802297,"current_range_meters":10000,"station_id":"ce4bhe12rcd13ifvqf30","pricing_plan_id":"cebpf4jnsgd1na2vs0mg"},{"bike_id":"88c0458d-410d-486d-8514-53ff65f224d5","system_id":"levelo_inurba_marseille","lat":43.26199,"lon":5.37441,"is_reserved":false,"is_disabled":false,"rental_uris":{"android":"levelo://app?vid=88c0458d-410d-486d-8514-53ff65f224d5","ios":"levelo://app?vid=88c0458d-410d-486d-8514-53ff65f224d5"},"vehicle_type_id":"4","last_reported":1778802297,"current_range_meters":10000,"station_id":"ce4bhgp2rcd13ifvqfc0","pricing_plan_id":"cebpf4jnsgd1na2vs0mg"},{"bike_id":"e159c4b9-6700-4fa7-bb02-c7e0de94a1a8","system_id":"levelo_inurba_marseille","lat":43.22564,"lon":5.41624,"is_reserved":false,"is_disabled":false,"rental_uris":{"android":"levelo://app?vid=e159c4b9-6700-4fa7-bb02-c7e0de94a1a8","ios":"levelo://app?vid=e159c4b9-6700-4fa7-bb02-c7e0de94a1a8"},"vehicle_type_id":"4","last_reported":1778802297,"current_range_meters":10000,"station_id":"st_d2o4gvlbi1j2169b742g","pricing_plan_id":"cebpf4jnsgd1na2vs0mg"},{"bike_id":"64a8d44a-7dc0-438b-a689-a19958a2c8f7","system_id":"levelo_inurba_marseille","lat":43.33006,"lon":5.39056,"is_reserved":false,"is_disabled":false,"rental_uris":{"android":"levelo://app?vid=64a8d44a-7dc0-438b-a689-a19958a2c8f7","ios":"levelo://app?vid=64a8d44a-7dc0-438b-a689-a19958a2c8f7"},"vehicle_type_id":"4","last_reported":1778802297,"current_range_meters":10000,"station_id":"ce4bhr92rcd13ifvqhrg","pricing_plan_id":"cebpf4jnsgd1na2vs0mg"},{"bike_id":"ea00ca07-7443-4180-9c35-5c1c2dd062cc","system_id":"levelo_inurba_marseille","lat":43.31893,"lon":5.36813,"is_reserved":false,"is_disabled":false,"rental_uris":{"android":"levelo://app?vid=ea00ca07-7443-4180-9c35-5c1c2dd062cc","ios":"levelo://app?vid=ea00ca07-7443-4180-9c35-5c1c2dd062cc"},"vehicle_type_id":"4","last_reported":1778802297,"current_range_meters":10000,"station_id":"st_d6o2h0d0559c73evc1b0","pricing_plan_id":"cebpf4jnsgd1na2vs0mg"},{"bike_id":"9328bcd0-7dba-429b-800d-2edec12305de","system_id":"levelo_inurba_marseille","lat":43.24479,"lon":5.42551,"is_reserved":false,"is_disabled":false,"rental_uris":{"android":"levelo://app?vid=9328bcd0-7dba-429b-800d-2edec12305de","ios":"levelo://app?vid=9328bcd0-7dba-429b-800d-2edec12305de"},"vehicle_type_id":"4","last_reported":1778802297,"current_range_meters":10000,"station_id":"st_d4a3vfp97mjs738cd8kg","pricing_plan_id":"cebpf4jnsgd1na2vs0mg"},{"bike_id":"39f63017-7e1a-408c-9cca-94589e560444","system_id":"levelo_inurba_marseille","lat":43.30414,"lon":5.41283,"is_reserved":false,"is_disabled":false,"rental_uris":{"android":"levelo://app?vid=39f63017-7e1a-408c-9cca-94589e560444","ios":"levelo://app?vid=39f63017-7e1a-408c-9cca-94589e560444"},"vehicle_type_id":"4","last_reported":1778802297,"current_range_meters":10000,"station_id":"ce4bhop2rcd13ifvqh8g","pricing_plan_id":"cebpf4jnsgd1na2vs0mg"},{"bike_id":"962bb70c-387d-43a1-9677-28171a29c7a0","system_id":"levelo_inurba_marseille","lat":43.29541,"lon":5.39947,"is_reserved":false,"is_disabled":false,"rental_uris":{"android":"levelo://app?vid=962bb70c-387d-43a1-9677-28171a29c7a0","ios":"levelo://app?vid=962bb70c-387d-43a1-9677-28171a29c7a0"},"vehicle_type_id":"4","last_reported":1778802297,"current_range_meters":10800,"station_id":"ce4bh312rcd13ifvqdj0","pricing_plan_id":"cebpf4jnsgd1na2vs0mg"},{"bike_id":"95905f44-0304-4488-bbde-0604c4131f99","system_id":"levelo_inurba_marseille","lat":43.22559,"lon":5.41638,"is_reserved":false,"is_disabled":false,"rental_uris":{"android":"levelo://app?vid=95905f44-0304-4488-bbde-0604c4131f99","ios":"levelo://app?vid=95905f44-0304-4488-bbde-0604c4131f99"},"vehicle_type_id":"4","last_reported":1778802297,"current_range_meters":10800,"station_id":"st_d2o4gvlbi1j2169b742g","pricing_plan_id":"cebpf4jnsgd1na2vs0mg"},{"bike_id":"f7dfc745-d667-4d44-b7e7-a953b16da362","system_id":"levelo_inurba_marseille","lat":43.24164,"lon":5.36401,"is_reserved":false,"is_disabled":false,"rental_uris":{"android":"levelo://app?vid=f7dfc745-d667-4d44-b7e7-a953b16da362","ios":"levelo://app?vid=f7dfc745-d667-4d44-b7e7-a953b16da362"},"vehicle_type_id":"4","last_reported":1778802297,"current_range_meters":10800,"station_id":"cpo36qri1sfpv3e86is0","pricing_plan_id":"cebpf4jnsgd1na2vs0mg"},{"bike_id":"922c4ebc-c6f0-4514-8d18-6d2ddcb2b60d","system_id":"levelo_inurba_marseille","lat":43.26565,"lon":5.39013,"is_reserved":false,"is_disabled":false,"rental_uris":{"android":"levelo://app?vid=922c4ebc-c6f0-4514-8d18-6d2ddcb2b60d","ios":"levelo://app?vid=922c4ebc-c6f0-4514-8d18-6d2ddcb2b60d"},"vehicle_type_id":"4","last_reported":1778802297,"current_range_meters":10800,"station_id":"ce4bhe12rcd13ifvqf30","pricing_plan_id":"cebpf4jnsgd1na2vs0mg"},{"bike_id":"7d6b4b13-1a6d-47de-8148-dad4743d54f7","system_id":"levelo_inurba_marseille","lat":43.23962,"lon":5.36614,"is_reserved":false,"is_disabled":false,"rental_uris":{"android":"levelo://app?vid=7d6b4b13-1a6d-47de-8148-dad4743d54f7","ios":"levelo://app?vid=7d6b4b13-1a6d-47de-8148-dad4743d54f7"},"vehicle_type_id":"4","last_reported":1778802297,"current_range_meters":10800,"station_id":"ce4bhi12rcd13ifvqfp0","pricing_plan_id":"cebpf4jnsgd1na2vs0mg"},{"bike_id":"bfd11179-4fd5-4554-adf0-a80a1fbdd46b","system_id":"levelo_inurba_marseille","lat":43.23924,"lon":5.37436,"is_reserved":false,"is_disabled":true,"rental_uris":{"android":"levelo://app?vid=bfd11179-4fd5-4554-adf0-a80a1fbdd46b","ios":"levelo://app?vid=bfd11179-4fd5-4554-adf0-a80a1fbdd46b"},"vehicle_type_id":"4","last_reported":1778802297,"current_range_meters":10800,"station_id":"st_d6sm7csbq4hs73f8fpjg","pricing_plan_id":"cebpf4jnsgd1na2vs0mg"},{"bike_id":"5805231e-bfad-4e6d-89fb-432940ddffa4","system_id":"levelo_inurba_marseille","lat":43.28477,"lon":5.38414,"is_reserved":false,"is_disabled":false,"rental_uris":{"android":"levelo://app?vid=5805231e-bfad-4e6d-89fb-432940ddffa4","ios":"levelo://app?vid=5805231e-bfad-4e6d-89fb-432940ddffa4"},