{"last_updated":1702570074,"ttl":30,"version":"2.2","data":{"bikes":[{"bike_id":"4e8da820-d94c-4282-a15b-0d99d45343d6","system_id":"levelo_inurba_marseille","lat":43.312239,"lon":5.368562,"is_reserved":false,"is_disabled":false,"rental_uris":{"android":"levelo://app?vid=4e8da820-d94c-4282-a15b-0d99d45343d6","ios":"levelo://app?vid=4e8da820-d94c-4282-a15b-0d99d45343d6"},"vehicle_type_id":"4","last_reported":1702570074,"current_range_meters":31600,"station_id":"ce4bgl92rcd13ifvqbq0","pricing_plan_id":"free"},{"bike_id":"e46c50e7-8234-4822-87a1-e0ce15f6bd20","system_id":"levelo_inurba_marseille","lat":43.312239,"lon":5.368562,"is_reserved":false,"is_disabled":false,"rental_uris":{"android":"levelo://app?vid=e46c50e7-8234-4822-87a1-e0ce15f6bd20","ios":"levelo://app?vid=e46c50e7-8234-4822-87a1-e0ce15f6bd20"},"vehicle_type_id":"4","last_reported":1702570074,"current_range_meters":16400,"station_id":"ce4bgl92rcd13ifvqbq0","pricing_plan_id":"free"},{"bike_id":"6598fe0a-0e14-432a-8111-f8b14e8fe7d0","system_id":"levelo_inurba_marseille","lat":43.31545,"lon":5.37314,"is_reserved":false,"is_disabled":false,"rental_uris":{"android":"levelo://app?vid=6598fe0a-0e14-432a-8111-f8b14e8fe7d0","ios":"levelo://app?vid=6598fe0a-0e14-432a-8111-f8b14e8fe7d0"},"vehicle_type_id":"4","last_reported":1702570074,"current_range_meters":24400,"station_id":"","pricing_plan_id":"free"},{"bike_id":"0c38a1da-dc62-4a66-bd48-45d3f3158bf2","system_id":"levelo_inurba_marseille","lat":43.309039,"lon":5.371797,"is_reserved":false,"is_disabled":false,"rental_uris":{"android":"levelo://app?vid=0c38a1da-dc62-4a66-bd48-45d3f3158bf2","ios":"levelo://app?vid=0c38a1da-dc62-4a66-bd48-45d3f3158bf2"},"vehicle_type_id":"4","last_reported":1702570074,"current_range_meters":5600,"station_id":"ce4bguh2rcd13ifvqckg","pricing_plan_id":"free"},{"bike_id":"8199568a-11d9-4b41-bc53-611c810e4f03","system_id":"levelo_inurba_marseille","lat":43.309039,"lon":5.371797,"is_reserved":false,"is_disabled":false,"rental_uris":{"android":"levelo://app?vid=8199568a-11d9-4b41-bc53-611c810e4f03","ios":"levelo://app?vid=8199568a-11d9-4b41-bc53-611c810e4f03"},"vehicle_type_id":"4","last_reported":1702570074,"current_range_meters":23200,"station_id":"ce4bguh2rcd13ifvqckg","pricing_plan_id":"free"},{"bike_id":"3f8b821f-e430-4a35-bf14-f8b6e777ea11","system_id":"levelo_inurba_marseille","lat":43.313939,"lon":5.375306,"is_reserved":false,"is_disabled":false,"rental_uris":{"android":"levelo://app?vid=3f8b821f-e430-4a35-bf14-f8b6e777ea11","ios":"levelo://app?vid=3f8b821f-e430-4a35-bf14-f8b6e777ea11"},"vehicle_type_id":"4","last_reported":1702570074,"current_range_meters":3200,"station_id":"","pricing_plan_id":"free"},{"bike_id":"955e4ab2-16e5-44e8-a986-a2f50ff96c06","system_id":"levelo_inurba_marseille","lat":43.305382,"lon":5.365389,"is_reserved":false,"is_disabled":false,"rental_uris":{"android":"levelo://app?vid=955e4ab2-16e5-44e8-a986-a2f50ff96c06","ios":"levelo://app?vid=955e4ab2-16e5-44e8-a986-a2f50ff96c06"},"vehicle_type_id":"4","last_reported":1702570074,"current_range_meters":22800,"station_id":"","pricing_plan_id":"free"},{"bike_id":"5af7189a-78db-4cdb-b05b-19e3f6d814e6","system_id":"levelo_inurba_marseille","lat":43.305706,"lon":5.365654,"is_reserved":false,"is_disabled":false,"rental_uris":{"android":"levelo://app?vid=5af7189a-78db-4cdb-b05b-19e3f6d814e6","ios":"levelo://app?vid=5af7189a-78db-4cdb-b05b-19e3f6d814e6"},"vehicle_type_id":"4","last_reported":1702570074,"current_range_meters":12000,"station_id":"ce4bgs12rcd13ifvqcag","pricing_plan_id":"free"},{"bike_id":"79f9f84e-a6c8-4695-bd25-df16ec670902","system_id":"levelo_inurba_marseille","lat":43.311125,"lon":5.377624,"is_reserved":false,"is_disabled":false,"rental_uris":{"android":"levelo://app?vid=79f9f84e-a6c8-4695-bd25-df16ec670902","ios":"levelo://app?vid=79f9f84e-a6c8-4695-bd25-df16ec670902"},"vehicle_type_id":"4","last_reported":1702570074,"current_range_meters":400,"station_id":"ce4bgt92rcd13ifvqcg0","pricing_plan_id":"free"},{"bike_id":"d97ebdb4-db20-4904-bc10-e9703856f9fa","system_id":"levelo_inurba_marseille","lat":43.311131,"lon":5.377651,"is_reserved":false,"is_disabled":false,"rental_uris":{"android":"levelo://app?vid=d97ebdb4-db20-4904-bc10-e9703856f9fa","ios":"levelo://app?vid=d97ebdb4-db20-4904-bc10-e9703856f9fa"},"vehicle_type_id":"4","last_reported":1702570074,"current_range_meters":400,"station_id":"ce4bgt92rcd13ifvqcg0","pricing_plan_id":"free"},{"bike_id":"a2af3937-5cfc-488b-91d0-abe92efdd6d0","system_id":"levelo_inurba_marseille","lat":43.311125,"lon":5.377624,"is_reserved":false,"is_disabled":false,"rental_uris":{"android":"levelo://app?vid=a2af3937-5cfc-488b-91d0-abe92efdd6d0","ios":"levelo://app?vid=a2af3937-5cfc-488b-91d0-abe92efdd6d0"},"vehicle_type_id":"4","last_reported":1702570074,"current_range_meters":25600,"station_id":"ce4bgt92rcd13ifvqcg0","pricing_plan_id":"free"},{"bike_id":"7b1aba8c-a42b-4ea7-80b9-3fd7bc64c660","system_id":"levelo_inurba_marseille","lat":43.311125,"lon":5.377624,"is_reserved":false,"is_disabled":false,"rental_uris":{"android":"levelo://app?vid=7b1aba8c-a42b-4ea7-80b9-3fd7bc64c660","ios":"levelo://app?vid=7b1aba8c-a42b-4ea7-80b9-3fd7bc64c660"},"vehicle_type_id":"4","last_reported":1702570074,"current_range_meters":14800,"station_id":"ce4bgt92rcd13ifvqcg0","pricing_plan_id":"free"},{"bike_id":"27518e65-ccbd-4b8e-a8b7-d148ae19fa4e","system_id":"levelo_inurba_marseille","lat":43.317075,"lon":5.377367,"is_reserved":false,"is_disabled":false,"rental_uris":{"android":"levelo://app?vid=27518e65-ccbd-4b8e-a8b7-d148ae19fa4e","ios":"levelo://app?vid=27518e65-ccbd-4b8e-a8b7-d148ae19fa4e"},"vehicle_type_id":"4","last_reported":1702570074,"current_range_meters":27200,"station_id":"ce4bgth2rcd13ifvqch0","pricing_plan_id":"free"},{"bike_id":"1a87b0a3-ccee-42b7-bbed-c9d4b7db83b8","system_id":"levelo_inurba_marseille","lat":43.317075,"lon":5.377367,"is_reserved":false,"is_disabled":false,"rental_uris":{"android":"levelo://app?vid=1a87b0a3-ccee-42b7-bbed-c9d4b7db83b8","ios":"levelo://app?vid=1a87b0a3-ccee-42b7-bbed-c9d4b7db83b8"},"vehicle_type_id":"4","last_reported":1702570074,"current_range_meters":22400,"station_id":"ce4bgth2rcd13ifvqch0","pricing_plan_id":"free"},{"bike_id":"a10b43d0-c7ee-467c-b656-e9a4c11911a3","system_id":"levelo_inurba_marseille","lat":43.30304,"lon":5.368987,"is_reserved":false,"is_disabled":false,"rental_uris":{"android":"levelo://app?vid=a10b43d0-c7ee-467c-b656-e9a4c11911a3","ios":"levelo://app?vid=a10b43d0-c7ee-467c-b656-e9a4c11911a3"},"vehicle_type_id":"4","last_reported":1702570074,"current_range_meters":23600,"station_id":"ce4bgqh2rcd13ifvqc5g","pricing_plan_id":"free"},{"bike_id":"1e9e1ade-de23-4b8a-9abb-bbb7cafb2990","system_id":"levelo_inurba_marseille","lat":43.31527,"lon":5.38033,"is_reserved":false,"is_disabled":false,"rental_uris":{"android":"levelo://app?vid=1e9e1ade-de23-4b8a-9abb-bbb7cafb2990","ios":"levelo://app?vid=1e9e1ade-de23-4b8a-9abb-bbb7cafb2990"},"vehicle_type_id":"4","last_reported":1702570074,"current_range_meters":26800,"station_id":"ce4bhsp2rcd13ifvqi50","pricing_plan_id":"free"},{"bike_id":"2d51c0e0-e65b-4443-bf1a-99bab8f20892","system_id":"levelo_inurba_marseille","lat":43.303046,"lon":5.368981,"is_reserved":false,"is_disabled":false,"rental_uris":{"android":"levelo://app?vid=2d51c0e0-e65b-4443-bf1a-99bab8f20892","ios":"levelo://app?vid=2d51c0e0-e65b-4443-bf1a-99bab8f20892"},"vehicle_type_id":"4","last_reported":1702570074,"current_range_meters":25600,"station_id":"ce4bgqh2rcd13ifvqc5g","pricing_plan_id":"free"},{"bike_id":"d362c005-3e36-4902-ae87-8bc320c4d6aa","system_id":"levelo_inurba_marseille","lat":43.30797,"lon":5.38158,"is_reserved":false,"is_disabled":false,"rental_uris":{"android":"levelo://app?vid=d362c005-3e36-4902-ae87-8bc320c4d6aa","ios":"levelo://app?vid=d362c005-3e36-4902-ae87-8bc320c4d6aa"},"vehicle_type_id":"4","last_reported":1702570074,"current_range_meters":0,"station_id":"ce4bgt12rcd13ifvqce0","pricing_plan_id":"free"},{"bike_id":"bf68f0d1-3b54-4c23-acaa-b3657b0c44be","system_id":"levelo_inurba_marseille","lat":43.304606,"lon":5.379026,"is_reserved":false,"is_disabled":false,"rental_uris":{"android":"levelo://app?vid=bf68f0d1-3b54-4c23-acaa-b3657b0c44be","ios":"levelo://app?vid=bf68f0d1-3b54-4c23-acaa-b3657b0c44be"},"vehicle_type_id":"4","last_reported":1702570074,"current_range_meters":0,"station_id":"ce4bgup2rcd13ifvqcn0","pricing_plan_id":"free"},{"bike_id":"dfb8b2c4-afb3-44e0-bb8f-5e69b88821cf","system_id":"levelo_inurba_marseille","lat":43.31993,"lon":5.38158,"is_reserved":false,"is_disabled":false,"rental_uris":{"android":"levelo://app?vid=dfb8b2c4-afb3-44e0-bb8f-5e69b88821cf","ios":"levelo://app?vid=dfb8b2c4-afb3-44e0-bb8f-5e69b88821cf"},"vehicle_type_id":"4","last_reported":1702570074,"current_range_meters":16800,"station_id":"ce4bhr12rcd13ifvqhpg","pricing_plan_id":"free"},{"bike_id":"a944b020-a0fe-4f36-841b-89f95a90f8f2","system_id":"levelo_inurba_marseille","lat":43.299222,"lon":5.365554,"is_reserved":false,"is_disabled":false,"rental_uris":{"android":"levelo://app?vid=a944b020-a0fe-4f36-841b-89f95a90f8f2","ios":"levelo://app?vid=a944b020-a0fe-4f36-841b-89f95a90f8f2"},"vehicle_type_id":"4","last_reported":1702570074,"current_range_meters":29600,"station_id":"ce4bgm92rcd13ifvqbr0","pricing_plan_id":"free"},{"bike_id":"e1d3009e-dfc4-4bd7-96a8-4134d367309e","system_id":"levelo_inurba_marseille","lat":43.299724,"lon":5.371829,"is_reserved":false,"is_disabled":false,"rental_uris":{"android":"levelo://app?vid=e1d3009e-dfc4-4bd7-96a8-4134d367309e","ios":"levelo://app?vid=e1d3009e-dfc4-4bd7-96a8-4134d367309e"},"vehicle_type_id":"4","last_reported":1702570074,"current_range_meters":28000,"station_id":"ce4bgr92rcd13ifvqc7g","pricing_plan_id":"free"},{"bike_id":"a8413290-58c1-47bb-8a58-6b42613bafa5","system_id":"levelo_inurba_marseille","lat":43.298433,"lon":5.362774,"is_reserved":false,"is_disabled":false,"rental_uris":{"android":"levelo://app?vid=a8413290-58c1-47bb-8a58-6b42613bafa5","ios":"levelo://app?vid=a8413290-58c1-47bb-8a58-6b42613bafa5"},"vehicle_type_id":"4","last_reported":1702570074,"current_range_meters":27600,"station_id":"ce4bgpp2rcd13ifvqc3g","pricing_plan_id":"free"},{"bike_id":"9f54a900-fe5f-4441-ab6a-910d81240a88","system_id":"levelo_inurba_marseille","lat":43.311722,"lon":5.387247,"is_reserved":false,"is_disabled":false,"rental_uris":{"android":"levelo://app?vid=9f54a900-fe5f-4441-ab6a-910d81240a88","ios":"levelo://app?vid=9f54a900-fe5f-4441-ab6a-910d81240a88"},"vehicle_type_id":"4","last_reported":1702570074,"current_range_meters":16000,"station_id":"ce4bgv12rcd13ifvqcp0","pricing_plan_id":"free"},{"bike_id":"33b7291e-1f51-4140-a289-e40da1a1aeea","system_id":"levelo_inurba_marseille","lat":43.311722,"lon":5.387247,"is_reserved":false,"is_disabled":false,"rental_uris":{"android":"levelo://app?vid=33b7291e-1f51-4140-a289-e40da1a1aeea","ios":"levelo://app?vid=33b7291e-1f51-4140-a289-e40da1a1aeea"},"vehicle_type_id":"4","last_reported":1702570074,"current_range_meters":25200,"station_id":"ce4bgv12rcd13ifvqcp0","pricing_plan_id":"free"},{"bike_id":"11269215-311d-451d-9da9-e9f18e334892","system_id":"levelo_inurba_marseille","lat":43.29777,"lon":5.37103,"is_reserved":false,"is_disabled":false,"rental_uris":{"android":"levelo://app?vid=11269215-311d-451d-9da9-e9f18e334892","ios":"levelo://app?vid=11269215-311d-451d-9da9-e9f18e334892"},"vehicle_type_id":"4","last_reported":1702570074,"current_range_meters":11600,"station_id":"ce4bgop2rcd13ifvqc1g","pricing_plan_id":"free"},{"bike_id":"3c6901ef-f9d2-4f6e-af4f-4acd52e4492a","system_id":"levelo_inurba_marseille","lat":43.32831,"lon":5.36695,"is_reserved":false,"is_disabled":false,"rental_uris":{"android":"levelo://app?vid=3c6901ef-f9d2-4f6e-af4f-4acd52e4492a","ios":"levelo://app?vid=3c6901ef-f9d2-4f6e-af4f-4acd52e4492a"},"vehicle_type_id":"4","last_reported":1702570074,"current_range_meters":22000,"station_id":"ce4bhs92rcd13ifvqi0g","pricing_plan_id":"free"},{"bike_id":"98b5fa64-e3ed-4ec7-af7c-c042242233af","system_id":"levelo_inurba_marseille","lat":43.29587,"lon":5.36766,"is_reserved":false,"is_disabled":false,"rental_uris":{"android":"levelo://app?vid=98b5fa64-e3ed-4ec7-af7c-c042242233af","ios":"levelo://app?vid=98b5fa64-e3ed-4ec7-af7c-c042242233af"},"vehicle_type_id":"4","last_reported":1702570074,"current_range_meters":14000,"station_id":"ce4bgph2rcd13ifvqc2g","pricing_plan_id":"free"},{"bike_id":"fe65ab3d-be0c-45aa-b70d-f0be9d4043eb","system_id":"levelo_inurba_marseille","lat":43.296131,"lon":5.370773,"is_reserved":false,"is_disabled":false,"rental_uris":{"android":"levelo://app?vid=fe65ab3d-be0c-45aa-b70d-f0be9d4043eb","ios":"levelo://app?vid=fe65ab3d-be0c-45aa-b70d-f0be9d4043eb"},"vehicle_type_id":"4","last_reported":1702570074,"current_range_meters":27600,"station_id":"ce4bgnh2rcd13ifvqc0g","pricing_plan_id":"free"},{"bike_id":"866f0efe-c5fb-4579-96de-f27533bcc43b","system_id":"levelo_inurba_marseille","lat":43.299028,"lon":5.381509,"is_reserved":false,"is_disabled":false,"rental_uris":{"android":"levelo://app?vid=866f0efe-c5fb-4579-96de-f27533bcc43b","ios":"levelo://app?vid=866f0efe-c5fb-4579-96de-f27533bcc43b"},"vehicle_type_id":"4","last_reported":1702570074,"current_range_meters":5600,"station_id":"ce4bgj12rcd13ifvqbc0","pricing_plan_id":"free"},{"bike_id":"952322fe-bbb5-4901-b66f-7dcb4ecb276e","system_id":"levelo_inurba_marseille","lat":43.31756,"lon":5.390105,"is_reserved":false,"is_disabled":false,"rental_uris":{"android":"levelo://app?vid=952322fe-bbb5-4901-b66f-7dcb4ecb276e","ios":"levelo://app?vid=952322fe-bbb5-4901-b66f-7dcb4ecb276e"},"vehicle_type_id":"4","last_reported":1702570074,"current_range_meters":25200,"station_id":"ce4bhqp2rcd13ifvqhng","pricing_plan_id":"free"},{"bike_id":"4107d609-9416-453a-9725-5bd16c75a974","system_id":"levelo_inurba_marseille","lat":43.317557,"lon":5.390173,"is_reserved":false,"is_disabled":false,"rental_uris":{"android":"levelo://app?vid=4107d609-9416-453a-9725-5bd16c75a974","ios":"levelo://app?vid=4107d609-9416-453a-9725-5bd16c75a974"},"vehicle_type_id":"4","last_reported":1702570074,"current_range_meters":11600,"station_id":"ce4bhqp2rcd13ifvqhng","pricing_plan_id":"free"},{"bike_id":"ad05f85b-9452-4310-a959-1f7d90b4c464","system_id":"levelo_inurba_marseille","lat":43.299707,"lon":5.384859,"is_reserved":false,"is_disabled":false,"rental_uris":{"android":"levelo://app?vid=ad05f85b-9452-4310-a959-1f7d90b4c464","ios":"levelo://app?vid=ad05f85b-9452-4310-a959-1f7d90b4c464"},"vehicle_type_id":"4","last_reported":1702570074,"current_range_meters":7200,"station_id":"ce4bgj92rcd13ifvqbd0","pricing_plan_id":"free"},{"bike_id":"8857b58d-5124-4ccd-95b0-355909569ff5","system_id":"levelo_inurba_marseille","lat":43.299707,"lon":5.384859,"is_reserved":false,"is_disabled":false,"rental_uris":{"android":"levelo://app?vid=8857b58d-5124-4ccd-95b0-355909569ff5","ios":"levelo://app?vid=8857b58d-5124-4ccd-95b0-355909569ff5"},"vehicle_type_id":"4","last_reported":1702570074,"current_range_meters":23600,"station_id":"ce4bgj92rcd13ifvqbd0","pricing_plan_id":"free"},{"bike_id":"eb9fbc98-4dbb-4adf-aa89-557d68f6b82a","system_id":"levelo_inurba_marseille","lat":43.299717,"lon":5.384845,"is_reserved":false,"is_disabled":false,"rental_uris":{"android":"levelo://app?vid=eb9fbc98-4dbb-4adf-aa89-557d68f6b82a","ios":"levelo://app?vid=eb9fbc98-4dbb-4adf-aa89-557d68f6b82a"},"vehicle_type_id":"4","last_reported":1702570074,"current_range_meters":6400,"station_id":"ce4bgj92rcd13ifvqbd0","pricing_plan_id":"free"},{"bike_id":"2c9624a8-e270-4e8a-80ca-71c1de6aaa1c","system_id":"levelo_inurba_marseille","lat":43.32367,"lon":5.38886,"is_reserved":false,"is_disabled":false,"rental_uris":{"android":"levelo://app?vid=2c9624a8-e270-4e8a-80ca-71c1de6aaa1c","ios":"levelo://app?vid=2c9624a8-e270-4e8a-80ca-71c1de6aaa1c"},"vehicle_type_id":"4","last_reported":1702570074,"current_range_meters":26400,"station_id":"ce4bhqp2rcd13ifvqhog","pricing_plan_id":"free"},{"bike_id":"909f36d2-86a5-47dd-a542-ec89ceed0ed3","system_id":"levelo_inurba_marseille","lat":43.32364,"lon":5.38891,"is_reserved":false,"is_disabled":false,"rental_uris":{"android":"levelo://app?vid=909f36d2-86a5-47dd-a542-ec89ceed0ed3","ios":"levelo://app?vid=909f36d2-86a5-47dd-a542-ec89ceed0ed3"},"vehicle_type_id":"4","last_reported":1702570074,"current_range_meters":21600,"station_id":"ce4bhqp2rcd13ifvqhog","pricing_plan_id":"free"},{"bike_id":"4aeb2c73-fbbf-4892-9a6c-fa756193d43a","system_id":"levelo_inurba_marseille","lat":43.303002,"lon":5.392142,"is_reserved":false,"is_disabled":false,"rental_uris":{"android":"levelo://app?vid=4aeb2c73-fbbf-4892-9a6c-fa756193d43a","ios":"levelo://app?vid=4aeb2c73-fbbf-4892-9a6c-fa756193d43a"},"vehicle_type_id":"4","last_reported":1702570074,"current_range_meters":4800,"station_id":"ce4bgkh2rcd13ifvqbk0","pricing_plan_id":"free"},{"bike_id":"7c670ed4-993a-4959-9248-1cdc6ba325e0","system_id":"levelo_inurba_marseille","lat":43.282754,"lon":5.350519,"is_reserved":false,"is_disabled":false,"rental_uris":{"android":"levelo://app?vid=7c670ed4-993a-4959-9248-1cdc6ba325e0","ios":"levelo://app?vid=7c670ed4-993a-4959-9248-1cdc6ba325e0"},"vehicle_type_id":"4","last_reported":1702570074,"current_range_meters":20800,"station_id":"ce4bhbp2rcd13ifvqerg","pricing_plan_id":"free"},{"bike_id":"fc7f2265-c119-42c3-b6bf-8cd6d817062f","system_id":"levelo_inurba_marseille","lat":43.2988,"lon":5.389,"is_reserved":false,"is_disabled":false,"rental_uris":{"android":"levelo://app?vid=fc7f2265-c119-42c3-b6bf-8cd6d817062f","ios":"levelo://app?vid=fc7f2265-c119-42c3-b6bf-8cd6d817062f"},"vehicle_type_id":"4","last_reported":1702570074,"current_range_meters":26800,"station_id":"","pricing_plan_id":"free"},{"bike_id":"f49022ab-d6f4-4465-bbac-1057addbfb7c","system_id":"levelo_inurba_marseille","lat":43.2988,"lon":5.38915,"is_reserved":false,"is_disabled":false,"rental_uris":{"android":"levelo://app?vid=f49022ab-d6f4-4465-bbac-1057addbfb7c","ios":"levelo://app?vid=f49022ab-d6f4-4465-bbac-1057addbfb7c"},"vehicle_type_id":"4","last_reported":1702570074,"current_range_meters":0,"station_id":"","pricing_plan_id":"free"},{"bike_id":"251dcd38-1158-4ef8-94fa-21bd2069f762","system_id":"levelo_inurba_marseille","lat":43.313291,"lon":5.396838,"is_reserved":false,"is_disabled":false,"rental_uris":{"android":"levelo://app?vid=251dcd38-1158-4ef8-94fa-21bd2069f762","ios":"levelo://app?vid=251dcd38-1158-4ef8-94fa-21bd2069f762"},"vehicle_type_id":"4","last_reported":1702570074,"current_range_meters":7200,"station_id":"ce4bgvp2rcd13ifvqcu0","pricing_plan_id":"free"},{"bike_id":"0587ad18-c9e7-4842-a249-6b86986634bb","system_id":"levelo_inurba_marseille","lat":43.313291,"lon":5.396838,"is_reserved":false,"is_disabled":false,"rental_uris":{"android":"levelo://app?vid=0587ad18-c9e7-4842-a249-6b86986634bb","ios":"levelo://app?vid=0587ad18-c9e7-4842-a249-6b86986634bb"},"vehicle_type_id":"4","last_reported":1702570074,"current_range_meters":0,"station_id":"ce4bgvp2rcd13ifvqcu0","pricing_plan_id":"free"},{"bike_id":"3f3cddc7-c116-4b65-93a4-786bbc478458","system_id":"levelo_inurba_marseille","lat":43.308882,"lon":5.396629,"is_reserved":false,"is_disabled":false,"rental_uris":{"android":"levelo://app?vid=3f3cddc7-c116-4b65-93a4-786bbc478458","ios":"levelo://app?vid=3f3cddc7-c116-4b65-93a4-786bbc478458"},"vehicle_type_id":"4","last_reported":1702570074,"current_range_meters":11600,"station_id":"","pricing_plan_id":"free"},{"bike_id":"2a75aeca-fac3-427d-b305-5307e7339a0b","system_id":"levelo_inurba_marseille","lat":43.309038,"lon":5.396546,"is_reserved":false,"is_disabled":false,"rental_uris":{"android":"levelo://app?vid=2a75aeca-fac3-427d-b305-5307e7339a0b","ios":"levelo://app?vid=2a75aeca-fac3-427d-b305-5307e7339a0b"},"vehicle_type_id":"4","last_reported":1702570074,"current_range_meters":8400,"station_id":"ce4bh012rcd13ifvqcv0","pricing_plan_id":"free"},{"bike_id":"67206b53-253a-489b-b923-a7ca9f8d49c1","system_id":"levelo_inurba_marseille","lat":43.290779,"lon":5.371482,"is_reserved":false,"is_disabled":false,"rental_uris":{"android":"levelo://app?vid=67206b53-253a-489b-b923-a7ca9f8d49c1","ios":"levelo://app?vid=67206b53-253a-489b-b923-a7ca9f8d49c1"},"vehicle_type_id":"4","last_reported":1702570074,"current_range_meters":20400,"station_id":"ce4bh5p2rcd13ifvqe4g","pricing_plan_id":"free"},{"bike_id":"2c07e79e-1e7a-47ea-a26d-d1f38f16e3a2","system_id":"levelo_inurba_marseille","lat":43.290327,"lon":5.375711,"is_reserved":false,"is_disabled":false,"rental_uris":{"android":"levelo://app?vid=2c07e79e-1e7a-47ea-a26d-d1f38f16e3a2","ios":"levelo://app?vid=2c07e79e-1e7a-47ea-a26d-d1f38f16e3a2"},"vehicle_type_id":"4","last_reported":1702570074,"current_range_meters":4400,"station_id":"ce4bh692rcd13ifvqe90","pricing_plan_id":"free"},{"bike_id":"d43cb2db-0f25-4cf9-a1bd-c03d63a3d99e","system_id":"levelo_inurba_marseille","lat":43.28953,"lon":5.36407,"is_reserved":false,"is_disabled":false,"rental_uris":{"android":"levelo://app?vid=d43cb2db-0f25-4cf9-a1bd-c03d63a3d99e","ios":"levelo://app?vid=d43cb2db-0f25-4cf9-a1bd-c03d63a3d99e"},"vehicle_type_id":"4","last_reported":1702570074,"current_range_meters":28400,"station_id":"ce4bhc92rcd13ifvqetg","pricing_plan_id":"free"},{"bike_id":"1a3b136d-9405-441f-88ed-bedd65792718","system_id":"levelo_inurba_marseille","lat":43.28946,"lon":5.36393,"is_reserved":false,"is_disabled":false,"rental_uris":{"android":"levelo://app?vid=1a3b136d-9405-441f-88ed-bedd65792718","ios":"levelo://app?vid=1a3b136d-9405-441f-88ed-bedd65792718"},"vehicle_type_id":"4","last_reported":1702570074,"current_range_meters":9600,"station_id":"ce4bhc92rcd13ifvqetg","pricing_plan_id":"free"},{"bike_id":"888a445d-f345-4b2f-b3e3-b18f642c5b67","system_id":"levelo_inurba_marseille","lat":43.289184,"lon":5.366408,"is_reserved":false,"is_disabled":false,"rental_uris":{"android":"levelo://app?vid=888a445d-f345-4b2f-b3e3-b18f642c5b67","ios":"levelo://app?vid=888a445d-f345-4b2f-b3e3-b18f642c5b67"},"vehicle_type_id":"4","last_reported":1702570074,"current_range_meters":21600,"station_id":"ce4bhap2rcd13ifvqek0","pricing_plan_id":"free"},{"bike_id":"e36fc3c3-3f2f-4976-afc1-efdf79dee1e9","system_id":"levelo_inurba_marseille","lat":43.330442,"lon":5.389148,"is_reserved":false,"is_disabled":false,"rental_uris":{"android":"levelo://app?vid=e36fc3c3-3f2f-4976-afc1-efdf79dee1e9","ios":"levelo://app?vid=e36fc3c3-3f2f-4976-afc1-efdf79dee1e9"},"vehicle_type_id":"4","last_reported":1702570074,"current_range_meters":10000,"station_id":"ce4bhr92rcd13ifvqhrg","pricing_plan_id":"free"},{"bike_id":"b9eef2d6-cca0-478c-9d85-75dba1d51d33","system_id":"levelo_inurba_marseille","lat":43.295169,"lon":5.390426,"is_reserved":false,"is_disabled":false,"rental_uris":{"android":"levelo://app?vid=b9eef2d6-cca0-478c-9d85-75dba1d51d33","ios":"levelo://app?vid=b9eef2d6-cca0-478c-9d85-75dba1d51d33"},"vehicle_type_id":"4","last_reported":1702570074,"current_range_meters":17200,"station_id":"ce4bh3p2rcd13ifvqdp0","pricing_plan_id":"free"},{"bike_id":"d29688b5-efbc-4953-927b-4872fe8dd8b5","system_id":"levelo_inurba_marseille","lat":43.30642,"lon":5.401031,"is_reserved":false,"is_disabled":false,"rental_uris":{"android":"levelo://app?vid=d29688b5-efbc-4953-927b-4872fe8dd8b5","ios":"levelo://app?vid=d29688b5-efbc-4953-927b-4872fe8dd8b5"},"vehicle_type_id":"4","last_reported":1702570074,"current_range_meters":31200,"station_id":"ce4bh112rcd13ifvqda0","pricing_plan_id":"free"},{"bike_id":"a8380a10-7fd3-48e9-974d-e8687e1a130c","system_id":"levelo_inurba_marseille","lat":43.33754,"lon":5.37459,"is_reserved":false,"is_disabled":false,"rental_uris":{"android":"levelo://app?vid=a8380a10-7fd3-48e9-974d-e8687e1a130c","ios":"levelo://app?vid=a8380a10-7fd3-48e9-974d-e8687e1a130c"},"vehicle_type_id":"4","last_reported":1702570074,"current_range_meters":30000,"station_id":"","pricing_plan_id":"free"},{"bike_id":"f7bb9a07-99ae-434f-8fad-206b19889b11","system_id":"levelo_inurba_marseille","lat":43.30953,"lon":5.40159,"is_reserved":false,"is_disabled":false,"rental_uris":{"android":"levelo://app?vid=f7bb9a07-99ae-434f-8fad-206b19889b11","ios":"levelo://app?vid=f7bb9a07-99ae-434f-8fad-206b19889b11"},"vehicle_type_id":"4","last_reported":1702570074,"current_range_meters":31200,"station_id":"ce4bgvp2rcd13ifvqct0","pricing_plan_id":"free"},{"bike_id":"dc9eb071-0188-4185-b22e-5b5758e98eab","system_id":"levelo_inurba_marseille","lat":43.306412,"lon":5.401035,"is_reserved":false,"is_disabled":false,"rental_uris":{"android":"levelo://app?vid=dc9eb071-0188-4185-b22e-5b5758e98eab","ios":"levelo://app?vid=dc9eb071-0188-4185-b22e-5b5758e98eab"},"vehicle_type_id":"4","last_reported":1702570074,"current_range_meters":31200,"station_id":"ce4bh112rcd13ifvqda0","pricing_plan_id":"free"},{"bike_id":"dad969be-fa6e-43ef-8417-289d2d83a1af","system_id":"levelo_inurba_marseille","lat":43.301117,"lon":5.398795,"is_reserved":false,"is_disabled":false,"rental_uris":{"android":"levelo://app?vid=dad969be-fa6e-43ef-8417-289d2d83a1af","ios":"levelo://app?vid=dad969be-fa6e-43ef-8417-289d2d83a1af"},"vehicle_type_id":"4","last_reported":1702570074,"current_range_meters":26800,"station_id":"ce4bh0h2rcd13ifvqd40","pricing_plan_id":"free"},{"bike_id":"7e2e508f-5a15-4989-8331-9b01acbc9d49","system_id":"levelo_inurba_marseille","lat":43.28727,"lon":5.36078,"is_reserved":false,"is_disabled":false,"rental_uris":{"android":"levelo://app?vid=7e2e508f-5a15-4989-8331-9b01acbc9d49","ios":"levelo://app?vid=7e2e508f-5a15-4989-8331-9b01acbc9d49"},"vehicle_type_id":"4","last_reported":1702570074,"current_range_meters":18400,"station_id":"cki0cbj6b192h4jlfktg","pricing_plan_id":"free"},{"bike_id":"5f9dc6db-fc6b-49a2-9371-941c8b7eac57","system_id":"levelo_inurba_marseille","lat":43.28727,"lon":5.36078,"is_reserved":false,"is_disabled":false,"rental_uris":{"android":"levelo://app?vid=5f9dc6db-fc6b-49a2-9371-941c8b7eac57","ios":"levelo://app?vid=5f9dc6db-fc6b-49a2-9371-941c8b7eac57"},"vehicle_type_id":"4","last_reported":1702570074,"current_range_meters":22400,"station_id":"cki0cbj6b192h4jlfktg","pricing_plan_id":"free"},{"bike_id":"a735def5-cc47-4f5e-abe3-11a12d527d2e","system_id":"levelo_inurba_marseille","lat":43.295196,"lon":5.39397,"is_reserved":false,"is_disabled":false,"rental_uris":{"android":"levelo://app?vid=a735def5-cc47-4f5e-abe3-11a12d527d2e","ios":"levelo://app?vid=a735def5-cc47-4f5e-abe3-11a12d527d2e"},"vehicle_type_id":"4","last_reported":1702570074,"current_range_meters":21600,"station_id":"ce4bh292rcd13ifvqdf0","pricing_plan_id":"free"},{"bike_id":"1c9e7181-da3a-42cc-9e23-3804ff02e63c","system_id":"levelo_inurba_marseille","lat":43.295194,"lon":5.39397,"is_reserved":false,"is_disabled":false,"rental_uris":{"android":"levelo://app?vid=1c9e7181-da3a-42cc-9e23-3804ff02e63c","ios":"levelo://app?vid=1c9e7181-da3a-42cc-9e23-3804ff02e63c"},"vehicle_type_id":"4","last_reported":1702570074,"current_range_meters":13600,"station_id":"ce4bh292rcd13ifvqdf0","pricing_plan_id":"free"},{"bike_id":"ff3f177e-915b-40fb-a087-e47216da77c6","system_id":"levelo_inurba_marseille","lat":43.295194,"lon":5.39397,"is_reserved":false,"is_disabled":false,"rental_uris":{"android":"levelo://app?vid=ff3f177e-915b-40fb-a087-e47216da77c6","ios":"levelo://app?vid=ff3f177e-915b-40fb-a087-e47216da77c6"},"vehicle_type_id":"4","last_reported":1702570074,"current_range_meters":3200,"station_id":"ce4bh292rcd13ifvqdf0","pricing_plan_id":"free"},{"bike_id":"5fb39811-dde1-4aca-95fe-4f3adbccc4b3","system_id":"levelo_inurba_marseille","lat":43.295194,"lon":5.39397,"is_reserved":false,"is_disabled":false,"rental_uris":{"android":"levelo://app?vid=5fb39811-dde1-4aca-95fe-4f3adbccc4b3","ios":"levelo://app?vid=5fb39811-dde1-4aca-95fe-4f3adbccc4b3"},"vehicle_type_id":"4","last_reported":1702570074,"current_range_meters":0,"station_id":"ce4bh292rcd13ifvqdf0","pricing_plan_id":"free"},{"bike_id":"b5ed3c23-ca1b-412f-ac18-38a4de5252ea","system_id":"levelo_inurba_marseille","lat":43.295194,"lon":5.39397,"is_reserved":false,"is_disabled":false,"rental_uris":{"android":"levelo://app?vid=b5ed3c23-ca1b-412f-ac18-38a4de5252ea","ios":"levelo://app?vid=b5ed3c23-ca1b-412f-ac18-38a4de5252ea"},"vehicle_type_id":"4","last_reported":1702570074,"current_range_meters":28400,"station_id":"ce4bh292rcd13ifvqdf0","pricing_plan_id":"free"},{"bike_id":"d560e33b-32d0-4741-91ec-080b3482f59b","system_id":"levelo_inurba_marseille","lat":43.286039,"lon":5.370681,"is_reserved":false,"is_disabled":false,"rental_uris":{"android":"levelo://app?vid=d560e33b-32d0-4741-91ec-080b3482f59b","ios":"levelo://app?vid=d560e33b-32d0-4741-91ec-080b3482f59b"},"vehicle_type_id":"4","last_reported":1702570074,"current_range_meters":23600,"station_id":"ce4bht12rcd13ifvqi60","pricing_plan_id":"free"},{"bike_id":"72e71ae1-1014-4e79-b1bc-0fbb6cdba56b","system_id":"levelo_inurba_marseille","lat":43.294314,"lon":5.397498,"is_reserved":false,"is_disabled":false,"rental_uris":{"android":"levelo://app?vid=72e71ae1-1014-4e79-b1bc-0fbb6cdba56b","ios":"levelo://app?vid=72e71ae1-1014-4e79-b1bc-0fbb6cdba56b"},"vehicle_type_id":"4","last_reported":1702570074,"current_range_meters":22800,"station_id":"ce4bh3h2rcd13ifvqdo0","pricing_plan_id":"free"},{"bike_id":"f07759fd-a826-4313-9ea3-321501dcaa4f","system_id":"levelo_inurba_marseille","lat":43.294314,"lon":5.397498,"is_reserved":false,"is_disabled":false,"rental_uris":{"android":"levelo://app?vid=f07759fd-a826-4313-9ea3-321501dcaa4f","ios":"levelo://app?vid=f07759fd-a826-4313-9ea3-321501dcaa4f"},"vehicle_type_id":"4","last_reported":1702570074,"current_range_meters":16400,"station_id":"ce4bh3h2rcd13ifvqdo0","pricing_plan_id":"free"},{"bike_id":"363a0618-8079-4a0d-967d-8e39ad405a1e","system_id":"levelo_inurba_marseille","lat":43.285848,"lon":5.350787,"is_reserved":false,"is_disabled":false,"rental_uris":{"android":"levelo://app?vid=363a0618-8079-4a0d-967d-8e39ad405a1e","ios":"levelo://app?vid=363a0618-8079-4a0d-967d-8e39ad405a1e"},"vehicle_type_id":"4","last_reported":1702570074,"current_range_meters":20400,"station_id":"ce4bhch2rcd13ifvqeug","pricing_plan_id":"free"},{"bike_id":"34fd5bf8-1d09-4e71-a187-c8c93aa1600e","system_id":"levelo_inurba_marseille","lat":43.284217,"lon":5.349697,"is_reserved":false,"is_disabled":false,"rental_uris":{"android":"levelo://app?vid=34fd5bf8-1d09-4e71-a187-c8c93aa1600e","ios":"levelo://app?vid=34fd5bf8-1d09-4e71-a187-c8c93aa1600e"},"vehicle_type_id":"4","last_reported":1702570074,"current_range_meters":27600,"station_id":"ce4bhbh2rcd13ifvqepg","pricing_plan_id":"free"},{"bike_id":"3d87fabc-957d-4580-afe1-ee71ef5b4a79","system_id":"levelo_inurba_marseille","lat":43.284217,"lon":5.349697,"is_reserved":false,"is_disabled":false,"rental_uris":{"android":"levelo://app?vid=3d87fabc-957d-4580-afe1-ee71ef5b4a79","ios":"levelo://app?vid=3d87fabc-957d-4580-afe1-ee71ef5b4a79"},"vehicle_type_id":"4","last_reported":1702570074,"current_range_meters":17200,"station_id":"ce4bhbh2rcd13ifvqepg","pricing_plan_id":"free"},{"bike_id":"37663a6c-23c5-42c7-9ddf-83b9dcd0f7a3","system_id":"levelo_inurba_marseille","lat":43.284219,"lon":5.3497,"is_reserved":false,"is_disabled":false,"rental_uris":{"android":"levelo://app?vid=37663a6c-23c5-42c7-9ddf-83b9dcd0f7a3","ios":"levelo://app?vid=37663a6c-23c5-42c7-9ddf-83b9dcd0f7a3"},"vehicle_type_id":"4","last_reported":1702570074,"current_range_meters":21600,"station_id":"ce4bhbh2rcd13ifvqepg","pricing_plan_id":"free"},{"bike_id":"c377bfcc-ba12-4ae8-b5a1-5001acfecd69","system_id":"levelo_inurba_marseille","lat":43.284219,"lon":5.3497,"is_reserved":false,"is_disabled":false,"rental_uris":{"android":"levelo://app?vid=c377bfcc-ba12-4ae8-b5a1-5001acfecd69","ios":"levelo://app?vid=c377bfcc-ba12-4ae8-b5a1-5001acfecd69"},"vehicle_type_id":"4","last_reported":1702570074,"current_range_meters":5200,"station_id":"ce4bhbh2rcd13ifvqepg","pricing_plan_id":"free"},{"bike_id":"f6973c9e-acec-4012-ba16-ba5213745d43","system_id":"levelo_inurba_marseille","lat":43.284217,"lon":5.349697,"is_reserved":false,"is_disabled":false,"rental_uris":{"android":"levelo://app?vid=f6973c9e-acec-4012-ba16-ba5213745d43","ios":"levelo://app?vid=f6973c9e-acec-4012-ba16-ba5213745d43"},"vehicle_type_id":"4","last_reported":1702570074,"current_range_meters":15600,"station_id":"ce4bhbh2rcd13ifvqepg","pricing_plan_id":"free"},{"bike_id":"9f8e5883-dfaf-40b3-9131-35fe48f76fcb","system_id":"levelo_inurba_marseille","lat":43.283498,"lon":5.380948,"is_reserved":false,"is_disabled":false,"rental_uris":{"android":"levelo://app?vid=9f8e5883-dfaf-40b3-9131-35fe48f76fcb","ios":"levelo://app?vid=9f8e5883-dfaf-40b3-9131-35fe48f76fcb"},"vehicle_type_id":"4","last_reported":1702570074,"current_range_meters":19600,"station_id":"ce4bh412rcd13ifvqdr0","pricing_plan_id":"free"},{"bike_id":"6c602043-94db-4e57-8d61-f866905afd19","system_id":"levelo_inurba_marseille","lat":43.282757,"lon":5.350743,"is_reserved":false,"is_disabled":false,"rental_uris":{"android":"levelo://app?vid=6c602043-94db-4e57-8d61-f866905afd19","ios":"levelo://app?vid=6c602043-94db-4e57-8d61-f866905afd19"},"vehicle_type_id":"4","last_reported":1702570074,"current_range_meters":12400,"station_id":"ce4bhbp2rcd13ifvqerg","pricing_plan_id":"free"},{"bike_id":"5cf006a6-db46-44e2-8166-0532d5e8d047","system_id":"levelo_inurba_marseille","lat":43.282744,"lon":5.350533,"is_reserved":false,"is_disabled":false,"rental_uris":{"android":"levelo://app?vid=5cf006a6-db46-44e2-8166-0532d5e8d047","ios":"levelo://app?vid=5cf006a6-db46-44e2-8166-0532d5e8d047"},"vehicle_type_id":"4","last_reported":1702570074,"current_range_meters":20000,"station_id":"ce4bhbp2rcd13ifvqerg","pricing_plan_id":"free"},{"bike_id":"59866e0e-7ba2-4f1f-9f37-87bbeb41c95b","system_id":"levelo_inurba_marseille","lat":43.283502,"lon":5.386471,"is_reserved":false,"is_disabled":false,"rental_uris":{"android":"levelo://app?vid=59866e0e-7ba2-4f1f-9f37-87bbeb41c95b","ios":"levelo://app?vid=59866e0e-7ba2-4f1f-9f37-87bbeb41c95b"},"vehicle_type_id":"4","last_reported":1702570074,"current_range_meters":13200,"station_id":"ce4bh492rcd13ifvqdvg","pricing_plan_id":"free"},{"bike_id":"d52ba69b-7325-49c2-b343-dd0cc2e58052","system_id":"levelo_inurba_marseille","lat":43.28039,"lon":5.369297,"is_reserved":false,"is_disabled":false,"rental_uris":{"android":"levelo://app?vid=d52ba69b-7325-49c2-b343-dd0cc2e58052","ios":"levelo://app?vid=d52ba69b-7325-49c2-b343-dd0cc2e58052"},"vehicle_type_id":"4","last_reported":1702570074,"current_range_meters":0,"station_id":"ce4bha12rcd13ifvqef0","pricing_plan_id":"free"},{"bike_id":"ded37df7-defe-4c1c-ae79-d7c8f76708a6","system_id":"levelo_inurba_marseille","lat":43.296263,"lon":5.40601,"is_reserved":false,"is_disabled":false,"rental_uris":{"android":"levelo://app?vid=ded37df7-defe-4c1c-ae79-d7c8f76708a6","ios":"levelo://app?vid=ded37df7-defe-4c1c-ae79-d7c8f76708a6"},"vehicle_type_id":"4","last_reported":1702570074,"current_range_meters":10400,"station_id":"ce4bh0h2rcd13ifvqd60","pricing_plan_id":"free"},{"bike_id":"b4a59177-62e6-4659-a8f0-538b5054065a","system_id":"levelo_inurba_marseille","lat":43.281044,"lon":5.378308,"is_reserved":false,"is_disabled":false,"rental_uris":{"android":"levelo://app?vid=b4a59177-62e6-4659-a8f0-538b5054065a","ios":"levelo://app?vid=b4a59177-62e6-4659-a8f0-538b5054065a"},"vehicle_type_id":"4","last_reported":1702570074,"current_range_meters":9200,"station_id":"ce4bha12rcd13ifvqee0","pricing_plan_id":"free"},{"bike_id":"872fda08-e1b0-485e-9d97-11120d49b540","system_id":"levelo_inurba_marseille","lat":43.296263,"lon":5.40601,"is_reserved":false,"is_disabled":false,"rental_uris":{"android":"levelo://app?vid=872fda08-e1b0-485e-9d97-11120d49b540","ios":"levelo://app?vid=872fda08-e1b0-485e-9d97-11120d49b540"},"vehicle_type_id":"4","last_reported":1702570074,"current_range_meters":12400,"station_id":"ce4bh0h2rcd13ifvqd60","pricing_plan_id":"free"},{"bike_id":"a6750e93-4d83-46ef-8dc0-4c546875d106","system_id":"levelo_inurba_marseille","lat":43.304188,"lon":5.412904,"is_reserved":false,"is_disabled":false,"rental_uris":{"android":"levelo://app?vid=a6750e93-4d83-46ef-8dc0-4c546875d106","ios":"levelo://app?vid=a6750e93-4d83-46ef-8dc0-4c546875d106"},"vehicle_type_id":"4","last_reported":1702570074,"current_range_meters":26400,"station_id":"ce4bhop2rcd13ifvqh8g","pricing_plan_id":"free"},{"bike_id":"f6a36720-0064-4021-bf8f-66f00ab5612e","system_id":"levelo_inurba_marseille","lat":43.304188,"lon":5.412904,"is_reserved":false,"is_disabled":false,"rental_uris":{"android":"levelo://app?vid=f6a36720-0064-4021-bf8f-66f00ab5612e","ios":"levelo://app?vid=f6a36720-0064-4021-bf8f-66f00ab5612e"},"vehicle_type_id":"4","last_reported":1702570074,"current_range_meters":23600,"station_id":"ce4bhop2rcd13ifvqh8g","pricing_plan_id":"free"},{"bike_id":"9fa4d615-c891-4265-9aef-4915c821e2a5","system_id":"levelo_inurba_marseille","lat":43.279742,"lon":5.38744,"is_reserved":false,"is_disabled":false,"rental_uris":{"android":"levelo://app?vid=9fa4d615-c891-4265-9aef-4915c821e2a5","ios":"levelo://app?vid=9fa4d615-c891-4265-9aef-4915c821e2a5"},"vehicle_type_id":"4","last_reported":1702570074,"current_range_meters":23200,"station_id":"ce4bhg12rcd13ifvqf80","pricing_plan_id":"free"},{"bike_id":"09798be4-596b-4906-8f3c-c0d8712bf24b","system_id":"levelo_inurba_marseille","lat":43.320045,"lon":5.415048,"is_reserved":false,"is_disabled":false,"rental_uris":{"android":"levelo://app?vid=09798be4-596b-4906-8f3c-c0d8712bf24b","ios":"levelo://app?vid=09798be4-596b-4906-8f3c-c0d8712bf24b"},"vehicle_type_id":"4","last_reported":1702570074,"current_range_meters":14000,"station_id":"ce4bhq92rcd13ifvqhkg","pricing_plan_id":"free"},{"bike_id":"eae925a9-2647-4718-8828-1c2086a478a3","system_id":"levelo_inurba_marseille","lat":43.292571,"lon":5.409107,"is_reserved":false,"is_disabled":false,"rental_uris":{"android":"levelo://app?vid=eae925a9-2647-4718-8828-1c2086a478a3","ios":"levelo://app?vid=eae925a9-2647-4718-8828-1c2086a478a3"},"vehicle_type_id":"4","last_reported":1702570074,"current_range_meters":10800,"station_id":"ce4bh192rcd13ifvqdc0","pricing_plan_id":"free"},{"bike_id":"8b0f37d6-2699-475e-97be-eca5965d3ea6","system_id":"levelo_inurba_marseille","lat":43.292571,"lon":5.409107,"is_reserved":false,"is_disabled":false,"rental_uris":{"android":"levelo://app?vid=8b0f37d6-2699-475e-97be-eca5965d3ea6","ios":"levelo://app?vid=8b0f37d6-2699-475e-97be-eca5965d3ea6"},"vehicle_type_id":"4","last_reported":1702570074,"current_range_meters":12000,"station_id":"ce4bh192rcd13ifvqdc0","pricing_plan_id":"free"},{"bike_id":"e7e922e0-baa8-4817-8d77-10b05666be45","system_id":"levelo_inurba_marseille","lat":43.292571,"lon":5.409107,"is_reserved":false,"is_disabled":false,"rental_uris":{"android":"levelo://app?vid=e7e922e0-baa8-4817-8d77-10b05666be45","ios":"levelo://app?vid=e7e922e0-baa8-4817-8d77-10b05666be45"},"vehicle_type_id":"4","last_reported":1702570074,"current_range_meters":27200,"station_id":"ce4bh192rcd13ifvqdc0","pricing_plan_id":"free"},{"bike_id":"92506524-a1bb-4160-82bc-ebb6e18645e3","system_id":"levelo_inurba_marseille","lat":43.27617,"lon":5.361097,"is_reserved":false,"is_disabled":false,"rental_uris":{"android":"levelo://app?vid=92506524-a1bb-4160-82bc-ebb6e18645e3","ios":"levelo://app?vid=92506524-a1bb-4160-82bc-ebb6e18645e3"},"vehicle_type_id":"4","last_reported":1702570074,"current_range_meters":12400,"station_id":"ce4bgj92rcd13ifvqbe0","pricing_plan_id":"free"},{"bike_id":"d7f31d94-cbc6-4fb2-adc3-c6d6acccc122","system_id":"levelo_inurba_marseille","lat":43.303837,"lon":5.418724,"is_reserved":false,"is_disabled":false,"rental_uris":{"android":"levelo://app?vid=d7f31d94-cbc6-4fb2-adc3-c6d6acccc122","ios":"levelo://app?vid=d7f31d94-cbc6-4fb2-adc3-c6d6acccc122"},"vehicle_type_id":"4","last_reported":1702570074,"current_range_meters":22800,"station_id":"ce4bhop2rcd13ifvqh7g","pricing_plan_id":"free"},{"bike_id":"18bcd384-e71d-466e-90eb-bffacfa4f889","system_id":"levelo_inurba_marseille","lat":43.303837,"lon":5.418724,"is_reserved":false,"is_disabled":false,"rental_uris":{"android":"levelo://app?vid=18bcd384-e71d-466e-90eb-bffacfa4f889","ios":"levelo://app?vid=18bcd384-e71d-466e-90eb-bffacfa4f889"},"vehicle_type_id":"4","last_reported":1702570074,"current_range_meters":6400,"station_id":"ce4bhop2rcd13ifvqh7g","pricing_plan_id":"free"},{"bike_id":"84f0436b-6cd1-405c-8c5a-51bb70082a28","system_id":"levelo_inurba_marseille","lat":43.278399,"lon":5.392139,"is_reserved":false,"is_disabled":false,"rental_uris":{"android":"levelo://app?vid=84f0436b-6cd1-405c-8c5a-51bb70082a28","ios":"levelo://app?vid=84f0436b-6cd1-405c-8c5a-51bb70082a28"},"vehicle_type_id":"4","last_reported":1702570074,"current_range_meters":1600,"station_id":"ce4bhjp2rcd13ifvqga0","pricing_plan_id":"free"},{"bike_id":"38de502f-b934-4b04-8039-d33c372746e2","system_id":"levelo_inurba_marseille","lat":43.275625,"lon":5.384392,"is_reserved":false,"is_disabled":false,"rental_uris":{"android":"levelo://app?vid=38de502f-b934-4b04-8039-d33c372746e2","ios":"levelo://app?vid=38de502f-b934-4b04-8039-d33c372746e2"},"vehicle_type_id":"4","last_reported":1702570074,"current_range_meters":6400,"station_id":"ce4bhh92rcd13ifvqfi0","pricing_plan_id":"free"},{"bike_id":"c4cfb68b-0ac0-4a8c-b786-f9b41850db55","system_id":"levelo_inurba_marseille","lat":43.273613,"lon":5.362705,"is_reserved":false,"is_disabled":false,"rental_uris":{"android":"levelo://app?vid=c4cfb68b-0ac0-4a8c-b786-f9b41850db55","ios":"levelo://app?vid=c4cfb68b-0ac0-4a8c-b786-f9b41850db55"},"vehicle_type_id":"4","last_reported":1702570074,"current_range_meters":31200,"station_id":"ce4bhbh2rcd13ifvqeo0","pricing_plan_id":"free"},{"bike_id":"ccaa59a6-7d99-4a18-9e46-95087d495809","system_id":"levelo_inurba_marseille","lat":43.273613,"lon":5.362705,"is_reserved":false,"is_disabled":false,"rental_uris":{"android":"levelo://app?vid=ccaa59a6-7d99-4a18-9e46-95087d495809","ios":"levelo://app?vid=ccaa59a6-7d99-4a18-9e46-95087d495809"},"vehicle_type_id":"4","last_reported":1702570074,"current_range_meters":30800,"station_id":"ce4bhbh2rcd13ifvqeo0","pricing_plan_id":"free"},{"bike_id":"794d9cf7-0977-450f-8ecd-12f1d3f7687f","system_id":"levelo_inurba_marseille","lat":43.336134,"lon":5.410341,"is_reserved":false,"is_disabled":false,"rental_uris":{"android":"levelo://app?vid=794d9cf7-0977-450f-8ecd-12f1d3f7687f","ios":"levelo://app?vid=794d9cf7-0977-450f-8ecd-12f1d3f7687f"},"vehicle_type_id":"4","last_reported":1702570074,"current_range_meters":5200,"station_id":"ce4bhqh2rcd13ifvqhmg","pricing_plan_id":"free"},{"bike_id":"3f6c24da-d4f2-4e86-9489-3a5c346367d6","system_id":"levelo_inurba_marseille","lat":43.276771,"lon":5.388799,"is_reserved":false,"is_disabled":false,"rental_uris":{"android":"levelo://app?vid=3f6c24da-d4f2-4e86-9489-3a5c346367d6","ios":"levelo://app?vid=3f6c24da-d4f2-4e86-9489-3a5c346367d6"},"vehicle_type_id":"4","last_reported":1702570074,"current_range_meters":19200,"station_id":"ce4bhi12rcd13ifvqfo0","pricing_plan_id":"free"},{"bike_id":"b32e0e28-57a3-4178-a8ee-7f72c30a06d1","system_id":"levelo_inurba_marseille","lat":43.276771,"lon":5.388799,"is_reserved":false,"is_disabled":false,"rental_uris":{"android":"levelo://app?vid=b32e0e28-57a3-4178-a8ee-7f72c30a06d1","ios":"levelo://app?vid=b32e0e28-57a3-4178-a8ee-7f72c30a06d1"},"vehicle_type_id":"4","last_reported":1702570074,"current_range_meters":3200,"station_id":"ce4bhi12rcd13ifvqfo0","pricing_plan_id":"free"},{"bike_id":"800f2de5-0e7b-46c1-b14b-89413b29bc3a","system_id":"levelo_inurba_marseille","lat":43.279952,"lon":5.400085,"is_reserved":false,"is_disabled":false,"rental_uris":{"android":"levelo://app?vid=800f2de5-0e7b-46c1-b14b-89413b29bc3a","ios":"levelo://app?vid=800f2de5-0e7b-46c1-b14b-89413b29bc3a"},"vehicle_type_id":"4","last_reported":1702570074,"current_range_meters":16800,"station_id":"ce4bho92rcd13ifvqh4g","pricing_plan_id":"free"},{"bike_id":"83a717f9-c014-41b6-9b1e-6bfc4e4e22e5","system_id":"levelo_inurba_marseille","lat":43.279952,"lon":5.400085,"is_reserved":false,"is_disabled":false,"rental_uris":{"android":"levelo://app?vid=83a717f9-c014-41b6-9b1e-6bfc4e4e22e5","ios":"levelo://app?vid=83a717f9-c014-41b6-9b1e-6bfc4e4e22e5"},"vehicle_type_id":"4","last_reported":1702570074,"current_range_meters":15600,"station_id":"ce4bho92rcd13ifvqh4g","pricing_plan_id":"free"},{"bike_id":"3ca2c2d2-99b0-4aa6-a05d-e30f02e6a7fb","system_id":"levelo_inurba_marseille","lat":43.276092,"lon":5.395289,"is_reserved":false,"is_disabled":false,"rental_uris":{"android":"levelo://app?vid=3ca2c2d2-99b0-4aa6-a05d-e30f02e6a7fb","ios":"levelo://app?vid=3ca2c2d2-99b0-4aa6-a05d-e30f02e6a7fb"},"vehicle_type_id":"4","last_reported":1702570074,"current_range_meters":29600,"station_id":"","pricing_plan_id":"free"},{"bike_id":"0b1f3767-ffec-4683-83c0-14492170b1b4","system_id":"levelo_inurba_marseille","lat":43.295511,"lon":5.422926,"is_reserved":false,"is_disabled":false,"rental_uris":{"android":"levelo://app?vid=0b1f3767-ffec-4683-83c0-14492170b1b4","ios":"levelo://app?vid=0b1f3767-ffec-4683-83c0-14492170b1b4"},"vehicle_type_id":"4","last_reported":1702570074,"current_range_meters":30400,"station_id":"ce4bhph2rcd13ifvqhdg","pricing_plan_id":"free"},{"bike_id":"04b3d846-1da3-4e37-aa5f-d8bcc257dd52","system_id":"levelo_inurba_marseille","lat":43.272088,"lon":5.392453,"is_reserved":false,"is_disabled":false,"rental_uris":{"android":"levelo://app?vid=04b3d846-1da3-4e37-aa5f-d8bcc257dd52","ios":"levelo://app?vid=04b3d846-1da3-4e37-aa5f-d8bcc257dd52"},"vehicle_type_id":"4","last_reported":1702570074,"current_range_meters":0,"station_id":"","pricing_plan_id":"free"},{"bike_id":"5702df71-2deb-49d7-a41d-ff1a9b638677","system_id":"levelo_inurba_marseille","lat":43.278128,"lon":5.407195,"is_reserved":false,"is_disabled":false,"rental_uris":{"android":"levelo://app?vid=5702df71-2deb-49d7-a41d-ff1a9b638677","ios":"levelo://app?vid=5702df71-2deb-49d7-a41d-ff1a9b638677"},"vehicle_type_id":"4","last_reported":1702570074,"current_range_meters":21200,"station_id":"ce4bhnh2rcd13ifvqgtg","pricing_plan_id":"free"},{"bike_id":"caf76e87-acd9-4099-8c77-0311393acca8","system_id":"levelo_inurba_marseille","lat":43.26556,"lon":5.3729,"is_reserved":false,"is_disabled":false,"rental_uris":{"android":"levelo://app?vid=caf76e87-acd9-4099-8c77-0311393acca8","ios":"levelo://app?vid=caf76e87-acd9-4099-8c77-0311393acca8"},"vehicle_type_id":"4","last_reported":1702570074,"current_range_meters":20800,"station_id":"ce4bhg12rcd13ifvqf70","pricing_plan_id":"free"},{"bike_id":"f7ba1bd1-0b64-4579-812f-07ee12780698","system_id":"levelo_inurba_marseille","lat":43.265714,"lon":5.372891,"is_reserved":false,"is_disabled":false,"rental_uris":{"android":"levelo://app?vid=f7ba1bd1-0b64-4579-812f-07ee12780698","ios":"levelo://app?vid=f7ba1bd1-0b64-4579-812f-07ee12780698"},"vehicle_type_id":"4","last_reported":1702570074,"current_range_meters":31200,"station_id":"ce4bhg12rcd13ifvqf70","pricing_plan_id":"free"},{"bike_id":"95a32182-f8d2-4441-a4d1-4319bdd5db3e","system_id":"levelo_inurba_marseille","lat":43.27996,"lon":5.416624,"is_reserved":false,"is_disabled":false,"rental_uris":{"android":"levelo://app?vid=95a32182-f8d2-4441-a4d1-4319bdd5db3e","ios":"levelo://app?vid=95a32182-f8d2-4441-a4d1-4319bdd5db3e"},"vehicle_type_id":"4","last_reported":1702570074,"current_range_meters":13200,"station_id":"ce4bho12rcd13ifvqh1g","pricing_plan_id":"free"},{"bike_id":"7576db3c-e515-4c8c-9f61-b08c264ff7f9","system_id":"levelo_inurba_marseille","lat":43.27996,"lon":5.416624,"is_reserved":false,"is_disabled":false,"rental_uris":{"android":"levelo://app?vid=7576db3c-e515-4c8c-9f61-b08c264ff7f9","ios":"levelo://app?vid=7576db3c-e515-4c8c-9f61-b08c264ff7f9"},"vehicle_type_id":"4","last_reported":1702570074,"current_range_meters":2400,"station_id":"ce4bho12rcd13ifvqh1g","pricing_plan_id":"free"},{"bike_id":"82b9e567-bf87-4442-b8c8-61bb48dde2f5","system_id":"levelo_inurba_marseille","lat":43.308051,"lon":5.43527,"is_reserved":false,"is_disabled":false,"rental_uris":{"android":"levelo://app?vid=82b9e567-bf87-4442-b8c8-61bb48dde2f5","ios":"levelo://app?vid=82b9e567-bf87-4442-b8c8-61bb48dde2f5"},"vehicle_type_id":"4","last_reported":1702570074,"current_range_meters":24400,"station_id":"ce4bhph2rcd13ifvqheg","pricing_plan_id":"free"},{"bike_id":"3e22b597-6e90-4038-9600-15b3209a20ec","system_id":"levelo_inurba_marseille","lat":43.26568,"lon":5.390157,"is_reserved":false,"is_disabled":false,"rental_uris":{"android":"levelo://app?vid=3e22b597-6e90-4038-9600-15b3209a20ec","ios":"levelo://app?vid=3e22b597-6e90-4038-9600-15b3209a20ec"},"vehicle_type_id":"4","last_reported":1702570074,"current_range_meters":21600,"station_id":"ce4bhe12rcd13ifvqf30","pricing_plan_id":"free"},{"bike_id":"76f57d81-6dbb-42cd-b9c1-afc22eff5de9","system_id":"levelo_inurba_marseille","lat":43.265569,"lon":5.390047,"is_reserved":false,"is_disabled":false,"rental_uris":{"android":"levelo://app?vid=76f57d81-6dbb-42cd-b9c1-afc22eff5de9","ios":"levelo://app?vid=76f57d81-6dbb-42cd-b9c1-afc22eff5de9"},"vehicle_type_id":"4","last_reported":1702570074,"current_range_meters":20800,"station_id":"ce4bhe12rcd13ifvqf30","pricing_plan_id":"free"},{"bike_id":"dc1bedc7-247f-4389-b558-59ab72fbaa78","system_id":"levelo_inurba_marseille","lat":43.265569,"lon":5.390047,"is_reserved":false,"is_disabled":false,"rental_uris":{"android":"levelo://app?vid=dc1bedc7-247f-4389-b558-59ab72fbaa78","ios":"levelo://app?vid=dc1bedc7-247f-4389-b558-59ab72fbaa78"},"vehicle_type_id":"4","last_reported":1702570074,"current_range_meters":800,"station_id":"ce4bhe12rcd13ifvqf30","pricing_plan_id":"free"},{"bike_id":"b6938647-2397-4611-817c-2b79f86944cf","system_id":"levelo_inurba_marseille","lat":43.261928,"lon":5.37447,"is_reserved":false,"is_disabled":false,"rental_uris":{"android":"levelo://app?vid=b6938647-2397-4611-817c-2b79f86944cf","ios":"levelo://app?vid=b6938647-2397-4611-817c-2b79f86944cf"},"vehicle_type_id":"4","last_reported":1702570074,"current_range_meters":13600,"station_id":"ce4bhgp2rcd13ifvqfc0","pricing_plan_id":"free"},{"bike_id":"692a37ab-0c18-4481-b197-cb603fd1a689","system_id":"levelo_inurba_marseille","lat":43.26187,"lon":5.37445,"is_reserved":false,"is_disabled":false,"rental_uris":{"android":"levelo://app?vid=692a37ab-0c18-4481-b197-cb603fd1a689","ios":"levelo://app?vid=692a37ab-0c18-4481-b197-cb603fd1a689"},"vehicle_type_id":"4","last_reported":1702570074,"current_range_meters":1200,"station_id":"ce4bhgp2rcd13ifvqfc0","pricing_plan_id":"free"},{"bike_id":"503fb083-fb82-4ad3-b4e1-6cc786325b8b","system_id":"levelo_inurba_marseille","lat":43.317104,"lon":5.436818,"is_reserved":false,"is_disabled":false,"rental_uris":{"android":"levelo://app?vid=503fb083-fb82-4ad3-b4e1-6cc786325b8b","ios":"levelo://app?vid=503fb083-fb82-4ad3-b4e1-6cc786325b8b"},"vehicle_type_id":"4","last_reported":1702570074,"current_range_meters":13600,"station_id":"ce4bhp92rcd13ifvqhcg","pricing_plan_id":"free"},{"bike_id":"2a9b5c26-716b-49ad-a0d0-742f445ef661","system_id":"levelo_inurba_marseille","lat":43.262012,"lon":5.379307,"is_reserved":false,"is_disabled":false,"rental_uris":{"android":"levelo://app?vid=2a9b5c26-716b-49ad-a0d0-742f445ef661","ios":"levelo://app?vid=2a9b5c26-716b-49ad-a0d0-742f445ef661"},"vehicle_type_id":"4","last_reported":1702570074,"current_range_meters":30000,"station_id":"ce4bhjp2rcd13ifvqg90","pricing_plan_id":"free"},{"bike_id":"c1a8efc5-2e3d-49d0-904c-c79a29112631","system_id":"levelo_inurba_marseille","lat":43.26202,"lon":5.379299,"is_reserved":false,"is_disabled":false,"rental_uris":{"android":"levelo://app?vid=c1a8efc5-2e3d-49d0-904c-c79a29112631","ios":"levelo://app?vid=c1a8efc5-2e3d-49d0-904c-c79a29112631"},"vehicle_type_id":"4","last_reported":1702570074,"current_range_meters":31200,"station_id":"ce4bhjp2rcd13ifvqg90","pricing_plan_id":"free"},{"bike_id":"aaea5209-a708-4458-8480-1875eab17711","system_id":"levelo_inurba_marseille","lat":43.271368,"lon":5.40928,"is_reserved":false,"is_disabled":false,"rental_uris":{"android":"levelo://app?vid=aaea5209-a708-4458-8480-1875eab17711","ios":"levelo://app?vid=aaea5209-a708-4458-8480-1875eab17711"},"vehicle_type_id":"4","last_reported":1702570074,"current_range_meters":26800,"station_id":"ce4bhl12rcd13ifvqgf0","pricing_plan_id":"free"},{"bike_id":"38a4a3ac-b01c-43e0-abb4-5a012521fc8c","system_id":"levelo_inurba_marseille","lat":43.298768,"lon":5.43643,"is_reserved":false,"is_disabled":false,"rental_uris":{"android":"levelo://app?vid=38a4a3ac-b01c-43e0-abb4-5a012521fc8c","ios":"levelo://app?vid=38a4a3ac-b01c-43e0-abb4-5a012521fc8c"},"vehicle_type_id":"4","last_reported":1702570074,"current_range_meters":30800,"station_id":"ce4bhpp2rcd13ifvqhfg","pricing_plan_id":"free"},{"bike_id":"fe5fe943-5fdd-4892-88fa-556a32663088","system_id":"levelo_inurba_marseille","lat":43.298768,"lon":5.43643,"is_reserved":false,"is_disabled":false,"rental_uris":{"android":"levelo://app?vid=fe5fe943-5fdd-4892-88fa-556a32663088","ios":"levelo://app?vid=fe5fe943-5fdd-4892-88fa-556a32663088"},"vehicle_type_id":"4","last_reported":1702570074,"current_range_meters":26800,"station_id":"ce4bhpp2rcd13ifvqhfg","pricing_plan_id":"free"},{"bike_id":"872e71aa-3046-46ad-b471-ed74e03b94e1","system_id":"levelo_inurba_marseille","lat":43.260225,"lon":5.375455,"is_reserved":false,"is_disabled":false,"rental_uris":{"android":"levelo://app?vid=872e71aa-3046-46ad-b471-ed74e03b94e1","ios":"levelo://app?vid=872e71aa-3046-46ad-b471-ed74e03b94e1"},"vehicle_type_id":"4","last_reported":1702570074,"current_range_meters":3600,"station_id":"ce4bhgh2rcd13ifvqfa0","pricing_plan_id":"free"},{"bike_id":"6a2754f4-4c18-4e78-91e9-00c997a06754","system_id":"levelo_inurba_marseille","lat":43.26023,"lon":5.37552,"is_reserved":false,"is_disabled":false,"rental_uris":{"android":"levelo://app?vid=6a2754f4-4c18-4e78-91e9-00c997a06754","ios":"levelo://app?vid=6a2754f4-4c18-4e78-91e9-00c997a06754"},"vehicle_type_id":"4","last_reported":1702570074,"current_range_meters":25200,"station_id":"ce4bhgh2rcd13ifvqfa0","pricing_plan_id":"free"},{"bike_id":"9292b530-bd96-4c08-99d8-b5f32beab3fd","system_id":"levelo_inurba_marseille","lat":43.281548,"lon":5.42643,"is_reserved":false,"is_disabled":false,"rental_uris":{"android":"levelo://app?vid=9292b530-bd96-4c08-99d8-b5f32beab3fd","ios":"levelo://app?vid=9292b530-bd96-4c08-99d8-b5f32beab3fd"},"vehicle_type_id":"4","last_reported":1702570074,"current_range_meters":12400,"station_id":"ce4bhnh2rcd13ifvqgug","pricing_plan_id":"free"},{"bike_id":"ccd178fc-80e0-4cab-b378-8caf9e3ec85c","system_id":"levelo_inurba_marseille","lat":43.281548,"lon":5.42643,"is_reserved":false,"is_disabled":false,"rental_uris":{"android":"levelo://app?vid=ccd178fc-80e0-4cab-b378-8caf9e3ec85c","ios":"levelo://app?vid=ccd178fc-80e0-4cab-b378-8caf9e3ec85c"},"vehicle_type_id":"4","last_reported":1702570074,"current_range_meters":10400,"station_id":"ce4bhnh2rcd13ifvqgug","pricing_plan_id":"free"},{"bike_id":"f9804145-5b06-4fb3-8a8a-319945d9bd2c","system_id":"levelo_inurba_marseille","lat":43.258205,"lon":5.394369,"is_reserved":false,"is_disabled":false,"rental_uris":{"android":"levelo://app?vid=f9804145-5b06-4fb3-8a8a-319945d9bd2c","ios":"levelo://app?vid=f9804145-5b06-4fb3-8a8a-319945d9bd2c"},"vehicle_type_id":"4","last_reported":1702570074,"current_range_meters":10000,"station_id":"ce4bhip2rcd13ifvqft0","pricing_plan_id":"free"},{"bike_id":"f11a6cf0-7eb4-4854-be30-74dac97e8cd1","system_id":"levelo_inurba_marseille","lat":43.255749,"lon":5.382264,"is_reserved":false,"is_disabled":false,"rental_uris":{"android":"levelo://app?vid=f11a6cf0-7eb4-4854-be30-74dac97e8cd1","ios":"levelo://app?vid=f11a6cf0-7eb4-4854-be30-74dac97e8cd1"},"vehicle_type_id":"4","last_reported":1702570074,"current_range_meters":5600,"station_id":"ce4bhih2rcd13ifvqfs0","pricing_plan_id":"free"},{"bike_id":"8a7ac712-5ccd-4f70-9b2d-02c1d3f684eb","system_id":"levelo_inurba_marseille","lat":43.258203,"lon":5.394403,"is_reserved":false,"is_disabled":false,"rental_uris":{"android":"levelo://app?vid=8a7ac712-5ccd-4f70-9b2d-02c1d3f684eb","ios":"levelo://app?vid=8a7ac712-5ccd-4f70-9b2d-02c1d3f684eb"},"vehicle_type_id":"4","last_reported":1702570074,"current_range_meters":8000,"station_id":"ce4bhip2rcd13ifvqft0","pricing_plan_id":"free"},{"bike_id":"815dd2ef-1334-4232-ab41-0715271fbb21","system_id":"levelo_inurba_marseille","lat":43.25573,"lon":5.38232,"is_reserved":false,"is_disabled":false,"rental_uris":{"android":"levelo://app?vid=815dd2ef-1334-4232-ab41-0715271fbb21","ios":"levelo://app?vid=815dd2ef-1334-4232-ab41-0715271fbb21"},"vehicle_type_id":"4","last_reported":1702570074,"current_range_meters":23600,"station_id":"ce4bhih2rcd13ifvqfs0","pricing_plan_id":"free"},{"bike_id":"9d3a85b4-3ffa-45ee-a0ed-d032bf9b456e","system_id":"levelo_inurba_marseille","lat":43.25868,"lon":5.39905,"is_reserved":false,"is_disabled":false,"rental_uris":{"android":"levelo://app?vid=9d3a85b4-3ffa-45ee-a0ed-d032bf9b456e","ios":"levelo://app?vid=9d3a85b4-3ffa-45ee-a0ed-d032bf9b456e"},"vehicle_type_id":"4","last_reported":1702570074,"current_range_meters":0,"station_id":"ce4bhl92rcd13ifvqghg","pricing_plan_id":"free"},{"bike_id":"57f8ded3-12dd-4e9a-8a34-635c357d144f","system_id":"levelo_inurba_marseille","lat":43.250009,"lon":5.389195,"is_reserved":false,"is_disabled":false,"rental_uris":{"android":"levelo://app?vid=57f8ded3-12dd-4e9a-8a34-635c357d144f","ios":"levelo://app?vid=57f8ded3-12dd-4e9a-8a34-635c357d144f"},"vehicle_type_id":"4","last_reported":1702570074,"current_range_meters":19600,"station_id":"ce4bhgp2rcd13ifvqfd0","pricing_plan_id":"free"},{"bike_id":"5764e6c1-ade6-4bcb-b464-2f0859dc2ac6","system_id":"levelo_inurba_marseille","lat":43.2479,"lon":5.374457,"is_reserved":false,"is_disabled":false,"rental_uris":{"android":"levelo://app?vid=5764e6c1-ade6-4bcb-b464-2f0859dc2ac6","ios":"levelo://app?vid=5764e6c1-ade6-4bcb-b464-2f0859dc2ac6"},"vehicle_type_id":"4","last_reported":1702570074,"current_range_meters":27200,"station_id":"ce4bhgh2rcd13ifvqfb0","pricing_plan_id":"free"},{"bike_id":"1ed77d23-4464-4b50-af65-7fdd9400c546","system_id":"levelo_inurba_marseille","lat":43.24803,"lon":5.37457,"is_reserved":false,"is_disabled":false,"rental_uris":{"android":"levelo://app?vid=1ed77d23-4464-4b50-af65-7fdd9400c546","ios":"levelo://app?vid=1ed77d23-4464-4b50-af65-7fdd9400c546"},"vehicle_type_id":"4","last_reported":1702570074,"current_range_meters":5600,"station_id":"ce4bhgh2rcd13ifvqfb0","pricing_plan_id":"free"},{"bike_id":"41141c1c-d172-4264-ae0f-545f42a7f1d0","system_id":"levelo_inurba_marseille","lat":43.250966,"lon":5.395186,"is_reserved":false,"is_disabled":false,"rental_uris":{"android":"levelo://app?vid=41141c1c-d172-4264-ae0f-545f42a7f1d0","ios":"levelo://app?vid=41141c1c-d172-4264-ae0f-545f42a7f1d0"},"vehicle_type_id":"4","last_reported":1702570074,"current_range_meters":29600,"station_id":"ce4bhm12rcd13ifvqgkg","pricing_plan_id":"free"},{"bike_id":"e43613fe-d249-450e-9c2a-d5852eedc41a","system_id":"levelo_inurba_marseille","lat":43.250966,"lon":5.395186,"is_reserved":false,"is_disabled":false,"rental_uris":{"android":"levelo://app?vid=e43613fe-d249-450e-9c2a-d5852eedc41a","ios":"levelo://app?vid=e43613fe-d249-450e-9c2a-d5852eedc41a"},"vehicle_type_id":"4","last_reported":1702570074,"current_range_meters":21200,"station_id":"ce4bhm12rcd13ifvqgkg","pricing_plan_id":"free"},{"bike_id":"a4d2c856-7beb-4f8c-abef-bcf4d5736770","system_id":"levelo_inurba_marseille","lat":43.250966,"lon":5.395186,"is_reserved":false,"is_disabled":false,"rental_uris":{"android":"levelo://app?vid=a4d2c856-7beb-4f8c-abef-bcf4d5736770","ios":"levelo://app?vid=a4d2c856-7beb-4f8c-abef-bcf4d5736770"},"vehicle_type_id":"4","last_reported":1702570074,"current_range_meters":9600,"station_id":"ce4bhm12rcd13ifvqgkg","pricing_plan_id":"free"},{"bike_id":"4aec2e2f-c085-4eac-8ab1-22cf3ba6eb95","system_id":"levelo_inurba_marseille","lat":43.250966,"lon":5.395186,"is_reserved":false,"is_disabled":false,"rental_uris":{"android":"levelo://app?vid=4aec2e2f-c085-4eac-8ab1-22cf3ba6eb95","ios":"levelo://app?vid=4aec2e2f-c085-4eac-8ab1-22cf3ba6eb95"},"vehicle_type_id":"4","last_reported":1702570074,"current_range_meters":12800,"station_id":"ce4bhm12rcd13ifvqgkg","pricing_plan_id":"free"},{"bike_id":"f12404e0-1122-4a13-abb7-e4af84419664","system_id":"levelo_inurba_marseille","lat":43.25102,"lon":5.403214,"is_reserved":false,"is_disabled":false,"rental_uris":{"android":"levelo://app?vid=f12404e0-1122-4a13-abb7-e4af84419664","ios":"levelo://app?vid=f12404e0-1122-4a13-abb7-e4af84419664"},"vehicle_type_id":"4","last_reported":1702570074,"current_range_meters":1600,"station_id":"ce4bhlh2rcd13ifvqgig","pricing_plan_id":"free"},{"bike_id":"99d0a507-78bf-4a9c-9c78-29e207ee4614","system_id":"levelo_inurba_marseille","lat":43.25102,"lon":5.403214,"is_reserved":false,"is_disabled":false,"rental_uris":{"android":"levelo://app?vid=99d0a507-78bf-4a9c-9c78-29e207ee4614","ios":"levelo://app?vid=99d0a507-78bf-4a9c-9c78-29e207ee4614"},"vehicle_type_id":"4","last_reported":1702570074,"current_range_meters":27200,"station_id":"ce4bhlh2rcd13ifvqgig","pricing_plan_id":"free"},{"bike_id":"97ddfa1f-a1a2-475b-b7cf-a5ba5a6bea3a","system_id":"levelo_inurba_marseille","lat":43.245581,"lon":5.395069,"is_reserved":false,"is_disabled":false,"rental_uris":{"android":"levelo://app?vid=97ddfa1f-a1a2-475b-b7cf-a5ba5a6bea3a","ios":"levelo://app?vid=97ddfa1f-a1a2-475b-b7cf-a5ba5a6bea3a"},"vehicle_type_id":"4","last_reported":1702570074,"current_range_meters":20000,"station_id":"ce4bhlp2rcd13ifvqgjg","pricing_plan_id":"free"},{"bike_id":"3a814a24-07d8-4e6f-9e30-e43634a525e4","system_id":"levelo_inurba_marseille","lat":43.23965,"lon":5.36639,"is_reserved":false,"is_disabled":false,"rental_uris":{"android":"levelo://app?vid=3a814a24-07d8-4e6f-9e30-e43634a525e4","ios":"levelo://app?vid=3a814a24-07d8-4e6f-9e30-e43634a525e4"},"vehicle_type_id":"4","last_reported":1702570074,"current_range_meters":6800,"station_id":"ce4bhi12rcd13ifvqfp0","pricing_plan_id":"free"},{"bike_id":"a006d6a9-936f-407e-8804-fb4c62db6209","system_id":"levelo_inurba_marseille","lat":43.239588,"lon":5.366238,"is_reserved":false,"is_disabled":false,"rental_uris":{"android":"levelo://app?vid=a006d6a9-936f-407e-8804-fb4c62db6209","ios":"levelo://app?vid=a006d6a9-936f-407e-8804-fb4c62db6209"},"vehicle_type_id":"4","last_reported":1702570074,"current_range_meters":26800,"station_id":"ce4bhi12rcd13ifvqfp0","pricing_plan_id":"free"},{"bike_id":"1497ed62-688b-4d39-afdc-e76c42d6a7ae","system_id":"levelo_inurba_marseille","lat":43.23961,"lon":5.36624,"is_reserved":false,"is_disabled":false,"rental_uris":{"android":"levelo://app?vid=1497ed62-688b-4d39-afdc-e76c42d6a7ae","ios":"levelo://app?vid=1497ed62-688b-4d39-afdc-e76c42d6a7ae"},"vehicle_type_id":"4","last_reported":1702570074,"current_range_meters":24800,"station_id":"ce4bhi12rcd13ifvqfp0","pricing_plan_id":"free"},{"bike_id":"417c4bb2-53a9-4a4c-a128-5a6478c52446","system_id":"levelo_inurba_marseille","lat":43.2396,"lon":5.36639,"is_reserved":false,"is_disabled":false,"rental_uris":{"android":"levelo://app?vid=417c4bb2-53a9-4a4c-a128-5a6478c52446","ios":"levelo://app?vid=417c4bb2-53a9-4a4c-a128-5a6478c52446"},"vehicle_type_id":"4","last_reported":1702570074,"current_range_meters":23600,"station_id":"ce4bhi12rcd13ifvqfp0","pricing_plan_id":"free"},{"bike_id":"09e850ea-4841-45dc-8933-cb5bc12f1ec2","system_id":"levelo_inurba_marseille","lat":43.23922,"lon":5.370145,"is_reserved":false,"is_disabled":false,"rental_uris":{"android":"levelo://app?vid=09e850ea-4841-45dc-8933-cb5bc12f1ec2","ios":"levelo://app?vid=09e850ea-4841-45dc-8933-cb5bc12f1ec2"},"vehicle_type_id":"4","last_reported":1702570074,"current_range_meters":12000,"station_id":"","pricing_plan_id":"free"},{"bike_id":"135e0927-9335-43b5-ad5a-3deda147ac43","system_id":"levelo_inurba_marseille","lat":43.241782,"lon":5.397261,"is_reserved":false,"is_disabled":false,"rental_uris":{"android":"levelo://app?vid=135e0927-9335-43b5-ad5a-3deda147ac43","ios":"levelo://app?vid=135e0927-9335-43b5-ad5a-3deda147ac43"},"vehicle_type_id":"4","last_reported":1702570074,"current_range_meters":7600,"station_id":"ce4bhn12rcd13ifvqgpg","pricing_plan_id":"free"},{"bike_id":"2f0b2c9f-fd28-4993-9b9e-ba8c6a9f51d3","system_id":"levelo_inurba_marseille","lat":43.241782,"lon":5.397261,"is_reserved":false,"is_disabled":false,"rental_uris":{"android":"levelo://app?vid=2f0b2c9f-fd28-4993-9b9e-ba8c6a9f51d3","ios":"levelo://app?vid=2f0b2c9f-fd28-4993-9b9e-ba8c6a9f51d3"},"vehicle_type_id":"4","last_reported":1702570074,"current_range_meters":12000,"station_id":"ce4bhn12rcd13ifvqgpg","pricing_plan_id":"free"},{"bike_id":"1c152701-4b2a-4bae-9910-af52ecb96d7d","system_id":"levelo_inurba_marseille","lat":43.231933,"lon":5.355534,"is_reserved":false,"is_disabled":false,"rental_uris":{"android":"levelo://app?vid=1c152701-4b2a-4bae-9910-af52ecb96d7d","ios":"levelo://app?vid=1c152701-4b2a-4bae-9910-af52ecb96d7d"},"vehicle_type_id":"4","last_reported":1702570074,"current_range_meters":19200,"station_id":"ce4bhu92rcd13ifvqi70","pricing_plan_id":"free"},{"bike_id":"1f32b210-1695-4330-ae64-64ed605d4234","system_id":"levelo_inurba_marseille","lat":43.231923,"lon":5.355545,"is_reserved":false,"is_disabled":false,"rental_uris":{"android":"levelo://app?vid=1f32b210-1695-4330-ae64-64ed605d4234","ios":"levelo://app?vid=1f32b210-1695-4330-ae64-64ed605d4234"},"vehicle_type_id":"4","last_reported":1702570074,"current_range_meters":19200,"station_id":"ce4bhu92rcd13ifvqi70","pricing_plan_id":"free"},{"bike_id":"a77fff13-9f20-4e3b-b9d6-ff4e799f8066","system_id":"levelo_inurba_marseille","lat":43.231793,"lon":5.400044,"is_reserved":false,"is_disabled":false,"rental_uris":{"android":"levelo://app?vid=a77fff13-9f20-4e3b-b9d6-ff4e799f8066","ios":"levelo://app?vid=a77fff13-9f20-4e3b-b9d6-ff4e799f8066"},"vehicle_type_id":"4","last_reported":1702570074,"current_range_meters":29200,"station_id":"ce4bhn12rcd13ifvqgqg","pricing_plan_id":"free"},{"bike_id":"f42c64c6-938d-453a-8637-863b38e508ac","system_id":"levelo_inurba_marseille","lat":43.231793,"lon":5.400044,"is_reserved":false,"is_disabled":false,"rental_uris":{"android":"levelo://app?vid=f42c64c6-938d-453a-8637-863b38e508ac","ios":"levelo://app?vid=f42c64c6-938d-453a-8637-863b38e508ac"},"vehicle_type_id":"4","last_reported":1702570074,"current_range_meters":17600,"station_id":"ce4bhn12rcd13ifvqgqg","pricing_plan_id":"free"},{"bike_id":"830d849e-9bc4-45c0-a5c3-bdc822c53da0","system_id":"levelo_inurba_marseille","lat":43.231794,"lon":5.400052,"is_reserved":false,"is_disabled":false,"rental_uris":{"android":"levelo://app?vid=830d849e-9bc4-45c0-a5c3-bdc822c53da0","ios":"levelo://app?vid=830d849e-9bc4-45c0-a5c3-bdc822c53da0"},"vehicle_type_id":"4","last_reported":1702570074,"current_range_meters":19200,"station_id":"ce4bhn12rcd13ifvqgqg","pricing_plan_id":"free"},{"bike_id":"dd7ed4dd-77c8-413e-9e14-33a4d651f1aa","system_id":"levelo_inurba_marseille","lat":43.231793,"lon":5.400044,"is_reserved":false,"is_disabled":false,"rental_uris":{"android":"levelo://app?vid=dd7ed4dd-77c8-413e-9e14-33a4d651f1aa","ios":"levelo://app?vid=dd7ed4dd-77c8-413e-9e14-33a4d651f1aa"},"vehicle_type_id":"4","last_reported":1702570074,"current_range_meters":24800,"station_id":"ce4bhn12rcd13ifvqgqg","pricing_plan_id":"free"},{"bike_id":"be72807a-9a7f-4d6b-9ec7-53daa8856b96","system_id":"levelo_inurba_marseille","lat":43.231562,"lon":5.436933,"is_reserved":false,"is_disabled":false,"rental_uris":{"android":"levelo://app?vid=be72807a-9a7f-4d6b-9ec7-53daa8856b96","ios":"levelo://app?vid=be72807a-9a7f-4d6b-9ec7-53daa8856b96"},"vehicle_type_id":"4","last_reported":1702570074,"current_range_meters":31200,"station_id":"ce4bhmp2rcd13ifvqgog","pricing_plan_id":"free"},{"bike_id":"f6419703-0daf-4ce1-8be0-92733369fcca","system_id":"levelo_inurba_marseille","lat":43.231562,"lon":5.436933,"is_reserved":false,"is_disabled":false,"rental_uris":{"android":"levelo://app?vid=f6419703-0daf-4ce1-8be0-92733369fcca","ios":"levelo://app?vid=f6419703-0daf-4ce1-8be0-92733369fcca"},"vehicle_type_id":"4","last_reported":1702570074,"current_range_meters":15200,"station_id":"ce4bhmp2rcd13ifvqgog","pricing_plan_id":"free"},{"bike_id":"5baad603-16af-4b46-9899-8c12c42ef7f0","system_id":"levelo_inurba_marseille","lat":43.231562,"lon":5.436933,"is_reserved":false,"is_disabled":false,"rental_uris":{"android":"levelo://app?vid=5baad603-16af-4b46-9899-8c12c42ef7f0","ios":"levelo://app?vid=5baad603-16af-4b46-9899-8c12c42ef7f0"},"vehicle_type_id":"4","last_reported":1702570074,"current_range_meters":31200,"station_id":"ce4bhmp2rcd13ifvqgog","pricing_plan_id":"free"}]}}