{"last_updated":1729019307,"ttl":60,"version":"2.2","data":{"bikes":[{"bike_id":"488cc52e-690c-4348-900f-2cee32ad7416","system_id":"levelo_inurba_marseille","lat":43.31715,"lon":5.42395,"is_reserved":false,"is_disabled":false,"rental_uris":{"android":"levelo://app?vid=488cc52e-690c-4348-900f-2cee32ad7416","ios":"levelo://app?vid=488cc52e-690c-4348-900f-2cee32ad7416"},"vehicle_type_id":"4","last_reported":1729019307,"current_range_meters":9200,"station_id":"ce4bhp92rcd13ifvqhbg","pricing_plan_id":"cebpf4jnsgd1na2vs0mg"},{"bike_id":"805cf10d-9632-4f1a-9f3a-80b24a4fbac6","system_id":"levelo_inurba_marseille","lat":43.29813,"lon":5.41498,"is_reserved":false,"is_disabled":false,"rental_uris":{"android":"levelo://app?vid=805cf10d-9632-4f1a-9f3a-80b24a4fbac6","ios":"levelo://app?vid=805cf10d-9632-4f1a-9f3a-80b24a4fbac6"},"vehicle_type_id":"4","last_reported":1729019307,"current_range_meters":9200,"station_id":"","pricing_plan_id":"cebpf4jnsgd1na2vs0mg"},{"bike_id":"cfc7efa0-6f9e-48e8-8b40-963a46f3a1d4","system_id":"levelo_inurba_marseille","lat":43.25859,"lon":5.39905,"is_reserved":false,"is_disabled":false,"rental_uris":{"android":"levelo://app?vid=cfc7efa0-6f9e-48e8-8b40-963a46f3a1d4","ios":"levelo://app?vid=cfc7efa0-6f9e-48e8-8b40-963a46f3a1d4"},"vehicle_type_id":"4","last_reported":1729019307,"current_range_meters":12800,"station_id":"ce4bhl92rcd13ifvqghg","pricing_plan_id":"cebpf4jnsgd1na2vs0mg"},{"bike_id":"69197799-1c4b-46f8-85b6-3058b9ee9332","system_id":"levelo_inurba_marseille","lat":43.29536,"lon":5.38551,"is_reserved":false,"is_disabled":false,"rental_uris":{"android":"levelo://app?vid=69197799-1c4b-46f8-85b6-3058b9ee9332","ios":"levelo://app?vid=69197799-1c4b-46f8-85b6-3058b9ee9332"},"vehicle_type_id":"4","last_reported":1729019307,"current_range_meters":6000,"station_id":"ce4bgih2rcd13ifvqba0","pricing_plan_id":"cebpf4jnsgd1na2vs0mg"},{"bike_id":"f2fdf74f-5e15-4827-9d38-65a4050d017a","system_id":"levelo_inurba_marseille","lat":43.2808,"lon":5.39655,"is_reserved":false,"is_disabled":false,"rental_uris":{"android":"levelo://app?vid=f2fdf74f-5e15-4827-9d38-65a4050d017a","ios":"levelo://app?vid=f2fdf74f-5e15-4827-9d38-65a4050d017a"},"vehicle_type_id":"4","last_reported":1729019307,"current_range_meters":27200,"station_id":"ce4bho12rcd13ifvqh2g","pricing_plan_id":"cebpf4jnsgd1na2vs0mg"},{"bike_id":"8aca930d-2c77-435a-bbcd-cf4f4d726973","system_id":"levelo_inurba_marseille","lat":43.28406,"lon":5.37506,"is_reserved":false,"is_disabled":false,"rental_uris":{"android":"levelo://app?vid=8aca930d-2c77-435a-bbcd-cf4f4d726973","ios":"levelo://app?vid=8aca930d-2c77-435a-bbcd-cf4f4d726973"},"vehicle_type_id":"4","last_reported":1729019307,"current_range_meters":36000,"station_id":"ce4bh412rcd13ifvqds0","pricing_plan_id":"cebpf4jnsgd1na2vs0mg"},{"bike_id":"10c9d11a-47e2-4fb4-b6e7-9e1c028b8b06","system_id":"levelo_inurba_marseille","lat":43.28274,"lon":5.35073,"is_reserved":false,"is_disabled":false,"rental_uris":{"android":"levelo://app?vid=10c9d11a-47e2-4fb4-b6e7-9e1c028b8b06","ios":"levelo://app?vid=10c9d11a-47e2-4fb4-b6e7-9e1c028b8b06"},"vehicle_type_id":"4","last_reported":1729019307,"current_range_meters":38800,"station_id":"ce4bhbp2rcd13ifvqerg","pricing_plan_id":"cebpf4jnsgd1na2vs0mg"},{"bike_id":"a298a572-d7c7-4cd6-beb8-c05590fa2219","system_id":"levelo_inurba_marseille","lat":43.27375,"lon":5.3626,"is_reserved":false,"is_disabled":false,"rental_uris":{"android":"levelo://app?vid=a298a572-d7c7-4cd6-beb8-c05590fa2219","ios":"levelo://app?vid=a298a572-d7c7-4cd6-beb8-c05590fa2219"},"vehicle_type_id":"4","last_reported":1729019307,"current_range_meters":38800,"station_id":"ce4bhbh2rcd13ifvqeo0","pricing_plan_id":"cebpf4jnsgd1na2vs0mg"},{"bike_id":"a007726d-b546-4520-99be-19993c29db1f","system_id":"levelo_inurba_marseille","lat":43.28437,"lon":5.39199,"is_reserved":false,"is_disabled":false,"rental_uris":{"android":"levelo://app?vid=a007726d-b546-4520-99be-19993c29db1f","ios":"levelo://app?vid=a007726d-b546-4520-99be-19993c29db1f"},"vehicle_type_id":"4","last_reported":1729019307,"current_range_meters":3200,"station_id":"ce4bhoh2rcd13ifvqh5g","pricing_plan_id":"cebpf4jnsgd1na2vs0mg"},{"bike_id":"2aaec3bc-f6e7-42de-b3f5-8785f36a5e3e","system_id":"levelo_inurba_marseille","lat":43.2668,"lon":5.38269,"is_reserved":false,"is_disabled":false,"rental_uris":{"android":"levelo://app?vid=2aaec3bc-f6e7-42de-b3f5-8785f36a5e3e","ios":"levelo://app?vid=2aaec3bc-f6e7-42de-b3f5-8785f36a5e3e"},"vehicle_type_id":"4","last_reported":1729019307,"current_range_meters":4800,"station_id":"ce4bhg92rcd13ifvqf90","pricing_plan_id":"cebpf4jnsgd1na2vs0mg"},{"bike_id":"2656d1c5-d714-417f-9678-71b8ac3c4a06","system_id":"levelo_inurba_marseille","lat":43.31118,"lon":5.37768,"is_reserved":false,"is_disabled":false,"rental_uris":{"android":"levelo://app?vid=2656d1c5-d714-417f-9678-71b8ac3c4a06","ios":"levelo://app?vid=2656d1c5-d714-417f-9678-71b8ac3c4a06"},"vehicle_type_id":"4","last_reported":1729019307,"current_range_meters":14400,"station_id":"ce4bgt92rcd13ifvqcg0","pricing_plan_id":"cebpf4jnsgd1na2vs0mg"},{"bike_id":"8b82c247-a271-415b-8cc7-d8e7c89bc5a9","system_id":"levelo_inurba_marseille","lat":43.31083,"lon":5.42429,"is_reserved":false,"is_disabled":false,"rental_uris":{"android":"levelo://app?vid=8b82c247-a271-415b-8cc7-d8e7c89bc5a9","ios":"levelo://app?vid=8b82c247-a271-415b-8cc7-d8e7c89bc5a9"},"vehicle_type_id":"4","last_reported":1729019307,"current_range_meters":32000,"station_id":"ce4bhp92rcd13ifvqhag","pricing_plan_id":"cebpf4jnsgd1na2vs0mg"},{"bike_id":"5554a15a-3e77-4957-960a-9fd3bb5c6cef","system_id":"levelo_inurba_marseille","lat":43.31997,"lon":5.38159,"is_reserved":false,"is_disabled":false,"rental_uris":{"android":"levelo://app?vid=5554a15a-3e77-4957-960a-9fd3bb5c6cef","ios":"levelo://app?vid=5554a15a-3e77-4957-960a-9fd3bb5c6cef"},"vehicle_type_id":"4","last_reported":1729019307,"current_range_meters":20400,"station_id":"ce4bhr12rcd13ifvqhpg","pricing_plan_id":"cebpf4jnsgd1na2vs0mg"},{"bike_id":"3668da75-c41f-466b-8262-09a17c054d21","system_id":"levelo_inurba_marseille","lat":43.31081,"lon":5.42432,"is_reserved":false,"is_disabled":false,"rental_uris":{"android":"levelo://app?vid=3668da75-c41f-466b-8262-09a17c054d21","ios":"levelo://app?vid=3668da75-c41f-466b-8262-09a17c054d21"},"vehicle_type_id":"4","last_reported":1729019307,"current_range_meters":8800,"station_id":"ce4bhp92rcd13ifvqhag","pricing_plan_id":"cebpf4jnsgd1na2vs0mg"},{"bike_id":"5a8e5747-dfec-43c2-8e2d-9a777a0ca8af","system_id":"levelo_inurba_marseille","lat":43.29785,"lon":5.39338,"is_reserved":false,"is_disabled":false,"rental_uris":{"android":"levelo://app?vid=5a8e5747-dfec-43c2-8e2d-9a777a0ca8af","ios":"levelo://app?vid=5a8e5747-dfec-43c2-8e2d-9a777a0ca8af"},"vehicle_type_id":"4","last_reported":1729019307,"current_range_meters":14800,"station_id":"chh1huq6cuj3fo74tm60","pricing_plan_id":"cebpf4jnsgd1na2vs0mg"},{"bike_id":"a9a1afa8-7456-4cd8-b9c2-c94e35b5e3f8","system_id":"levelo_inurba_marseille","lat":43.29107,"lon":5.382,"is_reserved":false,"is_disabled":false,"rental_uris":{"android":"levelo://app?vid=a9a1afa8-7456-4cd8-b9c2-c94e35b5e3f8","ios":"levelo://app?vid=a9a1afa8-7456-4cd8-b9c2-c94e35b5e3f8"},"vehicle_type_id":"4","last_reported":1729019307,"current_range_meters":16000,"station_id":"ce4bh512rcd13ifvqe2g","pricing_plan_id":"cebpf4jnsgd1na2vs0mg"},{"bike_id":"146503fd-cf8f-4b4c-a86c-2b9cd7045462","system_id":"levelo_inurba_marseille","lat":43.30591,"lon":5.3936,"is_reserved":false,"is_disabled":false,"rental_uris":{"android":"levelo://app?vid=146503fd-cf8f-4b4c-a86c-2b9cd7045462","ios":"levelo://app?vid=146503fd-cf8f-4b4c-a86c-2b9cd7045462"},"vehicle_type_id":"4","last_reported":1729019307,"current_range_meters":39200,"station_id":"ce4bh0p2rcd13ifvqd80","pricing_plan_id":"cebpf4jnsgd1na2vs0mg"},{"bike_id":"c5f5cb1d-6115-4834-a655-3c011396eda6","system_id":"levelo_inurba_marseille","lat":43.23182,"lon":5.39988,"is_reserved":false,"is_disabled":false,"rental_uris":{"android":"levelo://app?vid=c5f5cb1d-6115-4834-a655-3c011396eda6","ios":"levelo://app?vid=c5f5cb1d-6115-4834-a655-3c011396eda6"},"vehicle_type_id":"4","last_reported":1729019307,"current_range_meters":25200,"station_id":"ce4bhn12rcd13ifvqgqg","pricing_plan_id":"cebpf4jnsgd1na2vs0mg"},{"bike_id":"603d0d6d-25d7-4f59-8b9b-ce924365799f","system_id":"levelo_inurba_marseille","lat":43.28266,"lon":5.35069,"is_reserved":false,"is_disabled":false,"rental_uris":{"android":"levelo://app?vid=603d0d6d-25d7-4f59-8b9b-ce924365799f","ios":"levelo://app?vid=603d0d6d-25d7-4f59-8b9b-ce924365799f"},"vehicle_type_id":"4","last_reported":1729019307,"current_range_meters":38800,"station_id":"ce4bhbp2rcd13ifvqerg","pricing_plan_id":"cebpf4jnsgd1na2vs0mg"},{"bike_id":"e1d58c43-4cbf-43b6-b30f-9ba3cf6d397e","system_id":"levelo_inurba_marseille","lat":43.27563,"lon":5.38424,"is_reserved":false,"is_disabled":false,"rental_uris":{"android":"levelo://app?vid=e1d58c43-4cbf-43b6-b30f-9ba3cf6d397e","ios":"levelo://app?vid=e1d58c43-4cbf-43b6-b30f-9ba3cf6d397e"},"vehicle_type_id":"4","last_reported":1729019307,"current_range_meters":34800,"station_id":"ce4bhh92rcd13ifvqfi0","pricing_plan_id":"cebpf4jnsgd1na2vs0mg"},{"bike_id":"9a6b79d1-6cb4-4b06-b6e7-e93597ae1532","system_id":"levelo_inurba_marseille","lat":43.31166,"lon":5.38724,"is_reserved":false,"is_disabled":false,"rental_uris":{"android":"levelo://app?vid=9a6b79d1-6cb4-4b06-b6e7-e93597ae1532","ios":"levelo://app?vid=9a6b79d1-6cb4-4b06-b6e7-e93597ae1532"},"vehicle_type_id":"4","last_reported":1729019307,"current_range_meters":9200,"station_id":"ce4bgv12rcd13ifvqcp0","pricing_plan_id":"cebpf4jnsgd1na2vs0mg"},{"bike_id":"91160e27-1381-4345-b516-6c9d983e4c27","system_id":"levelo_inurba_marseille","lat":43.29268,"lon":5.40112,"is_reserved":false,"is_disabled":false,"rental_uris":{"android":"levelo://app?vid=91160e27-1381-4345-b516-6c9d983e4c27","ios":"levelo://app?vid=91160e27-1381-4345-b516-6c9d983e4c27"},"vehicle_type_id":"4","last_reported":1729019307,"current_range_meters":30000,"station_id":"ce4bh312rcd13ifvqdk0","pricing_plan_id":"cebpf4jnsgd1na2vs0mg"},{"bike_id":"a4e0ecf5-e792-4bd6-8132-6b62272b4e5d","system_id":"levelo_inurba_marseille","lat":43.31362,"lon":5.38496,"is_reserved":false,"is_disabled":false,"rental_uris":{"android":"levelo://app?vid=a4e0ecf5-e792-4bd6-8132-6b62272b4e5d","ios":"levelo://app?vid=a4e0ecf5-e792-4bd6-8132-6b62272b4e5d"},"vehicle_type_id":"4","last_reported":1729019307,"current_range_meters":33600,"station_id":"ce4bgt92rcd13ifvqcf0","pricing_plan_id":"cebpf4jnsgd1na2vs0mg"},{"bike_id":"f8fbfc25-dc2c-42cc-86c5-54e405f9fef5","system_id":"levelo_inurba_marseille","lat":43.29534,"lon":5.38552,"is_reserved":false,"is_disabled":false,"rental_uris":{"android":"levelo://app?vid=f8fbfc25-dc2c-42cc-86c5-54e405f9fef5","ios":"levelo://app?vid=f8fbfc25-dc2c-42cc-86c5-54e405f9fef5"},"vehicle_type_id":"4","last_reported":1729019307,"current_range_meters":6800,"station_id":"ce4bgih2rcd13ifvqba0","pricing_plan_id":"cebpf4jnsgd1na2vs0mg"},{"bike_id":"755a7622-70a2-4447-afe8-59317900f64c","system_id":"levelo_inurba_marseille","lat":43.28082,"lon":5.39657,"is_reserved":false,"is_disabled":false,"rental_uris":{"android":"levelo://app?vid=755a7622-70a2-4447-afe8-59317900f64c","ios":"levelo://app?vid=755a7622-70a2-4447-afe8-59317900f64c"},"vehicle_type_id":"4","last_reported":1729019307,"current_range_meters":28000,"station_id":"ce4bho12rcd13ifvqh2g","pricing_plan_id":"cebpf4jnsgd1na2vs0mg"},{"bike_id":"44467c07-1a43-43d3-88c9-8cd20cd16ea6","system_id":"levelo_inurba_marseille","lat":43.30584,"lon":5.39353,"is_reserved":false,"is_disabled":false,"rental_uris":{"android":"levelo://app?vid=44467c07-1a43-43d3-88c9-8cd20cd16ea6","ios":"levelo://app?vid=44467c07-1a43-43d3-88c9-8cd20cd16ea6"},"vehicle_type_id":"4","last_reported":1729019307,"current_range_meters":38800,"station_id":"ce4bh0p2rcd13ifvqd80","pricing_plan_id":"cebpf4jnsgd1na2vs0mg"},{"bike_id":"28da47ce-5d5c-46c2-a7e1-b992fe74a9b4","system_id":"levelo_inurba_marseille","lat":43.29263,"lon":5.40905,"is_reserved":false,"is_disabled":false,"rental_uris":{"android":"levelo://app?vid=28da47ce-5d5c-46c2-a7e1-b992fe74a9b4","ios":"levelo://app?vid=28da47ce-5d5c-46c2-a7e1-b992fe74a9b4"},"vehicle_type_id":"4","last_reported":1729019307,"current_range_meters":12000,"station_id":"ce4bh192rcd13ifvqdc0","pricing_plan_id":"cebpf4jnsgd1na2vs0mg"},{"bike_id":"c6269164-3883-4a85-ae6b-a38ac2908e7c","system_id":"levelo_inurba_marseille","lat":43.24181,"lon":5.39726,"is_reserved":false,"is_disabled":false,"rental_uris":{"android":"levelo://app?vid=c6269164-3883-4a85-ae6b-a38ac2908e7c","ios":"levelo://app?vid=c6269164-3883-4a85-ae6b-a38ac2908e7c"},"vehicle_type_id":"4","last_reported":1729019307,"current_range_meters":15200,"station_id":"ce4bhn12rcd13ifvqgpg","pricing_plan_id":"cebpf4jnsgd1na2vs0mg"},{"bike_id":"170e11ae-6eab-4ac9-bc28-dd2002dc211f","system_id":"levelo_inurba_marseille","lat":43.32054,"lon":5.41544,"is_reserved":false,"is_disabled":false,"rental_uris":{"android":"levelo://app?vid=170e11ae-6eab-4ac9-bc28-dd2002dc211f","ios":"levelo://app?vid=170e11ae-6eab-4ac9-bc28-dd2002dc211f"},"vehicle_type_id":"4","last_reported":1729019307,"current_range_meters":16000,"station_id":"ce4bhq92rcd13ifvqhkg","pricing_plan_id":"cebpf4jnsgd1na2vs0mg"},{"bike_id":"5f866cdd-5cee-442e-81d2-26f78a203ab9","system_id":"levelo_inurba_marseille","lat":43.31992,"lon":5.38151,"is_reserved":false,"is_disabled":false,"rental_uris":{"android":"levelo://app?vid=5f866cdd-5cee-442e-81d2-26f78a203ab9","ios":"levelo://app?vid=5f866cdd-5cee-442e-81d2-26f78a203ab9"},"vehicle_type_id":"4","last_reported":1729019307,"current_range_meters":30400,"station_id":"ce4bhr12rcd13ifvqhpg","pricing_plan_id":"cebpf4jnsgd1na2vs0mg"},{"bike_id":"c58611c9-5610-40ca-9dff-13b158d6d313","system_id":"levelo_inurba_marseille","lat":43.31698,"lon":5.37753,"is_reserved":false,"is_disabled":false,"rental_uris":{"android":"levelo://app?vid=c58611c9-5610-40ca-9dff-13b158d6d313","ios":"levelo://app?vid=c58611c9-5610-40ca-9dff-13b158d6d313"},"vehicle_type_id":"4","last_reported":1729019307,"current_range_meters":28800,"station_id":"ce4bgth2rcd13ifvqch0","pricing_plan_id":"cebpf4jnsgd1na2vs0mg"},{"bike_id":"eb646d5e-71f3-41a5-8f49-b168b4fba9d8","system_id":"levelo_inurba_marseille","lat":43.27816,"lon":5.40717,"is_reserved":false,"is_disabled":false,"rental_uris":{"android":"levelo://app?vid=eb646d5e-71f3-41a5-8f49-b168b4fba9d8","ios":"levelo://app?vid=eb646d5e-71f3-41a5-8f49-b168b4fba9d8"},"vehicle_type_id":"4","last_reported":1729019307,"current_range_meters":16400,"station_id":"ce4bhnh2rcd13ifvqgtg","pricing_plan_id":"cebpf4jnsgd1na2vs0mg"},{"bike_id":"adecfce0-150e-49e5-b148-8f2293d6a9c5","system_id":"levelo_inurba_marseille","lat":43.31992,"lon":5.38157,"is_reserved":false,"is_disabled":false,"rental_uris":{"android":"levelo://app?vid=adecfce0-150e-49e5-b148-8f2293d6a9c5","ios":"levelo://app?vid=adecfce0-150e-49e5-b148-8f2293d6a9c5"},"vehicle_type_id":"4","last_reported":1729019307,"current_range_meters":18800,"station_id":"ce4bhr12rcd13ifvqhpg","pricing_plan_id":"cebpf4jnsgd1na2vs0mg"},{"bike_id":"60dd2e01-51fa-4d51-a95b-e6a0b7f9c894","system_id":"levelo_inurba_marseille","lat":43.32001,"lon":5.38152,"is_reserved":false,"is_disabled":false,"rental_uris":{"android":"levelo://app?vid=60dd2e01-51fa-4d51-a95b-e6a0b7f9c894","ios":"levelo://app?vid=60dd2e01-51fa-4d51-a95b-e6a0b7f9c894"},"vehicle_type_id":"4","last_reported":1729019307,"current_range_meters":9600,"station_id":"ce4bhr12rcd13ifvqhpg","pricing_plan_id":"cebpf4jnsgd1na2vs0mg"},{"bike_id":"ded83da2-ac47-4af4-99a1-215e896c1d92","system_id":"levelo_inurba_marseille","lat":43.28266,"lon":5.35068,"is_reserved":false,"is_disabled":false,"rental_uris":{"android":"levelo://app?vid=ded83da2-ac47-4af4-99a1-215e896c1d92","ios":"levelo://app?vid=ded83da2-ac47-4af4-99a1-215e896c1d92"},"vehicle_type_id":"4","last_reported":1729019307,"current_range_meters":38800,"station_id":"ce4bhbp2rcd13ifvqerg","pricing_plan_id":"cebpf4jnsgd1na2vs0mg"},{"bike_id":"f552e82b-cf6e-492e-9610-5c5db0e3c067","system_id":"levelo_inurba_marseille","lat":43.29799,"lon":5.39342,"is_reserved":false,"is_disabled":false,"rental_uris":{"android":"levelo://app?vid=f552e82b-cf6e-492e-9610-5c5db0e3c067","ios":"levelo://app?vid=f552e82b-cf6e-492e-9610-5c5db0e3c067"},"vehicle_type_id":"4","last_reported":1729019307,"current_range_meters":32400,"station_id":"chh1huq6cuj3fo74tm60","pricing_plan_id":"cebpf4jnsgd1na2vs0mg"},{"bike_id":"b032ce21-20fe-455b-843b-ccc5c2222c08","system_id":"levelo_inurba_marseille","lat":43.29309,"lon":5.37179,"is_reserved":false,"is_disabled":false,"rental_uris":{"android":"levelo://app?vid=b032ce21-20fe-455b-843b-ccc5c2222c08","ios":"levelo://app?vid=b032ce21-20fe-455b-843b-ccc5c2222c08"},"vehicle_type_id":"4","last_reported":1729019307,"current_range_meters":8800,"station_id":"ce4bgh92rcd13ifvqb40","pricing_plan_id":"cebpf4jnsgd1na2vs0mg"},{"bike_id":"05adb47d-1266-4e21-ab38-5e328a4b3445","system_id":"levelo_inurba_marseille","lat":43.33026,"lon":5.39039,"is_reserved":false,"is_disabled":false,"rental_uris":{"android":"levelo://app?vid=05adb47d-1266-4e21-ab38-5e328a4b3445","ios":"levelo://app?vid=05adb47d-1266-4e21-ab38-5e328a4b3445"},"vehicle_type_id":"4","last_reported":1729019307,"current_range_meters":23200,"station_id":"ce4bhr92rcd13ifvqhrg","pricing_plan_id":"cebpf4jnsgd1na2vs0mg"},{"bike_id":"3771dbe0-e22d-4fb8-bf57-473d32a3a251","system_id":"levelo_inurba_marseille","lat":43.32643,"lon":5.38873,"is_reserved":false,"is_disabled":false,"rental_uris":{"android":"levelo://app?vid=3771dbe0-e22d-4fb8-bf57-473d32a3a251","ios":"levelo://app?vid=3771dbe0-e22d-4fb8-bf57-473d32a3a251"},"vehicle_type_id":"4","last_reported":1729019307,"current_range_meters":29600,"station_id":"","pricing_plan_id":"cebpf4jnsgd1na2vs0mg"},{"bike_id":"89ed3754-5900-4885-b3cd-b3ff6b2ae5c8","system_id":"levelo_inurba_marseille","lat":43.282636,"lon":5.350556,"is_reserved":false,"is_disabled":false,"rental_uris":{"android":"levelo://app?vid=89ed3754-5900-4885-b3cd-b3ff6b2ae5c8","ios":"levelo://app?vid=89ed3754-5900-4885-b3cd-b3ff6b2ae5c8"},"vehicle_type_id":"4","last_reported":1729019307,"current_range_meters":25200,"station_id":"ce4bgkh2rcd13ifvqbk0","pricing_plan_id":"cebpf4jnsgd1na2vs0mg"},{"bike_id":"bb9bdb49-2064-4d58-8310-053e12483e8e","system_id":"levelo_inurba_marseille","lat":43.27811,"lon":5.40716,"is_reserved":false,"is_disabled":false,"rental_uris":{"android":"levelo://app?vid=bb9bdb49-2064-4d58-8310-053e12483e8e","ios":"levelo://app?vid=bb9bdb49-2064-4d58-8310-053e12483e8e"},"vehicle_type_id":"4","last_reported":1729019307,"current_range_meters":19200,"station_id":"ce4bhnh2rcd13ifvqgtg","pricing_plan_id":"cebpf4jnsgd1na2vs0mg"},{"bike_id":"95f797c4-bfaa-4936-adb5-ab04256a070b","system_id":"levelo_inurba_marseille","lat":43.30784,"lon":5.37655,"is_reserved":false,"is_disabled":false,"rental_uris":{"android":"levelo://app?vid=95f797c4-bfaa-4936-adb5-ab04256a070b","ios":"levelo://app?vid=95f797c4-bfaa-4936-adb5-ab04256a070b"},"vehicle_type_id":"4","last_reported":1729019307,"current_range_meters":34800,"station_id":"ce4bgv92rcd13ifvqcq0","pricing_plan_id":"cebpf4jnsgd1na2vs0mg"},{"bike_id":"ea5e7498-bed3-4aba-925b-1ae53c2ee7a5","system_id":"levelo_inurba_marseille","lat":43.32363,"lon":5.38888,"is_reserved":false,"is_disabled":false,"rental_uris":{"android":"levelo://app?vid=ea5e7498-bed3-4aba-925b-1ae53c2ee7a5","ios":"levelo://app?vid=ea5e7498-bed3-4aba-925b-1ae53c2ee7a5"},"vehicle_type_id":"4","last_reported":1729019307,"current_range_meters":38800,"station_id":"ce4bhqp2rcd13ifvqhog","pricing_plan_id":"cebpf4jnsgd1na2vs0mg"},{"bike_id":"7c19a74a-b024-4944-90b3-91747bd2d106","system_id":"levelo_inurba_marseille","lat":43.29374,"lon":5.37846,"is_reserved":false,"is_disabled":false,"rental_uris":{"android":"levelo://app?vid=7c19a74a-b024-4944-90b3-91747bd2d106","ios":"levelo://app?vid=7c19a74a-b024-4944-90b3-91747bd2d106"},"vehicle_type_id":"4","last_reported":1729019307,"current_range_meters":30000,"station_id":"ce4bgjh2rcd13ifvqbf0","pricing_plan_id":"cebpf4jnsgd1na2vs0mg"},{"bike_id":"694d89bd-bac3-4c55-9600-80fe90f45ec4","system_id":"levelo_inurba_marseille","lat":43.33614,"lon":5.41039,"is_reserved":false,"is_disabled":false,"rental_uris":{"android":"levelo://app?vid=694d89bd-bac3-4c55-9600-80fe90f45ec4","ios":"levelo://app?vid=694d89bd-bac3-4c55-9600-80fe90f45ec4"},"vehicle_type_id":"4","last_reported":1729019307,"current_range_meters":35200,"station_id":"ce4bhqh2rcd13ifvqhmg","pricing_plan_id":"cebpf4jnsgd1na2vs0mg"},{"bike_id":"8383d22e-2f91-441b-893e-810720e742d2","system_id":"levelo_inurba_marseille","lat":43.315521,"lon":5.373024,"is_reserved":false,"is_disabled":false,"rental_uris":{"android":"levelo://app?vid=8383d22e-2f91-441b-893e-810720e742d2","ios":"levelo://app?vid=8383d22e-2f91-441b-893e-810720e742d2"},"vehicle_type_id":"4","last_reported":1729019307,"current_range_meters":35200,"station_id":"ce4bgt12rcd13ifvqcd0","pricing_plan_id":"cebpf4jnsgd1na2vs0mg"},{"bike_id":"c0670d96-b06e-446b-a07e-6b5eeebc59d7","system_id":"levelo_inurba_marseille","lat":43.274948,"lon":5.424466,"is_reserved":false,"is_disabled":false,"rental_uris":{"android":"levelo://app?vid=c0670d96-b06e-446b-a07e-6b5eeebc59d7","ios":"levelo://app?vid=c0670d96-b06e-446b-a07e-6b5eeebc59d7"},"vehicle_type_id":"4","last_reported":1729019307,"current_range_meters":11200,"station_id":"ce4bhn92rcd13ifvqgrg","pricing_plan_id":"cebpf4jnsgd1na2vs0mg"},{"bike_id":"a4747fea-d940-4076-a593-6be4b70cf383","system_id":"levelo_inurba_marseille","lat":43.32478,"lon":5.3657,"is_reserved":false,"is_disabled":false,"rental_uris":{"android":"levelo://app?vid=a4747fea-d940-4076-a593-6be4b70cf383","ios":"levelo://app?vid=a4747fea-d940-4076-a593-6be4b70cf383"},"vehicle_type_id":"4","last_reported":1729019307,"current_range_meters":8800,"station_id":"ce4bhs12rcd13ifvqhvg","pricing_plan_id":"cebpf4jnsgd1na2vs0mg"},{"bike_id":"a0d3d324-fa7e-4417-aee7-85012ecab44e","system_id":"levelo_inurba_marseille","lat":43.34194,"lon":5.445,"is_reserved":false,"is_disabled":false,"rental_uris":{"android":"levelo://app?vid=a0d3d324-fa7e-4417-aee7-85012ecab44e","ios":"levelo://app?vid=a0d3d324-fa7e-4417-aee7-85012ecab44e"},"vehicle_type_id":"4","last_reported":1729019307,"current_range_meters":22800,"station_id":"","pricing_plan_id":"cebpf4jnsgd1na2vs0mg"},{"bike_id":"e40416d9-bcb9-48f2-a6ab-a915c0c8aab8","system_id":"levelo_inurba_marseille","lat":43.28713,"lon":5.37934,"is_reserved":false,"is_disabled":false,"rental_uris":{"android":"levelo://app?vid=e40416d9-bcb9-48f2-a6ab-a915c0c8aab8","ios":"levelo://app?vid=e40416d9-bcb9-48f2-a6ab-a915c0c8aab8"},"vehicle_type_id":"4","last_reported":1729019307,"current_range_meters":20400,"station_id":"ce4bh9p2rcd13ifvqec0","pricing_plan_id":"cebpf4jnsgd1na2vs0mg"},{"bike_id":"656421b5-6b07-4d9d-bece-5a1adba5a7ae","system_id":"levelo_inurba_marseille","lat":43.27995,"lon":5.4001,"is_reserved":false,"is_disabled":false,"rental_uris":{"android":"levelo://app?vid=656421b5-6b07-4d9d-bece-5a1adba5a7ae","ios":"levelo://app?vid=656421b5-6b07-4d9d-bece-5a1adba5a7ae"},"vehicle_type_id":"4","last_reported":1729019307,"current_range_meters":27200,"station_id":"ce4bho92rcd13ifvqh4g","pricing_plan_id":"cebpf4jnsgd1na2vs0mg"},{"bike_id":"f618b2b2-5566-4050-87c4-12be64058ea9","system_id":"levelo_inurba_marseille","lat":43.30595,"lon":5.39363,"is_reserved":false,"is_disabled":false,"rental_uris":{"android":"levelo://app?vid=f618b2b2-5566-4050-87c4-12be64058ea9","ios":"levelo://app?vid=f618b2b2-5566-4050-87c4-12be64058ea9"},"vehicle_type_id":"4","last_reported":1729019307,"current_range_meters":6400,"station_id":"ce4bh0p2rcd13ifvqd80","pricing_plan_id":"cebpf4jnsgd1na2vs0mg"},{"bike_id":"7ad43cc7-c10c-4013-baf5-fd4a424efaa8","system_id":"levelo_inurba_marseille","lat":43.31321,"lon":5.39691,"is_reserved":false,"is_disabled":false,"rental_uris":{"android":"levelo://app?vid=7ad43cc7-c10c-4013-baf5-fd4a424efaa8","ios":"levelo://app?vid=7ad43cc7-c10c-4013-baf5-fd4a424efaa8"},"vehicle_type_id":"4","last_reported":1729019307,"current_range_meters":34000,"station_id":"ce4bgvp2rcd13ifvqcu0","pricing_plan_id":"cebpf4jnsgd1na2vs0mg"},{"bike_id":"0994d7f0-fa2e-480f-b967-2b1e1b476b78","system_id":"levelo_inurba_marseille","lat":43.2319,"lon":5.35544,"is_reserved":false,"is_disabled":false,"rental_uris":{"android":"levelo://app?vid=0994d7f0-fa2e-480f-b967-2b1e1b476b78","ios":"levelo://app?vid=0994d7f0-fa2e-480f-b967-2b1e1b476b78"},"vehicle_type_id":"4","last_reported":1729019307,"current_range_meters":25200,"station_id":"ce4bhu92rcd13ifvqi70","pricing_plan_id":"cebpf4jnsgd1na2vs0mg"},{"bike_id":"4d423de8-5e22-441a-8848-ae5dc9d8eb39","system_id":"levelo_inurba_marseille","lat":43.33726,"lon":5.37455,"is_reserved":false,"is_disabled":false,"rental_uris":{"android":"levelo://app?vid=4d423de8-5e22-441a-8848-ae5dc9d8eb39","ios":"levelo://app?vid=4d423de8-5e22-441a-8848-ae5dc9d8eb39"},"vehicle_type_id":"4","last_reported":1729019307,"current_range_meters":8800,"station_id":"","pricing_plan_id":"cebpf4jnsgd1na2vs0mg"},{"bike_id":"310becc0-901e-4913-9924-99e150b8eda4","system_id":"levelo_inurba_marseille","lat":43.26215,"lon":5.37441,"is_reserved":false,"is_disabled":false,"rental_uris":{"android":"levelo://app?vid=310becc0-901e-4913-9924-99e150b8eda4","ios":"levelo://app?vid=310becc0-901e-4913-9924-99e150b8eda4"},"vehicle_type_id":"4","last_reported":1729019307,"current_range_meters":20000,"station_id":"ce4bhgp2rcd13ifvqfc0","pricing_plan_id":"cebpf4jnsgd1na2vs0mg"},{"bike_id":"5b7d4922-9cd9-4f2a-b933-73935d0fda17","system_id":"levelo_inurba_marseille","lat":43.26557,"lon":5.37286,"is_reserved":false,"is_disabled":false,"rental_uris":{"android":"levelo://app?vid=5b7d4922-9cd9-4f2a-b933-73935d0fda17","ios":"levelo://app?vid=5b7d4922-9cd9-4f2a-b933-73935d0fda17"},"vehicle_type_id":"4","last_reported":1729019307,"current_range_meters":38800,"station_id":"ce4bhg12rcd13ifvqf70","pricing_plan_id":"cebpf4jnsgd1na2vs0mg"},{"bike_id":"69338d0a-2bc4-4b90-90a3-3de791c6fe6e","system_id":"levelo_inurba_marseille","lat":43.29273,"lon":5.38444,"is_reserved":false,"is_disabled":false,"rental_uris":{"android":"levelo://app?vid=69338d0a-2bc4-4b90-90a3-3de791c6fe6e","ios":"levelo://app?vid=69338d0a-2bc4-4b90-90a3-3de791c6fe6e"},"vehicle_type_id":"4","last_reported":1729019307,"current_range_meters":27200,"station_id":"","pricing_plan_id":"cebpf4jnsgd1na2vs0mg"},{"bike_id":"d3fa8150-2234-41d6-98a2-5d326f96f301","system_id":"levelo_inurba_marseille","lat":43.291504,"lon":5.399939,"is_reserved":false,"is_disabled":false,"rental_uris":{"android":"levelo://app?vid=d3fa8150-2234-41d6-98a2-5d326f96f301","ios":"levelo://app?vid=d3fa8150-2234-41d6-98a2-5d326f96f301"},"vehicle_type_id":"4","last_reported":1729019307,"current_range_meters":24800,"station_id":"ce4bh0h2rcd13ifvqd40","pricing_plan_id":"cebpf4jnsgd1na2vs0mg"},{"bike_id":"6880f560-a4ed-487c-99b7-0e76d1726ef4","system_id":"levelo_inurba_marseille","lat":43.29276,"lon":5.38445,"is_reserved":false,"is_disabled":false,"rental_uris":{"android":"levelo://app?vid=6880f560-a4ed-487c-99b7-0e76d1726ef4","ios":"levelo://app?vid=6880f560-a4ed-487c-99b7-0e76d1726ef4"},"vehicle_type_id":"4","last_reported":1729019307,"current_range_meters":10800,"station_id":"","pricing_plan_id":"cebpf4jnsgd1na2vs0mg"},{"bike_id":"f9bd20aa-623e-4ff4-975c-7d4cfab24d90","system_id":"levelo_inurba_marseille","lat":43.23186,"lon":5.39998,"is_reserved":false,"is_disabled":false,"rental_uris":{"android":"levelo://app?vid=f9bd20aa-623e-4ff4-975c-7d4cfab24d90","ios":"levelo://app?vid=f9bd20aa-623e-4ff4-975c-7d4cfab24d90"},"vehicle_type_id":"4","last_reported":1729019307,"current_range_meters":32800,"station_id":"ce4bhn12rcd13ifvqgqg","pricing_plan_id":"cebpf4jnsgd1na2vs0mg"},{"bike_id":"0347dffe-3dd7-4a92-9b37-6d07e7d3c689","system_id":"levelo_inurba_marseille","lat":43.2511,"lon":5.40323,"is_reserved":false,"is_disabled":false,"rental_uris":{"android":"levelo://app?vid=0347dffe-3dd7-4a92-9b37-6d07e7d3c689","ios":"levelo://app?vid=0347dffe-3dd7-4a92-9b37-6d07e7d3c689"},"vehicle_type_id":"4","last_reported":1729019307,"current_range_meters":14800,"station_id":"ce4bhlh2rcd13ifvqgig","pricing_plan_id":"cebpf4jnsgd1na2vs0mg"},{"bike_id":"8267d345-b9eb-44d4-a745-a2c5c559390c","system_id":"levelo_inurba_marseille","lat":43.31237,"lon":5.38658,"is_reserved":false,"is_disabled":false,"rental_uris":{"android":"levelo://app?vid=8267d345-b9eb-44d4-a745-a2c5c559390c","ios":"levelo://app?vid=8267d345-b9eb-44d4-a745-a2c5c559390c"},"vehicle_type_id":"4","last_reported":1729019307,"current_range_meters":20400,"station_id":"","pricing_plan_id":"cebpf4jnsgd1na2vs0mg"},{"bike_id":"75ee2c98-9745-4c13-9bad-121108492cf6","system_id":"levelo_inurba_marseille","lat":43.2843,"lon":5.39188,"is_reserved":false,"is_disabled":false,"rental_uris":{"android":"levelo://app?vid=75ee2c98-9745-4c13-9bad-121108492cf6","ios":"levelo://app?vid=75ee2c98-9745-4c13-9bad-121108492cf6"},"vehicle_type_id":"4","last_reported":1729019307,"current_range_meters":10000,"station_id":"ce4bhoh2rcd13ifvqh5g","pricing_plan_id":"cebpf4jnsgd1na2vs0mg"},{"bike_id":"2e27b999-0e69-425d-9c42-718e8c04baec","system_id":"levelo_inurba_marseille","lat":43.28402,"lon":5.37515,"is_reserved":false,"is_disabled":false,"rental_uris":{"android":"levelo://app?vid=2e27b999-0e69-425d-9c42-718e8c04baec","ios":"levelo://app?vid=2e27b999-0e69-425d-9c42-718e8c04baec"},"vehicle_type_id":"4","last_reported":1729019307,"current_range_meters":25600,"station_id":"ce4bh412rcd13ifvqds0","pricing_plan_id":"cebpf4jnsgd1na2vs0mg"},{"bike_id":"1bae4104-feb2-4ff5-a21d-98e5f929332f","system_id":"levelo_inurba_marseille","lat":43.2804,"lon":5.36954,"is_reserved":false,"is_disabled":false,"rental_uris":{"android":"levelo://app?vid=1bae4104-feb2-4ff5-a21d-98e5f929332f","ios":"levelo://app?vid=1bae4104-feb2-4ff5-a21d-98e5f929332f"},"vehicle_type_id":"4","last_reported":1729019307,"current_range_meters":30000,"station_id":"ce4bha12rcd13ifvqef0","pricing_plan_id":"cebpf4jnsgd1na2vs0mg"},{"bike_id":"e084d3b6-fcfe-4f8b-9130-92054313ed0a","system_id":"levelo_inurba_marseille","lat":43.323,"lon":5.38524,"is_reserved":false,"is_disabled":false,"rental_uris":{"android":"levelo://app?vid=e084d3b6-fcfe-4f8b-9130-92054313ed0a","ios":"levelo://app?vid=e084d3b6-fcfe-4f8b-9130-92054313ed0a"},"vehicle_type_id":"4","last_reported":1729019307,"current_range_meters":4000,"station_id":"","pricing_plan_id":"cebpf4jnsgd1na2vs0mg"},{"bike_id":"87bfd9a1-d584-4acd-8bfc-d0e9e6fe105a","system_id":"levelo_inurba_marseille","lat":43.28285,"lon":5.38542,"is_reserved":false,"is_disabled":false,"rental_uris":{"android":"levelo://app?vid=87bfd9a1-d584-4acd-8bfc-d0e9e6fe105a","ios":"levelo://app?vid=87bfd9a1-d584-4acd-8bfc-d0e9e6fe105a"},"vehicle_type_id":"4","last_reported":1729019307,"current_range_meters":6400,"station_id":"","pricing_plan_id":"cebpf4jnsgd1na2vs0mg"},{"bike_id":"2140b6a3-5118-4150-823e-9225aeb56201","system_id":"levelo_inurba_marseille","lat":43.23195,"lon":5.3555,"is_reserved":false,"is_disabled":false,"rental_uris":{"android":"levelo://app?vid=2140b6a3-5118-4150-823e-9225aeb56201","ios":"levelo://app?vid=2140b6a3-5118-4150-823e-9225aeb56201"},"vehicle_type_id":"4","last_reported":1729019307,"current_range_meters":8400,"station_id":"ce4bhu92rcd13ifvqi70","pricing_plan_id":"cebpf4jnsgd1na2vs0mg"},{"bike_id":"e2bb86a8-c1b3-4d05-bc60-83d5670a4673","system_id":"levelo_inurba_marseille","lat":43.280762,"lon":5.396628,"is_reserved":false,"is_disabled":false,"rental_uris":{"android":"levelo://app?vid=e2bb86a8-c1b3-4d05-bc60-83d5670a4673","ios":"levelo://app?vid=e2bb86a8-c1b3-4d05-bc60-83d5670a4673"},"vehicle_type_id":"4","last_reported":1729019307,"current_range_meters":24000,"station_id":"ce4bho12rcd13ifvqh2g","pricing_plan_id":"cebpf4jnsgd1na2vs0mg"},{"bike_id":"d4785879-ae5b-4a2c-ad85-1c83f10c6ffb","system_id":"levelo_inurba_marseille","lat":43.2903,"lon":5.3832,"is_reserved":false,"is_disabled":false,"rental_uris":{"android":"levelo://app?vid=d4785879-ae5b-4a2c-ad85-1c83f10c6ffb","ios":"levelo://app?vid=d4785879-ae5b-4a2c-ad85-1c83f10c6ffb"},"vehicle_type_id":"4","last_reported":1729019307,"current_range_meters":15200,"station_id":"","pricing_plan_id":"cebpf4jnsgd1na2vs0mg"},{"bike_id":"3673efef-a16c-406b-8dc6-fa637b55cffa","system_id":"levelo_inurba_marseille","lat":43.28262,"lon":5.35069,"is_reserved":false,"is_disabled":false,"rental_uris":{"android":"levelo://app?vid=3673efef-a16c-406b-8dc6-fa637b55cffa","ios":"levelo://app?vid=3673efef-a16c-406b-8dc6-fa637b55cffa"},"vehicle_type_id":"4","last_reported":1729019307,"current_range_meters":39200,"station_id":"ce4bhbp2rcd13ifvqerg","pricing_plan_id":"cebpf4jnsgd1na2vs0mg"},{"bike_id":"52e37773-79c6-4443-94d6-5ed359faaaf0","system_id":"levelo_inurba_marseille","lat":43.28492,"lon":5.38441,"is_reserved":false,"is_disabled":false,"rental_uris":{"android":"levelo://app?vid=52e37773-79c6-4443-94d6-5ed359faaaf0","ios":"levelo://app?vid=52e37773-79c6-4443-94d6-5ed359faaaf0"},"vehicle_type_id":"4","last_reported":1729019307,"current_range_meters":24800,"station_id":"","pricing_plan_id":"cebpf4jnsgd1na2vs0mg"},{"bike_id":"2ef7640c-0ce7-4225-943a-0140a011a40d","system_id":"levelo_inurba_marseille","lat":43.2938,"lon":5.37242,"is_reserved":false,"is_disabled":false,"rental_uris":{"android":"levelo://app?vid=2ef7640c-0ce7-4225-943a-0140a011a40d","ios":"levelo://app?vid=2ef7640c-0ce7-4225-943a-0140a011a40d"},"vehicle_type_id":"4","last_reported":1729019307,"current_range_meters":37600,"station_id":"","pricing_plan_id":"cebpf4jnsgd1na2vs0mg"},{"bike_id":"5b2e016a-2c46-46e0-ad17-464457d6ea1e","system_id":"levelo_inurba_marseille","lat":43.32658,"lon":5.40999,"is_reserved":false,"is_disabled":false,"rental_uris":{"android":"levelo://app?vid=5b2e016a-2c46-46e0-ad17-464457d6ea1e","ios":"levelo://app?vid=5b2e016a-2c46-46e0-ad17-464457d6ea1e"},"vehicle_type_id":"4","last_reported":1729019307,"current_range_meters":1200,"station_id":"ce4bhpp2rcd13ifvqhgg","pricing_plan_id":"cebpf4jnsgd1na2vs0mg"},{"bike_id":"16d86b24-5049-45d5-a553-85c72028dc8b","system_id":"levelo_inurba_marseille","lat":43.306004,"lon":5.372303,"is_reserved":false,"is_disabled":false,"rental_uris":{"android":"levelo://app?vid=16d86b24-5049-45d5-a553-85c72028dc8b","ios":"levelo://app?vid=16d86b24-5049-45d5-a553-85c72028dc8b"},"vehicle_type_id":"4","last_reported":1729019307,"current_range_meters":32800,"station_id":"ce4bgqh2rcd13ifvqc4g","pricing_plan_id":"cebpf4jnsgd1na2vs0mg"},{"bike_id":"679f4f3c-0203-4f7d-9836-538010d8d024","system_id":"levelo_inurba_marseille","lat":43.2803,"lon":5.3694,"is_reserved":false,"is_disabled":false,"rental_uris":{"android":"levelo://app?vid=679f4f3c-0203-4f7d-9836-538010d8d024","ios":"levelo://app?vid=679f4f3c-0203-4f7d-9836-538010d8d024"},"vehicle_type_id":"4","last_reported":1729019307,"current_range_meters":38800,"station_id":"ce4bha12rcd13ifvqef0","pricing_plan_id":"cebpf4jnsgd1na2vs0mg"},{"bike_id":"b44ca85b-fffc-4654-8efe-b3d329e7c53e","system_id":"levelo_inurba_marseille","lat":43.28077,"lon":5.39659,"is_reserved":false,"is_disabled":false,"rental_uris":{"android":"levelo://app?vid=b44ca85b-fffc-4654-8efe-b3d329e7c53e","ios":"levelo://app?vid=b44ca85b-fffc-4654-8efe-b3d329e7c53e"},"vehicle_type_id":"4","last_reported":1729019307,"current_range_meters":16800,"station_id":"ce4bho12rcd13ifvqh2g","pricing_plan_id":"cebpf4jnsgd1na2vs0mg"},{"bike_id":"201da04e-42d7-4684-b45b-3b1376c30a1d","system_id":"levelo_inurba_marseille","lat":43.31118,"lon":5.37767,"is_reserved":false,"is_disabled":false,"rental_uris":{"android":"levelo://app?vid=201da04e-42d7-4684-b45b-3b1376c30a1d","ios":"levelo://app?vid=201da04e-42d7-4684-b45b-3b1376c30a1d"},"vehicle_type_id":"4","last_reported":1729019307,"current_range_meters":1600,"station_id":"ce4bgt92rcd13ifvqcg0","pricing_plan_id":"cebpf4jnsgd1na2vs0mg"},{"bike_id":"8c18e7a3-256d-4a3b-b531-a11dc24afda6","system_id":"levelo_inurba_marseille","lat":43.31996,"lon":5.38157,"is_reserved":false,"is_disabled":false,"rental_uris":{"android":"levelo://app?vid=8c18e7a3-256d-4a3b-b531-a11dc24afda6","ios":"levelo://app?vid=8c18e7a3-256d-4a3b-b531-a11dc24afda6"},"vehicle_type_id":"4","last_reported":1729019307,"current_range_meters":24400,"station_id":"ce4bhr12rcd13ifvqhpg","pricing_plan_id":"cebpf4jnsgd1na2vs0mg"},{"bike_id":"d08004cc-6f72-4c49-8d1e-2c6ae2f1b6a1","system_id":"levelo_inurba_marseille","lat":43.25492,"lon":5.37647,"is_reserved":false,"is_disabled":false,"rental_uris":{"android":"levelo://app?vid=d08004cc-6f72-4c49-8d1e-2c6ae2f1b6a1","ios":"levelo://app?vid=d08004cc-6f72-4c49-8d1e-2c6ae2f1b6a1"},"vehicle_type_id":"4","last_reported":1729019307,"current_range_meters":38400,"station_id":"ce4bhh12rcd13ifvqff0","pricing_plan_id":"cebpf4jnsgd1na2vs0mg"},{"bike_id":"37e1f7b9-12a7-444a-9ec8-690164efbd86","system_id":"levelo_inurba_marseille","lat":43.26556,"lon":5.37294,"is_reserved":false,"is_disabled":false,"rental_uris":{"android":"levelo://app?vid=37e1f7b9-12a7-444a-9ec8-690164efbd86","ios":"levelo://app?vid=37e1f7b9-12a7-444a-9ec8-690164efbd86"},"vehicle_type_id":"4","last_reported":1729019307,"current_range_meters":38800,"station_id":"ce4bhg12rcd13ifvqf70","pricing_plan_id":"cebpf4jnsgd1na2vs0mg"},{"bike_id":"89211ee2-076f-4df3-92bd-cd8885f2e76d","system_id":"levelo_inurba_marseille","lat":43.23194,"lon":5.35557,"is_reserved":false,"is_disabled":false,"rental_uris":{"android":"levelo://app?vid=89211ee2-076f-4df3-92bd-cd8885f2e76d","ios":"levelo://app?vid=89211ee2-076f-4df3-92bd-cd8885f2e76d"},"vehicle_type_id":"4","last_reported":1729019307,"current_range_meters":38800,"station_id":"ce4bhu92rcd13ifvqi70","pricing_plan_id":"cebpf4jnsgd1na2vs0mg"},{"bike_id":"9dabbb9f-2820-49db-acc7-73662a324005","system_id":"levelo_inurba_marseille","lat":43.3373,"lon":5.39193,"is_reserved":false,"is_disabled":false,"rental_uris":{"android":"levelo://app?vid=9dabbb9f-2820-49db-acc7-73662a324005","ios":"levelo://app?vid=9dabbb9f-2820-49db-acc7-73662a324005"},"vehicle_type_id":"4","last_reported":1729019307,"current_range_meters":36400,"station_id":"ce4bhr92rcd13ifvqhsg","pricing_plan_id":"cebpf4jnsgd1na2vs0mg"},{"bike_id":"f8278ac5-d1d7-48a6-8828-cd0ddbd5e94e","system_id":"levelo_inurba_marseille","lat":43.30804,"lon":5.43522,"is_reserved":false,"is_disabled":false,"rental_uris":{"android":"levelo://app?vid=f8278ac5-d1d7-48a6-8828-cd0ddbd5e94e","ios":"levelo://app?vid=f8278ac5-d1d7-48a6-8828-cd0ddbd5e94e"},"vehicle_type_id":"4","last_reported":1729019307,"current_range_meters":12400,"station_id":"ce4bhph2rcd13ifvqheg","pricing_plan_id":"cebpf4jnsgd1na2vs0mg"},{"bike_id":"7e7bca38-b362-4fb6-82aa-9ecb68ecc069","system_id":"levelo_inurba_marseille","lat":43.30787,"lon":5.37643,"is_reserved":false,"is_disabled":false,"rental_uris":{"android":"levelo://app?vid=7e7bca38-b362-4fb6-82aa-9ecb68ecc069","ios":"levelo://app?vid=7e7bca38-b362-4fb6-82aa-9ecb68ecc069"},"vehicle_type_id":"4","last_reported":1729019307,"current_range_meters":9200,"station_id":"ce4bgv92rcd13ifvqcq0","pricing_plan_id":"cebpf4jnsgd1na2vs0mg"},{"bike_id":"66a59ed7-420b-462d-a2a6-55562293706a","system_id":"levelo_inurba_marseille","lat":43.29619,"lon":5.37154,"is_reserved":false,"is_disabled":false,"rental_uris":{"android":"levelo://app?vid=66a59ed7-420b-462d-a2a6-55562293706a","ios":"levelo://app?vid=66a59ed7-420b-462d-a2a6-55562293706a"},"vehicle_type_id":"4","last_reported":1729019307,"current_range_meters":2800,"station_id":"ce4bgnh2rcd13ifvqc0g","pricing_plan_id":"cebpf4jnsgd1na2vs0mg"},{"bike_id":"cf823c89-d67b-4d3b-ba93-15b13c40af06","system_id":"levelo_inurba_marseille","lat":43.29031,"lon":5.38132,"is_reserved":false,"is_disabled":false,"rental_uris":{"android":"levelo://app?vid=cf823c89-d67b-4d3b-ba93-15b13c40af06","ios":"levelo://app?vid=cf823c89-d67b-4d3b-ba93-15b13c40af06"},"vehicle_type_id":"4","last_reported":1729019307,"current_range_meters":6800,"station_id":"ce4bh4p2rcd13ifvqe1g","pricing_plan_id":"cebpf4jnsgd1na2vs0mg"},{"bike_id":"9d4bab5e-1c54-4d3e-99f1-fbc1f46fff3f","system_id":"levelo_inurba_marseille","lat":43.28432,"lon":5.39211,"is_reserved":false,"is_disabled":false,"rental_uris":{"android":"levelo://app?vid=9d4bab5e-1c54-4d3e-99f1-fbc1f46fff3f","ios":"levelo://app?vid=9d4bab5e-1c54-4d3e-99f1-fbc1f46fff3f"},"vehicle_type_id":"4","last_reported":1729019307,"current_range_meters":36000,"station_id":"ce4bhoh2rcd13ifvqh5g","pricing_plan_id":"cebpf4jnsgd1na2vs0mg"},{"bike_id":"b6d06cff-ac1e-4ccb-bb13-38d6bd7afddf","system_id":"levelo_inurba_marseille","lat":43.28101,"lon":5.37835,"is_reserved":false,"is_disabled":false,"rental_uris":{"android":"levelo://app?vid=b6d06cff-ac1e-4ccb-bb13-38d6bd7afddf","ios":"levelo://app?vid=b6d06cff-ac1e-4ccb-bb13-38d6bd7afddf"},"vehicle_type_id":"4","last_reported":1729019307,"current_range_meters":38000,"station_id":"ce4bha12rcd13ifvqee0","pricing_plan_id":"cebpf4jnsgd1na2vs0mg"},{"bike_id":"bfe6236b-33bf-4eaa-8a74-a6587f86e48e","system_id":"levelo_inurba_marseille","lat":43.25821,"lon":5.3942,"is_reserved":false,"is_disabled":false,"rental_uris":{"android":"levelo://app?vid=bfe6236b-33bf-4eaa-8a74-a6587f86e48e","ios":"levelo://app?vid=bfe6236b-33bf-4eaa-8a74-a6587f86e48e"},"vehicle_type_id":"4","last_reported":1729019307,"current_range_meters":28000,"station_id":"ce4bhip2rcd13ifvqft0","pricing_plan_id":"cebpf4jnsgd1na2vs0mg"},{"bike_id":"1643d94e-1263-4403-ae53-d258057220f2","system_id":"levelo_inurba_marseille","lat":43.3133,"lon":5.39695,"is_reserved":false,"is_disabled":false,"rental_uris":{"android":"levelo://app?vid=1643d94e-1263-4403-ae53-d258057220f2","ios":"levelo://app?vid=1643d94e-1263-4403-ae53-d258057220f2"},"vehicle_type_id":"4","last_reported":1729019307,"current_range_meters":39200,"station_id":"ce4bgvp2rcd13ifvqcu0","pricing_plan_id":"cebpf4jnsgd1na2vs0mg"},{"bike_id":"faa18d53-4135-4ac2-bc40-06c958fe3cb1","system_id":"levelo_inurba_marseille","lat":43.30256,"lon":5.40072,"is_reserved":false,"is_disabled":false,"rental_uris":{"android":"levelo://app?vid=faa18d53-4135-4ac2-bc40-06c958fe3cb1","ios":"levelo://app?vid=faa18d53-4135-4ac2-bc40-06c958fe3cb1"},"vehicle_type_id":"4","last_reported":1729019307,"current_range_meters":38800,"station_id":"ce4bgvh2rcd13ifvqcs0","pricing_plan_id":"cebpf4jnsgd1na2vs0mg"},{"bike_id":"ff96eee3-1ac8-4888-9ae7-e4b6cc8154af","system_id":"levelo_inurba_marseille","lat":43.33739,"lon":5.3746,"is_reserved":false,"is_disabled":false,"rental_uris":{"android":"levelo://app?vid=ff96eee3-1ac8-4888-9ae7-e4b6cc8154af","ios":"levelo://app?vid=ff96eee3-1ac8-4888-9ae7-e4b6cc8154af"},"vehicle_type_id":"4","last_reported":1729019307,"current_range_meters":32800,"station_id":"","pricing_plan_id":"cebpf4jnsgd1na2vs0mg"},{"bike_id":"c641c84a-ced7-46c0-a059-1d87dfced3df","system_id":"levelo_inurba_marseille","lat":43.28152,"lon":5.42646,"is_reserved":false,"is_disabled":false,"rental_uris":{"android":"levelo://app?vid=c641c84a-ced7-46c0-a059-1d87dfced3df","ios":"levelo://app?vid=c641c84a-ced7-46c0-a059-1d87dfced3df"},"vehicle_type_id":"4","last_reported":1729019307,"current_range_meters":10000,"station_id":"ce4bhnh2rcd13ifvqgug","pricing_plan_id":"cebpf4jnsgd1na2vs0mg"},{"bike_id":"5d098c1b-4f61-4fa0-b5bf-29729894a9a0","system_id":"levelo_inurba_marseille","lat":43.3112,"lon":5.37777,"is_reserved":false,"is_disabled":false,"rental_uris":{"android":"levelo://app?vid=5d098c1b-4f61-4fa0-b5bf-29729894a9a0","ios":"levelo://app?vid=5d098c1b-4f61-4fa0-b5bf-29729894a9a0"},"vehicle_type_id":"4","last_reported":1729019307,"current_range_meters":32800,"station_id":"ce4bgt92rcd13ifvqcg0","pricing_plan_id":"cebpf4jnsgd1na2vs0mg"},{"bike_id":"e8202789-7ead-41ff-832d-0008c4681d53","system_id":"levelo_inurba_marseille","lat":43.30596,"lon":5.3935,"is_reserved":false,"is_disabled":false,"rental_uris":{"android":"levelo://app?vid=e8202789-7ead-41ff-832d-0008c4681d53","ios":"levelo://app?vid=e8202789-7ead-41ff-832d-0008c4681d53"},"vehicle_type_id":"4","last_reported":1729019307,"current_range_meters":34000,"station_id":"ce4bh0p2rcd13ifvqd80","pricing_plan_id":"cebpf4jnsgd1na2vs0mg"},{"bike_id":"518eae26-0512-481d-a6d0-d16cfd19fb16","system_id":"levelo_inurba_marseille","lat":43.27816,"lon":5.40717,"is_reserved":false,"is_disabled":false,"rental_uris":{"android":"levelo://app?vid=518eae26-0512-481d-a6d0-d16cfd19fb16","ios":"levelo://app?vid=518eae26-0512-481d-a6d0-d16cfd19fb16"},"vehicle_type_id":"4","last_reported":1729019307,"current_range_meters":11600,"station_id":"ce4bhnh2rcd13ifvqgtg","pricing_plan_id":"cebpf4jnsgd1na2vs0mg"},{"bike_id":"292b9425-1372-40d4-bf0a-fe57aa779a41","system_id":"levelo_inurba_marseille","lat":43.23063,"lon":5.35495,"is_reserved":false,"is_disabled":false,"rental_uris":{"android":"levelo://app?vid=292b9425-1372-40d4-bf0a-fe57aa779a41","ios":"levelo://app?vid=292b9425-1372-40d4-bf0a-fe57aa779a41"},"vehicle_type_id":"4","last_reported":1729019307,"current_range_meters":32000,"station_id":"cpo3342slgdg3j2ifvpg","pricing_plan_id":"cebpf4jnsgd1na2vs0mg"},{"bike_id":"1f74a76c-14d1-4dc1-b972-9ac6a70ef2fb","system_id":"levelo_inurba_marseille","lat":43.2917,"lon":5.37153,"is_reserved":false,"is_disabled":false,"rental_uris":{"android":"levelo://app?vid=1f74a76c-14d1-4dc1-b972-9ac6a70ef2fb","ios":"levelo://app?vid=1f74a76c-14d1-4dc1-b972-9ac6a70ef2fb"},"vehicle_type_id":"4","last_reported":1729019307,"current_range_meters":37600,"station_id":"ce4bha92rcd13ifvqeh0","pricing_plan_id":"cebpf4jnsgd1na2vs0mg"},{"bike_id":"1b6e7d7e-3afe-453b-b2e3-7aecbd9fbbb1","system_id":"levelo_inurba_marseille","lat":43.28035,"lon":5.36945,"is_reserved":false,"is_disabled":false,"rental_uris":{"android":"levelo://app?vid=1b6e7d7e-3afe-453b-b2e3-7aecbd9fbbb1","ios":"levelo://app?vid=1b6e7d7e-3afe-453b-b2e3-7aecbd9fbbb1"},"vehicle_type_id":"4","last_reported":1729019307,"current_range_meters":11600,"station_id":"ce4bha12rcd13ifvqef0","pricing_plan_id":"cebpf4jnsgd1na2vs0mg"},{"bike_id":"a1636881-5425-4211-a193-ac69af1c8de1","system_id":"levelo_inurba_marseille","lat":43.28072,"lon":5.39658,"is_reserved":false,"is_disabled":false,"rental_uris":{"android":"levelo://app?vid=a1636881-5425-4211-a193-ac69af1c8de1","ios":"levelo://app?vid=a1636881-5425-4211-a193-ac69af1c8de1"},"vehicle_type_id":"4","last_reported":1729019307,"current_range_meters":17600,"station_id":"ce4bho12rcd13ifvqh2g","pricing_plan_id":"cebpf4jnsgd1na2vs0mg"},{"bike_id":"1a970862-231e-43d6-a5e0-055fd6c24c3e","system_id":"levelo_inurba_marseille","lat":43.29279,"lon":5.4012,"is_reserved":false,"is_disabled":false,"rental_uris":{"android":"levelo://app?vid=1a970862-231e-43d6-a5e0-055fd6c24c3e","ios":"levelo://app?vid=1a970862-231e-43d6-a5e0-055fd6c24c3e"},"vehicle_type_id":"4","last_reported":1729019307,"current_range_meters":2000,"station_id":"ce4bh312rcd13ifvqdk0","pricing_plan_id":"cebpf4jnsgd1na2vs0mg"},{"bike_id":"1c2447f5-68f8-4804-8b11-d0cad5362315","system_id":"levelo_inurba_marseille","lat":43.30611,"lon":5.372302,"is_reserved":false,"is_disabled":false,"rental_uris":{"android":"levelo://app?vid=1c2447f5-68f8-4804-8b11-d0cad5362315","ios":"levelo://app?vid=1c2447f5-68f8-4804-8b11-d0cad5362315"},"vehicle_type_id":"4","last_reported":1729019307,"current_range_meters":4000,"station_id":"ce4bgqh2rcd13ifvqc4g","pricing_plan_id":"cebpf4jnsgd1na2vs0mg"},{"bike_id":"8e1d4e0d-5507-46d6-90b0-3fb646d87956","system_id":"levelo_inurba_marseille","lat":43.32656,"lon":5.40999,"is_reserved":false,"is_disabled":false,"rental_uris":{"android":"levelo://app?vid=8e1d4e0d-5507-46d6-90b0-3fb646d87956","ios":"levelo://app?vid=8e1d4e0d-5507-46d6-90b0-3fb646d87956"},"vehicle_type_id":"4","last_reported":1729019307,"current_range_meters":28400,"station_id":"ce4bhpp2rcd13ifvqhgg","pricing_plan_id":"cebpf4jnsgd1na2vs0mg"},{"bike_id":"8431a481-c417-49aa-bdfc-1cc97251a4cb","system_id":"levelo_inurba_marseille","lat":43.30214,"lon":5.3947,"is_reserved":false,"is_disabled":false,"rental_uris":{"android":"levelo://app?vid=8431a481-c417-49aa-bdfc-1cc97251a4cb","ios":"levelo://app?vid=8431a481-c417-49aa-bdfc-1cc97251a4cb"},"vehicle_type_id":"4","last_reported":1729019307,"current_range_meters":14000,"station_id":"ce4bh0p2rcd13ifvqd70","pricing_plan_id":"cebpf4jnsgd1na2vs0mg"},{"bike_id":"df7acb4d-6a30-48e5-9f4c-47c90a3a855e","system_id":"levelo_inurba_marseille","lat":43.28446,"lon":5.39183,"is_reserved":false,"is_disabled":false,"rental_uris":{"android":"levelo://app?vid=df7acb4d-6a30-48e5-9f4c-47c90a3a855e","ios":"levelo://app?vid=df7acb4d-6a30-48e5-9f4c-47c90a3a855e"},"vehicle_type_id":"4","last_reported":1729019307,"current_range_meters":28400,"station_id":"ce4bhoh2rcd13ifvqh5g","pricing_plan_id":"cebpf4jnsgd1na2vs0mg"},{"bike_id":"985c5bfe-efb4-483d-b988-cafdfca4fd3d","system_id":"levelo_inurba_marseille","lat":43.30129,"lon":5.38794,"is_reserved":false,"is_disabled":false,"rental_uris":{"android":"levelo://app?vid=985c5bfe-efb4-483d-b988-cafdfca4fd3d","ios":"levelo://app?vid=985c5bfe-efb4-483d-b988-cafdfca4fd3d"},"vehicle_type_id":"4","last_reported":1729019307,"current_range_meters":38800,"station_id":"ce4bghh2rcd13ifvqb60","pricing_plan_id":"cebpf4jnsgd1na2vs0mg"},{"bike_id":"d06f24f3-1961-4c39-8b26-c72733863fe9","system_id":"levelo_inurba_marseille","lat":43.33781,"lon":5.37443,"is_reserved":false,"is_disabled":false,"rental_uris":{"android":"levelo://app?vid=d06f24f3-1961-4c39-8b26-c72733863fe9","ios":"levelo://app?vid=d06f24f3-1961-4c39-8b26-c72733863fe9"},"vehicle_type_id":"4","last_reported":1729019307,"current_range_meters":23200,"station_id":"","pricing_plan_id":"cebpf4jnsgd1na2vs0mg"},{"bike_id":"8c78fcc7-d9fa-4b71-a4a0-30283435a597","system_id":"levelo_inurba_marseille","lat":43.287933,"lon":5.379476,"is_reserved":false,"is_disabled":false,"rental_uris":{"android":"levelo://app?vid=8c78fcc7-d9fa-4b71-a4a0-30283435a597","ios":"levelo://app?vid=8c78fcc7-d9fa-4b71-a4a0-30283435a597"},"vehicle_type_id":"4","last_reported":1729019307,"current_range_meters":35600,"station_id":"","pricing_plan_id":"cebpf4jnsgd1na2vs0mg"},{"bike_id":"9b9a397a-374c-44ac-8104-b775924b1706","system_id":"levelo_inurba_marseille","lat":43.31528,"lon":5.38032,"is_reserved":false,"is_disabled":false,"rental_uris":{"android":"levelo://app?vid=9b9a397a-374c-44ac-8104-b775924b1706","ios":"levelo://app?vid=9b9a397a-374c-44ac-8104-b775924b1706"},"vehicle_type_id":"4","last_reported":1729019307,"current_range_meters":6400,"station_id":"ce4bhsp2rcd13ifvqi50","pricing_plan_id":"cebpf4jnsgd1na2vs0mg"},{"bike_id":"4f1712a5-53a6-4922-be42-d162dd37a0f1","system_id":"levelo_inurba_marseille","lat":43.29441,"lon":5.39761,"is_reserved":false,"is_disabled":false,"rental_uris":{"android":"levelo://app?vid=4f1712a5-53a6-4922-be42-d162dd37a0f1","ios":"levelo://app?vid=4f1712a5-53a6-4922-be42-d162dd37a0f1"},"vehicle_type_id":"4","last_reported":1729019307,"current_range_meters":22400,"station_id":"ce4bh3h2rcd13ifvqdo0","pricing_plan_id":"cebpf4jnsgd1na2vs0mg"},{"bike_id":"d41309ab-1a1f-4395-acaa-455483c3f8e1","system_id":"levelo_inurba_marseille","lat":43.23195,"lon":5.3555,"is_reserved":false,"is_disabled":false,"rental_uris":{"android":"levelo://app?vid=d41309ab-1a1f-4395-acaa-455483c3f8e1","ios":"levelo://app?vid=d41309ab-1a1f-4395-acaa-455483c3f8e1"},"vehicle_type_id":"4","last_reported":1729019307,"current_range_meters":30800,"station_id":"ce4bhu92rcd13ifvqi70","pricing_plan_id":"cebpf4jnsgd1na2vs0mg"},{"bike_id":"75132e05-6043-4b4b-8feb-5c6575560faf","system_id":"levelo_inurba_marseille","lat":43.31121,"lon":5.37779,"is_reserved":false,"is_disabled":false,"rental_uris":{"android":"levelo://app?vid=75132e05-6043-4b4b-8feb-5c6575560faf","ios":"levelo://app?vid=75132e05-6043-4b4b-8feb-5c6575560faf"},"vehicle_type_id":"4","last_reported":1729019307,"current_range_meters":2800,"station_id":"ce4bgt92rcd13ifvqcg0","pricing_plan_id":"cebpf4jnsgd1na2vs0mg"},{"bike_id":"0a0f9e72-3044-45ae-b52f-f38de300ce0b","system_id":"levelo_inurba_marseille","lat":43.29972,"lon":5.38501,"is_reserved":false,"is_disabled":false,"rental_uris":{"android":"levelo://app?vid=0a0f9e72-3044-45ae-b52f-f38de300ce0b","ios":"levelo://app?vid=0a0f9e72-3044-45ae-b52f-f38de300ce0b"},"vehicle_type_id":"4","last_reported":1729019307,"current_range_meters":34000,"station_id":"ce4bgj92rcd13ifvqbd0","pricing_plan_id":"cebpf4jnsgd1na2vs0mg"},{"bike_id":"eef34e78-3fa9-471d-ae80-a21cf44ea2e8","system_id":"levelo_inurba_marseille","lat":43.31366,"lon":5.38492,"is_reserved":false,"is_disabled":false,"rental_uris":{"android":"levelo://app?vid=eef34e78-3fa9-471d-ae80-a21cf44ea2e8","ios":"levelo://app?vid=eef34e78-3fa9-471d-ae80-a21cf44ea2e8"},"vehicle_type_id":"4","last_reported":1729019307,"current_range_meters":23200,"station_id":"ce4bgt92rcd13ifvqcf0","pricing_plan_id":"cebpf4jnsgd1na2vs0mg"},{"bike_id":"f9090864-a36b-45b0-829c-85757d1c6432","system_id":"levelo_inurba_marseille","lat":43.247778,"lon":5.374446,"is_reserved":false,"is_disabled":false,"rental_uris":{"android":"levelo://app?vid=f9090864-a36b-45b0-829c-85757d1c6432","ios":"levelo://app?vid=f9090864-a36b-45b0-829c-85757d1c6432"},"vehicle_type_id":"4","last_reported":1729019307,"current_range_meters":7200,"station_id":"ce4bhgh2rcd13ifvqfb0","pricing_plan_id":"cebpf4jnsgd1na2vs0mg"},{"bike_id":"e9031e2b-7ef8-49aa-b3c5-d5cc824146a9","system_id":"levelo_inurba_marseille","lat":43.28154,"lon":5.4264,"is_reserved":false,"is_disabled":false,"rental_uris":{"android":"levelo://app?vid=e9031e2b-7ef8-49aa-b3c5-d5cc824146a9","ios":"levelo://app?vid=e9031e2b-7ef8-49aa-b3c5-d5cc824146a9"},"vehicle_type_id":"4","last_reported":1729019307,"current_range_meters":3200,"station_id":"ce4bhnh2rcd13ifvqgug","pricing_plan_id":"cebpf4jnsgd1na2vs0mg"},{"bike_id":"db72dde7-4d6b-4b56-93ca-e99535993fe8","system_id":"levelo_inurba_marseille","lat":43.29528,"lon":5.38547,"is_reserved":false,"is_disabled":false,"rental_uris":{"android":"levelo://app?vid=db72dde7-4d6b-4b56-93ca-e99535993fe8","ios":"levelo://app?vid=db72dde7-4d6b-4b56-93ca-e99535993fe8"},"vehicle_type_id":"4","last_reported":1729019307,"current_range_meters":33200,"station_id":"ce4bgih2rcd13ifvqba0","pricing_plan_id":"cebpf4jnsgd1na2vs0mg"},{"bike_id":"6217b40b-2848-4264-8791-fa392e4e0dcf","system_id":"levelo_inurba_marseille","lat":43.30102,"lon":5.39085,"is_reserved":false,"is_disabled":false,"rental_uris":{"android":"levelo://app?vid=6217b40b-2848-4264-8791-fa392e4e0dcf","ios":"levelo://app?vid=6217b40b-2848-4264-8791-fa392e4e0dcf"},"vehicle_type_id":"4","last_reported":1729019307,"current_range_meters":12800,"station_id":"ce4bh192rcd13ifvqdb0","pricing_plan_id":"cebpf4jnsgd1na2vs0mg"},{"bike_id":"5e7cdf88-ee24-4eb1-9550-a73a044afc00","system_id":"levelo_inurba_marseille","lat":43.30317,"lon":5.3921,"is_reserved":false,"is_disabled":false,"rental_uris":{"android":"levelo://app?vid=5e7cdf88-ee24-4eb1-9550-a73a044afc00","ios":"levelo://app?vid=5e7cdf88-ee24-4eb1-9550-a73a044afc00"},"vehicle_type_id":"4","last_reported":1729019307,"current_range_meters":31200,"station_id":"ce4bgkh2rcd13ifvqbk0","pricing_plan_id":"cebpf4jnsgd1na2vs0mg"},{"bike_id":"966757e2-67f3-4d10-b8ac-3a83eb5852c8","system_id":"levelo_inurba_marseille","lat":43.3133,"lon":5.39688,"is_reserved":false,"is_disabled":false,"rental_uris":{"android":"levelo://app?vid=966757e2-67f3-4d10-b8ac-3a83eb5852c8","ios":"levelo://app?vid=966757e2-67f3-4d10-b8ac-3a83eb5852c8"},"vehicle_type_id":"4","last_reported":1729019307,"current_range_meters":22000,"station_id":"ce4bgvp2rcd13ifvqcu0","pricing_plan_id":"cebpf4jnsgd1na2vs0mg"},{"bike_id":"1af2813b-98a0-4b62-aaf8-89652b30f639","system_id":"levelo_inurba_marseille","lat":43.22933,"lon":5.35381,"is_reserved":false,"is_disabled":false,"rental_uris":{"android":"levelo://app?vid=1af2813b-98a0-4b62-aaf8-89652b30f639","ios":"levelo://app?vid=1af2813b-98a0-4b62-aaf8-89652b30f639"},"vehicle_type_id":"4","last_reported":1729019307,"current_range_meters":28400,"station_id":"cpo3532slgdg3j2ikp40","pricing_plan_id":"cebpf4jnsgd1na2vs0mg"},{"bike_id":"c5af4ecd-4e19-4991-8d5d-6c1027d6164f","system_id":"levelo_inurba_marseille","lat":43.30798,"lon":5.4353,"is_reserved":false,"is_disabled":false,"rental_uris":{"android":"levelo://app?vid=c5af4ecd-4e19-4991-8d5d-6c1027d6164f","ios":"levelo://app?vid=c5af4ecd-4e19-4991-8d5d-6c1027d6164f"},"vehicle_type_id":"4","last_reported":1729019307,"current_range_meters":16000,"station_id":"ce4bhph2rcd13ifvqheg","pricing_plan_id":"cebpf4jnsgd1na2vs0mg"},{"bike_id":"f93454e1-a669-4c63-a4ca-b572042c7971","system_id":"levelo_inurba_marseille","lat":43.23192,"lon":5.35558,"is_reserved":false,"is_disabled":false,"rental_uris":{"android":"levelo://app?vid=f93454e1-a669-4c63-a4ca-b572042c7971","ios":"levelo://app?vid=f93454e1-a669-4c63-a4ca-b572042c7971"},"vehicle_type_id":"4","last_reported":1729019307,"current_range_meters":24400,"station_id":"ce4bhu92rcd13ifvqi70","pricing_plan_id":"cebpf4jnsgd1na2vs0mg"},{"bike_id":"9e46c557-7322-4d69-9988-a664faab2e45","system_id":"levelo_inurba_marseille","lat":43.24545,"lon":5.39524,"is_reserved":false,"is_disabled":false,"rental_uris":{"android":"levelo://app?vid=9e46c557-7322-4d69-9988-a664faab2e45","ios":"levelo://app?vid=9e46c557-7322-4d69-9988-a664faab2e45"},"vehicle_type_id":"4","last_reported":1729019307,"current_range_meters":11200,"station_id":"ce4bhlp2rcd13ifvqgjg","pricing_plan_id":"cebpf4jnsgd1na2vs0mg"},{"bike_id":"98b975db-f3c1-46a3-8772-b55623a3d438","system_id":"levelo_inurba_marseille","lat":43.25106,"lon":5.40325,"is_reserved":false,"is_disabled":false,"rental_uris":{"android":"levelo://app?vid=98b975db-f3c1-46a3-8772-b55623a3d438","ios":"levelo://app?vid=98b975db-f3c1-46a3-8772-b55623a3d438"},"vehicle_type_id":"4","last_reported":1729019307,"current_range_meters":1200,"station_id":"ce4bhlh2rcd13ifvqgig","pricing_plan_id":"cebpf4jnsgd1na2vs0mg"},{"bike_id":"c7fe9f72-46fa-4809-82b0-be9205b47911","system_id":"levelo_inurba_marseille","lat":43.28434,"lon":5.39184,"is_reserved":false,"is_disabled":false,"rental_uris":{"android":"levelo://app?vid=c7fe9f72-46fa-4809-82b0-be9205b47911","ios":"levelo://app?vid=c7fe9f72-46fa-4809-82b0-be9205b47911"},"vehicle_type_id":"4","last_reported":1729019307,"current_range_meters":36000,"station_id":"ce4bhoh2rcd13ifvqh5g","pricing_plan_id":"cebpf4jnsgd1na2vs0mg"},{"bike_id":"36ee70d2-23be-4443-8fa7-e10dfd6f5c62","system_id":"levelo_inurba_marseille","lat":43.29599,"lon":5.381109,"is_reserved":false,"is_disabled":false,"rental_uris":{"android":"levelo://app?vid=36ee70d2-23be-4443-8fa7-e10dfd6f5c62","ios":"levelo://app?vid=36ee70d2-23be-4443-8fa7-e10dfd6f5c62"},"vehicle_type_id":"4","last_reported":1729019307,"current_range_meters":4800,"station_id":"ce4bhf92rcd13ifvqf50","pricing_plan_id":"cebpf4jnsgd1na2vs0mg"},{"bike_id":"e4871b44-e714-485e-94a9-9f225940e2dc","system_id":"levelo_inurba_marseille","lat":43.28045,"lon":5.36951,"is_reserved":false,"is_disabled":false,"rental_uris":{"android":"levelo://app?vid=e4871b44-e714-485e-94a9-9f225940e2dc","ios":"levelo://app?vid=e4871b44-e714-485e-94a9-9f225940e2dc"},"vehicle_type_id":"4","last_reported":1729019307,"current_range_meters":38800,"station_id":"ce4bha12rcd13ifvqef0","pricing_plan_id":"cebpf4jnsgd1na2vs0mg"},{"bike_id":"571ea329-32e9-4604-b87c-11d33dee6fac","system_id":"levelo_inurba_marseille","lat":43.31324,"lon":5.39693,"is_reserved":false,"is_disabled":false,"rental_uris":{"android":"levelo://app?vid=571ea329-32e9-4604-b87c-11d33dee6fac","ios":"levelo://app?vid=571ea329-32e9-4604-b87c-11d33dee6fac"},"vehicle_type_id":"4","last_reported":1729019307,"current_range_meters":27600,"station_id":"ce4bgvp2rcd13ifvqcu0","pricing_plan_id":"cebpf4jnsgd1na2vs0mg"},{"bike_id":"167a3dcd-afcd-457e-8998-67360ace43c0","system_id":"levelo_inurba_marseille","lat":43.3375,"lon":5.37436,"is_reserved":false,"is_disabled":false,"rental_uris":{"android":"levelo://app?vid=167a3dcd-afcd-457e-8998-67360ace43c0","ios":"levelo://app?vid=167a3dcd-afcd-457e-8998-67360ace43c0"},"vehicle_type_id":"4","last_reported":1729019307,"current_range_meters":33200,"station_id":"","pricing_plan_id":"cebpf4jnsgd1na2vs0mg"},{"bike_id":"4b9f4b9f-650a-4d48-8f59-654031d992cc","system_id":"levelo_inurba_marseille","lat":43.3132,"lon":5.39697,"is_reserved":false,"is_disabled":false,"rental_uris":{"android":"levelo://app?vid=4b9f4b9f-650a-4d48-8f59-654031d992cc","ios":"levelo://app?vid=4b9f4b9f-650a-4d48-8f59-654031d992cc"},"vehicle_type_id":"4","last_reported":1729019307,"current_range_meters":38800,"station_id":"ce4bgvp2rcd13ifvqcu0","pricing_plan_id":"cebpf4jnsgd1na2vs0mg"},{"bike_id":"eb7cb3e4-775d-414d-9fb0-af646f85021e","system_id":"levelo_inurba_marseille","lat":43.2903,"lon":5.38641,"is_reserved":false,"is_disabled":false,"rental_uris":{"android":"levelo://app?vid=eb7cb3e4-775d-414d-9fb0-af646f85021e","ios":"levelo://app?vid=eb7cb3e4-775d-414d-9fb0-af646f85021e"},"vehicle_type_id":"4","last_reported":1729019307,"current_range_meters":10000,"station_id":"ce4bh4p2rcd13ifvqe0g","pricing_plan_id":"cebpf4jnsgd1na2vs0mg"},{"bike_id":"0a13627f-8e1a-4b7a-9526-1e3cb70f56e1","system_id":"levelo_inurba_marseille","lat":43.30922,"lon":5.40159,"is_reserved":false,"is_disabled":false,"rental_uris":{"android":"levelo://app?vid=0a13627f-8e1a-4b7a-9526-1e3cb70f56e1","ios":"levelo://app?vid=0a13627f-8e1a-4b7a-9526-1e3cb70f56e1"},"vehicle_type_id":"4","last_reported":1729019307,"current_range_meters":4000,"station_id":"ce4bgvp2rcd13ifvqct0","pricing_plan_id":"cebpf4jnsgd1na2vs0mg"},{"bike_id":"2ae7cb6e-e949-4f32-b410-0e62af4ecc02","system_id":"levelo_inurba_marseille","lat":43.23185,"lon":5.39979,"is_reserved":false,"is_disabled":false,"rental_uris":{"android":"levelo://app?vid=2ae7cb6e-e949-4f32-b410-0e62af4ecc02","ios":"levelo://app?vid=2ae7cb6e-e949-4f32-b410-0e62af4ecc02"},"vehicle_type_id":"4","last_reported":1729019307,"current_range_meters":30800,"station_id":"ce4bhn12rcd13ifvqgqg","pricing_plan_id":"cebpf4jnsgd1na2vs0mg"},{"bike_id":"d0b06fe2-4e24-454b-8cab-da62e6dcc068","system_id":"levelo_inurba_marseille","lat":43.32292,"lon":5.38261,"is_reserved":false,"is_disabled":false,"rental_uris":{"android":"levelo://app?vid=d0b06fe2-4e24-454b-8cab-da62e6dcc068","ios":"levelo://app?vid=d0b06fe2-4e24-454b-8cab-da62e6dcc068"},"vehicle_type_id":"4","last_reported":1729019307,"current_range_meters":38000,"station_id":"ce4bhr12rcd13ifvqhqg","pricing_plan_id":"cebpf4jnsgd1na2vs0mg"},{"bike_id":"09b06658-645c-4a83-9f73-471b8ff3dbe6","system_id":"levelo_inurba_marseille","lat":43.32342,"lon":5.40615,"is_reserved":false,"is_disabled":false,"rental_uris":{"android":"levelo://app?vid=09b06658-645c-4a83-9f73-471b8ff3dbe6","ios":"levelo://app?vid=09b06658-645c-4a83-9f73-471b8ff3dbe6"},"vehicle_type_id":"4","last_reported":1729019307,"current_range_meters":22400,"station_id":"ce4bhq92rcd13ifvqhjg","pricing_plan_id":"cebpf4jnsgd1na2vs0mg"},{"bike_id":"1b87c42d-7c50-4b92-8a66-53344aea6fcd","system_id":"levelo_inurba_marseille","lat":43.29896,"lon":5.4367,"is_reserved":false,"is_disabled":false,"rental_uris":{"android":"levelo://app?vid=1b87c42d-7c50-4b92-8a66-53344aea6fcd","ios":"levelo://app?vid=1b87c42d-7c50-4b92-8a66-53344aea6fcd"},"vehicle_type_id":"4","last_reported":1729019307,"current_range_meters":26800,"station_id":"ce4bhpp2rcd13ifvqhfg","pricing_plan_id":"cebpf4jnsgd1na2vs0mg"},{"bike_id":"176c51f8-dbe6-4a14-9671-48f1da4ce89a","system_id":"levelo_inurba_marseille","lat":43.28032,"lon":5.36951,"is_reserved":false,"is_disabled":false,"rental_uris":{"android":"levelo://app?vid=176c51f8-dbe6-4a14-9671-48f1da4ce89a","ios":"levelo://app?vid=176c51f8-dbe6-4a14-9671-48f1da4ce89a"},"vehicle_type_id":"4","last_reported":1729019307,"current_range_meters":6800,"station_id":"ce4bha12rcd13ifvqef0","pricing_plan_id":"cebpf4jnsgd1na2vs0mg"},{"bike_id":"14c3ea2b-316f-469b-a4ce-50979b65f541","system_id":"levelo_inurba_marseille","lat":43.28707,"lon":5.39994,"is_reserved":false,"is_disabled":false,"rental_uris":{"android":"levelo://app?vid=14c3ea2b-316f-469b-a4ce-50979b65f541","ios":"levelo://app?vid=14c3ea2b-316f-469b-a4ce-50979b65f541"},"vehicle_type_id":"4","last_reported":1729019307,"current_range_meters":10000,"station_id":"ce4bho92rcd13ifvqh3g","pricing_plan_id":"cebpf4jnsgd1na2vs0mg"},{"bike_id":"24d35238-2fa7-4fd0-873f-edfdf1f33d95","system_id":"levelo_inurba_marseille","lat":43.31758,"lon":5.42326,"is_reserved":false,"is_disabled":false,"rental_uris":{"android":"levelo://app?vid=24d35238-2fa7-4fd0-873f-edfdf1f33d95","ios":"levelo://app?vid=24d35238-2fa7-4fd0-873f-edfdf1f33d95"},"vehicle_type_id":"4","last_reported":1729019307,"current_range_meters":38000,"station_id":"ce4bhp92rcd13ifvqhbg","pricing_plan_id":"cebpf4jnsgd1na2vs0mg"},{"bike_id":"018b3299-bac3-4e4f-8787-ed481b860dca","system_id":"levelo_inurba_marseille","lat":43.31167,"lon":5.38729,"is_reserved":false,"is_disabled":false,"rental_uris":{"android":"levelo://app?vid=018b3299-bac3-4e4f-8787-ed481b860dca","ios":"levelo://app?vid=018b3299-bac3-4e4f-8787-ed481b860dca"},"vehicle_type_id":"4","last_reported":1729019307,"current_range_meters":19600,"station_id":"ce4bgv12rcd13ifvqcp0","pricing_plan_id":"cebpf4jnsgd1na2vs0mg"},{"bike_id":"f4a35381-3d0c-4801-bd6d-7b3f956fc11a","system_id":"levelo_inurba_marseille","lat":43.27058,"lon":5.40267,"is_reserved":false,"is_disabled":false,"rental_uris":{"android":"levelo://app?vid=f4a35381-3d0c-4801-bd6d-7b3f956fc11a","ios":"levelo://app?vid=f4a35381-3d0c-4801-bd6d-7b3f956fc11a"},"vehicle_type_id":"4","last_reported":1729019307,"current_range_meters":16000,"station_id":"ce4bhk92rcd13ifvqgc0","pricing_plan_id":"cebpf4jnsgd1na2vs0mg"},{"bike_id":"98a13127-6314-4815-86a3-8f85424734ce","system_id":"levelo_inurba_marseille","lat":43.26189,"lon":5.37451,"is_reserved":false,"is_disabled":false,"rental_uris":{"android":"levelo://app?vid=98a13127-6314-4815-86a3-8f85424734ce","ios":"levelo://app?vid=98a13127-6314-4815-86a3-8f85424734ce"},"vehicle_type_id":"4","last_reported":1729019307,"current_range_meters":38800,"station_id":"ce4bhgp2rcd13ifvqfc0","pricing_plan_id":"cebpf4jnsgd1na2vs0mg"},{"bike_id":"ec118f6a-fcc0-41a9-94fc-dd12b675b87d","system_id":"levelo_inurba_marseille","lat":43.31318,"lon":5.39703,"is_reserved":false,"is_disabled":false,"rental_uris":{"android":"levelo://app?vid=ec118f6a-fcc0-41a9-94fc-dd12b675b87d","ios":"levelo://app?vid=ec118f6a-fcc0-41a9-94fc-dd12b675b87d"},"vehicle_type_id":"4","last_reported":1729019307,"current_range_meters":38800,"station_id":"ce4bgvp2rcd13ifvqcu0","pricing_plan_id":"cebpf4jnsgd1na2vs0mg"},{"bike_id":"c94d3112-017a-46fc-86b5-6a58beef3113","system_id":"levelo_inurba_marseille","lat":43.31752,"lon":5.39016,"is_reserved":false,"is_disabled":false,"rental_uris":{"android":"levelo://app?vid=c94d3112-017a-46fc-86b5-6a58beef3113","ios":"levelo://app?vid=c94d3112-017a-46fc-86b5-6a58beef3113"},"vehicle_type_id":"4","last_reported":1729019307,"current_range_meters":38800,"station_id":"ce4bhqp2rcd13ifvqhng","pricing_plan_id":"cebpf4jnsgd1na2vs0mg"},{"bike_id":"25558d23-8bdd-423d-93ed-0efd27f5ab96","system_id":"levelo_inurba_marseille","lat":43.2848,"lon":5.38553,"is_reserved":false,"is_disabled":false,"rental_uris":{"android":"levelo://app?vid=25558d23-8bdd-423d-93ed-0efd27f5ab96","ios":"levelo://app?vid=25558d23-8bdd-423d-93ed-0efd27f5ab96"},"vehicle_type_id":"4","last_reported":1729019307,"current_range_meters":37600,"station_id":"ce4bh8p2rcd13ifvqeb0","pricing_plan_id":"cebpf4jnsgd1na2vs0mg"},{"bike_id":"f269126c-1b0b-4a1a-a1d6-f8c3716f5336","system_id":"levelo_inurba_marseille","lat":43.23197,"lon":5.35554,"is_reserved":false,"is_disabled":false,"rental_uris":{"android":"levelo://app?vid=f269126c-1b0b-4a1a-a1d6-f8c3716f5336","ios":"levelo://app?vid=f269126c-1b0b-4a1a-a1d6-f8c3716f5336"},"vehicle_type_id":"4","last_reported":1729019307,"current_range_meters":31200,"station_id":"ce4bhu92rcd13ifvqi70","pricing_plan_id":"cebpf4jnsgd1na2vs0mg"},{"bike_id":"ee132cdf-7579-4798-836a-6bd50ec89b45","system_id":"levelo_inurba_marseille","lat":43.28615,"lon":5.35108,"is_reserved":false,"is_disabled":false,"rental_uris":{"android":"levelo://app?vid=ee132cdf-7579-4798-836a-6bd50ec89b45","ios":"levelo://app?vid=ee132cdf-7579-4798-836a-6bd50ec89b45"},"vehicle_type_id":"4","last_reported":1729019307,"current_range_meters":16800,"station_id":"ce4bhch2rcd13ifvqeug","pricing_plan_id":"cebpf4jnsgd1na2vs0mg"},{"bike_id":"3064e5e9-de54-44b9-9eb7-6c03ac9cf33b","system_id":"levelo_inurba_marseille","lat":43.33023,"lon":5.39044,"is_reserved":false,"is_disabled":false,"rental_uris":{"android":"levelo://app?vid=3064e5e9-de54-44b9-9eb7-6c03ac9cf33b","ios":"levelo://app?vid=3064e5e9-de54-44b9-9eb7-6c03ac9cf33b"},"vehicle_type_id":"4","last_reported":1729019307,"current_range_meters":39200,"station_id":"ce4bhr92rcd13ifvqhrg","pricing_plan_id":"cebpf4jnsgd1na2vs0mg"},{"bike_id":"ad0c8759-91fa-4349-ab0b-2116c63bf559","system_id":"levelo_inurba_marseille","lat":43.3032,"lon":5.39209,"is_reserved":false,"is_disabled":false,"rental_uris":{"android":"levelo://app?vid=ad0c8759-91fa-4349-ab0b-2116c63bf559","ios":"levelo://app?vid=ad0c8759-91fa-4349-ab0b-2116c63bf559"},"vehicle_type_id":"4","last_reported":1729019307,"current_range_meters":28000,"station_id":"ce4bgkh2rcd13ifvqbk0","pricing_plan_id":"cebpf4jnsgd1na2vs0mg"},{"bike_id":"b6a13d35-57ac-4d7b-b87a-4e69f460021d","system_id":"levelo_inurba_marseille","lat":43.33723,"lon":5.39181,"is_reserved":false,"is_disabled":false,"rental_uris":{"android":"levelo://app?vid=b6a13d35-57ac-4d7b-b87a-4e69f460021d","ios":"levelo://app?vid=b6a13d35-57ac-4d7b-b87a-4e69f460021d"},"vehicle_type_id":"4","last_reported":1729019307,"current_range_meters":17600,"station_id":"ce4bhr92rcd13ifvqhsg","pricing_plan_id":"cebpf4jnsgd1na2vs0mg"},{"bike_id":"94d48054-be54-488d-a425-2deb433f452c","system_id":"levelo_inurba_marseille","lat":43.29802,"lon":5.36445,"is_reserved":false,"is_disabled":false,"rental_uris":{"android":"levelo://app?vid=94d48054-be54-488d-a425-2deb433f452c","ios":"levelo://app?vid=94d48054-be54-488d-a425-2deb433f452c"},"vehicle_type_id":"4","last_reported":1729019307,"current_range_meters":24000,"station_id":"ce4bgnh2rcd13ifvqc0g","pricing_plan_id":"cebpf4jnsgd1na2vs0mg"},{"bike_id":"592cb529-9947-425c-a74b-0252578fcfe7","system_id":"levelo_inurba_marseille","lat":43.28615,"lon":5.35112,"is_reserved":false,"is_disabled":false,"rental_uris":{"android":"levelo://app?vid=592cb529-9947-425c-a74b-0252578fcfe7","ios":"levelo://app?vid=592cb529-9947-425c-a74b-0252578fcfe7"},"vehicle_type_id":"4","last_reported":1729019307,"current_range_meters":32400,"station_id":"ce4bhch2rcd13ifvqeug","pricing_plan_id":"cebpf4jnsgd1na2vs0mg"},{"bike_id":"9645dc6d-bd7c-41ba-b741-da969e8d4140","system_id":"levelo_inurba_marseille","lat":43.26805,"lon":5.40275,"is_reserved":false,"is_disabled":false,"rental_uris":{"android":"levelo://app?vid=9645dc6d-bd7c-41ba-b741-da969e8d4140","ios":"levelo://app?vid=9645dc6d-bd7c-41ba-b741-da969e8d4140"},"vehicle_type_id":"4","last_reported":1729019307,"current_range_meters":26000,"station_id":"ce501612rcd8frsf0b60","pricing_plan_id":"cebpf4jnsgd1na2vs0mg"},{"bike_id":"863e02b2-e242-4d69-972c-822413a373ef","system_id":"levelo_inurba_marseille","lat":43.291,"lon":5.39349,"is_reserved":false,"is_disabled":false,"rental_uris":{"android":"levelo://app?vid=863e02b2-e242-4d69-972c-822413a373ef","ios":"levelo://app?vid=863e02b2-e242-4d69-972c-822413a373ef"},"vehicle_type_id":"4","last_reported":1729019307,"current_range_meters":20000,"station_id":"ce4bh3h2rcd13ifvqdn0","pricing_plan_id":"cebpf4jnsgd1na2vs0mg"},{"bike_id":"1616c9ce-4d58-4b41-a0ce-686df9d6f698","system_id":"levelo_inurba_marseille","lat":43.27814,"lon":5.40726,"is_reserved":false,"is_disabled":false,"rental_uris":{"android":"levelo://app?vid=1616c9ce-4d58-4b41-a0ce-686df9d6f698","ios":"levelo://app?vid=1616c9ce-4d58-4b41-a0ce-686df9d6f698"},"vehicle_type_id":"4","last_reported":1729019307,"current_range_meters":17600,"station_id":"ce4bhnh2rcd13ifvqgtg","pricing_plan_id":"cebpf4jnsgd1na2vs0mg"},{"bike_id":"47aad419-1e35-49b5-a22d-b89c2caf87fc","system_id":"levelo_inurba_marseille","lat":43.28931,"lon":5.3664,"is_reserved":false,"is_disabled":false,"rental_uris":{"android":"levelo://app?vid=47aad419-1e35-49b5-a22d-b89c2caf87fc","ios":"levelo://app?vid=47aad419-1e35-49b5-a22d-b89c2caf87fc"},"vehicle_type_id":"4","last_reported":1729019307,"current_range_meters":16400,"station_id":"ce4bhap2rcd13ifvqek0","pricing_plan_id":"cebpf4jnsgd1na2vs0mg"},{"bike_id":"5733b1f7-5fa2-499b-811b-2dba7a37ff2b","system_id":"levelo_inurba_marseille","lat":43.29597,"lon":5.381045,"is_reserved":false,"is_disabled":false,"rental_uris":{"android":"levelo://app?vid=5733b1f7-5fa2-499b-811b-2dba7a37ff2b","ios":"levelo://app?vid=5733b1f7-5fa2-499b-811b-2dba7a37ff2b"},"vehicle_type_id":"4","last_reported":1729019307,"current_range_meters":26800,"station_id":"ce4bgl12rcd13ifvqbo0","pricing_plan_id":"cebpf4jnsgd1na2vs0mg"},{"bike_id":"2f647198-b0d5-462e-b4e6-a2f227fd334e","system_id":"levelo_inurba_marseille","lat":43.29094,"lon":5.38152,"is_reserved":false,"is_disabled":false,"rental_uris":{"android":"levelo://app?vid=2f647198-b0d5-462e-b4e6-a2f227fd334e","ios":"levelo://app?vid=2f647198-b0d5-462e-b4e6-a2f227fd334e"},"vehicle_type_id":"4","last_reported":1729019307,"current_range_meters":17200,"station_id":"ce4bh512rcd13ifvqe2g","pricing_plan_id":"cebpf4jnsgd1na2vs0mg"},{"bike_id":"eca5c077-4a7c-4af8-a26f-d0b957acc9dd","system_id":"levelo_inurba_marseille","lat":43.32293,"lon":5.38265,"is_reserved":false,"is_disabled":false,"rental_uris":{"android":"levelo://app?vid=eca5c077-4a7c-4af8-a26f-d0b957acc9dd","ios":"levelo://app?vid=eca5c077-4a7c-4af8-a26f-d0b957acc9dd"},"vehicle_type_id":"4","last_reported":1729019307,"current_range_meters":35200,"station_id":"ce4bhr12rcd13ifvqhqg","pricing_plan_id":"cebpf4jnsgd1na2vs0mg"},{"bike_id":"0e41df3a-0ace-488c-be65-6a9fd2305448","system_id":"levelo_inurba_marseille","lat":43.33756,"lon":5.37448,"is_reserved":false,"is_disabled":false,"rental_uris":{"android":"levelo://app?vid=0e41df3a-0ace-488c-be65-6a9fd2305448","ios":"levelo://app?vid=0e41df3a-0ace-488c-be65-6a9fd2305448"},"vehicle_type_id":"4","last_reported":1729019307,"current_range_meters":33600,"station_id":"","pricing_plan_id":"cebpf4jnsgd1na2vs0mg"},{"bike_id":"dcd1cdff-be0e-4121-b662-6b068cdd32aa","system_id":"levelo_inurba_marseille","lat":43.29517,"lon":5.3941,"is_reserved":false,"is_disabled":false,"rental_uris":{"android":"levelo://app?vid=dcd1cdff-be0e-4121-b662-6b068cdd32aa","ios":"levelo://app?vid=dcd1cdff-be0e-4121-b662-6b068cdd32aa"},"vehicle_type_id":"4","last_reported":1729019307,"current_range_meters":0,"station_id":"ce4bh292rcd13ifvqdf0","pricing_plan_id":"cebpf4jnsgd1na2vs0mg"},{"bike_id":"ea22812b-eeb3-4df4-b579-91edf1da4541","system_id":"levelo_inurba_marseille","lat":43.30313,"lon":5.39212,"is_reserved":false,"is_disabled":false,"rental_uris":{"android":"levelo://app?vid=ea22812b-eeb3-4df4-b579-91edf1da4541","ios":"levelo://app?vid=ea22812b-eeb3-4df4-b579-91edf1da4541"},"vehicle_type_id":"4","last_reported":1729019307,"current_range_meters":34000,"station_id":"ce4bgkh2rcd13ifvqbk0","pricing_plan_id":"cebpf4jnsgd1na2vs0mg"},{"bike_id":"8c5071c8-07b0-4889-acf2-9d404ac5c408","system_id":"levelo_inurba_marseille","lat":43.25083,"lon":5.39525,"is_reserved":false,"is_disabled":false,"rental_uris":{"android":"levelo://app?vid=8c5071c8-07b0-4889-acf2-9d404ac5c408","ios":"levelo://app?vid=8c5071c8-07b0-4889-acf2-9d404ac5c408"},"vehicle_type_id":"4","last_reported":1729019307,"current_range_meters":6000,"station_id":"ce4bhm12rcd13ifvqgkg","pricing_plan_id":"cebpf4jnsgd1na2vs0mg"},{"bike_id":"3f1c159c-d37b-4e8a-ae8c-e506cb896f7a","system_id":"levelo_inurba_marseille","lat":43.30785,"lon":5.37656,"is_reserved":false,"is_disabled":false,"rental_uris":{"android":"levelo://app?vid=3f1c159c-d37b-4e8a-ae8c-e506cb896f7a","ios":"levelo://app?vid=3f1c159c-d37b-4e8a-ae8c-e506cb896f7a"},"vehicle_type_id":"4","last_reported":1729019307,"current_range_meters":39200,"station_id":"ce4bgv92rcd13ifvqcq0","pricing_plan_id":"cebpf4jnsgd1na2vs0mg"},{"bike_id":"82575f8d-4baf-4c57-9d13-df62f1e20796","system_id":"levelo_inurba_marseille","lat":43.31359,"lon":5.38496,"is_reserved":false,"is_disabled":false,"rental_uris":{"android":"levelo://app?vid=82575f8d-4baf-4c57-9d13-df62f1e20796","ios":"levelo://app?vid=82575f8d-4baf-4c57-9d13-df62f1e20796"},"vehicle_type_id":"4","last_reported":1729019307,"current_range_meters":36800,"station_id":"ce4bgt92rcd13ifvqcf0","pricing_plan_id":"cebpf4jnsgd1na2vs0mg"},{"bike_id":"f562fb83-7f77-4395-a5a0-76a5bed2154c","system_id":"levelo_inurba_marseille","lat":43.2619,"lon":5.37451,"is_reserved":false,"is_disabled":false,"rental_uris":{"android":"levelo://app?vid=f562fb83-7f77-4395-a5a0-76a5bed2154c","ios":"levelo://app?vid=f562fb83-7f77-4395-a5a0-76a5bed2154c"},"vehicle_type_id":"4","last_reported":1729019307,"current_range_meters":38800,"station_id":"ce4bhgp2rcd13ifvqfc0","pricing_plan_id":"cebpf4jnsgd1na2vs0mg"},{"bike_id":"20e157b9-e3ea-4f3e-932a-40a73d4d2734","system_id":"levelo_inurba_marseille","lat":43.23186,"lon":5.39983,"is_reserved":false,"is_disabled":false,"rental_uris":{"android":"levelo://app?vid=20e157b9-e3ea-4f3e-932a-40a73d4d2734","ios":"levelo://app?vid=20e157b9-e3ea-4f3e-932a-40a73d4d2734"},"vehicle_type_id":"4","last_reported":1729019307,"current_range_meters":9600,"station_id":"ce4bhn12rcd13ifvqgqg","pricing_plan_id":"cebpf4jnsgd1na2vs0mg"},{"bike_id":"e7838990-26eb-492c-ac63-2a965bc41037","system_id":"levelo_inurba_marseille","lat":43.32269,"lon":5.38933,"is_reserved":false,"is_disabled":false,"rental_uris":{"android":"levelo://app?vid=e7838990-26eb-492c-ac63-2a965bc41037","ios":"levelo://app?vid=e7838990-26eb-492c-ac63-2a965bc41037"},"vehicle_type_id":"4","last_reported":1729019307,"current_range_meters":19600,"station_id":"","pricing_plan_id":"cebpf4jnsgd1na2vs0mg"},{"bike_id":"ffbc6c31-5cd0-4ab5-bd6d-1fdfbde77aac","system_id":"levelo_inurba_marseille","lat":43.28035,"lon":5.36953,"is_reserved":false,"is_disabled":false,"rental_uris":{"android":"levelo://app?vid=ffbc6c31-5cd0-4ab5-bd6d-1fdfbde77aac","ios":"levelo://app?vid=ffbc6c31-5cd0-4ab5-bd6d-1fdfbde77aac"},"vehicle_type_id":"4","last_reported":1729019307,"current_range_meters":39200,"station_id":"ce4bha12rcd13ifvqef0","pricing_plan_id":"cebpf4jnsgd1na2vs0mg"},{"bike_id":"bc4299d7-911c-4f3d-90ec-2ce7da0e21d3","system_id":"levelo_inurba_marseille","lat":43.27673,"lon":5.38881,"is_reserved":false,"is_disabled":false,"rental_uris":{"android":"levelo://app?vid=bc4299d7-911c-4f3d-90ec-2ce7da0e21d3","ios":"levelo://app?vid=bc4299d7-911c-4f3d-90ec-2ce7da0e21d3"},"vehicle_type_id":"4","last_reported":1729019307,"current_range_meters":8000,"station_id":"ce4bhi12rcd13ifvqfo0","pricing_plan_id":"cebpf4jnsgd1na2vs0mg"},{"bike_id":"fde0861d-5903-4349-8580-cb92782273ea","system_id":"levelo_inurba_marseille","lat":43.26215,"lon":5.37446,"is_reserved":false,"is_disabled":false,"rental_uris":{"android":"levelo://app?vid=fde0861d-5903-4349-8580-cb92782273ea","ios":"levelo://app?vid=fde0861d-5903-4349-8580-cb92782273ea"},"vehicle_type_id":"4","last_reported":1729019307,"current_range_meters":38800,"station_id":"ce4bhgp2rcd13ifvqfc0","pricing_plan_id":"cebpf4jnsgd1na2vs0mg"},{"bike_id":"6ed80952-27fa-4112-bdd0-484f62b1fe60","system_id":"levelo_inurba_marseille","lat":43.28059,"lon":5.40983,"is_reserved":false,"is_disabled":false,"rental_uris":{"android":"levelo://app?vid=6ed80952-27fa-4112-bdd0-484f62b1fe60","ios":"levelo://app?vid=6ed80952-27fa-4112-bdd0-484f62b1fe60"},"vehicle_type_id":"4","last_reported":1729019307,"current_range_meters":14400,"station_id":"","pricing_plan_id":"cebpf4jnsgd1na2vs0mg"},{"bike_id":"1b5795e9-268a-4cac-8032-ec4ad6269f71","system_id":"levelo_inurba_marseille","lat":43.29898,"lon":5.43671,"is_reserved":false,"is_disabled":false,"rental_uris":{"android":"levelo://app?vid=1b5795e9-268a-4cac-8032-ec4ad6269f71","ios":"levelo://app?vid=1b5795e9-268a-4cac-8032-ec4ad6269f71"},"vehicle_type_id":"4","last_reported":1729019307,"current_range_meters":16800,"station_id":"ce4bhpp2rcd13ifvqhfg","pricing_plan_id":"cebpf4jnsgd1na2vs0mg"},{"bike_id":"7d09d183-a8fd-4fe8-b09e-94b89ecfe287","system_id":"levelo_inurba_marseille","lat":43.28657,"lon":5.36355,"is_reserved":false,"is_disabled":false,"rental_uris":{"android":"levelo://app?vid=7d09d183-a8fd-4fe8-b09e-94b89ecfe287","ios":"levelo://app?vid=7d09d183-a8fd-4fe8-b09e-94b89ecfe287"},"vehicle_type_id":"4","last_reported":1729019307,"current_range_meters":12400,"station_id":"ce4bhah2rcd13ifvqej0","pricing_plan_id":"cebpf4jnsgd1na2vs0mg"},{"bike_id":"016befcc-61e6-4d7d-b4de-fdf53e3ffb4c","system_id":"levelo_inurba_marseille","lat":43.310883,"lon":5.387168,"is_reserved":false,"is_disabled":false,"rental_uris":{"android":"levelo://app?vid=016befcc-61e6-4d7d-b4de-fdf53e3ffb4c","ios":"levelo://app?vid=016befcc-61e6-4d7d-b4de-fdf53e3ffb4c"},"vehicle_type_id":"4","last_reported":1729019307,"current_range_meters":38400,"station_id":"ce4bgv12rcd13ifvqcp0","pricing_plan_id":"cebpf4jnsgd1na2vs0mg"},{"bike_id":"438d82c1-59b1-4634-9130-fdc0b28892f6","system_id":"levelo_inurba_marseille","lat":43.296173,"lon":5.377156,"is_reserved":false,"is_disabled":false,"rental_uris":{"android":"levelo://app?vid=438d82c1-59b1-4634-9130-fdc0b28892f6","ios":"levelo://app?vid=438d82c1-59b1-4634-9130-fdc0b28892f6"},"vehicle_type_id":"4","last_reported":1729019307,"current_range_meters":37600,"station_id":"ce4bgi92rcd13ifvqb90","pricing_plan_id":"cebpf4jnsgd1na2vs0mg"},{"bike_id":"a1e0278e-920e-4eea-a381-891331e8e403","system_id":"levelo_inurba_marseille","lat":43.23197,"lon":5.35542,"is_reserved":false,"is_disabled":false,"rental_uris":{"android":"levelo://app?vid=a1e0278e-920e-4eea-a381-891331e8e403","ios":"levelo://app?vid=a1e0278e-920e-4eea-a381-891331e8e403"},"vehicle_type_id":"4","last_reported":1729019307,"current_range_meters":4800,"station_id":"ce4bhu92rcd13ifvqi70","pricing_plan_id":"cebpf4jnsgd1na2vs0mg"},{"bike_id":"7a8e0a09-ca26-460c-8554-31ae1a232d51","system_id":"levelo_inurba_marseille","lat":43.30593,"lon":5.39365,"is_reserved":false,"is_disabled":false,"rental_uris":{"android":"levelo://app?vid=7a8e0a09-ca26-460c-8554-31ae1a232d51","ios":"levelo://app?vid=7a8e0a09-ca26-460c-8554-31ae1a232d51"},"vehicle_type_id":"4","last_reported":1729019307,"current_range_meters":27200,"station_id":"ce4bh0p2rcd13ifvqd80","pricing_plan_id":"cebpf4jnsgd1na2vs0mg"},{"bike_id":"40a9f07f-a092-4d6c-a7c6-e193177b62a1","system_id":"levelo_inurba_marseille","lat":43.25717,"lon":5.38237,"is_reserved":false,"is_disabled":false,"rental_uris":{"android":"levelo://app?vid=40a9f07f-a092-4d6c-a7c6-e193177b62a1","ios":"levelo://app?vid=40a9f07f-a092-4d6c-a7c6-e193177b62a1"},"vehicle_type_id":"4","last_reported":1729019307,"current_range_meters":10000,"station_id":"ce4bhih2rcd13ifvqfs0","pricing_plan_id":"cebpf4jnsgd1na2vs0mg"},{"bike_id":"c5d0ce2f-1b61-4b20-8242-0f68203ad5c9","system_id":"levelo_inurba_marseille","lat":43.29874,"lon":5.38907,"is_reserved":false,"is_disabled":false,"rental_uris":{"android":"levelo://app?vid=c5d0ce2f-1b61-4b20-8242-0f68203ad5c9","ios":"levelo://app?vid=c5d0ce2f-1b61-4b20-8242-0f68203ad5c9"},"vehicle_type_id":"4","last_reported":1729019307,"current_range_meters":4000,"station_id":"ce4bh392rcd13ifvqdl0","pricing_plan_id":"cebpf4jnsgd1na2vs0mg"},{"bike_id":"b50f5257-4726-4db7-a03f-3d1ff62574e7","system_id":"levelo_inurba_marseille","lat":43.25213,"lon":5.38224,"is_reserved":false,"is_disabled":false,"rental_uris":{"android":"levelo://app?vid=b50f5257-4726-4db7-a03f-3d1ff62574e7","ios":"levelo://app?vid=b50f5257-4726-4db7-a03f-3d1ff62574e7"},"vehicle_type_id":"4","last_reported":1729019307,"current_range_meters":16000,"station_id":"","pricing_plan_id":"cebpf4jnsgd1na2vs0mg"},{"bike_id":"07bda010-c52e-42a3-a851-9b62d25aa1e9","system_id":"levelo_inurba_marseille","lat":43.281,"lon":5.37834,"is_reserved":false,"is_disabled":false,"rental_uris":{"android":"levelo://app?vid=07bda010-c52e-42a3-a851-9b62d25aa1e9","ios":"levelo://app?vid=07bda010-c52e-42a3-a851-9b62d25aa1e9"},"vehicle_type_id":"4","last_reported":1729019307,"current_range_meters":17600,"station_id":"ce4bha12rcd13ifvqee0","pricing_plan_id":"cebpf4jnsgd1na2vs0mg"},{"bike_id":"6f0c9c5e-2b73-4c0f-8f08-7518984c623b","system_id":"levelo_inurba_marseille","lat":43.30951,"lon":5.39034,"is_reserved":false,"is_disabled":false,"rental_uris":{"android":"levelo://app?vid=6f0c9c5e-2b73-4c0f-8f08-7518984c623b","ios":"levelo://app?vid=6f0c9c5e-2b73-4c0f-8f08-7518984c623b"},"vehicle_type_id":"4","last_reported":1729019307,"current_range_meters":7200,"station_id":"ce4bgup2rcd13ifvqco0","pricing_plan_id":"cebpf4jnsgd1na2vs0mg"},{"bike_id":"a95591e8-c1eb-4083-b1d7-e07c05658633","system_id":"levelo_inurba_marseille","lat":43.29789,"lon":5.38088,"is_reserved":false,"is_disabled":false,"rental_uris":{"android":"levelo://app?vid=a95591e8-c1eb-4083-b1d7-e07c05658633","ios":"levelo://app?vid=a95591e8-c1eb-4083-b1d7-e07c05658633"},"vehicle_type_id":"4","last_reported":1729019307,"current_range_meters":32800,"station_id":"ce4bgip2rcd13ifvqbb0","pricing_plan_id":"cebpf4jnsgd1na2vs0mg"},{"bike_id":"aac6eaa9-e707-4d18-a05c-9abf731fbd63","system_id":"levelo_inurba_marseille","lat":43.31614,"lon":5.38933,"is_reserved":false,"is_disabled":false,"rental_uris":{"android":"levelo://app?vid=aac6eaa9-e707-4d18-a05c-9abf731fbd63","ios":"levelo://app?vid=aac6eaa9-e707-4d18-a05c-9abf731fbd63"},"vehicle_type_id":"4","last_reported":1729019307,"current_range_meters":14000,"station_id":"","pricing_plan_id":"cebpf4jnsgd1na2vs0mg"},{"bike_id":"4eefa1ec-0d89-406a-9ba6-ab04341864b0","system_id":"levelo_inurba_marseille","lat":43.23196,"lon":5.35548,"is_reserved":false,"is_disabled":false,"rental_uris":{"android":"levelo://app?vid=4eefa1ec-0d89-406a-9ba6-ab04341864b0","ios":"levelo://app?vid=4eefa1ec-0d89-406a-9ba6-ab04341864b0"},"vehicle_type_id":"4","last_reported":1729019307,"current_range_meters":38800,"station_id":"ce4bhu92rcd13ifvqi70","pricing_plan_id":"cebpf4jnsgd1na2vs0mg"},{"bike_id":"9277531d-dfd2-44cd-a688-ca3f7088f9d0","system_id":"levelo_inurba_marseille","lat":43.22931,"lon":5.35378,"is_reserved":false,"is_disabled":false,"rental_uris":{"android":"levelo://app?vid=9277531d-dfd2-44cd-a688-ca3f7088f9d0","ios":"levelo://app?vid=9277531d-dfd2-44cd-a688-ca3f7088f9d0"},"vehicle_type_id":"4","last_reported":1729019307,"current_range_meters":8400,"station_id":"cpo3532slgdg3j2ikp40","pricing_plan_id":"cebpf4jnsgd1na2vs0mg"},{"bike_id":"5121818d-6aa4-461f-9c9e-6a3bab7273d0","system_id":"levelo_inurba_marseille","lat":43.28575,"lon":5.39503,"is_reserved":false,"is_disabled":false,"rental_uris":{"android":"levelo://app?vid=5121818d-6aa4-461f-9c9e-6a3bab7273d0","ios":"levelo://app?vid=5121818d-6aa4-461f-9c9e-6a3bab7273d0"},"vehicle_type_id":"4","last_reported":1729019307,"current_range_meters":38800,"station_id":"ce4bh292rcd13ifvqdg0","pricing_plan_id":"cebpf4jnsgd1na2vs0mg"},{"bike_id":"745cb2d4-2172-480a-b892-f555e08e7589","system_id":"levelo_inurba_marseille","lat":43.337444,"lon":5.374475,"is_reserved":false,"is_disabled":false,"rental_uris":{"android":"levelo://app?vid=745cb2d4-2172-480a-b892-f555e08e7589","ios":"levelo://app?vid=745cb2d4-2172-480a-b892-f555e08e7589"},"vehicle_type_id":"4","last_reported":1729019307,"current_range_meters":35200,"station_id":"","pricing_plan_id":"cebpf4jnsgd1na2vs0mg"},{"bike_id":"92a108ac-2914-418a-a021-530e3f2b9cef","system_id":"levelo_inurba_marseille","lat":43.28438,"lon":5.3919,"is_reserved":false,"is_disabled":false,"rental_uris":{"android":"levelo://app?vid=92a108ac-2914-418a-a021-530e3f2b9cef","ios":"levelo://app?vid=92a108ac-2914-418a-a021-530e3f2b9cef"},"vehicle_type_id":"4","last_reported":1729019307,"current_range_meters":7200,"station_id":"ce4bhoh2rcd13ifvqh5g","pricing_plan_id":"cebpf4jnsgd1na2vs0mg"},{"bike_id":"60a228b9-87fa-462a-a071-f77a48b3f8f5","system_id":"levelo_inurba_marseille","lat":43.30801,"lon":5.43527,"is_reserved":false,"is_disabled":false,"rental_uris":{"android":"levelo://app?vid=60a228b9-87fa-462a-a071-f77a48b3f8f5","ios":"levelo://app?vid=60a228b9-87fa-462a-a071-f77a48b3f8f5"},"vehicle_type_id":"4","last_reported":1729019307,"current_range_meters":30000,"station_id":"ce4bhph2rcd13ifvqheg","pricing_plan_id":"cebpf4jnsgd1na2vs0mg"},{"bike_id":"cb1cca68-1a1c-4245-b2a6-989ee4e1e92a","system_id":"levelo_inurba_marseille","lat":43.32471,"lon":5.36557,"is_reserved":false,"is_disabled":false,"rental_uris":{"android":"levelo://app?vid=cb1cca68-1a1c-4245-b2a6-989ee4e1e92a","ios":"levelo://app?vid=cb1cca68-1a1c-4245-b2a6-989ee4e1e92a"},"vehicle_type_id":"4","last_reported":1729019307,"current_range_meters":6800,"station_id":"ce4bhs12rcd13ifvqhvg","pricing_plan_id":"cebpf4jnsgd1na2vs0mg"},{"bike_id":"a414be7f-f344-4180-b6e4-d8ad4c88980c","system_id":"levelo_inurba_marseille","lat":43.28012,"lon":5.40015,"is_reserved":false,"is_disabled":false,"rental_uris":{"android":"levelo://app?vid=a414be7f-f344-4180-b6e4-d8ad4c88980c","ios":"levelo://app?vid=a414be7f-f344-4180-b6e4-d8ad4c88980c"},"vehicle_type_id":"4","last_reported":1729019307,"current_range_meters":2800,"station_id":"ce4bho92rcd13ifvqh4g","pricing_plan_id":"cebpf4jnsgd1na2vs0mg"},{"bike_id":"7666ea56-5d9d-4f7c-8c15-f1d95221d9cf","system_id":"levelo_inurba_marseille","lat":43.2319,"lon":5.35547,"is_reserved":false,"is_disabled":false,"rental_uris":{"android":"levelo://app?vid=7666ea56-5d9d-4f7c-8c15-f1d95221d9cf","ios":"levelo://app?vid=7666ea56-5d9d-4f7c-8c15-f1d95221d9cf"},"vehicle_type_id":"4","last_reported":1729019307,"current_range_meters":2000,"station_id":"ce4bhu92rcd13ifvqi70","pricing_plan_id":"cebpf4jnsgd1na2vs0mg"},{"bike_id":"4e96ccf7-4074-4512-af75-3dd6b0ecdbfc","system_id":"levelo_inurba_marseille","lat":43.28265,"lon":5.35075,"is_reserved":false,"is_disabled":false,"rental_uris":{"android":"levelo://app?vid=4e96ccf7-4074-4512-af75-3dd6b0ecdbfc","ios":"levelo://app?vid=4e96ccf7-4074-4512-af75-3dd6b0ecdbfc"},"vehicle_type_id":"4","last_reported":1729019307,"current_range_meters":38800,"station_id":"ce4bhbp2rcd13ifvqerg","pricing_plan_id":"cebpf4jnsgd1na2vs0mg"},{"bike_id":"f9ce6141-84d3-4a94-9cf1-33b69bef009c","system_id":"levelo_inurba_marseille","lat":43.28079,"lon":5.39662,"is_reserved":false,"is_disabled":false,"rental_uris":{"android":"levelo://app?vid=f9ce6141-84d3-4a94-9cf1-33b69bef009c","ios":"levelo://app?vid=f9ce6141-84d3-4a94-9cf1-33b69bef009c"},"vehicle_type_id":"4","last_reported":1729019307,"current_range_meters":33200,"station_id":"ce4bho12rcd13ifvqh2g","pricing_plan_id":"cebpf4jnsgd1na2vs0mg"},{"bike_id":"09268049-4d4e-4d44-8416-19c46244721a","system_id":"levelo_inurba_marseille","lat":43.288387,"lon":5.357253,"is_reserved":false,"is_disabled":false,"rental_uris":{"android":"levelo://app?vid=09268049-4d4e-4d44-8416-19c46244721a","ios":"levelo://app?vid=09268049-4d4e-4d44-8416-19c46244721a"},"vehicle_type_id":"4","last_reported":1729019307,"current_range_meters":33200,"station_id":"","pricing_plan_id":"cebpf4jnsgd1na2vs0mg"},{"bike_id":"9ea85893-107f-4ac1-ab0f-383a1d208f14","system_id":"levelo_inurba_marseille","lat":43.31078,"lon":5.38361,"is_reserved":false,"is_disabled":false,"rental_uris":{"android":"levelo://app?vid=9ea85893-107f-4ac1-ab0f-383a1d208f14","ios":"levelo://app?vid=9ea85893-107f-4ac1-ab0f-383a1d208f14"},"vehicle_type_id":"4","last_reported":1729019307,"current_range_meters":5600,"station_id":"ce4bgv92rcd13ifvqcr0","pricing_plan_id":"cebpf4jnsgd1na2vs0mg"},{"bike_id":"701787a2-c740-44e8-a9ca-421ce17cae8c","system_id":"levelo_inurba_marseille","lat":43.29427,"lon":5.3976,"is_reserved":false,"is_disabled":false,"rental_uris":{"android":"levelo://app?vid=701787a2-c740-44e8-a9ca-421ce17cae8c","ios":"levelo://app?vid=701787a2-c740-44e8-a9ca-421ce17cae8c"},"vehicle_type_id":"4","last_reported":1729019307,"current_range_meters":6800,"station_id":"ce4bh3h2rcd13ifvqdo0","pricing_plan_id":"cebpf4jnsgd1na2vs0mg"},{"bike_id":"78787e0b-898e-476e-87b2-6bf72e20b669","system_id":"levelo_inurba_marseille","lat":43.28447,"lon":5.392,"is_reserved":false,"is_disabled":false,"rental_uris":{"android":"levelo://app?vid=78787e0b-898e-476e-87b2-6bf72e20b669","ios":"levelo://app?vid=78787e0b-898e-476e-87b2-6bf72e20b669"},"vehicle_type_id":"4","last_reported":1729019307,"current_range_meters":17200,"station_id":"ce4bhoh2rcd13ifvqh5g","pricing_plan_id":"cebpf4jnsgd1na2vs0mg"},{"bike_id":"605fd007-fa4d-44d1-bcb3-9d83e65d0994","system_id":"levelo_inurba_marseille","lat":43.33699,"lon":5.37418,"is_reserved":false,"is_disabled":false,"rental_uris":{"android":"levelo://app?vid=605fd007-fa4d-44d1-bcb3-9d83e65d0994","ios":"levelo://app?vid=605fd007-fa4d-44d1-bcb3-9d83e65d0994"},"vehicle_type_id":"4","last_reported":1729019307,"current_range_meters":12400,"station_id":"","pricing_plan_id":"cebpf4jnsgd1na2vs0mg"},{"bike_id":"6f0d6442-6807-44dd-a668-ab09f2f58ffd","system_id":"levelo_inurba_marseille","lat":43.28033,"lon":5.36941,"is_reserved":false,"is_disabled":false,"rental_uris":{"android":"levelo://app?vid=6f0d6442-6807-44dd-a668-ab09f2f58ffd","ios":"levelo://app?vid=6f0d6442-6807-44dd-a668-ab09f2f58ffd"},"vehicle_type_id":"4","last_reported":1729019307,"current_range_meters":35600,"station_id":"ce4bha12rcd13ifvqef0","pricing_plan_id":"cebpf4jnsgd1na2vs0mg"},{"bike_id":"a44d0449-ddf7-447f-89a3-faa488b33d2c","system_id":"levelo_inurba_marseille","lat":43.22967,"lon":5.40028,"is_reserved":false,"is_disabled":false,"rental_uris":{"android":"levelo://app?vid=a44d0449-ddf7-447f-89a3-faa488b33d2c","ios":"levelo://app?vid=a44d0449-ddf7-447f-89a3-faa488b33d2c"},"vehicle_type_id":"4","last_reported":1729019307,"current_range_meters":5600,"station_id":"ce4bhn12rcd13ifvqgqg","pricing_plan_id":"cebpf4jnsgd1na2vs0mg"},{"bike_id":"de980a61-0806-49f4-9802-6fa92a819dee","system_id":"levelo_inurba_marseille","lat":43.23179,"lon":5.39995,"is_reserved":false,"is_disabled":false,"rental_uris":{"android":"levelo://app?vid=de980a61-0806-49f4-9802-6fa92a819dee","ios":"levelo://app?vid=de980a61-0806-49f4-9802-6fa92a819dee"},"vehicle_type_id":"4","last_reported":1729019307,"current_range_meters":8000,"station_id":"ce4bhn12rcd13ifvqgqg","pricing_plan_id":"cebpf4jnsgd1na2vs0mg"},{"bike_id":"c486dd84-dddb-4383-9b49-d3ff8158038d","system_id":"levelo_inurba_marseille","lat":43.32293,"lon":5.38268,"is_reserved":false,"is_disabled":false,"rental_uris":{"android":"levelo://app?vid=c486dd84-dddb-4383-9b49-d3ff8158038d","ios":"levelo://app?vid=c486dd84-dddb-4383-9b49-d3ff8158038d"},"vehicle_type_id":"4","last_reported":1729019307,"current_range_meters":24400,"station_id":"ce4bhr12rcd13ifvqhqg","pricing_plan_id":"cebpf4jnsgd1na2vs0mg"},{"bike_id":"84c778f0-98b4-4058-bfb6-85b8c1f04b8e","system_id":"levelo_inurba_marseille","lat":43.3372,"lon":5.39183,"is_reserved":false,"is_disabled":false,"rental_uris":{"android":"levelo://app?vid=84c778f0-98b4-4058-bfb6-85b8c1f04b8e","ios":"levelo://app?vid=84c778f0-98b4-4058-bfb6-85b8c1f04b8e"},"vehicle_type_id":"4","last_reported":1729019307,"current_range_meters":38000,"station_id":"ce4bhr92rcd13ifvqhsg","pricing_plan_id":"cebpf4jnsgd1na2vs0mg"},{"bike_id":"beb1fc18-f1fa-438e-ae81-8c849af956af","system_id":"levelo_inurba_marseille","lat":43.23181,"lon":5.39988,"is_reserved":false,"is_disabled":false,"rental_uris":{"android":"levelo://app?vid=beb1fc18-f1fa-438e-ae81-8c849af956af","ios":"levelo://app?vid=beb1fc18-f1fa-438e-ae81-8c849af956af"},"vehicle_type_id":"4","last_reported":1729019307,"current_range_meters":39200,"station_id":"ce4bhn12rcd13ifvqgqg","pricing_plan_id":"cebpf4jnsgd1na2vs0mg"},{"bike_id":"a296e5e9-061c-4eb7-af89-b41e9dc7d736","system_id":"levelo_inurba_marseille","lat":43.301141,"lon":5.398416,"is_reserved":false,"is_disabled":false,"rental_uris":{"android":"levelo://app?vid=a296e5e9-061c-4eb7-af89-b41e9dc7d736","ios":"levelo://app?vid=a296e5e9-061c-4eb7-af89-b41e9dc7d736"},"vehicle_type_id":"4","last_reported":1729019307,"current_range_meters":8800,"station_id":"ce4bh0h2rcd13ifvqd40","pricing_plan_id":"cebpf4jnsgd1na2vs0mg"},{"bike_id":"9a8cbec4-09d6-4abb-a44a-2e31e2661cad","system_id":"levelo_inurba_marseille","lat":43.294403,"lon":5.397515,"is_reserved":false,"is_disabled":false,"rental_uris":{"android":"levelo://app?vid=9a8cbec4-09d6-4abb-a44a-2e31e2661cad","ios":"levelo://app?vid=9a8cbec4-09d6-4abb-a44a-2e31e2661cad"},"vehicle_type_id":"4","last_reported":1729019307,"current_range_meters":20000,"station_id":"ce4bh3h2rcd13ifvqdo0","pricing_plan_id":"cebpf4jnsgd1na2vs0mg"},{"bike_id":"86c7d0b6-dcfb-4664-8548-6855ea738e59","system_id":"levelo_inurba_marseille","lat":43.3171,"lon":5.43701,"is_reserved":false,"is_disabled":false,"rental_uris":{"android":"levelo://app?vid=86c7d0b6-dcfb-4664-8548-6855ea738e59","ios":"levelo://app?vid=86c7d0b6-dcfb-4664-8548-6855ea738e59"},"vehicle_type_id":"4","last_reported":1729019307,"current_range_meters":18000,"station_id":"ce4bhp92rcd13ifvqhcg","pricing_plan_id":"cebpf4jnsgd1na2vs0mg"},{"bike_id":"d7d71ce7-18f0-41a1-bb9d-53a95a2e30e9","system_id":"levelo_inurba_marseille","lat":43.29637,"lon":5.38698,"is_reserved":false,"is_disabled":false,"rental_uris":{"android":"levelo://app?vid=d7d71ce7-18f0-41a1-bb9d-53a95a2e30e9","ios":"levelo://app?vid=d7d71ce7-18f0-41a1-bb9d-53a95a2e30e9"},"vehicle_type_id":"4","last_reported":1729019307,"current_range_meters":35200,"station_id":"","pricing_plan_id":"cebpf4jnsgd1na2vs0mg"},{"bike_id":"2c1cba84-59cc-4f92-abbc-ae09eac03ccf","system_id":"levelo_inurba_marseille","lat":43.30951,"lon":5.3903,"is_reserved":false,"is_disabled":false,"rental_uris":{"android":"levelo://app?vid=2c1cba84-59cc-4f92-abbc-ae09eac03ccf","ios":"levelo://app?vid=2c1cba84-59cc-4f92-abbc-ae09eac03ccf"},"vehicle_type_id":"4","last_reported":1729019307,"current_range_meters":17600,"station_id":"ce4bgup2rcd13ifvqco0","pricing_plan_id":"cebpf4jnsgd1na2vs0mg"},{"bike_id":"27448942-fd8e-4c99-86fe-5b354e223672","system_id":"levelo_inurba_marseille","lat":43.27557,"lon":5.38418,"is_reserved":false,"is_disabled":false,"rental_uris":{"android":"levelo://app?vid=27448942-fd8e-4c99-86fe-5b354e223672","ios":"levelo://app?vid=27448942-fd8e-4c99-86fe-5b354e223672"},"vehicle_type_id":"4","last_reported":1729019307,"current_range_meters":17600,"station_id":"ce4bhh92rcd13ifvqfi0","pricing_plan_id":"cebpf4jnsgd1na2vs0mg"},{"bike_id":"aebd80a1-7a43-47a8-b063-dd4e87a6933e","system_id":"levelo_inurba_marseille","lat":43.26558,"lon":5.37284,"is_reserved":false,"is_disabled":false,"rental_uris":{"android":"levelo://app?vid=aebd80a1-7a43-47a8-b063-dd4e87a6933e","ios":"levelo://app?vid=aebd80a1-7a43-47a8-b063-dd4e87a6933e"},"vehicle_type_id":"4","last_reported":1729019307,"current_range_meters":38800,"station_id":"ce4bhg12rcd13ifvqf70","pricing_plan_id":"cebpf4jnsgd1na2vs0mg"},{"bike_id":"a7c32a98-c1f5-4fe3-8c83-7f539fe6ada5","system_id":"levelo_inurba_marseille","lat":43.23067,"lon":5.35494,"is_reserved":false,"is_disabled":false,"rental_uris":{"android":"levelo://app?vid=a7c32a98-c1f5-4fe3-8c83-7f539fe6ada5","ios":"levelo://app?vid=a7c32a98-c1f5-4fe3-8c83-7f539fe6ada5"},"vehicle_type_id":"4","last_reported":1729019307,"current_range_meters":8800,"station_id":"cpo3342slgdg3j2ifvpg","pricing_plan_id":"cebpf4jnsgd1na2vs0mg"},{"bike_id":"59f7333c-967a-40a8-8aef-5601c7d8997c","system_id":"levelo_inurba_marseille","lat":43.33722,"lon":5.39184,"is_reserved":false,"is_disabled":false,"rental_uris":{"android":"levelo://app?vid=59f7333c-967a-40a8-8aef-5601c7d8997c","ios":"levelo://app?vid=59f7333c-967a-40a8-8aef-5601c7d8997c"},"vehicle_type_id":"4","last_reported":1729019307,"current_range_meters":22000,"station_id":"ce4bhr92rcd13ifvqhsg","pricing_plan_id":"cebpf4jnsgd1na2vs0mg"},{"bike_id":"531ce0e7-bb7c-41a3-bbca-fc9530346f3f","system_id":"levelo_inurba_marseille","lat":43.30579,"lon":5.3935,"is_reserved":false,"is_disabled":false,"rental_uris":{"android":"levelo://app?vid=531ce0e7-bb7c-41a3-bbca-fc9530346f3f","ios":"levelo://app?vid=531ce0e7-bb7c-41a3-bbca-fc9530346f3f"},