{"last_updated":1726006129,"ttl":30,"version":"2.2","data":{"bikes":[{"bike_id":"61ec69dc-0887-45a0-9a18-564e7d706b0b","system_id":"levelo_inurba_marseille","lat":43.24083,"lon":5.3774,"is_reserved":false,"is_disabled":false,"rental_uris":{"android":"levelo://app?vid=61ec69dc-0887-45a0-9a18-564e7d706b0b","ios":"levelo://app?vid=61ec69dc-0887-45a0-9a18-564e7d706b0b"},"vehicle_type_id":"4","last_reported":1726006129,"current_range_meters":31200,"station_id":"ce4bhnp2rcd13ifvqgvg","pricing_plan_id":"cebpf4jnsgd1na2vs0mg"},{"bike_id":"86102a50-ccab-4015-8475-8708efffc18e","system_id":"levelo_inurba_marseille","lat":43.29962,"lon":5.37203,"is_reserved":false,"is_disabled":false,"rental_uris":{"android":"levelo://app?vid=86102a50-ccab-4015-8475-8708efffc18e","ios":"levelo://app?vid=86102a50-ccab-4015-8475-8708efffc18e"},"vehicle_type_id":"4","last_reported":1726006129,"current_range_meters":39200,"station_id":"ce4bgr92rcd13ifvqc7g","pricing_plan_id":"cebpf4jnsgd1na2vs0mg"},{"bike_id":"ef771e48-7aea-4844-b90f-fe7b15088138","system_id":"levelo_inurba_marseille","lat":43.30923,"lon":5.40153,"is_reserved":false,"is_disabled":false,"rental_uris":{"android":"levelo://app?vid=ef771e48-7aea-4844-b90f-fe7b15088138","ios":"levelo://app?vid=ef771e48-7aea-4844-b90f-fe7b15088138"},"vehicle_type_id":"4","last_reported":1726006129,"current_range_meters":16800,"station_id":"ce4bgvp2rcd13ifvqct0","pricing_plan_id":"cebpf4jnsgd1na2vs0mg"},{"bike_id":"ee75ef78-ad18-49e2-98e6-51b9ce804092","system_id":"levelo_inurba_marseille","lat":43.29194,"lon":5.393,"is_reserved":false,"is_disabled":false,"rental_uris":{"android":"levelo://app?vid=ee75ef78-ad18-49e2-98e6-51b9ce804092","ios":"levelo://app?vid=ee75ef78-ad18-49e2-98e6-51b9ce804092"},"vehicle_type_id":"4","last_reported":1726006129,"current_range_meters":38800,"station_id":"ce4bh192rcd13ifvqdd0","pricing_plan_id":"cebpf4jnsgd1na2vs0mg"},{"bike_id":"deb946a8-ccc7-48a3-a464-79c8b8dd0d59","system_id":"levelo_inurba_marseille","lat":43.27895,"lon":5.3801,"is_reserved":false,"is_disabled":false,"rental_uris":{"android":"levelo://app?vid=deb946a8-ccc7-48a3-a464-79c8b8dd0d59","ios":"levelo://app?vid=deb946a8-ccc7-48a3-a464-79c8b8dd0d59"},"vehicle_type_id":"4","last_reported":1726006129,"current_range_meters":33600,"station_id":"ce4bhf92rcd13ifvqf50","pricing_plan_id":"cebpf4jnsgd1na2vs0mg"},{"bike_id":"d36c8bdd-348c-4d74-9d58-cc8209bf5b94","system_id":"levelo_inurba_marseille","lat":43.29275,"lon":5.40133,"is_reserved":false,"is_disabled":false,"rental_uris":{"android":"levelo://app?vid=d36c8bdd-348c-4d74-9d58-cc8209bf5b94","ios":"levelo://app?vid=d36c8bdd-348c-4d74-9d58-cc8209bf5b94"},"vehicle_type_id":"4","last_reported":1726006129,"current_range_meters":19200,"station_id":"ce4bh312rcd13ifvqdk0","pricing_plan_id":"cebpf4jnsgd1na2vs0mg"},{"bike_id":"8baf78c1-8fc6-48c8-84a2-7b5ce34657ff","system_id":"levelo_inurba_marseille","lat":43.31297,"lon":5.38516,"is_reserved":false,"is_disabled":false,"rental_uris":{"android":"levelo://app?vid=8baf78c1-8fc6-48c8-84a2-7b5ce34657ff","ios":"levelo://app?vid=8baf78c1-8fc6-48c8-84a2-7b5ce34657ff"},"vehicle_type_id":"4","last_reported":1726006129,"current_range_meters":39200,"station_id":"ce4bgt92rcd13ifvqcf0","pricing_plan_id":"cebpf4jnsgd1na2vs0mg"},{"bike_id":"77b08259-ff35-4ccb-bc71-d2587aced461","system_id":"levelo_inurba_marseille","lat":43.28705,"lon":5.39983,"is_reserved":false,"is_disabled":false,"rental_uris":{"android":"levelo://app?vid=77b08259-ff35-4ccb-bc71-d2587aced461","ios":"levelo://app?vid=77b08259-ff35-4ccb-bc71-d2587aced461"},"vehicle_type_id":"4","last_reported":1726006129,"current_range_meters":18800,"station_id":"ce4bho92rcd13ifvqh3g","pricing_plan_id":"cebpf4jnsgd1na2vs0mg"},{"bike_id":"c4cb69cc-5375-46b8-98b2-1110cd984917","system_id":"levelo_inurba_marseille","lat":43.24803,"lon":5.37458,"is_reserved":false,"is_disabled":false,"rental_uris":{"android":"levelo://app?vid=c4cb69cc-5375-46b8-98b2-1110cd984917","ios":"levelo://app?vid=c4cb69cc-5375-46b8-98b2-1110cd984917"},"vehicle_type_id":"4","last_reported":1726006129,"current_range_meters":11200,"station_id":"ce4bhgh2rcd13ifvqfb0","pricing_plan_id":"cebpf4jnsgd1na2vs0mg"},{"bike_id":"343f8a7b-c84d-46f3-98b4-8253eb0833f1","system_id":"levelo_inurba_marseille","lat":43.29553,"lon":5.423,"is_reserved":false,"is_disabled":false,"rental_uris":{"android":"levelo://app?vid=343f8a7b-c84d-46f3-98b4-8253eb0833f1","ios":"levelo://app?vid=343f8a7b-c84d-46f3-98b4-8253eb0833f1"},"vehicle_type_id":"4","last_reported":1726006129,"current_range_meters":9200,"station_id":"ce4bhph2rcd13ifvqhdg","pricing_plan_id":"cebpf4jnsgd1na2vs0mg"},{"bike_id":"95e7fdc8-bf5f-4f9c-aaac-a84bae7d977c","system_id":"levelo_inurba_marseille","lat":43.27073,"lon":5.42285,"is_reserved":false,"is_disabled":false,"rental_uris":{"android":"levelo://app?vid=95e7fdc8-bf5f-4f9c-aaac-a84bae7d977c","ios":"levelo://app?vid=95e7fdc8-bf5f-4f9c-aaac-a84bae7d977c"},"vehicle_type_id":"4","last_reported":1726006129,"current_range_meters":38000,"station_id":"ce4bhk92rcd13ifvqgb0","pricing_plan_id":"cebpf4jnsgd1na2vs0mg"},{"bike_id":"b3d3748a-b324-4514-b23c-564350cba6d2","system_id":"levelo_inurba_marseille","lat":43.29518,"lon":5.39041,"is_reserved":false,"is_disabled":false,"rental_uris":{"android":"levelo://app?vid=b3d3748a-b324-4514-b23c-564350cba6d2","ios":"levelo://app?vid=b3d3748a-b324-4514-b23c-564350cba6d2"},"vehicle_type_id":"4","last_reported":1726006129,"current_range_meters":38800,"station_id":"ce4bh3p2rcd13ifvqdp0","pricing_plan_id":"cebpf4jnsgd1na2vs0mg"},{"bike_id":"4b93a43b-e5cb-4b7f-b20b-b29f161007de","system_id":"levelo_inurba_marseille","lat":43.29255,"lon":5.40907,"is_reserved":false,"is_disabled":false,"rental_uris":{"android":"levelo://app?vid=4b93a43b-e5cb-4b7f-b20b-b29f161007de","ios":"levelo://app?vid=4b93a43b-e5cb-4b7f-b20b-b29f161007de"},"vehicle_type_id":"4","last_reported":1726006129,"current_range_meters":19200,"station_id":"ce4bh192rcd13ifvqdc0","pricing_plan_id":"cebpf4jnsgd1na2vs0mg"},{"bike_id":"12823208-bcd3-4331-b276-40f779f488aa","system_id":"levelo_inurba_marseille","lat":43.2319,"lon":5.39992,"is_reserved":false,"is_disabled":false,"rental_uris":{"android":"levelo://app?vid=12823208-bcd3-4331-b276-40f779f488aa","ios":"levelo://app?vid=12823208-bcd3-4331-b276-40f779f488aa"},"vehicle_type_id":"4","last_reported":1726006129,"current_range_meters":30000,"station_id":"ce4bhn12rcd13ifvqgqg","pricing_plan_id":"cebpf4jnsgd1na2vs0mg"},{"bike_id":"f77b6edf-4f4e-456a-b368-b0e97438044f","system_id":"levelo_inurba_marseille","lat":43.29059,"lon":5.38152,"is_reserved":false,"is_disabled":false,"rental_uris":{"android":"levelo://app?vid=f77b6edf-4f4e-456a-b368-b0e97438044f","ios":"levelo://app?vid=f77b6edf-4f4e-456a-b368-b0e97438044f"},"vehicle_type_id":"4","last_reported":1726006129,"current_range_meters":36000,"station_id":"ce4bh512rcd13ifvqe2g","pricing_plan_id":"cebpf4jnsgd1na2vs0mg"},{"bike_id":"4006b03f-00f8-4179-b4f1-f46cc4c835c5","system_id":"levelo_inurba_marseille","lat":43.29902,"lon":5.38144,"is_reserved":false,"is_disabled":false,"rental_uris":{"android":"levelo://app?vid=4006b03f-00f8-4179-b4f1-f46cc4c835c5","ios":"levelo://app?vid=4006b03f-00f8-4179-b4f1-f46cc4c835c5"},"vehicle_type_id":"4","last_reported":1726006129,"current_range_meters":24400,"station_id":"ce4bgj12rcd13ifvqbc0","pricing_plan_id":"cebpf4jnsgd1na2vs0mg"},{"bike_id":"f34747ce-f309-4326-987e-7bc67d09e8c3","system_id":"levelo_inurba_marseille","lat":43.32291,"lon":5.3826,"is_reserved":false,"is_disabled":false,"rental_uris":{"android":"levelo://app?vid=f34747ce-f309-4326-987e-7bc67d09e8c3","ios":"levelo://app?vid=f34747ce-f309-4326-987e-7bc67d09e8c3"},"vehicle_type_id":"4","last_reported":1726006129,"current_range_meters":39200,"station_id":"ce4bhr12rcd13ifvqhqg","pricing_plan_id":"cebpf4jnsgd1na2vs0mg"},{"bike_id":"74e38dcf-51b9-4eee-8a4c-cf09a9417a90","system_id":"levelo_inurba_marseille","lat":43.313277,"lon":5.396884,"is_reserved":false,"is_disabled":false,"rental_uris":{"android":"levelo://app?vid=74e38dcf-51b9-4eee-8a4c-cf09a9417a90","ios":"levelo://app?vid=74e38dcf-51b9-4eee-8a4c-cf09a9417a90"},"vehicle_type_id":"4","last_reported":1726006129,"current_range_meters":38800,"station_id":"ce4bgvp2rcd13ifvqcu0","pricing_plan_id":"cebpf4jnsgd1na2vs0mg"},{"bike_id":"962bb7a3-05a7-49bc-9a49-5d193216f960","system_id":"levelo_inurba_marseille","lat":43.31762,"lon":5.39009,"is_reserved":false,"is_disabled":false,"rental_uris":{"android":"levelo://app?vid=962bb7a3-05a7-49bc-9a49-5d193216f960","ios":"levelo://app?vid=962bb7a3-05a7-49bc-9a49-5d193216f960"},"vehicle_type_id":"4","last_reported":1726006129,"current_range_meters":28000,"station_id":"ce4bhqp2rcd13ifvqhng","pricing_plan_id":"cebpf4jnsgd1na2vs0mg"},{"bike_id":"b0c418e3-7076-4b48-86c9-8b078567e702","system_id":"levelo_inurba_marseille","lat":43.24082,"lon":5.3775,"is_reserved":false,"is_disabled":false,"rental_uris":{"android":"levelo://app?vid=b0c418e3-7076-4b48-86c9-8b078567e702","ios":"levelo://app?vid=b0c418e3-7076-4b48-86c9-8b078567e702"},"vehicle_type_id":"4","last_reported":1726006129,"current_range_meters":28400,"station_id":"ce4bhnp2rcd13ifvqgvg","pricing_plan_id":"cebpf4jnsgd1na2vs0mg"},{"bike_id":"ad5debd7-3e1e-4e58-90c2-90bc3f69340e","system_id":"levelo_inurba_marseille","lat":43.34143,"lon":5.40903,"is_reserved":false,"is_disabled":false,"rental_uris":{"android":"levelo://app?vid=ad5debd7-3e1e-4e58-90c2-90bc3f69340e","ios":"levelo://app?vid=ad5debd7-3e1e-4e58-90c2-90bc3f69340e"},"vehicle_type_id":"4","last_reported":1726006129,"current_range_meters":28400,"station_id":"ce4bhqh2rcd13ifvqhlg","pricing_plan_id":"cebpf4jnsgd1na2vs0mg"},{"bike_id":"949f7510-6250-4b40-8486-a9f5d5463786","system_id":"levelo_inurba_marseille","lat":43.31266,"lon":5.40174,"is_reserved":false,"is_disabled":false,"rental_uris":{"android":"levelo://app?vid=949f7510-6250-4b40-8486-a9f5d5463786","ios":"levelo://app?vid=949f7510-6250-4b40-8486-a9f5d5463786"},"vehicle_type_id":"4","last_reported":1726006129,"current_range_meters":34800,"station_id":"ce4bh092rcd13ifvqd30","pricing_plan_id":"cebpf4jnsgd1na2vs0mg"},{"bike_id":"484884b1-3e16-4da0-8d3d-8e95f9d53680","system_id":"levelo_inurba_marseille","lat":43.31071,"lon":5.38359,"is_reserved":false,"is_disabled":false,"rental_uris":{"android":"levelo://app?vid=484884b1-3e16-4da0-8d3d-8e95f9d53680","ios":"levelo://app?vid=484884b1-3e16-4da0-8d3d-8e95f9d53680"},"vehicle_type_id":"4","last_reported":1726006129,"current_range_meters":20000,"station_id":"ce4bgv92rcd13ifvqcr0","pricing_plan_id":"cebpf4jnsgd1na2vs0mg"},{"bike_id":"e6c426dc-3079-43f1-836e-318864f523d3","system_id":"levelo_inurba_marseille","lat":43.29798,"lon":5.39345,"is_reserved":false,"is_disabled":false,"rental_uris":{"android":"levelo://app?vid=e6c426dc-3079-43f1-836e-318864f523d3","ios":"levelo://app?vid=e6c426dc-3079-43f1-836e-318864f523d3"},"vehicle_type_id":"4","last_reported":1726006129,"current_range_meters":15200,"station_id":"chh1huq6cuj3fo74tm60","pricing_plan_id":"cebpf4jnsgd1na2vs0mg"},{"bike_id":"8f225280-6721-4068-b94d-f4ee100a572a","system_id":"levelo_inurba_marseille","lat":43.24546,"lon":5.39528,"is_reserved":false,"is_disabled":false,"rental_uris":{"android":"levelo://app?vid=8f225280-6721-4068-b94d-f4ee100a572a","ios":"levelo://app?vid=8f225280-6721-4068-b94d-f4ee100a572a"},"vehicle_type_id":"4","last_reported":1726006129,"current_range_meters":28000,"station_id":"ce4bhlp2rcd13ifvqgjg","pricing_plan_id":"cebpf4jnsgd1na2vs0mg"},{"bike_id":"ee4607c9-6955-4e13-b7d5-aec07ce4d086","system_id":"levelo_inurba_marseille","lat":43.31697,"lon":5.40476,"is_reserved":false,"is_disabled":false,"rental_uris":{"android":"levelo://app?vid=ee4607c9-6955-4e13-b7d5-aec07ce4d086","ios":"levelo://app?vid=ee4607c9-6955-4e13-b7d5-aec07ce4d086"},"vehicle_type_id":"4","last_reported":1726006129,"current_range_meters":16800,"station_id":"ce4bh012rcd13ifvqd00","pricing_plan_id":"cebpf4jnsgd1na2vs0mg"},{"bike_id":"24f8399c-3f6b-4afe-b89d-f716cc994be8","system_id":"levelo_inurba_marseille","lat":43.28458,"lon":5.35886,"is_reserved":false,"is_disabled":false,"rental_uris":{"android":"levelo://app?vid=24f8399c-3f6b-4afe-b89d-f716cc994be8","ios":"levelo://app?vid=24f8399c-3f6b-4afe-b89d-f716cc994be8"},"vehicle_type_id":"4","last_reported":1726006129,"current_range_meters":38400,"station_id":"ce4bhah2rcd13ifvqei0","pricing_plan_id":"cebpf4jnsgd1na2vs0mg"},{"bike_id":"a5378d9e-ab88-4132-955c-51d09adec59d","system_id":"levelo_inurba_marseille","lat":43.28036,"lon":5.36945,"is_reserved":false,"is_disabled":false,"rental_uris":{"android":"levelo://app?vid=a5378d9e-ab88-4132-955c-51d09adec59d","ios":"levelo://app?vid=a5378d9e-ab88-4132-955c-51d09adec59d"},"vehicle_type_id":"4","last_reported":1726006129,"current_range_meters":36800,"station_id":"ce4bha12rcd13ifvqef0","pricing_plan_id":"cebpf4jnsgd1na2vs0mg"},{"bike_id":"77cb9076-bd27-4d0e-b4cb-72e09d2228d9","system_id":"levelo_inurba_marseille","lat":43.30804,"lon":5.43525,"is_reserved":false,"is_disabled":false,"rental_uris":{"android":"levelo://app?vid=77cb9076-bd27-4d0e-b4cb-72e09d2228d9","ios":"levelo://app?vid=77cb9076-bd27-4d0e-b4cb-72e09d2228d9"},"vehicle_type_id":"4","last_reported":1726006129,"current_range_meters":0,"station_id":"ce4bhph2rcd13ifvqheg","pricing_plan_id":"cebpf4jnsgd1na2vs0mg"},{"bike_id":"79c048a7-5de8-4f6b-a4ee-caa7e8248925","system_id":"levelo_inurba_marseille","lat":43.24072,"lon":5.37764,"is_reserved":false,"is_disabled":false,"rental_uris":{"android":"levelo://app?vid=79c048a7-5de8-4f6b-a4ee-caa7e8248925","ios":"levelo://app?vid=79c048a7-5de8-4f6b-a4ee-caa7e8248925"},"vehicle_type_id":"4","last_reported":1726006129,"current_range_meters":24400,"station_id":"ce4bhnp2rcd13ifvqgvg","pricing_plan_id":"cebpf4jnsgd1na2vs0mg"},{"bike_id":"6c02a711-e0d4-4009-9d44-fba5428f55b2","system_id":"levelo_inurba_marseille","lat":43.23193,"lon":5.35557,"is_reserved":false,"is_disabled":false,"rental_uris":{"android":"levelo://app?vid=6c02a711-e0d4-4009-9d44-fba5428f55b2","ios":"levelo://app?vid=6c02a711-e0d4-4009-9d44-fba5428f55b2"},"vehicle_type_id":"4","last_reported":1726006129,"current_range_meters":7200,"station_id":"ce4bhu92rcd13ifvqi70","pricing_plan_id":"cebpf4jnsgd1na2vs0mg"},{"bike_id":"a2e58725-2eed-48e6-99e1-3f6acbd0f5a6","system_id":"levelo_inurba_marseille","lat":43.311208,"lon":5.3777,"is_reserved":false,"is_disabled":false,"rental_uris":{"android":"levelo://app?vid=a2e58725-2eed-48e6-99e1-3f6acbd0f5a6","ios":"levelo://app?vid=a2e58725-2eed-48e6-99e1-3f6acbd0f5a6"},"vehicle_type_id":"4","last_reported":1726006129,"current_range_meters":38400,"station_id":"ce4bgt92rcd13ifvqcg0","pricing_plan_id":"cebpf4jnsgd1na2vs0mg"},{"bike_id":"55f7b513-01a7-4d42-bedd-9d8c704d71a8","system_id":"levelo_inurba_marseille","lat":43.31218,"lon":5.36856,"is_reserved":false,"is_disabled":false,"rental_uris":{"android":"levelo://app?vid=55f7b513-01a7-4d42-bedd-9d8c704d71a8","ios":"levelo://app?vid=55f7b513-01a7-4d42-bedd-9d8c704d71a8"},"vehicle_type_id":"4","last_reported":1726006129,"current_range_meters":39200,"station_id":"ce4bgl92rcd13ifvqbq0","pricing_plan_id":"cebpf4jnsgd1na2vs0mg"},{"bike_id":"609573c2-0281-4a8c-9978-1b2685212ad4","system_id":"levelo_inurba_marseille","lat":43.28711,"lon":5.37387,"is_reserved":false,"is_disabled":false,"rental_uris":{"android":"levelo://app?vid=609573c2-0281-4a8c-9978-1b2685212ad4","ios":"levelo://app?vid=609573c2-0281-4a8c-9978-1b2685212ad4"},"vehicle_type_id":"4","last_reported":1726006129,"current_range_meters":5600,"station_id":"ce4bh3p2rcd13ifvqdq0","pricing_plan_id":"cebpf4jnsgd1na2vs0mg"},{"bike_id":"687c1b45-ac94-402b-b9fc-bc877da827a6","system_id":"levelo_inurba_marseille","lat":43.24659,"lon":5.38164,"is_reserved":false,"is_disabled":false,"rental_uris":{"android":"levelo://app?vid=687c1b45-ac94-402b-b9fc-bc877da827a6","ios":"levelo://app?vid=687c1b45-ac94-402b-b9fc-bc877da827a6"},"vehicle_type_id":"4","last_reported":1726006129,"current_range_meters":32000,"station_id":"ce4bhih2rcd13ifvqfr0","pricing_plan_id":"cebpf4jnsgd1na2vs0mg"},{"bike_id":"025fa29d-5cab-4747-a78d-80f6d7ac5f89","system_id":"levelo_inurba_marseille","lat":43.3089,"lon":5.39629,"is_reserved":false,"is_disabled":false,"rental_uris":{"android":"levelo://app?vid=025fa29d-5cab-4747-a78d-80f6d7ac5f89","ios":"levelo://app?vid=025fa29d-5cab-4747-a78d-80f6d7ac5f89"},"vehicle_type_id":"4","last_reported":1726006129,"current_range_meters":39200,"station_id":"ce4bh012rcd13ifvqcv0","pricing_plan_id":"cebpf4jnsgd1na2vs0mg"},{"bike_id":"9e88500d-1735-4ec9-8c31-0839df419195","system_id":"levelo_inurba_marseille","lat":43.27249,"lon":5.39209,"is_reserved":false,"is_disabled":false,"rental_uris":{"android":"levelo://app?vid=9e88500d-1735-4ec9-8c31-0839df419195","ios":"levelo://app?vid=9e88500d-1735-4ec9-8c31-0839df419195"},"vehicle_type_id":"4","last_reported":1726006129,"current_range_meters":24400,"station_id":"ce4bhhp2rcd13ifvqfm0","pricing_plan_id":"cebpf4jnsgd1na2vs0mg"},{"bike_id":"0ccaa638-b6b4-47c4-8289-468840e3fa8a","system_id":"levelo_inurba_marseille","lat":43.25503,"lon":5.37651,"is_reserved":false,"is_disabled":false,"rental_uris":{"android":"levelo://app?vid=0ccaa638-b6b4-47c4-8289-468840e3fa8a","ios":"levelo://app?vid=0ccaa638-b6b4-47c4-8289-468840e3fa8a"},"vehicle_type_id":"4","last_reported":1726006129,"current_range_meters":3600,"station_id":"ce4bhh12rcd13ifvqff0","pricing_plan_id":"cebpf4jnsgd1na2vs0mg"},{"bike_id":"c8f8c54d-6d7f-4989-8039-135aa5968337","system_id":"levelo_inurba_marseille","lat":43.30323,"lon":5.40448,"is_reserved":false,"is_disabled":false,"rental_uris":{"android":"levelo://app?vid=c8f8c54d-6d7f-4989-8039-135aa5968337","ios":"levelo://app?vid=c8f8c54d-6d7f-4989-8039-135aa5968337"},"vehicle_type_id":"4","last_reported":1726006129,"current_range_meters":36000,"station_id":"ce4bh012rcd13ifvqd10","pricing_plan_id":"cebpf4jnsgd1na2vs0mg"},{"bike_id":"b59d6bb8-aefb-4db8-b3f2-f169f342ddcd","system_id":"levelo_inurba_marseille","lat":43.32364,"lon":5.38889,"is_reserved":false,"is_disabled":false,"rental_uris":{"android":"levelo://app?vid=b59d6bb8-aefb-4db8-b3f2-f169f342ddcd","ios":"levelo://app?vid=b59d6bb8-aefb-4db8-b3f2-f169f342ddcd"},"vehicle_type_id":"4","last_reported":1726006129,"current_range_meters":6400,"station_id":"ce4bhqp2rcd13ifvqhog","pricing_plan_id":"cebpf4jnsgd1na2vs0mg"},{"bike_id":"9f1b9758-d506-4d74-b3e1-1ed86e2c416a","system_id":"levelo_inurba_marseille","lat":43.29619,"lon":5.37156,"is_reserved":false,"is_disabled":false,"rental_uris":{"android":"levelo://app?vid=9f1b9758-d506-4d74-b3e1-1ed86e2c416a","ios":"levelo://app?vid=9f1b9758-d506-4d74-b3e1-1ed86e2c416a"},"vehicle_type_id":"4","last_reported":1726006129,"current_range_meters":38800,"station_id":"ce4bgnh2rcd13ifvqc0g","pricing_plan_id":"cebpf4jnsgd1na2vs0mg"},{"bike_id":"783428b3-8d12-4df0-9684-836cb2f47e07","system_id":"levelo_inurba_marseille","lat":43.27571,"lon":5.38419,"is_reserved":false,"is_disabled":false,"rental_uris":{"android":"levelo://app?vid=783428b3-8d12-4df0-9684-836cb2f47e07","ios":"levelo://app?vid=783428b3-8d12-4df0-9684-836cb2f47e07"},"vehicle_type_id":"4","last_reported":1726006129,"current_range_meters":37600,"station_id":"ce4bhh92rcd13ifvqfi0","pricing_plan_id":"cebpf4jnsgd1na2vs0mg"},{"bike_id":"3c1219b6-feb0-4ae0-807c-a32a8b70e988","system_id":"levelo_inurba_marseille","lat":43.31531,"lon":5.38026,"is_reserved":false,"is_disabled":false,"rental_uris":{"android":"levelo://app?vid=3c1219b6-feb0-4ae0-807c-a32a8b70e988","ios":"levelo://app?vid=3c1219b6-feb0-4ae0-807c-a32a8b70e988"},"vehicle_type_id":"4","last_reported":1726006129,"current_range_meters":32800,"station_id":"ce4bhsp2rcd13ifvqi50","pricing_plan_id":"cebpf4jnsgd1na2vs0mg"},{"bike_id":"dda4c138-678e-4beb-8c1c-7229be4997a5","system_id":"levelo_inurba_marseille","lat":43.26191,"lon":5.37457,"is_reserved":false,"is_disabled":false,"rental_uris":{"android":"levelo://app?vid=dda4c138-678e-4beb-8c1c-7229be4997a5","ios":"levelo://app?vid=dda4c138-678e-4beb-8c1c-7229be4997a5"},"vehicle_type_id":"4","last_reported":1726006129,"current_range_meters":27200,"station_id":"ce4bhgp2rcd13ifvqfc0","pricing_plan_id":"cebpf4jnsgd1na2vs0mg"},{"bike_id":"082638c5-5449-47b0-a8f1-d12dc77dae1d","system_id":"levelo_inurba_marseille","lat":43.29692,"lon":5.36602,"is_reserved":false,"is_disabled":false,"rental_uris":{"android":"levelo://app?vid=082638c5-5449-47b0-a8f1-d12dc77dae1d","ios":"levelo://app?vid=082638c5-5449-47b0-a8f1-d12dc77dae1d"},"vehicle_type_id":"4","last_reported":1726006129,"current_range_meters":33600,"station_id":"ce4bgn12rcd13ifvqbt0","pricing_plan_id":"cebpf4jnsgd1na2vs0mg"},{"bike_id":"c52fffd4-85f8-4b1a-889e-77132c968666","system_id":"levelo_inurba_marseille","lat":43.28691,"lon":5.39982,"is_reserved":false,"is_disabled":false,"rental_uris":{"android":"levelo://app?vid=c52fffd4-85f8-4b1a-889e-77132c968666","ios":"levelo://app?vid=c52fffd4-85f8-4b1a-889e-77132c968666"},"vehicle_type_id":"4","last_reported":1726006129,"current_range_meters":20400,"station_id":"ce4bho92rcd13ifvqh3g","pricing_plan_id":"cebpf4jnsgd1na2vs0mg"},{"bike_id":"d94cf20d-19e4-4d88-bbb3-72b7a4c6baa3","system_id":"levelo_inurba_marseille","lat":43.32287,"lon":5.38271,"is_reserved":false,"is_disabled":false,"rental_uris":{"android":"levelo://app?vid=d94cf20d-19e4-4d88-bbb3-72b7a4c6baa3","ios":"levelo://app?vid=d94cf20d-19e4-4d88-bbb3-72b7a4c6baa3"},"vehicle_type_id":"4","last_reported":1726006129,"current_range_meters":39200,"station_id":"ce4bhr12rcd13ifvqhqg","pricing_plan_id":"cebpf4jnsgd1na2vs0mg"},{"bike_id":"02eeece1-276b-470d-8a33-7129bd921d31","system_id":"levelo_inurba_marseille","lat":43.30796,"lon":5.43523,"is_reserved":false,"is_disabled":false,"rental_uris":{"android":"levelo://app?vid=02eeece1-276b-470d-8a33-7129bd921d31","ios":"levelo://app?vid=02eeece1-276b-470d-8a33-7129bd921d31"},"vehicle_type_id":"4","last_reported":1726006129,"current_range_meters":800,"station_id":"ce4bhph2rcd13ifvqheg","pricing_plan_id":"cebpf4jnsgd1na2vs0mg"},{"bike_id":"cc3e6c0c-744c-4f92-a6c7-f3980b7ec1c9","system_id":"levelo_inurba_marseille","lat":43.28455,"lon":5.35892,"is_reserved":false,"is_disabled":false,"rental_uris":{"android":"levelo://app?vid=cc3e6c0c-744c-4f92-a6c7-f3980b7ec1c9","ios":"levelo://app?vid=cc3e6c0c-744c-4f92-a6c7-f3980b7ec1c9"},"vehicle_type_id":"4","last_reported":1726006129,"current_range_meters":6800,"station_id":"ce4bhah2rcd13ifvqei0","pricing_plan_id":"cebpf4jnsgd1na2vs0mg"},{"bike_id":"00ca710c-aa25-453d-b5eb-9286e939dc6d","system_id":"levelo_inurba_marseille","lat":43.2955,"lon":5.42287,"is_reserved":false,"is_disabled":false,"rental_uris":{"android":"levelo://app?vid=00ca710c-aa25-453d-b5eb-9286e939dc6d","ios":"levelo://app?vid=00ca710c-aa25-453d-b5eb-9286e939dc6d"},"vehicle_type_id":"4","last_reported":1726006129,"current_range_meters":28000,"station_id":"ce4bhph2rcd13ifvqhdg","pricing_plan_id":"cebpf4jnsgd1na2vs0mg"},{"bike_id":"a36a6131-7175-4d21-afcf-16a3b952996a","system_id":"levelo_inurba_marseille","lat":43.30813,"lon":5.37656,"is_reserved":false,"is_disabled":false,"rental_uris":{"android":"levelo://app?vid=a36a6131-7175-4d21-afcf-16a3b952996a","ios":"levelo://app?vid=a36a6131-7175-4d21-afcf-16a3b952996a"},"vehicle_type_id":"4","last_reported":1726006129,"current_range_meters":13600,"station_id":"ce4bgv92rcd13ifvqcq0","pricing_plan_id":"cebpf4jnsgd1na2vs0mg"},{"bike_id":"2e23597d-e77d-486c-a95e-6cdb71b1bd53","system_id":"levelo_inurba_marseille","lat":43.32364,"lon":5.3889,"is_reserved":false,"is_disabled":false,"rental_uris":{"android":"levelo://app?vid=2e23597d-e77d-486c-a95e-6cdb71b1bd53","ios":"levelo://app?vid=2e23597d-e77d-486c-a95e-6cdb71b1bd53"},"vehicle_type_id":"4","last_reported":1726006129,"current_range_meters":12400,"station_id":"ce4bhqp2rcd13ifvqhog","pricing_plan_id":"cebpf4jnsgd1na2vs0mg"},{"bike_id":"d878d0a1-9762-4298-8fc9-2f65a826341a","system_id":"levelo_inurba_marseille","lat":43.30948,"lon":5.39032,"is_reserved":false,"is_disabled":false,"rental_uris":{"android":"levelo://app?vid=d878d0a1-9762-4298-8fc9-2f65a826341a","ios":"levelo://app?vid=d878d0a1-9762-4298-8fc9-2f65a826341a"},"vehicle_type_id":"4","last_reported":1726006129,"current_range_meters":14000,"station_id":"ce4bgup2rcd13ifvqco0","pricing_plan_id":"cebpf4jnsgd1na2vs0mg"},{"bike_id":"6db64dae-937c-4c84-a07e-af2cad8f543f","system_id":"levelo_inurba_marseille","lat":43.30888,"lon":5.39638,"is_reserved":false,"is_disabled":false,"rental_uris":{"android":"levelo://app?vid=6db64dae-937c-4c84-a07e-af2cad8f543f","ios":"levelo://app?vid=6db64dae-937c-4c84-a07e-af2cad8f543f"},"vehicle_type_id":"4","last_reported":1726006129,"current_range_meters":38800,"station_id":"ce4bh012rcd13ifvqcv0","pricing_plan_id":"cebpf4jnsgd1na2vs0mg"},{"bike_id":"af29e765-80ea-48b7-873e-9075e9bf27db","system_id":"levelo_inurba_marseille","lat":43.28029,"lon":5.36955,"is_reserved":false,"is_disabled":false,"rental_uris":{"android":"levelo://app?vid=af29e765-80ea-48b7-873e-9075e9bf27db","ios":"levelo://app?vid=af29e765-80ea-48b7-873e-9075e9bf27db"},"vehicle_type_id":"4","last_reported":1726006129,"current_range_meters":18800,"station_id":"ce4bha12rcd13ifvqef0","pricing_plan_id":"cebpf4jnsgd1na2vs0mg"},{"bike_id":"6ac0385a-09c3-4112-8eb3-5351bb9c2a07","system_id":"levelo_inurba_marseille","lat":43.28461,"lon":5.35894,"is_reserved":false,"is_disabled":false,"rental_uris":{"android":"levelo://app?vid=6ac0385a-09c3-4112-8eb3-5351bb9c2a07","ios":"levelo://app?vid=6ac0385a-09c3-4112-8eb3-5351bb9c2a07"},"vehicle_type_id":"4","last_reported":1726006129,"current_range_meters":39200,"station_id":"ce4bhah2rcd13ifvqei0","pricing_plan_id":"cebpf4jnsgd1na2vs0mg"},{"bike_id":"b77681a4-4ed0-4be8-bbd7-2dc7c4cd333c","system_id":"levelo_inurba_marseille","lat":43.31755,"lon":5.39022,"is_reserved":false,"is_disabled":false,"rental_uris":{"android":"levelo://app?vid=b77681a4-4ed0-4be8-bbd7-2dc7c4cd333c","ios":"levelo://app?vid=b77681a4-4ed0-4be8-bbd7-2dc7c4cd333c"},"vehicle_type_id":"4","last_reported":1726006129,"current_range_meters":32000,"station_id":"ce4bhqp2rcd13ifvqhng","pricing_plan_id":"cebpf4jnsgd1na2vs0mg"},{"bike_id":"b3ee0c0c-f950-4b41-b580-e27e3415d3ba","system_id":"levelo_inurba_marseille","lat":43.30903,"lon":5.36843,"is_reserved":false,"is_disabled":false,"rental_uris":{"android":"levelo://app?vid=b3ee0c0c-f950-4b41-b580-e27e3415d3ba","ios":"levelo://app?vid=b3ee0c0c-f950-4b41-b580-e27e3415d3ba"},"vehicle_type_id":"4","last_reported":1726006129,"current_range_meters":26800,"station_id":"ce4bgn92rcd13ifvqbvg","pricing_plan_id":"cebpf4jnsgd1na2vs0mg"},{"bike_id":"52a0f38d-3211-4d2e-b296-7d2f78d43ba6","system_id":"levelo_inurba_marseille","lat":43.27175,"lon":5.40993,"is_reserved":false,"is_disabled":false,"rental_uris":{"android":"levelo://app?vid=52a0f38d-3211-4d2e-b296-7d2f78d43ba6","ios":"levelo://app?vid=52a0f38d-3211-4d2e-b296-7d2f78d43ba6"},"vehicle_type_id":"4","last_reported":1726006129,"current_range_meters":7200,"station_id":"ce4bhl12rcd13ifvqgf0","pricing_plan_id":"cebpf4jnsgd1na2vs0mg"},{"bike_id":"044c6c19-928b-49be-810d-1a1364296b66","system_id":"levelo_inurba_marseille","lat":43.27817,"lon":5.40719,"is_reserved":false,"is_disabled":false,"rental_uris":{"android":"levelo://app?vid=044c6c19-928b-49be-810d-1a1364296b66","ios":"levelo://app?vid=044c6c19-928b-49be-810d-1a1364296b66"},"vehicle_type_id":"4","last_reported":1726006129,"current_range_meters":22400,"station_id":"ce4bhnh2rcd13ifvqgtg","pricing_plan_id":"cebpf4jnsgd1na2vs0mg"},{"bike_id":"7a291b7d-e45a-41df-9723-7a88a66828fe","system_id":"levelo_inurba_marseille","lat":43.25012,"lon":5.38915,"is_reserved":false,"is_disabled":false,"rental_uris":{"android":"levelo://app?vid=7a291b7d-e45a-41df-9723-7a88a66828fe","ios":"levelo://app?vid=7a291b7d-e45a-41df-9723-7a88a66828fe"},"vehicle_type_id":"4","last_reported":1726006129,"current_range_meters":32000,"station_id":"ce4bhgp2rcd13ifvqfd0","pricing_plan_id":"cebpf4jnsgd1na2vs0mg"},{"bike_id":"eefefcc6-11cd-4d33-991c-12b4a6414c9b","system_id":"levelo_inurba_marseille","lat":43.28031,"lon":5.36951,"is_reserved":false,"is_disabled":false,"rental_uris":{"android":"levelo://app?vid=eefefcc6-11cd-4d33-991c-12b4a6414c9b","ios":"levelo://app?vid=eefefcc6-11cd-4d33-991c-12b4a6414c9b"},"vehicle_type_id":"4","last_reported":1726006129,"current_range_meters":38400,"station_id":"ce4bha12rcd13ifvqef0","pricing_plan_id":"cebpf4jnsgd1na2vs0mg"},{"bike_id":"745a4a92-6575-449a-96df-c38622c66303","system_id":"levelo_inurba_marseille","lat":43.27995,"lon":5.40019,"is_reserved":false,"is_disabled":false,"rental_uris":{"android":"levelo://app?vid=745a4a92-6575-449a-96df-c38622c66303","ios":"levelo://app?vid=745a4a92-6575-449a-96df-c38622c66303"},"vehicle_type_id":"4","last_reported":1726006129,"current_range_meters":16400,"station_id":"ce4bho92rcd13ifvqh4g","pricing_plan_id":"cebpf4jnsgd1na2vs0mg"},{"bike_id":"f1ea8c6f-65c6-4c34-b89c-98dd712d80c3","system_id":"levelo_inurba_marseille","lat":43.24073,"lon":5.37749,"is_reserved":false,"is_disabled":false,"rental_uris":{"android":"levelo://app?vid=f1ea8c6f-65c6-4c34-b89c-98dd712d80c3","ios":"levelo://app?vid=f1ea8c6f-65c6-4c34-b89c-98dd712d80c3"},"vehicle_type_id":"4","last_reported":1726006129,"current_range_meters":24000,"station_id":"ce4bhnp2rcd13ifvqgvg","pricing_plan_id":"cebpf4jnsgd1na2vs0mg"},{"bike_id":"4f5982f3-bfc1-4b72-8596-8b9dabde0888","system_id":"levelo_inurba_marseille","lat":43.28934,"lon":5.39643,"is_reserved":false,"is_disabled":false,"rental_uris":{"android":"levelo://app?vid=4f5982f3-bfc1-4b72-8596-8b9dabde0888","ios":"levelo://app?vid=4f5982f3-bfc1-4b72-8596-8b9dabde0888"},"vehicle_type_id":"4","last_reported":1726006129,"current_range_meters":28000,"station_id":"ce4bh3h2rcd13ifvqdn0","pricing_plan_id":"cebpf4jnsgd1na2vs0mg"},{"bike_id":"0582c2e3-8115-4bc4-8b74-4acd209b970f","system_id":"levelo_inurba_marseille","lat":43.27071,"lon":5.42282,"is_reserved":false,"is_disabled":false,"rental_uris":{"android":"levelo://app?vid=0582c2e3-8115-4bc4-8b74-4acd209b970f","ios":"levelo://app?vid=0582c2e3-8115-4bc4-8b74-4acd209b970f"},"vehicle_type_id":"4","last_reported":1726006129,"current_range_meters":6400,"station_id":"ce4bhk92rcd13ifvqgb0","pricing_plan_id":"cebpf4jnsgd1na2vs0mg"},{"bike_id":"1a0da594-9d57-4523-9b59-5374c2af6a63","system_id":"levelo_inurba_marseille","lat":43.28724,"lon":5.36093,"is_reserved":false,"is_disabled":false,"rental_uris":{"android":"levelo://app?vid=1a0da594-9d57-4523-9b59-5374c2af6a63","ios":"levelo://app?vid=1a0da594-9d57-4523-9b59-5374c2af6a63"},"vehicle_type_id":"4","last_reported":1726006129,"current_range_meters":34800,"station_id":"cki0cbj6b192h4jlfktg","pricing_plan_id":"cebpf4jnsgd1na2vs0mg"},{"bike_id":"cfc4154e-0853-489e-8835-a4d6f4fd8fe1","system_id":"levelo_inurba_marseille","lat":43.27916,"lon":5.3958,"is_reserved":false,"is_disabled":false,"rental_uris":{"android":"levelo://app?vid=cfc4154e-0853-489e-8835-a4d6f4fd8fe1","ios":"levelo://app?vid=cfc4154e-0853-489e-8835-a4d6f4fd8fe1"},"vehicle_type_id":"4","last_reported":1726006129,"current_range_meters":30000,"station_id":"ce4bhf92rcd13ifvqf40","pricing_plan_id":"cebpf4jnsgd1na2vs0mg"},{"bike_id":"c19b3b06-dd40-414d-8bb5-7da222403898","system_id":"levelo_inurba_marseille","lat":43.33726,"lon":5.39187,"is_reserved":false,"is_disabled":false,"rental_uris":{"android":"levelo://app?vid=c19b3b06-dd40-414d-8bb5-7da222403898","ios":"levelo://app?vid=c19b3b06-dd40-414d-8bb5-7da222403898"},"vehicle_type_id":"4","last_reported":1726006129,"current_range_meters":38800,"station_id":"ce4bhr92rcd13ifvqhsg","pricing_plan_id":"cebpf4jnsgd1na2vs0mg"},{"bike_id":"5d352641-3593-4267-b2f1-8ab039017e05","system_id":"levelo_inurba_marseille","lat":43.23196,"lon":5.35554,"is_reserved":false,"is_disabled":false,"rental_uris":{"android":"levelo://app?vid=5d352641-3593-4267-b2f1-8ab039017e05","ios":"levelo://app?vid=5d352641-3593-4267-b2f1-8ab039017e05"},"vehicle_type_id":"4","last_reported":1726006129,"current_range_meters":38000,"station_id":"ce4bhu92rcd13ifvqi70","pricing_plan_id":"cebpf4jnsgd1na2vs0mg"},{"bike_id":"2ac32525-0517-4db4-9d06-3cf3b6bf5196","system_id":"levelo_inurba_marseille","lat":43.28726,"lon":5.36091,"is_reserved":false,"is_disabled":false,"rental_uris":{"android":"levelo://app?vid=2ac32525-0517-4db4-9d06-3cf3b6bf5196","ios":"levelo://app?vid=2ac32525-0517-4db4-9d06-3cf3b6bf5196"},"vehicle_type_id":"4","last_reported":1726006129,"current_range_meters":17600,"station_id":"cki0cbj6b192h4jlfktg","pricing_plan_id":"cebpf4jnsgd1na2vs0mg"},{"bike_id":"c22bf776-82f1-423d-83f3-ab20051eb388","system_id":"levelo_inurba_marseille","lat":43.33612,"lon":5.41029,"is_reserved":false,"is_disabled":false,"rental_uris":{"android":"levelo://app?vid=c22bf776-82f1-423d-83f3-ab20051eb388","ios":"levelo://app?vid=c22bf776-82f1-423d-83f3-ab20051eb388"},"vehicle_type_id":"4","last_reported":1726006129,"current_range_meters":8000,"station_id":"ce4bhqh2rcd13ifvqhmg","pricing_plan_id":"cebpf4jnsgd1na2vs0mg"},{"bike_id":"56f33b7d-3dd1-47b9-8e89-7082cd537a80","system_id":"levelo_inurba_marseille","lat":43.31713,"lon":5.43709,"is_reserved":false,"is_disabled":false,"rental_uris":{"android":"levelo://app?vid=56f33b7d-3dd1-47b9-8e89-7082cd537a80","ios":"levelo://app?vid=56f33b7d-3dd1-47b9-8e89-7082cd537a80"},"vehicle_type_id":"4","last_reported":1726006129,"current_range_meters":19600,"station_id":"ce4bhp92rcd13ifvqhcg","pricing_plan_id":"cebpf4jnsgd1na2vs0mg"},{"bike_id":"7c28f853-fb94-4dfe-9706-a5dfbefcce5b","system_id":"levelo_inurba_marseille","lat":43.33734,"lon":5.39183,"is_reserved":false,"is_disabled":false,"rental_uris":{"android":"levelo://app?vid=7c28f853-fb94-4dfe-9706-a5dfbefcce5b","ios":"levelo://app?vid=7c28f853-fb94-4dfe-9706-a5dfbefcce5b"},"vehicle_type_id":"4","last_reported":1726006129,"current_range_meters":38800,"station_id":"ce4bhr92rcd13ifvqhsg","pricing_plan_id":"cebpf4jnsgd1na2vs0mg"},{"bike_id":"27825ce0-edf7-4ada-ac1e-8cf98a77eb9a","system_id":"levelo_inurba_marseille","lat":43.29093,"lon":5.38145,"is_reserved":false,"is_disabled":false,"rental_uris":{"android":"levelo://app?vid=27825ce0-edf7-4ada-ac1e-8cf98a77eb9a","ios":"levelo://app?vid=27825ce0-edf7-4ada-ac1e-8cf98a77eb9a"},"vehicle_type_id":"4","last_reported":1726006129,"current_range_meters":12800,"station_id":"ce4bh512rcd13ifvqe2g","pricing_plan_id":"cebpf4jnsgd1na2vs0mg"},{"bike_id":"3e60eaa0-e0b6-44fc-96a5-d9e44486282e","system_id":"levelo_inurba_marseille","lat":43.26198,"lon":5.37939,"is_reserved":false,"is_disabled":false,"rental_uris":{"android":"levelo://app?vid=3e60eaa0-e0b6-44fc-96a5-d9e44486282e","ios":"levelo://app?vid=3e60eaa0-e0b6-44fc-96a5-d9e44486282e"},"vehicle_type_id":"4","last_reported":1726006129,"current_range_meters":30400,"station_id":"ce4bhjp2rcd13ifvqg90","pricing_plan_id":"cebpf4jnsgd1na2vs0mg"},{"bike_id":"9b9547b7-77e2-4c32-9975-f0a65876f133","system_id":"levelo_inurba_marseille","lat":43.28034,"lon":5.3694,"is_reserved":false,"is_disabled":false,"rental_uris":{"android":"levelo://app?vid=9b9547b7-77e2-4c32-9975-f0a65876f133","ios":"levelo://app?vid=9b9547b7-77e2-4c32-9975-f0a65876f133"},"vehicle_type_id":"4","last_reported":1726006129,"current_range_meters":38000,"station_id":"ce4bha12rcd13ifvqef0","pricing_plan_id":"cebpf4jnsgd1na2vs0mg"},{"bike_id":"ee0efcc0-0594-4a83-85d9-439b7eb0d1d1","system_id":"levelo_inurba_marseille","lat":43.2306,"lon":5.35494,"is_reserved":false,"is_disabled":false,"rental_uris":{"android":"levelo://app?vid=ee0efcc0-0594-4a83-85d9-439b7eb0d1d1","ios":"levelo://app?vid=ee0efcc0-0594-4a83-85d9-439b7eb0d1d1"},"vehicle_type_id":"4","last_reported":1726006129,"current_range_meters":38800,"station_id":"cpo3342slgdg3j2ifvpg","pricing_plan_id":"cebpf4jnsgd1na2vs0mg"},{"bike_id":"59b5e0bf-c6e3-4fb5-a27d-dff0f5a98b75","system_id":"levelo_inurba_marseille","lat":43.29032,"lon":5.39969,"is_reserved":false,"is_disabled":false,"rental_uris":{"android":"levelo://app?vid=59b5e0bf-c6e3-4fb5-a27d-dff0f5a98b75","ios":"levelo://app?vid=59b5e0bf-c6e3-4fb5-a27d-dff0f5a98b75"},"vehicle_type_id":"4","last_reported":1726006129,"current_range_meters":22800,"station_id":"ce4bh392rcd13ifvqdm0","pricing_plan_id":"cebpf4jnsgd1na2vs0mg"},{"bike_id":"723c073e-5c6a-4fb9-a382-e8ea44a73076","system_id":"levelo_inurba_marseille","lat":43.29555,"lon":5.42287,"is_reserved":false,"is_disabled":false,"rental_uris":{"android":"levelo://app?vid=723c073e-5c6a-4fb9-a382-e8ea44a73076","ios":"levelo://app?vid=723c073e-5c6a-4fb9-a382-e8ea44a73076"},"vehicle_type_id":"4","last_reported":1726006129,"current_range_meters":32000,"station_id":"ce4bhph2rcd13ifvqhdg","pricing_plan_id":"cebpf4jnsgd1na2vs0mg"},{"bike_id":"2aad4b02-945c-4d35-b3a5-85b3d17dc503","system_id":"levelo_inurba_marseille","lat":43.32295,"lon":5.38259,"is_reserved":false,"is_disabled":false,"rental_uris":{"android":"levelo://app?vid=2aad4b02-945c-4d35-b3a5-85b3d17dc503","ios":"levelo://app?vid=2aad4b02-945c-4d35-b3a5-85b3d17dc503"},"vehicle_type_id":"4","last_reported":1726006129,"current_range_meters":6400,"station_id":"ce4bhr12rcd13ifvqhqg","pricing_plan_id":"cebpf4jnsgd1na2vs0mg"},{"bike_id":"6073408b-b4fc-4eeb-ac9e-351084b1cf63","system_id":"levelo_inurba_marseille","lat":43.24814,"lon":5.37461,"is_reserved":false,"is_disabled":false,"rental_uris":{"android":"levelo://app?vid=6073408b-b4fc-4eeb-ac9e-351084b1cf63","ios":"levelo://app?vid=6073408b-b4fc-4eeb-ac9e-351084b1cf63"},"vehicle_type_id":"4","last_reported":1726006129,"current_range_meters":29600,"station_id":"ce4bhgh2rcd13ifvqfb0","pricing_plan_id":"cebpf4jnsgd1na2vs0mg"},{"bike_id":"b3154663-e456-4f9c-b708-ddf2c310f70e","system_id":"levelo_inurba_marseille","lat":43.28716,"lon":5.37377,"is_reserved":false,"is_disabled":false,"rental_uris":{"android":"levelo://app?vid=b3154663-e456-4f9c-b708-ddf2c310f70e","ios":"levelo://app?vid=b3154663-e456-4f9c-b708-ddf2c310f70e"},"vehicle_type_id":"4","last_reported":1726006129,"current_range_meters":6800,"station_id":"ce4bh3p2rcd13ifvqdq0","pricing_plan_id":"cebpf4jnsgd1na2vs0mg"},{"bike_id":"daaba00f-3008-4d46-b3ae-5d03b02d09cc","system_id":"levelo_inurba_marseille","lat":43.24812,"lon":5.37459,"is_reserved":false,"is_disabled":false,"rental_uris":{"android":"levelo://app?vid=daaba00f-3008-4d46-b3ae-5d03b02d09cc","ios":"levelo://app?vid=daaba00f-3008-4d46-b3ae-5d03b02d09cc"},"vehicle_type_id":"4","last_reported":1726006129,"current_range_meters":36400,"station_id":"ce4bhgh2rcd13ifvqfb0","pricing_plan_id":"cebpf4jnsgd1na2vs0mg"},{"bike_id":"087e0913-97cb-4be6-af1f-86ff2ddedf5b","system_id":"levelo_inurba_marseille","lat":43.29564,"lon":5.39964,"is_reserved":false,"is_disabled":false,"rental_uris":{"android":"levelo://app?vid=087e0913-97cb-4be6-af1f-86ff2ddedf5b","ios":"levelo://app?vid=087e0913-97cb-4be6-af1f-86ff2ddedf5b"},"vehicle_type_id":"4","last_reported":1726006129,"current_range_meters":30400,"station_id":"ce4bh312rcd13ifvqdj0","pricing_plan_id":"cebpf4jnsgd1na2vs0mg"},{"bike_id":"8417734d-cc82-4f59-b4a8-9f32c5168b81","system_id":"levelo_inurba_marseille","lat":43.30791,"lon":5.38183,"is_reserved":false,"is_disabled":false,"rental_uris":{"android":"levelo://app?vid=8417734d-cc82-4f59-b4a8-9f32c5168b81","ios":"levelo://app?vid=8417734d-cc82-4f59-b4a8-9f32c5168b81"},"vehicle_type_id":"4","last_reported":1726006129,"current_range_meters":35200,"station_id":"ce4bgt12rcd13ifvqce0","pricing_plan_id":"cebpf4jnsgd1na2vs0mg"},{"bike_id":"b49ab085-3ec0-4cbf-b51a-8999aa870d44","system_id":"levelo_inurba_marseille","lat":43.30602,"lon":5.37224,"is_reserved":false,"is_disabled":false,"rental_uris":{"android":"levelo://app?vid=b49ab085-3ec0-4cbf-b51a-8999aa870d44","ios":"levelo://app?vid=b49ab085-3ec0-4cbf-b51a-8999aa870d44"},"vehicle_type_id":"4","last_reported":1726006129,"current_range_meters":12400,"station_id":"ce4bgqh2rcd13ifvqc4g","pricing_plan_id":"cebpf4jnsgd1na2vs0mg"},{"bike_id":"a41e32a9-535f-4424-a3a9-8eca692f9b0f","system_id":"levelo_inurba_marseille","lat":43.26681,"lon":5.38273,"is_reserved":false,"is_disabled":false,"rental_uris":{"android":"levelo://app?vid=a41e32a9-535f-4424-a3a9-8eca692f9b0f","ios":"levelo://app?vid=a41e32a9-535f-4424-a3a9-8eca692f9b0f"},"vehicle_type_id":"4","last_reported":1726006129,"current_range_meters":38800,"station_id":"ce4bhg92rcd13ifvqf90","pricing_plan_id":"cebpf4jnsgd1na2vs0mg"},{"bike_id":"f5b792f3-9204-4e48-817b-276580a058b5","system_id":"levelo_inurba_marseille","lat":43.29844,"lon":5.37597,"is_reserved":false,"is_disabled":false,"rental_uris":{"android":"levelo://app?vid=f5b792f3-9204-4e48-817b-276580a058b5","ios":"levelo://app?vid=f5b792f3-9204-4e48-817b-276580a058b5"},"vehicle_type_id":"4","last_reported":1726006129,"current_range_meters":36400,"station_id":"","pricing_plan_id":"cebpf4jnsgd1na2vs0mg"},{"bike_id":"3a5232c5-cc45-44ea-84c3-d1e824e620d9","system_id":"levelo_inurba_marseille","lat":43.31999,"lon":5.38151,"is_reserved":false,"is_disabled":false,"rental_uris":{"android":"levelo://app?vid=3a5232c5-cc45-44ea-84c3-d1e824e620d9","ios":"levelo://app?vid=3a5232c5-cc45-44ea-84c3-d1e824e620d9"},"vehicle_type_id":"4","last_reported":1726006129,"current_range_meters":22800,"station_id":"ce4bhr12rcd13ifvqhpg","pricing_plan_id":"cebpf4jnsgd1na2vs0mg"},{"bike_id":"c4a11cd6-597d-4826-ad55-56b34d91dddb","system_id":"levelo_inurba_marseille","lat":43.24071,"lon":5.3776,"is_reserved":false,"is_disabled":false,"rental_uris":{"android":"levelo://app?vid=c4a11cd6-597d-4826-ad55-56b34d91dddb","ios":"levelo://app?vid=c4a11cd6-597d-4826-ad55-56b34d91dddb"},"vehicle_type_id":"4","last_reported":1726006129,"current_range_meters":15200,"station_id":"ce4bhnp2rcd13ifvqgvg","pricing_plan_id":"cebpf4jnsgd1na2vs0mg"},{"bike_id":"d54594b9-a6b7-4d66-b6dc-634366005ad6","system_id":"levelo_inurba_marseille","lat":43.3149,"lon":5.37308,"is_reserved":false,"is_disabled":false,"rental_uris":{"android":"levelo://app?vid=d54594b9-a6b7-4d66-b6dc-634366005ad6","ios":"levelo://app?vid=d54594b9-a6b7-4d66-b6dc-634366005ad6"},"vehicle_type_id":"4","last_reported":1726006129,"current_range_meters":16800,"station_id":"ce4bgt12rcd13ifvqcd0","pricing_plan_id":"cebpf4jnsgd1na2vs0mg"},{"bike_id":"d479c876-2159-43b6-a8cf-685fded57ab7","system_id":"levelo_inurba_marseille","lat":43.32365,"lon":5.38882,"is_reserved":false,"is_disabled":false,"rental_uris":{"android":"levelo://app?vid=d479c876-2159-43b6-a8cf-685fded57ab7","ios":"levelo://app?vid=d479c876-2159-43b6-a8cf-685fded57ab7"},"vehicle_type_id":"4","last_reported":1726006129,"current_range_meters":8000,"station_id":"ce4bhqp2rcd13ifvqhog","pricing_plan_id":"cebpf4jnsgd1na2vs0mg"},{"bike_id":"b02406c7-9bcc-4f4f-b2a0-db482974a705","system_id":"levelo_inurba_marseille","lat":43.23187,"lon":5.39983,"is_reserved":false,"is_disabled":false,"rental_uris":{"android":"levelo://app?vid=b02406c7-9bcc-4f4f-b2a0-db482974a705","ios":"levelo://app?vid=b02406c7-9bcc-4f4f-b2a0-db482974a705"},"vehicle_type_id":"4","last_reported":1726006129,"current_range_meters":30000,"station_id":"ce4bhn12rcd13ifvqgqg","pricing_plan_id":"cebpf4jnsgd1na2vs0mg"},{"bike_id":"502599a9-0fd7-4d67-ab54-668eb8998d53","system_id":"levelo_inurba_marseille","lat":43.28723,"lon":5.36085,"is_reserved":false,"is_disabled":false,"rental_uris":{"android":"levelo://app?vid=502599a9-0fd7-4d67-ab54-668eb8998d53","ios":"levelo://app?vid=502599a9-0fd7-4d67-ab54-668eb8998d53"},"vehicle_type_id":"4","last_reported":1726006129,"current_range_meters":30000,"station_id":"cki0cbj6b192h4jlfktg","pricing_plan_id":"cebpf4jnsgd1na2vs0mg"},{"bike_id":"41235e14-61d1-4185-87b7-2fcdf6c4e7dc","system_id":"levelo_inurba_marseille","lat":43.29258,"lon":5.38441,"is_reserved":false,"is_disabled":false,"rental_uris":{"android":"levelo://app?vid=41235e14-61d1-4185-87b7-2fcdf6c4e7dc","ios":"levelo://app?vid=41235e14-61d1-4185-87b7-2fcdf6c4e7dc"},"vehicle_type_id":"4","last_reported":1726006129,"current_range_meters":19200,"station_id":"ce4bh692rcd13ifvqea0","pricing_plan_id":"cebpf4jnsgd1na2vs0mg"},{"bike_id":"30750b38-027a-436e-9588-363374a3aa03","system_id":"levelo_inurba_marseille","lat":43.29986,"lon":5.37187,"is_reserved":false,"is_disabled":false,"rental_uris":{"android":"levelo://app?vid=30750b38-027a-436e-9588-363374a3aa03","ios":"levelo://app?vid=30750b38-027a-436e-9588-363374a3aa03"},"vehicle_type_id":"4","last_reported":1726006129,"current_range_meters":35200,"station_id":"ce4bgr92rcd13ifvqc7g","pricing_plan_id":"cebpf4jnsgd1na2vs0mg"},{"bike_id":"aa48e06d-2a80-4fd2-abe7-d40b52d43407","system_id":"levelo_inurba_marseille","lat":43.28729,"lon":5.3608,"is_reserved":false,"is_disabled":false,"rental_uris":{"android":"levelo://app?vid=aa48e06d-2a80-4fd2-abe7-d40b52d43407","ios":"levelo://app?vid=aa48e06d-2a80-4fd2-abe7-d40b52d43407"},"vehicle_type_id":"4","last_reported":1726006129,"current_range_meters":28000,"station_id":"cki0cbj6b192h4jlfktg","pricing_plan_id":"cebpf4jnsgd1na2vs0mg"},{"bike_id":"6f8ceca9-efdc-4afc-832a-772ca41bad51","system_id":"levelo_inurba_marseille","lat":43.31719,"lon":5.4241,"is_reserved":false,"is_disabled":false,"rental_uris":{"android":"levelo://app?vid=6f8ceca9-efdc-4afc-832a-772ca41bad51","ios":"levelo://app?vid=6f8ceca9-efdc-4afc-832a-772ca41bad51"},"vehicle_type_id":"4","last_reported":1726006129,"current_range_meters":35600,"station_id":"ce4bhp92rcd13ifvqhbg","pricing_plan_id":"cebpf4jnsgd1na2vs0mg"},{"bike_id":"9ab5287d-e0da-4d85-a4c5-9ff97a78a028","system_id":"levelo_inurba_marseille","lat":43.25489,"lon":5.37649,"is_reserved":false,"is_disabled":false,"rental_uris":{"android":"levelo://app?vid=9ab5287d-e0da-4d85-a4c5-9ff97a78a028","ios":"levelo://app?vid=9ab5287d-e0da-4d85-a4c5-9ff97a78a028"},"vehicle_type_id":"4","last_reported":1726006129,"current_range_meters":30400,"station_id":"ce4bhh12rcd13ifvqff0","pricing_plan_id":"cebpf4jnsgd1na2vs0mg"},{"bike_id":"4b740380-435b-4ce9-9b96-3da5fb37bac6","system_id":"levelo_inurba_marseille","lat":43.30963,"lon":5.40055,"is_reserved":false,"is_disabled":false,"rental_uris":{"android":"levelo://app?vid=4b740380-435b-4ce9-9b96-3da5fb37bac6","ios":"levelo://app?vid=4b740380-435b-4ce9-9b96-3da5fb37bac6"},"vehicle_type_id":"4","last_reported":1726006129,"current_range_meters":11200,"station_id":"ce4bhpp2rcd13ifvqhgg","pricing_plan_id":"cebpf4jnsgd1na2vs0mg"},{"bike_id":"7b2b6aa9-d9ad-475c-a16f-abdf3eec6d77","system_id":"levelo_inurba_marseille","lat":43.2293,"lon":5.35379,"is_reserved":false,"is_disabled":false,"rental_uris":{"android":"levelo://app?vid=7b2b6aa9-d9ad-475c-a16f-abdf3eec6d77","ios":"levelo://app?vid=7b2b6aa9-d9ad-475c-a16f-abdf3eec6d77"},"vehicle_type_id":"4","last_reported":1726006129,"current_range_meters":20000,"station_id":"cpo3532slgdg3j2ikp40","pricing_plan_id":"cebpf4jnsgd1na2vs0mg"},{"bike_id":"ff227ad7-5145-445f-aa3e-c67ab06800ce","system_id":"levelo_inurba_marseille","lat":43.30447,"lon":5.38891,"is_reserved":false,"is_disabled":false,"rental_uris":{"android":"levelo://app?vid=ff227ad7-5145-445f-aa3e-c67ab06800ce","ios":"levelo://app?vid=ff227ad7-5145-445f-aa3e-c67ab06800ce"},"vehicle_type_id":"4","last_reported":1726006129,"current_range_meters":36400,"station_id":"ce4bgk12rcd13ifvqbi0","pricing_plan_id":"cebpf4jnsgd1na2vs0mg"},{"bike_id":"7f4ea667-56df-4b26-bd46-3e71bc3cc245","system_id":"levelo_inurba_marseille","lat":43.2931,"lon":5.35569,"is_reserved":false,"is_disabled":false,"rental_uris":{"android":"levelo://app?vid=7f4ea667-56df-4b26-bd46-3e71bc3cc245","ios":"levelo://app?vid=7f4ea667-56df-4b26-bd46-3e71bc3cc245"},"vehicle_type_id":"4","last_reported":1726006129,"current_range_meters":6400,"station_id":"","pricing_plan_id":"cebpf4jnsgd1na2vs0mg"},{"bike_id":"3b843d38-1dd3-4ffb-b2b3-d08d8dd683d7","system_id":"levelo_inurba_marseille","lat":43.29884,"lon":5.3891,"is_reserved":false,"is_disabled":false,"rental_uris":{"android":"levelo://app?vid=3b843d38-1dd3-4ffb-b2b3-d08d8dd683d7","ios":"levelo://app?vid=3b843d38-1dd3-4ffb-b2b3-d08d8dd683d7"},"vehicle_type_id":"4","last_reported":1726006129,"current_range_meters":38400,"station_id":"ce4bh392rcd13ifvqdl0","pricing_plan_id":"cebpf4jnsgd1na2vs0mg"},{"bike_id":"3b163329-75e0-42ce-a395-e2936b5dfbec","system_id":"levelo_inurba_marseille","lat":43.2956,"lon":5.42288,"is_reserved":false,"is_disabled":false,"rental_uris":{"android":"levelo://app?vid=3b163329-75e0-42ce-a395-e2936b5dfbec","ios":"levelo://app?vid=3b163329-75e0-42ce-a395-e2936b5dfbec"},"vehicle_type_id":"4","last_reported":1726006129,"current_range_meters":30400,"station_id":"ce4bhph2rcd13ifvqhdg","pricing_plan_id":"cebpf4jnsgd1na2vs0mg"},{"bike_id":"d3c8ea6e-d01d-4d9e-9557-beffc1884ace","system_id":"levelo_inurba_marseille","lat":43.32285,"lon":5.38271,"is_reserved":false,"is_disabled":false,"rental_uris":{"android":"levelo://app?vid=d3c8ea6e-d01d-4d9e-9557-beffc1884ace","ios":"levelo://app?vid=d3c8ea6e-d01d-4d9e-9557-beffc1884ace"},"vehicle_type_id":"4","last_reported":1726006129,"current_range_meters":38800,"station_id":"ce4bhr12rcd13ifvqhqg","pricing_plan_id":"cebpf4jnsgd1na2vs0mg"},{"bike_id":"995df060-fd11-4a50-98ae-9e03debd03ba","system_id":"levelo_inurba_marseille","lat":43.312236,"lon":5.368591,"is_reserved":false,"is_disabled":false,"rental_uris":{"android":"levelo://app?vid=995df060-fd11-4a50-98ae-9e03debd03ba","ios":"levelo://app?vid=995df060-fd11-4a50-98ae-9e03debd03ba"},"vehicle_type_id":"4","last_reported":1726006129,"current_range_meters":10800,"station_id":"ce4bgl92rcd13ifvqbq0","pricing_plan_id":"cebpf4jnsgd1na2vs0mg"},{"bike_id":"4b6020ac-6f7c-49d8-a279-afedbd336735","system_id":"levelo_inurba_marseille","lat":43.31998,"lon":5.38155,"is_reserved":false,"is_disabled":false,"rental_uris":{"android":"levelo://app?vid=4b6020ac-6f7c-49d8-a279-afedbd336735","ios":"levelo://app?vid=4b6020ac-6f7c-49d8-a279-afedbd336735"},"vehicle_type_id":"4","last_reported":1726006129,"current_range_meters":23200,"station_id":"ce4bhr12rcd13ifvqhpg","pricing_plan_id":"cebpf4jnsgd1na2vs0mg"},{"bike_id":"507f99d3-0b82-4a35-89e2-98eb58769a71","system_id":"levelo_inurba_marseille","lat":43.23192,"lon":5.35549,"is_reserved":false,"is_disabled":false,"rental_uris":{"android":"levelo://app?vid=507f99d3-0b82-4a35-89e2-98eb58769a71","ios":"levelo://app?vid=507f99d3-0b82-4a35-89e2-98eb58769a71"},"vehicle_type_id":"4","last_reported":1726006129,"current_range_meters":14800,"station_id":"ce4bhu92rcd13ifvqi70","pricing_plan_id":"cebpf4jnsgd1na2vs0mg"},{"bike_id":"55655b5f-2417-4cb9-a662-d6cecf83fcf4","system_id":"levelo_inurba_marseille","lat":43.31075,"lon":5.38108,"is_reserved":false,"is_disabled":false,"rental_uris":{"android":"levelo://app?vid=55655b5f-2417-4cb9-a662-d6cecf83fcf4","ios":"levelo://app?vid=55655b5f-2417-4cb9-a662-d6cecf83fcf4"},"vehicle_type_id":"4","last_reported":1726006129,"current_range_meters":21600,"station_id":"","pricing_plan_id":"cebpf4jnsgd1na2vs0mg"},{"bike_id":"f00b4cfb-9330-4bb5-b0ea-58a7d85e8b92","system_id":"levelo_inurba_marseille","lat":43.30217,"lon":5.39463,"is_reserved":false,"is_disabled":false,"rental_uris":{"android":"levelo://app?vid=f00b4cfb-9330-4bb5-b0ea-58a7d85e8b92","ios":"levelo://app?vid=f00b4cfb-9330-4bb5-b0ea-58a7d85e8b92"},"vehicle_type_id":"4","last_reported":1726006129,"current_range_meters":28000,"station_id":"ce4bh0p2rcd13ifvqd70","pricing_plan_id":"cebpf4jnsgd1na2vs0mg"},{"bike_id":"24ea4db4-bcd3-4773-a10c-e0451f1c0df9","system_id":"levelo_inurba_marseille","lat":43.28036,"lon":5.3694,"is_reserved":false,"is_disabled":false,"rental_uris":{"android":"levelo://app?vid=24ea4db4-bcd3-4773-a10c-e0451f1c0df9","ios":"levelo://app?vid=24ea4db4-bcd3-4773-a10c-e0451f1c0df9"},"vehicle_type_id":"4","last_reported":1726006129,"current_range_meters":36800,"station_id":"ce4bha12rcd13ifvqef0","pricing_plan_id":"cebpf4jnsgd1na2vs0mg"},{"bike_id":"91fe6564-b2a8-4a6b-8685-000714213e13","system_id":"levelo_inurba_marseille","lat":43.29901,"lon":5.37559,"is_reserved":false,"is_disabled":false,"rental_uris":{"android":"levelo://app?vid=91fe6564-b2a8-4a6b-8685-000714213e13","ios":"levelo://app?vid=91fe6564-b2a8-4a6b-8685-000714213e13"},"vehicle_type_id":"4","last_reported":1726006129,"current_range_meters":30000,"station_id":"","pricing_plan_id":"cebpf4jnsgd1na2vs0mg"},{"bike_id":"36e02e03-11f3-41ac-9b0f-93c4017adc48","system_id":"levelo_inurba_marseille","lat":43.27354,"lon":5.41599,"is_reserved":false,"is_disabled":false,"rental_uris":{"android":"levelo://app?vid=36e02e03-11f3-41ac-9b0f-93c4017adc48","ios":"levelo://app?vid=36e02e03-11f3-41ac-9b0f-93c4017adc48"},"vehicle_type_id":"4","last_reported":1726006129,"current_range_meters":4400,"station_id":"","pricing_plan_id":"cebpf4jnsgd1na2vs0mg"},{"bike_id":"a96df557-eb85-482a-a2f9-6a35f4bb1ec1","system_id":"levelo_inurba_marseille","lat":43.31683,"lon":5.40472,"is_reserved":false,"is_disabled":false,"rental_uris":{"android":"levelo://app?vid=a96df557-eb85-482a-a2f9-6a35f4bb1ec1","ios":"levelo://app?vid=a96df557-eb85-482a-a2f9-6a35f4bb1ec1"},"vehicle_type_id":"4","last_reported":1726006129,"current_range_meters":32800,"station_id":"ce4bh012rcd13ifvqd00","pricing_plan_id":"cebpf4jnsgd1na2vs0mg"},{"bike_id":"b2835e75-c65e-4729-be9f-e3e00de4cc36","system_id":"levelo_inurba_marseille","lat":43.292129,"lon":5.392676,"is_reserved":false,"is_disabled":false,"rental_uris":{"android":"levelo://app?vid=b2835e75-c65e-4729-be9f-e3e00de4cc36","ios":"levelo://app?vid=b2835e75-c65e-4729-be9f-e3e00de4cc36"},"vehicle_type_id":"4","last_reported":1726006129,"current_range_meters":38800,"station_id":"ce4bh192rcd13ifvqdd0","pricing_plan_id":"cebpf4jnsgd1na2vs0mg"},{"bike_id":"36973a74-dcb5-42a3-b6ab-222146836943","system_id":"levelo_inurba_marseille","lat":43.3176,"lon":5.39009,"is_reserved":false,"is_disabled":false,"rental_uris":{"android":"levelo://app?vid=36973a74-dcb5-42a3-b6ab-222146836943","ios":"levelo://app?vid=36973a74-dcb5-42a3-b6ab-222146836943"},"vehicle_type_id":"4","last_reported":1726006129,"current_range_meters":17200,"station_id":"ce4bhqp2rcd13ifvqhng","pricing_plan_id":"cebpf4jnsgd1na2vs0mg"},{"bike_id":"4dc41bf5-9ea0-4e32-a6f7-f44ecc919c2a","system_id":"levelo_inurba_marseille","lat":43.31698,"lon":5.37755,"is_reserved":false,"is_disabled":false,"rental_uris":{"android":"levelo://app?vid=4dc41bf5-9ea0-4e32-a6f7-f44ecc919c2a","ios":"levelo://app?vid=4dc41bf5-9ea0-4e32-a6f7-f44ecc919c2a"},"vehicle_type_id":"4","last_reported":1726006129,"current_range_meters":38800,"station_id":"ce4bgth2rcd13ifvqch0","pricing_plan_id":"cebpf4jnsgd1na2vs0mg"},{"bike_id":"4dee8e14-2651-4989-821f-b3dba2009f28","system_id":"levelo_inurba_marseille","lat":43.25725,"lon":5.41112,"is_reserved":false,"is_disabled":false,"rental_uris":{"android":"levelo://app?vid=4dee8e14-2651-4989-821f-b3dba2009f28","ios":"levelo://app?vid=4dee8e14-2651-4989-821f-b3dba2009f28"},"vehicle_type_id":"4","last_reported":1726006129,"current_range_meters":34000,"station_id":"ce4bhkp2rcd13ifvqgd0","pricing_plan_id":"cebpf4jnsgd1na2vs0mg"},{"bike_id":"d59b5a73-bb64-4578-a6da-40de28d51742","system_id":"levelo_inurba_marseille","lat":43.30929,"lon":5.40147,"is_reserved":false,"is_disabled":false,"rental_uris":{"android":"levelo://app?vid=d59b5a73-bb64-4578-a6da-40de28d51742","ios":"levelo://app?vid=d59b5a73-bb64-4578-a6da-40de28d51742"},"vehicle_type_id":"4","last_reported":1726006129,"current_range_meters":32400,"station_id":"ce4bgvp2rcd13ifvqct0","pricing_plan_id":"cebpf4jnsgd1na2vs0mg"},{"bike_id":"83cd4f01-d36f-4678-b409-1a73fc637a39","system_id":"levelo_inurba_marseille","lat":43.30963,"lon":5.400275,"is_reserved":false,"is_disabled":false,"rental_uris":{"android":"levelo://app?vid=83cd4f01-d36f-4678-b409-1a73fc637a39","ios":"levelo://app?vid=83cd4f01-d36f-4678-b409-1a73fc637a39"},"vehicle_type_id":"4","last_reported":1726006129,"current_range_meters":32400,"station_id":"ce4bgvp2rcd13ifvqct0","pricing_plan_id":"cebpf4jnsgd1na2vs0mg"},{"bike_id":"00fc663b-1b6a-46f5-8168-1e1ed34a719e","system_id":"levelo_inurba_marseille","lat":43.29551,"lon":5.42284,"is_reserved":false,"is_disabled":false,"rental_uris":{"android":"levelo://app?vid=00fc663b-1b6a-46f5-8168-1e1ed34a719e","ios":"levelo://app?vid=00fc663b-1b6a-46f5-8168-1e1ed34a719e"},"vehicle_type_id":"4","last_reported":1726006129,"current_range_meters":6000,"station_id":"ce4bhph2rcd13ifvqhdg","pricing_plan_id":"cebpf4jnsgd1na2vs0mg"},{"bike_id":"5a3fd4a6-1755-465c-8d8f-1a84ddce9916","system_id":"levelo_inurba_marseille","lat":43.25007,"lon":5.38915,"is_reserved":false,"is_disabled":false,"rental_uris":{"android":"levelo://app?vid=5a3fd4a6-1755-465c-8d8f-1a84ddce9916","ios":"levelo://app?vid=5a3fd4a6-1755-465c-8d8f-1a84ddce9916"},"vehicle_type_id":"4","last_reported":1726006129,"current_range_meters":28400,"station_id":"ce4bhgp2rcd13ifvqfd0","pricing_plan_id":"cebpf4jnsgd1na2vs0mg"},{"bike_id":"9042a679-e579-498b-bc4f-3859be122eff","system_id":"levelo_inurba_marseille","lat":43.31762,"lon":5.39009,"is_reserved":false,"is_disabled":false,"rental_uris":{"android":"levelo://app?vid=9042a679-e579-498b-bc4f-3859be122eff","ios":"levelo://app?vid=9042a679-e579-498b-bc4f-3859be122eff"},"vehicle_type_id":"4","last_reported":1726006129,"current_range_meters":6400,"station_id":"ce4bhqp2rcd13ifvqhng","pricing_plan_id":"cebpf4jnsgd1na2vs0mg"},{"bike_id":"b24bcaac-1ebb-42e7-886a-a6b3b2b9eba8","system_id":"levelo_inurba_marseille","lat":43.28456,"lon":5.3589,"is_reserved":false,"is_disabled":false,"rental_uris":{"android":"levelo://app?vid=b24bcaac-1ebb-42e7-886a-a6b3b2b9eba8","ios":"levelo://app?vid=b24bcaac-1ebb-42e7-886a-a6b3b2b9eba8"},"vehicle_type_id":"4","last_reported":1726006129,"current_range_meters":40000,"station_id":"ce4bhah2rcd13ifvqei0","pricing_plan_id":"cebpf4jnsgd1na2vs0mg"},{"bike_id":"c8556cf0-f832-42b6-92cc-1120f0bf955c","system_id":"levelo_inurba_marseille","lat":43.31764,"lon":5.39008,"is_reserved":false,"is_disabled":false,"rental_uris":{"android":"levelo://app?vid=c8556cf0-f832-42b6-92cc-1120f0bf955c","ios":"levelo://app?vid=c8556cf0-f832-42b6-92cc-1120f0bf955c"},"vehicle_type_id":"4","last_reported":1726006129,"current_range_meters":32800,"station_id":"ce4bhqp2rcd13ifvqhng","pricing_plan_id":"cebpf4jnsgd1na2vs0mg"},{"bike_id":"43a84af0-6fc9-45fc-9a33-c0cfe186c922","system_id":"levelo_inurba_marseille","lat":43.23964,"lon":5.36635,"is_reserved":false,"is_disabled":false,"rental_uris":{"android":"levelo://app?vid=43a84af0-6fc9-45fc-9a33-c0cfe186c922","ios":"levelo://app?vid=43a84af0-6fc9-45fc-9a33-c0cfe186c922"},"vehicle_type_id":"4","last_reported":1726006129,"current_range_meters":16800,"station_id":"ce4bhi12rcd13ifvqfp0","pricing_plan_id":"cebpf4jnsgd1na2vs0mg"},{"bike_id":"6c3f9e7e-8a4e-469e-84b6-4eedcf57fc53","system_id":"levelo_inurba_marseille","lat":43.31119,"lon":5.37775,"is_reserved":false,"is_disabled":false,"rental_uris":{"android":"levelo://app?vid=6c3f9e7e-8a4e-469e-84b6-4eedcf57fc53","ios":"levelo://app?vid=6c3f9e7e-8a4e-469e-84b6-4eedcf57fc53"},"vehicle_type_id":"4","last_reported":1726006129,"current_range_meters":31200,"station_id":"ce4bgt92rcd13ifvqcg0","pricing_plan_id":"cebpf4jnsgd1na2vs0mg"},{"bike_id":"e7f1ce34-711f-4386-95b9-fe5f61acdbcc","system_id":"levelo_inurba_marseille","lat":43.27377,"lon":5.36256,"is_reserved":false,"is_disabled":false,"rental_uris":{"android":"levelo://app?vid=e7f1ce34-711f-4386-95b9-fe5f61acdbcc","ios":"levelo://app?vid=e7f1ce34-711f-4386-95b9-fe5f61acdbcc"},"vehicle_type_id":"4","last_reported":1726006129,"current_range_meters":34800,"station_id":"ce4bhbh2rcd13ifvqeo0","pricing_plan_id":"cebpf4jnsgd1na2vs0mg"},{"bike_id":"5876c5ef-9fac-478d-bd3c-ea1780c21005","system_id":"levelo_inurba_marseille","lat":43.33762,"lon":5.3745,"is_reserved":false,"is_disabled":false,"rental_uris":{"android":"levelo://app?vid=5876c5ef-9fac-478d-bd3c-ea1780c21005","ios":"levelo://app?vid=5876c5ef-9fac-478d-bd3c-ea1780c21005"},"vehicle_type_id":"4","last_reported":1726006129,"current_range_meters":35200,"station_id":"","pricing_plan_id":"cebpf4jnsgd1na2vs0mg"},{"bike_id":"3ef293cb-6b10-47c2-a61b-1c747b67c2aa","system_id":"levelo_inurba_marseille","lat":43.22931,"lon":5.35376,"is_reserved":false,"is_disabled":false,"rental_uris":{"android":"levelo://app?vid=3ef293cb-6b10-47c2-a61b-1c747b67c2aa","ios":"levelo://app?vid=3ef293cb-6b10-47c2-a61b-1c747b67c2aa"},"vehicle_type_id":"4","last_reported":1726006129,"current_range_meters":38400,"station_id":"cpo3532slgdg3j2ikp40","pricing_plan_id":"cebpf4jnsgd1na2vs0mg"},{"bike_id":"9658173f-729f-44c0-b272-df35fcc2e649","system_id":"levelo_inurba_marseille","lat":43.34144,"lon":5.40904,"is_reserved":false,"is_disabled":false,"rental_uris":{"android":"levelo://app?vid=9658173f-729f-44c0-b272-df35fcc2e649","ios":"levelo://app?vid=9658173f-729f-44c0-b272-df35fcc2e649"},"vehicle_type_id":"4","last_reported":1726006129,"current_range_meters":33600,"station_id":"ce4bhqh2rcd13ifvqhlg","pricing_plan_id":"cebpf4jnsgd1na2vs0mg"},{"bike_id":"ac68cfcd-c622-4cae-a4f4-25995a94d109","system_id":"levelo_inurba_marseille","lat":43.3266,"lon":5.40998,"is_reserved":false,"is_disabled":false,"rental_uris":{"android":"levelo://app?vid=ac68cfcd-c622-4cae-a4f4-25995a94d109","ios":"levelo://app?vid=ac68cfcd-c622-4cae-a4f4-25995a94d109"},"vehicle_type_id":"4","last_reported":1726006129,"current_range_meters":36400,"station_id":"ce4bhpp2rcd13ifvqhgg","pricing_plan_id":"cebpf4jnsgd1na2vs0mg"},{"bike_id":"6775574d-e192-47e4-b0c2-1961a40caa1b","system_id":"levelo_inurba_marseille","lat":43.302111,"lon":5.394719,"is_reserved":false,"is_disabled":false,"rental_uris":{"android":"levelo://app?vid=6775574d-e192-47e4-b0c2-1961a40caa1b","ios":"levelo://app?vid=6775574d-e192-47e4-b0c2-1961a40caa1b"},"vehicle_type_id":"4","last_reported":1726006129,"current_range_meters":33600,"station_id":"ce4bh192rcd13ifvqdd0","pricing_plan_id":"cebpf4jnsgd1na2vs0mg"},{"bike_id":"9d97c6b7-d5ff-4ca7-999e-9c4395e89c55","system_id":"levelo_inurba_marseille","lat":43.24071,"lon":5.37765,"is_reserved":false,"is_disabled":false,"rental_uris":{"android":"levelo://app?vid=9d97c6b7-d5ff-4ca7-999e-9c4395e89c55","ios":"levelo://app?vid=9d97c6b7-d5ff-4ca7-999e-9c4395e89c55"},"vehicle_type_id":"4","last_reported":1726006129,"current_range_meters":38800,"station_id":"ce4bhnp2rcd13ifvqgvg","pricing_plan_id":"cebpf4jnsgd1na2vs0mg"},{"bike_id":"1ef79a77-1c0d-48d1-8f30-18d2217081a4","system_id":"levelo_inurba_marseille","lat":43.2894,"lon":5.3643,"is_reserved":false,"is_disabled":false,"rental_uris":{"android":"levelo://app?vid=1ef79a77-1c0d-48d1-8f30-18d2217081a4","ios":"levelo://app?vid=1ef79a77-1c0d-48d1-8f30-18d2217081a4"},"vehicle_type_id":"4","last_reported":1726006129,"current_range_meters":14400,"station_id":"ce4bhc92rcd13ifvqetg","pricing_plan_id":"cebpf4jnsgd1na2vs0mg"},{"bike_id":"8f46fb95-7196-4600-a4bb-31374c79e4fd","system_id":"levelo_inurba_marseille","lat":43.2466,"lon":5.38169,"is_reserved":false,"is_disabled":false,"rental_uris":{"android":"levelo://app?vid=8f46fb95-7196-4600-a4bb-31374c79e4fd","ios":"levelo://app?vid=8f46fb95-7196-4600-a4bb-31374c79e4fd"},"vehicle_type_id":"4","last_reported":1726006129,"current_range_meters":39200,"station_id":"ce4bhih2rcd13ifvqfr0","pricing_plan_id":"cebpf4jnsgd1na2vs0mg"},{"bike_id":"30ac1b31-ef72-4741-a044-8e116b2f3f13","system_id":"levelo_inurba_marseille","lat":43.30871,"lon":5.39636,"is_reserved":false,"is_disabled":false,"rental_uris":{"android":"levelo://app?vid=30ac1b31-ef72-4741-a044-8e116b2f3f13","ios":"levelo://app?vid=30ac1b31-ef72-4741-a044-8e116b2f3f13"},"vehicle_type_id":"4","last_reported":1726006129,"current_range_meters":38400,"station_id":"ce4bh012rcd13ifvqcv0","pricing_plan_id":"cebpf4jnsgd1na2vs0mg"},{"bike_id":"e72f9d1f-419f-450b-86df-c8dd274dc578","system_id":"levelo_inurba_marseille","lat":43.31752,"lon":5.39024,"is_reserved":false,"is_disabled":false,"rental_uris":{"android":"levelo://app?vid=e72f9d1f-419f-450b-86df-c8dd274dc578","ios":"levelo://app?vid=e72f9d1f-419f-450b-86df-c8dd274dc578"},"vehicle_type_id":"4","last_reported":1726006129,"current_range_meters":11200,"station_id":"ce4bhqp2rcd13ifvqhng","pricing_plan_id":"cebpf4jnsgd1na2vs0mg"},{"bike_id":"7abb3655-b461-4e13-bc97-8c353f282d6b","system_id":"levelo_inurba_marseille","lat":43.23191,"lon":5.39981,"is_reserved":false,"is_disabled":false,"rental_uris":{"android":"levelo://app?vid=7abb3655-b461-4e13-bc97-8c353f282d6b","ios":"levelo://app?vid=7abb3655-b461-4e13-bc97-8c353f282d6b"},"vehicle_type_id":"4","last_reported":1726006129,"current_range_meters":8800,"station_id":"ce4bhn12rcd13ifvqgqg","pricing_plan_id":"cebpf4jnsgd1na2vs0mg"},{"bike_id":"3f48e559-de96-42ea-88b9-925d9064e054","system_id":"levelo_inurba_marseille","lat":43.31362,"lon":5.38495,"is_reserved":false,"is_disabled":false,"rental_uris":{"android":"levelo://app?vid=3f48e559-de96-42ea-88b9-925d9064e054","ios":"levelo://app?vid=3f48e559-de96-42ea-88b9-925d9064e054"},"vehicle_type_id":"4","last_reported":1726006129,"current_range_meters":10000,"station_id":"ce4bgt92rcd13ifvqcf0","pricing_plan_id":"cebpf4jnsgd1na2vs0mg"},{"bike_id":"2d3e3ae7-05b6-4fc0-a64a-df935b3f58a2","system_id":"levelo_inurba_marseille","lat":43.31071,"lon":5.38356,"is_reserved":false,"is_disabled":false,"rental_uris":{"android":"levelo://app?vid=2d3e3ae7-05b6-4fc0-a64a-df935b3f58a2","ios":"levelo://app?vid=2d3e3ae7-05b6-4fc0-a64a-df935b3f58a2"},"vehicle_type_id":"4","last_reported":1726006129,"current_range_meters":38800,"station_id":"ce4bgv92rcd13ifvqcr0","pricing_plan_id":"cebpf4jnsgd1na2vs0mg"},{"bike_id":"0e70e395-a2ae-4ef0-a223-ec54569bc92e","system_id":"levelo_inurba_marseille","lat":43.29019,"lon":5.38642,"is_reserved":false,"is_disabled":false,"rental_uris":{"android":"levelo://app?vid=0e70e395-a2ae-4ef0-a223-ec54569bc92e","ios":"levelo://app?vid=0e70e395-a2ae-4ef0-a223-ec54569bc92e"},"vehicle_type_id":"4","last_reported":1726006129,"current_range_meters":38800,"station_id":"ce4bh4p2rcd13ifvqe0g","pricing_plan_id":"cebpf4jnsgd1na2vs0mg"},{"bike_id":"1836bf3a-473d-4a07-8219-109d380fba4b","system_id":"levelo_inurba_marseille","lat":43.30961,"lon":5.39039,"is_reserved":false,"is_disabled":false,"rental_uris":{"android":"levelo://app?vid=1836bf3a-473d-4a07-8219-109d380fba4b","ios":"levelo://app?vid=1836bf3a-473d-4a07-8219-109d380fba4b"},"vehicle_type_id":"4","last_reported":1726006129,"current_range_meters":24400,"station_id":"ce4bgup2rcd13ifvqco0","pricing_plan_id":"cebpf4jnsgd1na2vs0mg"},{"bike_id":"09ffcbdf-58a8-4a2b-b359-e87abe1f9d3d","system_id":"levelo_inurba_marseille","lat":43.28654,"lon":5.36357,"is_reserved":false,"is_disabled":false,"rental_uris":{"android":"levelo://app?vid=09ffcbdf-58a8-4a2b-b359-e87abe1f9d3d","ios":"levelo://app?vid=09ffcbdf-58a8-4a2b-b359-e87abe1f9d3d"},"vehicle_type_id":"4","last_reported":1726006129,"current_range_meters":36400,"station_id":"ce4bhah2rcd13ifvqej0","pricing_plan_id":"cebpf4jnsgd1na2vs0mg"},{"bike_id":"efc07193-6a27-4621-a593-eee5190ed64b","system_id":"levelo_inurba_marseille","lat":43.29781,"lon":5.3712,"is_reserved":false,"is_disabled":false,"rental_uris":{"android":"levelo://app?vid=efc07193-6a27-4621-a593-eee5190ed64b","ios":"levelo://app?vid=efc07193-6a27-4621-a593-eee5190ed64b"},"vehicle_type_id":"4","last_reported":1726006129,"current_range_meters":32400,"station_id":"ce4bgop2rcd13ifvqc1g","pricing_plan_id":"cebpf4jnsgd1na2vs0mg"},{"bike_id":"e5b123ca-7506-4eeb-b9eb-0ff4860b1d5d","system_id":"levelo_inurba_marseille","lat":43.27175,"lon":5.40995,"is_reserved":false,"is_disabled":false,"rental_uris":{"android":"levelo://app?vid=e5b123ca-7506-4eeb-b9eb-0ff4860b1d5d","ios":"levelo://app?vid=e5b123ca-7506-4eeb-b9eb-0ff4860b1d5d"},"vehicle_type_id":"4","last_reported":1726006129,"current_range_meters":32000,"station_id":"ce4bhl12rcd13ifvqgf0","pricing_plan_id":"cebpf4jnsgd1na2vs0mg"},{"bike_id":"6193a3b5-4741-4e20-892f-71f4056d0de9","system_id":"levelo_inurba_marseille","lat":43.23191,"lon":5.39982,"is_reserved":false,"is_disabled":false,"rental_uris":{"android":"levelo://app?vid=6193a3b5-4741-4e20-892f-71f4056d0de9","ios":"levelo://app?vid=6193a3b5-4741-4e20-892f-71f4056d0de9"},"vehicle_type_id":"4","last_reported":1726006129,"current_range_meters":38800,"station_id":"ce4bhn12rcd13ifvqgqg","pricing_plan_id":"cebpf4jnsgd1na2vs0mg"},{"bike_id":"00cf214c-b40b-46e3-8b2d-85826d178cf4","system_id":"levelo_inurba_marseille","lat":43.28458,"lon":5.35901,"is_reserved":false,"is_disabled":false,"rental_uris":{"android":"levelo://app?vid=00cf214c-b40b-46e3-8b2d-85826d178cf4","ios":"levelo://app?vid=00cf214c-b40b-46e3-8b2d-85826d178cf4"},"vehicle_type_id":"4","last_reported":1726006129,"current_range_meters":18000,"station_id":"ce4bhah2rcd13ifvqei0","pricing_plan_id":"cebpf4jnsgd1na2vs0mg"},{"bike_id":"1bc6d034-1c4e-4b81-95f7-9274b014bd03","system_id":"levelo_inurba_marseille","lat":43.28462,"lon":5.35897,"is_reserved":false,"is_disabled":false,"rental_uris":{"android":"levelo://app?vid=1bc6d034-1c4e-4b81-95f7-9274b014bd03","ios":"levelo://app?vid=1bc6d034-1c4e-4b81-95f7-9274b014bd03"},"vehicle_type_id":"4","last_reported":1726006129,"current_range_meters":32800,"station_id":"ce4bhah2rcd13ifvqei0","pricing_plan_id":"cebpf4jnsgd1na2vs0mg"},{"bike_id":"5e2608d4-e8f7-4b65-abbb-6f7b0a13c326","system_id":"levelo_inurba_marseille","lat":43.28434,"lon":5.39192,"is_reserved":false,"is_disabled":false,"rental_uris":{"android":"levelo://app?vid=5e2608d4-e8f7-4b65-abbb-6f7b0a13c326","ios":"levelo://app?vid=5e2608d4-e8f7-4b65-abbb-6f7b0a13c326"},"vehicle_type_id":"4","last_reported":1726006129,"current_range_meters":32000,"station_id":"ce4bhoh2rcd13ifvqh5g","pricing_plan_id":"cebpf4jnsgd1na2vs0mg"},{"bike_id":"c280655b-da46-4f44-b4b9-5550f40c0e7d","system_id":"levelo_inurba_marseille","lat":43.32289,"lon":5.38268,"is_reserved":false,"is_disabled":false,"rental_uris":{"android":"levelo://app?vid=c280655b-da46-4f44-b4b9-5550f40c0e7d","ios":"levelo://app?vid=c280655b-da46-4f44-b4b9-5550f40c0e7d"},"vehicle_type_id":"4","last_reported":1726006129,"current_range_meters":22400,"station_id":"ce4bhr12rcd13ifvqhqg","pricing_plan_id":"cebpf4jnsgd1na2vs0mg"},{"bike_id":"d366d7a4-0426-4053-8099-780658e44800","system_id":"levelo_inurba_marseille","lat":43.31172,"lon":5.38713,"is_reserved":false,"is_disabled":false,"rental_uris":{"android":"levelo://app?vid=d366d7a4-0426-4053-8099-780658e44800","ios":"levelo://app?vid=d366d7a4-0426-4053-8099-780658e44800"},"vehicle_type_id":"4","last_reported":1726006129,"current_range_meters":11600,"station_id":"ce4bgv12rcd13ifvqcp0","pricing_plan_id":"cebpf4jnsgd1na2vs0mg"},{"bike_id":"c25508be-a553-4e86-b959-6cf74594e042","system_id":"levelo_inurba_marseille","lat":43.31171,"lon":5.38713,"is_reserved":false,"is_disabled":false,"rental_uris":{"android":"levelo://app?vid=c25508be-a553-4e86-b959-6cf74594e042","ios":"levelo://app?vid=c25508be-a553-4e86-b959-6cf74594e042"},"vehicle_type_id":"4","last_reported":1726006129,"current_range_meters":26800,"station_id":"ce4bgv12rcd13ifvqcp0","pricing_plan_id":"cebpf4jnsgd1na2vs0mg"},{"bike_id":"c8e0fcb6-1d3f-4d83-b861-1f56e6b3ab2c","system_id":"levelo_inurba_marseille","lat":43.32285,"lon":5.38264,"is_reserved":false,"is_disabled":false,"rental_uris":{"android":"levelo://app?vid=c8e0fcb6-1d3f-4d83-b861-1f56e6b3ab2c","ios":"levelo://app?vid=c8e0fcb6-1d3f-4d83-b861-1f56e6b3ab2c"},"vehicle_type_id":"4","last_reported":1726006129,"current_range_meters":34800,"station_id":"ce4bhr12rcd13ifvqhqg","pricing_plan_id":"cebpf4jnsgd1na2vs0mg"},{"bike_id":"6776db5f-50cd-4d20-b245-c2e33644fee2","system_id":"levelo_inurba_marseille","lat":43.30884,"lon":5.37201,"is_reserved":false,"is_disabled":false,"rental_uris":{"android":"levelo://app?vid=6776db5f-50cd-4d20-b245-c2e33644fee2","ios":"levelo://app?vid=6776db5f-50cd-4d20-b245-c2e33644fee2"},"vehicle_type_id":"4","last_reported":1726006129,"current_range_meters":19200,"station_id":"ce4bguh2rcd13ifvqckg","pricing_plan_id":"cebpf4jnsgd1na2vs0mg"},{"bike_id":"43be8d6b-5133-41b2-8694-09c5ae710ceb","system_id":"levelo_inurba_marseille","lat":43.2919,"lon":5.39329,"is_reserved":false,"is_disabled":false,"rental_uris":{"android":"levelo://app?vid=43be8d6b-5133-41b2-8694-09c5ae710ceb","ios":"levelo://app?vid=43be8d6b-5133-41b2-8694-09c5ae710ceb"},"vehicle_type_id":"4","last_reported":1726006129,"current_range_meters":4400,"station_id":"ce4bh192rcd13ifvqdd0","pricing_plan_id":"cebpf4jnsgd1na2vs0mg"},{"bike_id":"01fae4bd-1ba0-4d91-84e8-0fb26eaaa2c8","system_id":"levelo_inurba_marseille","lat":43.29257,"lon":5.40906,"is_reserved":false,"is_disabled":false,"rental_uris":{"android":"levelo://app?vid=01fae4bd-1ba0-4d91-84e8-0fb26eaaa2c8","ios":"levelo://app?vid=01fae4bd-1ba0-4d91-84e8-0fb26eaaa2c8"},"vehicle_type_id":"4","last_reported":1726006129,"current_range_meters":30800,"station_id":"ce4bh192rcd13ifvqdc0","pricing_plan_id":"cebpf4jnsgd1na2vs0mg"},{"bike_id":"db8ae116-647d-4d8e-abc7-4eb1fbfe2ecf","system_id":"levelo_inurba_marseille","lat":43.29863,"lon":5.39739,"is_reserved":false,"is_disabled":false,"rental_uris":{"android":"levelo://app?vid=db8ae116-647d-4d8e-abc7-4eb1fbfe2ecf","ios":"levelo://app?vid=db8ae116-647d-4d8e-abc7-4eb1fbfe2ecf"},"vehicle_type_id":"4","last_reported":1726006129,"current_range_meters":5600,"station_id":"ce4bh0h2rcd13ifvqd50","pricing_plan_id":"cebpf4jnsgd1na2vs0mg"},{"bike_id":"61ae0702-59ac-4df9-a3df-3ffcc0cc3543","system_id":"levelo_inurba_marseille","lat":43.31331,"lon":5.39694,"is_reserved":false,"is_disabled":false,"rental_uris":{"android":"levelo://app?vid=61ae0702-59ac-4df9-a3df-3ffcc0cc3543","ios":"levelo://app?vid=61ae0702-59ac-4df9-a3df-3ffcc0cc3543"},"vehicle_type_id":"4","last_reported":1726006129,"current_range_meters":36400,"station_id":"ce4bgvp2rcd13ifvqcu0","pricing_plan_id":"cebpf4jnsgd1na2vs0mg"},{"bike_id":"0d542ff1-a6db-4734-b6d3-2959e000dad3","system_id":"levelo_inurba_marseille","lat":43.28031,"lon":5.36946,"is_reserved":false,"is_disabled":false,"rental_uris":{"android":"levelo://app?vid=0d542ff1-a6db-4734-b6d3-2959e000dad3","ios":"levelo://app?vid=0d542ff1-a6db-4734-b6d3-2959e000dad3"},"vehicle_type_id":"4","last_reported":1726006129,"current_range_meters":24800,"station_id":"ce4bha12rcd13ifvqef0","pricing_plan_id":"cebpf4jnsgd1na2vs0mg"},{"bike_id":"b979827e-ffa2-4465-8490-36166590de00","system_id":"levelo_inurba_marseille","lat":43.24074,"lon":5.37767,"is_reserved":false,"is_disabled":false,"rental_uris":{"android":"levelo://app?vid=b979827e-ffa2-4465-8490-36166590de00","ios":"levelo://app?vid=b979827e-ffa2-4465-8490-36166590de00"},"vehicle_type_id":"4","last_reported":1726006129,"current_range_meters":38000,"station_id":"ce4bhnp2rcd13ifvqgvg","pricing_plan_id":"cebpf4jnsgd1na2vs0mg"},{"bike_id":"5e3a6a3f-47f9-4acc-ae12-f65778c0e611","system_id":"levelo_inurba_marseille","lat":43.31322,"lon":5.39695,"is_reserved":false,"is_disabled":false,"rental_uris":{"android":"levelo://app?vid=5e3a6a3f-47f9-4acc-ae12-f65778c0e611","ios":"levelo://app?vid=5e3a6a3f-47f9-4acc-ae12-f65778c0e611"},"vehicle_type_id":"4","last_reported":1726006129,"current_range_meters":8400,"station_id":"ce4bgvp2rcd13ifvqcu0","pricing_plan_id":"cebpf4jnsgd1na2vs0mg"},{"bike_id":"4db8779a-ff17-4d80-8d6f-da34210dced8","system_id":"levelo_inurba_marseille","lat":43.28839,"lon":5.35863,"is_reserved":false,"is_disabled":false,"rental_uris":{"android":"levelo://app?vid=4db8779a-ff17-4d80-8d6f-da34210dced8","ios":"levelo://app?vid=4db8779a-ff17-4d80-8d6f-da34210dced8"},"vehicle_type_id":"4","last_reported":1726006129,"current_range_meters":30000,"station_id":"ce4bhb12rcd13ifvqem0","pricing_plan_id":"cebpf4jnsgd1na2vs0mg"},{"bike_id":"1a1a9292-1a7e-4b3a-8749-ddcaec5cb477","system_id":"levelo_inurba_marseille","lat":43.33024,"lon":5.3904,"is_reserved":false,"is_disabled":false,"rental_uris":{"android":"levelo://app?vid=1a1a9292-1a7e-4b3a-8749-ddcaec5cb477","ios":"levelo://app?vid=1a1a9292-1a7e-4b3a-8749-ddcaec5cb477"},"vehicle_type_id":"4","last_reported":1726006129,"current_range_meters":22800,"station_id":"ce4bhr92rcd13ifvqhrg","pricing_plan_id":"cebpf4jnsgd1na2vs0mg"},{"bike_id":"69eda0f2-b4e3-4334-adca-4d6836fcc9fd","system_id":"levelo_inurba_marseille","lat":43.32286,"lon":5.38267,"is_reserved":false,"is_disabled":false,"rental_uris":{"android":"levelo://app?vid=69eda0f2-b4e3-4334-adca-4d6836fcc9fd","ios":"levelo://app?vid=69eda0f2-b4e3-4334-adca-4d6836fcc9fd"},"vehicle_type_id":"4","last_reported":1726006129,"current_range_meters":36000,"station_id":"ce4bhr12rcd13ifvqhqg","pricing_plan_id":"cebpf4jnsgd1na2vs0mg"},{"bike_id":"927e3da6-e7cc-4a5c-a064-82f01ba43a49","system_id":"levelo_inurba_marseille","lat":43.32045,"lon":5.41576,"is_reserved":false,"is_disabled":false,"rental_uris":{"android":"levelo://app?vid=927e3da6-e7cc-4a5c-a064-82f01ba43a49","ios":"levelo://app?vid=927e3da6-e7cc-4a5c-a064-82f01ba43a49"},"vehicle_type_id":"4","last_reported":1726006129,"current_range_meters":8800,"station_id":"ce4bhq92rcd13ifvqhkg","pricing_plan_id":"cebpf4jnsgd1na2vs0mg"},{"bike_id":"55145fae-a8cb-41b8-a97f-efce85464954","system_id":"levelo_inurba_marseille","lat":43.33753,"lon":5.37453,"is_reserved":false,"is_disabled":false,"rental_uris":{"android":"levelo://app?vid=55145fae-a8cb-41b8-a97f-efce85464954","ios":"levelo://app?vid=55145fae-a8cb-41b8-a97f-efce85464954"},"vehicle_type_id":"4","last_reported":1726006129,"current_range_meters":30800,"station_id":"","pricing_plan_id":"cebpf4jnsgd1na2vs0mg"},{"bike_id":"f400d370-a20e-4ced-86f0-64f62510749c","system_id":"levelo_inurba_marseille","lat":43.3237,"lon":5.38926,"is_reserved":false,"is_disabled":false,"rental_uris":{"android":"levelo://app?vid=f400d370-a20e-4ced-86f0-64f62510749c","ios":"levelo://app?vid=f400d370-a20e-4ced-86f0-64f62510749c"},"vehicle_type_id":"4","last_reported":1726006129,"current_range_meters":16800,"station_id":"","pricing_plan_id":"cebpf4jnsgd1na2vs0mg"},{"bike_id":"a3877741-166e-4bf0-8921-2ba810beb174","system_id":"levelo_inurba_marseille","lat":43.296896,"lon":5.37345,"is_reserved":false,"is_disabled":false,"rental_uris":{"android":"levelo://app?vid=a3877741-166e-4bf0-8921-2ba810beb174","ios":"levelo://app?vid=a3877741-166e-4bf0-8921-2ba810beb174"},"vehicle_type_id":"4","last_reported":1726006129,"current_range_meters":24800,"station_id":"ce4bgk12rcd13ifvqbj0","pricing_plan_id":"cebpf4jnsgd1na2vs0mg"},{"bike_id":"88d02e52-7466-442c-a697-a70eac9f6e7e","system_id":"levelo_inurba_marseille","lat":43.337444,"lon":5.374475,"is_reserved":false,"is_disabled":false,"rental_uris":{"android":"levelo://app?vid=88d02e52-7466-442c-a697-a70eac9f6e7e","ios":"levelo://app?vid=88d02e52-7466-442c-a697-a70eac9f6e7e"},"vehicle_type_id":"4","last_reported":1726006129,"current_range_meters":12000,"station_id":"ce4bhp92rcd13ifvqhbg","pricing_plan_id":"cebpf4jnsgd1na2vs0mg"},{"bike_id":"6b556058-d0b4-4003-a757-2a88c17f4ca7","system_id":"levelo_inurba_marseille","lat":43.31165,"lon":5.3872,"is_reserved":false,"is_disabled":false,"rental_uris":{"android":"levelo://app?vid=6b556058-d0b4-4003-a757-2a88c17f4ca7","ios":"levelo://app?vid=6b556058-d0b4-4003-a757-2a88c17f4ca7"},"vehicle_type_id":"4","last_reported":1726006129,"current_range_meters":19200,"station_id":"ce4bgv12rcd13ifvqcp0","pricing_plan_id":"cebpf4jnsgd1na2vs0mg"},{"bike_id":"9320b79d-cbc4-47e0-a8a1-39c7f9bbcffb","system_id":"levelo_inurba_marseille","lat":43.2467,"lon":5.38177,"is_reserved":false,"is_disabled":false,"rental_uris":{"android":"levelo://app?vid=9320b79d-cbc4-47e0-a8a1-39c7f9bbcffb","ios":"levelo://app?vid=9320b79d-cbc4-47e0-a8a1-39c7f9bbcffb"},"vehicle_type_id":"4","last_reported":1726006129,"current_range_meters":38800,"station_id":"ce4bhih2rcd13ifvqfr0","pricing_plan_id":"cebpf4jnsgd1na2vs0mg"},{"bike_id":"e9d8c7b2-62a1-4e01-b449-32058adc2bb5","system_id":"levelo_inurba_marseille","lat":43.3117,"lon":5.38723,"is_reserved":false,"is_disabled":false,"rental_uris":{"android":"levelo://app?vid=e9d8c7b2-62a1-4e01-b449-32058adc2bb5","ios":"levelo://app?vid=e9d8c7b2-62a1-4e01-b449-32058adc2bb5"},"vehicle_type_id":"4","last_reported":1726006129,"current_range_meters":32000,"station_id":"ce4bgv12rcd13ifvqcp0","pricing_plan_id":"cebpf4jnsgd1na2vs0mg"},{"bike_id":"4f98b9a6-3078-458b-b605-3b0ed6341dd8","system_id":"levelo_inurba_marseille","lat":43.287037,"lon":5.375093,"is_reserved":false,"is_disabled":false,"rental_uris":{"android":"levelo://app?vid=4f98b9a6-3078-458b-b605-3b0ed6341dd8","ios":"levelo://app?vid=4f98b9a6-3078-458b-b605-3b0ed6341dd8"},"vehicle_type_id":"4","last_reported":1726006129,"current_range_meters":32000,"station_id":"","pricing_plan_id":"cebpf4jnsgd1na2vs0mg"},{"bike_id":"ee6b71fa-0dd1-49c9-8406-c532a7e22428","system_id":"levelo_inurba_marseille","lat":43.31271,"lon":5.40177,"is_reserved":false,"is_disabled":false,"rental_uris":{"android":"levelo://app?vid=ee6b71fa-0dd1-49c9-8406-c532a7e22428","ios":"levelo://app?vid=ee6b71fa-0dd1-49c9-8406-c532a7e22428"},"vehicle_type_id":"4","last_reported":1726006129,"current_range_meters":16400,"station_id":"ce4bh092rcd13ifvqd30","pricing_plan_id":"cebpf4jnsgd1na2vs0mg"},{"bike_id":"6f8128bf-8ae6-4669-8814-0cd68c02ad83","system_id":"levelo_inurba_marseille","lat":43.29303,"lon":5.37179,"is_reserved":false,"is_disabled":false,"rental_uris":{"android":"levelo://app?vid=6f8128bf-8ae6-4669-8814-0cd68c02ad83","ios":"levelo://app?vid=6f8128bf-8ae6-4669-8814-0cd68c02ad83"},"vehicle_type_id":"4","last_reported":1726006129,"current_range_meters":22000,"station_id":"ce4bgh92rcd13ifvqb40","pricing_plan_id":"cebpf4jnsgd1na2vs0mg"},{"bike_id":"28a6dc6f-0df2-4ce0-8e42-abef2c4254c2","system_id":"levelo_inurba_marseille","lat":43.29899,"lon":5.43676,"is_reserved":false,"is_disabled":false,"rental_uris":{"android":"levelo://app?vid=28a6dc6f-0df2-4ce0-8e42-abef2c4254c2","ios":"levelo://app?vid=28a6dc6f-0df2-4ce0-8e42-abef2c4254c2"},"vehicle_type_id":"4","last_reported":1726006129,"current_range_meters":5600,"station_id":"ce4bhpp2rcd13ifvqhfg","pricing_plan_id":"cebpf4jnsgd1na2vs0mg"},{"bike_id":"34ec0220-b905-4c36-a8ef-ae15147576d2","system_id":"levelo_inurba_marseille","lat":43.25008,"lon":5.38916,"is_reserved":false,"is_disabled":false,"rental_uris":{"android":"levelo://app?vid=34ec0220-b905-4c36-a8ef-ae15147576d2","ios":"levelo://app?vid=34ec0220-b905-4c36-a8ef-ae15147576d2"},"vehicle_type_id":"4","last_reported":1726006129,"current_range_meters":29600,"station_id":"ce4bhgp2rcd13ifvqfd0","pricing_plan_id":"cebpf4jnsgd1na2vs0mg"},{"bike_id":"ad4169bd-c852-4513-aa84-dd9593e6c788","system_id":"levelo_inurba_marseille","lat":43.32334,"lon":5.40627,"is_reserved":false,"is_disabled":false,"rental_uris":{"android":"levelo://app?vid=ad4169bd-c852-4513-aa84-dd9593e6c788","ios":"levelo://app?vid=ad4169bd-c852-4513-aa84-dd9593e6c788"},"vehicle_type_id":"4","last_reported":1726006129,"current_range_meters":16000,"station_id":"ce4bhq92rcd13ifvqhjg","pricing_plan_id":"cebpf4jnsgd1na2vs0mg"},{"bike_id":"cec131b6-6c84-4899-9723-159f4b060af5","system_id":"levelo_inurba_marseille","lat":43.31689,"lon":5.37725,"is_reserved":false,"is_disabled":false,"rental_uris":{"android":"levelo://app?vid=cec131b6-6c84-4899-9723-159f4b060af5","ios":"levelo://app?vid=cec131b6-6c84-4899-9723-159f4b060af5"},"vehicle_type_id":"4","last_reported":1726006129,"current_range_meters":10000,"station_id":"ce4bgth2rcd13ifvqch0","pricing_plan_id":"cebpf4jnsgd1na2vs0mg"},{"bike_id":"e3ff2ff2-1096-4b7a-a3a2-7928d38557b8","system_id":"levelo_inurba_marseille","lat":43.27818,"lon":5.40721,"is_reserved":false,"is_disabled":false,"rental_uris":{"android":"levelo://app?vid=e3ff2ff2-1096-4b7a-a3a2-7928d38557b8","ios":"levelo://app?vid=e3ff2ff2-1096-4b7a-a3a2-7928d38557b8"},"vehicle_type_id":"4","last_reported":1726006129,"current_range_meters":12400,"station_id":"ce4bhnh2rcd13ifvqgtg","pricing_plan_id":"cebpf4jnsgd1na2vs0mg"},{"bike_id":"f426ac57-a8a8-46a3-8dae-a142ec571116","system_id":"levelo_inurba_marseille","lat":43.28578,"lon":5.39489,"is_reserved":false,"is_disabled":false,"rental_uris":{"android":"levelo://app?vid=f426ac57-a8a8-46a3-8dae-a142ec571116","ios":"levelo://app?vid=f426ac57-a8a8-46a3-8dae-a142ec571116"},"vehicle_type_id":"4","last_reported":1726006129,"current_range_meters":34000,"station_id":"ce4bh292rcd13ifvqdg0","pricing_plan_id":"cebpf4jnsgd1na2vs0mg"},{"bike_id":"c36eb76d-f384-43ff-9efb-066989c18b22","system_id":"levelo_inurba_marseille","lat":43.27555,"lon":5.38438,"is_reserved":false,"is_disabled":false,"rental_uris":{"android":"levelo://app?vid=c36eb76d-f384-43ff-9efb-066989c18b22","ios":"levelo://app?vid=c36eb76d-f384-43ff-9efb-066989c18b22"},"vehicle_type_id":"4","last_reported":1726006129,"current_range_meters":12000,"station_id":"ce4bhh92rcd13ifvqfi0","pricing_plan_id":"cebpf4jnsgd1na2vs0mg"},{"bike_id":"811b9bdc-6467-4ccf-9f51-8a47fd4e629b","system_id":"levelo_inurba_marseille","lat":43.29284,"lon":5.40131,"is_reserved":false,"is_disabled":false,"rental_uris":{"android":"levelo://app?vid=811b9bdc-6467-4ccf-9f51-8a47fd4e629b","ios":"levelo://app?vid=811b9bdc-6467-4ccf-9f51-8a47fd4e629b"},"vehicle_type_id":"4","last_reported":1726006129,"current_range_meters":32000,"station_id":"ce4bh312rcd13ifvqdk0","pricing_plan_id":"cebpf4jnsgd1na2vs0mg"},{"bike_id":"f9588990-7de1-4e0b-979b-31419c532106","system_id":"levelo_inurba_marseille","lat":43.28033,"lon":5.3695,"is_reserved":false,"is_disabled":false,"rental_uris":{"android":"levelo://app?vid=f9588990-7de1-4e0b-979b-31419c532106","ios":"levelo://app?vid=f9588990-7de1-4e0b-979b-31419c532106"},"vehicle_type_id":"4","last_reported":1726006129,"current_range_meters":12000,"station_id":"ce4bha12rcd13ifvqef0","pricing_plan_id":"cebpf4jnsgd1na2vs0mg"},{"bike_id":"ea547e96-58db-43e3-871c-6a5edbb3f391","system_id":"levelo_inurba_marseille","lat":43.27174,"lon":5.40996,"is_reserved":false,"is_disabled":false,"rental_uris":{"android":"levelo://app?vid=ea547e96-58db-43e3-871c-6a5edbb3f391","ios":"levelo://app?vid=ea547e96-58db-43e3-871c-6a5edbb3f391"},"vehicle_type_id":"4","last_reported":1726006129,"current_range_meters":25600,"station_id":"ce4bhl12rcd13ifvqgf0","pricing_plan_id":"cebpf4jnsgd1na2vs0mg"},{"bike_id":"d5df1b6d-3d3d-4339-90f3-edaf4836f9b3","system_id":"levelo_inurba_marseille","lat":43.28725,"lon":5.36087,"is_reserved":false,"is_disabled":false,"rental_uris":{"android":"levelo://app?vid=d5df1b6d-3d3d-4339-90f3-edaf4836f9b3","ios":"levelo://app?vid=d5df1b6d-3d3d-4339-90f3-edaf4836f9b3"},"vehicle_type_id":"4","last_reported":1726006129,"current_range_meters":11600,"station_id":"cki0cbj6b192h4jlfktg","pricing_plan_id":"cebpf4jnsgd1na2vs0mg"},{"bike_id":"2dfb5171-15aa-4d8e-83fc-de16ea1eed2e","system_id":"levelo_inurba_marseille","lat":43.24076,"lon":5.37756,"is_reserved":false,"is_disabled":false,"rental_uris":{"android":"levelo://app?vid=2dfb5171-15aa-4d8e-83fc-de16ea1eed2e","ios":"levelo://app?vid=2dfb5171-15aa-4d8e-83fc-de16ea1eed2e"},"vehicle_type_id":"4","last_reported":1726006129,"current_range_meters":35200,"station_id":"ce4bhnp2rcd13ifvqgvg","pricing_plan_id":"cebpf4jnsgd1na2vs0mg"},{"bike_id":"cec1f9c3-f935-49fa-9c33-44dd73c28b4d","system_id":"levelo_inurba_marseille","lat":43.3248,"lon":5.36574,"is_reserved":false,"is_disabled":false,"rental_uris":{"android":"levelo://app?vid=cec1f9c3-f935-49fa-9c33-44dd73c28b4d","ios":"levelo://app?vid=cec1f9c3-f935-49fa-9c33-44dd73c28b4d"},"vehicle_type_id":"4","last_reported":1726006129,"current_range_meters":38800,"station_id":"ce4bhs12rcd13ifvqhvg","pricing_plan_id":"cebpf4jnsgd1na2vs0mg"},{"bike_id":"36f58328-8f54-4fcf-bcca-0a753cccddb2","system_id":"levelo_inurba_marseille","lat":43.23195,"lon":5.35558,"is_reserved":false,"is_disabled":false,"rental_uris":{"android":"levelo://app?vid=36f58328-8f54-4fcf-bcca-0a753cccddb2","ios":"levelo://app?vid=36f58328-8f54-4fcf-bcca-0a753cccddb2"},"vehicle_type_id":"4","last_reported":1726006129,"current_range_meters":19200,"station_id":"ce4bhu92rcd13ifvqi70","pricing_plan_id":"cebpf4jnsgd1na2vs0mg"},{"bike_id":"44f32411-a978-4e5c-8794-5490ed45ba7d","system_id":"levelo_inurba_marseille","lat":43.33762,"lon":5.37449,"is_reserved":false,"is_disabled":false,"rental_uris":{"android":"levelo://app?vid=44f32411-a978-4e5c-8794-5490ed45ba7d","ios":"levelo://app?vid=44f32411-a978-4e5c-8794-5490ed45ba7d"},"vehicle_type_id":"4","last_reported":1726006129,"current_range_meters":37600,"station_id":"","pricing_plan_id":"cebpf4jnsgd1na2vs0mg"},{"bike_id":"714005bf-dbad-4c0b-8d0d-1534a8043c74","system_id":"levelo_inurba_marseille","lat":43.2844,"lon":5.3919,"is_reserved":false,"is_disabled":false,"rental_uris":{"android":"levelo://app?vid=714005bf-dbad-4c0b-8d0d-1534a8043c74","ios":"levelo://app?vid=714005bf-dbad-4c0b-8d0d-1534a8043c74"},"vehicle_type_id":"4","last_reported":1726006129,"current_range_meters":14400,"station_id":"ce4bhoh2rcd13ifvqh5g","pricing_plan_id":"cebpf4jnsgd1na2vs0mg"},{"bike_id":"a5637a8b-38f0-4dcf-bb5c-f0548702728e","system_id":"levelo_inurba_marseille","lat":43.24075,"lon":5.37763,"is_reserved":false,"is_disabled":false,"rental_uris":{"android":"levelo://app?vid=a5637a8b-38f0-4dcf-bb5c-f0548702728e","ios":"levelo://app?vid=a5637a8b-38f0-4dcf-bb5c-f0548702728e"},"vehicle_type_id":"4","last_reported":1726006129,"current_range_meters":38800,"station_id":"ce4bhnp2rcd13ifvqgvg","pricing_plan_id":"cebpf4jnsgd1na2vs0mg"},{"bike_id":"2eeb4b6e-2b09-41d0-87d3-25a8d99cd11c","system_id":"levelo_inurba_marseille","lat":43.28446,"lon":5.39194,"is_reserved":false,"is_disabled":false,"rental_uris":{"android":"levelo://app?vid=2eeb4b6e-2b09-41d0-87d3-25a8d99cd11c","ios":"levelo://app?vid=2eeb4b6e-2b09-41d0-87d3-25a8d99cd11c"},"vehicle_type_id":"4","last_reported":1726006129,"current_range_meters":28000,"station_id":"ce4bhoh2rcd13ifvqh5g","pricing_plan_id":"cebpf4jnsgd1na2vs0mg"},{"bike_id":"5de75806-0ad6-4c80-aaf2-7fea2cf2b910","system_id":"levelo_inurba_marseille","lat":43.27898,"lon":5.38008,"is_reserved":false,"is_disabled":false,"rental_uris":{"android":"levelo://app?vid=5de75806-0ad6-4c80-aaf2-7fea2cf2b910","ios":"levelo://app?vid=5de75806-0ad6-4c80-aaf2-7fea2cf2b910"},"vehicle_type_id":"4","last_reported":1726006129,"current_range_meters":6400,"station_id":"ce4bhf92rcd13ifvqf50","pricing_plan_id":"cebpf4jnsgd1na2vs0mg"},{"bike_id":"3ad12678-bc46-4b46-bad0-768a7cdd32b6","system_id":"levelo_inurba_marseille","lat":43.29259,"lon":5.40918,"is_reserved":false,"is_disabled":false,"rental_uris":{"android":"levelo://app?vid=3ad12678-bc46-4b46-bad0-768a7cdd32b6","ios":"levelo://app?vid=3ad12678-bc46-4b46-bad0-768a7cdd32b6"},"vehicle_type_id":"4","last_reported":1726006129,"current_range_meters":4400,"station_id":"ce4bh192rcd13ifvqdc0","pricing_plan_id":"cebpf4jnsgd1na2vs0mg"},{"bike_id":"01a9d190-f5a0-4eda-b7c1-457da88c2b6b","system_id":"levelo_inurba_marseille","lat":43.24667,"lon":5.38172,"is_reserved":false,"is_disabled":false,"rental_uris":{"android":"levelo://app?vid=01a9d190-f5a0-4eda-b7c1-457da88c2b6b","ios":"levelo://app?vid=01a9d190-f5a0-4eda-b7c1-457da88c2b6b"},"vehicle_type_id":"4","last_reported":1726006129,"current_range_meters":12800,"station_id":"ce4bhih2rcd13ifvqfr0","pricing_plan_id":"cebpf4jnsgd1na2vs0mg"},{"bike_id":"8fb9a2de-2e39-4cee-9a2d-1ba3230acc6a","system_id":"levelo_inurba_marseille","lat":43.31764,"lon":5.39015,"is_reserved":false,"is_disabled":false,"rental_uris":{"android":"levelo://app?vid=8fb9a2de-2e39-4cee-9a2d-1ba3230acc6a","ios":"levelo://app?vid=8fb9a2de-2e39-4cee-9a2d-1ba3230acc6a"},"vehicle_type_id":"4","last_reported":1726006129,"current_range_meters":4800,"station_id":"ce4bhqp2rcd13ifvqhng","pricing_plan_id":"cebpf4jnsgd1na2vs0mg"},{"bike_id":"7ade0f13-c0f2-45e6-bafd-9a98e95549b8","system_id":"levelo_inurba_marseille","lat":43.28413,"lon":5.37513,"is_reserved":false,"is_disabled":false,"rental_uris":{"android":"levelo://app?vid=7ade0f13-c0f2-45e6-bafd-9a98e95549b8","ios":"levelo://app?vid=7ade0f13-c0f2-45e6-bafd-9a98e95549b8"},"vehicle_type_id":"4","last_reported":1726006129,"current_range_meters":22800,"station_id":"ce4bh412rcd13ifvqds0","pricing_plan_id":"cebpf4jnsgd1na2vs0mg"},{"bike_id":"fb7704bb-e35c-403f-a639-80a99ce9d20e","system_id":"levelo_inurba_marseille","lat":43.30253,"lon":5.4007,"is_reserved":false,"is_disabled":false,"rental_uris":{"android":"levelo://app?vid=fb7704bb-e35c-403f-a639-80a99ce9d20e","ios":"levelo://app?vid=fb7704bb-e35c-403f-a639-80a99ce9d20e"},"vehicle_type_id":"4","last_reported":1726006129,"current_range_meters":39200,"station_id":"ce4bgvh2rcd13ifvqcs0","pricing_plan_id":"cebpf4jnsgd1na2vs0mg"},{"bike_id":"6e46fa7e-11de-42cb-a5b1-dea01c10d0b8","system_id":"levelo_inurba_marseille","lat":43.28851,"lon":5.39313,"is_reserved":false,"is_disabled":false,"rental_uris":{"android":"levelo://app?vid=6e46fa7e-11de-42cb-a5b1-dea01c10d0b8","ios":"levelo://app?vid=6e46fa7e-11de-42cb-a5b1-dea01c10d0b8"},"vehicle_type_id":"4","last_reported":1726006129,"current_range_meters":17200,"station_id":"ce4bh2p2rcd13ifvqdi0","pricing_plan_id":"cebpf4jnsgd1na2vs0mg"},{"bike_id":"176109d2-c7f3-4f00-811b-e73328885cdc","system_id":"levelo_inurba_marseille","lat":43.30885,"lon":5.39615,"is_reserved":false,"is_disabled":false,"rental_uris":{"android":"levelo://app?vid=176109d2-c7f3-4f00-811b-e73328885cdc","ios":"levelo://app?vid=176109d2-c7f3-4f00-811b-e73328885cdc"},"vehicle_type_id":"4","last_reported":1726006129,"current_range_meters":5600,"station_id":"ce4bh012rcd13ifvqcv0","pricing_plan_id":"cebpf4jnsgd1na2vs0mg"},{"bike_id":"d09c54b8-d10f-4c3f-ae6e-29e2e9758bbe","system_id":"levelo_inurba_marseille","lat":43.26553,"lon":5.37286,"is_reserved":false,"is_disabled":false,"rental_uris":{"android":"levelo://app?vid=d09c54b8-d10f-4c3f-ae6e-29e2e9758bbe","ios":"levelo://app?vid=d09c54b8-d10f-4c3f-ae6e-29e2e9758bbe"},"vehicle_type_id":"4","last_reported":1726006129,"current_range_meters":32400,"station_id":"ce4bhg12rcd13ifvqf70","pricing_plan_id":"cebpf4jnsgd1na2vs0mg"},{"bike_id":"d873eeea-4789-4e7e-9089-16cb02dcbf71","system_id":"levelo_inurba_marseille","lat":43.33067,"lon":5.38895,"is_reserved":false,"is_disabled":false,"rental_uris":{"android":"levelo://app?vid=d873eeea-4789-4e7e-9089-16cb02dcbf71","ios":"levelo://app?vid=d873eeea-4789-4e7e-9089-16cb02dcbf71"},"vehicle_type_id":"4","last_reported":1726006129,"current_range_meters":12000,"station_id":"","pricing_plan_id":"cebpf4jnsgd1na2vs0mg"},{"bike_id":"2bea9a92-b81d-450c-8f6a-bb1bdc43a1cd","system_id":"levelo_inurba_marseille","lat":43.31367,"lon":5.38496,"is_reserved":false,"is_disabled":false,"rental_uris":{"android":"levelo://app?vid=2bea9a92-b81d-450c-8f6a-bb1bdc43a1cd","ios":"levelo://app?vid=2bea9a92-b81d-450c-8f6a-bb1bdc43a1cd"},"vehicle_type_id":"4","last_reported":1726006129,"current_range_meters":38800,"station_id":"ce4bgt92rcd13ifvqcf0","pricing_plan_id":"cebpf4jnsgd1na2vs0mg"},{"bike_id":"eb130d77-197d-43a5-a7b7-8fb7f18705de","system_id":"levelo_inurba_marseille","lat":43.25576,"lon":5.38241,"is_reserved":false,"is_disabled":false,"rental_uris":{"android":"levelo://app?vid=eb130d77-197d-43a5-a7b7-8fb7f18705de","ios":"levelo://app?vid=eb130d77-197d-43a5-a7b7-8fb7f18705de"},"vehicle_type_id":"4","last_reported":1726006129,"current_range_meters":29600,"station_id":"ce4bhih2rcd13ifvqfs0","pricing_plan_id":"cebpf4jnsgd1na2vs0mg"},{"bike_id":"7bb4f9de-7cd3-453d-9762-d2bc34a00f75","system_id":"levelo_inurba_marseille","lat":43.28457,"lon":5.35888,"is_reserved":false,"is_disabled":false,"rental_uris":{"android":"levelo://app?vid=7bb4f9de-7cd3-453d-9762-d2bc34a00f75","ios":"levelo://app?vid=7bb4f9de-7cd3-453d-9762-d2bc34a00f75"},"vehicle_type_id":"4","last_reported":1726006129,"current_range_meters":35200,"station_id":"ce4bhah2rcd13ifvqei0","pricing_plan_id":"cebpf4jnsgd1na2vs0mg"},{"bike_id":"3bfff435-780c-430e-a884-b7e0a240cebc","system_id":"levelo_inurba_marseille","lat":43.28821,"lon":5.39148,"is_reserved":false,"is_disabled":false,"rental_uris":{"android":"levelo://app?vid=3bfff435-780c-430e-a884-b7e0a240cebc","ios":"levelo://app?vid=3bfff435-780c-430e-a884-b7e0a240cebc"},"vehicle_type_id":"4","last_reported":1726006129,"current_range_meters":20800,"station_id":"","pricing_plan_id":"cebpf4jnsgd1na2vs0mg"},{"bike_id":"ca6381e2-4d39-4d77-9d0b-b6d9791cbb8c","system_id":"levelo_inurba_marseille","lat":43.28727,"lon":5.36081,"is_reserved":false,"is_disabled":false,"rental_uris":{"android":"levelo://app?vid=ca6381e2-4d39-4d77-9d0b-b6d9791cbb8c","ios":"levelo://app?vid=ca6381e2-4d39-4d77-9d0b-b6d9791cbb8c"},"vehicle_type_id":"4","last_reported":1726006129,"current_range_meters":16000,"station_id":"cki0cbj6b192h4jlfktg","pricing_plan_id":"cebpf4jnsgd1na2vs0mg"},{"bike_id":"69db742a-3d2e-4820-9d16-4adcfc83ca33","system_id":"levelo_inurba_marseille","lat":43.23183,"lon":5.39985,"is_reserved":false,"is_disabled":false,"rental_uris":{"android":"levelo://app?vid=69db742a-3d2e-4820-9d16-4adcfc83ca33","ios":"levelo://app?vid=69db742a-3d2e-4820-9d16-4adcfc83ca33"},"vehicle_type_id":"4","last_reported":1726006129,"current_range_meters":30800,"station_id":"ce4bhn12rcd13ifvqgqg","pricing_plan_id":"cebpf4jnsgd1na2vs0mg"},{"bike_id":"1cb5037e-5368-4516-93d7-c94332265d17","system_id":"levelo_inurba_marseille","lat":43.27383,"lon":5.3626,"is_reserved":false,"is_disabled":false,"rental_uris":{"android":"levelo://app?vid=1cb5037e-5368-4516-93d7-c94332265d17","ios":"levelo://app?vid=1cb5037e-5368-4516-93d7-c94332265d17"},"vehicle_type_id":"4","last_reported":1726006129,"current_range_meters":28000,"station_id":"ce4bhbh2rcd13ifvqeo0","pricing_plan_id":"cebpf4jnsgd1na2vs0mg"},{"bike_id":"0941c135-d42e-447a-a698-090c3be03bb8","system_id":"levelo_inurba_marseille","lat":43.31995,"lon":5.38149,"is_reserved":false,"is_disabled":false,"rental_uris":{"android":"levelo://app?vid=0941c135-d42e-447a-a698-090c3be03bb8","ios":"levelo://app?vid=0941c135-d42e-447a-a698-090c3be03bb8"},"vehicle_type_id":"4","last_reported":1726006129,"current_range_meters":38800,"station_id":"ce4bhr12rcd13ifvqhpg","pricing_plan_id":"cebpf4jnsgd1na2vs0mg"},{"bike_id":"ee41233d-7057-4ec4-b3c6-63f582836de8","system_id":"levelo_inurba_marseille","lat":43.22936,"lon":5.35377,"is_reserved":false,"is_disabled":false,"rental_uris":{"android":"levelo://app?vid=ee41233d-7057-4ec4-b3c6-63f582836de8","ios":"levelo://app?vid=ee41233d-7057-4ec4-b3c6-63f582836de8"},"vehicle_type_id":"4","last_reported":1726006129,"current_range_meters":35600,"station_id":"cpo3532slgdg3j2ikp40","pricing_plan_id":"cebpf4jnsgd1na2vs0mg"},{"bike_id":"aceaa97a-b654-4426-aee8-30a89abe4327","system_id":"levelo_inurba_marseille","lat":43.23956,"lon":5.36632,"is_reserved":false,"is_disabled":false,"rental_uris":{"android":"levelo://app?vid=aceaa97a-b654-4426-aee8-30a89abe4327","ios":"levelo://app?vid=aceaa97a-b654-4426-aee8-30a89abe4327"},"vehicle_type_id":"4","last_reported":1726006129,"current_range_meters":37600,"station_id":"ce4bhi12rcd13ifvqfp0","pricing_plan_id":"cebpf4jnsgd1na2vs0mg"},{"bike_id":"f81c74c5-6c30-43d7-99c0-f295c463388b","system_id":"levelo_inurba_marseille","lat":43.24076,"lon":5.37764,"is_reserved":false,"is_disabled":false,"rental_uris":{"android":"levelo://app?vid=f81c74c5-6c30-43d7-99c0-f295c463388b","ios":"levelo://app?vid=f81c74c5-6c30-43d7-99c0-f295c463388b"},"vehicle_type_id":"4","last_reported":1726006129,"current_range_meters":4000,"station_id":"ce4bhnp2rcd13ifvqgvg","pricing_plan_id":"cebpf4jnsgd1na2vs0mg"},{"bike_id":"cfb856e1-161d-4c59-8ace-a01bf85ea1b9","system_id":"levelo_inurba_marseille","lat":43.310725,"lon":5.383538,"is_reserved":false,"is_disabled":false,"rental_uris":{"android":"levelo://app?vid=cfb856e1-161d-4c59-8ace-a01bf85ea1b9","ios":"levelo://app?vid=cfb856e1-161d-4c59-8ace-a01bf85ea1b9"},"vehicle_type_id":"4","last_reported":1726006129,"current_range_meters":32400,"station_id":"ce4bgv92rcd13ifvqcr0","pricing_plan_id":"cebpf4jnsgd1na2vs0mg"},{"bike_id":"c8ef84eb-65b7-4591-9252-45b5e1b7aa2a","system_id":"levelo_inurba_marseille","lat":43.289173,"lon":5.366463,"is_reserved":false,"is_disabled":false,"rental_uris":{"android":"levelo://app?vid=c8ef84eb-65b7-4591-9252-45b5e1b7aa2a","ios":"levelo://app?vid=c8ef84eb-65b7-4591-9252-45b5e1b7aa2a"},"vehicle_type_id":"4","last_reported":1726006129,"current_range_meters":24400,"station_id":"ce4bhah2rcd13ifvqej0","pricing_plan_id":"cebpf4jnsgd1na2vs0mg"},