{"last_updated":1723140721,"ttl":30,"version":"2.2","data":{"bikes":[{"bike_id":"ec07ae73-5e94-455c-8ce6-715bf24250bc","system_id":"levelo_inurba_marseille","lat":43.309076,"lon":5.368465,"is_reserved":false,"is_disabled":false,"rental_uris":{"android":"levelo://app?vid=ec07ae73-5e94-455c-8ce6-715bf24250bc","ios":"levelo://app?vid=ec07ae73-5e94-455c-8ce6-715bf24250bc"},"vehicle_type_id":"4","last_reported":1723140721,"current_range_meters":12400,"station_id":"ce4bgn92rcd13ifvqbvg","pricing_plan_id":"cebpf4jnsgd1na2vs0mg"},{"bike_id":"b17078f8-e1fe-4618-a02d-b29c85c56698","system_id":"levelo_inurba_marseille","lat":43.314811,"lon":5.373103,"is_reserved":false,"is_disabled":false,"rental_uris":{"android":"levelo://app?vid=b17078f8-e1fe-4618-a02d-b29c85c56698","ios":"levelo://app?vid=b17078f8-e1fe-4618-a02d-b29c85c56698"},"vehicle_type_id":"4","last_reported":1723140721,"current_range_meters":7200,"station_id":"ce4bgt12rcd13ifvqcd0","pricing_plan_id":"cebpf4jnsgd1na2vs0mg"},{"bike_id":"c66d18b7-70e7-41be-808f-bdb6ecfb396e","system_id":"levelo_inurba_marseille","lat":43.314811,"lon":5.373103,"is_reserved":false,"is_disabled":false,"rental_uris":{"android":"levelo://app?vid=c66d18b7-70e7-41be-808f-bdb6ecfb396e","ios":"levelo://app?vid=c66d18b7-70e7-41be-808f-bdb6ecfb396e"},"vehicle_type_id":"4","last_reported":1723140721,"current_range_meters":11200,"station_id":"ce4bgt12rcd13ifvqcd0","pricing_plan_id":"cebpf4jnsgd1na2vs0mg"},{"bike_id":"ec4ddc0f-9da5-4e6d-bf5b-16405342dcbd","system_id":"levelo_inurba_marseille","lat":43.31492,"lon":5.3731,"is_reserved":false,"is_disabled":false,"rental_uris":{"android":"levelo://app?vid=ec4ddc0f-9da5-4e6d-bf5b-16405342dcbd","ios":"levelo://app?vid=ec4ddc0f-9da5-4e6d-bf5b-16405342dcbd"},"vehicle_type_id":"4","last_reported":1723140721,"current_range_meters":0,"station_id":"ce4bgt12rcd13ifvqcd0","pricing_plan_id":"cebpf4jnsgd1na2vs0mg"},{"bike_id":"9b5f3495-e995-4fe2-a844-4f40676bb7e3","system_id":"levelo_inurba_marseille","lat":43.314811,"lon":5.373103,"is_reserved":false,"is_disabled":false,"rental_uris":{"android":"levelo://app?vid=9b5f3495-e995-4fe2-a844-4f40676bb7e3","ios":"levelo://app?vid=9b5f3495-e995-4fe2-a844-4f40676bb7e3"},"vehicle_type_id":"4","last_reported":1723140721,"current_range_meters":24400,"station_id":"ce4bgt12rcd13ifvqcd0","pricing_plan_id":"cebpf4jnsgd1na2vs0mg"},{"bike_id":"578253fe-c92f-48c6-92ac-ab6b18f576e2","system_id":"levelo_inurba_marseille","lat":43.309039,"lon":5.371797,"is_reserved":false,"is_disabled":false,"rental_uris":{"android":"levelo://app?vid=578253fe-c92f-48c6-92ac-ab6b18f576e2","ios":"levelo://app?vid=578253fe-c92f-48c6-92ac-ab6b18f576e2"},"vehicle_type_id":"4","last_reported":1723140721,"current_range_meters":20400,"station_id":"ce4bguh2rcd13ifvqckg","pricing_plan_id":"cebpf4jnsgd1na2vs0mg"},{"bike_id":"e7321986-f0d6-49bb-95ec-1a59a6f186f6","system_id":"levelo_inurba_marseille","lat":43.309039,"lon":5.371797,"is_reserved":false,"is_disabled":false,"rental_uris":{"android":"levelo://app?vid=e7321986-f0d6-49bb-95ec-1a59a6f186f6","ios":"levelo://app?vid=e7321986-f0d6-49bb-95ec-1a59a6f186f6"},"vehicle_type_id":"4","last_reported":1723140721,"current_range_meters":20000,"station_id":"ce4bguh2rcd13ifvqckg","pricing_plan_id":"cebpf4jnsgd1na2vs0mg"},{"bike_id":"e358dea6-2644-44ae-92a9-60c9241ce46d","system_id":"levelo_inurba_marseille","lat":43.31471,"lon":5.37394,"is_reserved":false,"is_disabled":false,"rental_uris":{"android":"levelo://app?vid=e358dea6-2644-44ae-92a9-60c9241ce46d","ios":"levelo://app?vid=e358dea6-2644-44ae-92a9-60c9241ce46d"},"vehicle_type_id":"4","last_reported":1723140721,"current_range_meters":25200,"station_id":"","pricing_plan_id":"cebpf4jnsgd1na2vs0mg"},{"bike_id":"5fffa730-f16a-47fd-bab1-496f19d996a2","system_id":"levelo_inurba_marseille","lat":43.317166,"lon":5.372985,"is_reserved":false,"is_disabled":false,"rental_uris":{"android":"levelo://app?vid=5fffa730-f16a-47fd-bab1-496f19d996a2","ios":"levelo://app?vid=5fffa730-f16a-47fd-bab1-496f19d996a2"},"vehicle_type_id":"4","last_reported":1723140721,"current_range_meters":8800,"station_id":"","pricing_plan_id":"cebpf4jnsgd1na2vs0mg"},{"bike_id":"73f2439c-e231-4493-bd7a-a423f1576b9f","system_id":"levelo_inurba_marseille","lat":43.305368,"lon":5.367343,"is_reserved":false,"is_disabled":false,"rental_uris":{"android":"levelo://app?vid=73f2439c-e231-4493-bd7a-a423f1576b9f","ios":"levelo://app?vid=73f2439c-e231-4493-bd7a-a423f1576b9f"},"vehicle_type_id":"4","last_reported":1723140721,"current_range_meters":23600,"station_id":"ce4bgrp2rcd13ifvqc9g","pricing_plan_id":"cebpf4jnsgd1na2vs0mg"},{"bike_id":"b10db457-c9a0-4dc1-9973-3a71d7faaffe","system_id":"levelo_inurba_marseille","lat":43.305368,"lon":5.367343,"is_reserved":false,"is_disabled":false,"rental_uris":{"android":"levelo://app?vid=b10db457-c9a0-4dc1-9973-3a71d7faaffe","ios":"levelo://app?vid=b10db457-c9a0-4dc1-9973-3a71d7faaffe"},"vehicle_type_id":"4","last_reported":1723140721,"current_range_meters":3200,"station_id":"ce4bgrp2rcd13ifvqc9g","pricing_plan_id":"cebpf4jnsgd1na2vs0mg"},{"bike_id":"4aaed87f-7587-4346-bdbd-0b7105148e2e","system_id":"levelo_inurba_marseille","lat":43.305706,"lon":5.365654,"is_reserved":false,"is_disabled":false,"rental_uris":{"android":"levelo://app?vid=4aaed87f-7587-4346-bdbd-0b7105148e2e","ios":"levelo://app?vid=4aaed87f-7587-4346-bdbd-0b7105148e2e"},"vehicle_type_id":"4","last_reported":1723140721,"current_range_meters":31200,"station_id":"ce4bgs12rcd13ifvqcag","pricing_plan_id":"cebpf4jnsgd1na2vs0mg"},{"bike_id":"a83ea858-c845-4351-819e-0b43607dcdb2","system_id":"levelo_inurba_marseille","lat":43.305706,"lon":5.365654,"is_reserved":false,"is_disabled":false,"rental_uris":{"android":"levelo://app?vid=a83ea858-c845-4351-819e-0b43607dcdb2","ios":"levelo://app?vid=a83ea858-c845-4351-819e-0b43607dcdb2"},"vehicle_type_id":"4","last_reported":1723140721,"current_range_meters":31200,"station_id":"ce4bgs12rcd13ifvqcag","pricing_plan_id":"cebpf4jnsgd1na2vs0mg"},{"bike_id":"42a91b83-1376-4470-8362-c363a5ae70a0","system_id":"levelo_inurba_marseille","lat":43.311131,"lon":5.377651,"is_reserved":false,"is_disabled":false,"rental_uris":{"android":"levelo://app?vid=42a91b83-1376-4470-8362-c363a5ae70a0","ios":"levelo://app?vid=42a91b83-1376-4470-8362-c363a5ae70a0"},"vehicle_type_id":"4","last_reported":1723140721,"current_range_meters":400,"station_id":"ce4bgt92rcd13ifvqcg0","pricing_plan_id":"cebpf4jnsgd1na2vs0mg"},{"bike_id":"5f7209a7-5c4b-4e06-9ee8-ddd23eb510b1","system_id":"levelo_inurba_marseille","lat":43.317075,"lon":5.377367,"is_reserved":false,"is_disabled":false,"rental_uris":{"android":"levelo://app?vid=5f7209a7-5c4b-4e06-9ee8-ddd23eb510b1","ios":"levelo://app?vid=5f7209a7-5c4b-4e06-9ee8-ddd23eb510b1"},"vehicle_type_id":"4","last_reported":1723140721,"current_range_meters":0,"station_id":"ce4bgth2rcd13ifvqch0","pricing_plan_id":"cebpf4jnsgd1na2vs0mg"},{"bike_id":"33a882e3-9fc7-4c55-9dcb-4d6ec08f69a1","system_id":"levelo_inurba_marseille","lat":43.31143,"lon":5.38,"is_reserved":false,"is_disabled":false,"rental_uris":{"android":"levelo://app?vid=33a882e3-9fc7-4c55-9dcb-4d6ec08f69a1","ios":"levelo://app?vid=33a882e3-9fc7-4c55-9dcb-4d6ec08f69a1"},"vehicle_type_id":"4","last_reported":1723140721,"current_range_meters":11600,"station_id":"","pricing_plan_id":"cebpf4jnsgd1na2vs0mg"},{"bike_id":"068c0956-6ed7-454c-9020-22807006a978","system_id":"levelo_inurba_marseille","lat":43.303046,"lon":5.368981,"is_reserved":false,"is_disabled":false,"rental_uris":{"android":"levelo://app?vid=068c0956-6ed7-454c-9020-22807006a978","ios":"levelo://app?vid=068c0956-6ed7-454c-9020-22807006a978"},"vehicle_type_id":"4","last_reported":1723140721,"current_range_meters":0,"station_id":"ce4bgqh2rcd13ifvqc5g","pricing_plan_id":"cebpf4jnsgd1na2vs0mg"},{"bike_id":"55199f70-48d2-4572-9ad6-51ae65879abe","system_id":"levelo_inurba_marseille","lat":43.315289,"lon":5.380349,"is_reserved":false,"is_disabled":false,"rental_uris":{"android":"levelo://app?vid=55199f70-48d2-4572-9ad6-51ae65879abe","ios":"levelo://app?vid=55199f70-48d2-4572-9ad6-51ae65879abe"},"vehicle_type_id":"4","last_reported":1723140721,"current_range_meters":22000,"station_id":"ce4bhsp2rcd13ifvqi50","pricing_plan_id":"cebpf4jnsgd1na2vs0mg"},{"bike_id":"5b6a0198-12ed-4b0e-9c2c-7ccd9049bb6a","system_id":"levelo_inurba_marseille","lat":43.31526,"lon":5.38048,"is_reserved":false,"is_disabled":false,"rental_uris":{"android":"levelo://app?vid=5b6a0198-12ed-4b0e-9c2c-7ccd9049bb6a","ios":"levelo://app?vid=5b6a0198-12ed-4b0e-9c2c-7ccd9049bb6a"},"vehicle_type_id":"4","last_reported":1723140721,"current_range_meters":3200,"station_id":"ce4bhsp2rcd13ifvqi50","pricing_plan_id":"cebpf4jnsgd1na2vs0mg"},{"bike_id":"cff8a23f-b89e-4bc1-a87e-204b217680ed","system_id":"levelo_inurba_marseille","lat":43.323347,"lon":5.37017,"is_reserved":false,"is_disabled":false,"rental_uris":{"android":"levelo://app?vid=cff8a23f-b89e-4bc1-a87e-204b217680ed","ios":"levelo://app?vid=cff8a23f-b89e-4bc1-a87e-204b217680ed"},"vehicle_type_id":"4","last_reported":1723140721,"current_range_meters":16400,"station_id":"","pricing_plan_id":"cebpf4jnsgd1na2vs0mg"},{"bike_id":"fd8cb91e-cb3b-4a3f-9d66-534bcbdf38db","system_id":"levelo_inurba_marseille","lat":43.32371,"lon":5.37125,"is_reserved":false,"is_disabled":false,"rental_uris":{"android":"levelo://app?vid=fd8cb91e-cb3b-4a3f-9d66-534bcbdf38db","ios":"levelo://app?vid=fd8cb91e-cb3b-4a3f-9d66-534bcbdf38db"},"vehicle_type_id":"4","last_reported":1723140721,"current_range_meters":24400,"station_id":"","pricing_plan_id":"cebpf4jnsgd1na2vs0mg"},{"bike_id":"1dc086fb-771a-4fc1-9d06-28e55c2b4852","system_id":"levelo_inurba_marseille","lat":43.308012,"lon":5.381511,"is_reserved":false,"is_disabled":false,"rental_uris":{"android":"levelo://app?vid=1dc086fb-771a-4fc1-9d06-28e55c2b4852","ios":"levelo://app?vid=1dc086fb-771a-4fc1-9d06-28e55c2b4852"},"vehicle_type_id":"4","last_reported":1723140721,"current_range_meters":0,"station_id":"ce4bgt12rcd13ifvqce0","pricing_plan_id":"cebpf4jnsgd1na2vs0mg"},{"bike_id":"7511eca3-5ef4-42b3-a535-3ad8cf112a20","system_id":"levelo_inurba_marseille","lat":43.308012,"lon":5.381511,"is_reserved":false,"is_disabled":false,"rental_uris":{"android":"levelo://app?vid=7511eca3-5ef4-42b3-a535-3ad8cf112a20","ios":"levelo://app?vid=7511eca3-5ef4-42b3-a535-3ad8cf112a20"},"vehicle_type_id":"4","last_reported":1723140721,"current_range_meters":11200,"station_id":"ce4bgt12rcd13ifvqce0","pricing_plan_id":"cebpf4jnsgd1na2vs0mg"},{"bike_id":"e25e6b5c-a2be-4a36-9006-de27c7b4f03b","system_id":"levelo_inurba_marseille","lat":43.308012,"lon":5.381511,"is_reserved":false,"is_disabled":false,"rental_uris":{"android":"levelo://app?vid=e25e6b5c-a2be-4a36-9006-de27c7b4f03b","ios":"levelo://app?vid=e25e6b5c-a2be-4a36-9006-de27c7b4f03b"},"vehicle_type_id":"4","last_reported":1723140721,"current_range_meters":28000,"station_id":"ce4bgt12rcd13ifvqce0","pricing_plan_id":"cebpf4jnsgd1na2vs0mg"},{"bike_id":"171da7d4-d702-4b55-9f3a-03e936311e21","system_id":"levelo_inurba_marseille","lat":43.32466,"lon":5.36572,"is_reserved":false,"is_disabled":false,"rental_uris":{"android":"levelo://app?vid=171da7d4-d702-4b55-9f3a-03e936311e21","ios":"levelo://app?vid=171da7d4-d702-4b55-9f3a-03e936311e21"},"vehicle_type_id":"4","last_reported":1723140721,"current_range_meters":0,"station_id":"ce4bhs12rcd13ifvqhvg","pricing_plan_id":"cebpf4jnsgd1na2vs0mg"},{"bike_id":"c25273fb-24f0-4a72-b71a-1ce666aa7fe3","system_id":"levelo_inurba_marseille","lat":43.304606,"lon":5.379026,"is_reserved":false,"is_disabled":false,"rental_uris":{"android":"levelo://app?vid=c25273fb-24f0-4a72-b71a-1ce666aa7fe3","ios":"levelo://app?vid=c25273fb-24f0-4a72-b71a-1ce666aa7fe3"},"vehicle_type_id":"4","last_reported":1723140721,"current_range_meters":0,"station_id":"ce4bgup2rcd13ifvqcn0","pricing_plan_id":"cebpf4jnsgd1na2vs0mg"},{"bike_id":"6ad24dae-5c30-4fd8-9f8d-2c65654d7ff0","system_id":"levelo_inurba_marseille","lat":43.324771,"lon":5.36557,"is_reserved":false,"is_disabled":false,"rental_uris":{"android":"levelo://app?vid=6ad24dae-5c30-4fd8-9f8d-2c65654d7ff0","ios":"levelo://app?vid=6ad24dae-5c30-4fd8-9f8d-2c65654d7ff0"},"vehicle_type_id":"4","last_reported":1723140721,"current_range_meters":24000,"station_id":"ce4bhs12rcd13ifvqhvg","pricing_plan_id":"cebpf4jnsgd1na2vs0mg"},{"bike_id":"9b7f716f-a301-4102-8d8b-b009166f6bed","system_id":"levelo_inurba_marseille","lat":43.324771,"lon":5.36557,"is_reserved":false,"is_disabled":false,"rental_uris":{"android":"levelo://app?vid=9b7f716f-a301-4102-8d8b-b009166f6bed","ios":"levelo://app?vid=9b7f716f-a301-4102-8d8b-b009166f6bed"},"vehicle_type_id":"4","last_reported":1723140721,"current_range_meters":4400,"station_id":"ce4bhs12rcd13ifvqhvg","pricing_plan_id":"cebpf4jnsgd1na2vs0mg"},{"bike_id":"9fc52026-59fa-4495-9870-4e2026002386","system_id":"levelo_inurba_marseille","lat":43.324771,"lon":5.36557,"is_reserved":false,"is_disabled":false,"rental_uris":{"android":"levelo://app?vid=9fc52026-59fa-4495-9870-4e2026002386","ios":"levelo://app?vid=9fc52026-59fa-4495-9870-4e2026002386"},"vehicle_type_id":"4","last_reported":1723140721,"current_range_meters":30000,"station_id":"ce4bhs12rcd13ifvqhvg","pricing_plan_id":"cebpf4jnsgd1na2vs0mg"},{"bike_id":"b4c482ae-449a-40f2-b12a-460881639f38","system_id":"levelo_inurba_marseille","lat":43.310804,"lon":5.38359,"is_reserved":false,"is_disabled":false,"rental_uris":{"android":"levelo://app?vid=b4c482ae-449a-40f2-b12a-460881639f38","ios":"levelo://app?vid=b4c482ae-449a-40f2-b12a-460881639f38"},"vehicle_type_id":"4","last_reported":1723140721,"current_range_meters":0,"station_id":"ce4bgv92rcd13ifvqcr0","pricing_plan_id":"cebpf4jnsgd1na2vs0mg"},{"bike_id":"516f1e6a-e079-4cd6-8215-cac3391417c9","system_id":"levelo_inurba_marseille","lat":43.31069,"lon":5.38355,"is_reserved":false,"is_disabled":false,"rental_uris":{"android":"levelo://app?vid=516f1e6a-e079-4cd6-8215-cac3391417c9","ios":"levelo://app?vid=516f1e6a-e079-4cd6-8215-cac3391417c9"},"vehicle_type_id":"4","last_reported":1723140721,"current_range_meters":800,"station_id":"ce4bgv92rcd13ifvqcr0","pricing_plan_id":"cebpf4jnsgd1na2vs0mg"},{"bike_id":"5a7d7669-a693-41c6-aef3-ad1a6b32aeed","system_id":"levelo_inurba_marseille","lat":43.310723,"lon":5.3836,"is_reserved":false,"is_disabled":false,"rental_uris":{"android":"levelo://app?vid=5a7d7669-a693-41c6-aef3-ad1a6b32aeed","ios":"levelo://app?vid=5a7d7669-a693-41c6-aef3-ad1a6b32aeed"},"vehicle_type_id":"4","last_reported":1723140721,"current_range_meters":0,"station_id":"ce4bgv92rcd13ifvqcr0","pricing_plan_id":"cebpf4jnsgd1na2vs0mg"},{"bike_id":"5e7a7706-a710-435a-8a01-2e112e880b16","system_id":"levelo_inurba_marseille","lat":43.31071,"lon":5.38363,"is_reserved":false,"is_disabled":false,"rental_uris":{"android":"levelo://app?vid=5e7a7706-a710-435a-8a01-2e112e880b16","ios":"levelo://app?vid=5e7a7706-a710-435a-8a01-2e112e880b16"},"vehicle_type_id":"4","last_reported":1723140721,"current_range_meters":2400,"station_id":"ce4bgv92rcd13ifvqcr0","pricing_plan_id":"cebpf4jnsgd1na2vs0mg"},{"bike_id":"d539e492-cb53-41d6-9afd-5d1cd91dd932","system_id":"levelo_inurba_marseille","lat":43.300448,"lon":5.369147,"is_reserved":false,"is_disabled":false,"rental_uris":{"android":"levelo://app?vid=d539e492-cb53-41d6-9afd-5d1cd91dd932","ios":"levelo://app?vid=d539e492-cb53-41d6-9afd-5d1cd91dd932"},"vehicle_type_id":"4","last_reported":1723140721,"current_range_meters":2400,"station_id":"","pricing_plan_id":"cebpf4jnsgd1na2vs0mg"},{"bike_id":"dda03f36-ac5b-4225-b656-bb630414b499","system_id":"levelo_inurba_marseille","lat":43.301429,"lon":5.37413,"is_reserved":false,"is_disabled":false,"rental_uris":{"android":"levelo://app?vid=dda03f36-ac5b-4225-b656-bb630414b499","ios":"levelo://app?vid=dda03f36-ac5b-4225-b656-bb630414b499"},"vehicle_type_id":"4","last_reported":1723140721,"current_range_meters":5200,"station_id":"ce4bgs92rcd13ifvqcc0","pricing_plan_id":"cebpf4jnsgd1na2vs0mg"},{"bike_id":"2b2c9aa6-2647-415d-9e1e-a7b4f52686d6","system_id":"levelo_inurba_marseille","lat":43.301429,"lon":5.37413,"is_reserved":false,"is_disabled":false,"rental_uris":{"android":"levelo://app?vid=2b2c9aa6-2647-415d-9e1e-a7b4f52686d6","ios":"levelo://app?vid=2b2c9aa6-2647-415d-9e1e-a7b4f52686d6"},"vehicle_type_id":"4","last_reported":1723140721,"current_range_meters":400,"station_id":"ce4bgs92rcd13ifvqcc0","pricing_plan_id":"cebpf4jnsgd1na2vs0mg"},{"bike_id":"70fcd76e-e11d-4ae3-a19d-7a4728c497ee","system_id":"levelo_inurba_marseille","lat":43.301429,"lon":5.37413,"is_reserved":false,"is_disabled":false,"rental_uris":{"android":"levelo://app?vid=70fcd76e-e11d-4ae3-a19d-7a4728c497ee","ios":"levelo://app?vid=70fcd76e-e11d-4ae3-a19d-7a4728c497ee"},"vehicle_type_id":"4","last_reported":1723140721,"current_range_meters":29600,"station_id":"ce4bgs92rcd13ifvqcc0","pricing_plan_id":"cebpf4jnsgd1na2vs0mg"},{"bike_id":"1ed287cb-85fd-4abb-be7e-65976d6b0923","system_id":"levelo_inurba_marseille","lat":43.313571,"lon":5.384829,"is_reserved":false,"is_disabled":false,"rental_uris":{"android":"levelo://app?vid=1ed287cb-85fd-4abb-be7e-65976d6b0923","ios":"levelo://app?vid=1ed287cb-85fd-4abb-be7e-65976d6b0923"},"vehicle_type_id":"4","last_reported":1723140721,"current_range_meters":29200,"station_id":"ce4bgt92rcd13ifvqcf0","pricing_plan_id":"cebpf4jnsgd1na2vs0mg"},{"bike_id":"488f9810-24d3-494f-9024-9f1679d613ca","system_id":"levelo_inurba_marseille","lat":43.313571,"lon":5.384829,"is_reserved":false,"is_disabled":false,"rental_uris":{"android":"levelo://app?vid=488f9810-24d3-494f-9024-9f1679d613ca","ios":"levelo://app?vid=488f9810-24d3-494f-9024-9f1679d613ca"},"vehicle_type_id":"4","last_reported":1723140721,"current_range_meters":3600,"station_id":"ce4bgt92rcd13ifvqcf0","pricing_plan_id":"cebpf4jnsgd1na2vs0mg"},{"bike_id":"4f8b3e73-c6cd-4c58-8fa2-dec8ad439e22","system_id":"levelo_inurba_marseille","lat":43.313571,"lon":5.384829,"is_reserved":false,"is_disabled":false,"rental_uris":{"android":"levelo://app?vid=4f8b3e73-c6cd-4c58-8fa2-dec8ad439e22","ios":"levelo://app?vid=4f8b3e73-c6cd-4c58-8fa2-dec8ad439e22"},"vehicle_type_id":"4","last_reported":1723140721,"current_range_meters":0,"station_id":"ce4bgt92rcd13ifvqcf0","pricing_plan_id":"cebpf4jnsgd1na2vs0mg"},{"bike_id":"e2d7997a-7c9b-45f8-a4a2-07049d80e86b","system_id":"levelo_inurba_marseille","lat":43.313571,"lon":5.384829,"is_reserved":false,"is_disabled":false,"rental_uris":{"android":"levelo://app?vid=e2d7997a-7c9b-45f8-a4a2-07049d80e86b","ios":"levelo://app?vid=e2d7997a-7c9b-45f8-a4a2-07049d80e86b"},"vehicle_type_id":"4","last_reported":1723140721,"current_range_meters":3600,"station_id":"ce4bgt92rcd13ifvqcf0","pricing_plan_id":"cebpf4jnsgd1na2vs0mg"},{"bike_id":"6fd5f450-9345-4870-bd1e-bb0c75ef4489","system_id":"levelo_inurba_marseille","lat":43.313571,"lon":5.384829,"is_reserved":false,"is_disabled":false,"rental_uris":{"android":"levelo://app?vid=6fd5f450-9345-4870-bd1e-bb0c75ef4489","ios":"levelo://app?vid=6fd5f450-9345-4870-bd1e-bb0c75ef4489"},"vehicle_type_id":"4","last_reported":1723140721,"current_range_meters":17200,"station_id":"ce4bgt92rcd13ifvqcf0","pricing_plan_id":"cebpf4jnsgd1na2vs0mg"},{"bike_id":"84fd76dd-e58b-4d7b-a70f-48b227284e17","system_id":"levelo_inurba_marseille","lat":43.31355,"lon":5.38501,"is_reserved":false,"is_disabled":false,"rental_uris":{"android":"levelo://app?vid=84fd76dd-e58b-4d7b-a70f-48b227284e17","ios":"levelo://app?vid=84fd76dd-e58b-4d7b-a70f-48b227284e17"},"vehicle_type_id":"4","last_reported":1723140721,"current_range_meters":30400,"station_id":"ce4bgt92rcd13ifvqcf0","pricing_plan_id":"cebpf4jnsgd1na2vs0mg"},{"bike_id":"33dbab63-88c6-47a6-bba1-399d64ae1e88","system_id":"levelo_inurba_marseille","lat":43.31356,"lon":5.38502,"is_reserved":false,"is_disabled":false,"rental_uris":{"android":"levelo://app?vid=33dbab63-88c6-47a6-bba1-399d64ae1e88","ios":"levelo://app?vid=33dbab63-88c6-47a6-bba1-399d64ae1e88"},"vehicle_type_id":"4","last_reported":1723140721,"current_range_meters":13200,"station_id":"ce4bgt92rcd13ifvqcf0","pricing_plan_id":"cebpf4jnsgd1na2vs0mg"},{"bike_id":"8fe56801-b0dc-4661-bb21-3eb0738c5544","system_id":"levelo_inurba_marseille","lat":43.313571,"lon":5.384829,"is_reserved":false,"is_disabled":false,"rental_uris":{"android":"levelo://app?vid=8fe56801-b0dc-4661-bb21-3eb0738c5544","ios":"levelo://app?vid=8fe56801-b0dc-4661-bb21-3eb0738c5544"},"vehicle_type_id":"4","last_reported":1723140721,"current_range_meters":800,"station_id":"ce4bgt92rcd13ifvqcf0","pricing_plan_id":"cebpf4jnsgd1na2vs0mg"},{"bike_id":"8d123bea-15a4-4c6e-9b29-d0f3738d2a7c","system_id":"levelo_inurba_marseille","lat":43.2994,"lon":5.36525,"is_reserved":false,"is_disabled":false,"rental_uris":{"android":"levelo://app?vid=8d123bea-15a4-4c6e-9b29-d0f3738d2a7c","ios":"levelo://app?vid=8d123bea-15a4-4c6e-9b29-d0f3738d2a7c"},"vehicle_type_id":"4","last_reported":1723140721,"current_range_meters":0,"station_id":"ce4bgm92rcd13ifvqbr0","pricing_plan_id":"cebpf4jnsgd1na2vs0mg"},{"bike_id":"0b2337b0-3ea0-434f-b1f6-790b5071a9d5","system_id":"levelo_inurba_marseille","lat":43.299724,"lon":5.371829,"is_reserved":false,"is_disabled":false,"rental_uris":{"android":"levelo://app?vid=0b2337b0-3ea0-434f-b1f6-790b5071a9d5","ios":"levelo://app?vid=0b2337b0-3ea0-434f-b1f6-790b5071a9d5"},"vehicle_type_id":"4","last_reported":1723140721,"current_range_meters":800,"station_id":"ce4bgr92rcd13ifvqc7g","pricing_plan_id":"cebpf4jnsgd1na2vs0mg"},{"bike_id":"04027839-93a1-4fa8-ae12-7702d69dd240","system_id":"levelo_inurba_marseille","lat":43.29973,"lon":5.37167,"is_reserved":false,"is_disabled":false,"rental_uris":{"android":"levelo://app?vid=04027839-93a1-4fa8-ae12-7702d69dd240","ios":"levelo://app?vid=04027839-93a1-4fa8-ae12-7702d69dd240"},"vehicle_type_id":"4","last_reported":1723140721,"current_range_meters":0,"station_id":"ce4bgr92rcd13ifvqc7g","pricing_plan_id":"cebpf4jnsgd1na2vs0mg"},{"bike_id":"ff93fdb6-67ce-40ea-ac78-7d4fb42aaf8d","system_id":"levelo_inurba_marseille","lat":43.29972,"lon":5.37181,"is_reserved":false,"is_disabled":false,"rental_uris":{"android":"levelo://app?vid=ff93fdb6-67ce-40ea-ac78-7d4fb42aaf8d","ios":"levelo://app?vid=ff93fdb6-67ce-40ea-ac78-7d4fb42aaf8d"},"vehicle_type_id":"4","last_reported":1723140721,"current_range_meters":12000,"station_id":"ce4bgr92rcd13ifvqc7g","pricing_plan_id":"cebpf4jnsgd1na2vs0mg"},{"bike_id":"2ab526fc-0c2e-4da9-b1de-067de72e24e9","system_id":"levelo_inurba_marseille","lat":43.29972,"lon":5.37186,"is_reserved":false,"is_disabled":false,"rental_uris":{"android":"levelo://app?vid=2ab526fc-0c2e-4da9-b1de-067de72e24e9","ios":"levelo://app?vid=2ab526fc-0c2e-4da9-b1de-067de72e24e9"},"vehicle_type_id":"4","last_reported":1723140721,"current_range_meters":12800,"station_id":"ce4bgr92rcd13ifvqc7g","pricing_plan_id":"cebpf4jnsgd1na2vs0mg"},{"bike_id":"2be2b4a5-6d8a-4459-a190-b7c384c4aab4","system_id":"levelo_inurba_marseille","lat":43.299209,"lon":5.365547,"is_reserved":false,"is_disabled":false,"rental_uris":{"android":"levelo://app?vid=2be2b4a5-6d8a-4459-a190-b7c384c4aab4","ios":"levelo://app?vid=2be2b4a5-6d8a-4459-a190-b7c384c4aab4"},"vehicle_type_id":"4","last_reported":1723140721,"current_range_meters":0,"station_id":"ce4bgm92rcd13ifvqbr0","pricing_plan_id":"cebpf4jnsgd1na2vs0mg"},{"bike_id":"770522f2-4798-4e6f-a7f7-02cc51491d99","system_id":"levelo_inurba_marseille","lat":43.322003,"lon":5.382127,"is_reserved":false,"is_disabled":false,"rental_uris":{"android":"levelo://app?vid=770522f2-4798-4e6f-a7f7-02cc51491d99","ios":"levelo://app?vid=770522f2-4798-4e6f-a7f7-02cc51491d99"},"vehicle_type_id":"4","last_reported":1723140721,"current_range_meters":31200,"station_id":"ce4bhr12rcd13ifvqhpg","pricing_plan_id":"cebpf4jnsgd1na2vs0mg"},{"bike_id":"1f498837-4a31-49a9-a39c-395bc3872572","system_id":"levelo_inurba_marseille","lat":43.305364,"lon":5.384119,"is_reserved":false,"is_disabled":false,"rental_uris":{"android":"levelo://app?vid=1f498837-4a31-49a9-a39c-395bc3872572","ios":"levelo://app?vid=1f498837-4a31-49a9-a39c-395bc3872572"},"vehicle_type_id":"4","last_reported":1723140721,"current_range_meters":1200,"station_id":"ce4bgg92rcd13ifvqb30","pricing_plan_id":"cebpf4jnsgd1na2vs0mg"},{"bike_id":"7dfeedff-d11b-4eed-9ba8-a9a4bb44a6bb","system_id":"levelo_inurba_marseille","lat":43.305364,"lon":5.384119,"is_reserved":false,"is_disabled":false,"rental_uris":{"android":"levelo://app?vid=7dfeedff-d11b-4eed-9ba8-a9a4bb44a6bb","ios":"levelo://app?vid=7dfeedff-d11b-4eed-9ba8-a9a4bb44a6bb"},"vehicle_type_id":"4","last_reported":1723140721,"current_range_meters":14000,"station_id":"ce4bgg92rcd13ifvqb30","pricing_plan_id":"cebpf4jnsgd1na2vs0mg"},{"bike_id":"55198c46-15d2-494a-8dc9-d35c38bab418","system_id":"levelo_inurba_marseille","lat":43.298433,"lon":5.362774,"is_reserved":false,"is_disabled":false,"rental_uris":{"android":"levelo://app?vid=55198c46-15d2-494a-8dc9-d35c38bab418","ios":"levelo://app?vid=55198c46-15d2-494a-8dc9-d35c38bab418"},"vehicle_type_id":"4","last_reported":1723140721,"current_range_meters":4800,"station_id":"ce4bgpp2rcd13ifvqc3g","pricing_plan_id":"cebpf4jnsgd1na2vs0mg"},{"bike_id":"33630320-1b2b-4f4f-8d52-2efab57156ab","system_id":"levelo_inurba_marseille","lat":43.298433,"lon":5.362774,"is_reserved":false,"is_disabled":false,"rental_uris":{"android":"levelo://app?vid=33630320-1b2b-4f4f-8d52-2efab57156ab","ios":"levelo://app?vid=33630320-1b2b-4f4f-8d52-2efab57156ab"},"vehicle_type_id":"4","last_reported":1723140721,"current_range_meters":0,"station_id":"ce4bgpp2rcd13ifvqc3g","pricing_plan_id":"cebpf4jnsgd1na2vs0mg"},{"bike_id":"21fbf62b-339c-4d03-a75e-bed32bb16dc8","system_id":"levelo_inurba_marseille","lat":43.321636,"lon":5.382916,"is_reserved":false,"is_disabled":false,"rental_uris":{"android":"levelo://app?vid=21fbf62b-339c-4d03-a75e-bed32bb16dc8","ios":"levelo://app?vid=21fbf62b-339c-4d03-a75e-bed32bb16dc8"},"vehicle_type_id":"4","last_reported":1723140721,"current_range_meters":11200,"station_id":"ce4bhr12rcd13ifvqhqg","pricing_plan_id":"cebpf4jnsgd1na2vs0mg"},{"bike_id":"511df8da-91a5-41c4-92d8-36e78aa4a8c9","system_id":"levelo_inurba_marseille","lat":43.311722,"lon":5.387247,"is_reserved":false,"is_disabled":false,"rental_uris":{"android":"levelo://app?vid=511df8da-91a5-41c4-92d8-36e78aa4a8c9","ios":"levelo://app?vid=511df8da-91a5-41c4-92d8-36e78aa4a8c9"},"vehicle_type_id":"4","last_reported":1723140721,"current_range_meters":12800,"station_id":"ce4bgv12rcd13ifvqcp0","pricing_plan_id":"cebpf4jnsgd1na2vs0mg"},{"bike_id":"a592ab44-711b-4572-b6e6-b3de694ca88c","system_id":"levelo_inurba_marseille","lat":43.311722,"lon":5.387247,"is_reserved":false,"is_disabled":false,"rental_uris":{"android":"levelo://app?vid=a592ab44-711b-4572-b6e6-b3de694ca88c","ios":"levelo://app?vid=a592ab44-711b-4572-b6e6-b3de694ca88c"},"vehicle_type_id":"4","last_reported":1723140721,"current_range_meters":400,"station_id":"ce4bgv12rcd13ifvqcp0","pricing_plan_id":"cebpf4jnsgd1na2vs0mg"},{"bike_id":"14feda34-79ea-483f-8c8f-5cf3438e963b","system_id":"levelo_inurba_marseille","lat":43.301623,"lon":5.380973,"is_reserved":false,"is_disabled":false,"rental_uris":{"android":"levelo://app?vid=14feda34-79ea-483f-8c8f-5cf3438e963b","ios":"levelo://app?vid=14feda34-79ea-483f-8c8f-5cf3438e963b"},"vehicle_type_id":"4","last_reported":1723140721,"current_range_meters":0,"station_id":"","pricing_plan_id":"cebpf4jnsgd1na2vs0mg"},{"bike_id":"c4dc41bf-2448-4a93-8deb-f7df5ee15868","system_id":"levelo_inurba_marseille","lat":43.32676,"lon":5.3747,"is_reserved":false,"is_disabled":false,"rental_uris":{"android":"levelo://app?vid=c4dc41bf-2448-4a93-8deb-f7df5ee15868","ios":"levelo://app?vid=c4dc41bf-2448-4a93-8deb-f7df5ee15868"},"vehicle_type_id":"4","last_reported":1723140721,"current_range_meters":15200,"station_id":"","pricing_plan_id":"cebpf4jnsgd1na2vs0mg"},{"bike_id":"94f6600d-1bd2-4330-979a-a52f29d7c5e1","system_id":"levelo_inurba_marseille","lat":43.3015,"lon":5.38092,"is_reserved":false,"is_disabled":false,"rental_uris":{"android":"levelo://app?vid=94f6600d-1bd2-4330-979a-a52f29d7c5e1","ios":"levelo://app?vid=94f6600d-1bd2-4330-979a-a52f29d7c5e1"},"vehicle_type_id":"4","last_reported":1723140721,"current_range_meters":0,"station_id":"","pricing_plan_id":"cebpf4jnsgd1na2vs0mg"},{"bike_id":"5d00aff9-5d5b-478c-9b07-5a2094e7ba06","system_id":"levelo_inurba_marseille","lat":43.297794,"lon":5.370888,"is_reserved":false,"is_disabled":false,"rental_uris":{"android":"levelo://app?vid=5d00aff9-5d5b-478c-9b07-5a2094e7ba06","ios":"levelo://app?vid=5d00aff9-5d5b-478c-9b07-5a2094e7ba06"},"vehicle_type_id":"4","last_reported":1723140721,"current_range_meters":6400,"station_id":"ce4bgop2rcd13ifvqc1g","pricing_plan_id":"cebpf4jnsgd1na2vs0mg"},{"bike_id":"8ebdbc4c-7c77-477f-b915-83db0a7ea0dc","system_id":"levelo_inurba_marseille","lat":43.297774,"lon":5.370875,"is_reserved":false,"is_disabled":false,"rental_uris":{"android":"levelo://app?vid=8ebdbc4c-7c77-477f-b915-83db0a7ea0dc","ios":"levelo://app?vid=8ebdbc4c-7c77-477f-b915-83db0a7ea0dc"},"vehicle_type_id":"4","last_reported":1723140721,"current_range_meters":3600,"station_id":"ce4bgop2rcd13ifvqc1g","pricing_plan_id":"cebpf4jnsgd1na2vs0mg"},{"bike_id":"f61fef6c-501f-467a-825f-a96a61eec32a","system_id":"levelo_inurba_marseille","lat":43.32285,"lon":5.3827,"is_reserved":false,"is_disabled":false,"rental_uris":{"android":"levelo://app?vid=f61fef6c-501f-467a-825f-a96a61eec32a","ios":"levelo://app?vid=f61fef6c-501f-467a-825f-a96a61eec32a"},"vehicle_type_id":"4","last_reported":1723140721,"current_range_meters":27600,"station_id":"ce4bhr12rcd13ifvqhqg","pricing_plan_id":"cebpf4jnsgd1na2vs0mg"},{"bike_id":"514e9fba-ab2e-4e2c-9c62-6069d3673fea","system_id":"levelo_inurba_marseille","lat":43.3254,"lon":5.37874,"is_reserved":false,"is_disabled":false,"rental_uris":{"android":"levelo://app?vid=514e9fba-ab2e-4e2c-9c62-6069d3673fea","ios":"levelo://app?vid=514e9fba-ab2e-4e2c-9c62-6069d3673fea"},"vehicle_type_id":"4","last_reported":1723140721,"current_range_meters":20400,"station_id":"","pricing_plan_id":"cebpf4jnsgd1na2vs0mg"},{"bike_id":"216240ef-238f-48ba-bd26-5d1c9cf540df","system_id":"levelo_inurba_marseille","lat":43.31456,"lon":5.38784,"is_reserved":false,"is_disabled":false,"rental_uris":{"android":"levelo://app?vid=216240ef-238f-48ba-bd26-5d1c9cf540df","ios":"levelo://app?vid=216240ef-238f-48ba-bd26-5d1c9cf540df"},"vehicle_type_id":"4","last_reported":1723140721,"current_range_meters":4400,"station_id":"","pricing_plan_id":"cebpf4jnsgd1na2vs0mg"},{"bike_id":"36ac4a0d-9407-4a98-bcc2-2269e184cf26","system_id":"levelo_inurba_marseille","lat":43.297163,"lon":5.365866,"is_reserved":false,"is_disabled":false,"rental_uris":{"android":"levelo://app?vid=36ac4a0d-9407-4a98-bcc2-2269e184cf26","ios":"levelo://app?vid=36ac4a0d-9407-4a98-bcc2-2269e184cf26"},"vehicle_type_id":"4","last_reported":1723140721,"current_range_meters":0,"station_id":"ce4bgn12rcd13ifvqbt0","pricing_plan_id":"cebpf4jnsgd1na2vs0mg"},{"bike_id":"d8023d3c-010c-476b-86f2-587ddfbe1107","system_id":"levelo_inurba_marseille","lat":43.31562,"lon":5.38839,"is_reserved":false,"is_disabled":false,"rental_uris":{"android":"levelo://app?vid=d8023d3c-010c-476b-86f2-587ddfbe1107","ios":"levelo://app?vid=d8023d3c-010c-476b-86f2-587ddfbe1107"},"vehicle_type_id":"4","last_reported":1723140721,"current_range_meters":14000,"station_id":"","pricing_plan_id":"cebpf4jnsgd1na2vs0mg"},{"bike_id":"1e4a9941-f657-4f4f-a837-26e549b009da","system_id":"levelo_inurba_marseille","lat":43.32368,"lon":5.38371,"is_reserved":false,"is_disabled":false,"rental_uris":{"android":"levelo://app?vid=1e4a9941-f657-4f4f-a837-26e549b009da","ios":"levelo://app?vid=1e4a9941-f657-4f4f-a837-26e549b009da"},"vehicle_type_id":"4","last_reported":1723140721,"current_range_meters":30400,"station_id":"","pricing_plan_id":"cebpf4jnsgd1na2vs0mg"},{"bike_id":"243a46ca-c82f-4865-a85d-d4b059825451","system_id":"levelo_inurba_marseille","lat":43.32385,"lon":5.38368,"is_reserved":false,"is_disabled":false,"rental_uris":{"android":"levelo://app?vid=243a46ca-c82f-4865-a85d-d4b059825451","ios":"levelo://app?vid=243a46ca-c82f-4865-a85d-d4b059825451"},"vehicle_type_id":"4","last_reported":1723140721,"current_range_meters":23600,"station_id":"","pricing_plan_id":"cebpf4jnsgd1na2vs0mg"},{"bike_id":"a0943253-04f7-4e2b-aed4-c507050f230a","system_id":"levelo_inurba_marseille","lat":43.32827,"lon":5.375,"is_reserved":false,"is_disabled":false,"rental_uris":{"android":"levelo://app?vid=a0943253-04f7-4e2b-aed4-c507050f230a","ios":"levelo://app?vid=a0943253-04f7-4e2b-aed4-c507050f230a"},"vehicle_type_id":"4","last_reported":1723140721,"current_range_meters":28000,"station_id":"","pricing_plan_id":"cebpf4jnsgd1na2vs0mg"},{"bike_id":"182786b8-401c-4b23-b7b3-d7802e971b1d","system_id":"levelo_inurba_marseille","lat":43.29781,"lon":5.37745,"is_reserved":false,"is_disabled":false,"rental_uris":{"android":"levelo://app?vid=182786b8-401c-4b23-b7b3-d7802e971b1d","ios":"levelo://app?vid=182786b8-401c-4b23-b7b3-d7802e971b1d"},"vehicle_type_id":"4","last_reported":1723140721,"current_range_meters":0,"station_id":"","pricing_plan_id":"cebpf4jnsgd1na2vs0mg"},{"bike_id":"0d3b3da2-4f29-48fd-985b-cd6d9999fc3d","system_id":"levelo_inurba_marseille","lat":43.29619,"lon":5.37167,"is_reserved":false,"is_disabled":false,"rental_uris":{"android":"levelo://app?vid=0d3b3da2-4f29-48fd-985b-cd6d9999fc3d","ios":"levelo://app?vid=0d3b3da2-4f29-48fd-985b-cd6d9999fc3d"},"vehicle_type_id":"4","last_reported":1723140721,"current_range_meters":0,"station_id":"ce4bgnh2rcd13ifvqc0g","pricing_plan_id":"cebpf4jnsgd1na2vs0mg"},{"bike_id":"8ef5ce69-c62c-4fbd-9291-5b491cc40a99","system_id":"levelo_inurba_marseille","lat":43.309589,"lon":5.390258,"is_reserved":false,"is_disabled":false,"rental_uris":{"android":"levelo://app?vid=8ef5ce69-c62c-4fbd-9291-5b491cc40a99","ios":"levelo://app?vid=8ef5ce69-c62c-4fbd-9291-5b491cc40a99"},"vehicle_type_id":"4","last_reported":1723140721,"current_range_meters":400,"station_id":"ce4bgup2rcd13ifvqco0","pricing_plan_id":"cebpf4jnsgd1na2vs0mg"},{"bike_id":"b1d057ee-6ea9-434b-9538-4155f91bfe3d","system_id":"levelo_inurba_marseille","lat":43.309589,"lon":5.390258,"is_reserved":false,"is_disabled":false,"rental_uris":{"android":"levelo://app?vid=b1d057ee-6ea9-434b-9538-4155f91bfe3d","ios":"levelo://app?vid=b1d057ee-6ea9-434b-9538-4155f91bfe3d"},"vehicle_type_id":"4","last_reported":1723140721,"current_range_meters":24400,"station_id":"ce4bgup2rcd13ifvqco0","pricing_plan_id":"cebpf4jnsgd1na2vs0mg"},{"bike_id":"1b9fef6a-760d-48bd-84a7-b8b17404020d","system_id":"levelo_inurba_marseille","lat":43.309589,"lon":5.390258,"is_reserved":false,"is_disabled":false,"rental_uris":{"android":"levelo://app?vid=1b9fef6a-760d-48bd-84a7-b8b17404020d","ios":"levelo://app?vid=1b9fef6a-760d-48bd-84a7-b8b17404020d"},"vehicle_type_id":"4","last_reported":1723140721,"current_range_meters":26800,"station_id":"ce4bgup2rcd13ifvqco0","pricing_plan_id":"cebpf4jnsgd1na2vs0mg"},{"bike_id":"4cedf9cc-86a5-4815-8627-80b64212accc","system_id":"levelo_inurba_marseille","lat":43.309589,"lon":5.390258,"is_reserved":false,"is_disabled":false,"rental_uris":{"android":"levelo://app?vid=4cedf9cc-86a5-4815-8627-80b64212accc","ios":"levelo://app?vid=4cedf9cc-86a5-4815-8627-80b64212accc"},"vehicle_type_id":"4","last_reported":1723140721,"current_range_meters":0,"station_id":"ce4bgup2rcd13ifvqco0","pricing_plan_id":"cebpf4jnsgd1na2vs0mg"},{"bike_id":"019199d7-b354-4f92-a91d-49c4d51725b3","system_id":"levelo_inurba_marseille","lat":43.317557,"lon":5.390173,"is_reserved":false,"is_disabled":false,"rental_uris":{"android":"levelo://app?vid=019199d7-b354-4f92-a91d-49c4d51725b3","ios":"levelo://app?vid=019199d7-b354-4f92-a91d-49c4d51725b3"},"vehicle_type_id":"4","last_reported":1723140721,"current_range_meters":13600,"station_id":"ce4bhqp2rcd13ifvqhng","pricing_plan_id":"cebpf4jnsgd1na2vs0mg"},{"bike_id":"b56a5680-003e-4128-bab7-ce8e03cf5acd","system_id":"levelo_inurba_marseille","lat":43.317557,"lon":5.390173,"is_reserved":false,"is_disabled":false,"rental_uris":{"android":"levelo://app?vid=b56a5680-003e-4128-bab7-ce8e03cf5acd","ios":"levelo://app?vid=b56a5680-003e-4128-bab7-ce8e03cf5acd"},"vehicle_type_id":"4","last_reported":1723140721,"current_range_meters":5600,"station_id":"ce4bhqp2rcd13ifvqhng","pricing_plan_id":"cebpf4jnsgd1na2vs0mg"},{"bike_id":"49a5a4c8-2850-49f9-9334-8d6b7d04d43e","system_id":"levelo_inurba_marseille","lat":43.317557,"lon":5.390173,"is_reserved":false,"is_disabled":false,"rental_uris":{"android":"levelo://app?vid=49a5a4c8-2850-49f9-9334-8d6b7d04d43e","ios":"levelo://app?vid=49a5a4c8-2850-49f9-9334-8d6b7d04d43e"},"vehicle_type_id":"4","last_reported":1723140721,"current_range_meters":31200,"station_id":"ce4bhqp2rcd13ifvqhng","pricing_plan_id":"cebpf4jnsgd1na2vs0mg"},{"bike_id":"bfd924ce-97ac-40b6-8c44-a5a8e1179e0d","system_id":"levelo_inurba_marseille","lat":43.298,"lon":5.38077,"is_reserved":false,"is_disabled":false,"rental_uris":{"android":"levelo://app?vid=bfd924ce-97ac-40b6-8c44-a5a8e1179e0d","ios":"levelo://app?vid=bfd924ce-97ac-40b6-8c44-a5a8e1179e0d"},"vehicle_type_id":"4","last_reported":1723140721,"current_range_meters":31200,"station_id":"ce4bgip2rcd13ifvqbb0","pricing_plan_id":"cebpf4jnsgd1na2vs0mg"},{"bike_id":"a4e54cd3-b58b-47db-b6df-260e83dab452","system_id":"levelo_inurba_marseille","lat":43.32978,"lon":5.37487,"is_reserved":false,"is_disabled":false,"rental_uris":{"android":"levelo://app?vid=a4e54cd3-b58b-47db-b6df-260e83dab452","ios":"levelo://app?vid=a4e54cd3-b58b-47db-b6df-260e83dab452"},"vehicle_type_id":"4","last_reported":1723140721,"current_range_meters":26800,"station_id":"","pricing_plan_id":"cebpf4jnsgd1na2vs0mg"},{"bike_id":"3d516161-84b4-4564-a50b-b3fc4d1c9889","system_id":"levelo_inurba_marseille","lat":43.29568,"lon":5.37502,"is_reserved":false,"is_disabled":false,"rental_uris":{"android":"levelo://app?vid=3d516161-84b4-4564-a50b-b3fc4d1c9889","ios":"levelo://app?vid=3d516161-84b4-4564-a50b-b3fc4d1c9889"},"vehicle_type_id":"4","last_reported":1723140721,"current_range_meters":16000,"station_id":"ce4bgh92rcd13ifvqb50","pricing_plan_id":"cebpf4jnsgd1na2vs0mg"},{"bike_id":"68852d91-ff94-4631-ba40-a7c7d1243989","system_id":"levelo_inurba_marseille","lat":43.295748,"lon":5.37522,"is_reserved":false,"is_disabled":false,"rental_uris":{"android":"levelo://app?vid=68852d91-ff94-4631-ba40-a7c7d1243989","ios":"levelo://app?vid=68852d91-ff94-4631-ba40-a7c7d1243989"},"vehicle_type_id":"4","last_reported":1723140721,"current_range_meters":0,"station_id":"ce4bgh92rcd13ifvqb50","pricing_plan_id":"cebpf4jnsgd1na2vs0mg"},{"bike_id":"86c25b43-e78f-487f-a660-03bb133efbfe","system_id":"levelo_inurba_marseille","lat":43.296277,"lon":5.377108,"is_reserved":false,"is_disabled":false,"rental_uris":{"android":"levelo://app?vid=86c25b43-e78f-487f-a660-03bb133efbfe","ios":"levelo://app?vid=86c25b43-e78f-487f-a660-03bb133efbfe"},"vehicle_type_id":"4","last_reported":1723140721,"current_range_meters":400,"station_id":"ce4bgi92rcd13ifvqb90","pricing_plan_id":"cebpf4jnsgd1na2vs0mg"},{"bike_id":"1d316803-c8ee-4900-99ba-a66adbce2f2e","system_id":"levelo_inurba_marseille","lat":43.29521,"lon":5.37498,"is_reserved":false,"is_disabled":false,"rental_uris":{"android":"levelo://app?vid=1d316803-c8ee-4900-99ba-a66adbce2f2e","ios":"levelo://app?vid=1d316803-c8ee-4900-99ba-a66adbce2f2e"},"vehicle_type_id":"4","last_reported":1723140721,"current_range_meters":31200,"station_id":"ce4bgkp2rcd13ifvqbmg","pricing_plan_id":"cebpf4jnsgd1na2vs0mg"},{"bike_id":"993be31d-d82f-4094-89a3-b2eb12b6f2a7","system_id":"levelo_inurba_marseille","lat":43.299724,"lon":5.384848,"is_reserved":false,"is_disabled":false,"rental_uris":{"android":"levelo://app?vid=993be31d-d82f-4094-89a3-b2eb12b6f2a7","ios":"levelo://app?vid=993be31d-d82f-4094-89a3-b2eb12b6f2a7"},"vehicle_type_id":"4","last_reported":1723140721,"current_range_meters":0,"station_id":"ce4bgj92rcd13ifvqbd0","pricing_plan_id":"cebpf4jnsgd1na2vs0mg"},{"bike_id":"9f830b6e-aa16-4d67-8f6e-0f25b24d5e5d","system_id":"levelo_inurba_marseille","lat":43.29514,"lon":5.37507,"is_reserved":false,"is_disabled":false,"rental_uris":{"android":"levelo://app?vid=9f830b6e-aa16-4d67-8f6e-0f25b24d5e5d","ios":"levelo://app?vid=9f830b6e-aa16-4d67-8f6e-0f25b24d5e5d"},"vehicle_type_id":"4","last_reported":1723140721,"current_range_meters":31200,"station_id":"ce4bgkp2rcd13ifvqbmg","pricing_plan_id":"cebpf4jnsgd1na2vs0mg"},{"bike_id":"db73df47-0357-41a1-bca5-413d50928b0a","system_id":"levelo_inurba_marseille","lat":43.3014,"lon":5.38778,"is_reserved":false,"is_disabled":false,"rental_uris":{"android":"levelo://app?vid=db73df47-0357-41a1-bca5-413d50928b0a","ios":"levelo://app?vid=db73df47-0357-41a1-bca5-413d50928b0a"},"vehicle_type_id":"4","last_reported":1723140721,"current_range_meters":0,"station_id":"ce4bghh2rcd13ifvqb60","pricing_plan_id":"cebpf4jnsgd1na2vs0mg"},{"bike_id":"34511bc9-dbc2-42ec-b408-c560c3238d37","system_id":"levelo_inurba_marseille","lat":43.30135,"lon":5.38779,"is_reserved":false,"is_disabled":false,"rental_uris":{"android":"levelo://app?vid=34511bc9-dbc2-42ec-b408-c560c3238d37","ios":"levelo://app?vid=34511bc9-dbc2-42ec-b408-c560c3238d37"},"vehicle_type_id":"4","last_reported":1723140721,"current_range_meters":25200,"station_id":"ce4bghh2rcd13ifvqb60","pricing_plan_id":"cebpf4jnsgd1na2vs0mg"},{"bike_id":"627660cd-3236-4c5a-a5dc-290457f37874","system_id":"levelo_inurba_marseille","lat":43.30132,"lon":5.38778,"is_reserved":false,"is_disabled":false,"rental_uris":{"android":"levelo://app?vid=627660cd-3236-4c5a-a5dc-290457f37874","ios":"levelo://app?vid=627660cd-3236-4c5a-a5dc-290457f37874"},"vehicle_type_id":"4","last_reported":1723140721,"current_range_meters":29600,"station_id":"ce4bghh2rcd13ifvqb60","pricing_plan_id":"cebpf4jnsgd1na2vs0mg"},{"bike_id":"979cad1f-d23d-48be-9fff-6c5e87a5ee09","system_id":"levelo_inurba_marseille","lat":43.301396,"lon":5.387812,"is_reserved":false,"is_disabled":false,"rental_uris":{"android":"levelo://app?vid=979cad1f-d23d-48be-9fff-6c5e87a5ee09","ios":"levelo://app?vid=979cad1f-d23d-48be-9fff-6c5e87a5ee09"},"vehicle_type_id":"4","last_reported":1723140721,"current_range_meters":5200,"station_id":"ce4bghh2rcd13ifvqb60","pricing_plan_id":"cebpf4jnsgd1na2vs0mg"},{"bike_id":"c42c5c0b-eaa8-4b94-a6a1-0c1b56372cba","system_id":"levelo_inurba_marseille","lat":43.30085,"lon":5.390856,"is_reserved":false,"is_disabled":false,"rental_uris":{"android":"levelo://app?vid=c42c5c0b-eaa8-4b94-a6a1-0c1b56372cba","ios":"levelo://app?vid=c42c5c0b-eaa8-4b94-a6a1-0c1b56372cba"},"vehicle_type_id":"4","last_reported":1723140721,"current_range_meters":7200,"station_id":"ce4bh192rcd13ifvqdb0","pricing_plan_id":"cebpf4jnsgd1na2vs0mg"},{"bike_id":"0c2cb8ce-a2b5-4720-8688-b7fd7826734e","system_id":"levelo_inurba_marseille","lat":43.29602,"lon":5.381084,"is_reserved":false,"is_disabled":false,"rental_uris":{"android":"levelo://app?vid=0c2cb8ce-a2b5-4720-8688-b7fd7826734e","ios":"levelo://app?vid=0c2cb8ce-a2b5-4720-8688-b7fd7826734e"},"vehicle_type_id":"4","last_reported":1723140721,"current_range_meters":0,"station_id":"ce4bgl12rcd13ifvqbo0","pricing_plan_id":"cebpf4jnsgd1na2vs0mg"},{"bike_id":"1a7de5bc-34b7-4f81-9953-8993c7a4bc7e","system_id":"levelo_inurba_marseille","lat":43.296,"lon":5.38103,"is_reserved":false,"is_disabled":false,"rental_uris":{"android":"levelo://app?vid=1a7de5bc-34b7-4f81-9953-8993c7a4bc7e","ios":"levelo://app?vid=1a7de5bc-34b7-4f81-9953-8993c7a4bc7e"},"vehicle_type_id":"4","last_reported":1723140721,"current_range_meters":27200,"station_id":"ce4bgl12rcd13ifvqbo0","pricing_plan_id":"cebpf4jnsgd1na2vs0mg"},{"bike_id":"220afbf7-b1c9-4a54-b103-395d11fe7424","system_id":"levelo_inurba_marseille","lat":43.29599,"lon":5.38102,"is_reserved":false,"is_disabled":false,"rental_uris":{"android":"levelo://app?vid=220afbf7-b1c9-4a54-b103-395d11fe7424","ios":"levelo://app?vid=220afbf7-b1c9-4a54-b103-395d11fe7424"},"vehicle_type_id":"4","last_reported":1723140721,"current_range_meters":0,"station_id":"ce4bgl12rcd13ifvqbo0","pricing_plan_id":"cebpf4jnsgd1na2vs0mg"},{"bike_id":"5691a6e0-5347-489b-93c6-fd7ea0170d78","system_id":"levelo_inurba_marseille","lat":43.295977,"lon":5.381071,"is_reserved":false,"is_disabled":false,"rental_uris":{"android":"levelo://app?vid=5691a6e0-5347-489b-93c6-fd7ea0170d78","ios":"levelo://app?vid=5691a6e0-5347-489b-93c6-fd7ea0170d78"},"vehicle_type_id":"4","last_reported":1723140721,"current_range_meters":0,"station_id":"ce4bgl12rcd13ifvqbo0","pricing_plan_id":"cebpf4jnsgd1na2vs0mg"},{"bike_id":"2ff7eb7c-5d24-4348-98c3-89da03f3187e","system_id":"levelo_inurba_marseille","lat":43.29337,"lon":5.37232,"is_reserved":false,"is_disabled":false,"rental_uris":{"android":"levelo://app?vid=2ff7eb7c-5d24-4348-98c3-89da03f3187e","ios":"levelo://app?vid=2ff7eb7c-5d24-4348-98c3-89da03f3187e"},"vehicle_type_id":"4","last_reported":1723140721,"current_range_meters":400,"station_id":"","pricing_plan_id":"cebpf4jnsgd1na2vs0mg"},{"bike_id":"88fadada-07d2-4733-872c-7ad277d44f21","system_id":"levelo_inurba_marseille","lat":43.29305,"lon":5.37175,"is_reserved":false,"is_disabled":false,"rental_uris":{"android":"levelo://app?vid=88fadada-07d2-4733-872c-7ad277d44f21","ios":"levelo://app?vid=88fadada-07d2-4733-872c-7ad277d44f21"},"vehicle_type_id":"4","last_reported":1723140721,"current_range_meters":20800,"station_id":"ce4bgh92rcd13ifvqb40","pricing_plan_id":"cebpf4jnsgd1na2vs0mg"},{"bike_id":"c709beec-9b7e-4a44-94f3-690d3882ea66","system_id":"levelo_inurba_marseille","lat":43.29305,"lon":5.37178,"is_reserved":false,"is_disabled":false,"rental_uris":{"android":"levelo://app?vid=c709beec-9b7e-4a44-94f3-690d3882ea66","ios":"levelo://app?vid=c709beec-9b7e-4a44-94f3-690d3882ea66"},"vehicle_type_id":"4","last_reported":1723140721,"current_range_meters":3200,"station_id":"ce4bgh92rcd13ifvqb40","pricing_plan_id":"cebpf4jnsgd1na2vs0mg"},{"bike_id":"a0a84895-27e5-49ef-9bb6-34beef7f0df4","system_id":"levelo_inurba_marseille","lat":43.292749,"lon":5.368402,"is_reserved":false,"is_disabled":false,"rental_uris":{"android":"levelo://app?vid=a0a84895-27e5-49ef-9bb6-34beef7f0df4","ios":"levelo://app?vid=a0a84895-27e5-49ef-9bb6-34beef7f0df4"},"vehicle_type_id":"4","last_reported":1723140721,"current_range_meters":18000,"station_id":"ce4bhbp2rcd13ifvqesg","pricing_plan_id":"cebpf4jnsgd1na2vs0mg"},{"bike_id":"6c7f3fe6-35b1-4318-9565-4c5d5e86da9e","system_id":"levelo_inurba_marseille","lat":43.292749,"lon":5.368402,"is_reserved":false,"is_disabled":false,"rental_uris":{"android":"levelo://app?vid=6c7f3fe6-35b1-4318-9565-4c5d5e86da9e","ios":"levelo://app?vid=6c7f3fe6-35b1-4318-9565-4c5d5e86da9e"},"vehicle_type_id":"4","last_reported":1723140721,"current_range_meters":29200,"station_id":"ce4bhbp2rcd13ifvqesg","pricing_plan_id":"cebpf4jnsgd1na2vs0mg"},{"bike_id":"6251d650-2280-4ebd-b4ee-37cfd33e2ad3","system_id":"levelo_inurba_marseille","lat":43.292749,"lon":5.368402,"is_reserved":false,"is_disabled":false,"rental_uris":{"android":"levelo://app?vid=6251d650-2280-4ebd-b4ee-37cfd33e2ad3","ios":"levelo://app?vid=6251d650-2280-4ebd-b4ee-37cfd33e2ad3"},"vehicle_type_id":"4","last_reported":1723140721,"current_range_meters":23200,"station_id":"ce4bhbp2rcd13ifvqesg","pricing_plan_id":"cebpf4jnsgd1na2vs0mg"},{"bike_id":"ac9d0d5a-4030-4555-9529-91efb1183f3a","system_id":"levelo_inurba_marseille","lat":43.29302,"lon":5.37181,"is_reserved":false,"is_disabled":false,"rental_uris":{"android":"levelo://app?vid=ac9d0d5a-4030-4555-9529-91efb1183f3a","ios":"levelo://app?vid=ac9d0d5a-4030-4555-9529-91efb1183f3a"},"vehicle_type_id":"4","last_reported":1723140721,"current_range_meters":400,"station_id":"ce4bgh92rcd13ifvqb40","pricing_plan_id":"cebpf4jnsgd1na2vs0mg"},{"bike_id":"022d8c82-0ab6-4aad-acb4-cfd3762ee6bb","system_id":"levelo_inurba_marseille","lat":43.29301,"lon":5.37177,"is_reserved":false,"is_disabled":false,"rental_uris":{"android":"levelo://app?vid=022d8c82-0ab6-4aad-acb4-cfd3762ee6bb","ios":"levelo://app?vid=022d8c82-0ab6-4aad-acb4-cfd3762ee6bb"},"vehicle_type_id":"4","last_reported":1723140721,"current_range_meters":1600,"station_id":"ce4bgh92rcd13ifvqb40","pricing_plan_id":"cebpf4jnsgd1na2vs0mg"},{"bike_id":"f4ef897d-180b-4b29-8816-0f64ec9cf573","system_id":"levelo_inurba_marseille","lat":43.292749,"lon":5.368402,"is_reserved":false,"is_disabled":false,"rental_uris":{"android":"levelo://app?vid=f4ef897d-180b-4b29-8816-0f64ec9cf573","ios":"levelo://app?vid=f4ef897d-180b-4b29-8816-0f64ec9cf573"},"vehicle_type_id":"4","last_reported":1723140721,"current_range_meters":4000,"station_id":"ce4bhbp2rcd13ifvqesg","pricing_plan_id":"cebpf4jnsgd1na2vs0mg"},{"bike_id":"505f08c5-5f40-4a39-935e-45b98edd4d28","system_id":"levelo_inurba_marseille","lat":43.292749,"lon":5.368402,"is_reserved":false,"is_disabled":false,"rental_uris":{"android":"levelo://app?vid=505f08c5-5f40-4a39-935e-45b98edd4d28","ios":"levelo://app?vid=505f08c5-5f40-4a39-935e-45b98edd4d28"},"vehicle_type_id":"4","last_reported":1723140721,"current_range_meters":11200,"station_id":"ce4bhbp2rcd13ifvqesg","pricing_plan_id":"cebpf4jnsgd1na2vs0mg"},{"bike_id":"e215b8fb-c147-4969-b9b3-e8f53a2c676b","system_id":"levelo_inurba_marseille","lat":43.292749,"lon":5.368402,"is_reserved":false,"is_disabled":false,"rental_uris":{"android":"levelo://app?vid=e215b8fb-c147-4969-b9b3-e8f53a2c676b","ios":"levelo://app?vid=e215b8fb-c147-4969-b9b3-e8f53a2c676b"},"vehicle_type_id":"4","last_reported":1723140721,"current_range_meters":16000,"station_id":"ce4bhbp2rcd13ifvqesg","pricing_plan_id":"cebpf4jnsgd1na2vs0mg"},{"bike_id":"1da8e5df-4237-40a9-aa29-f37133ce78e3","system_id":"levelo_inurba_marseille","lat":43.305994,"lon":5.393687,"is_reserved":false,"is_disabled":false,"rental_uris":{"android":"levelo://app?vid=1da8e5df-4237-40a9-aa29-f37133ce78e3","ios":"levelo://app?vid=1da8e5df-4237-40a9-aa29-f37133ce78e3"},"vehicle_type_id":"4","last_reported":1723140721,"current_range_meters":0,"station_id":"ce4bh0p2rcd13ifvqd80","pricing_plan_id":"cebpf4jnsgd1na2vs0mg"},{"bike_id":"2539e892-38e3-4a5b-a016-3489d26d9dca","system_id":"levelo_inurba_marseille","lat":43.29299,"lon":5.37466,"is_reserved":false,"is_disabled":false,"rental_uris":{"android":"levelo://app?vid=2539e892-38e3-4a5b-a016-3489d26d9dca","ios":"levelo://app?vid=2539e892-38e3-4a5b-a016-3489d26d9dca"},"vehicle_type_id":"4","last_reported":1723140721,"current_range_meters":4000,"station_id":"ce4bgi12rcd13ifvqb70","pricing_plan_id":"cebpf4jnsgd1na2vs0mg"},{"bike_id":"09c2b447-ace3-4e20-aa21-2a5d29e3a5b1","system_id":"levelo_inurba_marseille","lat":43.305994,"lon":5.393687,"is_reserved":false,"is_disabled":false,"rental_uris":{"android":"levelo://app?vid=09c2b447-ace3-4e20-aa21-2a5d29e3a5b1","ios":"levelo://app?vid=09c2b447-ace3-4e20-aa21-2a5d29e3a5b1"},"vehicle_type_id":"4","last_reported":1723140721,"current_range_meters":10000,"station_id":"ce4bh0p2rcd13ifvqd80","pricing_plan_id":"cebpf4jnsgd1na2vs0mg"},{"bike_id":"8d37495d-9961-45f8-ba67-ee81725ae3ae","system_id":"levelo_inurba_marseille","lat":43.29228,"lon":5.36363,"is_reserved":false,"is_disabled":false,"rental_uris":{"android":"levelo://app?vid=8d37495d-9961-45f8-ba67-ee81725ae3ae","ios":"levelo://app?vid=8d37495d-9961-45f8-ba67-ee81725ae3ae"},"vehicle_type_id":"4","last_reported":1723140721,"current_range_meters":16000,"station_id":"","pricing_plan_id":"cebpf4jnsgd1na2vs0mg"},{"bike_id":"ed07b885-3212-46d3-8d8e-f9b03ad62790","system_id":"levelo_inurba_marseille","lat":43.303002,"lon":5.392142,"is_reserved":false,"is_disabled":false,"rental_uris":{"android":"levelo://app?vid=ed07b885-3212-46d3-8d8e-f9b03ad62790","ios":"levelo://app?vid=ed07b885-3212-46d3-8d8e-f9b03ad62790"},"vehicle_type_id":"4","last_reported":1723140721,"current_range_meters":0,"station_id":"ce4bgkh2rcd13ifvqbk0","pricing_plan_id":"cebpf4jnsgd1na2vs0mg"},{"bike_id":"fcdf9d5d-64c5-4d48-b1d3-378e53dd4861","system_id":"levelo_inurba_marseille","lat":43.293009,"lon":5.374584,"is_reserved":false,"is_disabled":false,"rental_uris":{"android":"levelo://app?vid=fcdf9d5d-64c5-4d48-b1d3-378e53dd4861","ios":"levelo://app?vid=fcdf9d5d-64c5-4d48-b1d3-378e53dd4861"},"vehicle_type_id":"4","last_reported":1723140721,"current_range_meters":2800,"station_id":"ce4bgi12rcd13ifvqb70","pricing_plan_id":"cebpf4jnsgd1na2vs0mg"},{"bike_id":"432eb2ff-4c8b-45ab-a744-ff75205eff75","system_id":"levelo_inurba_marseille","lat":43.303002,"lon":5.392142,"is_reserved":false,"is_disabled":false,"rental_uris":{"android":"levelo://app?vid=432eb2ff-4c8b-45ab-a744-ff75205eff75","ios":"levelo://app?vid=432eb2ff-4c8b-45ab-a744-ff75205eff75"},"vehicle_type_id":"4","last_reported":1723140721,"current_range_meters":0,"station_id":"ce4bgkh2rcd13ifvqbk0","pricing_plan_id":"cebpf4jnsgd1na2vs0mg"},{"bike_id":"15b42f33-1d7a-4e2b-b33c-e093304ed673","system_id":"levelo_inurba_marseille","lat":43.30295,"lon":5.39219,"is_reserved":false,"is_disabled":false,"rental_uris":{"android":"levelo://app?vid=15b42f33-1d7a-4e2b-b33c-e093304ed673","ios":"levelo://app?vid=15b42f33-1d7a-4e2b-b33c-e093304ed673"},"vehicle_type_id":"4","last_reported":1723140721,"current_range_meters":5600,"station_id":"ce4bgkh2rcd13ifvqbk0","pricing_plan_id":"cebpf4jnsgd1na2vs0mg"},{"bike_id":"d2a5be9c-f584-49e2-a344-a55b0149b11e","system_id":"levelo_inurba_marseille","lat":43.30293,"lon":5.3922,"is_reserved":false,"is_disabled":false,"rental_uris":{"android":"levelo://app?vid=d2a5be9c-f584-49e2-a344-a55b0149b11e","ios":"levelo://app?vid=d2a5be9c-f584-49e2-a344-a55b0149b11e"},"vehicle_type_id":"4","last_reported":1723140721,"current_range_meters":3200,"station_id":"ce4bgkh2rcd13ifvqbk0","pricing_plan_id":"cebpf4jnsgd1na2vs0mg"},{"bike_id":"979a1097-418a-4863-8d88-56ec701921e2","system_id":"levelo_inurba_marseille","lat":43.304263,"lon":5.393302,"is_reserved":false,"is_disabled":false,"rental_uris":{"android":"levelo://app?vid=979a1097-418a-4863-8d88-56ec701921e2","ios":"levelo://app?vid=979a1097-418a-4863-8d88-56ec701921e2"},"vehicle_type_id":"4","last_reported":1723140721,"current_range_meters":0,"station_id":"","pricing_plan_id":"cebpf4jnsgd1na2vs0mg"},{"bike_id":"37cec51a-5cb5-47a9-95e0-9ed67f338311","system_id":"levelo_inurba_marseille","lat":43.30102,"lon":5.39086,"is_reserved":false,"is_disabled":false,"rental_uris":{"android":"levelo://app?vid=37cec51a-5cb5-47a9-95e0-9ed67f338311","ios":"levelo://app?vid=37cec51a-5cb5-47a9-95e0-9ed67f338311"},"vehicle_type_id":"4","last_reported":1723140721,"current_range_meters":0,"station_id":"ce4bh192rcd13ifvqdb0","pricing_plan_id":"cebpf4jnsgd1na2vs0mg"},{"bike_id":"b65e792b-d3f7-42bd-893b-27e9c4f6dc53","system_id":"levelo_inurba_marseille","lat":43.29221,"lon":5.36078,"is_reserved":false,"is_disabled":false,"rental_uris":{"android":"levelo://app?vid=b65e792b-d3f7-42bd-893b-27e9c4f6dc53","ios":"levelo://app?vid=b65e792b-d3f7-42bd-893b-27e9c4f6dc53"},"vehicle_type_id":"4","last_reported":1723140721,"current_range_meters":0,"station_id":"ce4bhbh2rcd13ifvqeqg","pricing_plan_id":"cebpf4jnsgd1na2vs0mg"},{"bike_id":"c1eebddd-c91c-436e-8a9d-75da997a1fd3","system_id":"levelo_inurba_marseille","lat":43.292208,"lon":5.360085,"is_reserved":false,"is_disabled":false,"rental_uris":{"android":"levelo://app?vid=c1eebddd-c91c-436e-8a9d-75da997a1fd3","ios":"levelo://app?vid=c1eebddd-c91c-436e-8a9d-75da997a1fd3"},"vehicle_type_id":"4","last_reported":1723140721,"current_range_meters":800,"station_id":"","pricing_plan_id":"cebpf4jnsgd1na2vs0mg"},{"bike_id":"ae023b7d-afc9-4515-8c5d-98525ec24337","system_id":"levelo_inurba_marseille","lat":43.29172,"lon":5.37145,"is_reserved":false,"is_disabled":false,"rental_uris":{"android":"levelo://app?vid=ae023b7d-afc9-4515-8c5d-98525ec24337","ios":"levelo://app?vid=ae023b7d-afc9-4515-8c5d-98525ec24337"},"vehicle_type_id":"4","last_reported":1723140721,"current_range_meters":0,"station_id":"ce4bha92rcd13ifvqeh0","pricing_plan_id":"cebpf4jnsgd1na2vs0mg"},{"bike_id":"997a123f-d5fa-48b5-b176-48b20397b3d0","system_id":"levelo_inurba_marseille","lat":43.291713,"lon":5.371473,"is_reserved":false,"is_disabled":false,"rental_uris":{"android":"levelo://app?vid=997a123f-d5fa-48b5-b176-48b20397b3d0","ios":"levelo://app?vid=997a123f-d5fa-48b5-b176-48b20397b3d0"},"vehicle_type_id":"4","last_reported":1723140721,"current_range_meters":0,"station_id":"ce4bha92rcd13ifvqeh0","pricing_plan_id":"cebpf4jnsgd1na2vs0mg"},{"bike_id":"8669c215-f64f-4991-918a-38e605b47e3d","system_id":"levelo_inurba_marseille","lat":43.29286,"lon":5.35626,"is_reserved":false,"is_disabled":false,"rental_uris":{"android":"levelo://app?vid=8669c215-f64f-4991-918a-38e605b47e3d","ios":"levelo://app?vid=8669c215-f64f-4991-918a-38e605b47e3d"},"vehicle_type_id":"4","last_reported":1723140721,"current_range_meters":16800,"station_id":"","pricing_plan_id":"cebpf4jnsgd1na2vs0mg"},{"bike_id":"0bdeb801-171d-40ad-b708-1085cc1416f8","system_id":"levelo_inurba_marseille","lat":43.298764,"lon":5.388973,"is_reserved":false,"is_disabled":false,"rental_uris":{"android":"levelo://app?vid=0bdeb801-171d-40ad-b708-1085cc1416f8","ios":"levelo://app?vid=0bdeb801-171d-40ad-b708-1085cc1416f8"},"vehicle_type_id":"4","last_reported":1723140721,"current_range_meters":6000,"station_id":"ce4bh392rcd13ifvqdl0","pricing_plan_id":"cebpf4jnsgd1na2vs0mg"},{"bike_id":"be0bd32b-bd53-4fcf-ab33-94f4e180efd6","system_id":"levelo_inurba_marseille","lat":43.298764,"lon":5.388973,"is_reserved":false,"is_disabled":false,"rental_uris":{"android":"levelo://app?vid=be0bd32b-bd53-4fcf-ab33-94f4e180efd6","ios":"levelo://app?vid=be0bd32b-bd53-4fcf-ab33-94f4e180efd6"},"vehicle_type_id":"4","last_reported":1723140721,"current_range_meters":0,"station_id":"ce4bh392rcd13ifvqdl0","pricing_plan_id":"cebpf4jnsgd1na2vs0mg"},{"bike_id":"1536e205-587c-40c2-aadf-dfba90531241","system_id":"levelo_inurba_marseille","lat":43.291918,"lon":5.358066,"is_reserved":false,"is_disabled":false,"rental_uris":{"android":"levelo://app?vid=1536e205-587c-40c2-aadf-dfba90531241","ios":"levelo://app?vid=1536e205-587c-40c2-aadf-dfba90531241"},"vehicle_type_id":"4","last_reported":1723140721,"current_range_meters":0,"station_id":"ce4bhb12rcd13ifvqel0","pricing_plan_id":"cebpf4jnsgd1na2vs0mg"},{"bike_id":"d72444bc-f1fc-4d37-9974-41324805e0c5","system_id":"levelo_inurba_marseille","lat":43.292385,"lon":5.37767,"is_reserved":false,"is_disabled":false,"rental_uris":{"android":"levelo://app?vid=d72444bc-f1fc-4d37-9974-41324805e0c5","ios":"levelo://app?vid=d72444bc-f1fc-4d37-9974-41324805e0c5"},"vehicle_type_id":"4","last_reported":1723140721,"current_range_meters":18800,"station_id":"","pricing_plan_id":"cebpf4jnsgd1na2vs0mg"},{"bike_id":"5ce2a712-7aed-4b0b-99c2-678952d0db28","system_id":"levelo_inurba_marseille","lat":43.313291,"lon":5.396838,"is_reserved":false,"is_disabled":false,"rental_uris":{"android":"levelo://app?vid=5ce2a712-7aed-4b0b-99c2-678952d0db28","ios":"levelo://app?vid=5ce2a712-7aed-4b0b-99c2-678952d0db28"},"vehicle_type_id":"4","last_reported":1723140721,"current_range_meters":0,"station_id":"ce4bgvp2rcd13ifvqcu0","pricing_plan_id":"cebpf4jnsgd1na2vs0mg"},{"bike_id":"5dc07d67-c718-4255-b89a-1880a2a195f7","system_id":"levelo_inurba_marseille","lat":43.31327,"lon":5.39691,"is_reserved":false,"is_disabled":false,"rental_uris":{"android":"levelo://app?vid=5dc07d67-c718-4255-b89a-1880a2a195f7","ios":"levelo://app?vid=5dc07d67-c718-4255-b89a-1880a2a195f7"},"vehicle_type_id":"4","last_reported":1723140721,"current_range_meters":6000,"station_id":"ce4bgvp2rcd13ifvqcu0","pricing_plan_id":"cebpf4jnsgd1na2vs0mg"},{"bike_id":"c4683ae8-93bc-457a-a9f4-341f451c463d","system_id":"levelo_inurba_marseille","lat":43.313291,"lon":5.396838,"is_reserved":false,"is_disabled":false,"rental_uris":{"android":"levelo://app?vid=c4683ae8-93bc-457a-a9f4-341f451c463d","ios":"levelo://app?vid=c4683ae8-93bc-457a-a9f4-341f451c463d"},"vehicle_type_id":"4","last_reported":1723140721,"current_range_meters":18800,"station_id":"ce4bgvp2rcd13ifvqcu0","pricing_plan_id":"cebpf4jnsgd1na2vs0mg"},{"bike_id":"efb2c133-3d96-42ee-bb64-01ef1737211f","system_id":"levelo_inurba_marseille","lat":43.313291,"lon":5.396838,"is_reserved":false,"is_disabled":false,"rental_uris":{"android":"levelo://app?vid=efb2c133-3d96-42ee-bb64-01ef1737211f","ios":"levelo://app?vid=efb2c133-3d96-42ee-bb64-01ef1737211f"},"vehicle_type_id":"4","last_reported":1723140721,"current_range_meters":12000,"station_id":"ce4bgvp2rcd13ifvqcu0","pricing_plan_id":"cebpf4jnsgd1na2vs0mg"},{"bike_id":"69e7ed15-d58a-4de9-91a8-66524c14164f","system_id":"levelo_inurba_marseille","lat":43.31327,"lon":5.39695,"is_reserved":false,"is_disabled":false,"rental_uris":{"android":"levelo://app?vid=69e7ed15-d58a-4de9-91a8-66524c14164f","ios":"levelo://app?vid=69e7ed15-d58a-4de9-91a8-66524c14164f"},"vehicle_type_id":"4","last_reported":1723140721,"current_range_meters":2400,"station_id":"ce4bgvp2rcd13ifvqcu0","pricing_plan_id":"cebpf4jnsgd1na2vs0mg"},{"bike_id":"c4093f67-fb70-42c3-94eb-0bef03a94660","system_id":"levelo_inurba_marseille","lat":43.309038,"lon":5.396546,"is_reserved":false,"is_disabled":false,"rental_uris":{"android":"levelo://app?vid=c4093f67-fb70-42c3-94eb-0bef03a94660","ios":"levelo://app?vid=c4093f67-fb70-42c3-94eb-0bef03a94660"},"vehicle_type_id":"4","last_reported":1723140721,"current_range_meters":5600,"station_id":"ce4bh012rcd13ifvqcv0","pricing_plan_id":"cebpf4jnsgd1na2vs0mg"},{"bike_id":"7886684c-bf3e-4cb6-bb2a-c044db30b19f","system_id":"levelo_inurba_marseille","lat":43.313291,"lon":5.396838,"is_reserved":false,"is_disabled":false,"rental_uris":{"android":"levelo://app?vid=7886684c-bf3e-4cb6-bb2a-c044db30b19f","ios":"levelo://app?vid=7886684c-bf3e-4cb6-bb2a-c044db30b19f"},"vehicle_type_id":"4","last_reported":1723140721,"current_range_meters":2800,"station_id":"ce4bgvp2rcd13ifvqcu0","pricing_plan_id":"cebpf4jnsgd1na2vs0mg"},{"bike_id":"95c45343-49b8-4b4b-ab61-43028bdf40be","system_id":"levelo_inurba_marseille","lat":43.29213,"lon":5.37729,"is_reserved":false,"is_disabled":false,"rental_uris":{"android":"levelo://app?vid=95c45343-49b8-4b4b-ab61-43028bdf40be","ios":"levelo://app?vid=95c45343-49b8-4b4b-ab61-43028bdf40be"},"vehicle_type_id":"4","last_reported":1723140721,"current_range_meters":22400,"station_id":"","pricing_plan_id":"cebpf4jnsgd1na2vs0mg"},{"bike_id":"a7ee0bfa-7b86-4499-94e7-3b27a3c29928","system_id":"levelo_inurba_marseille","lat":43.309038,"lon":5.396546,"is_reserved":false,"is_disabled":false,"rental_uris":{"android":"levelo://app?vid=a7ee0bfa-7b86-4499-94e7-3b27a3c29928","ios":"levelo://app?vid=a7ee0bfa-7b86-4499-94e7-3b27a3c29928"},"vehicle_type_id":"4","last_reported":1723140721,"current_range_meters":30400,"station_id":"ce4bh012rcd13ifvqcv0","pricing_plan_id":"cebpf4jnsgd1na2vs0mg"},{"bike_id":"9ac665cb-59e5-4eda-92d4-f2ddafc8e9c5","system_id":"levelo_inurba_marseille","lat":43.332452,"lon":5.380344,"is_reserved":false,"is_disabled":false,"rental_uris":{"android":"levelo://app?vid=9ac665cb-59e5-4eda-92d4-f2ddafc8e9c5","ios":"levelo://app?vid=9ac665cb-59e5-4eda-92d4-f2ddafc8e9c5"},"vehicle_type_id":"4","last_reported":1723140721,"current_range_meters":11200,"station_id":"","pricing_plan_id":"cebpf4jnsgd1na2vs0mg"},{"bike_id":"954ad985-0012-4108-aafd-b68b9d108057","system_id":"levelo_inurba_marseille","lat":43.29529,"lon":5.385581,"is_reserved":false,"is_disabled":false,"rental_uris":{"android":"levelo://app?vid=954ad985-0012-4108-aafd-b68b9d108057","ios":"levelo://app?vid=954ad985-0012-4108-aafd-b68b9d108057"},"vehicle_type_id":"4","last_reported":1723140721,"current_range_meters":800,"station_id":"ce4bgih2rcd13ifvqba0","pricing_plan_id":"cebpf4jnsgd1na2vs0mg"},{"bike_id":"66c82d0a-0802-437e-9d2a-ebd306e04b40","system_id":"levelo_inurba_marseille","lat":43.29529,"lon":5.385581,"is_reserved":false,"is_disabled":false,"rental_uris":{"android":"levelo://app?vid=66c82d0a-0802-437e-9d2a-ebd306e04b40","ios":"levelo://app?vid=66c82d0a-0802-437e-9d2a-ebd306e04b40"},"vehicle_type_id":"4","last_reported":1723140721,"current_range_meters":0,"station_id":"ce4bgih2rcd13ifvqba0","pricing_plan_id":"cebpf4jnsgd1na2vs0mg"},{"bike_id":"92e60c7a-6d43-4e33-8e2b-f41cdedd88c7","system_id":"levelo_inurba_marseille","lat":43.29525,"lon":5.38542,"is_reserved":false,"is_disabled":false,"rental_uris":{"android":"levelo://app?vid=92e60c7a-6d43-4e33-8e2b-f41cdedd88c7","ios":"levelo://app?vid=92e60c7a-6d43-4e33-8e2b-f41cdedd88c7"},"vehicle_type_id":"4","last_reported":1723140721,"current_range_meters":0,"station_id":"ce4bgih2rcd13ifvqba0","pricing_plan_id":"cebpf4jnsgd1na2vs0mg"},{"bike_id":"bd1051a1-2c0b-47c3-8240-a8bc8f131af4","system_id":"levelo_inurba_marseille","lat":43.290779,"lon":5.371482,"is_reserved":false,"is_disabled":false,"rental_uris":{"android":"levelo://app?vid=bd1051a1-2c0b-47c3-8240-a8bc8f131af4","ios":"levelo://app?vid=bd1051a1-2c0b-47c3-8240-a8bc8f131af4"},"vehicle_type_id":"4","last_reported":1723140721,"current_range_meters":0,"station_id":"ce4bh5p2rcd13ifvqe4g","pricing_plan_id":"cebpf4jnsgd1na2vs0mg"},{"bike_id":"c4c02c58-6d55-4755-9327-bf33b3b0bc1a","system_id":"levelo_inurba_marseille","lat":43.33334,"lon":5.37979,"is_reserved":false,"is_disabled":false,"rental_uris":{"android":"levelo://app?vid=c4c02c58-6d55-4755-9327-bf33b3b0bc1a","ios":"levelo://app?vid=c4c02c58-6d55-4755-9327-bf33b3b0bc1a"},"vehicle_type_id":"4","last_reported":1723140721,"current_range_meters":27200,"station_id":"","pricing_plan_id":"cebpf4jnsgd1na2vs0mg"},{"bike_id":"66795f83-8fdf-41c6-91f3-e109a2c9a498","system_id":"levelo_inurba_marseille","lat":43.29417,"lon":5.38618,"is_reserved":false,"is_disabled":false,"rental_uris":{"android":"levelo://app?vid=66795f83-8fdf-41c6-91f3-e109a2c9a498","ios":"levelo://app?vid=66795f83-8fdf-41c6-91f3-e109a2c9a498"},"vehicle_type_id":"4","last_reported":1723140721,"current_range_meters":24400,"station_id":"ce4bh2h2rcd13ifvqdh0","pricing_plan_id":"cebpf4jnsgd1na2vs0mg"},{"bike_id":"4f029739-32dd-4ef0-842d-9e13df1dec96","system_id":"levelo_inurba_marseille","lat":43.294162,"lon":5.386292,"is_reserved":false,"is_disabled":false,"rental_uris":{"android":"levelo://app?vid=4f029739-32dd-4ef0-842d-9e13df1dec96","ios":"levelo://app?vid=4f029739-32dd-4ef0-842d-9e13df1dec96"},"vehicle_type_id":"4","last_reported":1723140721,"current_range_meters":0,"station_id":"ce4bh2h2rcd13ifvqdh0","pricing_plan_id":"cebpf4jnsgd1na2vs0mg"},{"bike_id":"de9b29c2-050a-47e9-89fc-8bc3eaa4578a","system_id":"levelo_inurba_marseille","lat":43.294162,"lon":5.386292,"is_reserved":false,"is_disabled":false,"rental_uris":{"android":"levelo://app?vid=de9b29c2-050a-47e9-89fc-8bc3eaa4578a","ios":"levelo://app?vid=de9b29c2-050a-47e9-89fc-8bc3eaa4578a"},"vehicle_type_id":"4","last_reported":1723140721,"current_range_meters":0,"station_id":"ce4bh2h2rcd13ifvqdh0","pricing_plan_id":"cebpf4jnsgd1na2vs0mg"},{"bike_id":"ef81f8e1-6030-4a05-991a-d04fc69b1b7d","system_id":"levelo_inurba_marseille","lat":43.29031,"lon":5.37562,"is_reserved":false,"is_disabled":false,"rental_uris":{"android":"levelo://app?vid=ef81f8e1-6030-4a05-991a-d04fc69b1b7d","ios":"levelo://app?vid=ef81f8e1-6030-4a05-991a-d04fc69b1b7d"},"vehicle_type_id":"4","last_reported":1723140721,"current_range_meters":1600,"station_id":"ce4bh692rcd13ifvqe90","pricing_plan_id":"cebpf4jnsgd1na2vs0mg"},{"bike_id":"1eef6485-9aff-4189-b4ea-7fbaf950e938","system_id":"levelo_inurba_marseille","lat":43.294162,"lon":5.386292,"is_reserved":false,"is_disabled":false,"rental_uris":{"android":"levelo://app?vid=1eef6485-9aff-4189-b4ea-7fbaf950e938","ios":"levelo://app?vid=1eef6485-9aff-4189-b4ea-7fbaf950e938"},"vehicle_type_id":"4","last_reported":1723140721,"current_range_meters":12400,"station_id":"ce4bh2h2rcd13ifvqdh0","pricing_plan_id":"cebpf4jnsgd1na2vs0mg"},{"bike_id":"8a6ce8e1-a6a8-4e2c-990f-71c65d349b9b","system_id":"levelo_inurba_marseille","lat":43.29417,"lon":5.38632,"is_reserved":false,"is_disabled":false,"rental_uris":{"android":"levelo://app?vid=8a6ce8e1-a6a8-4e2c-990f-71c65d349b9b","ios":"levelo://app?vid=8a6ce8e1-a6a8-4e2c-990f-71c65d349b9b"},"vehicle_type_id":"4","last_reported":1723140721,"current_range_meters":0,"station_id":"ce4bh2h2rcd13ifvqdh0","pricing_plan_id":"cebpf4jnsgd1na2vs0mg"},{"bike_id":"1b1cbb73-4f68-4480-956d-174eadcd5473","system_id":"levelo_inurba_marseille","lat":43.289468,"lon":5.363719,"is_reserved":false,"is_disabled":false,"rental_uris":{"android":"levelo://app?vid=1b1cbb73-4f68-4480-956d-174eadcd5473","ios":"levelo://app?vid=1b1cbb73-4f68-4480-956d-174eadcd5473"},"vehicle_type_id":"4","last_reported":1723140721,"current_range_meters":0,"station_id":"ce4bhc92rcd13ifvqetg","pricing_plan_id":"cebpf4jnsgd1na2vs0mg"},{"bike_id":"23ba7118-3f9c-47b2-836b-b336c57ebbf7","system_id":"levelo_inurba_marseille","lat":43.2903,"lon":5.37572,"is_reserved":false,"is_disabled":false,"rental_uris":{"android":"levelo://app?vid=23ba7118-3f9c-47b2-836b-b336c57ebbf7","ios":"levelo://app?vid=23ba7118-3f9c-47b2-836b-b336c57ebbf7"},"vehicle_type_id":"4","last_reported":1723140721,"current_range_meters":0,"station_id":"ce4bh692rcd13ifvqe90","pricing_plan_id":"cebpf4jnsgd1na2vs0mg"},{"bike_id":"0f372110-ea55-4429-8345-26a55e6018f8","system_id":"levelo_inurba_marseille","lat":43.294162,"lon":5.386292,"is_reserved":false,"is_disabled":false,"rental_uris":{"android":"levelo://app?vid=0f372110-ea55-4429-8345-26a55e6018f8","ios":"levelo://app?vid=0f372110-ea55-4429-8345-26a55e6018f8"},"vehicle_type_id":"4","last_reported":1723140721,"current_range_meters":800,"station_id":"ce4bh2h2rcd13ifvqdh0","pricing_plan_id":"cebpf4jnsgd1na2vs0mg"},{"bike_id":"630ead47-9e64-412f-9d4e-cfa88feefe2d","system_id":"levelo_inurba_marseille","lat":43.294162,"lon":5.386292,"is_reserved":false,"is_disabled":false,"rental_uris":{"android":"levelo://app?vid=630ead47-9e64-412f-9d4e-cfa88feefe2d","ios":"levelo://app?vid=630ead47-9e64-412f-9d4e-cfa88feefe2d"},"vehicle_type_id":"4","last_reported":1723140721,"current_range_meters":14400,"station_id":"ce4bh2h2rcd13ifvqdh0","pricing_plan_id":"cebpf4jnsgd1na2vs0mg"},{"bike_id":"200e334e-e4e4-4c49-bb2c-eb903bfb779f","system_id":"levelo_inurba_marseille","lat":43.294153,"lon":5.386305,"is_reserved":false,"is_disabled":false,"rental_uris":{"android":"levelo://app?vid=200e334e-e4e4-4c49-bb2c-eb903bfb779f","ios":"levelo://app?vid=200e334e-e4e4-4c49-bb2c-eb903bfb779f"},"vehicle_type_id":"4","last_reported":1723140721,"current_range_meters":0,"station_id":"ce4bh2h2rcd13ifvqdh0","pricing_plan_id":"cebpf4jnsgd1na2vs0mg"},{"bike_id":"ce2bb883-e804-4138-b13d-3b5b68768816","system_id":"levelo_inurba_marseille","lat":43.289184,"lon":5.366408,"is_reserved":false,"is_disabled":false,"rental_uris":{"android":"levelo://app?vid=ce2bb883-e804-4138-b13d-3b5b68768816","ios":"levelo://app?vid=ce2bb883-e804-4138-b13d-3b5b68768816"},"vehicle_type_id":"4","last_reported":1723140721,"current_range_meters":10400,"station_id":"ce4bhap2rcd13ifvqek0","pricing_plan_id":"cebpf4jnsgd1na2vs0mg"},{"bike_id":"859b6ce5-8c88-4e70-8c19-3cd09a25de23","system_id":"levelo_inurba_marseille","lat":43.289426,"lon":5.364173,"is_reserved":false,"is_disabled":false,"rental_uris":{"android":"levelo://app?vid=859b6ce5-8c88-4e70-8c19-3cd09a25de23","ios":"levelo://app?vid=859b6ce5-8c88-4e70-8c19-3cd09a25de23"},"vehicle_type_id":"4","last_reported":1723140721,"current_range_meters":1200,"station_id":"ce4bhc92rcd13ifvqetg","pricing_plan_id":"cebpf4jnsgd1na2vs0mg"},{"bike_id":"477e2ace-6b62-4162-a8ae-c6dd13a673d7","system_id":"levelo_inurba_marseille","lat":43.28934,"lon":5.36628,"is_reserved":false,"is_disabled":false,"rental_uris":{"android":"levelo://app?vid=477e2ace-6b62-4162-a8ae-c6dd13a673d7","ios":"levelo://app?vid=477e2ace-6b62-4162-a8ae-c6dd13a673d7"},"vehicle_type_id":"4","last_reported":1723140721,"current_range_meters":0,"station_id":"ce4bhap2rcd13ifvqek0","pricing_plan_id":"cebpf4jnsgd1na2vs0mg"},{"bike_id":"b381236e-28a2-40df-a9ea-55935312aa30","system_id":"levelo_inurba_marseille","lat":43.28933,"lon":5.36633,"is_reserved":false,"is_disabled":false,"rental_uris":{"android":"levelo://app?vid=b381236e-28a2-40df-a9ea-55935312aa30","ios":"levelo://app?vid=b381236e-28a2-40df-a9ea-55935312aa30"},"vehicle_type_id":"4","last_reported":1723140721,"current_range_meters":0,"station_id":"ce4bhap2rcd13ifvqek0","pricing_plan_id":"cebpf4jnsgd1na2vs0mg"},{"bike_id":"4d26b5bb-b39c-442d-b41e-f9899b990656","system_id":"levelo_inurba_marseille","lat":43.289184,"lon":5.366408,"is_reserved":false,"is_disabled":false,"rental_uris":{"android":"levelo://app?vid=4d26b5bb-b39c-442d-b41e-f9899b990656","ios":"levelo://app?vid=4d26b5bb-b39c-442d-b41e-f9899b990656"},"vehicle_type_id":"4","last_reported":1723140721,"current_range_meters":3600,"station_id":"ce4bhap2rcd13ifvqek0","pricing_plan_id":"cebpf4jnsgd1na2vs0mg"},{"bike_id":"c3288513-5b0c-4a9f-b53f-94b890762c26","system_id":"levelo_inurba_marseille","lat":43.2893,"lon":5.36638,"is_reserved":false,"is_disabled":false,"rental_uris":{"android":"levelo://app?vid=c3288513-5b0c-4a9f-b53f-94b890762c26","ios":"levelo://app?vid=c3288513-5b0c-4a9f-b53f-94b890762c26"},"vehicle_type_id":"4","last_reported":1723140721,"current_range_meters":0,"station_id":"ce4bhap2rcd13ifvqek0","pricing_plan_id":"cebpf4jnsgd1na2vs0mg"},{"bike_id":"02ac5aeb-6ffd-403f-9e59-0d1d99ee776b","system_id":"levelo_inurba_marseille","lat":43.289184,"lon":5.366408,"is_reserved":false,"is_disabled":false,"rental_uris":{"android":"levelo://app?vid=02ac5aeb-6ffd-403f-9e59-0d1d99ee776b","ios":"levelo://app?vid=02ac5aeb-6ffd-403f-9e59-0d1d99ee776b"},"vehicle_type_id":"4","last_reported":1723140721,"current_range_meters":12400,"station_id":"ce4bhap2rcd13ifvqek0","pricing_plan_id":"cebpf4jnsgd1na2vs0mg"},{"bike_id":"3b84d42a-6da5-431f-9298-b6f78a62d60f","system_id":"levelo_inurba_marseille","lat":43.28928,"lon":5.36636,"is_reserved":false,"is_disabled":false,"rental_uris":{"android":"levelo://app?vid=3b84d42a-6da5-431f-9298-b6f78a62d60f","ios":"levelo://app?vid=3b84d42a-6da5-431f-9298-b6f78a62d60f"},"vehicle_type_id":"4","last_reported":1723140721,"current_range_meters":14400,"station_id":"ce4bhap2rcd13ifvqek0","pricing_plan_id":"cebpf4jnsgd1na2vs0mg"},{"bike_id":"0be40236-2b9b-4a29-9c39-7af7a89cb6d1","system_id":"levelo_inurba_marseille","lat":43.28928,"lon":5.36636,"is_reserved":false,"is_disabled":false,"rental_uris":{"android":"levelo://app?vid=0be40236-2b9b-4a29-9c39-7af7a89cb6d1","ios":"levelo://app?vid=0be40236-2b9b-4a29-9c39-7af7a89cb6d1"},"vehicle_type_id":"4","last_reported":1723140721,"current_range_meters":0,"station_id":"ce4bhap2rcd13ifvqek0","pricing_plan_id":"cebpf4jnsgd1na2vs0mg"},{"bike_id":"029ff6a5-0d6a-436d-93ce-b01b122411db","system_id":"levelo_inurba_marseille","lat":43.28928,"lon":5.36632,"is_reserved":false,"is_disabled":false,"rental_uris":{"android":"levelo://app?vid=029ff6a5-0d6a-436d-93ce-b01b122411db","ios":"levelo://app?vid=029ff6a5-0d6a-436d-93ce-b01b122411db"},"vehicle_type_id":"4","last_reported":1723140721,"current_range_meters":0,"station_id":"ce4bhap2rcd13ifvqek0","pricing_plan_id":"cebpf4jnsgd1na2vs0mg"},{"bike_id":"e6f13205-b40d-435f-acdd-61bcba4dc2cd","system_id":"levelo_inurba_marseille","lat":43.290333,"lon":5.356657,"is_reserved":false,"is_disabled":false,"rental_uris":{"android":"levelo://app?vid=e6f13205-b40d-435f-acdd-61bcba4dc2cd","ios":"levelo://app?vid=e6f13205-b40d-435f-acdd-61bcba4dc2cd"},"vehicle_type_id":"4","last_reported":1723140721,"current_range_meters":12800,"station_id":"","pricing_plan_id":"cebpf4jnsgd1na2vs0mg"},{"bike_id":"883846ed-ea7a-4a67-8895-848748403f01","system_id":"levelo_inurba_marseille","lat":43.29269,"lon":5.38432,"is_reserved":false,"is_disabled":false,"rental_uris":{"android":"levelo://app?vid=883846ed-ea7a-4a67-8895-848748403f01","ios":"levelo://app?vid=883846ed-ea7a-4a67-8895-848748403f01"},"vehicle_type_id":"4","last_reported":1723140721,"current_range_meters":800,"station_id":"ce4bh692rcd13ifvqea0","pricing_plan_id":"cebpf4jnsgd1na2vs0mg"},{"bike_id":"7e29e647-80c4-435f-9517-1935199c621c","system_id":"levelo_inurba_marseille","lat":43.292642,"lon":5.384254,"is_reserved":false,"is_disabled":false,"rental_uris":{"android":"levelo://app?vid=7e29e647-80c4-435f-9517-1935199c621c","ios":"levelo://app?vid=7e29e647-80c4-435f-9517-1935199c621c"},"vehicle_type_id":"4","last_reported":1723140721,"current_range_meters":15200,"station_id":"ce4bh692rcd13ifvqea0","pricing_plan_id":"cebpf4jnsgd1na2vs0mg"},{"bike_id":"7c3c4283-2dd3-4973-9502-49ecf80a0d01","system_id":"levelo_inurba_marseille","lat":43.29271,"lon":5.38444,"is_reserved":false,"is_disabled":false,"rental_uris":{"android":"levelo://app?vid=7c3c4283-2dd3-4973-9502-49ecf80a0d01","ios":"levelo://app?vid=7c3c4283-2dd3-4973-9502-49ecf80a0d01"},"vehicle_type_id":"4","last_reported":1723140721,"current_range_meters":2400,"station_id":"ce4bh692rcd13ifvqea0","pricing_plan_id":"cebpf4jnsgd1na2vs0mg"},{"bike_id":"ff2403fe-2dbf-476f-9e8f-bec90704955c","system_id":"levelo_inurba_marseille","lat":43.29265,"lon":5.38435,"is_reserved":false,"is_disabled":false,"rental_uris":{"android":"levelo://app?vid=ff2403fe-2dbf-476f-9e8f-bec90704955c","ios":"levelo://app?vid=ff2403fe-2dbf-476f-9e8f-bec90704955c"},"vehicle_type_id":"4","last_reported":1723140721,"current_range_meters":0,"station_id":"ce4bh692rcd13ifvqea0","pricing_plan_id":"cebpf4jnsgd1na2vs0mg"},{"bike_id":"b8d55ea8-12cd-4cf3-9639-fa3f0cf0a02d","system_id":"levelo_inurba_marseille","lat":43.304296,"lon":5.397513,"is_reserved":false,"is_disabled":false,"rental_uris":{"android":"levelo://app?vid=b8d55ea8-12cd-4cf3-9639-fa3f0cf0a02d","ios":"levelo://app?vid=b8d55ea8-12cd-4cf3-9639-fa3f0cf0a02d"},"vehicle_type_id":"4","last_reported":1723140721,"current_range_meters":16400,"station_id":"ce4bh092rcd13ifvqd20","pricing_plan_id":"cebpf4jnsgd1na2vs0mg"},{"bike_id":"83040dcd-2d07-4034-8157-5929ecaaed5b","system_id":"levelo_inurba_marseille","lat":43.292644,"lon":5.384257,"is_reserved":false,"is_disabled":false,"rental_uris":{"android":"levelo://app?vid=83040dcd-2d07-4034-8157-5929ecaaed5b","ios":"levelo://app?vid=83040dcd-2d07-4034-8157-5929ecaaed5b"},"vehicle_type_id":"4","last_reported":1723140721,"current_range_meters":0,"station_id":"ce4bh692rcd13ifvqea0","pricing_plan_id":"cebpf4jnsgd1na2vs0mg"},{"bike_id":"8ba5245b-1a5c-4bf7-ac57-f01a1be361e9","system_id":"levelo_inurba_marseille","lat":43.304296,"lon":5.397513,"is_reserved":false,"is_disabled":false,"rental_uris":{"android":"levelo://app?vid=8ba5245b-1a5c-4bf7-ac57-f01a1be361e9","ios":"levelo://app?vid=8ba5245b-1a5c-4bf7-ac57-f01a1be361e9"},"vehicle_type_id":"4","last_reported":1723140721,"current_range_meters":11200,"station_id":"ce4bh092rcd13ifvqd20","pricing_plan_id":"cebpf4jnsgd1na2vs0mg"},{"bike_id":"39092d36-267a-48b3-b519-ce98d9b5f482","system_id":"levelo_inurba_marseille","lat":43.292642,"lon":5.384254,"is_reserved":false,"is_disabled":false,"rental_uris":{"android":"levelo://app?vid=39092d36-267a-48b3-b519-ce98d9b5f482","ios":"levelo://app?vid=39092d36-267a-48b3-b519-ce98d9b5f482"},"vehicle_type_id":"4","last_reported":1723140721,"current_range_meters":6000,"station_id":"ce4bh692rcd13ifvqea0","pricing_plan_id":"cebpf4jnsgd1na2vs0mg"},{"bike_id":"ea33d703-096b-401d-8ec4-fb95399a8b59","system_id":"levelo_inurba_marseille","lat":43.292642,"lon":5.384254,"is_reserved":false,"is_disabled":false,"rental_uris":{"android":"levelo://app?vid=ea33d703-096b-401d-8ec4-fb95399a8b59","ios":"levelo://app?vid=ea33d703-096b-401d-8ec4-fb95399a8b59"},"vehicle_type_id":"4","last_reported":1723140721,"current_range_meters":0,"station_id":"ce4bh692rcd13ifvqea0","pricing_plan_id":"cebpf4jnsgd1na2vs0mg"},{"bike_id":"b410c33a-cbc5-4b96-a54f-5fce16170ca7","system_id":"levelo_inurba_marseille","lat":43.29262,"lon":5.38438,"is_reserved":false,"is_disabled":false,"rental_uris":{"android":"levelo://app?vid=b410c33a-cbc5-4b96-a54f-5fce16170ca7","ios":"levelo://app?vid=b410c33a-cbc5-4b96-a54f-5fce16170ca7"},"vehicle_type_id":"4","last_reported":1723140721,"current_range_meters":0,"station_id":"ce4bh692rcd13ifvqea0","pricing_plan_id":"cebpf4jnsgd1na2vs0mg"},{"bike_id":"4d73c8dc-bc9d-49ea-8cbc-2ab525ae9e7c","system_id":"levelo_inurba_marseille","lat":43.292644,"lon":5.384257,"is_reserved":false,"is_disabled":false,"rental_uris":{"android":"levelo://app?vid=4d73c8dc-bc9d-49ea-8cbc-2ab525ae9e7c","ios":"levelo://app?vid=4d73c8dc-bc9d-49ea-8cbc-2ab525ae9e7c"},"vehicle_type_id":"4","last_reported":1723140721,"current_range_meters":0,"station_id":"ce4bh692rcd13ifvqea0","pricing_plan_id":"cebpf4jnsgd1na2vs0mg"},{"bike_id":"3e112260-dbc1-4c1a-90dd-419956520aaa","system_id":"levelo_inurba_marseille","lat":43.29262,"lon":5.38442,"is_reserved":false,"is_disabled":false,"rental_uris":{"android":"levelo://app?vid=3e112260-dbc1-4c1a-90dd-419956520aaa","ios":"levelo://app?vid=3e112260-dbc1-4c1a-90dd-419956520aaa"},"vehicle_type_id":"4","last_reported":1723140721,"current_range_meters":0,"station_id":"ce4bh692rcd13ifvqea0","pricing_plan_id":"cebpf4jnsgd1na2vs0mg"},{"bike_id":"8cbcb01c-b162-4392-8bba-c93aa229e479","system_id":"levelo_inurba_marseille","lat":43.29262,"lon":5.38448,"is_reserved":false,"is_disabled":false,"rental_uris":{"android":"levelo://app?vid=8cbcb01c-b162-4392-8bba-c93aa229e479","ios":"levelo://app?vid=8cbcb01c-b162-4392-8bba-c93aa229e479"},"vehicle_type_id":"4","last_reported":1723140721,"current_range_meters":0,"station_id":"ce4bh692rcd13ifvqea0","pricing_plan_id":"cebpf4jnsgd1na2vs0mg"},{"bike_id":"61900e8a-2e6b-4630-8f88-9095afa0c048","system_id":"levelo_inurba_marseille","lat":43.303081,"lon":5.396925,"is_reserved":false,"is_disabled":false,"rental_uris":{"android":"levelo://app?vid=61900e8a-2e6b-4630-8f88-9095afa0c048","ios":"levelo://app?vid=61900e8a-2e6b-4630-8f88-9095afa0c048"},"vehicle_type_id":"4","last_reported":1723140721,"current_range_meters":16000,"station_id":"","pricing_plan_id":"cebpf4jnsgd1na2vs0mg"},{"bike_id":"cb79d4b2-cf6c-47d0-b7f8-a8c5e626ea69","system_id":"levelo_inurba_marseille","lat":43.29005,"lon":5.35612,"is_reserved":false,"is_disabled":false,"rental_uris":{"android":"levelo://app?vid=cb79d4b2-cf6c-47d0-b7f8-a8c5e626ea69","ios":"levelo://app?vid=cb79d4b2-cf6c-47d0-b7f8-a8c5e626ea69"},"vehicle_type_id":"4","last_reported":1723140721,"current_range_meters":0,"station_id":"ce4bhb92rcd13ifvqen0","pricing_plan_id":"cebpf4jnsgd1na2vs0mg"},{"bike_id":"010664d4-6dfa-4c28-997e-8ba83cc91a59","system_id":"levelo_inurba_marseille","lat":43.29003,"lon":5.35611,"is_reserved":false,"is_disabled":false,"rental_uris":{"android":"levelo://app?vid=010664d4-6dfa-4c28-997e-8ba83cc91a59","ios":"levelo://app?vid=010664d4-6dfa-4c28-997e-8ba83cc91a59"},"vehicle_type_id":"4","last_reported":1723140721,"current_range_meters":0,"station_id":"ce4bhb92rcd13ifvqen0","pricing_plan_id":"cebpf4jnsgd1na2vs0mg"},{"bike_id":"3e876cbb-f945-4fc8-9f95-da6e930da6ee","system_id":"levelo_inurba_marseille","lat":43.289992,"lon":5.356184,"is_reserved":false,"is_disabled":false,"rental_uris":{"android":"levelo://app?vid=3e876cbb-f945-4fc8-9f95-da6e930da6ee","ios":"levelo://app?vid=3e876cbb-f945-4fc8-9f95-da6e930da6ee"},"vehicle_type_id":"4","last_reported":1723140721,"current_range_meters":0,"station_id":"ce4bhb92rcd13ifvqen0","pricing_plan_id":"cebpf4jnsgd1na2vs0mg"},{"bike_id":"f4c21561-c527-478c-82a5-53b3bd507b7c","system_id":"levelo_inurba_marseille","lat":43.290103,"lon":5.356114,"is_reserved":false,"is_disabled":false,"rental_uris":{"android":"levelo://app?vid=f4c21561-c527-478c-82a5-53b3bd507b7c","ios":"levelo://app?vid=f4c21561-c527-478c-82a5-53b3bd507b7c"},"vehicle_type_id":"4","last_reported":1723140721,"current_range_meters":29200,"station_id":"ce4bhb92rcd13ifvqen0","pricing_plan_id":"cebpf4jnsgd1na2vs0mg"},{"bike_id":"411c4664-a6e3-4104-b600-44295957c0e0","system_id":"levelo_inurba_marseille","lat":43.295169,"lon":5.390426,"is_reserved":false,"is_disabled":false,"rental_uris":{"android":"levelo://app?vid=411c4664-a6e3-4104-b600-44295957c0e0","ios":"levelo://app?vid=411c4664-a6e3-4104-b600-44295957c0e0"},"vehicle_type_id":"4","last_reported":1723140721,"current_range_meters":4400,"station_id":"ce4bh3p2rcd13ifvqdp0","pricing_plan_id":"cebpf4jnsgd1na2vs0mg"},{"bike_id":"87f00e2a-667a-47eb-9a89-47e9dfc36fea","system_id":"levelo_inurba_marseille","lat":43.297807,"lon":5.393533,"is_reserved":false,"is_disabled":false,"rental_uris":{"android":"levelo://app?vid=87f00e2a-667a-47eb-9a89-47e9dfc36fea","ios":"levelo://app?vid=87f00e2a-667a-47eb-9a89-47e9dfc36fea"},"vehicle_type_id":"4","last_reported":1723140721,"current_range_meters":0,"station_id":"chh1huq6cuj3fo74tm60","pricing_plan_id":"cebpf4jnsgd1na2vs0mg"},{"bike_id":"bedc7729-f961-4dea-84a0-65b4484564f0","system_id":"levelo_inurba_marseille","lat":43.289741,"lon":5.378306,"is_reserved":false,"is_disabled":false,"rental_uris":{"android":"levelo://app?vid=bedc7729-f961-4dea-84a0-65b4484564f0","ios":"levelo://app?vid=bedc7729-f961-4dea-84a0-65b4484564f0"},"vehicle_type_id":"4","last_reported":1723140721,"current_range_meters":11200,"station_id":"ce4bh9p2rcd13ifvqed0","pricing_plan_id":"cebpf4jnsgd1na2vs0mg"},{"bike_id":"8043144a-74cf-4f54-8f73-4618fe4b26ec","system_id":"levelo_inurba_marseille","lat":43.295169,"lon":5.390426,"is_reserved":false,"is_disabled":false,"rental_uris":{"android":"levelo://app?vid=8043144a-74cf-4f54-8f73-4618fe4b26ec","ios":"levelo://app?vid=8043144a-74cf-4f54-8f73-4618fe4b26ec"},"vehicle_type_id":"4","last_reported":1723140721,"current_range_meters":1600,"station_id":"ce4bh3p2rcd13ifvqdp0","pricing_plan_id":"cebpf4jnsgd1na2vs0mg"},{"bike_id":"808ce564-38cc-4f34-a39c-6f22a542299b","system_id":"levelo_inurba_marseille","lat":43.295169,"lon":5.390426,"is_reserved":false,"is_disabled":false,"rental_uris":{"android":"levelo://app?vid=808ce564-38cc-4f34-a39c-6f22a542299b","ios":"levelo://app?vid=808ce564-38cc-4f34-a39c-6f22a542299b"},"vehicle_type_id":"4","last_reported":1723140721,"current_range_meters":0,"station_id":"ce4bh3p2rcd13ifvqdp0","pricing_plan_id":"cebpf4jnsgd1na2vs0mg"},{"bike_id":"dd7740dc-6062-4612-9f00-7556b45256ce","system_id":"levelo_inurba_marseille","lat":43.289741,"lon":5.378306,"is_reserved":false,"is_disabled":false,"rental_uris":{"android":"levelo://app?vid=dd7740dc-6062-4612-9f00-7556b45256ce","ios":"levelo://app?vid=dd7740dc-6062-4612-9f00-7556b45256ce"},"vehicle_type_id":"4","last_reported":1723140721,"current_range_meters":1200,"station_id":"ce4bh9p2rcd13ifvqed0","pricing_plan_id":"cebpf4jnsgd1na2vs0mg"},{"bike_id":"24ba487e-3040-42e5-b774-f0e50b2708ea","system_id":"levelo_inurba_marseille","lat":43.295169,"lon":5.390426,"is_reserved":false,"is_disabled":false,"rental_uris":{"android":"levelo://app?vid=24ba487e-3040-42e5-b774-f0e50b2708ea","ios":"levelo://app?vid=24ba487e-3040-42e5-b774-f0e50b2708ea"},"vehicle_type_id":"4","last_reported":1723140721,"current_range_meters":0,"station_id":"ce4bh3p2rcd13ifvqdp0","pricing_plan_id":"cebpf4jnsgd1na2vs0mg"},{"bike_id":"93a02adf-77ab-4304-8310-532a7e2c747b","system_id":"levelo_inurba_marseille","lat":43.288175,"lon":5.36869,"is_reserved":false,"is_disabled":false,"rental_uris":{"android":"levelo://app?vid=93a02adf-77ab-4304-8310-532a7e2c747b","ios":"levelo://app?vid=93a02adf-77ab-4304-8310-532a7e2c747b"},"vehicle_type_id":"4","last_reported":1723140721,"current_range_meters":4800,"station_id":"","pricing_plan_id":"cebpf4jnsgd1na2vs0mg"},{"bike_id":"b82d858a-91a0-49bf-a6fc-8ae898ab18fa","system_id":"levelo_inurba_marseille","lat":43.312609,"lon":5.401662,"is_reserved":false,"is_disabled":false,"rental_uris":{"android":"levelo://app?vid=b82d858a-91a0-49bf-a6fc-8ae898ab18fa","ios":"levelo://app?vid=b82d858a-91a0-49bf-a6fc-8ae898ab18fa"},"vehicle_type_id":"4","last_reported":1723140721,"current_range_meters":30000,"station_id":"ce4bh092rcd13ifvqd30","pricing_plan_id":"cebpf4jnsgd1na2vs0mg"},{"bike_id":"ac75d8e5-5139-4e43-a64e-51e7994c2517","system_id":"levelo_inurba_marseille","lat":43.337444,"lon":5.374475,"is_reserved":false,"is_disabled":false,"rental_uris":{"android":"levelo://app?vid=ac75d8e5-5139-4e43-a64e-51e7994c2517","ios":"levelo://app?vid=ac75d8e5-5139-4e43-a64e-51e7994c2517"},"vehicle_type_id":"3","last_reported":1723140721,"current_range_meters":24800,"station_id":"","pricing_plan_id":"cebpf4jnsgd1na2vs0mg"},{"bike_id":"bec4afbe-95a7-41eb-ac05-bea1b31e190f","system_id":"levelo_inurba_marseille","lat":43.312609,"lon":5.401662,"is_reserved":false,"is_disabled":false,"rental_uris":{"android":"levelo://app?vid=bec4afbe-95a7-41eb-ac05-bea1b31e190f","ios":"levelo://app?vid=bec4afbe-95a7-41eb-ac05-bea1b31e190f"},"vehicle_type_id":"4","last_reported":1723140721,"current_range_meters":28000,"station_id":"ce4bh092rcd13ifvqd30","pricing_plan_id":"cebpf4jnsgd1na2vs0mg"},{"bike_id":"a19fc4d1-a8d4-4a25-ba30-1024adff987e","system_id":"levelo_inurba_marseille","lat":43.309371,"lon":5.401449,"is_reserved":false,"is_disabled":false,"rental_uris":{"android":"levelo://app?vid=a19fc4d1-a8d4-4a25-ba30-1024adff987e","ios":"levelo://app?vid=a19fc4d1-a8d4-4a25-ba30-1024adff987e"},"vehicle_type_id":"4","last_reported":1723140721,"current_range_meters":6000,"station_id":"ce4bgvp2rcd13ifvqct0","pricing_plan_id":"cebpf4jnsgd1na2vs0mg"},{"bike_id":"b8bf08f3-42e0-410b-ac50-5e1faeba676a","system_id":"levelo_inurba_marseille","lat":43.309371,"lon":5.401449,"is_reserved":false,"is_disabled":false,"rental_uris":{"android":"levelo://app?vid=b8bf08f3-42e0-410b-ac50-5e1faeba676a","ios":"levelo://app?vid=b8bf08f3-42e0-410b-ac50-5e1faeba676a"},"vehicle_type_id":"4","last_reported":1723140721,"current_range_meters":0,"station_id":"ce4bgvp2rcd13ifvqct0","pricing_plan_id":"cebpf4jnsgd1na2vs0mg"},{"bike_id":"93ff9523-7b36-46ad-8995-c353884a328e","system_id":"levelo_inurba_marseille","lat":43.287872,"lon":5.373743,"is_reserved":false,"is_disabled":false,"rental_uris":{"android":"levelo://app?vid=93ff9523-7b36-46ad-8995-c353884a328e","ios":"levelo://app?vid=93ff9523-7b36-46ad-8995-c353884a328e"},"vehicle_type_id":"4","last_reported":1723140721,"current_range_meters":19200,"station_id":"","pricing_plan_id":"cebpf4jnsgd1na2vs0mg"},{"bike_id":"61cad04a-e614-4bd0-acb6-5177bc6a03d9","system_id":"levelo_inurba_marseille","lat":43.330442,"lon":5.389148,"is_reserved":false,"is_disabled":false,"rental_uris":{"android":"levelo://app?vid=61cad04a-e614-4bd0-acb6-5177bc6a03d9","ios":"levelo://app?vid=61cad04a-e614-4bd0-acb6-5177bc6a03d9"},"vehicle_type_id":"4","last_reported":1723140721,"current_range_meters":2000,"station_id":"ce4bhr92rcd13ifvqhrg","pricing_plan_id":"cebpf4jnsgd1na2vs0mg"},{"bike_id":"d3e65d35-adf5-4e30-8b5e-d889132ece20","system_id":"levelo_inurba_marseille","lat":43.33754,"lon":5.3748,"is_reserved":false,"is_disabled":false,"rental_uris":{"android":"levelo://app?vid=d3e65d35-adf5-4e30-8b5e-d889132ece20","ios":"levelo://app?vid=d3e65d35-adf5-4e30-8b5e-d889132ece20"},"vehicle_type_id":"4","last_reported":1723140721,"current_range_meters":30400,"station_id":"","pricing_plan_id":"cebpf4jnsgd1na2vs0mg"},{"bike_id":"cd6162af-7565-4540-90e1-58d1eecfa36b","system_id":"levelo_inurba_marseille","lat":43.33757,"lon":5.37492,"is_reserved":false,"is_disabled":false,"rental_uris":{"android":"levelo://app?vid=cd6162af-7565-4540-90e1-58d1eecfa36b","ios":"levelo://app?vid=cd6162af-7565-4540-90e1-58d1eecfa36b"},"vehicle_type_id":"4","last_reported":1723140721,"current_range_meters":30400,"station_id":"","pricing_plan_id":"cebpf4jnsgd1na2vs0mg"},{"bike_id":"b003bb82-a03d-4216-b2c4-683f95ee176d","system_id":"levelo_inurba_marseille","lat":43.33761,"lon":5.37475,"is_reserved":false,"is_disabled":false,"rental_uris":{"android":"levelo://app?vid=b003bb82-a03d-4216-b2c4-683f95ee176d","ios":"levelo://app?vid=b003bb82-a03d-4216-b2c4-683f95ee176d"},"vehicle_type_id":"4","last_reported":1723140721,"current_range_meters":29600,"station_id":"","pricing_plan_id":"cebpf4jnsgd1na2vs0mg"},{"bike_id":"e87dc3df-5742-41c8-b141-4c5ffc4bf888","system_id":"levelo_inurba_marseille","lat":43.306412,"lon":5.401035,"is_reserved":false,"is_disabled":false,"rental_uris":{"android":"levelo://app?vid=e87dc3df-5742-41c8-b141-4c5ffc4bf888","ios":"levelo://app?vid=e87dc3df-5742-41c8-b141-4c5ffc4bf888"},"vehicle_type_id":"4","last_reported":1723140721,"current_range_meters":26800,"station_id":"ce4bh112rcd13ifvqda0","pricing_plan_id":"cebpf4jnsgd1na2vs0mg"},{"bike_id":"8f75088e-778c-4ab5-9e67-488e993aaacf","system_id":"levelo_inurba_marseille","lat":43.33773,"lon":5.37478,"is_reserved":false,"is_disabled":false,"rental_uris":{"android":"levelo://app?vid=8f75088e-778c-4ab5-9e67-488e993aaacf","ios":"levelo://app?vid=8f75088e-778c-4ab5-9e67-488e993aaacf"},"vehicle_type_id":"4","last_reported":1723140721,"current_range_meters":29600,"station_id":"","pricing_plan_id":"cebpf4jnsgd1na2vs0mg"},{"bike_id":"22ccd74a-5acf-4ca8-afba-22b1cd3f26e1","system_id":"levelo_inurba_marseille","lat":43.286961,"lon":5.373785,"is_reserved":false,"is_disabled":false,"rental_uris":{"android":"levelo://app?vid=22ccd74a-5acf-4ca8-afba-22b1cd3f26e1","ios":"levelo://app?vid=22ccd74a-5acf-4ca8-afba-22b1cd3f26e1"},"vehicle_type_id":"4","last_reported":1723140721,"current_range_meters":0,"station_id":"ce4bh3p2rcd13ifvqdq0","pricing_plan_id":"cebpf4jnsgd1na2vs0mg"},{"bike_id":"c344865f-e451-4922-a4e1-43eaf4329bb4","system_id":"levelo_inurba_marseille","lat":43.286961,"lon":5.373785,"is_reserved":false,"is_disabled":false,"rental_uris":{"android":"levelo://app?vid=c344865f-e451-4922-a4e1-43eaf4329bb4","ios":"levelo://app?vid=c344865f-e451-4922-a4e1-43eaf4329bb4"},"vehicle_type_id":"4","last_reported":1723140721,"current_range_meters":1200,"station_id":"ce4bh3p2rcd13ifvqdq0","pricing_plan_id":"cebpf4jnsgd1na2vs0mg"},{"bike_id":"a008f479-5a3f-488b-82d2-e897da28ab4c","system_id":"levelo_inurba_marseille","lat":43.286593,"lon":5.363346,"is_reserved":false,"is_disabled":false,"rental_uris":{"android":"levelo://app?vid=a008f479-5a3f-488b-82d2-e897da28ab4c","ios":"levelo://app?vid=a008f479-5a3f-488b-82d2-e897da28ab4c"},"vehicle_type_id":"4","last_reported":1723140721,"current_range_meters":12000,"station_id":"ce4bhah2rcd13ifvqej0","pricing_plan_id":"cebpf4jnsgd1na2vs0mg"},{"bike_id":"d7354a97-e0f8-4da9-8332-a6c200797c9b","system_id":"levelo_inurba_marseille","lat":43.286961,"lon":5.373785,"is_reserved":false,"is_disabled":false,"rental_uris":{"android":"levelo://app?vid=d7354a97-e0f8-4da9-8332-a6c200797c9b","ios":"levelo://app?vid=d7354a97-e0f8-4da9-8332-a6c200797c9b"},"vehicle_type_id":"4","last_reported":1723140721,"current_range_meters":0,"station_id":"ce4bh3p2rcd13ifvqdq0","pricing_plan_id":"cebpf4jnsgd1na2vs0mg"},{"bike_id":"e41766f3-7c27-4b28-ab7e-ccde82fc3049","system_id":"levelo_inurba_marseille","lat":43.302759,"lon":5.400793,"is_reserved":false,"is_disabled":false,"rental_uris":{"android":"levelo://app?vid=e41766f3-7c27-4b28-ab7e-ccde82fc3049","ios":"levelo://app?vid=e41766f3-7c27-4b28-ab7e-ccde82fc3049"},"vehicle_type_id":"4","last_reported":1723140721,"current_range_meters":0,"station_id":"ce4bgvh2rcd13ifvqcs0","pricing_plan_id":"cebpf4jnsgd1na2vs0mg"},{"bike_id":"07874cc8-f49d-4207-8181-fb41f27cd7f1","system_id":"levelo_inurba_marseille","lat":43.302759,"lon":5.400793,"is_reserved":false,"is_disabled":false,"rental_uris":{"android":"levelo://app?vid=07874cc8-f49d-4207-8181-fb41f27cd7f1","ios":"levelo://app?vid=07874cc8-f49d-4207-8181-fb41f27cd7f1"},"vehicle_type_id":"4","last_reported":1723140721,"current_range_meters":1600,"station_id":"ce4bgvh2rcd13ifvqcs0","pricing_plan_id":"cebpf4jnsgd1na2vs0mg"},{"bike_id":"67ab024e-d3bd-4f4a-95e8-fdd0cfac1169","system_id":"levelo_inurba_marseille","lat":43.290336,"lon":5.386425,"is_reserved":false,"is_disabled":false,"rental_uris":{"android":"levelo://app?vid=67ab024e-d3bd-4f4a-95e8-fdd0cfac1169","ios":"levelo://app?vid=67ab024e-d3bd-4f4a-95e8-fdd0cfac1169"},"vehicle_type_id":"4","last_reported":1723140721,"current_range_meters":1200,"station_id":"ce4bh4p2rcd13ifvqe0g","pricing_plan_id":"cebpf4jnsgd1na2vs0mg"},{"bike_id":"88835428-d6e5-44d0-928f-777224fb3131","system_id":"levelo_inurba_marseille","lat":43.290336,"lon":5.386425,"is_reserved":false,"is_disabled":false,"rental_uris":{"android":"levelo://app?vid=88835428-d6e5-44d0-928f-777224fb3131","ios":"levelo://app?vid=88835428-d6e5-44d0-928f-777224fb3131"},"vehicle_type_id":"4","last_reported":1723140721,"current_range_meters":0,"station_id":"ce4bh4p2rcd13ifvqe0g","pricing_plan_id":"cebpf4jnsgd1na2vs0mg"},{"bike_id":"c8c3d87c-1200-4b49-9270-21b51c7d2e42","system_id":"levelo_inurba_marseille","lat":43.290336,"lon":5.386425,"is_reserved":false,"is_disabled":false,"rental_uris":{"android":"levelo://app?vid=c8c3d87c-1200-4b49-9270-21b51c7d2e42","ios":"levelo://app?vid=c8c3d87c-1200-4b49-9270-21b51c7d2e42"},"vehicle_type_id":"4","last_reported":1723140721,"current_range_meters":16800,"station_id":"ce4bh4p2rcd13ifvqe0g","pricing_plan_id":"cebpf4jnsgd1na2vs0mg"},{"bike_id":"81fbadb7-7706-4c91-a2d0-2d6b485a3e43","system_id":"levelo_inurba_marseille","lat":43.31314,"lon":5.40364,"is_reserved":false,"is_disabled":false,"rental_uris":{"android":"levelo://app?vid=81fbadb7-7706-4c91-a2d0-2d6b485a3e43","ios":"levelo://app?vid=81fbadb7-7706-4c91-a2d0-2d6b485a3e43"},"vehicle_type_id":"4","last_reported":1723140721,"current_range_meters":12000,"station_id":"","pricing_plan_id":"cebpf4jnsgd1na2vs0mg"},{"bike_id":"db62d5aa-67db-4839-9246-d0366ba91f5d","system_id":"levelo_inurba_marseille","lat":43.2861,"lon":5.37067,"is_reserved":false,"is_disabled":false,"rental_uris":{"android":"levelo://app?vid=db62d5aa-67db-4839-9246-d0366ba91f5d","ios":"levelo://app?vid=db62d5aa-67db-4839-9246-d0366ba91f5d"},"vehicle_type_id":"4","last_reported":1723140721,"current_range_meters":0,"station_id":"ce4bht12rcd13ifvqi60","pricing_plan_id":"cebpf4jnsgd1na2vs0mg"},{"bike_id":"2607a916-e644-4336-9e2e-bc676b293f08","system_id":"levelo_inurba_marseille","lat":43.286092,"lon":5.370603,"is_reserved":false,"is_disabled":false,"rental_uris":{"android":"levelo://app?vid=2607a916-e644-4336-9e2e-bc676b293f08","ios":"levelo://app?vid=2607a916-e644-4336-9e2e-bc676b293f08"},"vehicle_type_id":"4","last_reported":1723140721,"current_range_meters":13200,"station_id":"","pricing_plan_id":"cebpf4jnsgd1na2vs0mg"},{"bike_id":"e03dcdd2-843f-4411-9809-718b35b2fba9","system_id":"levelo_inurba_marseille","lat":43.2881,"lon":5.35249,"is_reserved":false,"is_disabled":false,"rental_uris":{"android":"levelo://app?vid=e03dcdd2-843f-4411-9809-718b35b2fba9","ios":"levelo://app?vid=e03dcdd2-843f-4411-9809-718b35b2fba9"},"vehicle_type_id":"4","last_reported":1723140721,"current_range_meters":0,"station_id":"","pricing_plan_id":"cebpf4jnsgd1na2vs0mg"},{"bike_id":"7d503f13-fdc1-4a73-be83-699e951ae841","system_id":"levelo_inurba_marseille","lat":43.286039,"lon":5.370679,"is_reserved":false,"is_disabled":false,"rental_uris":{"android":"levelo://app?vid=7d503f13-fdc1-4a73-be83-699e951ae841","ios":"levelo://app?vid=7d503f13-fdc1-4a73-be83-699e951ae841"},"vehicle_type_id":"4","last_reported":1723140721,"current_range_meters":26400,"station_id":"ce4bht12rcd13ifvqi60","pricing_plan_id":"cebpf4jnsgd1na2vs0mg"},{"bike_id":"53ddbbd4-be0a-4964-a956-14981ed484e2","system_id":"levelo_inurba_marseille","lat":43.287184,"lon":5.37937,"is_reserved":false,"is_disabled":false,"rental_uris":{"android":"levelo://app?vid=53ddbbd4-be0a-4964-a956-14981ed484e2","ios":"levelo://app?vid=53ddbbd4-be0a-4964-a956-14981ed484e2"},"vehicle_type_id":"4","last_reported":1723140721,"current_range_meters":0,"station_id":"ce4bh9p2rcd13ifvqec0","pricing_plan_id":"cebpf4jnsgd1na2vs0mg"},{"bike_id":"baaf6b74-6710-4dde-bfee-f24c380894e1","system_id":"levelo_inurba_marseille","lat":43.29194,"lon":5.393259,"is_reserved":false,"is_disabled":false,"rental_uris":{"android":"levelo://app?vid=baaf6b74-6710-4dde-bfee-f24c380894e1","ios":"levelo://app?vid=baaf6b74-6710-4dde-bfee-f24c380894e1"},"vehicle_type_id":"4","last_reported":1723140721,"current_range_meters":10000,"station_id":"","pricing_plan_id":"cebpf4jnsgd1na2vs0mg"},