{"last_updated":1743620888,"ttl":60,"version":"2.2","data":{"bikes":[{"bike_id":"eeb36584-0db9-40d9-8617-1b50199a5012","system_id":"levelo_inurba_marseille","lat":43.28849,"lon":5.35865,"is_reserved":false,"is_disabled":false,"rental_uris":{"android":"levelo://app?vid=eeb36584-0db9-40d9-8617-1b50199a5012","ios":"levelo://app?vid=eeb36584-0db9-40d9-8617-1b50199a5012"},"vehicle_type_id":"4","last_reported":1743620889,"current_range_meters":2800,"station_id":"ce4bhb12rcd13ifvqem0","pricing_plan_id":"cebpf4jnsgd1na2vs0mg"},{"bike_id":"5e6c3a84-834c-4d83-a2d3-580b827057a1","system_id":"levelo_inurba_marseille","lat":43.23183,"lon":5.43705,"is_reserved":false,"is_disabled":false,"rental_uris":{"android":"levelo://app?vid=5e6c3a84-834c-4d83-a2d3-580b827057a1","ios":"levelo://app?vid=5e6c3a84-834c-4d83-a2d3-580b827057a1"},"vehicle_type_id":"4","last_reported":1743620889,"current_range_meters":2800,"station_id":"ce4bhmp2rcd13ifvqgog","pricing_plan_id":"cebpf4jnsgd1na2vs0mg"},{"bike_id":"767ac561-efa4-40e7-8c1f-2af7b5f95694","system_id":"levelo_inurba_marseille","lat":43.26817,"lon":5.40257,"is_reserved":false,"is_disabled":true,"rental_uris":{"android":"levelo://app?vid=767ac561-efa4-40e7-8c1f-2af7b5f95694","ios":"levelo://app?vid=767ac561-efa4-40e7-8c1f-2af7b5f95694"},"vehicle_type_id":"4","last_reported":1743620889,"current_range_meters":3200,"station_id":"ce501612rcd8frsf0b60","pricing_plan_id":"cebpf4jnsgd1na2vs0mg"},{"bike_id":"61ab1494-064a-436a-a0f6-a7713a1d34d4","system_id":"levelo_inurba_marseille","lat":43.28849,"lon":5.35856,"is_reserved":false,"is_disabled":false,"rental_uris":{"android":"levelo://app?vid=61ab1494-064a-436a-a0f6-a7713a1d34d4","ios":"levelo://app?vid=61ab1494-064a-436a-a0f6-a7713a1d34d4"},"vehicle_type_id":"4","last_reported":1743620889,"current_range_meters":3200,"station_id":"ce4bhb12rcd13ifvqem0","pricing_plan_id":"cebpf4jnsgd1na2vs0mg"},{"bike_id":"dc2940d2-8bbf-4af3-a3bf-14408b28fcdf","system_id":"levelo_inurba_marseille","lat":43.26565,"lon":5.39043,"is_reserved":false,"is_disabled":true,"rental_uris":{"android":"levelo://app?vid=dc2940d2-8bbf-4af3-a3bf-14408b28fcdf","ios":"levelo://app?vid=dc2940d2-8bbf-4af3-a3bf-14408b28fcdf"},"vehicle_type_id":"4","last_reported":1743620889,"current_range_meters":3200,"station_id":"ce4bhe12rcd13ifvqf30","pricing_plan_id":"cebpf4jnsgd1na2vs0mg"},{"bike_id":"eb92ea1d-0170-4a95-8e1e-5596e81b6fe7","system_id":"levelo_inurba_marseille","lat":43.296261,"lon":5.377319,"is_reserved":false,"is_disabled":false,"rental_uris":{"android":"levelo://app?vid=eb92ea1d-0170-4a95-8e1e-5596e81b6fe7","ios":"levelo://app?vid=eb92ea1d-0170-4a95-8e1e-5596e81b6fe7"},"vehicle_type_id":"4","last_reported":1743620889,"current_range_meters":6400,"station_id":"ce4bh9p2rcd13ifvqed0","pricing_plan_id":"cebpf4jnsgd1na2vs0mg"},{"bike_id":"48d4cf57-3802-4e82-866f-6c55e8ebfd77","system_id":"levelo_inurba_marseille","lat":43.2794,"lon":5.41046,"is_reserved":false,"is_disabled":false,"rental_uris":{"android":"levelo://app?vid=48d4cf57-3802-4e82-866f-6c55e8ebfd77","ios":"levelo://app?vid=48d4cf57-3802-4e82-866f-6c55e8ebfd77"},"vehicle_type_id":"4","last_reported":1743620889,"current_range_meters":3200,"station_id":"ce4bhnp2rcd13ifvqh0g","pricing_plan_id":"cebpf4jnsgd1na2vs0mg"},{"bike_id":"bc1afbe5-9e19-4923-a7a9-d53ae917712f","system_id":"levelo_inurba_marseille","lat":43.27325,"lon":5.39075,"is_reserved":false,"is_disabled":false,"rental_uris":{"android":"levelo://app?vid=bc1afbe5-9e19-4923-a7a9-d53ae917712f","ios":"levelo://app?vid=bc1afbe5-9e19-4923-a7a9-d53ae917712f"},"vehicle_type_id":"4","last_reported":1743620889,"current_range_meters":3200,"station_id":"ce4bhgp2rcd13ifvqfe0","pricing_plan_id":"cebpf4jnsgd1na2vs0mg"},{"bike_id":"d38f73d8-ae84-48e7-853b-3e3eec47f225","system_id":"levelo_inurba_marseille","lat":43.31073,"lon":5.38354,"is_reserved":false,"is_disabled":false,"rental_uris":{"android":"levelo://app?vid=d38f73d8-ae84-48e7-853b-3e3eec47f225","ios":"levelo://app?vid=d38f73d8-ae84-48e7-853b-3e3eec47f225"},"vehicle_type_id":"4","last_reported":1743620889,"current_range_meters":3200,"station_id":"ce4bgv92rcd13ifvqcr0","pricing_plan_id":"cebpf4jnsgd1na2vs0mg"},{"bike_id":"26a6be4e-9c71-4305-8866-c10aa7a9595b","system_id":"levelo_inurba_marseille","lat":43.26775,"lon":5.38342,"is_reserved":false,"is_disabled":false,"rental_uris":{"android":"levelo://app?vid=26a6be4e-9c71-4305-8866-c10aa7a9595b","ios":"levelo://app?vid=26a6be4e-9c71-4305-8866-c10aa7a9595b"},"vehicle_type_id":"4","last_reported":1743620889,"current_range_meters":3200,"station_id":"","pricing_plan_id":"cebpf4jnsgd1na2vs0mg"},{"bike_id":"4bad1a14-420d-4d9f-b272-858e63170ab9","system_id":"levelo_inurba_marseille","lat":43.26208,"lon":5.37445,"is_reserved":false,"is_disabled":true,"rental_uris":{"android":"levelo://app?vid=4bad1a14-420d-4d9f-b272-858e63170ab9","ios":"levelo://app?vid=4bad1a14-420d-4d9f-b272-858e63170ab9"},"vehicle_type_id":"4","last_reported":1743620889,"current_range_meters":4000,"station_id":"ce4bhgp2rcd13ifvqfc0","pricing_plan_id":"cebpf4jnsgd1na2vs0mg"},{"bike_id":"d10bd936-2fca-4607-82d0-6e154162cbfd","system_id":"levelo_inurba_marseille","lat":43.30889,"lon":5.3965,"is_reserved":false,"is_disabled":true,"rental_uris":{"android":"levelo://app?vid=d10bd936-2fca-4607-82d0-6e154162cbfd","ios":"levelo://app?vid=d10bd936-2fca-4607-82d0-6e154162cbfd"},"vehicle_type_id":"4","last_reported":1743620889,"current_range_meters":3600,"station_id":"ce4bh012rcd13ifvqcv0","pricing_plan_id":"cebpf4jnsgd1na2vs0mg"},{"bike_id":"cfe6d173-476a-4db5-94f2-713dde6981df","system_id":"levelo_inurba_marseille","lat":43.31543,"lon":5.38057,"is_reserved":false,"is_disabled":false,"rental_uris":{"android":"levelo://app?vid=cfe6d173-476a-4db5-94f2-713dde6981df","ios":"levelo://app?vid=cfe6d173-476a-4db5-94f2-713dde6981df"},"vehicle_type_id":"4","last_reported":1743620889,"current_range_meters":3600,"station_id":"ce4bhsp2rcd13ifvqi50","pricing_plan_id":"cebpf4jnsgd1na2vs0mg"},{"bike_id":"f8662329-afd9-4755-8041-aad6a519cd58","system_id":"levelo_inurba_marseille","lat":43.29531,"lon":5.39404,"is_reserved":false,"is_disabled":false,"rental_uris":{"android":"levelo://app?vid=f8662329-afd9-4755-8041-aad6a519cd58","ios":"levelo://app?vid=f8662329-afd9-4755-8041-aad6a519cd58"},"vehicle_type_id":"4","last_reported":1743620889,"current_range_meters":3600,"station_id":"ce4bh292rcd13ifvqdf0","pricing_plan_id":"cebpf4jnsgd1na2vs0mg"},{"bike_id":"2faefbf1-350a-48dd-bf9c-5ce095122d70","system_id":"levelo_inurba_marseille","lat":43.30224,"lon":5.41799,"is_reserved":false,"is_disabled":false,"rental_uris":{"android":"levelo://app?vid=2faefbf1-350a-48dd-bf9c-5ce095122d70","ios":"levelo://app?vid=2faefbf1-350a-48dd-bf9c-5ce095122d70"},"vehicle_type_id":"4","last_reported":1743620889,"current_range_meters":4000,"station_id":"","pricing_plan_id":"cebpf4jnsgd1na2vs0mg"},{"bike_id":"1167d76f-0701-42ca-9566-e6b8288b4501","system_id":"levelo_inurba_marseille","lat":43.282716,"lon":5.378697,"is_reserved":false,"is_disabled":false,"rental_uris":{"android":"levelo://app?vid=1167d76f-0701-42ca-9566-e6b8288b4501","ios":"levelo://app?vid=1167d76f-0701-42ca-9566-e6b8288b4501"},"vehicle_type_id":"4","last_reported":1743620889,"current_range_meters":4400,"station_id":"","pricing_plan_id":"cebpf4jnsgd1na2vs0mg"},{"bike_id":"718de5db-e0ea-42e2-af01-d5e9f6c817a2","system_id":"levelo_inurba_marseille","lat":43.29901,"lon":5.4366,"is_reserved":false,"is_disabled":false,"rental_uris":{"android":"levelo://app?vid=718de5db-e0ea-42e2-af01-d5e9f6c817a2","ios":"levelo://app?vid=718de5db-e0ea-42e2-af01-d5e9f6c817a2"},"vehicle_type_id":"4","last_reported":1743620889,"current_range_meters":4400,"station_id":"ce4bhpp2rcd13ifvqhfg","pricing_plan_id":"cebpf4jnsgd1na2vs0mg"},{"bike_id":"0ba08472-63e6-4127-af41-f5ee4cc94884","system_id":"levelo_inurba_marseille","lat":43.29557,"lon":5.42291,"is_reserved":false,"is_disabled":false,"rental_uris":{"android":"levelo://app?vid=0ba08472-63e6-4127-af41-f5ee4cc94884","ios":"levelo://app?vid=0ba08472-63e6-4127-af41-f5ee4cc94884"},"vehicle_type_id":"4","last_reported":1743620889,"current_range_meters":4400,"station_id":"ce4bhph2rcd13ifvqhdg","pricing_plan_id":"cebpf4jnsgd1na2vs0mg"},{"bike_id":"ebaa89eb-9cf3-4ffa-91a5-8e3eb8931bec","system_id":"levelo_inurba_marseille","lat":43.24693,"lon":5.38191,"is_reserved":false,"is_disabled":true,"rental_uris":{"android":"levelo://app?vid=ebaa89eb-9cf3-4ffa-91a5-8e3eb8931bec","ios":"levelo://app?vid=ebaa89eb-9cf3-4ffa-91a5-8e3eb8931bec"},"vehicle_type_id":"4","last_reported":1743620889,"current_range_meters":4400,"station_id":"ce4bhih2rcd13ifvqfr0","pricing_plan_id":"cebpf4jnsgd1na2vs0mg"},{"bike_id":"c6c438e8-d3ab-4770-968b-7a1a93e8a8c6","system_id":"levelo_inurba_marseille","lat":43.28898,"lon":5.45868,"is_reserved":false,"is_disabled":false,"rental_uris":{"android":"levelo://app?vid=c6c438e8-d3ab-4770-968b-7a1a93e8a8c6","ios":"levelo://app?vid=c6c438e8-d3ab-4770-968b-7a1a93e8a8c6"},"vehicle_type_id":"4","last_reported":1743620889,"current_range_meters":4400,"station_id":"","pricing_plan_id":"cebpf4jnsgd1na2vs0mg"},{"bike_id":"25060935-548b-418e-b326-b1624903d5dd","system_id":"levelo_inurba_marseille","lat":43.3089,"lon":5.39646,"is_reserved":false,"is_disabled":false,"rental_uris":{"android":"levelo://app?vid=25060935-548b-418e-b326-b1624903d5dd","ios":"levelo://app?vid=25060935-548b-418e-b326-b1624903d5dd"},"vehicle_type_id":"4","last_reported":1743620889,"current_range_meters":4800,"station_id":"ce4bh012rcd13ifvqcv0","pricing_plan_id":"cebpf4jnsgd1na2vs0mg"},{"bike_id":"62e6488d-a559-436c-9aa4-011c84ecf7f5","system_id":"levelo_inurba_marseille","lat":43.29009,"lon":5.35607,"is_reserved":false,"is_disabled":false,"rental_uris":{"android":"levelo://app?vid=62e6488d-a559-436c-9aa4-011c84ecf7f5","ios":"levelo://app?vid=62e6488d-a559-436c-9aa4-011c84ecf7f5"},"vehicle_type_id":"4","last_reported":1743620889,"current_range_meters":4800,"station_id":"ce4bhb92rcd13ifvqen0","pricing_plan_id":"cebpf4jnsgd1na2vs0mg"},{"bike_id":"72c06ed4-fe02-4dc7-be9e-0d21f9b27d7c","system_id":"levelo_inurba_marseille","lat":43.28611,"lon":5.35107,"is_reserved":false,"is_disabled":false,"rental_uris":{"android":"levelo://app?vid=72c06ed4-fe02-4dc7-be9e-0d21f9b27d7c","ios":"levelo://app?vid=72c06ed4-fe02-4dc7-be9e-0d21f9b27d7c"},"vehicle_type_id":"4","last_reported":1743620889,"current_range_meters":4800,"station_id":"ce4bhch2rcd13ifvqeug","pricing_plan_id":"cebpf4jnsgd1na2vs0mg"},{"bike_id":"3b9cb688-1731-402c-83c8-39666526cf57","system_id":"levelo_inurba_marseille","lat":43.30591,"lon":5.39362,"is_reserved":false,"is_disabled":false,"rental_uris":{"android":"levelo://app?vid=3b9cb688-1731-402c-83c8-39666526cf57","ios":"levelo://app?vid=3b9cb688-1731-402c-83c8-39666526cf57"},"vehicle_type_id":"4","last_reported":1743620889,"current_range_meters":4800,"station_id":"ce4bh0p2rcd13ifvqd80","pricing_plan_id":"cebpf4jnsgd1na2vs0mg"},{"bike_id":"8b7e8643-3538-470a-b6a8-e63f0eb38d09","system_id":"levelo_inurba_marseille","lat":43.29036,"lon":5.38645,"is_reserved":false,"is_disabled":false,"rental_uris":{"android":"levelo://app?vid=8b7e8643-3538-470a-b6a8-e63f0eb38d09","ios":"levelo://app?vid=8b7e8643-3538-470a-b6a8-e63f0eb38d09"},"vehicle_type_id":"4","last_reported":1743620889,"current_range_meters":5600,"station_id":"ce4bh4p2rcd13ifvqe0g","pricing_plan_id":"cebpf4jnsgd1na2vs0mg"},{"bike_id":"ec3b08fc-ea84-4eb9-a695-3b11912fae96","system_id":"levelo_inurba_marseille","lat":43.29498,"lon":5.39068,"is_reserved":false,"is_disabled":false,"rental_uris":{"android":"levelo://app?vid=ec3b08fc-ea84-4eb9-a695-3b11912fae96","ios":"levelo://app?vid=ec3b08fc-ea84-4eb9-a695-3b11912fae96"},"vehicle_type_id":"4","last_reported":1743620889,"current_range_meters":5600,"station_id":"ce4bh3p2rcd13ifvqdp0","pricing_plan_id":"cebpf4jnsgd1na2vs0mg"},{"bike_id":"90eba0f5-cdac-4179-a537-be9b76db4569","system_id":"levelo_inurba_marseille","lat":43.29557,"lon":5.42279,"is_reserved":false,"is_disabled":false,"rental_uris":{"android":"levelo://app?vid=90eba0f5-cdac-4179-a537-be9b76db4569","ios":"levelo://app?vid=90eba0f5-cdac-4179-a537-be9b76db4569"},"vehicle_type_id":"4","last_reported":1743620889,"current_range_meters":5600,"station_id":"ce4bhph2rcd13ifvqhdg","pricing_plan_id":"cebpf4jnsgd1na2vs0mg"},{"bike_id":"6293244a-a5ac-4bd3-abcc-130806d24645","system_id":"levelo_inurba_marseille","lat":43.26199,"lon":5.37428,"is_reserved":false,"is_disabled":false,"rental_uris":{"android":"levelo://app?vid=6293244a-a5ac-4bd3-abcc-130806d24645","ios":"levelo://app?vid=6293244a-a5ac-4bd3-abcc-130806d24645"},"vehicle_type_id":"4","last_reported":1743620889,"current_range_meters":5600,"station_id":"ce4bhgp2rcd13ifvqfc0","pricing_plan_id":"cebpf4jnsgd1na2vs0mg"},{"bike_id":"8c58d8de-149b-45f2-8c8e-aacc3feea932","system_id":"levelo_inurba_marseille","lat":43.26059,"lon":5.394,"is_reserved":false,"is_disabled":false,"rental_uris":{"android":"levelo://app?vid=8c58d8de-149b-45f2-8c8e-aacc3feea932","ios":"levelo://app?vid=8c58d8de-149b-45f2-8c8e-aacc3feea932"},"vehicle_type_id":"4","last_reported":1743620889,"current_range_meters":5600,"station_id":"ce4bhh92rcd13ifvqfj0","pricing_plan_id":"cebpf4jnsgd1na2vs0mg"},{"bike_id":"2b5beeee-652f-4f7b-b05a-34bfb2c74022","system_id":"levelo_inurba_marseille","lat":43.29267,"lon":5.38455,"is_reserved":false,"is_disabled":false,"rental_uris":{"android":"levelo://app?vid=2b5beeee-652f-4f7b-b05a-34bfb2c74022","ios":"levelo://app?vid=2b5beeee-652f-4f7b-b05a-34bfb2c74022"},"vehicle_type_id":"4","last_reported":1743620889,"current_range_meters":5600,"station_id":"ce4bh692rcd13ifvqea0","pricing_plan_id":"cebpf4jnsgd1na2vs0mg"},{"bike_id":"66a6759f-f104-404f-ba35-7dd5d87e6d0b","system_id":"levelo_inurba_marseille","lat":43.30148,"lon":5.37699,"is_reserved":false,"is_disabled":false,"rental_uris":{"android":"levelo://app?vid=66a6759f-f104-404f-ba35-7dd5d87e6d0b","ios":"levelo://app?vid=66a6759f-f104-404f-ba35-7dd5d87e6d0b"},"vehicle_type_id":"4","last_reported":1743620889,"current_range_meters":5600,"station_id":"","pricing_plan_id":"cebpf4jnsgd1na2vs0mg"},{"bike_id":"1bb7fd7a-7e42-4963-87c6-e1ab99e7f669","system_id":"levelo_inurba_marseille","lat":43.29607,"lon":5.38128,"is_reserved":false,"is_disabled":false,"rental_uris":{"android":"levelo://app?vid=1bb7fd7a-7e42-4963-87c6-e1ab99e7f669","ios":"levelo://app?vid=1bb7fd7a-7e42-4963-87c6-e1ab99e7f669"},"vehicle_type_id":"4","last_reported":1743620889,"current_range_meters":6000,"station_id":"ce4bgl12rcd13ifvqbo0","pricing_plan_id":"cebpf4jnsgd1na2vs0mg"},{"bike_id":"e840f58d-518e-4793-8517-309d9c068e63","system_id":"levelo_inurba_marseille","lat":43.30259,"lon":5.40067,"is_reserved":false,"is_disabled":false,"rental_uris":{"android":"levelo://app?vid=e840f58d-518e-4793-8517-309d9c068e63","ios":"levelo://app?vid=e840f58d-518e-4793-8517-309d9c068e63"},"vehicle_type_id":"4","last_reported":1743620889,"current_range_meters":6000,"station_id":"ce4bgvh2rcd13ifvqcs0","pricing_plan_id":"cebpf4jnsgd1na2vs0mg"},{"bike_id":"fafdf3c7-1e0a-4435-9e7f-959774837355","system_id":"levelo_inurba_marseille","lat":43.29527,"lon":5.39051,"is_reserved":false,"is_disabled":false,"rental_uris":{"android":"levelo://app?vid=fafdf3c7-1e0a-4435-9e7f-959774837355","ios":"levelo://app?vid=fafdf3c7-1e0a-4435-9e7f-959774837355"},"vehicle_type_id":"4","last_reported":1743620889,"current_range_meters":6000,"station_id":"ce4bh3p2rcd13ifvqdp0","pricing_plan_id":"cebpf4jnsgd1na2vs0mg"},{"bike_id":"72a59223-7fbc-4af7-a727-ebdf00595f3e","system_id":"levelo_inurba_marseille","lat":43.24169,"lon":5.36401,"is_reserved":false,"is_disabled":false,"rental_uris":{"android":"levelo://app?vid=72a59223-7fbc-4af7-a727-ebdf00595f3e","ios":"levelo://app?vid=72a59223-7fbc-4af7-a727-ebdf00595f3e"},"vehicle_type_id":"4","last_reported":1743620889,"current_range_meters":6000,"station_id":"cpo36qri1sfpv3e86is0","pricing_plan_id":"cebpf4jnsgd1na2vs0mg"},{"bike_id":"6167d4f8-9b46-4b20-baa1-4588e0c1cd4b","system_id":"levelo_inurba_marseille","lat":43.25,"lon":5.38942,"is_reserved":false,"is_disabled":false,"rental_uris":{"android":"levelo://app?vid=6167d4f8-9b46-4b20-baa1-4588e0c1cd4b","ios":"levelo://app?vid=6167d4f8-9b46-4b20-baa1-4588e0c1cd4b"},"vehicle_type_id":"4","last_reported":1743620889,"current_range_meters":6000,"station_id":"ce4bhgp2rcd13ifvqfd0","pricing_plan_id":"cebpf4jnsgd1na2vs0mg"},{"bike_id":"bb5f3859-0a76-41f0-b464-b3a2c78d4fe2","system_id":"levelo_inurba_marseille","lat":43.27947,"lon":5.41048,"is_reserved":false,"is_disabled":false,"rental_uris":{"android":"levelo://app?vid=bb5f3859-0a76-41f0-b464-b3a2c78d4fe2","ios":"levelo://app?vid=bb5f3859-0a76-41f0-b464-b3a2c78d4fe2"},"vehicle_type_id":"4","last_reported":1743620889,"current_range_meters":6000,"station_id":"ce4bhnp2rcd13ifvqh0g","pricing_plan_id":"cebpf4jnsgd1na2vs0mg"},{"bike_id":"e47bc61d-df2d-41b3-b26b-dd94e6e5e301","system_id":"levelo_inurba_marseille","lat":43.26251,"lon":5.4214,"is_reserved":false,"is_disabled":false,"rental_uris":{"android":"levelo://app?vid=e47bc61d-df2d-41b3-b26b-dd94e6e5e301","ios":"levelo://app?vid=e47bc61d-df2d-41b3-b26b-dd94e6e5e301"},"vehicle_type_id":"4","last_reported":1743620889,"current_range_meters":6000,"station_id":"","pricing_plan_id":"cebpf4jnsgd1na2vs0mg"},{"bike_id":"98918377-0310-44c2-8d6d-f99192b11da8","system_id":"levelo_inurba_marseille","lat":43.3095,"lon":5.3903,"is_reserved":false,"is_disabled":false,"rental_uris":{"android":"levelo://app?vid=98918377-0310-44c2-8d6d-f99192b11da8","ios":"levelo://app?vid=98918377-0310-44c2-8d6d-f99192b11da8"},"vehicle_type_id":"4","last_reported":1743620889,"current_range_meters":6000,"station_id":"ce4bgup2rcd13ifvqco0","pricing_plan_id":"cebpf4jnsgd1na2vs0mg"},{"bike_id":"7bdf0d60-3026-4723-ac07-ebb25b9cf79f","system_id":"levelo_inurba_marseille","lat":43.28795,"lon":5.38683,"is_reserved":false,"is_disabled":false,"rental_uris":{"android":"levelo://app?vid=7bdf0d60-3026-4723-ac07-ebb25b9cf79f","ios":"levelo://app?vid=7bdf0d60-3026-4723-ac07-ebb25b9cf79f"},"vehicle_type_id":"4","last_reported":1743620889,"current_range_meters":6000,"station_id":"","pricing_plan_id":"cebpf4jnsgd1na2vs0mg"},{"bike_id":"808e9670-b5cb-40be-b1d2-d58127951ed2","system_id":"levelo_inurba_marseille","lat":43.31326,"lon":5.39695,"is_reserved":false,"is_disabled":false,"rental_uris":{"android":"levelo://app?vid=808e9670-b5cb-40be-b1d2-d58127951ed2","ios":"levelo://app?vid=808e9670-b5cb-40be-b1d2-d58127951ed2"},"vehicle_type_id":"4","last_reported":1743620889,"current_range_meters":6400,"station_id":"ce4bgvp2rcd13ifvqcu0","pricing_plan_id":"cebpf4jnsgd1na2vs0mg"},{"bike_id":"6c7f2ff1-d1f0-42f5-98cd-7fc91304e2b7","system_id":"levelo_inurba_marseille","lat":43.29416,"lon":5.38612,"is_reserved":false,"is_disabled":false,"rental_uris":{"android":"levelo://app?vid=6c7f2ff1-d1f0-42f5-98cd-7fc91304e2b7","ios":"levelo://app?vid=6c7f2ff1-d1f0-42f5-98cd-7fc91304e2b7"},"vehicle_type_id":"4","last_reported":1743620889,"current_range_meters":6400,"station_id":"ce4bh2h2rcd13ifvqdh0","pricing_plan_id":"cebpf4jnsgd1na2vs0mg"},{"bike_id":"1ddfc6db-dac0-481b-a202-494fb190651d","system_id":"levelo_inurba_marseille","lat":43.28409,"lon":5.37513,"is_reserved":false,"is_disabled":false,"rental_uris":{"android":"levelo://app?vid=1ddfc6db-dac0-481b-a202-494fb190651d","ios":"levelo://app?vid=1ddfc6db-dac0-481b-a202-494fb190651d"},"vehicle_type_id":"4","last_reported":1743620889,"current_range_meters":6400,"station_id":"ce4bh412rcd13ifvqds0","pricing_plan_id":"cebpf4jnsgd1na2vs0mg"},{"bike_id":"75a4e897-36ae-49d9-b479-181f9e1339f1","system_id":"levelo_inurba_marseille","lat":43.28938,"lon":5.36642,"is_reserved":false,"is_disabled":false,"rental_uris":{"android":"levelo://app?vid=75a4e897-36ae-49d9-b479-181f9e1339f1","ios":"levelo://app?vid=75a4e897-36ae-49d9-b479-181f9e1339f1"},"vehicle_type_id":"4","last_reported":1743620889,"current_range_meters":6400,"station_id":"ce4bhap2rcd13ifvqek0","pricing_plan_id":"cebpf4jnsgd1na2vs0mg"},{"bike_id":"fdd74cea-2420-4f5e-97f2-a48b67190c4e","system_id":"levelo_inurba_marseille","lat":43.337444,"lon":5.374475,"is_reserved":false,"is_disabled":false,"rental_uris":{"android":"levelo://app?vid=fdd74cea-2420-4f5e-97f2-a48b67190c4e","ios":"levelo://app?vid=fdd74cea-2420-4f5e-97f2-a48b67190c4e"},"vehicle_type_id":"4","last_reported":1743620889,"current_range_meters":6400,"station_id":"","pricing_plan_id":"cebpf4jnsgd1na2vs0mg"},{"bike_id":"f8d38969-44c4-4f12-8e0f-a4b2e7deaabb","system_id":"levelo_inurba_marseille","lat":43.29571,"lon":5.42266,"is_reserved":false,"is_disabled":false,"rental_uris":{"android":"levelo://app?vid=f8d38969-44c4-4f12-8e0f-a4b2e7deaabb","ios":"levelo://app?vid=f8d38969-44c4-4f12-8e0f-a4b2e7deaabb"},"vehicle_type_id":"4","last_reported":1743620889,"current_range_meters":6400,"station_id":"ce4bhph2rcd13ifvqhdg","pricing_plan_id":"cebpf4jnsgd1na2vs0mg"},{"bike_id":"4f1fb305-fdac-49af-98f8-e5ebaa4429a4","system_id":"levelo_inurba_marseille","lat":43.22946,"lon":5.35393,"is_reserved":false,"is_disabled":false,"rental_uris":{"android":"levelo://app?vid=4f1fb305-fdac-49af-98f8-e5ebaa4429a4","ios":"levelo://app?vid=4f1fb305-fdac-49af-98f8-e5ebaa4429a4"},"vehicle_type_id":"4","last_reported":1743620889,"current_range_meters":6400,"station_id":"cpo3532slgdg3j2ikp40","pricing_plan_id":"cebpf4jnsgd1na2vs0mg"},{"bike_id":"2995af85-7c39-4d36-aacc-b9db8605b2fb","system_id":"levelo_inurba_marseille","lat":43.2991,"lon":5.38153,"is_reserved":false,"is_disabled":false,"rental_uris":{"android":"levelo://app?vid=2995af85-7c39-4d36-aacc-b9db8605b2fb","ios":"levelo://app?vid=2995af85-7c39-4d36-aacc-b9db8605b2fb"},"vehicle_type_id":"4","last_reported":1743620889,"current_range_meters":6400,"station_id":"ce4bgj12rcd13ifvqbc0","pricing_plan_id":"cebpf4jnsgd1na2vs0mg"},{"bike_id":"2635283e-ffd4-4c1f-b9e8-1b146ac4c8cc","system_id":"levelo_inurba_marseille","lat":43.31139,"lon":5.42826,"is_reserved":false,"is_disabled":false,"rental_uris":{"android":"levelo://app?vid=2635283e-ffd4-4c1f-b9e8-1b146ac4c8cc","ios":"levelo://app?vid=2635283e-ffd4-4c1f-b9e8-1b146ac4c8cc"},"vehicle_type_id":"4","last_reported":1743620889,"current_range_meters":6400,"station_id":"","pricing_plan_id":"cebpf4jnsgd1na2vs0mg"},{"bike_id":"a6b08dca-0839-4bd2-8465-4b9257f28fd5","system_id":"levelo_inurba_marseille","lat":43.29562,"lon":5.42283,"is_reserved":false,"is_disabled":false,"rental_uris":{"android":"levelo://app?vid=a6b08dca-0839-4bd2-8465-4b9257f28fd5","ios":"levelo://app?vid=a6b08dca-0839-4bd2-8465-4b9257f28fd5"},"vehicle_type_id":"4","last_reported":1743620889,"current_range_meters":6400,"station_id":"ce4bhph2rcd13ifvqhdg","pricing_plan_id":"cebpf4jnsgd1na2vs0mg"},{"bike_id":"e84bef4c-cced-4cd0-b180-0053717ac75e","system_id":"levelo_inurba_marseille","lat":43.2871,"lon":5.399948,"is_reserved":false,"is_disabled":true,"rental_uris":{"android":"levelo://app?vid=e84bef4c-cced-4cd0-b180-0053717ac75e","ios":"levelo://app?vid=e84bef4c-cced-4cd0-b180-0053717ac75e"},"vehicle_type_id":"4","last_reported":1743620889,"current_range_meters":6400,"station_id":"ce4bho92rcd13ifvqh3g","pricing_plan_id":"cebpf4jnsgd1na2vs0mg"},{"bike_id":"d3b80fdb-d82b-49fb-8540-55c363b9bffd","system_id":"levelo_inurba_marseille","lat":43.27396,"lon":5.36272,"is_reserved":false,"is_disabled":false,"rental_uris":{"android":"levelo://app?vid=d3b80fdb-d82b-49fb-8540-55c363b9bffd","ios":"levelo://app?vid=d3b80fdb-d82b-49fb-8540-55c363b9bffd"},"vehicle_type_id":"4","last_reported":1743620889,"current_range_meters":6400,"station_id":"ce4bhbh2rcd13ifvqeo0","pricing_plan_id":"cebpf4jnsgd1na2vs0mg"},{"bike_id":"39f8406a-4459-4dae-aedd-672fd26140b0","system_id":"levelo_inurba_marseille","lat":43.2953,"lon":5.37502,"is_reserved":false,"is_disabled":false,"rental_uris":{"android":"levelo://app?vid=39f8406a-4459-4dae-aedd-672fd26140b0","ios":"levelo://app?vid=39f8406a-4459-4dae-aedd-672fd26140b0"},"vehicle_type_id":"4","last_reported":1743620889,"current_range_meters":6400,"station_id":"ce4bgkp2rcd13ifvqbmg","pricing_plan_id":"cebpf4jnsgd1na2vs0mg"},{"bike_id":"5cb1e2f0-8015-44b2-ab19-cc0c1566e972","system_id":"levelo_inurba_marseille","lat":43.2959,"lon":5.42295,"is_reserved":false,"is_disabled":false,"rental_uris":{"android":"levelo://app?vid=5cb1e2f0-8015-44b2-ab19-cc0c1566e972","ios":"levelo://app?vid=5cb1e2f0-8015-44b2-ab19-cc0c1566e972"},"vehicle_type_id":"4","last_reported":1743620889,"current_range_meters":6400,"station_id":"ce4bhph2rcd13ifvqhdg","pricing_plan_id":"cebpf4jnsgd1na2vs0mg"},{"bike_id":"c2814ac1-bbda-4565-afe5-c29611abff83","system_id":"levelo_inurba_marseille","lat":43.27812,"lon":5.40712,"is_reserved":false,"is_disabled":false,"rental_uris":{"android":"levelo://app?vid=c2814ac1-bbda-4565-afe5-c29611abff83","ios":"levelo://app?vid=c2814ac1-bbda-4565-afe5-c29611abff83"},"vehicle_type_id":"4","last_reported":1743620889,"current_range_meters":5600,"station_id":"ce4bhnh2rcd13ifvqgtg","pricing_plan_id":"cebpf4jnsgd1na2vs0mg"},{"bike_id":"6de483f2-3c23-4d49-8221-69576ddf1323","system_id":"levelo_inurba_marseille","lat":43.29575,"lon":5.42275,"is_reserved":false,"is_disabled":false,"rental_uris":{"android":"levelo://app?vid=6de483f2-3c23-4d49-8221-69576ddf1323","ios":"levelo://app?vid=6de483f2-3c23-4d49-8221-69576ddf1323"},"vehicle_type_id":"4","last_reported":1743620889,"current_range_meters":6800,"station_id":"ce4bhph2rcd13ifvqhdg","pricing_plan_id":"cebpf4jnsgd1na2vs0mg"},{"bike_id":"f06067fe-c409-49ce-b995-b28658dd37fb","system_id":"levelo_inurba_marseille","lat":43.28663,"lon":5.37413,"is_reserved":false,"is_disabled":true,"rental_uris":{"android":"levelo://app?vid=f06067fe-c409-49ce-b995-b28658dd37fb","ios":"levelo://app?vid=f06067fe-c409-49ce-b995-b28658dd37fb"},"vehicle_type_id":"4","last_reported":1743620889,"current_range_meters":7200,"station_id":"ce4bh3p2rcd13ifvqdq0","pricing_plan_id":"cebpf4jnsgd1na2vs0mg"},{"bike_id":"ef687fa4-2ab7-4012-b079-bb949fdc09c7","system_id":"levelo_inurba_marseille","lat":43.28006,"lon":5.40032,"is_reserved":false,"is_disabled":false,"rental_uris":{"android":"levelo://app?vid=ef687fa4-2ab7-4012-b079-bb949fdc09c7","ios":"levelo://app?vid=ef687fa4-2ab7-4012-b079-bb949fdc09c7"},"vehicle_type_id":"4","last_reported":1743620889,"current_range_meters":7200,"station_id":"ce4bho92rcd13ifvqh4g","pricing_plan_id":"cebpf4jnsgd1na2vs0mg"},{"bike_id":"e53f9db2-d75c-4594-8157-2926a2062b6f","system_id":"levelo_inurba_marseille","lat":43.28445,"lon":5.39185,"is_reserved":false,"is_disabled":true,"rental_uris":{"android":"levelo://app?vid=e53f9db2-d75c-4594-8157-2926a2062b6f","ios":"levelo://app?vid=e53f9db2-d75c-4594-8157-2926a2062b6f"},"vehicle_type_id":"4","last_reported":1743620889,"current_range_meters":7200,"station_id":"ce4bhoh2rcd13ifvqh5g","pricing_plan_id":"cebpf4jnsgd1na2vs0mg"},{"bike_id":"6aac89d2-18c2-4358-b965-12be08b60b63","system_id":"levelo_inurba_marseille","lat":43.29305,"lon":5.37182,"is_reserved":false,"is_disabled":true,"rental_uris":{"android":"levelo://app?vid=6aac89d2-18c2-4358-b965-12be08b60b63","ios":"levelo://app?vid=6aac89d2-18c2-4358-b965-12be08b60b63"},"vehicle_type_id":"4","last_reported":1743620889,"current_range_meters":7200,"station_id":"ce4bgh92rcd13ifvqb40","pricing_plan_id":"cebpf4jnsgd1na2vs0mg"},{"bike_id":"54cd2af6-bcec-4248-a5dc-b48416f47647","system_id":"levelo_inurba_marseille","lat":43.31066,"lon":5.38349,"is_reserved":false,"is_disabled":false,"rental_uris":{"android":"levelo://app?vid=54cd2af6-bcec-4248-a5dc-b48416f47647","ios":"levelo://app?vid=54cd2af6-bcec-4248-a5dc-b48416f47647"},"vehicle_type_id":"4","last_reported":1743620889,"current_range_meters":7200,"station_id":"ce4bgv92rcd13ifvqcr0","pricing_plan_id":"cebpf4jnsgd1na2vs0mg"},{"bike_id":"3e5329f3-c0cd-422c-afb1-2f46242590da","system_id":"levelo_inurba_marseille","lat":43.31921,"lon":5.37552,"is_reserved":false,"is_disabled":false,"rental_uris":{"android":"levelo://app?vid=3e5329f3-c0cd-422c-afb1-2f46242590da","ios":"levelo://app?vid=3e5329f3-c0cd-422c-afb1-2f46242590da"},"vehicle_type_id":"4","last_reported":1743620889,"current_range_meters":7200,"station_id":"","pricing_plan_id":"cebpf4jnsgd1na2vs0mg"},{"bike_id":"6abed5f0-3caa-4974-a730-f2bc4a3f6729","system_id":"levelo_inurba_marseille","lat":43.297867,"lon":5.370983,"is_reserved":false,"is_disabled":false,"rental_uris":{"android":"levelo://app?vid=6abed5f0-3caa-4974-a730-f2bc4a3f6729","ios":"levelo://app?vid=6abed5f0-3caa-4974-a730-f2bc4a3f6729"},"vehicle_type_id":"4","last_reported":1743620889,"current_range_meters":7200,"station_id":"ce4bgop2rcd13ifvqc1g","pricing_plan_id":"cebpf4jnsgd1na2vs0mg"},{"bike_id":"fa7876d0-e5b2-4ce6-9cbc-68f925a4f67e","system_id":"levelo_inurba_marseille","lat":43.286957,"lon":5.373925,"is_reserved":false,"is_disabled":false,"rental_uris":{"android":"levelo://app?vid=fa7876d0-e5b2-4ce6-9cbc-68f925a4f67e","ios":"levelo://app?vid=fa7876d0-e5b2-4ce6-9cbc-68f925a4f67e"},"vehicle_type_id":"4","last_reported":1743620889,"current_range_meters":8000,"station_id":"ce4bh3p2rcd13ifvqdq0","pricing_plan_id":"cebpf4jnsgd1na2vs0mg"},{"bike_id":"05cca541-53a4-4112-800f-a474957b9dac","system_id":"levelo_inurba_marseille","lat":43.28419,"lon":5.34989,"is_reserved":false,"is_disabled":false,"rental_uris":{"android":"levelo://app?vid=05cca541-53a4-4112-800f-a474957b9dac","ios":"levelo://app?vid=05cca541-53a4-4112-800f-a474957b9dac"},"vehicle_type_id":"4","last_reported":1743620889,"current_range_meters":8000,"station_id":"ce4bhbh2rcd13ifvqepg","pricing_plan_id":"cebpf4jnsgd1na2vs0mg"},{"bike_id":"161e4128-aedd-480b-a956-6a0b793639f7","system_id":"levelo_inurba_marseille","lat":43.29417,"lon":5.38631,"is_reserved":false,"is_disabled":false,"rental_uris":{"android":"levelo://app?vid=161e4128-aedd-480b-a956-6a0b793639f7","ios":"levelo://app?vid=161e4128-aedd-480b-a956-6a0b793639f7"},"vehicle_type_id":"4","last_reported":1743620889,"current_range_meters":6000,"station_id":"ce4bh2h2rcd13ifvqdh0","pricing_plan_id":"cebpf4jnsgd1na2vs0mg"},{"bike_id":"5c5b793a-e875-4f85-ad27-552881279a64","system_id":"levelo_inurba_marseille","lat":43.3153,"lon":5.38043,"is_reserved":false,"is_disabled":false,"rental_uris":{"android":"levelo://app?vid=5c5b793a-e875-4f85-ad27-552881279a64","ios":"levelo://app?vid=5c5b793a-e875-4f85-ad27-552881279a64"},"vehicle_type_id":"4","last_reported":1743620889,"current_range_meters":8000,"station_id":"ce4bhsp2rcd13ifvqi50","pricing_plan_id":"cebpf4jnsgd1na2vs0mg"},{"bike_id":"4d4f417d-1aec-4aba-986d-ef7a62743725","system_id":"levelo_inurba_marseille","lat":43.29557,"lon":5.42294,"is_reserved":false,"is_disabled":false,"rental_uris":{"android":"levelo://app?vid=4d4f417d-1aec-4aba-986d-ef7a62743725","ios":"levelo://app?vid=4d4f417d-1aec-4aba-986d-ef7a62743725"},"vehicle_type_id":"4","last_reported":1743620889,"current_range_meters":8000,"station_id":"ce4bhph2rcd13ifvqhdg","pricing_plan_id":"cebpf4jnsgd1na2vs0mg"},{"bike_id":"1f1218d9-ebac-4975-84ee-2ba3e4d4bcb4","system_id":"levelo_inurba_marseille","lat":43.30888,"lon":5.37811,"is_reserved":false,"is_disabled":false,"rental_uris":{"android":"levelo://app?vid=1f1218d9-ebac-4975-84ee-2ba3e4d4bcb4","ios":"levelo://app?vid=1f1218d9-ebac-4975-84ee-2ba3e4d4bcb4"},"vehicle_type_id":"4","last_reported":1743620889,"current_range_meters":8000,"station_id":"","pricing_plan_id":"cebpf4jnsgd1na2vs0mg"},{"bike_id":"4f1c00e5-a79d-4f0b-ab4e-3bd2b06e7d2e","system_id":"levelo_inurba_marseille","lat":43.23076,"lon":5.35516,"is_reserved":false,"is_disabled":false,"rental_uris":{"android":"levelo://app?vid=4f1c00e5-a79d-4f0b-ab4e-3bd2b06e7d2e","ios":"levelo://app?vid=4f1c00e5-a79d-4f0b-ab4e-3bd2b06e7d2e"},"vehicle_type_id":"4","last_reported":1743620889,"current_range_meters":8000,"station_id":"cpo3342slgdg3j2ifvpg","pricing_plan_id":"cebpf4jnsgd1na2vs0mg"},{"bike_id":"c77ae4a5-e298-4248-912e-73aa8bacf8c3","system_id":"levelo_inurba_marseille","lat":43.28849,"lon":5.35856,"is_reserved":false,"is_disabled":false,"rental_uris":{"android":"levelo://app?vid=c77ae4a5-e298-4248-912e-73aa8bacf8c3","ios":"levelo://app?vid=c77ae4a5-e298-4248-912e-73aa8bacf8c3"},"vehicle_type_id":"4","last_reported":1743620889,"current_range_meters":8000,"station_id":"ce4bhb12rcd13ifvqem0","pricing_plan_id":"cebpf4jnsgd1na2vs0mg"},{"bike_id":"d5b3fb9d-789e-4acf-84a6-8a9366b8a57d","system_id":"levelo_inurba_marseille","lat":43.24084,"lon":5.37767,"is_reserved":false,"is_disabled":false,"rental_uris":{"android":"levelo://app?vid=d5b3fb9d-789e-4acf-84a6-8a9366b8a57d","ios":"levelo://app?vid=d5b3fb9d-789e-4acf-84a6-8a9366b8a57d"},"vehicle_type_id":"4","last_reported":1743620889,"current_range_meters":8000,"station_id":"ce4bhnp2rcd13ifvqgvg","pricing_plan_id":"cebpf4jnsgd1na2vs0mg"},{"bike_id":"859c9a4f-aeb6-4685-a38e-c7ee05ebcc10","system_id":"levelo_inurba_marseille","lat":43.29413,"lon":5.38616,"is_reserved":false,"is_disabled":false,"rental_uris":{"android":"levelo://app?vid=859c9a4f-aeb6-4685-a38e-c7ee05ebcc10","ios":"levelo://app?vid=859c9a4f-aeb6-4685-a38e-c7ee05ebcc10"},"vehicle_type_id":"4","last_reported":1743620889,"current_range_meters":8000,"station_id":"ce4bh2h2rcd13ifvqdh0","pricing_plan_id":"cebpf4jnsgd1na2vs0mg"},{"bike_id":"1c7ea303-0f0b-477c-a6b0-56cc00a9de10","system_id":"levelo_inurba_marseille","lat":43.32317,"lon":5.38948,"is_reserved":false,"is_disabled":false,"rental_uris":{"android":"levelo://app?vid=1c7ea303-0f0b-477c-a6b0-56cc00a9de10","ios":"levelo://app?vid=1c7ea303-0f0b-477c-a6b0-56cc00a9de10"},"vehicle_type_id":"4","last_reported":1743620889,"current_range_meters":8000,"station_id":"ce4bhqp2rcd13ifvqhog","pricing_plan_id":"cebpf4jnsgd1na2vs0mg"},{"bike_id":"3ba6ccff-1eda-46d4-acbd-01dbdd65bb76","system_id":"levelo_inurba_marseille","lat":43.29905,"lon":5.437,"is_reserved":false,"is_disabled":false,"rental_uris":{"android":"levelo://app?vid=3ba6ccff-1eda-46d4-acbd-01dbdd65bb76","ios":"levelo://app?vid=3ba6ccff-1eda-46d4-acbd-01dbdd65bb76"},"vehicle_type_id":"4","last_reported":1743620889,"current_range_meters":8000,"station_id":"","pricing_plan_id":"cebpf4jnsgd1na2vs0mg"},{"bike_id":"9aa2396c-cf44-4f57-b912-002230e52c07","system_id":"levelo_inurba_marseille","lat":43.27661,"lon":5.39604,"is_reserved":false,"is_disabled":false,"rental_uris":{"android":"levelo://app?vid=9aa2396c-cf44-4f57-b912-002230e52c07","ios":"levelo://app?vid=9aa2396c-cf44-4f57-b912-002230e52c07"},"vehicle_type_id":"4","last_reported":1743620889,"current_range_meters":8000,"station_id":"","pricing_plan_id":"cebpf4jnsgd1na2vs0mg"},{"bike_id":"67162c31-b374-4069-995c-3c8d53e2ddc8","system_id":"levelo_inurba_marseille","lat":43.23966,"lon":5.36652,"is_reserved":false,"is_disabled":false,"rental_uris":{"android":"levelo://app?vid=67162c31-b374-4069-995c-3c8d53e2ddc8","ios":"levelo://app?vid=67162c31-b374-4069-995c-3c8d53e2ddc8"},"vehicle_type_id":"4","last_reported":1743620889,"current_range_meters":8400,"station_id":"ce4bhi12rcd13ifvqfp0","pricing_plan_id":"cebpf4jnsgd1na2vs0mg"},{"bike_id":"7aa08c36-ee27-4e8e-996a-fcb4923ecbbb","system_id":"levelo_inurba_marseille","lat":43.2828,"lon":5.35069,"is_reserved":false,"is_disabled":true,"rental_uris":{"android":"levelo://app?vid=7aa08c36-ee27-4e8e-996a-fcb4923ecbbb","ios":"levelo://app?vid=7aa08c36-ee27-4e8e-996a-fcb4923ecbbb"},"vehicle_type_id":"4","last_reported":1743620889,"current_range_meters":8400,"station_id":"ce4bhbp2rcd13ifvqerg","pricing_plan_id":"cebpf4jnsgd1na2vs0mg"},{"bike_id":"96933b73-2866-4563-a1f3-ab0cf501d574","system_id":"levelo_inurba_marseille","lat":43.28923,"lon":5.36623,"is_reserved":false,"is_disabled":false,"rental_uris":{"android":"levelo://app?vid=96933b73-2866-4563-a1f3-ab0cf501d574","ios":"levelo://app?vid=96933b73-2866-4563-a1f3-ab0cf501d574"},"vehicle_type_id":"4","last_reported":1743620889,"current_range_meters":8400,"station_id":"ce4bhap2rcd13ifvqek0","pricing_plan_id":"cebpf4jnsgd1na2vs0mg"},{"bike_id":"46140361-f09a-427e-adfa-d7653ab4888a","system_id":"levelo_inurba_marseille","lat":43.28921,"lon":5.36632,"is_reserved":false,"is_disabled":false,"rental_uris":{"android":"levelo://app?vid=46140361-f09a-427e-adfa-d7653ab4888a","ios":"levelo://app?vid=46140361-f09a-427e-adfa-d7653ab4888a"},"vehicle_type_id":"4","last_reported":1743620889,"current_range_meters":8400,"station_id":"ce4bhap2rcd13ifvqek0","pricing_plan_id":"cebpf4jnsgd1na2vs0mg"},{"bike_id":"8d5b971e-28a3-40d2-975a-686cbf6dfadd","system_id":"levelo_inurba_marseille","lat":43.29555,"lon":5.42291,"is_reserved":false,"is_disabled":false,"rental_uris":{"android":"levelo://app?vid=8d5b971e-28a3-40d2-975a-686cbf6dfadd","ios":"levelo://app?vid=8d5b971e-28a3-40d2-975a-686cbf6dfadd"},"vehicle_type_id":"4","last_reported":1743620889,"current_range_meters":8400,"station_id":"ce4bhph2rcd13ifvqhdg","pricing_plan_id":"cebpf4jnsgd1na2vs0mg"},{"bike_id":"4b7289c2-88ea-4297-a1ba-f1ec44891095","system_id":"levelo_inurba_marseille","lat":43.29196,"lon":5.35808,"is_reserved":false,"is_disabled":false,"rental_uris":{"android":"levelo://app?vid=4b7289c2-88ea-4297-a1ba-f1ec44891095","ios":"levelo://app?vid=4b7289c2-88ea-4297-a1ba-f1ec44891095"},"vehicle_type_id":"4","last_reported":1743620889,"current_range_meters":8400,"station_id":"ce4bhb12rcd13ifvqel0","pricing_plan_id":"cebpf4jnsgd1na2vs0mg"},{"bike_id":"58d95b97-0e09-4e69-9155-19ae7ea7175d","system_id":"levelo_inurba_marseille","lat":43.31115,"lon":5.3777,"is_reserved":false,"is_disabled":false,"rental_uris":{"android":"levelo://app?vid=58d95b97-0e09-4e69-9155-19ae7ea7175d","ios":"levelo://app?vid=58d95b97-0e09-4e69-9155-19ae7ea7175d"},"vehicle_type_id":"4","last_reported":1743620889,"current_range_meters":8400,"station_id":"ce4bgt92rcd13ifvqcg0","pricing_plan_id":"cebpf4jnsgd1na2vs0mg"},{"bike_id":"d3345442-2654-4ddc-b869-fce22decea38","system_id":"levelo_inurba_marseille","lat":43.23061,"lon":5.35506,"is_reserved":false,"is_disabled":false,"rental_uris":{"android":"levelo://app?vid=d3345442-2654-4ddc-b869-fce22decea38","ios":"levelo://app?vid=d3345442-2654-4ddc-b869-fce22decea38"},"vehicle_type_id":"4","last_reported":1743620889,"current_range_meters":8400,"station_id":"cpo3342slgdg3j2ifvpg","pricing_plan_id":"cebpf4jnsgd1na2vs0mg"},{"bike_id":"4e8e0366-ced4-4bd3-8559-c7b58fbb6e6e","system_id":"levelo_inurba_marseille","lat":43.30324,"lon":5.40452,"is_reserved":false,"is_disabled":false,"rental_uris":{"android":"levelo://app?vid=4e8e0366-ced4-4bd3-8559-c7b58fbb6e6e","ios":"levelo://app?vid=4e8e0366-ced4-4bd3-8559-c7b58fbb6e6e"},"vehicle_type_id":"4","last_reported":1743620889,"current_range_meters":8800,"station_id":"ce4bh012rcd13ifvqd10","pricing_plan_id":"cebpf4jnsgd1na2vs0mg"},{"bike_id":"d95697ce-eb61-4237-997e-ce97956aff13","system_id":"levelo_inurba_marseille","lat":43.22956,"lon":5.35403,"is_reserved":false,"is_disabled":false,"rental_uris":{"android":"levelo://app?vid=d95697ce-eb61-4237-997e-ce97956aff13","ios":"levelo://app?vid=d95697ce-eb61-4237-997e-ce97956aff13"},"vehicle_type_id":"4","last_reported":1743620889,"current_range_meters":8800,"station_id":"cpo3532slgdg3j2ikp40","pricing_plan_id":"cebpf4jnsgd1na2vs0mg"},{"bike_id":"394b9bb9-29c8-47e2-85d6-e0d650cc9cc1","system_id":"levelo_inurba_marseille","lat":43.27821,"lon":5.40759,"is_reserved":false,"is_disabled":false,"rental_uris":{"android":"levelo://app?vid=394b9bb9-29c8-47e2-85d6-e0d650cc9cc1","ios":"levelo://app?vid=394b9bb9-29c8-47e2-85d6-e0d650cc9cc1"},"vehicle_type_id":"4","last_reported":1743620889,"current_range_meters":8800,"station_id":"ce4bhnh2rcd13ifvqgtg","pricing_plan_id":"cebpf4jnsgd1na2vs0mg"},{"bike_id":"18af200d-2170-450e-8731-04401b479ac0","system_id":"levelo_inurba_marseille","lat":43.27284,"lon":5.39195,"is_reserved":false,"is_disabled":false,"rental_uris":{"android":"levelo://app?vid=18af200d-2170-450e-8731-04401b479ac0","ios":"levelo://app?vid=18af200d-2170-450e-8731-04401b479ac0"},"vehicle_type_id":"4","last_reported":1743620889,"current_range_meters":8800,"station_id":"","pricing_plan_id":"cebpf4jnsgd1na2vs0mg"},{"bike_id":"1e56f8b0-0569-43fd-956b-7c3d45c8ba02","system_id":"levelo_inurba_marseille","lat":43.29305,"lon":5.4115,"is_reserved":false,"is_disabled":false,"rental_uris":{"android":"levelo://app?vid=1e56f8b0-0569-43fd-956b-7c3d45c8ba02","ios":"levelo://app?vid=1e56f8b0-0569-43fd-956b-7c3d45c8ba02"},"vehicle_type_id":"4","last_reported":1743620889,"current_range_meters":8800,"station_id":"","pricing_plan_id":"cebpf4jnsgd1na2vs0mg"},{"bike_id":"a37ba079-4ccc-43bf-b918-b876a550e8db","system_id":"levelo_inurba_marseille","lat":43.25578,"lon":5.38244,"is_reserved":false,"is_disabled":false,"rental_uris":{"android":"levelo://app?vid=a37ba079-4ccc-43bf-b918-b876a550e8db","ios":"levelo://app?vid=a37ba079-4ccc-43bf-b918-b876a550e8db"},"vehicle_type_id":"4","last_reported":1743620889,"current_range_meters":8800,"station_id":"ce4bhih2rcd13ifvqfs0","pricing_plan_id":"cebpf4jnsgd1na2vs0mg"},{"bike_id":"5528d02f-8c68-431c-904e-5154091c404b","system_id":"levelo_inurba_marseille","lat":43.3032,"lon":5.40439,"is_reserved":false,"is_disabled":false,"rental_uris":{"android":"levelo://app?vid=5528d02f-8c68-431c-904e-5154091c404b","ios":"levelo://app?vid=5528d02f-8c68-431c-904e-5154091c404b"},"vehicle_type_id":"4","last_reported":1743620889,"current_range_meters":8800,"station_id":"ce4bh012rcd13ifvqd10","pricing_plan_id":"cebpf4jnsgd1na2vs0mg"},{"bike_id":"f55695a6-b65f-4a30-99ab-94b2bfa63268","system_id":"levelo_inurba_marseille","lat":43.23223,"lon":5.35528,"is_reserved":false,"is_disabled":false,"rental_uris":{"android":"levelo://app?vid=f55695a6-b65f-4a30-99ab-94b2bfa63268","ios":"levelo://app?vid=f55695a6-b65f-4a30-99ab-94b2bfa63268"},"vehicle_type_id":"4","last_reported":1743620889,"current_range_meters":8800,"station_id":"ce4bhu92rcd13ifvqi70","pricing_plan_id":"cebpf4jnsgd1na2vs0mg"},{"bike_id":"a2a07a95-fad3-4ed6-a5e8-f02c9a2ba43a","system_id":"levelo_inurba_marseille","lat":43.29557,"lon":5.42282,"is_reserved":false,"is_disabled":false,"rental_uris":{"android":"levelo://app?vid=a2a07a95-fad3-4ed6-a5e8-f02c9a2ba43a","ios":"levelo://app?vid=a2a07a95-fad3-4ed6-a5e8-f02c9a2ba43a"},"vehicle_type_id":"4","last_reported":1743620889,"current_range_meters":8800,"station_id":"ce4bhph2rcd13ifvqhdg","pricing_plan_id":"cebpf4jnsgd1na2vs0mg"},{"bike_id":"988a4b2a-1fca-4561-9342-57ad8b6adb1c","system_id":"levelo_inurba_marseille","lat":43.22937,"lon":5.35374,"is_reserved":false,"is_disabled":false,"rental_uris":{"android":"levelo://app?vid=988a4b2a-1fca-4561-9342-57ad8b6adb1c","ios":"levelo://app?vid=988a4b2a-1fca-4561-9342-57ad8b6adb1c"},"vehicle_type_id":"4","last_reported":1743620889,"current_range_meters":9200,"station_id":"cpo3532slgdg3j2ikp40","pricing_plan_id":"cebpf4jnsgd1na2vs0mg"},{"bike_id":"b80ee275-2592-4659-b2e9-175feb839700","system_id":"levelo_inurba_marseille","lat":43.23234,"lon":5.35502,"is_reserved":false,"is_disabled":false,"rental_uris":{"android":"levelo://app?vid=b80ee275-2592-4659-b2e9-175feb839700","ios":"levelo://app?vid=b80ee275-2592-4659-b2e9-175feb839700"},"vehicle_type_id":"4","last_reported":1743620889,"current_range_meters":9200,"station_id":"","pricing_plan_id":"cebpf4jnsgd1na2vs0mg"},{"bike_id":"d157a8ac-f1ea-480a-a1ee-9ac00962bb01","system_id":"levelo_inurba_marseille","lat":43.29551,"lon":5.42284,"is_reserved":false,"is_disabled":false,"rental_uris":{"android":"levelo://app?vid=d157a8ac-f1ea-480a-a1ee-9ac00962bb01","ios":"levelo://app?vid=d157a8ac-f1ea-480a-a1ee-9ac00962bb01"},"vehicle_type_id":"4","last_reported":1743620889,"current_range_meters":9200,"station_id":"ce4bhph2rcd13ifvqhdg","pricing_plan_id":"cebpf4jnsgd1na2vs0mg"},{"bike_id":"77a83e64-6de5-4fae-8124-450396c41a21","system_id":"levelo_inurba_marseille","lat":43.29566,"lon":5.42282,"is_reserved":false,"is_disabled":false,"rental_uris":{"android":"levelo://app?vid=77a83e64-6de5-4fae-8124-450396c41a21","ios":"levelo://app?vid=77a83e64-6de5-4fae-8124-450396c41a21"},"vehicle_type_id":"4","last_reported":1743620889,"current_range_meters":9200,"station_id":"ce4bhph2rcd13ifvqhdg","pricing_plan_id":"cebpf4jnsgd1na2vs0mg"},{"bike_id":"6e6a66e5-58ca-4db1-9695-b46ed5c28827","system_id":"levelo_inurba_marseille","lat":43.3182,"lon":5.3681,"is_reserved":false,"is_disabled":false,"rental_uris":{"android":"levelo://app?vid=6e6a66e5-58ca-4db1-9695-b46ed5c28827","ios":"levelo://app?vid=6e6a66e5-58ca-4db1-9695-b46ed5c28827"},"vehicle_type_id":"4","last_reported":1743620889,"current_range_meters":9200,"station_id":"","pricing_plan_id":"cebpf4jnsgd1na2vs0mg"},{"bike_id":"c5b61614-1a18-4698-a31f-63056a2f64b1","system_id":"levelo_inurba_marseille","lat":43.25113,"lon":5.4032,"is_reserved":false,"is_disabled":false,"rental_uris":{"android":"levelo://app?vid=c5b61614-1a18-4698-a31f-63056a2f64b1","ios":"levelo://app?vid=c5b61614-1a18-4698-a31f-63056a2f64b1"},"vehicle_type_id":"4","last_reported":1743620889,"current_range_meters":8800,"station_id":"ce4bhlh2rcd13ifvqgig","pricing_plan_id":"cebpf4jnsgd1na2vs0mg"},{"bike_id":"a112ce08-6f4e-41f2-873e-94895f2e1506","system_id":"levelo_inurba_marseille","lat":43.27687,"lon":5.38939,"is_reserved":false,"is_disabled":true,"rental_uris":{"android":"levelo://app?vid=a112ce08-6f4e-41f2-873e-94895f2e1506","ios":"levelo://app?vid=a112ce08-6f4e-41f2-873e-94895f2e1506"},"vehicle_type_id":"4","last_reported":1743620889,"current_range_meters":9200,"station_id":"ce4bhi12rcd13ifvqfo0","pricing_plan_id":"cebpf4jnsgd1na2vs0mg"},{"bike_id":"49428efe-bbd8-4963-9aaf-ed822fd5c61b","system_id":"levelo_inurba_marseille","lat":43.291996,"lon":5.44384,"is_reserved":false,"is_disabled":false,"rental_uris":{"android":"levelo://app?vid=49428efe-bbd8-4963-9aaf-ed822fd5c61b","ios":"levelo://app?vid=49428efe-bbd8-4963-9aaf-ed822fd5c61b"},"vehicle_type_id":"4","last_reported":1743620889,"current_range_meters":9200,"station_id":"","pricing_plan_id":"cebpf4jnsgd1na2vs0mg"},{"bike_id":"4b44f39c-5bb2-424a-891d-855ab4adfcfa","system_id":"levelo_inurba_marseille","lat":43.30134,"lon":5.38787,"is_reserved":false,"is_disabled":true,"rental_uris":{"android":"levelo://app?vid=4b44f39c-5bb2-424a-891d-855ab4adfcfa","ios":"levelo://app?vid=4b44f39c-5bb2-424a-891d-855ab4adfcfa"},"vehicle_type_id":"4","last_reported":1743620889,"current_range_meters":9200,"station_id":"ce4bghh2rcd13ifvqb60","pricing_plan_id":"cebpf4jnsgd1na2vs0mg"},{"bike_id":"ac9d8d57-c8ad-413a-9ff0-06648711c18c","system_id":"levelo_inurba_marseille","lat":43.30322,"lon":5.40434,"is_reserved":false,"is_disabled":false,"rental_uris":{"android":"levelo://app?vid=ac9d8d57-c8ad-413a-9ff0-06648711c18c","ios":"levelo://app?vid=ac9d8d57-c8ad-413a-9ff0-06648711c18c"},"vehicle_type_id":"4","last_reported":1743620889,"current_range_meters":9200,"station_id":"ce4bh012rcd13ifvqd10","pricing_plan_id":"cebpf4jnsgd1na2vs0mg"},{"bike_id":"10325f40-23b4-41f7-950f-a3d3e15013b7","system_id":"levelo_inurba_marseille","lat":43.32364,"lon":5.36754,"is_reserved":false,"is_disabled":false,"rental_uris":{"android":"levelo://app?vid=10325f40-23b4-41f7-950f-a3d3e15013b7","ios":"levelo://app?vid=10325f40-23b4-41f7-950f-a3d3e15013b7"},"vehicle_type_id":"4","last_reported":1743620889,"current_range_meters":9200,"station_id":"ce4bhsh2rcd13ifvqi2g","pricing_plan_id":"cebpf4jnsgd1na2vs0mg"},{"bike_id":"2e1d0491-8046-4a1c-910c-6d230f4ca468","system_id":"levelo_inurba_marseille","lat":43.30658,"lon":5.37354,"is_reserved":false,"is_disabled":false,"rental_uris":{"android":"levelo://app?vid=2e1d0491-8046-4a1c-910c-6d230f4ca468","ios":"levelo://app?vid=2e1d0491-8046-4a1c-910c-6d230f4ca468"},"vehicle_type_id":"4","last_reported":1743620889,"current_range_meters":9200,"station_id":"","pricing_plan_id":"cebpf4jnsgd1na2vs0mg"},{"bike_id":"04556df8-715f-45d8-b288-9c8fd51282f9","system_id":"levelo_inurba_marseille","lat":43.232,"lon":5.35549,"is_reserved":false,"is_disabled":false,"rental_uris":{"android":"levelo://app?vid=04556df8-715f-45d8-b288-9c8fd51282f9","ios":"levelo://app?vid=04556df8-715f-45d8-b288-9c8fd51282f9"},"vehicle_type_id":"4","last_reported":1743620889,"current_range_meters":9600,"station_id":"ce4bhu92rcd13ifvqi70","pricing_plan_id":"cebpf4jnsgd1na2vs0mg"},{"bike_id":"faf9bdf7-d0ef-43db-9b33-2c08950f6fe3","system_id":"levelo_inurba_marseille","lat":43.31327,"lon":5.39692,"is_reserved":false,"is_disabled":false,"rental_uris":{"android":"levelo://app?vid=faf9bdf7-d0ef-43db-9b33-2c08950f6fe3","ios":"levelo://app?vid=faf9bdf7-d0ef-43db-9b33-2c08950f6fe3"},"vehicle_type_id":"4","last_reported":1743620889,"current_range_meters":9600,"station_id":"ce4bgvp2rcd13ifvqcu0","pricing_plan_id":"cebpf4jnsgd1na2vs0mg"},{"bike_id":"b52eafbb-0fdc-487b-b3ce-3a3f8cf7e638","system_id":"levelo_inurba_marseille","lat":43.33115,"lon":5.39271,"is_reserved":false,"is_disabled":false,"rental_uris":{"android":"levelo://app?vid=b52eafbb-0fdc-487b-b3ce-3a3f8cf7e638","ios":"levelo://app?vid=b52eafbb-0fdc-487b-b3ce-3a3f8cf7e638"},"vehicle_type_id":"4","last_reported":1743620889,"current_range_meters":9600,"station_id":"","pricing_plan_id":"cebpf4jnsgd1na2vs0mg"},{"bike_id":"80b0e376-acff-4d58-bde3-697ed902c1bb","system_id":"levelo_inurba_marseille","lat":43.2796,"lon":5.41066,"is_reserved":false,"is_disabled":false,"rental_uris":{"android":"levelo://app?vid=80b0e376-acff-4d58-bde3-697ed902c1bb","ios":"levelo://app?vid=80b0e376-acff-4d58-bde3-697ed902c1bb"},"vehicle_type_id":"4","last_reported":1743620889,"current_range_meters":9600,"station_id":"ce4bhnp2rcd13ifvqh0g","pricing_plan_id":"cebpf4jnsgd1na2vs0mg"},{"bike_id":"f87e996c-206a-47d9-8697-84a2d463fdc3","system_id":"levelo_inurba_marseille","lat":43.231766,"lon":5.355878,"is_reserved":false,"is_disabled":false,"rental_uris":{"android":"levelo://app?vid=f87e996c-206a-47d9-8697-84a2d463fdc3","ios":"levelo://app?vid=f87e996c-206a-47d9-8697-84a2d463fdc3"},"vehicle_type_id":"4","last_reported":1743620889,"current_range_meters":9600,"station_id":"ce4bhu92rcd13ifvqi70","pricing_plan_id":"cebpf4jnsgd1na2vs0mg"},{"bike_id":"2d8d109b-5bc1-4d5e-a1f6-ab612648d337","system_id":"levelo_inurba_marseille","lat":43.29268,"lon":5.38433,"is_reserved":false,"is_disabled":false,"rental_uris":{"android":"levelo://app?vid=2d8d109b-5bc1-4d5e-a1f6-ab612648d337","ios":"levelo://app?vid=2d8d109b-5bc1-4d5e-a1f6-ab612648d337"},"vehicle_type_id":"4","last_reported":1743620889,"current_range_meters":9600,"station_id":"ce4bh692rcd13ifvqea0","pricing_plan_id":"cebpf4jnsgd1na2vs0mg"},{"bike_id":"7469f264-eea1-4470-8627-dad3e4a4a986","system_id":"levelo_inurba_marseille","lat":43.28614,"lon":5.35107,"is_reserved":false,"is_disabled":false,"rental_uris":{"android":"levelo://app?vid=7469f264-eea1-4470-8627-dad3e4a4a986","ios":"levelo://app?vid=7469f264-eea1-4470-8627-dad3e4a4a986"},"vehicle_type_id":"4","last_reported":1743620889,"current_range_meters":9600,"station_id":"ce4bhch2rcd13ifvqeug","pricing_plan_id":"cebpf4jnsgd1na2vs0mg"},{"bike_id":"4d96c820-f542-49e2-b95b-40aa82753274","system_id":"levelo_inurba_marseille","lat":43.28935,"lon":5.36626,"is_reserved":false,"is_disabled":false,"rental_uris":{"android":"levelo://app?vid=4d96c820-f542-49e2-b95b-40aa82753274","ios":"levelo://app?vid=4d96c820-f542-49e2-b95b-40aa82753274"},"vehicle_type_id":"4","last_reported":1743620889,"current_range_meters":9600,"station_id":"ce4bhap2rcd13ifvqek0","pricing_plan_id":"cebpf4jnsgd1na2vs0mg"},{"bike_id":"d97c6895-9a58-42bd-9edc-053f218b5b60","system_id":"levelo_inurba_marseille","lat":43.29489,"lon":5.36351,"is_reserved":false,"is_disabled":false,"rental_uris":{"android":"levelo://app?vid=d97c6895-9a58-42bd-9edc-053f218b5b60","ios":"levelo://app?vid=d97c6895-9a58-42bd-9edc-053f218b5b60"},"vehicle_type_id":"4","last_reported":1743620889,"current_range_meters":9600,"station_id":"","pricing_plan_id":"cebpf4jnsgd1na2vs0mg"},{"bike_id":"2cf61775-cb21-4b86-a7af-7925ef8f8bd8","system_id":"levelo_inurba_marseille","lat":43.22955,"lon":5.35396,"is_reserved":false,"is_disabled":false,"rental_uris":{"android":"levelo://app?vid=2cf61775-cb21-4b86-a7af-7925ef8f8bd8","ios":"levelo://app?vid=2cf61775-cb21-4b86-a7af-7925ef8f8bd8"},"vehicle_type_id":"4","last_reported":1743620889,"current_range_meters":9600,"station_id":"cpo3532slgdg3j2ikp40","pricing_plan_id":"cebpf4jnsgd1na2vs0mg"},{"bike_id":"1cc56aae-45a2-4fff-b1a7-9e957e7043f2","system_id":"levelo_inurba_marseille","lat":43.28705,"lon":5.37398,"is_reserved":false,"is_disabled":false,"rental_uris":{"android":"levelo://app?vid=1cc56aae-45a2-4fff-b1a7-9e957e7043f2","ios":"levelo://app?vid=1cc56aae-45a2-4fff-b1a7-9e957e7043f2"},"vehicle_type_id":"4","last_reported":1743620889,"current_range_meters":9600,"station_id":"ce4bh3p2rcd13ifvqdq0","pricing_plan_id":"cebpf4jnsgd1na2vs0mg"},{"bike_id":"8d2c5831-5cdd-4f87-8589-2d34f0df351b","system_id":"levelo_inurba_marseille","lat":43.33008,"lon":5.39052,"is_reserved":false,"is_disabled":false,"rental_uris":{"android":"levelo://app?vid=8d2c5831-5cdd-4f87-8589-2d34f0df351b","ios":"levelo://app?vid=8d2c5831-5cdd-4f87-8589-2d34f0df351b"},"vehicle_type_id":"4","last_reported":1743620889,"current_range_meters":9600,"station_id":"ce4bhr92rcd13ifvqhrg","pricing_plan_id":"cebpf4jnsgd1na2vs0mg"},{"bike_id":"75dae32f-059a-4b5b-a5e8-963c6eda2f66","system_id":"levelo_inurba_marseille","lat":43.27528,"lon":5.4097,"is_reserved":false,"is_disabled":false,"rental_uris":{"android":"levelo://app?vid=75dae32f-059a-4b5b-a5e8-963c6eda2f66","ios":"levelo://app?vid=75dae32f-059a-4b5b-a5e8-963c6eda2f66"},"vehicle_type_id":"4","last_reported":1743620889,"current_range_meters":10000,"station_id":"","pricing_plan_id":"cebpf4jnsgd1na2vs0mg"},{"bike_id":"1006235b-1c25-4d94-97c7-b9bd84d28baf","system_id":"levelo_inurba_marseille","lat":43.31178,"lon":5.38246,"is_reserved":false,"is_disabled":false,"rental_uris":{"android":"levelo://app?vid=1006235b-1c25-4d94-97c7-b9bd84d28baf","ios":"levelo://app?vid=1006235b-1c25-4d94-97c7-b9bd84d28baf"},"vehicle_type_id":"4","last_reported":1743620889,"current_range_meters":10000,"station_id":"","pricing_plan_id":"cebpf4jnsgd1na2vs0mg"},{"bike_id":"a4d6c0ce-d5fd-4ac9-98cc-4bef6acfd763","system_id":"levelo_inurba_marseille","lat":43.30881,"lon":5.39649,"is_reserved":false,"is_disabled":false,"rental_uris":{"android":"levelo://app?vid=a4d6c0ce-d5fd-4ac9-98cc-4bef6acfd763","ios":"levelo://app?vid=a4d6c0ce-d5fd-4ac9-98cc-4bef6acfd763"},"vehicle_type_id":"4","last_reported":1743620889,"current_range_meters":10000,"station_id":"ce4bh012rcd13ifvqcv0","pricing_plan_id":"cebpf4jnsgd1na2vs0mg"},{"bike_id":"48bffe9e-aacf-4b38-b2c4-f564e2f3ca02","system_id":"levelo_inurba_marseille","lat":43.28722,"lon":5.36099,"is_reserved":false,"is_disabled":false,"rental_uris":{"android":"levelo://app?vid=48bffe9e-aacf-4b38-b2c4-f564e2f3ca02","ios":"levelo://app?vid=48bffe9e-aacf-4b38-b2c4-f564e2f3ca02"},"vehicle_type_id":"4","last_reported":1743620889,"current_range_meters":10000,"station_id":"cki0cbj6b192h4jlfktg","pricing_plan_id":"cebpf4jnsgd1na2vs0mg"},{"bike_id":"03606d41-ab54-48de-8620-3c978ff91e18","system_id":"levelo_inurba_marseille","lat":43.28411,"lon":5.3499,"is_reserved":false,"is_disabled":false,"rental_uris":{"android":"levelo://app?vid=03606d41-ab54-48de-8620-3c978ff91e18","ios":"levelo://app?vid=03606d41-ab54-48de-8620-3c978ff91e18"},"vehicle_type_id":"4","last_reported":1743620889,"current_range_meters":10000,"station_id":"ce4bhbh2rcd13ifvqepg","pricing_plan_id":"cebpf4jnsgd1na2vs0mg"},{"bike_id":"f8dc6029-025c-47cd-8921-5ce023e19c20","system_id":"levelo_inurba_marseille","lat":43.32001,"lon":5.38158,"is_reserved":false,"is_disabled":false,"rental_uris":{"android":"levelo://app?vid=f8dc6029-025c-47cd-8921-5ce023e19c20","ios":"levelo://app?vid=f8dc6029-025c-47cd-8921-5ce023e19c20"},"vehicle_type_id":"4","last_reported":1743620889,"current_range_meters":10000,"station_id":"ce4bhr12rcd13ifvqhpg","pricing_plan_id":"cebpf4jnsgd1na2vs0mg"},{"bike_id":"e63874ac-ecb6-4d98-ad57-addce63645d6","system_id":"levelo_inurba_marseille","lat":43.23968,"lon":5.36636,"is_reserved":false,"is_disabled":false,"rental_uris":{"android":"levelo://app?vid=e63874ac-ecb6-4d98-ad57-addce63645d6","ios":"levelo://app?vid=e63874ac-ecb6-4d98-ad57-addce63645d6"},"vehicle_type_id":"4","last_reported":1743620889,"current_range_meters":10000,"station_id":"ce4bhi12rcd13ifvqfp0","pricing_plan_id":"cebpf4jnsgd1na2vs0mg"},{"bike_id":"3697d378-7001-45a1-9bf8-bc3aa4c9a3af","system_id":"levelo_inurba_marseille","lat":43.27676,"lon":5.38884,"is_reserved":false,"is_disabled":false,"rental_uris":{"android":"levelo://app?vid=3697d378-7001-45a1-9bf8-bc3aa4c9a3af","ios":"levelo://app?vid=3697d378-7001-45a1-9bf8-bc3aa4c9a3af"},"vehicle_type_id":"4","last_reported":1743620889,"current_range_meters":10000,"station_id":"ce4bhi12rcd13ifvqfo0","pricing_plan_id":"cebpf4jnsgd1na2vs0mg"},{"bike_id":"e2f25362-451d-4212-bfbe-e3fa67581bc7","system_id":"levelo_inurba_marseille","lat":43.29276,"lon":5.38441,"is_reserved":false,"is_disabled":false,"rental_uris":{"android":"levelo://app?vid=e2f25362-451d-4212-bfbe-e3fa67581bc7","ios":"levelo://app?vid=e2f25362-451d-4212-bfbe-e3fa67581bc7"},"vehicle_type_id":"4","last_reported":1743620889,"current_range_meters":10000,"station_id":"ce4bh692rcd13ifvqea0","pricing_plan_id":"cebpf4jnsgd1na2vs0mg"},{"bike_id":"9c14f324-ae47-4b7f-bb1f-ed7f4b5a827a","system_id":"levelo_inurba_marseille","lat":43.2991,"lon":5.38144,"is_reserved":false,"is_disabled":false,"rental_uris":{"android":"levelo://app?vid=9c14f324-ae47-4b7f-bb1f-ed7f4b5a827a","ios":"levelo://app?vid=9c14f324-ae47-4b7f-bb1f-ed7f4b5a827a"},"vehicle_type_id":"4","last_reported":1743620889,"current_range_meters":10800,"station_id":"ce4bgj12rcd13ifvqbc0","pricing_plan_id":"cebpf4jnsgd1na2vs0mg"},{"bike_id":"7e518bd1-a3c5-4718-b257-c0d50b977d20","system_id":"levelo_inurba_marseille","lat":43.25867,"lon":5.39915,"is_reserved":false,"is_disabled":true,"rental_uris":{"android":"levelo://app?vid=7e518bd1-a3c5-4718-b257-c0d50b977d20","ios":"levelo://app?vid=7e518bd1-a3c5-4718-b257-c0d50b977d20"},"vehicle_type_id":"4","last_reported":1743620889,"current_range_meters":10800,"station_id":"ce4bhl92rcd13ifvqghg","pricing_plan_id":"cebpf4jnsgd1na2vs0mg"},{"bike_id":"a47227b1-aec3-4740-b1fd-d445038d9436","system_id":"levelo_inurba_marseille","lat":43.28724,"lon":5.36097,"is_reserved":false,"is_disabled":false,"rental_uris":{"android":"levelo://app?vid=a47227b1-aec3-4740-b1fd-d445038d9436","ios":"levelo://app?vid=a47227b1-aec3-4740-b1fd-d445038d9436"},"vehicle_type_id":"4","last_reported":1743620889,"current_range_meters":10800,"station_id":"cki0cbj6b192h4jlfktg","pricing_plan_id":"cebpf4jnsgd1na2vs0mg"},{"bike_id":"7ba67d0a-4dd2-434e-9233-c217be617343","system_id":"levelo_inurba_marseille","lat":43.33803,"lon":5.37448,"is_reserved":false,"is_disabled":false,"rental_uris":{"android":"levelo://app?vid=7ba67d0a-4dd2-434e-9233-c217be617343","ios":"levelo://app?vid=7ba67d0a-4dd2-434e-9233-c217be617343"},"vehicle_type_id":"4","last_reported":1743620889,"current_range_meters":10800,"station_id":"","pricing_plan_id":"cebpf4jnsgd1na2vs0mg"},{"bike_id":"b5fa61b4-55c0-4d0f-b518-f0583e71aca3","system_id":"levelo_inurba_marseille","lat":43.22942,"lon":5.35385,"is_reserved":false,"is_disabled":false,"rental_uris":{"android":"levelo://app?vid=b5fa61b4-55c0-4d0f-b518-f0583e71aca3","ios":"levelo://app?vid=b5fa61b4-55c0-4d0f-b518-f0583e71aca3"},"vehicle_type_id":"4","last_reported":1743620889,"current_range_meters":10800,"station_id":"cpo3532slgdg3j2ikp40","pricing_plan_id":"cebpf4jnsgd1na2vs0mg"},{"bike_id":"9c7c43d0-e830-4895-beb2-cb4882b8b24e","system_id":"levelo_inurba_marseille","lat":43.29413,"lon":5.38634,"is_reserved":false,"is_disabled":false,"rental_uris":{"android":"levelo://app?vid=9c7c43d0-e830-4895-beb2-cb4882b8b24e","ios":"levelo://app?vid=9c7c43d0-e830-4895-beb2-cb4882b8b24e"},"vehicle_type_id":"4","last_reported":1743620889,"current_range_meters":10800,"station_id":"ce4bh2h2rcd13ifvqdh0","pricing_plan_id":"cebpf4jnsgd1na2vs0mg"},{"bike_id":"c8eba3d6-61eb-4404-916a-d87ca8116e80","system_id":"levelo_inurba_marseille","lat":43.31064,"lon":5.38342,"is_reserved":false,"is_disabled":false,"rental_uris":{"android":"levelo://app?vid=c8eba3d6-61eb-4404-916a-d87ca8116e80","ios":"levelo://app?vid=c8eba3d6-61eb-4404-916a-d87ca8116e80"},"vehicle_type_id":"4","last_reported":1743620889,"current_range_meters":10800,"station_id":"ce4bgv92rcd13ifvqcr0","pricing_plan_id":"cebpf4jnsgd1na2vs0mg"},{"bike_id":"d948e700-aa7b-4e94-873b-b091baa06778","system_id":"levelo_inurba_marseille","lat":43.29803,"lon":5.38097,"is_reserved":false,"is_disabled":false,"rental_uris":{"android":"levelo://app?vid=d948e700-aa7b-4e94-873b-b091baa06778","ios":"levelo://app?vid=d948e700-aa7b-4e94-873b-b091baa06778"},"vehicle_type_id":"4","last_reported":1743620889,"current_range_meters":10000,"station_id":"ce4bgip2rcd13ifvqbb0","pricing_plan_id":"cebpf4jnsgd1na2vs0mg"},{"bike_id":"f4b3c781-c46b-42d3-9ff9-fac436734dd4","system_id":"levelo_inurba_marseille","lat":43.3088,"lon":5.39648,"is_reserved":false,"is_disabled":false,"rental_uris":{"android":"levelo://app?vid=f4b3c781-c46b-42d3-9ff9-fac436734dd4","ios":"levelo://app?vid=f4b3c781-c46b-42d3-9ff9-fac436734dd4"},"vehicle_type_id":"4","last_reported":1743620889,"current_range_meters":10800,"station_id":"ce4bh012rcd13ifvqcv0","pricing_plan_id":"cebpf4jnsgd1na2vs0mg"},{"bike_id":"82be00d7-07cd-447f-a119-c8efb6be13a1","system_id":"levelo_inurba_marseille","lat":43.32385,"lon":5.38909,"is_reserved":false,"is_disabled":false,"rental_uris":{"android":"levelo://app?vid=82be00d7-07cd-447f-a119-c8efb6be13a1","ios":"levelo://app?vid=82be00d7-07cd-447f-a119-c8efb6be13a1"},"vehicle_type_id":"4","last_reported":1743620889,"current_range_meters":10800,"station_id":"ce4bhqp2rcd13ifvqhog","pricing_plan_id":"cebpf4jnsgd1na2vs0mg"},{"bike_id":"e3a677fc-5516-41b7-bf43-ac4e255378b6","system_id":"levelo_inurba_marseille","lat":43.23967,"lon":5.36636,"is_reserved":false,"is_disabled":false,"rental_uris":{"android":"levelo://app?vid=e3a677fc-5516-41b7-bf43-ac4e255378b6","ios":"levelo://app?vid=e3a677fc-5516-41b7-bf43-ac4e255378b6"},"vehicle_type_id":"4","last_reported":1743620889,"current_range_meters":10800,"station_id":"ce4bhi12rcd13ifvqfp0","pricing_plan_id":"cebpf4jnsgd1na2vs0mg"},{"bike_id":"d5bc4c00-87ee-4cce-9426-26a96ecd2d88","system_id":"levelo_inurba_marseille","lat":43.304489,"lon":5.389538,"is_reserved":false,"is_disabled":false,"rental_uris":{"android":"levelo://app?vid=d5bc4c00-87ee-4cce-9426-26a96ecd2d88","ios":"levelo://app?vid=d5bc4c00-87ee-4cce-9426-26a96ecd2d88"},"vehicle_type_id":"4","last_reported":1743620889,"current_range_meters":10800,"station_id":"ce4bgk12rcd13ifvqbi0","pricing_plan_id":"cebpf4jnsgd1na2vs0mg"},{"bike_id":"b6c83da9-b3c4-4843-9a1d-36871e12515b","system_id":"levelo_inurba_marseille","lat":43.26142,"lon":5.41471,"is_reserved":false,"is_disabled":false,"rental_uris":{"android":"levelo://app?vid=b6c83da9-b3c4-4843-9a1d-36871e12515b","ios":"levelo://app?vid=b6c83da9-b3c4-4843-9a1d-36871e12515b"},"vehicle_type_id":"4","last_reported":1743620889,"current_range_meters":10800,"station_id":"","pricing_plan_id":"cebpf4jnsgd1na2vs0mg"},{"bike_id":"ea464bc9-6baf-477f-8592-2d7142958a22","system_id":"levelo_inurba_marseille","lat":43.266902,"lon":5.382835,"is_reserved":false,"is_disabled":true,"rental_uris":{"android":"levelo://app?vid=ea464bc9-6baf-477f-8592-2d7142958a22","ios":"levelo://app?vid=ea464bc9-6baf-477f-8592-2d7142958a22"},"vehicle_type_id":"4","last_reported":1743620889,"current_range_meters":10800,"station_id":"ce4bhg92rcd13ifvqf90","pricing_plan_id":"cebpf4jnsgd1na2vs0mg"},{"bike_id":"cd37b7bd-e5e7-4815-b5eb-53e908947044","system_id":"levelo_inurba_marseille","lat":43.28674,"lon":5.3866,"is_reserved":false,"is_disabled":false,"rental_uris":{"android":"levelo://app?vid=cd37b7bd-e5e7-4815-b5eb-53e908947044","ios":"levelo://app?vid=cd37b7bd-e5e7-4815-b5eb-53e908947044"},"vehicle_type_id":"4","last_reported":1743620889,"current_range_meters":10800,"station_id":"ce4bh492rcd13ifvqdug","pricing_plan_id":"cebpf4jnsgd1na2vs0mg"},{"bike_id":"1f6bc5dc-7054-4b95-bf7f-a9c705dff9da","system_id":"levelo_inurba_marseille","lat":43.27372,"lon":5.36263,"is_reserved":false,"is_disabled":false,"rental_uris":{"android":"levelo://app?vid=1f6bc5dc-7054-4b95-bf7f-a9c705dff9da","ios":"levelo://app?vid=1f6bc5dc-7054-4b95-bf7f-a9c705dff9da"},"vehicle_type_id":"4","last_reported":1743620889,"current_range_meters":10800,"station_id":"ce4bhbh2rcd13ifvqeo0","pricing_plan_id":"cebpf4jnsgd1na2vs0mg"},{"bike_id":"6bd8c768-29c3-41d6-b96e-5819f9355a9d","system_id":"levelo_inurba_marseille","lat":43.29037,"lon":5.37559,"is_reserved":false,"is_disabled":false,"rental_uris":{"android":"levelo://app?vid=6bd8c768-29c3-41d6-b96e-5819f9355a9d","ios":"levelo://app?vid=6bd8c768-29c3-41d6-b96e-5819f9355a9d"},"vehicle_type_id":"4","last_reported":1743620889,"current_range_meters":12800,"station_id":"ce4bh692rcd13ifvqe90","pricing_plan_id":"cebpf4jnsgd1na2vs0mg"},{"bike_id":"faec6c4c-a4ee-4294-ad00-2f403b92d40b","system_id":"levelo_inurba_marseille","lat":43.287179,"lon":5.379265,"is_reserved":false,"is_disabled":false,"rental_uris":{"android":"levelo://app?vid=faec6c4c-a4ee-4294-ad00-2f403b92d40b","ios":"levelo://app?vid=faec6c4c-a4ee-4294-ad00-2f403b92d40b"},"vehicle_type_id":"4","last_reported":1743620889,"current_range_meters":11200,"station_id":"ce4bgv12rcd13ifvqcp0","pricing_plan_id":"cebpf4jnsgd1na2vs0mg"},{"bike_id":"c2e6881a-04a3-4a38-9cc0-75cacf165e78","system_id":"levelo_inurba_marseille","lat":43.28832,"lon":5.364645,"is_reserved":false,"is_disabled":false,"rental_uris":{"android":"levelo://app?vid=c2e6881a-04a3-4a38-9cc0-75cacf165e78","ios":"levelo://app?vid=c2e6881a-04a3-4a38-9cc0-75cacf165e78"},"vehicle_type_id":"4","last_reported":1743620889,"current_range_meters":11200,"station_id":"","pricing_plan_id":"cebpf4jnsgd1na2vs0mg"},{"bike_id":"a035caa1-6330-4e97-8722-468dd0466eb3","system_id":"levelo_inurba_marseille","lat":43.28864,"lon":5.39334,"is_reserved":false,"is_disabled":false,"rental_uris":{"android":"levelo://app?vid=a035caa1-6330-4e97-8722-468dd0466eb3","ios":"levelo://app?vid=a035caa1-6330-4e97-8722-468dd0466eb3"},"vehicle_type_id":"4","last_reported":1743620889,"current_range_meters":11200,"station_id":"ce4bh2p2rcd13ifvqdi0","pricing_plan_id":"cebpf4jnsgd1na2vs0mg"},{"bike_id":"0bad3b80-a83f-4c1d-8a64-ae0d265b1211","system_id":"levelo_inurba_marseille","lat":43.2929,"lon":5.37459,"is_reserved":false,"is_disabled":false,"rental_uris":{"android":"levelo://app?vid=0bad3b80-a83f-4c1d-8a64-ae0d265b1211","ios":"levelo://app?vid=0bad3b80-a83f-4c1d-8a64-ae0d265b1211"},"vehicle_type_id":"4","last_reported":1743620889,"current_range_meters":11200,"station_id":"ce4bgi12rcd13ifvqb70","pricing_plan_id":"cebpf4jnsgd1na2vs0mg"},{"bike_id":"cf1e53ae-b855-4ff1-83cf-4764ba2133f9","system_id":"levelo_inurba_marseille","lat":43.28852,"lon":5.35845,"is_reserved":false,"is_disabled":false,"rental_uris":{"android":"levelo://app?vid=cf1e53ae-b855-4ff1-83cf-4764ba2133f9","ios":"levelo://app?vid=cf1e53ae-b855-4ff1-83cf-4764ba2133f9"},"vehicle_type_id":"4","last_reported":1743620889,"current_range_meters":11200,"station_id":"ce4bhb12rcd13ifvqem0","pricing_plan_id":"cebpf4jnsgd1na2vs0mg"},{"bike_id":"b6c9f5f1-960a-4997-b012-8ab1bce425f2","system_id":"levelo_inurba_marseille","lat":43.27379,"lon":5.36258,"is_reserved":false,"is_disabled":false,"rental_uris":{"android":"levelo://app?vid=b6c9f5f1-960a-4997-b012-8ab1bce425f2","ios":"levelo://app?vid=b6c9f5f1-960a-4997-b012-8ab1bce425f2"},"vehicle_type_id":"4","last_reported":1743620889,"current_range_meters":11200,"station_id":"ce4bhbh2rcd13ifvqeo0","pricing_plan_id":"cebpf4jnsgd1na2vs0mg"},{"bike_id":"054bd084-de56-414f-9ea4-2892c7a1f3f1","system_id":"levelo_inurba_marseille","lat":43.28156,"lon":5.42682,"is_reserved":false,"is_disabled":false,"rental_uris":{"android":"levelo://app?vid=054bd084-de56-414f-9ea4-2892c7a1f3f1","ios":"levelo://app?vid=054bd084-de56-414f-9ea4-2892c7a1f3f1"},"vehicle_type_id":"4","last_reported":1743620889,"current_range_meters":11200,"station_id":"ce4bhnh2rcd13ifvqgug","pricing_plan_id":"cebpf4jnsgd1na2vs0mg"},{"bike_id":"f6b0526b-7170-4e8d-a2c7-6c04c899f9d8","system_id":"levelo_inurba_marseille","lat":43.3172,"lon":5.42401,"is_reserved":false,"is_disabled":false,"rental_uris":{"android":"levelo://app?vid=f6b0526b-7170-4e8d-a2c7-6c04c899f9d8","ios":"levelo://app?vid=f6b0526b-7170-4e8d-a2c7-6c04c899f9d8"},"vehicle_type_id":"4","last_reported":1743620889,"current_range_meters":11200,"station_id":"ce4bhp92rcd13ifvqhbg","pricing_plan_id":"cebpf4jnsgd1na2vs0mg"},{"bike_id":"6fd3d18f-c3b5-4d07-8160-12fc5c26448c","system_id":"levelo_inurba_marseille","lat":43.32367,"lon":5.38892,"is_reserved":false,"is_disabled":false,"rental_uris":{"android":"levelo://app?vid=6fd3d18f-c3b5-4d07-8160-12fc5c26448c","ios":"levelo://app?vid=6fd3d18f-c3b5-4d07-8160-12fc5c26448c"},"vehicle_type_id":"4","last_reported":1743620889,"current_range_meters":11200,"station_id":"ce4bhqp2rcd13ifvqhog","pricing_plan_id":"cebpf4jnsgd1na2vs0mg"},{"bike_id":"e1b03b21-5eb0-483c-b4ac-ea8a29304382","system_id":"levelo_inurba_marseille","lat":43.23057,"lon":5.35506,"is_reserved":false,"is_disabled":false,"rental_uris":{"android":"levelo://app?vid=e1b03b21-5eb0-483c-b4ac-ea8a29304382","ios":"levelo://app?vid=e1b03b21-5eb0-483c-b4ac-ea8a29304382"},"vehicle_type_id":"4","last_reported":1743620889,"current_range_meters":11600,"station_id":"cpo3342slgdg3j2ifvpg","pricing_plan_id":"cebpf4jnsgd1na2vs0mg"},{"bike_id":"9db606bb-4b0b-4331-a8ee-9e3ed9e08c02","system_id":"levelo_inurba_marseille","lat":43.29522,"lon":5.39407,"is_reserved":false,"is_disabled":false,"rental_uris":{"android":"levelo://app?vid=9db606bb-4b0b-4331-a8ee-9e3ed9e08c02","ios":"levelo://app?vid=9db606bb-4b0b-4331-a8ee-9e3ed9e08c02"},"vehicle_type_id":"4","last_reported":1743620889,"current_range_meters":11200,"station_id":"ce4bh292rcd13ifvqdf0","pricing_plan_id":"cebpf4jnsgd1na2vs0mg"},{"bike_id":"f1a0edb5-7c77-464a-93c4-3e5525b2e21b","system_id":"levelo_inurba_marseille","lat":43.29909,"lon":5.38148,"is_reserved":false,"is_disabled":false,"rental_uris":{"android":"levelo://app?vid=f1a0edb5-7c77-464a-93c4-3e5525b2e21b","ios":"levelo://app?vid=f1a0edb5-7c77-464a-93c4-3e5525b2e21b"},"vehicle_type_id":"4","last_reported":1743620889,"current_range_meters":11600,"station_id":"ce4bgj12rcd13ifvqbc0","pricing_plan_id":"cebpf4jnsgd1na2vs0mg"},{"bike_id":"7d49898d-4c6e-4131-9fdb-37de62f2c79c","system_id":"levelo_inurba_marseille","lat":43.28921,"lon":5.37146,"is_reserved":false,"is_disabled":false,"rental_uris":{"android":"levelo://app?vid=7d49898d-4c6e-4131-9fdb-37de62f2c79c","ios":"levelo://app?vid=7d49898d-4c6e-4131-9fdb-37de62f2c79c"},"vehicle_type_id":"4","last_reported":1743620889,"current_range_meters":11600,"station_id":"","pricing_plan_id":"cebpf4jnsgd1na2vs0mg"},{"bike_id":"a2695150-2dc4-41ed-97de-c5b6a5c9e118","system_id":"levelo_inurba_marseille","lat":43.29303,"lon":5.37452,"is_reserved":false,"is_disabled":false,"rental_uris":{"android":"levelo://app?vid=a2695150-2dc4-41ed-97de-c5b6a5c9e118","ios":"levelo://app?vid=a2695150-2dc4-41ed-97de-c5b6a5c9e118"},"vehicle_type_id":"4","last_reported":1743620889,"current_range_meters":6000,"station_id":"ce4bgi12rcd13ifvqb70","pricing_plan_id":"cebpf4jnsgd1na2vs0mg"},{"bike_id":"9a713482-f933-4125-b04e-55095a20bfdd","system_id":"levelo_inurba_marseille","lat":43.27816,"lon":5.40717,"is_reserved":false,"is_disabled":false,"rental_uris":{"android":"levelo://app?vid=9a713482-f933-4125-b04e-55095a20bfdd","ios":"levelo://app?vid=9a713482-f933-4125-b04e-55095a20bfdd"},"vehicle_type_id":"4","last_reported":1743620889,"current_range_meters":10000,"station_id":"ce4bhnh2rcd13ifvqgtg","pricing_plan_id":"cebpf4jnsgd1na2vs0mg"},{"bike_id":"9e7c224b-9a67-4d10-89b5-39e81d5706d0","system_id":"levelo_inurba_marseille","lat":43.28463,"lon":5.35898,"is_reserved":false,"is_disabled":false,"rental_uris":{"android":"levelo://app?vid=9e7c224b-9a67-4d10-89b5-39e81d5706d0","ios":"levelo://app?vid=9e7c224b-9a67-4d10-89b5-39e81d5706d0"},"vehicle_type_id":"4","last_reported":1743620889,"current_range_meters":11600,"station_id":"ce4bhah2rcd13ifvqei0","pricing_plan_id":"cebpf4jnsgd1na2vs0mg"},{"bike_id":"73208562-edad-4815-a7e7-dfd5a532ce7f","system_id":"levelo_inurba_marseille","lat":43.299595,"lon":5.384894,"is_reserved":false,"is_disabled":false,"rental_uris":{"android":"levelo://app?vid=73208562-edad-4815-a7e7-dfd5a532ce7f","ios":"levelo://app?vid=73208562-edad-4815-a7e7-dfd5a532ce7f"},"vehicle_type_id":"4","last_reported":1743620889,"current_range_meters":12000,"station_id":"ce4bgj92rcd13ifvqbd0","pricing_plan_id":"cebpf4jnsgd1na2vs0mg"},{"bike_id":"c3ea01b8-4040-4ef1-841d-299febab1e04","system_id":"levelo_inurba_marseille","lat":43.28852,"lon":5.35849,"is_reserved":false,"is_disabled":false,"rental_uris":{"android":"levelo://app?vid=c3ea01b8-4040-4ef1-841d-299febab1e04","ios":"levelo://app?vid=c3ea01b8-4040-4ef1-841d-299febab1e04"},"vehicle_type_id":"4","last_reported":1743620889,"current_range_meters":12000,"station_id":"ce4bhb12rcd13ifvqem0","pricing_plan_id":"cebpf4jnsgd1na2vs0mg"},{"bike_id":"a014b36e-40fa-4c58-8432-84aa89c3694d","system_id":"levelo_inurba_marseille","lat":43.29185,"lon":5.39311,"is_reserved":false,"is_disabled":false,"rental_uris":{"android":"levelo://app?vid=a014b36e-40fa-4c58-8432-84aa89c3694d","ios":"levelo://app?vid=a014b36e-40fa-4c58-8432-84aa89c3694d"},"vehicle_type_id":"4","last_reported":1743620889,"current_range_meters":12000,"station_id":"ce4bh192rcd13ifvqdd0","pricing_plan_id":"cebpf4jnsgd1na2vs0mg"},{"bike_id":"09a8a7dc-25ab-48a6-ac8b-5ee88a884479","system_id":"levelo_inurba_marseille","lat":43.28576,"lon":5.38396,"is_reserved":false,"is_disabled":false,"rental_uris":{"android":"levelo://app?vid=09a8a7dc-25ab-48a6-ac8b-5ee88a884479","ios":"levelo://app?vid=09a8a7dc-25ab-48a6-ac8b-5ee88a884479"},"vehicle_type_id":"4","last_reported":1743620889,"current_range_meters":12000,"station_id":"","pricing_plan_id":"cebpf4jnsgd1na2vs0mg"},{"bike_id":"7ca7a6b3-8568-4bc3-a238-7fe4649fc2af","system_id":"levelo_inurba_marseille","lat":43.2929,"lon":5.38462,"is_reserved":false,"is_disabled":false,"rental_uris":{"android":"levelo://app?vid=7ca7a6b3-8568-4bc3-a238-7fe4649fc2af","ios":"levelo://app?vid=7ca7a6b3-8568-4bc3-a238-7fe4649fc2af"},"vehicle_type_id":"4","last_reported":1743620889,"current_range_meters":12000,"station_id":"ce4bh692rcd13ifvqea0","pricing_plan_id":"cebpf4jnsgd1na2vs0mg"},{"bike_id":"24b39dae-1a03-475a-a9ff-91900a7e9a5f","system_id":"levelo_inurba_marseille","lat":43.29032,"lon":5.38647,"is_reserved":false,"is_disabled":false,"rental_uris":{"android":"levelo://app?vid=24b39dae-1a03-475a-a9ff-91900a7e9a5f","ios":"levelo://app?vid=24b39dae-1a03-475a-a9ff-91900a7e9a5f"},"vehicle_type_id":"4","last_reported":1743620889,"current_range_meters":12000,"station_id":"ce4bh4p2rcd13ifvqe0g","pricing_plan_id":"cebpf4jnsgd1na2vs0mg"},{"bike_id":"45b05dd1-44da-4ef1-8408-bfe9c62c0924","system_id":"levelo_inurba_marseille","lat":43.29558,"lon":5.42288,"is_reserved":false,"is_disabled":false,"rental_uris":{"android":"levelo://app?vid=45b05dd1-44da-4ef1-8408-bfe9c62c0924","ios":"levelo://app?vid=45b05dd1-44da-4ef1-8408-bfe9c62c0924"},"vehicle_type_id":"4","last_reported":1743620889,"current_range_meters":12000,"station_id":"ce4bhph2rcd13ifvqhdg","pricing_plan_id":"cebpf4jnsgd1na2vs0mg"},{"bike_id":"8cc6c2ed-3e77-4cd4-b528-4be3c22c789b","system_id":"levelo_inurba_marseille","lat":43.28949,"lon":5.36639,"is_reserved":false,"is_disabled":false,"rental_uris":{"android":"levelo://app?vid=8cc6c2ed-3e77-4cd4-b528-4be3c22c789b","ios":"levelo://app?vid=8cc6c2ed-3e77-4cd4-b528-4be3c22c789b"},"vehicle_type_id":"4","last_reported":1743620889,"current_range_meters":12000,"station_id":"ce4bhap2rcd13ifvqek0","pricing_plan_id":"cebpf4jnsgd1na2vs0mg"},{"bike_id":"186edc81-8592-472f-87aa-5ad5e5dba73d","system_id":"levelo_inurba_marseille","lat":43.312714,"lon":5.401665,"is_reserved":false,"is_disabled":false,"rental_uris":{"android":"levelo://app?vid=186edc81-8592-472f-87aa-5ad5e5dba73d","ios":"levelo://app?vid=186edc81-8592-472f-87aa-5ad5e5dba73d"},"vehicle_type_id":"4","last_reported":1743620889,"current_range_meters":12000,"station_id":"ce4bh092rcd13ifvqd30","pricing_plan_id":"cebpf4jnsgd1na2vs0mg"},{"bike_id":"d2f7c8f4-0524-4c24-a74a-ce8f6003c97d","system_id":"levelo_inurba_marseille","lat":43.28358,"lon":5.38112,"is_reserved":false,"is_disabled":false,"rental_uris":{"android":"levelo://app?vid=d2f7c8f4-0524-4c24-a74a-ce8f6003c97d","ios":"levelo://app?vid=d2f7c8f4-0524-4c24-a74a-ce8f6003c97d"},"vehicle_type_id":"4","last_reported":1743620889,"current_range_meters":12000,"station_id":"ce4bh412rcd13ifvqdr0","pricing_plan_id":"cebpf4jnsgd1na2vs0mg"},{"bike_id":"fb2cc8bd-b22d-40b8-b6f2-355ed9038731","system_id":"levelo_inurba_marseille","lat":43.28417,"lon":5.3752,"is_reserved":false,"is_disabled":false,"rental_uris":{"android":"levelo://app?vid=fb2cc8bd-b22d-40b8-b6f2-355ed9038731","ios":"levelo://app?vid=fb2cc8bd-b22d-40b8-b6f2-355ed9038731"},"vehicle_type_id":"4","last_reported":1743620889,"current_range_meters":12400,"station_id":"ce4bh412rcd13ifvqds0","pricing_plan_id":"cebpf4jnsgd1na2vs0mg"},{"bike_id":"bc4b0cf9-e43c-485e-8dba-1b6d659ac01d","system_id":"levelo_inurba_marseille","lat":43.29197,"lon":5.35807,"is_reserved":false,"is_disabled":false,"rental_uris":{"android":"levelo://app?vid=bc4b0cf9-e43c-485e-8dba-1b6d659ac01d","ios":"levelo://app?vid=bc4b0cf9-e43c-485e-8dba-1b6d659ac01d"},"vehicle_type_id":"4","last_reported":1743620889,"current_range_meters":12400,"station_id":"ce4bhb12rcd13ifvqel0","pricing_plan_id":"cebpf4jnsgd1na2vs0mg"},{"bike_id":"cd83c8ac-ed09-4369-9279-b6f36f2bbd3c","system_id":"levelo_inurba_marseille","lat":43.30817,"lon":5.38237,"is_reserved":false,"is_disabled":false,"rental_uris":{"android":"levelo://app?vid=cd83c8ac-ed09-4369-9279-b6f36f2bbd3c","ios":"levelo://app?vid=cd83c8ac-ed09-4369-9279-b6f36f2bbd3c"},"vehicle_type_id":"4","last_reported":1743620889,"current_range_meters":12400,"station_id":"","pricing_plan_id":"cebpf4jnsgd1na2vs0mg"},{"bike_id":"9bc42811-e6e2-4c1b-aac3-07b94139b82f","system_id":"levelo_inurba_marseille","lat":43.29969,"lon":5.38503,"is_reserved":false,"is_disabled":false,"rental_uris":{"android":"levelo://app?vid=9bc42811-e6e2-4c1b-aac3-07b94139b82f","ios":"levelo://app?vid=9bc42811-e6e2-4c1b-aac3-07b94139b82f"},"vehicle_type_id":"4","last_reported":1743620889,"current_range_meters":12400,"station_id":"ce4bgj92rcd13ifvqbd0","pricing_plan_id":"cebpf4jnsgd1na2vs0mg"},{"bike_id":"ecb7b3ba-0fa1-4395-a641-b28b0c48f68c","system_id":"levelo_inurba_marseille","lat":43.29229,"lon":5.36057,"is_reserved":false,"is_disabled":false,"rental_uris":{"android":"levelo://app?vid=ecb7b3ba-0fa1-4395-a641-b28b0c48f68c","ios":"levelo://app?vid=ecb7b3ba-0fa1-4395-a641-b28b0c48f68c"},"vehicle_type_id":"4","last_reported":1743620889,"current_range_meters":12400,"station_id":"ce4bhbh2rcd13ifvqeqg","pricing_plan_id":"cebpf4jnsgd1na2vs0mg"},{"bike_id":"1925d2eb-79cc-4495-ac55-0d86108c91ee","system_id":"levelo_inurba_marseille","lat":43.23784,"lon":5.39608,"is_reserved":false,"is_disabled":false,"rental_uris":{"android":"levelo://app?vid=1925d2eb-79cc-4495-ac55-0d86108c91ee","ios":"levelo://app?vid=1925d2eb-79cc-4495-ac55-0d86108c91ee"},"vehicle_type_id":"4","last_reported":1743620889,"current_range_meters":12400,"station_id":"","pricing_plan_id":"cebpf4jnsgd1na2vs0mg"},{"bike_id":"eca000f3-7adb-462c-b7ed-61fb5b2098fc","system_id":"levelo_inurba_marseille","lat":43.22941,"lon":5.35401,"is_reserved":false,"is_disabled":false,"rental_uris":{"android":"levelo://app?vid=eca000f3-7adb-462c-b7ed-61fb5b2098fc","ios":"levelo://app?vid=eca000f3-7adb-462c-b7ed-61fb5b2098fc"},"vehicle_type_id":"4","last_reported":1743620889,"current_range_meters":12400,"station_id":"cpo3532slgdg3j2ikp40","pricing_plan_id":"cebpf4jnsgd1na2vs0mg"},{"bike_id":"170f7a35-477e-4999-b64b-4ad81639814e","system_id":"levelo_inurba_marseille","lat":43.27177,"lon":5.40997,"is_reserved":false,"is_disabled":false,"rental_uris":{"android":"levelo://app?vid=170f7a35-477e-4999-b64b-4ad81639814e","ios":"levelo://app?vid=170f7a35-477e-4999-b64b-4ad81639814e"},"vehicle_type_id":"4","last_reported":1743620889,"current_range_meters":12400,"station_id":"ce4bhl12rcd13ifvqgf0","pricing_plan_id":"cebpf4jnsgd1na2vs0mg"},{"bike_id":"9f62f29e-b083-4314-9e82-a49e79ecd17d","system_id":"levelo_inurba_marseille","lat":43.22934,"lon":5.35388,"is_reserved":false,"is_disabled":false,"rental_uris":{"android":"levelo://app?vid=9f62f29e-b083-4314-9e82-a49e79ecd17d","ios":"levelo://app?vid=9f62f29e-b083-4314-9e82-a49e79ecd17d"},"vehicle_type_id":"4","last_reported":1743620889,"current_range_meters":12400,"station_id":"cpo3532slgdg3j2ikp40","pricing_plan_id":"cebpf4jnsgd1na2vs0mg"},{"bike_id":"8619bd6b-f4d3-4e29-8373-f9664c9dcb24","system_id":"levelo_inurba_marseille","lat":43.28941,"lon":5.36415,"is_reserved":false,"is_disabled":false,"rental_uris":{"android":"levelo://app?vid=8619bd6b-f4d3-4e29-8373-f9664c9dcb24","ios":"levelo://app?vid=8619bd6b-f4d3-4e29-8373-f9664c9dcb24"},"vehicle_type_id":"4","last_reported":1743620889,"current_range_meters":12800,"station_id":"ce4bhc92rcd13ifvqetg","pricing_plan_id":"cebpf4jnsgd1na2vs0mg"},{"bike_id":"8d37a5d5-e37d-48aa-bfb1-2eba8d2e5a93","system_id":"levelo_inurba_marseille","lat":43.30095,"lon":5.39073,"is_reserved":false,"is_disabled":false,"rental_uris":{"android":"levelo://app?vid=8d37a5d5-e37d-48aa-bfb1-2eba8d2e5a93","ios":"levelo://app?vid=8d37a5d5-e37d-48aa-bfb1-2eba8d2e5a93"},"vehicle_type_id":"4","last_reported":1743620889,"current_range_meters":12800,"station_id":"ce4bh192rcd13ifvqdb0","pricing_plan_id":"cebpf4jnsgd1na2vs0mg"},{"bike_id":"c03c3446-1cc9-44e4-81b7-003dc35ee68e","system_id":"levelo_inurba_marseille","lat":43.29531,"lon":5.38544,"is_reserved":false,"is_disabled":false,"rental_uris":{"android":"levelo://app?vid=c03c3446-1cc9-44e4-81b7-003dc35ee68e","ios":"levelo://app?vid=c03c3446-1cc9-44e4-81b7-003dc35ee68e"},"vehicle_type_id":"4","last_reported":1743620889,"current_range_meters":12800,"station_id":"ce4bgih2rcd13ifvqba0","pricing_plan_id":"cebpf4jnsgd1na2vs0mg"},{"bike_id":"37cf0917-6ba3-4eba-b18e-9f69a9ee80ce","system_id":"levelo_inurba_marseille","lat":43.29034,"lon":5.37574,"is_reserved":false,"is_disabled":false,"rental_uris":{"android":"levelo://app?vid=37cf0917-6ba3-4eba-b18e-9f69a9ee80ce","ios":"levelo://app?vid=37cf0917-6ba3-4eba-b18e-9f69a9ee80ce"},"vehicle_type_id":"4","last_reported":1743620889,"current_range_meters":12800,"station_id":"ce4bh692rcd13ifvqe90","pricing_plan_id":"cebpf4jnsgd1na2vs0mg"},{"bike_id":"70e5b39f-29e3-4ea9-aa83-5a60a8eec6f8","system_id":"levelo_inurba_marseille","lat":43.25041,"lon":5.4169,"is_reserved":false,"is_disabled":false,"rental_uris":{"android":"levelo://app?vid=70e5b39f-29e3-4ea9-aa83-5a60a8eec6f8","ios":"levelo://app?vid=70e5b39f-29e3-4ea9-aa83-5a60a8eec6f8"},"vehicle_type_id":"4","last_reported":1743620889,"current_range_meters":12800,"station_id":"","pricing_plan_id":"cebpf4jnsgd1na2vs0mg"},{"bike_id":"98e38234-a69c-4637-b174-c2b93e8bdb8b","system_id":"levelo_inurba_marseille","lat":43.29419,"lon":5.38642,"is_reserved":false,"is_disabled":false,"rental_uris":{"android":"levelo://app?vid=98e38234-a69c-4637-b174-c2b93e8bdb8b","ios":"levelo://app?vid=98e38234-a69c-4637-b174-c2b93e8bdb8b"},"vehicle_type_id":"4","last_reported":1743620889,"current_range_meters":13600,"station_id":"ce4bh2h2rcd13ifvqdh0","pricing_plan_id":"cebpf4jnsgd1na2vs0mg"},{"bike_id":"65ff0e15-ea43-4c36-8d42-f616a0d2d205","system_id":"levelo_inurba_marseille","lat":43.28414,"lon":5.37521,"is_reserved":false,"is_disabled":false,"rental_uris":{"android":"levelo://app?vid=65ff0e15-ea43-4c36-8d42-f616a0d2d205","ios":"levelo://app?vid=65ff0e15-ea43-4c36-8d42-f616a0d2d205"},"vehicle_type_id":"4","last_reported":1743620889,"current_range_meters":12800,"station_id":"ce4bh412rcd13ifvqds0","pricing_plan_id":"cebpf4jnsgd1na2vs0mg"},{"bike_id":"5bc89c9d-235f-4956-aaa4-6143b2018826","system_id":"levelo_inurba_marseille","lat":43.29285,"lon":5.38454,"is_reserved":false,"is_disabled":false,"rental_uris":{"android":"levelo://app?vid=5bc89c9d-235f-4956-aaa4-6143b2018826","ios":"levelo://app?vid=5bc89c9d-235f-4956-aaa4-6143b2018826"},"vehicle_type_id":"4","last_reported":1743620889,"current_range_meters":13600,"station_id":"ce4bh692rcd13ifvqea0","pricing_plan_id":"cebpf4jnsgd1na2vs0mg"},{"bike_id":"35aee38d-08b5-4f68-a761-5ae834199bae","system_id":"levelo_inurba_marseille","lat":43.29429,"lon":5.38634,"is_reserved":false,"is_disabled":false,"rental_uris":{"android":"levelo://app?vid=35aee38d-08b5-4f68-a761-5ae834199bae","ios":"levelo://app?vid=35aee38d-08b5-4f68-a761-5ae834199bae"},"vehicle_type_id":"4","last_reported":1743620889,"current_range_meters":13600,"station_id":"ce4bh2h2rcd13ifvqdh0","pricing_plan_id":"cebpf4jnsgd1na2vs0mg"},{"bike_id":"429b3b30-cc48-462a-bd30-7000df14b918","system_id":"levelo_inurba_marseille","lat":43.33029,"lon":5.39048,"is_reserved":false,"is_disabled":false,"rental_uris":{"android":"levelo://app?vid=429b3b30-cc48-462a-bd30-7000df14b918","ios":"levelo://app?vid=429b3b30-cc48-462a-bd30-7000df14b918"},"vehicle_type_id":"4","last_reported":1743620889,"current_range_meters":13600,"station_id":"ce4bhr92rcd13ifvqhrg","pricing_plan_id":"cebpf4jnsgd1na2vs0mg"},{"bike_id":"ddacc778-3175-4c50-94bf-bd4fcc0ef987","system_id":"levelo_inurba_marseille","lat":43.28704,"lon":5.37412,"is_reserved":false,"is_disabled":false,"rental_uris":{"android":"levelo://app?vid=ddacc778-3175-4c50-94bf-bd4fcc0ef987","ios":"levelo://app?vid=ddacc778-3175-4c50-94bf-bd4fcc0ef987"},"vehicle_type_id":"4","last_reported":1743620889,"current_range_meters":14000,"station_id":"ce4bh3p2rcd13ifvqdq0","pricing_plan_id":"cebpf4jnsgd1na2vs0mg"},{"bike_id":"80e1cea3-1bbc-44a9-bf93-62277ab86138","system_id":"levelo_inurba_marseille","lat":43.30545,"lon":5.38432,"is_reserved":false,"is_disabled":false,"rental_uris":{"android":"levelo://app?vid=80e1cea3-1bbc-44a9-bf93-62277ab86138","ios":"levelo://app?vid=80e1cea3-1bbc-44a9-bf93-62277ab86138"},"vehicle_type_id":"4","last_reported":1743620889,"current_range_meters":14000,"station_id":"ce4bgg92rcd13ifvqb30","pricing_plan_id":"cebpf4jnsgd1na2vs0mg"},{"bike_id":"6761a67f-79e5-41dd-bbc6-eef3c895d6d8","system_id":"levelo_inurba_marseille","lat":43.28705,"lon":5.37391,"is_reserved":false,"is_disabled":false,"rental_uris":{"android":"levelo://app?vid=6761a67f-79e5-41dd-bbc6-eef3c895d6d8","ios":"levelo://app?vid=6761a67f-79e5-41dd-bbc6-eef3c895d6d8"},"vehicle_type_id":"4","last_reported":1743620889,"current_range_meters":14000,"station_id":"ce4bh3p2rcd13ifvqdq0","pricing_plan_id":"cebpf4jnsgd1na2vs0mg"},{"bike_id":"2b7563bf-72ce-4546-bdfe-0681f54925e9","system_id":"levelo_inurba_marseille","lat":43.29267,"lon":5.38429,"is_reserved":false,"is_disabled":true,"rental_uris":{"android":"levelo://app?vid=2b7563bf-72ce-4546-bdfe-0681f54925e9","ios":"levelo://app?vid=2b7563bf-72ce-4546-bdfe-0681f54925e9"},"vehicle_type_id":"4","last_reported":1743620889,"current_range_meters":14000,"station_id":"ce4bh692rcd13ifvqea0","pricing_plan_id":"cebpf4jnsgd1na2vs0mg"},{"bike_id":"b86b5b87-f029-48ac-aa00-3a50d7e2c1d2","system_id":"levelo_inurba_marseille","lat":43.32371,"lon":5.36762,"is_reserved":false,"is_disabled":true,"rental_uris":{"android":"levelo://app?vid=b86b5b87-f029-48ac-aa00-3a50d7e2c1d2","ios":"levelo://app?vid=b86b5b87-f029-48ac-aa00-3a50d7e2c1d2"},"vehicle_type_id":"4","last_reported":1743620889,"current_range_meters":14000,"station_id":"ce4bhsh2rcd13ifvqi2g","pricing_plan_id":"cebpf4jnsgd1na2vs0mg"},{"bike_id":"1efdd1b9-47e8-4554-96b5-dabb625c866a","system_id":"levelo_inurba_marseille","lat":43.28927,"lon":5.38399,"is_reserved":false,"is_disabled":false,"rental_uris":{"android":"levelo://app?vid=1efdd1b9-47e8-4554-96b5-dabb625c866a","ios":"levelo://app?vid=1efdd1b9-47e8-4554-96b5-dabb625c866a"},"vehicle_type_id":"4","last_reported":1743620889,"current_range_meters":14000,"station_id":"ce4bh612rcd13ifvqe6g","pricing_plan_id":"cebpf4jnsgd1na2vs0mg"},{"bike_id":"e2ef2deb-c125-4c66-9487-c542d53b61e4","system_id":"levelo_inurba_marseille","lat":43.274996,"lon":5.384542,"is_reserved":false,"is_disabled":false,"rental_uris":{"android":"levelo://app?vid=e2ef2deb-c125-4c66-9487-c542d53b61e4","ios":"levelo://app?vid=e2ef2deb-c125-4c66-9487-c542d53b61e4"},"vehicle_type_id":"4","last_reported":1743620889,"current_range_meters":14000,"station_id":"ce4bhh92rcd13ifvqfi0","pricing_plan_id":"cebpf4jnsgd1na2vs0mg"},{"bike_id":"0cfd3fd2-d703-47ff-9dea-8f4a337d85bc","system_id":"levelo_inurba_marseille","lat":43.29058,"lon":5.35925,"is_reserved":false,"is_disabled":false,"rental_uris":{"android":"levelo://app?vid=0cfd3fd2-d703-47ff-9dea-8f4a337d85bc","ios":"levelo://app?vid=0cfd3fd2-d703-47ff-9dea-8f4a337d85bc"},"vehicle_type_id":"4","last_reported":1743620889,"current_range_meters":14400,"station_id":"ce4bha92rcd13ifvqeg0","pricing_plan_id":"cebpf4jnsgd1na2vs0mg"},{"bike_id":"66157e1f-aea0-4160-90ba-64571f2b11bb","system_id":"levelo_inurba_marseille","lat":43.2952,"lon":5.39042,"is_reserved":false,"is_disabled":false,"rental_uris":{"android":"levelo://app?vid=66157e1f-aea0-4160-90ba-64571f2b11bb","ios":"levelo://app?vid=66157e1f-aea0-4160-90ba-64571f2b11bb"},"vehicle_type_id":"4","last_reported":1743620889,"current_range_meters":14400,"station_id":"ce4bh3p2rcd13ifvqdp0","pricing_plan_id":"cebpf4jnsgd1na2vs0mg"},{"bike_id":"e699a15f-114f-4b23-964a-04858d60934b","system_id":"levelo_inurba_marseille","lat":43.29258,"lon":5.38438,"is_reserved":false,"is_disabled":false,"rental_uris":{"android":"levelo://app?vid=e699a15f-114f-4b23-964a-04858d60934b","ios":"levelo://app?vid=e699a15f-114f-4b23-964a-04858d60934b"},"vehicle_type_id":"4","last_reported":1743620889,"current_range_meters":14400,"station_id":"ce4bh692rcd13ifvqea0","pricing_plan_id":"cebpf4jnsgd1na2vs0mg"},{"bike_id":"65176d7e-a215-4479-a736-b11f75a62786","system_id":"levelo_inurba_marseille","lat":43.28463,"lon":5.3589,"is_reserved":false,"is_disabled":false,"rental_uris":{"android":"levelo://app?vid=65176d7e-a215-4479-a736-b11f75a62786","ios":"levelo://app?vid=65176d7e-a215-4479-a736-b11f75a62786"},"vehicle_type_id":"4","last_reported":1743620889,"current_range_meters":14400,"station_id":"ce4bhah2rcd13ifvqei0","pricing_plan_id":"cebpf4jnsgd1na2vs0mg"},{"bike_id":"e6f02e74-383c-4bae-b8c4-037430863270","system_id":"levelo_inurba_marseille","lat":43.23083,"lon":5.35503,"is_reserved":false,"is_disabled":false,"rental_uris":{"android":"levelo://app?vid=e6f02e74-383c-4bae-b8c4-037430863270","ios":"levelo://app?vid=e6f02e74-383c-4bae-b8c4-037430863270"},"vehicle_type_id":"4","last_reported":1743620889,"current_range_meters":14400,"station_id":"cpo3342slgdg3j2ifvpg","pricing_plan_id":"cebpf4jnsgd1na2vs0mg"},{"bike_id":"bb745ff7-e372-47cd-8e7a-5658e3435a0c","system_id":"levelo_inurba_marseille","lat":43.30261,"lon":5.400794,"is_reserved":false,"is_disabled":false,"rental_uris":{"android":"levelo://app?vid=bb745ff7-e372-47cd-8e7a-5658e3435a0c","ios":"levelo://app?vid=bb745ff7-e372-47cd-8e7a-5658e3435a0c"},"vehicle_type_id":"4","last_reported":1743620889,"current_range_meters":14400,"station_id":"","pricing_plan_id":"cebpf4jnsgd1na2vs0mg"},{"bike_id":"9d0457ef-48ad-4186-a488-7c51d10d0f62","system_id":"levelo_inurba_marseille","lat":43.31752,"lon":5.39007,"is_reserved":false,"is_disabled":false,"rental_uris":{"android":"levelo://app?vid=9d0457ef-48ad-4186-a488-7c51d10d0f62","ios":"levelo://app?vid=9d0457ef-48ad-4186-a488-7c51d10d0f62"},"vehicle_type_id":"4","last_reported":1743620889,"current_range_meters":14400,"station_id":"ce4bhqp2rcd13ifvqhng","pricing_plan_id":"cebpf4jnsgd1na2vs0mg"},{"bike_id":"f9e68cae-714f-4c23-815c-8393be44f654","system_id":"levelo_inurba_marseille","lat":43.33009,"lon":5.3902,"is_reserved":false,"is_disabled":false,"rental_uris":{"android":"levelo://app?vid=f9e68cae-714f-4c23-815c-8393be44f654","ios":"levelo://app?vid=f9e68cae-714f-4c23-815c-8393be44f654"},"vehicle_type_id":"4","last_reported":1743620889,"current_range_meters":14800,"station_id":"ce4bhr92rcd13ifvqhrg","pricing_plan_id":"cebpf4jnsgd1na2vs0mg"},{"bike_id":"9d7b4579-2f49-4625-9d98-42fe0dd225fc","system_id":"levelo_inurba_marseille","lat":43.30334,"lon":5.41722,"is_reserved":false,"is_disabled":false,"rental_uris":{"android":"levelo://app?vid=9d7b4579-2f49-4625-9d98-42fe0dd225fc","ios":"levelo://app?vid=9d7b4579-2f49-4625-9d98-42fe0dd225fc"},"vehicle_type_id":"4","last_reported":1743620889,"current_range_meters":14800,"station_id":"","pricing_plan_id":"cebpf4jnsgd1na2vs0mg"},{"bike_id":"97c0eecc-8787-4395-b6d9-f622fd6dd4ee","system_id":"levelo_inurba_marseille","lat":43.26146,"lon":5.40934,"is_reserved":false,"is_disabled":true,"rental_uris":{"android":"levelo://app?vid=97c0eecc-8787-4395-b6d9-f622fd6dd4ee","ios":"levelo://app?vid=97c0eecc-8787-4395-b6d9-f622fd6dd4ee"},"vehicle_type_id":"4","last_reported":1743620889,"current_range_meters":14800,"station_id":"","pricing_plan_id":"cebpf4jnsgd1na2vs0mg"},{"bike_id":"f56b212f-3702-4226-a7b2-bb6045cd1a6a","system_id":"levelo_inurba_marseille","lat":43.24068,"lon":5.37754,"is_reserved":false,"is_disabled":false,"rental_uris":{"android":"levelo://app?vid=f56b212f-3702-4226-a7b2-bb6045cd1a6a","ios":"levelo://app?vid=f56b212f-3702-4226-a7b2-bb6045cd1a6a"},"vehicle_type_id":"4","last_reported":1743620889,"current_range_meters":14800,"station_id":"ce4bhnp2rcd13ifvqgvg","pricing_plan_id":"cebpf4jnsgd1na2vs0mg"},{"bike_id":"2be94212-600c-4c4f-ba3b-fe750ec2d558","system_id":"levelo_inurba_marseille","lat":43.28103,"lon":5.37869,"is_reserved":false,"is_disabled":false,"rental_uris":{"android":"levelo://app?vid=2be94212-600c-4c4f-ba3b-fe750ec2d558","ios":"levelo://app?vid=2be94212-600c-4c4f-ba3b-fe750ec2d558"},"vehicle_type_id":"4","last_reported":1743620889,"current_range_meters":14800,"station_id":"ce4bha12rcd13ifvqee0","pricing_plan_id":"cebpf4jnsgd1na2vs0mg"},{"bike_id":"02759f5c-bea4-4728-b180-347da1c9de69","system_id":"levelo_inurba_marseille","lat":43.2466,"lon":5.38161,"is_reserved":false,"is_disabled":false,"rental_uris":{"android":"levelo://app?vid=02759f5c-bea4-4728-b180-347da1c9de69","ios":"levelo://app?vid=02759f5c-bea4-4728-b180-347da1c9de69"},"vehicle_type_id":"4","last_reported":1743620889,"current_range_meters":14800,"station_id":"ce4bhih2rcd13ifvqfr0","pricing_plan_id":"cebpf4jnsgd1na2vs0mg"},{"bike_id":"41048467-95a2-4f48-84a1-4c6e0c1e1524","system_id":"levelo_inurba_marseille","lat":43.2885,"lon":5.35858,"is_reserved":false,"is_disabled":false,"rental_uris":{"android":"levelo://app?vid=41048467-95a2-4f48-84a1-4c6e0c1e1524","ios":"levelo://app?vid=41048467-95a2-4f48-84a1-4c6e0c1e1524"},"vehicle_type_id":"4","last_reported":1743620889,"current_range_meters":14800,"station_id":"ce4bhb12rcd13ifvqem0","pricing_plan_id":"cebpf4jnsgd1na2vs0mg"},{"bike_id":"78ca934a-98c9-4dbc-b5b6-c2ca906050d2","system_id":"levelo_inurba_marseille","lat":43.29751,"lon":5.3895,"is_reserved":false,"is_disabled":false,"rental_uris":{"android":"levelo://app?vid=78ca934a-98c9-4dbc-b5b6-c2ca906050d2","ios":"levelo://app?vid=78ca934a-98c9-4dbc-b5b6-c2ca906050d2"},"vehicle_type_id":"4","last_reported":1743620889,"current_range_meters":14800,"station_id":"","pricing_plan_id":"cebpf4jnsgd1na2vs0mg"},{"bike_id":"c1c63035-c83b-4419-8cbf-133778d95125","system_id":"levelo_inurba_marseille","lat":43.29778,"lon":5.39328,"is_reserved":false,"is_disabled":true,"rental_uris":{"android":"levelo://app?vid=c1c63035-c83b-4419-8cbf-133778d95125","ios":"levelo://app?vid=c1c63035-c83b-4419-8cbf-133778d95125"},"vehicle_type_id":"4","last_reported":1743620889,"current_range_meters":14800,"station_id":"chh1huq6cuj3fo74tm60","pricing_plan_id":"cebpf4jnsgd1na2vs0mg"},{"bike_id":"c24d4f83-fb41-48e9-a7c2-a21a6944f369","system_id":"levelo_inurba_marseille","lat":43.3302,"lon":5.39045,"is_reserved":false,"is_disabled":false,"rental_uris":{"android":"levelo://app?vid=c24d4f83-fb41-48e9-a7c2-a21a6944f369","ios":"levelo://app?vid=c24d4f83-fb41-48e9-a7c2-a21a6944f369"},"vehicle_type_id":"4","last_reported":1743620889,"current_range_meters":15200,"station_id":"ce4bhr92rcd13ifvqhrg","pricing_plan_id":"cebpf4jnsgd1na2vs0mg"},{"bike_id":"417ae464-5f45-43b2-97c7-ea874c40c779","system_id":"levelo_inurba_marseille","lat":43.29302,"lon":5.37185,"is_reserved":false,"is_disabled":false,"rental_uris":{"android":"levelo://app?vid=417ae464-5f45-43b2-97c7-ea874c40c779","ios":"levelo://app?vid=417ae464-5f45-43b2-97c7-ea874c40c779"},"vehicle_type_id":"4","last_reported":1743620889,"current_range_meters":16000,"station_id":"ce4bgh92rcd13ifvqb40","pricing_plan_id":"cebpf4jnsgd1na2vs0mg"},{"bike_id":"cbadd818-61ef-4ba0-9294-9bb1e96d777f","system_id":"levelo_inurba_marseille","lat":43.28406,"lon":5.375118,"is_reserved":false,"is_disabled":false,"rental_uris":{"android":"levelo://app?vid=cbadd818-61ef-4ba0-9294-9bb1e96d777f","ios":"levelo://app?vid=cbadd818-61ef-4ba0-9294-9bb1e96d777f"},"vehicle_type_id":"4","last_reported":1743620889,"current_range_meters":15200,"station_id":"ce4bh412rcd13ifvqds0","pricing_plan_id":"cebpf4jnsgd1na2vs0mg"},{"bike_id":"e3a29d38-a611-4b12-87ef-2fb8a21c41d5","system_id":"levelo_inurba_marseille","lat":43.22925,"lon":5.35357,"is_reserved":false,"is_disabled":false,"rental_uris":{"android":"levelo://app?vid=e3a29d38-a611-4b12-87ef-2fb8a21c41d5","ios":"levelo://app?vid=e3a29d38-a611-4b12-87ef-2fb8a21c41d5"},"vehicle_type_id":"4","last_reported":1743620889,"current_range_meters":15200,"station_id":"cpo3532slgdg3j2ikp40","pricing_plan_id":"cebpf4jnsgd1na2vs0mg"},{"bike_id":"4575138a-2f3e-4af9-88ad-eb3cc2673c2c","system_id":"levelo_inurba_marseille","lat":43.29266,"lon":5.38439,"is_reserved":false,"is_disabled":false,"rental_uris":{"android":"levelo://app?vid=4575138a-2f3e-4af9-88ad-eb3cc2673c2c","ios":"levelo://app?vid=4575138a-2f3e-4af9-88ad-eb3cc2673c2c"},"vehicle_type_id":"4","last_reported":1743620889,"current_range_meters":15200,"station_id":"ce4bh692rcd13ifvqea0","pricing_plan_id":"cebpf4jnsgd1na2vs0mg"},{"bike_id":"bda5af44-4008-4c70-b84b-bdd760157e14","system_id":"levelo_inurba_marseille","lat":43.3043,"lon":5.39745,"is_reserved":false,"is_disabled":false,"rental_uris":{"android":"levelo://app?vid=bda5af44-4008-4c70-b84b-bdd760157e14","ios":"levelo://app?vid=bda5af44-4008-4c70-b84b-bdd760157e14"},"vehicle_type_id":"4","last_reported":1743620889,"current_range_meters":15200,"station_id":"ce4bh092rcd13ifvqd20","pricing_plan_id":"cebpf4jnsgd1na2vs0mg"},{"bike_id":"d1a8c7f8-8e30-4238-ab20-35375414bc12","system_id":"levelo_inurba_marseille","lat":43.29526,"lon":5.39042,"is_reserved":false,"is_disabled":false,"rental_uris":{"android":"levelo://app?vid=d1a8c7f8-8e30-4238-ab20-35375414bc12","ios":"levelo://app?vid=d1a8c7f8-8e30-4238-ab20-35375414bc12"},"vehicle_type_id":"4","last_reported":1743620889,"current_range_meters":15200,"station_id":"ce4bh3p2rcd13ifvqdp0","pricing_plan_id":"cebpf4jnsgd1na2vs0mg"},{"bike_id":"844d09aa-6dcf-4736-8374-4e29d4ab0045","system_id":"levelo_inurba_marseille","lat":43.29681,"lon":5.37289,"is_reserved":false,"is_disabled":false,"rental_uris":{"android":"levelo://app?vid=844d09aa-6dcf-4736-8374-4e29d4ab0045","ios":"levelo://app?vid=844d09aa-6dcf-4736-8374-4e29d4ab0045"},"vehicle_type_id":"4","last_reported":1743620889,"current_range_meters":15200,"station_id":"ce4bgk12rcd13ifvqbj0","pricing_plan_id":"cebpf4jnsgd1na2vs0mg"},{"bike_id":"c2ddb254-94b9-4479-ae35-280bdce16d3e","system_id":"levelo_inurba_marseille","lat":43.29439,"lon":5.38665,"is_reserved":false,"is_disabled":false,"rental_uris":{"android":"levelo://app?vid=c2ddb254-94b9-4479-ae35-280bdce16d3e","ios":"levelo://app?vid=c2ddb254-94b9-4479-ae35-280bdce16d3e"},"vehicle_type_id":"4","last_reported":1743620889,"current_range_meters":15200,"station_id":"ce4bh2h2rcd13ifvqdh0","pricing_plan_id":"cebpf4jnsgd1na2vs0mg"},