{"last_updated":1722172104,"ttl":30,"version":"2.2","data":{"bikes":[{"bike_id":"235efefc-3576-4e58-94b6-3fdbca3d5f92","system_id":"levelo_inurba_marseille","lat":43.312239,"lon":5.368562,"is_reserved":false,"is_disabled":false,"rental_uris":{"android":"levelo://app?vid=235efefc-3576-4e58-94b6-3fdbca3d5f92","ios":"levelo://app?vid=235efefc-3576-4e58-94b6-3fdbca3d5f92"},"vehicle_type_id":"4","last_reported":1722172104,"current_range_meters":30400,"station_id":"ce4bgl92rcd13ifvqbq0","pricing_plan_id":"cebpf4jnsgd1na2vs0mg"},{"bike_id":"646c52d1-acce-430e-9434-cd09eedeb945","system_id":"levelo_inurba_marseille","lat":43.309076,"lon":5.368465,"is_reserved":false,"is_disabled":false,"rental_uris":{"android":"levelo://app?vid=646c52d1-acce-430e-9434-cd09eedeb945","ios":"levelo://app?vid=646c52d1-acce-430e-9434-cd09eedeb945"},"vehicle_type_id":"4","last_reported":1722172104,"current_range_meters":0,"station_id":"ce4bgn92rcd13ifvqbvg","pricing_plan_id":"cebpf4jnsgd1na2vs0mg"},{"bike_id":"978a0795-7438-4c64-9a6a-b1e426d188d6","system_id":"levelo_inurba_marseille","lat":43.317487,"lon":5.368717,"is_reserved":false,"is_disabled":false,"rental_uris":{"android":"levelo://app?vid=978a0795-7438-4c64-9a6a-b1e426d188d6","ios":"levelo://app?vid=978a0795-7438-4c64-9a6a-b1e426d188d6"},"vehicle_type_id":"4","last_reported":1722172104,"current_range_meters":2400,"station_id":"","pricing_plan_id":"cebpf4jnsgd1na2vs0mg"},{"bike_id":"3b4cf84c-c708-49f0-baa6-74d8ae6c5c97","system_id":"levelo_inurba_marseille","lat":43.314811,"lon":5.373103,"is_reserved":false,"is_disabled":false,"rental_uris":{"android":"levelo://app?vid=3b4cf84c-c708-49f0-baa6-74d8ae6c5c97","ios":"levelo://app?vid=3b4cf84c-c708-49f0-baa6-74d8ae6c5c97"},"vehicle_type_id":"4","last_reported":1722172104,"current_range_meters":6000,"station_id":"ce4bgt12rcd13ifvqcd0","pricing_plan_id":"cebpf4jnsgd1na2vs0mg"},{"bike_id":"45b31c35-6d9a-4917-b0ed-8baa22b80521","system_id":"levelo_inurba_marseille","lat":43.314811,"lon":5.373103,"is_reserved":false,"is_disabled":false,"rental_uris":{"android":"levelo://app?vid=45b31c35-6d9a-4917-b0ed-8baa22b80521","ios":"levelo://app?vid=45b31c35-6d9a-4917-b0ed-8baa22b80521"},"vehicle_type_id":"4","last_reported":1722172104,"current_range_meters":8400,"station_id":"ce4bgt12rcd13ifvqcd0","pricing_plan_id":"cebpf4jnsgd1na2vs0mg"},{"bike_id":"500af962-885f-4e64-a825-37f3c9ab7e1d","system_id":"levelo_inurba_marseille","lat":43.31498,"lon":5.37301,"is_reserved":false,"is_disabled":false,"rental_uris":{"android":"levelo://app?vid=500af962-885f-4e64-a825-37f3c9ab7e1d","ios":"levelo://app?vid=500af962-885f-4e64-a825-37f3c9ab7e1d"},"vehicle_type_id":"4","last_reported":1722172104,"current_range_meters":13600,"station_id":"ce4bgt12rcd13ifvqcd0","pricing_plan_id":"cebpf4jnsgd1na2vs0mg"},{"bike_id":"e2f66258-5f46-4643-8508-1ec897b6053d","system_id":"levelo_inurba_marseille","lat":43.30888,"lon":5.37213,"is_reserved":false,"is_disabled":false,"rental_uris":{"android":"levelo://app?vid=e2f66258-5f46-4643-8508-1ec897b6053d","ios":"levelo://app?vid=e2f66258-5f46-4643-8508-1ec897b6053d"},"vehicle_type_id":"4","last_reported":1722172104,"current_range_meters":16800,"station_id":"ce4bguh2rcd13ifvqckg","pricing_plan_id":"cebpf4jnsgd1na2vs0mg"},{"bike_id":"e31b7490-3e3e-448d-983c-d14bde2bf611","system_id":"levelo_inurba_marseille","lat":43.30706,"lon":5.37307,"is_reserved":false,"is_disabled":false,"rental_uris":{"android":"levelo://app?vid=e31b7490-3e3e-448d-983c-d14bde2bf611","ios":"levelo://app?vid=e31b7490-3e3e-448d-983c-d14bde2bf611"},"vehicle_type_id":"4","last_reported":1722172104,"current_range_meters":3200,"station_id":"","pricing_plan_id":"cebpf4jnsgd1na2vs0mg"},{"bike_id":"2d8fd02b-c68d-484f-9c6a-4923d2a9fd5b","system_id":"levelo_inurba_marseille","lat":43.31669,"lon":5.37526,"is_reserved":false,"is_disabled":false,"rental_uris":{"android":"levelo://app?vid=2d8fd02b-c68d-484f-9c6a-4923d2a9fd5b","ios":"levelo://app?vid=2d8fd02b-c68d-484f-9c6a-4923d2a9fd5b"},"vehicle_type_id":"4","last_reported":1722172104,"current_range_meters":27600,"station_id":"","pricing_plan_id":"cebpf4jnsgd1na2vs0mg"},{"bike_id":"a84cb2f6-0ec6-4e77-9105-5f836e4edf0c","system_id":"levelo_inurba_marseille","lat":43.305706,"lon":5.365654,"is_reserved":false,"is_disabled":false,"rental_uris":{"android":"levelo://app?vid=a84cb2f6-0ec6-4e77-9105-5f836e4edf0c","ios":"levelo://app?vid=a84cb2f6-0ec6-4e77-9105-5f836e4edf0c"},"vehicle_type_id":"4","last_reported":1722172104,"current_range_meters":12000,"station_id":"ce4bgs12rcd13ifvqcag","pricing_plan_id":"cebpf4jnsgd1na2vs0mg"},{"bike_id":"ccb6cff1-0bde-47e6-be82-4ca348951261","system_id":"levelo_inurba_marseille","lat":43.305989,"lon":5.37225,"is_reserved":false,"is_disabled":false,"rental_uris":{"android":"levelo://app?vid=ccb6cff1-0bde-47e6-be82-4ca348951261","ios":"levelo://app?vid=ccb6cff1-0bde-47e6-be82-4ca348951261"},"vehicle_type_id":"4","last_reported":1722172104,"current_range_meters":8800,"station_id":"ce4bgqh2rcd13ifvqc4g","pricing_plan_id":"cebpf4jnsgd1na2vs0mg"},{"bike_id":"47f3f73c-d68a-4e55-b1e2-42a8b9cddce9","system_id":"levelo_inurba_marseille","lat":43.30789,"lon":5.376447,"is_reserved":false,"is_disabled":false,"rental_uris":{"android":"levelo://app?vid=47f3f73c-d68a-4e55-b1e2-42a8b9cddce9","ios":"levelo://app?vid=47f3f73c-d68a-4e55-b1e2-42a8b9cddce9"},"vehicle_type_id":"4","last_reported":1722172104,"current_range_meters":29200,"station_id":"","pricing_plan_id":"cebpf4jnsgd1na2vs0mg"},{"bike_id":"7dce3a49-9230-4ef6-839f-4de6e84bf85e","system_id":"levelo_inurba_marseille","lat":43.307945,"lon":5.376487,"is_reserved":false,"is_disabled":false,"rental_uris":{"android":"levelo://app?vid=7dce3a49-9230-4ef6-839f-4de6e84bf85e","ios":"levelo://app?vid=7dce3a49-9230-4ef6-839f-4de6e84bf85e"},"vehicle_type_id":"4","last_reported":1722172104,"current_range_meters":14000,"station_id":"ce4bgv92rcd13ifvqcq0","pricing_plan_id":"cebpf4jnsgd1na2vs0mg"},{"bike_id":"860d37f3-1fb4-4fec-a949-6d6437a511d0","system_id":"levelo_inurba_marseille","lat":43.317075,"lon":5.377367,"is_reserved":false,"is_disabled":false,"rental_uris":{"android":"levelo://app?vid=860d37f3-1fb4-4fec-a949-6d6437a511d0","ios":"levelo://app?vid=860d37f3-1fb4-4fec-a949-6d6437a511d0"},"vehicle_type_id":"4","last_reported":1722172104,"current_range_meters":28800,"station_id":"ce4bgth2rcd13ifvqch0","pricing_plan_id":"cebpf4jnsgd1na2vs0mg"},{"bike_id":"335ac510-43da-4036-be34-daeb21912855","system_id":"levelo_inurba_marseille","lat":43.317075,"lon":5.377367,"is_reserved":false,"is_disabled":false,"rental_uris":{"android":"levelo://app?vid=335ac510-43da-4036-be34-daeb21912855","ios":"levelo://app?vid=335ac510-43da-4036-be34-daeb21912855"},"vehicle_type_id":"4","last_reported":1722172104,"current_range_meters":4800,"station_id":"ce4bgth2rcd13ifvqch0","pricing_plan_id":"cebpf4jnsgd1na2vs0mg"},{"bike_id":"758c32af-f175-47ee-abc0-ca267043b1d6","system_id":"levelo_inurba_marseille","lat":43.317075,"lon":5.377367,"is_reserved":false,"is_disabled":false,"rental_uris":{"android":"levelo://app?vid=758c32af-f175-47ee-abc0-ca267043b1d6","ios":"levelo://app?vid=758c32af-f175-47ee-abc0-ca267043b1d6"},"vehicle_type_id":"4","last_reported":1722172104,"current_range_meters":31600,"station_id":"ce4bgth2rcd13ifvqch0","pricing_plan_id":"cebpf4jnsgd1na2vs0mg"},{"bike_id":"ce2623d7-e957-4a2a-b583-e059331a4f65","system_id":"levelo_inurba_marseille","lat":43.317075,"lon":5.377367,"is_reserved":false,"is_disabled":false,"rental_uris":{"android":"levelo://app?vid=ce2623d7-e957-4a2a-b583-e059331a4f65","ios":"levelo://app?vid=ce2623d7-e957-4a2a-b583-e059331a4f65"},"vehicle_type_id":"4","last_reported":1722172104,"current_range_meters":27600,"station_id":"ce4bgth2rcd13ifvqch0","pricing_plan_id":"cebpf4jnsgd1na2vs0mg"},{"bike_id":"49853c1c-828f-46be-8194-09fb06d29c79","system_id":"levelo_inurba_marseille","lat":43.30316,"lon":5.36887,"is_reserved":false,"is_disabled":false,"rental_uris":{"android":"levelo://app?vid=49853c1c-828f-46be-8194-09fb06d29c79","ios":"levelo://app?vid=49853c1c-828f-46be-8194-09fb06d29c79"},"vehicle_type_id":"4","last_reported":1722172104,"current_range_meters":0,"station_id":"ce4bgqh2rcd13ifvqc5g","pricing_plan_id":"cebpf4jnsgd1na2vs0mg"},{"bike_id":"9e47042b-d26b-4c2a-8609-5f6547fbcc2d","system_id":"levelo_inurba_marseille","lat":43.315289,"lon":5.380349,"is_reserved":false,"is_disabled":false,"rental_uris":{"android":"levelo://app?vid=9e47042b-d26b-4c2a-8609-5f6547fbcc2d","ios":"levelo://app?vid=9e47042b-d26b-4c2a-8609-5f6547fbcc2d"},"vehicle_type_id":"4","last_reported":1722172104,"current_range_meters":6800,"station_id":"ce4bhsp2rcd13ifvqi50","pricing_plan_id":"cebpf4jnsgd1na2vs0mg"},{"bike_id":"dded10ea-cd2f-41a9-bca7-eabc0ac1db06","system_id":"levelo_inurba_marseille","lat":43.304606,"lon":5.379026,"is_reserved":false,"is_disabled":false,"rental_uris":{"android":"levelo://app?vid=dded10ea-cd2f-41a9-bca7-eabc0ac1db06","ios":"levelo://app?vid=dded10ea-cd2f-41a9-bca7-eabc0ac1db06"},"vehicle_type_id":"4","last_reported":1722172104,"current_range_meters":22800,"station_id":"ce4bgup2rcd13ifvqcn0","pricing_plan_id":"cebpf4jnsgd1na2vs0mg"},{"bike_id":"fe1c5c6e-ca77-49bc-9b4b-aa6221ea306b","system_id":"levelo_inurba_marseille","lat":43.304606,"lon":5.379026,"is_reserved":false,"is_disabled":false,"rental_uris":{"android":"levelo://app?vid=fe1c5c6e-ca77-49bc-9b4b-aa6221ea306b","ios":"levelo://app?vid=fe1c5c6e-ca77-49bc-9b4b-aa6221ea306b"},"vehicle_type_id":"4","last_reported":1722172104,"current_range_meters":20800,"station_id":"ce4bgup2rcd13ifvqcn0","pricing_plan_id":"cebpf4jnsgd1na2vs0mg"},{"bike_id":"9ae66cce-5ca2-47b6-b5b4-123dd5f3fa0f","system_id":"levelo_inurba_marseille","lat":43.304606,"lon":5.379026,"is_reserved":false,"is_disabled":false,"rental_uris":{"android":"levelo://app?vid=9ae66cce-5ca2-47b6-b5b4-123dd5f3fa0f","ios":"levelo://app?vid=9ae66cce-5ca2-47b6-b5b4-123dd5f3fa0f"},"vehicle_type_id":"4","last_reported":1722172104,"current_range_meters":29200,"station_id":"ce4bgup2rcd13ifvqcn0","pricing_plan_id":"cebpf4jnsgd1na2vs0mg"},{"bike_id":"a6281452-9569-448e-afac-253e488faae7","system_id":"levelo_inurba_marseille","lat":43.304606,"lon":5.379026,"is_reserved":false,"is_disabled":false,"rental_uris":{"android":"levelo://app?vid=a6281452-9569-448e-afac-253e488faae7","ios":"levelo://app?vid=a6281452-9569-448e-afac-253e488faae7"},"vehicle_type_id":"4","last_reported":1722172104,"current_range_meters":30000,"station_id":"ce4bgup2rcd13ifvqcn0","pricing_plan_id":"cebpf4jnsgd1na2vs0mg"},{"bike_id":"bd1df3ed-4456-4ade-9022-7f11b82715de","system_id":"levelo_inurba_marseille","lat":43.324771,"lon":5.36557,"is_reserved":false,"is_disabled":false,"rental_uris":{"android":"levelo://app?vid=bd1df3ed-4456-4ade-9022-7f11b82715de","ios":"levelo://app?vid=bd1df3ed-4456-4ade-9022-7f11b82715de"},"vehicle_type_id":"4","last_reported":1722172104,"current_range_meters":27600,"station_id":"ce4bhs12rcd13ifvqhvg","pricing_plan_id":"cebpf4jnsgd1na2vs0mg"},{"bike_id":"74622a59-7c72-416d-b909-98817b7d08b2","system_id":"levelo_inurba_marseille","lat":43.324771,"lon":5.36557,"is_reserved":false,"is_disabled":false,"rental_uris":{"android":"levelo://app?vid=74622a59-7c72-416d-b909-98817b7d08b2","ios":"levelo://app?vid=74622a59-7c72-416d-b909-98817b7d08b2"},"vehicle_type_id":"4","last_reported":1722172104,"current_range_meters":14000,"station_id":"ce4bhs12rcd13ifvqhvg","pricing_plan_id":"cebpf4jnsgd1na2vs0mg"},{"bike_id":"7fc59e34-6f40-4e8f-8e9c-e8bea02bf36c","system_id":"levelo_inurba_marseille","lat":43.324771,"lon":5.36557,"is_reserved":false,"is_disabled":false,"rental_uris":{"android":"levelo://app?vid=7fc59e34-6f40-4e8f-8e9c-e8bea02bf36c","ios":"levelo://app?vid=7fc59e34-6f40-4e8f-8e9c-e8bea02bf36c"},"vehicle_type_id":"4","last_reported":1722172104,"current_range_meters":29200,"station_id":"ce4bhs12rcd13ifvqhvg","pricing_plan_id":"cebpf4jnsgd1na2vs0mg"},{"bike_id":"d5871d69-5fd6-4e86-bd05-9e796d8084e2","system_id":"levelo_inurba_marseille","lat":43.30143,"lon":5.37413,"is_reserved":false,"is_disabled":false,"rental_uris":{"android":"levelo://app?vid=d5871d69-5fd6-4e86-bd05-9e796d8084e2","ios":"levelo://app?vid=d5871d69-5fd6-4e86-bd05-9e796d8084e2"},"vehicle_type_id":"4","last_reported":1722172104,"current_range_meters":25600,"station_id":"ce4bgs92rcd13ifvqcc0","pricing_plan_id":"cebpf4jnsgd1na2vs0mg"},{"bike_id":"3f5daa95-d85e-43c9-9041-c5314cb376c6","system_id":"levelo_inurba_marseille","lat":43.301429,"lon":5.37413,"is_reserved":false,"is_disabled":false,"rental_uris":{"android":"levelo://app?vid=3f5daa95-d85e-43c9-9041-c5314cb376c6","ios":"levelo://app?vid=3f5daa95-d85e-43c9-9041-c5314cb376c6"},"vehicle_type_id":"4","last_reported":1722172104,"current_range_meters":13600,"station_id":"ce4bgs92rcd13ifvqcc0","pricing_plan_id":"cebpf4jnsgd1na2vs0mg"},{"bike_id":"8d2b1d04-4e2c-4537-b24e-ac97889b034f","system_id":"levelo_inurba_marseille","lat":43.301429,"lon":5.37413,"is_reserved":false,"is_disabled":false,"rental_uris":{"android":"levelo://app?vid=8d2b1d04-4e2c-4537-b24e-ac97889b034f","ios":"levelo://app?vid=8d2b1d04-4e2c-4537-b24e-ac97889b034f"},"vehicle_type_id":"4","last_reported":1722172104,"current_range_meters":22800,"station_id":"ce4bgs92rcd13ifvqcc0","pricing_plan_id":"cebpf4jnsgd1na2vs0mg"},{"bike_id":"9c2b0a84-e607-4e11-a162-ee5a91e35caa","system_id":"levelo_inurba_marseille","lat":43.30143,"lon":5.37413,"is_reserved":false,"is_disabled":false,"rental_uris":{"android":"levelo://app?vid=9c2b0a84-e607-4e11-a162-ee5a91e35caa","ios":"levelo://app?vid=9c2b0a84-e607-4e11-a162-ee5a91e35caa"},"vehicle_type_id":"4","last_reported":1722172104,"current_range_meters":26800,"station_id":"ce4bgs92rcd13ifvqcc0","pricing_plan_id":"cebpf4jnsgd1na2vs0mg"},{"bike_id":"803e0064-3735-428a-8357-b238431bbb52","system_id":"levelo_inurba_marseille","lat":43.31988,"lon":5.38135,"is_reserved":false,"is_disabled":false,"rental_uris":{"android":"levelo://app?vid=803e0064-3735-428a-8357-b238431bbb52","ios":"levelo://app?vid=803e0064-3735-428a-8357-b238431bbb52"},"vehicle_type_id":"4","last_reported":1722172104,"current_range_meters":16800,"station_id":"ce4bhr12rcd13ifvqhpg","pricing_plan_id":"cebpf4jnsgd1na2vs0mg"},{"bike_id":"64efb8ba-933f-47fc-b58f-b13d857f90b0","system_id":"levelo_inurba_marseille","lat":43.31603,"lon":5.38383,"is_reserved":false,"is_disabled":false,"rental_uris":{"android":"levelo://app?vid=64efb8ba-933f-47fc-b58f-b13d857f90b0","ios":"levelo://app?vid=64efb8ba-933f-47fc-b58f-b13d857f90b0"},"vehicle_type_id":"4","last_reported":1722172104,"current_range_meters":28400,"station_id":"","pricing_plan_id":"cebpf4jnsgd1na2vs0mg"},{"bike_id":"7aa0a328-dae8-47fe-9606-4472c2728edd","system_id":"levelo_inurba_marseille","lat":43.31997,"lon":5.38149,"is_reserved":false,"is_disabled":false,"rental_uris":{"android":"levelo://app?vid=7aa0a328-dae8-47fe-9606-4472c2728edd","ios":"levelo://app?vid=7aa0a328-dae8-47fe-9606-4472c2728edd"},"vehicle_type_id":"4","last_reported":1722172104,"current_range_meters":31200,"station_id":"ce4bhr12rcd13ifvqhpg","pricing_plan_id":"cebpf4jnsgd1na2vs0mg"},{"bike_id":"ede6e3b8-7e99-49c9-b61f-dc1c45e0f497","system_id":"levelo_inurba_marseille","lat":43.31998,"lon":5.38157,"is_reserved":false,"is_disabled":false,"rental_uris":{"android":"levelo://app?vid=ede6e3b8-7e99-49c9-b61f-dc1c45e0f497","ios":"levelo://app?vid=ede6e3b8-7e99-49c9-b61f-dc1c45e0f497"},"vehicle_type_id":"4","last_reported":1722172104,"current_range_meters":3200,"station_id":"ce4bhr12rcd13ifvqhpg","pricing_plan_id":"cebpf4jnsgd1na2vs0mg"},{"bike_id":"f0ad6f0a-a17b-4bee-9196-57c4c5a47783","system_id":"levelo_inurba_marseille","lat":43.3001,"lon":5.37233,"is_reserved":false,"is_disabled":false,"rental_uris":{"android":"levelo://app?vid=f0ad6f0a-a17b-4bee-9196-57c4c5a47783","ios":"levelo://app?vid=f0ad6f0a-a17b-4bee-9196-57c4c5a47783"},"vehicle_type_id":"4","last_reported":1722172104,"current_range_meters":5600,"station_id":"","pricing_plan_id":"cebpf4jnsgd1na2vs0mg"},{"bike_id":"19d62bbf-1fd4-414d-9a3d-13e7d37b780e","system_id":"levelo_inurba_marseille","lat":43.299222,"lon":5.365554,"is_reserved":false,"is_disabled":false,"rental_uris":{"android":"levelo://app?vid=19d62bbf-1fd4-414d-9a3d-13e7d37b780e","ios":"levelo://app?vid=19d62bbf-1fd4-414d-9a3d-13e7d37b780e"},"vehicle_type_id":"4","last_reported":1722172104,"current_range_meters":3200,"station_id":"ce4bgm92rcd13ifvqbr0","pricing_plan_id":"cebpf4jnsgd1na2vs0mg"},{"bike_id":"80490eb1-b8d0-46b4-afc3-b3b0626c5d2c","system_id":"levelo_inurba_marseille","lat":43.299222,"lon":5.365554,"is_reserved":false,"is_disabled":false,"rental_uris":{"android":"levelo://app?vid=80490eb1-b8d0-46b4-afc3-b3b0626c5d2c","ios":"levelo://app?vid=80490eb1-b8d0-46b4-afc3-b3b0626c5d2c"},"vehicle_type_id":"4","last_reported":1722172104,"current_range_meters":8000,"station_id":"ce4bgm92rcd13ifvqbr0","pricing_plan_id":"cebpf4jnsgd1na2vs0mg"},{"bike_id":"0d03eb76-c0eb-4f4d-b0f1-2be70a8f0a05","system_id":"levelo_inurba_marseille","lat":43.298433,"lon":5.362774,"is_reserved":false,"is_disabled":false,"rental_uris":{"android":"levelo://app?vid=0d03eb76-c0eb-4f4d-b0f1-2be70a8f0a05","ios":"levelo://app?vid=0d03eb76-c0eb-4f4d-b0f1-2be70a8f0a05"},"vehicle_type_id":"4","last_reported":1722172104,"current_range_meters":7600,"station_id":"ce4bgpp2rcd13ifvqc3g","pricing_plan_id":"cebpf4jnsgd1na2vs0mg"},{"bike_id":"8c5ad05e-05b3-4700-9a59-fd253a4a99d7","system_id":"levelo_inurba_marseille","lat":43.29909,"lon":5.37472,"is_reserved":false,"is_disabled":false,"rental_uris":{"android":"levelo://app?vid=8c5ad05e-05b3-4700-9a59-fd253a4a99d7","ios":"levelo://app?vid=8c5ad05e-05b3-4700-9a59-fd253a4a99d7"},"vehicle_type_id":"4","last_reported":1722172104,"current_range_meters":16800,"station_id":"","pricing_plan_id":"cebpf4jnsgd1na2vs0mg"},{"bike_id":"3e1d6aa7-389d-4d63-aa27-0f43397c29a5","system_id":"levelo_inurba_marseille","lat":43.30157,"lon":5.38068,"is_reserved":false,"is_disabled":false,"rental_uris":{"android":"levelo://app?vid=3e1d6aa7-389d-4d63-aa27-0f43397c29a5","ios":"levelo://app?vid=3e1d6aa7-389d-4d63-aa27-0f43397c29a5"},"vehicle_type_id":"4","last_reported":1722172104,"current_range_meters":29600,"station_id":"","pricing_plan_id":"cebpf4jnsgd1na2vs0mg"},{"bike_id":"74c01296-fcb9-4582-b124-d5c21bf8dedb","system_id":"levelo_inurba_marseille","lat":43.30144,"lon":5.38074,"is_reserved":false,"is_disabled":false,"rental_uris":{"android":"levelo://app?vid=74c01296-fcb9-4582-b124-d5c21bf8dedb","ios":"levelo://app?vid=74c01296-fcb9-4582-b124-d5c21bf8dedb"},"vehicle_type_id":"4","last_reported":1722172104,"current_range_meters":29600,"station_id":"","pricing_plan_id":"cebpf4jnsgd1na2vs0mg"},{"bike_id":"8ad7d1f0-36ba-4891-8a86-274947aa917f","system_id":"levelo_inurba_marseille","lat":43.322872,"lon":5.382756,"is_reserved":false,"is_disabled":false,"rental_uris":{"android":"levelo://app?vid=8ad7d1f0-36ba-4891-8a86-274947aa917f","ios":"levelo://app?vid=8ad7d1f0-36ba-4891-8a86-274947aa917f"},"vehicle_type_id":"4","last_reported":1722172104,"current_range_meters":25200,"station_id":"ce4bhr12rcd13ifvqhqg","pricing_plan_id":"cebpf4jnsgd1na2vs0mg"},{"bike_id":"7b81b3b7-387a-4517-89de-89f7650a6752","system_id":"levelo_inurba_marseille","lat":43.322872,"lon":5.382756,"is_reserved":false,"is_disabled":false,"rental_uris":{"android":"levelo://app?vid=7b81b3b7-387a-4517-89de-89f7650a6752","ios":"levelo://app?vid=7b81b3b7-387a-4517-89de-89f7650a6752"},"vehicle_type_id":"4","last_reported":1722172104,"current_range_meters":19600,"station_id":"ce4bhr12rcd13ifvqhqg","pricing_plan_id":"cebpf4jnsgd1na2vs0mg"},{"bike_id":"22e41778-51bb-4239-91a8-cf2d50ed1db8","system_id":"levelo_inurba_marseille","lat":43.31895,"lon":5.38641,"is_reserved":false,"is_disabled":false,"rental_uris":{"android":"levelo://app?vid=22e41778-51bb-4239-91a8-cf2d50ed1db8","ios":"levelo://app?vid=22e41778-51bb-4239-91a8-cf2d50ed1db8"},"vehicle_type_id":"4","last_reported":1722172104,"current_range_meters":28000,"station_id":"","pricing_plan_id":"cebpf4jnsgd1na2vs0mg"},{"bike_id":"77ebd6f7-0e15-4246-8feb-b1d720ac899a","system_id":"levelo_inurba_marseille","lat":43.30059,"lon":5.38222,"is_reserved":false,"is_disabled":false,"rental_uris":{"android":"levelo://app?vid=77ebd6f7-0e15-4246-8feb-b1d720ac899a","ios":"levelo://app?vid=77ebd6f7-0e15-4246-8feb-b1d720ac899a"},"vehicle_type_id":"4","last_reported":1722172104,"current_range_meters":15200,"station_id":"","pricing_plan_id":"cebpf4jnsgd1na2vs0mg"},{"bike_id":"7096ac2a-1c3c-4b88-b37f-e5a4264b4bec","system_id":"levelo_inurba_marseille","lat":43.29585,"lon":5.36756,"is_reserved":false,"is_disabled":false,"rental_uris":{"android":"levelo://app?vid=7096ac2a-1c3c-4b88-b37f-e5a4264b4bec","ios":"levelo://app?vid=7096ac2a-1c3c-4b88-b37f-e5a4264b4bec"},"vehicle_type_id":"4","last_reported":1722172104,"current_range_meters":0,"station_id":"ce4bgph2rcd13ifvqc2g","pricing_plan_id":"cebpf4jnsgd1na2vs0mg"},{"bike_id":"96368634-4923-4396-ab72-c6991536803e","system_id":"levelo_inurba_marseille","lat":43.296921,"lon":5.376579,"is_reserved":false,"is_disabled":false,"rental_uris":{"android":"levelo://app?vid=96368634-4923-4396-ab72-c6991536803e","ios":"levelo://app?vid=96368634-4923-4396-ab72-c6991536803e"},"vehicle_type_id":"4","last_reported":1722172104,"current_range_meters":31200,"station_id":"ce4bgkh2rcd13ifvqbl0","pricing_plan_id":"cebpf4jnsgd1na2vs0mg"},{"bike_id":"4496c404-3c32-4a6a-a8d4-fe28ae420eb9","system_id":"levelo_inurba_marseille","lat":43.317557,"lon":5.390173,"is_reserved":false,"is_disabled":false,"rental_uris":{"android":"levelo://app?vid=4496c404-3c32-4a6a-a8d4-fe28ae420eb9","ios":"levelo://app?vid=4496c404-3c32-4a6a-a8d4-fe28ae420eb9"},"vehicle_type_id":"4","last_reported":1722172104,"current_range_meters":31200,"station_id":"ce4bhqp2rcd13ifvqhng","pricing_plan_id":"cebpf4jnsgd1na2vs0mg"},{"bike_id":"5ec161cf-3f2c-419a-8ba0-907fa69c3c89","system_id":"levelo_inurba_marseille","lat":43.317492,"lon":5.390164,"is_reserved":false,"is_disabled":false,"rental_uris":{"android":"levelo://app?vid=5ec161cf-3f2c-419a-8ba0-907fa69c3c89","ios":"levelo://app?vid=5ec161cf-3f2c-419a-8ba0-907fa69c3c89"},"vehicle_type_id":"4","last_reported":1722172104,"current_range_meters":0,"station_id":"ce4bhqp2rcd13ifvqhng","pricing_plan_id":"cebpf4jnsgd1na2vs0mg"},{"bike_id":"ade024a8-b806-4c65-a0fe-6885f65cca88","system_id":"levelo_inurba_marseille","lat":43.317557,"lon":5.390173,"is_reserved":false,"is_disabled":false,"rental_uris":{"android":"levelo://app?vid=ade024a8-b806-4c65-a0fe-6885f65cca88","ios":"levelo://app?vid=ade024a8-b806-4c65-a0fe-6885f65cca88"},"vehicle_type_id":"4","last_reported":1722172104,"current_range_meters":5600,"station_id":"ce4bhqp2rcd13ifvqhng","pricing_plan_id":"cebpf4jnsgd1na2vs0mg"},{"bike_id":"2010eb1b-65a9-4cf3-908a-cc125582f68f","system_id":"levelo_inurba_marseille","lat":43.295748,"lon":5.37522,"is_reserved":false,"is_disabled":false,"rental_uris":{"android":"levelo://app?vid=2010eb1b-65a9-4cf3-908a-cc125582f68f","ios":"levelo://app?vid=2010eb1b-65a9-4cf3-908a-cc125582f68f"},"vehicle_type_id":"4","last_reported":1722172104,"current_range_meters":20000,"station_id":"ce4bgh92rcd13ifvqb50","pricing_plan_id":"cebpf4jnsgd1na2vs0mg"},{"bike_id":"9f8bb2e7-159d-4b7c-a72e-37f8781970ef","system_id":"levelo_inurba_marseille","lat":43.304274,"lon":5.388873,"is_reserved":false,"is_disabled":false,"rental_uris":{"android":"levelo://app?vid=9f8bb2e7-159d-4b7c-a72e-37f8781970ef","ios":"levelo://app?vid=9f8bb2e7-159d-4b7c-a72e-37f8781970ef"},"vehicle_type_id":"4","last_reported":1722172104,"current_range_meters":26800,"station_id":"ce4bgk12rcd13ifvqbi0","pricing_plan_id":"cebpf4jnsgd1na2vs0mg"},{"bike_id":"f6e3a6f0-3cbb-4169-8ca8-1a9d88ea804d","system_id":"levelo_inurba_marseille","lat":43.299717,"lon":5.384845,"is_reserved":false,"is_disabled":false,"rental_uris":{"android":"levelo://app?vid=f6e3a6f0-3cbb-4169-8ca8-1a9d88ea804d","ios":"levelo://app?vid=f6e3a6f0-3cbb-4169-8ca8-1a9d88ea804d"},"vehicle_type_id":"4","last_reported":1722172104,"current_range_meters":9200,"station_id":"ce4bgj92rcd13ifvqbd0","pricing_plan_id":"cebpf4jnsgd1na2vs0mg"},{"bike_id":"68a894e9-bc61-4eda-a767-3c1220d384cc","system_id":"levelo_inurba_marseille","lat":43.32367,"lon":5.388836,"is_reserved":false,"is_disabled":false,"rental_uris":{"android":"levelo://app?vid=68a894e9-bc61-4eda-a767-3c1220d384cc","ios":"levelo://app?vid=68a894e9-bc61-4eda-a767-3c1220d384cc"},"vehicle_type_id":"4","last_reported":1722172104,"current_range_meters":1200,"station_id":"ce4bhqp2rcd13ifvqhog","pricing_plan_id":"cebpf4jnsgd1na2vs0mg"},{"bike_id":"cdbe1876-0e42-411c-8372-cefef4b9b7f0","system_id":"levelo_inurba_marseille","lat":43.32367,"lon":5.388836,"is_reserved":false,"is_disabled":false,"rental_uris":{"android":"levelo://app?vid=cdbe1876-0e42-411c-8372-cefef4b9b7f0","ios":"levelo://app?vid=cdbe1876-0e42-411c-8372-cefef4b9b7f0"},"vehicle_type_id":"4","last_reported":1722172104,"current_range_meters":31200,"station_id":"ce4bhqp2rcd13ifvqhog","pricing_plan_id":"cebpf4jnsgd1na2vs0mg"},{"bike_id":"983242a0-6885-4750-9e47-ed4262c34342","system_id":"levelo_inurba_marseille","lat":43.32367,"lon":5.388836,"is_reserved":false,"is_disabled":false,"rental_uris":{"android":"levelo://app?vid=983242a0-6885-4750-9e47-ed4262c34342","ios":"levelo://app?vid=983242a0-6885-4750-9e47-ed4262c34342"},"vehicle_type_id":"4","last_reported":1722172104,"current_range_meters":22800,"station_id":"ce4bhqp2rcd13ifvqhog","pricing_plan_id":"cebpf4jnsgd1na2vs0mg"},{"bike_id":"6a60a62a-575f-4518-830c-e8e47c8b46dd","system_id":"levelo_inurba_marseille","lat":43.32367,"lon":5.388836,"is_reserved":false,"is_disabled":false,"rental_uris":{"android":"levelo://app?vid=6a60a62a-575f-4518-830c-e8e47c8b46dd","ios":"levelo://app?vid=6a60a62a-575f-4518-830c-e8e47c8b46dd"},"vehicle_type_id":"4","last_reported":1722172104,"current_range_meters":0,"station_id":"ce4bhqp2rcd13ifvqhog","pricing_plan_id":"cebpf4jnsgd1na2vs0mg"},{"bike_id":"fff9ce80-e3a6-4300-a750-f133cdb858c3","system_id":"levelo_inurba_marseille","lat":43.29351,"lon":5.37132,"is_reserved":false,"is_disabled":false,"rental_uris":{"android":"levelo://app?vid=fff9ce80-e3a6-4300-a750-f133cdb858c3","ios":"levelo://app?vid=fff9ce80-e3a6-4300-a750-f133cdb858c3"},"vehicle_type_id":"4","last_reported":1722172104,"current_range_meters":10800,"station_id":"","pricing_plan_id":"cebpf4jnsgd1na2vs0mg"},{"bike_id":"b499c446-af5d-4815-8f98-d80d21c3984f","system_id":"levelo_inurba_marseille","lat":43.305994,"lon":5.393687,"is_reserved":false,"is_disabled":false,"rental_uris":{"android":"levelo://app?vid=b499c446-af5d-4815-8f98-d80d21c3984f","ios":"levelo://app?vid=b499c446-af5d-4815-8f98-d80d21c3984f"},"vehicle_type_id":"4","last_reported":1722172104,"current_range_meters":9200,"station_id":"ce4bh0p2rcd13ifvqd80","pricing_plan_id":"cebpf4jnsgd1na2vs0mg"},{"bike_id":"16cf927b-9a58-4b7a-94ce-9f0e653d95ce","system_id":"levelo_inurba_marseille","lat":43.303002,"lon":5.392142,"is_reserved":false,"is_disabled":false,"rental_uris":{"android":"levelo://app?vid=16cf927b-9a58-4b7a-94ce-9f0e653d95ce","ios":"levelo://app?vid=16cf927b-9a58-4b7a-94ce-9f0e653d95ce"},"vehicle_type_id":"4","last_reported":1722172104,"current_range_meters":4000,"station_id":"ce4bgkh2rcd13ifvqbk0","pricing_plan_id":"cebpf4jnsgd1na2vs0mg"},{"bike_id":"cc85d6cf-2861-4c34-82cc-a40f62963120","system_id":"levelo_inurba_marseille","lat":43.2936,"lon":5.37835,"is_reserved":false,"is_disabled":false,"rental_uris":{"android":"levelo://app?vid=cc85d6cf-2861-4c34-82cc-a40f62963120","ios":"levelo://app?vid=cc85d6cf-2861-4c34-82cc-a40f62963120"},"vehicle_type_id":"4","last_reported":1722172104,"current_range_meters":8800,"station_id":"ce4bgjh2rcd13ifvqbf0","pricing_plan_id":"cebpf4jnsgd1na2vs0mg"},{"bike_id":"a3b05383-2fea-4b2c-b707-b2fe9a29a5e2","system_id":"levelo_inurba_marseille","lat":43.2936,"lon":5.37835,"is_reserved":false,"is_disabled":false,"rental_uris":{"android":"levelo://app?vid=a3b05383-2fea-4b2c-b707-b2fe9a29a5e2","ios":"levelo://app?vid=a3b05383-2fea-4b2c-b707-b2fe9a29a5e2"},"vehicle_type_id":"4","last_reported":1722172104,"current_range_meters":0,"station_id":"ce4bgjh2rcd13ifvqbf0","pricing_plan_id":"cebpf4jnsgd1na2vs0mg"},{"bike_id":"db0a2fb1-929e-4fd4-a521-3c2d6b3ecd74","system_id":"levelo_inurba_marseille","lat":43.292311,"lon":5.360731,"is_reserved":false,"is_disabled":false,"rental_uris":{"android":"levelo://app?vid=db0a2fb1-929e-4fd4-a521-3c2d6b3ecd74","ios":"levelo://app?vid=db0a2fb1-929e-4fd4-a521-3c2d6b3ecd74"},"vehicle_type_id":"4","last_reported":1722172104,"current_range_meters":26000,"station_id":"ce4bhbh2rcd13ifvqeqg","pricing_plan_id":"cebpf4jnsgd1na2vs0mg"},{"bike_id":"a792faa4-426a-448c-8a0d-816141e0451f","system_id":"levelo_inurba_marseille","lat":43.29222,"lon":5.36046,"is_reserved":false,"is_disabled":false,"rental_uris":{"android":"levelo://app?vid=a792faa4-426a-448c-8a0d-816141e0451f","ios":"levelo://app?vid=a792faa4-426a-448c-8a0d-816141e0451f"},"vehicle_type_id":"4","last_reported":1722172104,"current_range_meters":23600,"station_id":"ce4bhbh2rcd13ifvqeqg","pricing_plan_id":"cebpf4jnsgd1na2vs0mg"},{"bike_id":"61e53d14-4cb6-439e-a6b6-00b8933ce726","system_id":"levelo_inurba_marseille","lat":43.292311,"lon":5.360731,"is_reserved":false,"is_disabled":false,"rental_uris":{"android":"levelo://app?vid=61e53d14-4cb6-439e-a6b6-00b8933ce726","ios":"levelo://app?vid=61e53d14-4cb6-439e-a6b6-00b8933ce726"},"vehicle_type_id":"4","last_reported":1722172104,"current_range_meters":0,"station_id":"ce4bhbh2rcd13ifvqeqg","pricing_plan_id":"cebpf4jnsgd1na2vs0mg"},{"bike_id":"68852082-5108-4be4-abbc-0802f321c603","system_id":"levelo_inurba_marseille","lat":43.291994,"lon":5.357886,"is_reserved":false,"is_disabled":false,"rental_uris":{"android":"levelo://app?vid=68852082-5108-4be4-abbc-0802f321c603","ios":"levelo://app?vid=68852082-5108-4be4-abbc-0802f321c603"},"vehicle_type_id":"4","last_reported":1722172104,"current_range_meters":800,"station_id":"ce4bhb12rcd13ifvqel0","pricing_plan_id":"cebpf4jnsgd1na2vs0mg"},{"bike_id":"b27a82ad-a505-4b11-a89a-ee05cc727eaa","system_id":"levelo_inurba_marseille","lat":43.313318,"lon":5.39679,"is_reserved":false,"is_disabled":false,"rental_uris":{"android":"levelo://app?vid=b27a82ad-a505-4b11-a89a-ee05cc727eaa","ios":"levelo://app?vid=b27a82ad-a505-4b11-a89a-ee05cc727eaa"},"vehicle_type_id":"4","last_reported":1722172104,"current_range_meters":400,"station_id":"ce4bgvp2rcd13ifvqcu0","pricing_plan_id":"cebpf4jnsgd1na2vs0mg"},{"bike_id":"cecd89d4-5d33-4972-b3d2-c4be54a2feaa","system_id":"levelo_inurba_marseille","lat":43.29149,"lon":5.358876,"is_reserved":false,"is_disabled":false,"rental_uris":{"android":"levelo://app?vid=cecd89d4-5d33-4972-b3d2-c4be54a2feaa","ios":"levelo://app?vid=cecd89d4-5d33-4972-b3d2-c4be54a2feaa"},"vehicle_type_id":"4","last_reported":1722172104,"current_range_meters":1200,"station_id":"","pricing_plan_id":"cebpf4jnsgd1na2vs0mg"},{"bike_id":"51305610-32cb-4cf4-addf-f88127765b36","system_id":"levelo_inurba_marseille","lat":43.294162,"lon":5.386292,"is_reserved":false,"is_disabled":false,"rental_uris":{"android":"levelo://app?vid=51305610-32cb-4cf4-addf-f88127765b36","ios":"levelo://app?vid=51305610-32cb-4cf4-addf-f88127765b36"},"vehicle_type_id":"4","last_reported":1722172104,"current_range_meters":1600,"station_id":"ce4bh2h2rcd13ifvqdh0","pricing_plan_id":"cebpf4jnsgd1na2vs0mg"},{"bike_id":"ccd07dc2-9257-4526-8c68-8b8996a24ae3","system_id":"levelo_inurba_marseille","lat":43.289468,"lon":5.363719,"is_reserved":false,"is_disabled":false,"rental_uris":{"android":"levelo://app?vid=ccd07dc2-9257-4526-8c68-8b8996a24ae3","ios":"levelo://app?vid=ccd07dc2-9257-4526-8c68-8b8996a24ae3"},"vehicle_type_id":"4","last_reported":1722172104,"current_range_meters":8400,"station_id":"ce4bhc92rcd13ifvqetg","pricing_plan_id":"cebpf4jnsgd1na2vs0mg"},{"bike_id":"391d9a7c-1bfa-43f4-aca1-ff5cc329d9b9","system_id":"levelo_inurba_marseille","lat":43.289468,"lon":5.363719,"is_reserved":false,"is_disabled":false,"rental_uris":{"android":"levelo://app?vid=391d9a7c-1bfa-43f4-aca1-ff5cc329d9b9","ios":"levelo://app?vid=391d9a7c-1bfa-43f4-aca1-ff5cc329d9b9"},"vehicle_type_id":"4","last_reported":1722172104,"current_range_meters":9200,"station_id":"ce4bhc92rcd13ifvqetg","pricing_plan_id":"cebpf4jnsgd1na2vs0mg"},{"bike_id":"73c7cccf-244e-4ac0-a069-cccb5398f5e7","system_id":"levelo_inurba_marseille","lat":43.292644,"lon":5.384257,"is_reserved":false,"is_disabled":false,"rental_uris":{"android":"levelo://app?vid=73c7cccf-244e-4ac0-a069-cccb5398f5e7","ios":"levelo://app?vid=73c7cccf-244e-4ac0-a069-cccb5398f5e7"},"vehicle_type_id":"4","last_reported":1722172104,"current_range_meters":0,"station_id":"ce4bh692rcd13ifvqea0","pricing_plan_id":"cebpf4jnsgd1na2vs0mg"},{"bike_id":"cc7b227d-e48e-4c27-8973-53e7d7dc129a","system_id":"levelo_inurba_marseille","lat":43.29008,"lon":5.35617,"is_reserved":false,"is_disabled":false,"rental_uris":{"android":"levelo://app?vid=cc7b227d-e48e-4c27-8973-53e7d7dc129a","ios":"levelo://app?vid=cc7b227d-e48e-4c27-8973-53e7d7dc129a"},"vehicle_type_id":"4","last_reported":1722172104,"current_range_meters":17200,"station_id":"ce4bhb92rcd13ifvqen0","pricing_plan_id":"cebpf4jnsgd1na2vs0mg"},{"bike_id":"d00f5661-1001-4e28-a81a-a0542d60d04d","system_id":"levelo_inurba_marseille","lat":43.290104,"lon":5.356111,"is_reserved":false,"is_disabled":false,"rental_uris":{"android":"levelo://app?vid=d00f5661-1001-4e28-a81a-a0542d60d04d","ios":"levelo://app?vid=d00f5661-1001-4e28-a81a-a0542d60d04d"},"vehicle_type_id":"4","last_reported":1722172104,"current_range_meters":12800,"station_id":"ce4bhb92rcd13ifvqen0","pricing_plan_id":"cebpf4jnsgd1na2vs0mg"},{"bike_id":"b295bae0-edc7-4c95-a67c-325effda7a19","system_id":"levelo_inurba_marseille","lat":43.29016,"lon":5.35499,"is_reserved":false,"is_disabled":false,"rental_uris":{"android":"levelo://app?vid=b295bae0-edc7-4c95-a67c-325effda7a19","ios":"levelo://app?vid=b295bae0-edc7-4c95-a67c-325effda7a19"},"vehicle_type_id":"4","last_reported":1722172104,"current_range_meters":3200,"station_id":"","pricing_plan_id":"cebpf4jnsgd1na2vs0mg"},{"bike_id":"4bf291e3-3759-4c73-a5db-f99ef7278c19","system_id":"levelo_inurba_marseille","lat":43.330442,"lon":5.389148,"is_reserved":false,"is_disabled":false,"rental_uris":{"android":"levelo://app?vid=4bf291e3-3759-4c73-a5db-f99ef7278c19","ios":"levelo://app?vid=4bf291e3-3759-4c73-a5db-f99ef7278c19"},"vehicle_type_id":"4","last_reported":1722172104,"current_range_meters":10400,"station_id":"ce4bhr92rcd13ifvqhrg","pricing_plan_id":"cebpf4jnsgd1na2vs0mg"},{"bike_id":"f0df78a5-b50c-4261-85df-bdca09e11023","system_id":"levelo_inurba_marseille","lat":43.330442,"lon":5.389148,"is_reserved":false,"is_disabled":false,"rental_uris":{"android":"levelo://app?vid=f0df78a5-b50c-4261-85df-bdca09e11023","ios":"levelo://app?vid=f0df78a5-b50c-4261-85df-bdca09e11023"},"vehicle_type_id":"4","last_reported":1722172104,"current_range_meters":20800,"station_id":"ce4bhr92rcd13ifvqhrg","pricing_plan_id":"cebpf4jnsgd1na2vs0mg"},{"bike_id":"909fb947-55c0-4649-acac-596dbb4e1468","system_id":"levelo_inurba_marseille","lat":43.330442,"lon":5.389148,"is_reserved":false,"is_disabled":false,"rental_uris":{"android":"levelo://app?vid=909fb947-55c0-4649-acac-596dbb4e1468","ios":"levelo://app?vid=909fb947-55c0-4649-acac-596dbb4e1468"},"vehicle_type_id":"4","last_reported":1722172104,"current_range_meters":31600,"station_id":"ce4bhr92rcd13ifvqhrg","pricing_plan_id":"cebpf4jnsgd1na2vs0mg"},{"bike_id":"a0439e65-fd09-4e16-96a4-850f9e3fa4d8","system_id":"levelo_inurba_marseille","lat":43.330442,"lon":5.389148,"is_reserved":false,"is_disabled":false,"rental_uris":{"android":"levelo://app?vid=a0439e65-fd09-4e16-96a4-850f9e3fa4d8","ios":"levelo://app?vid=a0439e65-fd09-4e16-96a4-850f9e3fa4d8"},"vehicle_type_id":"4","last_reported":1722172104,"current_range_meters":3600,"station_id":"ce4bhr92rcd13ifvqhrg","pricing_plan_id":"cebpf4jnsgd1na2vs0mg"},{"bike_id":"e10c41d8-6908-42d4-ab91-7f26ca7cd2e2","system_id":"levelo_inurba_marseille","lat":43.31075,"lon":5.40097,"is_reserved":false,"is_disabled":false,"rental_uris":{"android":"levelo://app?vid=e10c41d8-6908-42d4-ab91-7f26ca7cd2e2","ios":"levelo://app?vid=e10c41d8-6908-42d4-ab91-7f26ca7cd2e2"},"vehicle_type_id":"4","last_reported":1722172104,"current_range_meters":0,"station_id":"","pricing_plan_id":"cebpf4jnsgd1na2vs0mg"},{"bike_id":"3e79250c-7764-488c-b465-61fd16d31170","system_id":"levelo_inurba_marseille","lat":43.33736,"lon":5.37477,"is_reserved":false,"is_disabled":false,"rental_uris":{"android":"levelo://app?vid=3e79250c-7764-488c-b465-61fd16d31170","ios":"levelo://app?vid=3e79250c-7764-488c-b465-61fd16d31170"},"vehicle_type_id":"4","last_reported":1722172104,"current_range_meters":25200,"station_id":"","pricing_plan_id":"cebpf4jnsgd1na2vs0mg"},{"bike_id":"6ff48f3c-927a-470d-a08e-7714539082f0","system_id":"levelo_inurba_marseille","lat":43.33739,"lon":5.37469,"is_reserved":false,"is_disabled":false,"rental_uris":{"android":"levelo://app?vid=6ff48f3c-927a-470d-a08e-7714539082f0","ios":"levelo://app?vid=6ff48f3c-927a-470d-a08e-7714539082f0"},"vehicle_type_id":"4","last_reported":1722172104,"current_range_meters":0,"station_id":"","pricing_plan_id":"cebpf4jnsgd1na2vs0mg"},{"bike_id":"20a7bf81-31fd-4cb5-b454-68d5314a31b8","system_id":"levelo_inurba_marseille","lat":43.337391,"lon":5.374701,"is_reserved":false,"is_disabled":false,"rental_uris":{"android":"levelo://app?vid=20a7bf81-31fd-4cb5-b454-68d5314a31b8","ios":"levelo://app?vid=20a7bf81-31fd-4cb5-b454-68d5314a31b8"},"vehicle_type_id":"4","last_reported":1722172104,"current_range_meters":27200,"station_id":"","pricing_plan_id":"cebpf4jnsgd1na2vs0mg"},{"bike_id":"e92bf1d5-b1ca-44cd-9b31-a0496082825d","system_id":"levelo_inurba_marseille","lat":43.33733,"lon":5.37507,"is_reserved":false,"is_disabled":false,"rental_uris":{"android":"levelo://app?vid=e92bf1d5-b1ca-44cd-9b31-a0496082825d","ios":"levelo://app?vid=e92bf1d5-b1ca-44cd-9b31-a0496082825d"},"vehicle_type_id":"4","last_reported":1722172104,"current_range_meters":25600,"station_id":"","pricing_plan_id":"cebpf4jnsgd1na2vs0mg"},{"bike_id":"f8e8dd66-c7d6-4bd0-91ac-ef4274ae24f3","system_id":"levelo_inurba_marseille","lat":43.337413,"lon":5.374673,"is_reserved":false,"is_disabled":false,"rental_uris":{"android":"levelo://app?vid=f8e8dd66-c7d6-4bd0-91ac-ef4274ae24f3","ios":"levelo://app?vid=f8e8dd66-c7d6-4bd0-91ac-ef4274ae24f3"},"vehicle_type_id":"4","last_reported":1722172104,"current_range_meters":16400,"station_id":"","pricing_plan_id":"cebpf4jnsgd1na2vs0mg"},{"bike_id":"0aa226e6-2195-431b-bdc4-34bf44420451","system_id":"levelo_inurba_marseille","lat":43.337467,"lon":5.374397,"is_reserved":false,"is_disabled":false,"rental_uris":{"android":"levelo://app?vid=0aa226e6-2195-431b-bdc4-34bf44420451","ios":"levelo://app?vid=0aa226e6-2195-431b-bdc4-34bf44420451"},"vehicle_type_id":"4","last_reported":1722172104,"current_range_meters":23200,"station_id":"","pricing_plan_id":"cebpf4jnsgd1na2vs0mg"},{"bike_id":"6cf0c176-f7c0-4e29-a014-f3a3b29e1d2a","system_id":"levelo_inurba_marseille","lat":43.337495,"lon":5.3744,"is_reserved":false,"is_disabled":false,"rental_uris":{"android":"levelo://app?vid=6cf0c176-f7c0-4e29-a014-f3a3b29e1d2a","ios":"levelo://app?vid=6cf0c176-f7c0-4e29-a014-f3a3b29e1d2a"},"vehicle_type_id":"4","last_reported":1722172104,"current_range_meters":24400,"station_id":"","pricing_plan_id":"cebpf4jnsgd1na2vs0mg"},{"bike_id":"28ff567c-281c-4a43-913e-e1206badf942","system_id":"levelo_inurba_marseille","lat":43.337458,"lon":5.374648,"is_reserved":false,"is_disabled":false,"rental_uris":{"android":"levelo://app?vid=28ff567c-281c-4a43-913e-e1206badf942","ios":"levelo://app?vid=28ff567c-281c-4a43-913e-e1206badf942"},"vehicle_type_id":"4","last_reported":1722172104,"current_range_meters":19200,"station_id":"","pricing_plan_id":"cebpf4jnsgd1na2vs0mg"},{"bike_id":"f0338c4f-2f14-449f-abf8-25e44f36ca55","system_id":"levelo_inurba_marseille","lat":43.337503,"lon":5.374507,"is_reserved":false,"is_disabled":false,"rental_uris":{"android":"levelo://app?vid=f0338c4f-2f14-449f-abf8-25e44f36ca55","ios":"levelo://app?vid=f0338c4f-2f14-449f-abf8-25e44f36ca55"},"vehicle_type_id":"4","last_reported":1722172104,"current_range_meters":26000,"station_id":"","pricing_plan_id":"cebpf4jnsgd1na2vs0mg"},{"bike_id":"ce2a281f-6b17-464e-8289-d463ea4cfa07","system_id":"levelo_inurba_marseille","lat":43.337553,"lon":5.374554,"is_reserved":false,"is_disabled":false,"rental_uris":{"android":"levelo://app?vid=ce2a281f-6b17-464e-8289-d463ea4cfa07","ios":"levelo://app?vid=ce2a281f-6b17-464e-8289-d463ea4cfa07"},"vehicle_type_id":"4","last_reported":1722172104,"current_range_meters":26000,"station_id":"","pricing_plan_id":"cebpf4jnsgd1na2vs0mg"},{"bike_id":"b1e78ebf-704c-4c4a-98e1-43f433446137","system_id":"levelo_inurba_marseille","lat":43.30653,"lon":5.40097,"is_reserved":false,"is_disabled":false,"rental_uris":{"android":"levelo://app?vid=b1e78ebf-704c-4c4a-98e1-43f433446137","ios":"levelo://app?vid=b1e78ebf-704c-4c4a-98e1-43f433446137"},"vehicle_type_id":"4","last_reported":1722172104,"current_range_meters":2800,"station_id":"ce4bh112rcd13ifvqda0","pricing_plan_id":"cebpf4jnsgd1na2vs0mg"},{"bike_id":"0ee30c8c-8ec9-4f04-90f6-18c7f479588b","system_id":"levelo_inurba_marseille","lat":43.301117,"lon":5.398795,"is_reserved":false,"is_disabled":false,"rental_uris":{"android":"levelo://app?vid=0ee30c8c-8ec9-4f04-90f6-18c7f479588b","ios":"levelo://app?vid=0ee30c8c-8ec9-4f04-90f6-18c7f479588b"},"vehicle_type_id":"4","last_reported":1722172104,"current_range_meters":17200,"station_id":"ce4bh0h2rcd13ifvqd40","pricing_plan_id":"cebpf4jnsgd1na2vs0mg"},{"bike_id":"eb86e4b2-3dd0-4b38-9bfd-1b427ff7b313","system_id":"levelo_inurba_marseille","lat":43.286961,"lon":5.373785,"is_reserved":false,"is_disabled":false,"rental_uris":{"android":"levelo://app?vid=eb86e4b2-3dd0-4b38-9bfd-1b427ff7b313","ios":"levelo://app?vid=eb86e4b2-3dd0-4b38-9bfd-1b427ff7b313"},"vehicle_type_id":"4","last_reported":1722172104,"current_range_meters":4000,"station_id":"ce4bh3p2rcd13ifvqdq0","pricing_plan_id":"cebpf4jnsgd1na2vs0mg"},{"bike_id":"8e267f33-ed2b-4e15-90e1-9059213a9bff","system_id":"levelo_inurba_marseille","lat":43.289307,"lon":5.38406,"is_reserved":false,"is_disabled":false,"rental_uris":{"android":"levelo://app?vid=8e267f33-ed2b-4e15-90e1-9059213a9bff","ios":"levelo://app?vid=8e267f33-ed2b-4e15-90e1-9059213a9bff"},"vehicle_type_id":"4","last_reported":1722172104,"current_range_meters":0,"station_id":"ce4bh612rcd13ifvqe6g","pricing_plan_id":"cebpf4jnsgd1na2vs0mg"},{"bike_id":"5c820e31-d6ab-4878-a194-5ba1c1cccc56","system_id":"levelo_inurba_marseille","lat":43.289307,"lon":5.38406,"is_reserved":false,"is_disabled":false,"rental_uris":{"android":"levelo://app?vid=5c820e31-d6ab-4878-a194-5ba1c1cccc56","ios":"levelo://app?vid=5c820e31-d6ab-4878-a194-5ba1c1cccc56"},"vehicle_type_id":"4","last_reported":1722172104,"current_range_meters":800,"station_id":"ce4bh612rcd13ifvqe6g","pricing_plan_id":"cebpf4jnsgd1na2vs0mg"},{"bike_id":"84bb5619-1d9f-43ec-b101-dda4ac1e967b","system_id":"levelo_inurba_marseille","lat":43.334551,"lon":5.390588,"is_reserved":false,"is_disabled":false,"rental_uris":{"android":"levelo://app?vid=84bb5619-1d9f-43ec-b101-dda4ac1e967b","ios":"levelo://app?vid=84bb5619-1d9f-43ec-b101-dda4ac1e967b"},"vehicle_type_id":"4","last_reported":1722172104,"current_range_meters":25200,"station_id":"","pricing_plan_id":"cebpf4jnsgd1na2vs0mg"},{"bike_id":"77d7b40f-9f3a-4407-b63a-e75bceffad82","system_id":"levelo_inurba_marseille","lat":43.316821,"lon":5.404737,"is_reserved":false,"is_disabled":false,"rental_uris":{"android":"levelo://app?vid=77d7b40f-9f3a-4407-b63a-e75bceffad82","ios":"levelo://app?vid=77d7b40f-9f3a-4407-b63a-e75bceffad82"},"vehicle_type_id":"4","last_reported":1722172104,"current_range_meters":6000,"station_id":"ce4bh012rcd13ifvqd00","pricing_plan_id":"cebpf4jnsgd1na2vs0mg"},{"bike_id":"ae7bd0ed-fcf4-45e0-a6d8-d3f286ea100a","system_id":"levelo_inurba_marseille","lat":43.284538,"lon":5.358657,"is_reserved":false,"is_disabled":false,"rental_uris":{"android":"levelo://app?vid=ae7bd0ed-fcf4-45e0-a6d8-d3f286ea100a","ios":"levelo://app?vid=ae7bd0ed-fcf4-45e0-a6d8-d3f286ea100a"},"vehicle_type_id":"4","last_reported":1722172104,"current_range_meters":22400,"station_id":"ce4bhah2rcd13ifvqei0","pricing_plan_id":"cebpf4jnsgd1na2vs0mg"},{"bike_id":"a2f8eb01-5e34-4bc8-ad90-6a861e983e04","system_id":"levelo_inurba_marseille","lat":43.284538,"lon":5.358657,"is_reserved":false,"is_disabled":false,"rental_uris":{"android":"levelo://app?vid=a2f8eb01-5e34-4bc8-ad90-6a861e983e04","ios":"levelo://app?vid=a2f8eb01-5e34-4bc8-ad90-6a861e983e04"},"vehicle_type_id":"4","last_reported":1722172104,"current_range_meters":20000,"station_id":"ce4bhah2rcd13ifvqei0","pricing_plan_id":"cebpf4jnsgd1na2vs0mg"},{"bike_id":"d8a3f262-cbb8-4348-a522-66c5cc5f4273","system_id":"levelo_inurba_marseille","lat":43.284538,"lon":5.358657,"is_reserved":false,"is_disabled":false,"rental_uris":{"android":"levelo://app?vid=d8a3f262-cbb8-4348-a522-66c5cc5f4273","ios":"levelo://app?vid=d8a3f262-cbb8-4348-a522-66c5cc5f4273"},"vehicle_type_id":"4","last_reported":1722172104,"current_range_meters":4400,"station_id":"ce4bhah2rcd13ifvqei0","pricing_plan_id":"cebpf4jnsgd1na2vs0mg"},{"bike_id":"55543480-eb04-4b86-8095-1b28c1e9e888","system_id":"levelo_inurba_marseille","lat":43.284538,"lon":5.358657,"is_reserved":false,"is_disabled":false,"rental_uris":{"android":"levelo://app?vid=55543480-eb04-4b86-8095-1b28c1e9e888","ios":"levelo://app?vid=55543480-eb04-4b86-8095-1b28c1e9e888"},"vehicle_type_id":"4","last_reported":1722172104,"current_range_meters":20400,"station_id":"ce4bhah2rcd13ifvqei0","pricing_plan_id":"cebpf4jnsgd1na2vs0mg"},{"bike_id":"fc99ce9b-be37-4256-992e-7b8b9e6267f3","system_id":"levelo_inurba_marseille","lat":43.284534,"lon":5.358662,"is_reserved":false,"is_disabled":false,"rental_uris":{"android":"levelo://app?vid=fc99ce9b-be37-4256-992e-7b8b9e6267f3","ios":"levelo://app?vid=fc99ce9b-be37-4256-992e-7b8b9e6267f3"},"vehicle_type_id":"4","last_reported":1722172104,"current_range_meters":28800,"station_id":"ce4bhah2rcd13ifvqei0","pricing_plan_id":"cebpf4jnsgd1na2vs0mg"},{"bike_id":"ca383815-d2d8-495c-aac0-279a23b97eee","system_id":"levelo_inurba_marseille","lat":43.294314,"lon":5.397498,"is_reserved":false,"is_disabled":false,"rental_uris":{"android":"levelo://app?vid=ca383815-d2d8-495c-aac0-279a23b97eee","ios":"levelo://app?vid=ca383815-d2d8-495c-aac0-279a23b97eee"},"vehicle_type_id":"4","last_reported":1722172104,"current_range_meters":0,"station_id":"ce4bh3h2rcd13ifvqdo0","pricing_plan_id":"cebpf4jnsgd1na2vs0mg"},{"bike_id":"bdb87c47-2d8e-45ef-90a9-c91912cee5d9","system_id":"levelo_inurba_marseille","lat":43.28618,"lon":5.35106,"is_reserved":false,"is_disabled":false,"rental_uris":{"android":"levelo://app?vid=bdb87c47-2d8e-45ef-90a9-c91912cee5d9","ios":"levelo://app?vid=bdb87c47-2d8e-45ef-90a9-c91912cee5d9"},"vehicle_type_id":"4","last_reported":1722172104,"current_range_meters":3600,"station_id":"ce4bhch2rcd13ifvqeug","pricing_plan_id":"cebpf4jnsgd1na2vs0mg"},{"bike_id":"4016a585-1706-4dfc-ad78-ca4e1c87d761","system_id":"levelo_inurba_marseille","lat":43.28618,"lon":5.35104,"is_reserved":false,"is_disabled":false,"rental_uris":{"android":"levelo://app?vid=4016a585-1706-4dfc-ad78-ca4e1c87d761","ios":"levelo://app?vid=4016a585-1706-4dfc-ad78-ca4e1c87d761"},"vehicle_type_id":"4","last_reported":1722172104,"current_range_meters":16000,"station_id":"ce4bhch2rcd13ifvqeug","pricing_plan_id":"cebpf4jnsgd1na2vs0mg"},{"bike_id":"bb710c1b-2ff2-415e-be34-c1fb5feb91bb","system_id":"levelo_inurba_marseille","lat":43.285856,"lon":5.350771,"is_reserved":false,"is_disabled":false,"rental_uris":{"android":"levelo://app?vid=bb710c1b-2ff2-415e-be34-c1fb5feb91bb","ios":"levelo://app?vid=bb710c1b-2ff2-415e-be34-c1fb5feb91bb"},"vehicle_type_id":"4","last_reported":1722172104,"current_range_meters":10400,"station_id":"ce4bhch2rcd13ifvqeug","pricing_plan_id":"cebpf4jnsgd1na2vs0mg"},{"bike_id":"fc413715-7d9d-4232-baa9-5f3cc708fcbc","system_id":"levelo_inurba_marseille","lat":43.286161,"lon":5.351073,"is_reserved":false,"is_disabled":false,"rental_uris":{"android":"levelo://app?vid=fc413715-7d9d-4232-baa9-5f3cc708fcbc","ios":"levelo://app?vid=fc413715-7d9d-4232-baa9-5f3cc708fcbc"},"vehicle_type_id":"4","last_reported":1722172104,"current_range_meters":0,"station_id":"","pricing_plan_id":"cebpf4jnsgd1na2vs0mg"},{"bike_id":"4236d5c5-f454-47b4-8383-446901ef84b5","system_id":"levelo_inurba_marseille","lat":43.28618,"lon":5.35101,"is_reserved":false,"is_disabled":false,"rental_uris":{"android":"levelo://app?vid=4236d5c5-f454-47b4-8383-446901ef84b5","ios":"levelo://app?vid=4236d5c5-f454-47b4-8383-446901ef84b5"},"vehicle_type_id":"4","last_reported":1722172104,"current_range_meters":19600,"station_id":"ce4bhch2rcd13ifvqeug","pricing_plan_id":"cebpf4jnsgd1na2vs0mg"},{"bike_id":"ec86c6e9-95ae-4718-8b4f-dd7ce1dfbfe4","system_id":"levelo_inurba_marseille","lat":43.28616,"lon":5.35105,"is_reserved":false,"is_disabled":false,"rental_uris":{"android":"levelo://app?vid=ec86c6e9-95ae-4718-8b4f-dd7ce1dfbfe4","ios":"levelo://app?vid=ec86c6e9-95ae-4718-8b4f-dd7ce1dfbfe4"},"vehicle_type_id":"4","last_reported":1722172104,"current_range_meters":6800,"station_id":"ce4bhch2rcd13ifvqeug","pricing_plan_id":"cebpf4jnsgd1na2vs0mg"},{"bike_id":"b4c3b0f3-971b-4d0a-8fa4-2948a2e34b7b","system_id":"levelo_inurba_marseille","lat":43.28615,"lon":5.35107,"is_reserved":false,"is_disabled":false,"rental_uris":{"android":"levelo://app?vid=b4c3b0f3-971b-4d0a-8fa4-2948a2e34b7b","ios":"levelo://app?vid=b4c3b0f3-971b-4d0a-8fa4-2948a2e34b7b"},"vehicle_type_id":"4","last_reported":1722172104,"current_range_meters":0,"station_id":"ce4bhch2rcd13ifvqeug","pricing_plan_id":"cebpf4jnsgd1na2vs0mg"},{"bike_id":"8e8af43b-eb7c-48e7-ab33-14ab35283800","system_id":"levelo_inurba_marseille","lat":43.28617,"lon":5.351,"is_reserved":false,"is_disabled":false,"rental_uris":{"android":"levelo://app?vid=8e8af43b-eb7c-48e7-ab33-14ab35283800","ios":"levelo://app?vid=8e8af43b-eb7c-48e7-ab33-14ab35283800"},"vehicle_type_id":"4","last_reported":1722172104,"current_range_meters":0,"station_id":"ce4bhch2rcd13ifvqeug","pricing_plan_id":"cebpf4jnsgd1na2vs0mg"},{"bike_id":"793ace89-2fbf-4a90-897a-ed826b28afe2","system_id":"levelo_inurba_marseille","lat":43.285848,"lon":5.350787,"is_reserved":false,"is_disabled":false,"rental_uris":{"android":"levelo://app?vid=793ace89-2fbf-4a90-897a-ed826b28afe2","ios":"levelo://app?vid=793ace89-2fbf-4a90-897a-ed826b28afe2"},"vehicle_type_id":"4","last_reported":1722172104,"current_range_meters":0,"station_id":"ce4bhch2rcd13ifvqeug","pricing_plan_id":"cebpf4jnsgd1na2vs0mg"},{"bike_id":"1435fa2f-e67d-40a2-a10e-75608c2de28b","system_id":"levelo_inurba_marseille","lat":43.28615,"lon":5.35103,"is_reserved":false,"is_disabled":false,"rental_uris":{"android":"levelo://app?vid=1435fa2f-e67d-40a2-a10e-75608c2de28b","ios":"levelo://app?vid=1435fa2f-e67d-40a2-a10e-75608c2de28b"},"vehicle_type_id":"4","last_reported":1722172104,"current_range_meters":27200,"station_id":"ce4bhch2rcd13ifvqeug","pricing_plan_id":"cebpf4jnsgd1na2vs0mg"},{"bike_id":"4cf11baa-eb76-44c9-83e9-2e5f14100d0b","system_id":"levelo_inurba_marseille","lat":43.285848,"lon":5.350787,"is_reserved":false,"is_disabled":false,"rental_uris":{"android":"levelo://app?vid=4cf11baa-eb76-44c9-83e9-2e5f14100d0b","ios":"levelo://app?vid=4cf11baa-eb76-44c9-83e9-2e5f14100d0b"},"vehicle_type_id":"4","last_reported":1722172104,"current_range_meters":22400,"station_id":"ce4bhch2rcd13ifvqeug","pricing_plan_id":"cebpf4jnsgd1na2vs0mg"},{"bike_id":"1d523919-ec2c-40df-902d-ccab4729d7d3","system_id":"levelo_inurba_marseille","lat":43.28615,"lon":5.351,"is_reserved":false,"is_disabled":false,"rental_uris":{"android":"levelo://app?vid=1d523919-ec2c-40df-902d-ccab4729d7d3","ios":"levelo://app?vid=1d523919-ec2c-40df-902d-ccab4729d7d3"},"vehicle_type_id":"4","last_reported":1722172104,"current_range_meters":13200,"station_id":"ce4bhch2rcd13ifvqeug","pricing_plan_id":"cebpf4jnsgd1na2vs0mg"},{"bike_id":"7c09103e-0e5d-482d-be68-b8ee242ba218","system_id":"levelo_inurba_marseille","lat":43.28613,"lon":5.35103,"is_reserved":false,"is_disabled":false,"rental_uris":{"android":"levelo://app?vid=7c09103e-0e5d-482d-be68-b8ee242ba218","ios":"levelo://app?vid=7c09103e-0e5d-482d-be68-b8ee242ba218"},"vehicle_type_id":"4","last_reported":1722172104,"current_range_meters":8000,"station_id":"ce4bhch2rcd13ifvqeug","pricing_plan_id":"cebpf4jnsgd1na2vs0mg"},{"bike_id":"4acef82f-8179-48fd-954b-c5c3be31d421","system_id":"levelo_inurba_marseille","lat":43.28615,"lon":5.35096,"is_reserved":false,"is_disabled":false,"rental_uris":{"android":"levelo://app?vid=4acef82f-8179-48fd-954b-c5c3be31d421","ios":"levelo://app?vid=4acef82f-8179-48fd-954b-c5c3be31d421"},"vehicle_type_id":"4","last_reported":1722172104,"current_range_meters":29600,"station_id":"ce4bhch2rcd13ifvqeug","pricing_plan_id":"cebpf4jnsgd1na2vs0mg"},{"bike_id":"184f59fc-cff5-45ce-9622-4084aa7f68ab","system_id":"levelo_inurba_marseille","lat":43.28613,"lon":5.351,"is_reserved":false,"is_disabled":false,"rental_uris":{"android":"levelo://app?vid=184f59fc-cff5-45ce-9622-4084aa7f68ab","ios":"levelo://app?vid=184f59fc-cff5-45ce-9622-4084aa7f68ab"},"vehicle_type_id":"4","last_reported":1722172104,"current_range_meters":22800,"station_id":"ce4bhch2rcd13ifvqeug","pricing_plan_id":"cebpf4jnsgd1na2vs0mg"},{"bike_id":"fec3a184-2b2f-455b-a5cd-c6b86c2077be","system_id":"levelo_inurba_marseille","lat":43.2861,"lon":5.35105,"is_reserved":false,"is_disabled":false,"rental_uris":{"android":"levelo://app?vid=fec3a184-2b2f-455b-a5cd-c6b86c2077be","ios":"levelo://app?vid=fec3a184-2b2f-455b-a5cd-c6b86c2077be"},"vehicle_type_id":"4","last_reported":1722172104,"current_range_meters":25200,"station_id":"ce4bhch2rcd13ifvqeug","pricing_plan_id":"cebpf4jnsgd1na2vs0mg"},{"bike_id":"28d44d6e-59c1-4352-ac37-50c0a8492a30","system_id":"levelo_inurba_marseille","lat":43.285856,"lon":5.350771,"is_reserved":false,"is_disabled":false,"rental_uris":{"android":"levelo://app?vid=28d44d6e-59c1-4352-ac37-50c0a8492a30","ios":"levelo://app?vid=28d44d6e-59c1-4352-ac37-50c0a8492a30"},"vehicle_type_id":"4","last_reported":1722172104,"current_range_meters":18000,"station_id":"ce4bhch2rcd13ifvqeug","pricing_plan_id":"cebpf4jnsgd1na2vs0mg"},{"bike_id":"94521bc0-0451-49b5-8263-3e146be05b41","system_id":"levelo_inurba_marseille","lat":43.2861,"lon":5.351,"is_reserved":false,"is_disabled":false,"rental_uris":{"android":"levelo://app?vid=94521bc0-0451-49b5-8263-3e146be05b41","ios":"levelo://app?vid=94521bc0-0451-49b5-8263-3e146be05b41"},"vehicle_type_id":"4","last_reported":1722172104,"current_range_meters":18000,"station_id":"ce4bhch2rcd13ifvqeug","pricing_plan_id":"cebpf4jnsgd1na2vs0mg"},{"bike_id":"fa958f03-0bf7-435e-a875-d6e1b3be7f7e","system_id":"levelo_inurba_marseille","lat":43.2868,"lon":5.38652,"is_reserved":false,"is_disabled":false,"rental_uris":{"android":"levelo://app?vid=fa958f03-0bf7-435e-a875-d6e1b3be7f7e","ios":"levelo://app?vid=fa958f03-0bf7-435e-a875-d6e1b3be7f7e"},"vehicle_type_id":"4","last_reported":1722172104,"current_range_meters":0,"station_id":"ce4bh492rcd13ifvqdug","pricing_plan_id":"cebpf4jnsgd1na2vs0mg"},{"bike_id":"c3bf2ba3-ad39-45ea-91bf-63b852a99062","system_id":"levelo_inurba_marseille","lat":43.28674,"lon":5.38659,"is_reserved":false,"is_disabled":false,"rental_uris":{"android":"levelo://app?vid=c3bf2ba3-ad39-45ea-91bf-63b852a99062","ios":"levelo://app?vid=c3bf2ba3-ad39-45ea-91bf-63b852a99062"},"vehicle_type_id":"4","last_reported":1722172104,"current_range_meters":0,"station_id":"ce4bh492rcd13ifvqdug","pricing_plan_id":"cebpf4jnsgd1na2vs0mg"},{"bike_id":"dfc993be-216e-470c-a02a-8547c3a7f00b","system_id":"levelo_inurba_marseille","lat":43.319179,"lon":5.407725,"is_reserved":false,"is_disabled":false,"rental_uris":{"android":"levelo://app?vid=dfc993be-216e-470c-a02a-8547c3a7f00b","ios":"levelo://app?vid=dfc993be-216e-470c-a02a-8547c3a7f00b"},"vehicle_type_id":"4","last_reported":1722172104,"current_range_meters":31200,"station_id":"ce4bhq12rcd13ifvqhig","pricing_plan_id":"cebpf4jnsgd1na2vs0mg"},{"bike_id":"228c4b4e-bd25-4727-8075-759a3cf801c7","system_id":"levelo_inurba_marseille","lat":43.319179,"lon":5.407725,"is_reserved":false,"is_disabled":false,"rental_uris":{"android":"levelo://app?vid=228c4b4e-bd25-4727-8075-759a3cf801c7","ios":"levelo://app?vid=228c4b4e-bd25-4727-8075-759a3cf801c7"},"vehicle_type_id":"4","last_reported":1722172104,"current_range_meters":28800,"station_id":"ce4bhq12rcd13ifvqhig","pricing_plan_id":"cebpf4jnsgd1na2vs0mg"},{"bike_id":"b6fad994-a7b8-4b1d-858c-55b8d0701828","system_id":"levelo_inurba_marseille","lat":43.319179,"lon":5.407725,"is_reserved":false,"is_disabled":false,"rental_uris":{"android":"levelo://app?vid=b6fad994-a7b8-4b1d-858c-55b8d0701828","ios":"levelo://app?vid=b6fad994-a7b8-4b1d-858c-55b8d0701828"},"vehicle_type_id":"4","last_reported":1722172104,"current_range_meters":31600,"station_id":"ce4bhq12rcd13ifvqhig","pricing_plan_id":"cebpf4jnsgd1na2vs0mg"},{"bike_id":"c2353a70-f133-443c-aa1c-852598059b05","system_id":"levelo_inurba_marseille","lat":43.319179,"lon":5.407725,"is_reserved":false,"is_disabled":false,"rental_uris":{"android":"levelo://app?vid=c2353a70-f133-443c-aa1c-852598059b05","ios":"levelo://app?vid=c2353a70-f133-443c-aa1c-852598059b05"},"vehicle_type_id":"4","last_reported":1722172104,"current_range_meters":14400,"station_id":"ce4bhq12rcd13ifvqhig","pricing_plan_id":"cebpf4jnsgd1na2vs0mg"},{"bike_id":"ef5ea76f-525e-4895-ae65-b9eba8f3b44d","system_id":"levelo_inurba_marseille","lat":43.28894,"lon":5.39242,"is_reserved":false,"is_disabled":false,"rental_uris":{"android":"levelo://app?vid=ef5ea76f-525e-4895-ae65-b9eba8f3b44d","ios":"levelo://app?vid=ef5ea76f-525e-4895-ae65-b9eba8f3b44d"},"vehicle_type_id":"4","last_reported":1722172104,"current_range_meters":0,"station_id":"","pricing_plan_id":"cebpf4jnsgd1na2vs0mg"},{"bike_id":"0b5d71cd-9849-4000-a489-b0b46962edad","system_id":"levelo_inurba_marseille","lat":43.323464,"lon":5.406297,"is_reserved":false,"is_disabled":false,"rental_uris":{"android":"levelo://app?vid=0b5d71cd-9849-4000-a489-b0b46962edad","ios":"levelo://app?vid=0b5d71cd-9849-4000-a489-b0b46962edad"},"vehicle_type_id":"4","last_reported":1722172104,"current_range_meters":31200,"station_id":"ce4bhq92rcd13ifvqhjg","pricing_plan_id":"cebpf4jnsgd1na2vs0mg"},{"bike_id":"a750ba14-bb79-4daf-909f-6d7f063560f2","system_id":"levelo_inurba_marseille","lat":43.323464,"lon":5.406297,"is_reserved":false,"is_disabled":false,"rental_uris":{"android":"levelo://app?vid=a750ba14-bb79-4daf-909f-6d7f063560f2","ios":"levelo://app?vid=a750ba14-bb79-4daf-909f-6d7f063560f2"},"vehicle_type_id":"4","last_reported":1722172104,"current_range_meters":13600,"station_id":"ce4bhq92rcd13ifvqhjg","pricing_plan_id":"cebpf4jnsgd1na2vs0mg"},{"bike_id":"e9814d99-d1a3-4363-9963-378ca5e26107","system_id":"levelo_inurba_marseille","lat":43.32335,"lon":5.4062,"is_reserved":false,"is_disabled":false,"rental_uris":{"android":"levelo://app?vid=e9814d99-d1a3-4363-9963-378ca5e26107","ios":"levelo://app?vid=e9814d99-d1a3-4363-9963-378ca5e26107"},"vehicle_type_id":"4","last_reported":1722172104,"current_range_meters":0,"station_id":"ce4bhq92rcd13ifvqhjg","pricing_plan_id":"cebpf4jnsgd1na2vs0mg"},{"bike_id":"ecf71df3-d273-4793-80bf-7c8bebd042c8","system_id":"levelo_inurba_marseille","lat":43.337168,"lon":5.391825,"is_reserved":false,"is_disabled":false,"rental_uris":{"android":"levelo://app?vid=ecf71df3-d273-4793-80bf-7c8bebd042c8","ios":"levelo://app?vid=ecf71df3-d273-4793-80bf-7c8bebd042c8"},"vehicle_type_id":"4","last_reported":1722172104,"current_range_meters":28000,"station_id":"ce4bhr92rcd13ifvqhsg","pricing_plan_id":"cebpf4jnsgd1na2vs0mg"},{"bike_id":"3439f520-7411-4a89-bbd2-a2c4b4d4923d","system_id":"levelo_inurba_marseille","lat":43.337168,"lon":5.391825,"is_reserved":false,"is_disabled":false,"rental_uris":{"android":"levelo://app?vid=3439f520-7411-4a89-bbd2-a2c4b4d4923d","ios":"levelo://app?vid=3439f520-7411-4a89-bbd2-a2c4b4d4923d"},"vehicle_type_id":"4","last_reported":1722172104,"current_range_meters":31200,"station_id":"ce4bhr92rcd13ifvqhsg","pricing_plan_id":"cebpf4jnsgd1na2vs0mg"},{"bike_id":"0f1c922d-23b4-4a9f-96d6-c2e2525aa5d8","system_id":"levelo_inurba_marseille","lat":43.323464,"lon":5.406297,"is_reserved":false,"is_disabled":false,"rental_uris":{"android":"levelo://app?vid=0f1c922d-23b4-4a9f-96d6-c2e2525aa5d8","ios":"levelo://app?vid=0f1c922d-23b4-4a9f-96d6-c2e2525aa5d8"},"vehicle_type_id":"4","last_reported":1722172104,"current_range_meters":28800,"station_id":"ce4bhq92rcd13ifvqhjg","pricing_plan_id":"cebpf4jnsgd1na2vs0mg"},{"bike_id":"ce14b8aa-109e-4450-98f5-a7a4732761cd","system_id":"levelo_inurba_marseille","lat":43.284793,"lon":5.384113,"is_reserved":false,"is_disabled":false,"rental_uris":{"android":"levelo://app?vid=ce14b8aa-109e-4450-98f5-a7a4732761cd","ios":"levelo://app?vid=ce14b8aa-109e-4450-98f5-a7a4732761cd"},"vehicle_type_id":"4","last_reported":1722172104,"current_range_meters":800,"station_id":"ce4bh512rcd13ifvqe3g","pricing_plan_id":"cebpf4jnsgd1na2vs0mg"},{"bike_id":"9795018c-b75e-4797-b655-c036ff847c2e","system_id":"levelo_inurba_marseille","lat":43.28423,"lon":5.35,"is_reserved":false,"is_disabled":false,"rental_uris":{"android":"levelo://app?vid=9795018c-b75e-4797-b655-c036ff847c2e","ios":"levelo://app?vid=9795018c-b75e-4797-b655-c036ff847c2e"},"vehicle_type_id":"4","last_reported":1722172104,"current_range_meters":31200,"station_id":"ce4bhbh2rcd13ifvqepg","pricing_plan_id":"cebpf4jnsgd1na2vs0mg"},{"bike_id":"e5c0d479-3048-46dd-9854-1f599cef54d8","system_id":"levelo_inurba_marseille","lat":43.284219,"lon":5.3497,"is_reserved":false,"is_disabled":false,"rental_uris":{"android":"levelo://app?vid=e5c0d479-3048-46dd-9854-1f599cef54d8","ios":"levelo://app?vid=e5c0d479-3048-46dd-9854-1f599cef54d8"},"vehicle_type_id":"4","last_reported":1722172104,"current_range_meters":31200,"station_id":"ce4bhbh2rcd13ifvqepg","pricing_plan_id":"cebpf4jnsgd1na2vs0mg"},{"bike_id":"9ff67a7c-9361-4d81-9f3f-80d79ee8cbc4","system_id":"levelo_inurba_marseille","lat":43.28422,"lon":5.34999,"is_reserved":false,"is_disabled":false,"rental_uris":{"android":"levelo://app?vid=9ff67a7c-9361-4d81-9f3f-80d79ee8cbc4","ios":"levelo://app?vid=9ff67a7c-9361-4d81-9f3f-80d79ee8cbc4"},"vehicle_type_id":"4","last_reported":1722172104,"current_range_meters":2000,"station_id":"ce4bhbh2rcd13ifvqepg","pricing_plan_id":"cebpf4jnsgd1na2vs0mg"},{"bike_id":"fcc3f00e-2ee9-4eb1-ab3f-113f0460f136","system_id":"levelo_inurba_marseille","lat":43.284219,"lon":5.3497,"is_reserved":false,"is_disabled":false,"rental_uris":{"android":"levelo://app?vid=fcc3f00e-2ee9-4eb1-ab3f-113f0460f136","ios":"levelo://app?vid=fcc3f00e-2ee9-4eb1-ab3f-113f0460f136"},"vehicle_type_id":"4","last_reported":1722172104,"current_range_meters":800,"station_id":"ce4bhbh2rcd13ifvqepg","pricing_plan_id":"cebpf4jnsgd1na2vs0mg"},{"bike_id":"5ac6faba-d43f-46a1-a00b-7eff25b788c1","system_id":"levelo_inurba_marseille","lat":43.284219,"lon":5.3497,"is_reserved":false,"is_disabled":false,"rental_uris":{"android":"levelo://app?vid=5ac6faba-d43f-46a1-a00b-7eff25b788c1","ios":"levelo://app?vid=5ac6faba-d43f-46a1-a00b-7eff25b788c1"},"vehicle_type_id":"4","last_reported":1722172104,"current_range_meters":13200,"station_id":"ce4bhbh2rcd13ifvqepg","pricing_plan_id":"cebpf4jnsgd1na2vs0mg"},{"bike_id":"06bd86d5-a9e6-4a16-b30c-33b3e03e7654","system_id":"levelo_inurba_marseille","lat":43.284219,"lon":5.3497,"is_reserved":false,"is_disabled":false,"rental_uris":{"android":"levelo://app?vid=06bd86d5-a9e6-4a16-b30c-33b3e03e7654","ios":"levelo://app?vid=06bd86d5-a9e6-4a16-b30c-33b3e03e7654"},"vehicle_type_id":"4","last_reported":1722172104,"current_range_meters":23200,"station_id":"ce4bhbh2rcd13ifvqepg","pricing_plan_id":"cebpf4jnsgd1na2vs0mg"},{"bike_id":"b64b604c-1021-40da-8192-b8dba37f157c","system_id":"levelo_inurba_marseille","lat":43.28419,"lon":5.34994,"is_reserved":false,"is_disabled":false,"rental_uris":{"android":"levelo://app?vid=b64b604c-1021-40da-8192-b8dba37f157c","ios":"levelo://app?vid=b64b604c-1021-40da-8192-b8dba37f157c"},"vehicle_type_id":"4","last_reported":1722172104,"current_range_meters":21600,"station_id":"ce4bhbh2rcd13ifvqepg","pricing_plan_id":"cebpf4jnsgd1na2vs0mg"},{"bike_id":"c79c3a3c-1798-416b-b08a-ce321ad222fe","system_id":"levelo_inurba_marseille","lat":43.284219,"lon":5.3497,"is_reserved":false,"is_disabled":false,"rental_uris":{"android":"levelo://app?vid=c79c3a3c-1798-416b-b08a-ce321ad222fe","ios":"levelo://app?vid=c79c3a3c-1798-416b-b08a-ce321ad222fe"},"vehicle_type_id":"4","last_reported":1722172104,"current_range_meters":1200,"station_id":"ce4bhbh2rcd13ifvqepg","pricing_plan_id":"cebpf4jnsgd1na2vs0mg"},{"bike_id":"286e2cd1-9912-4a1f-8197-09ac7f8495a0","system_id":"levelo_inurba_marseille","lat":43.284219,"lon":5.3497,"is_reserved":false,"is_disabled":false,"rental_uris":{"android":"levelo://app?vid=286e2cd1-9912-4a1f-8197-09ac7f8495a0","ios":"levelo://app?vid=286e2cd1-9912-4a1f-8197-09ac7f8495a0"},"vehicle_type_id":"4","last_reported":1722172104,"current_range_meters":15600,"station_id":"ce4bhbh2rcd13ifvqepg","pricing_plan_id":"cebpf4jnsgd1na2vs0mg"},{"bike_id":"7002c7f3-d737-47b1-ba14-e92661b02a2e","system_id":"levelo_inurba_marseille","lat":43.284219,"lon":5.3497,"is_reserved":false,"is_disabled":false,"rental_uris":{"android":"levelo://app?vid=7002c7f3-d737-47b1-ba14-e92661b02a2e","ios":"levelo://app?vid=7002c7f3-d737-47b1-ba14-e92661b02a2e"},"vehicle_type_id":"4","last_reported":1722172104,"current_range_meters":17200,"station_id":"ce4bhbh2rcd13ifvqepg","pricing_plan_id":"cebpf4jnsgd1na2vs0mg"},{"bike_id":"98235f87-4b6a-498c-9724-cf52915d30d3","system_id":"levelo_inurba_marseille","lat":43.284187,"lon":5.349913,"is_reserved":false,"is_disabled":false,"rental_uris":{"android":"levelo://app?vid=98235f87-4b6a-498c-9724-cf52915d30d3","ios":"levelo://app?vid=98235f87-4b6a-498c-9724-cf52915d30d3"},"vehicle_type_id":"4","last_reported":1722172104,"current_range_meters":3200,"station_id":"ce4bhbh2rcd13ifvqepg","pricing_plan_id":"cebpf4jnsgd1na2vs0mg"},{"bike_id":"0ea0d51e-4fd4-4e22-8cb2-bc92e79ee6ff","system_id":"levelo_inurba_marseille","lat":43.28416,"lon":5.34997,"is_reserved":false,"is_disabled":false,"rental_uris":{"android":"levelo://app?vid=0ea0d51e-4fd4-4e22-8cb2-bc92e79ee6ff","ios":"levelo://app?vid=0ea0d51e-4fd4-4e22-8cb2-bc92e79ee6ff"},"vehicle_type_id":"4","last_reported":1722172104,"current_range_meters":16800,"station_id":"ce4bhbh2rcd13ifvqepg","pricing_plan_id":"cebpf4jnsgd1na2vs0mg"},{"bike_id":"915ce34c-76d6-45e2-963e-ea7e65af58ba","system_id":"levelo_inurba_marseille","lat":43.284219,"lon":5.3497,"is_reserved":false,"is_disabled":false,"rental_uris":{"android":"levelo://app?vid=915ce34c-76d6-45e2-963e-ea7e65af58ba","ios":"levelo://app?vid=915ce34c-76d6-45e2-963e-ea7e65af58ba"},"vehicle_type_id":"4","last_reported":1722172104,"current_range_meters":21200,"station_id":"ce4bhbh2rcd13ifvqepg","pricing_plan_id":"cebpf4jnsgd1na2vs0mg"},{"bike_id":"595893ca-341b-46e4-afb9-7d49bc8da4a5","system_id":"levelo_inurba_marseille","lat":43.284169,"lon":5.349883,"is_reserved":false,"is_disabled":false,"rental_uris":{"android":"levelo://app?vid=595893ca-341b-46e4-afb9-7d49bc8da4a5","ios":"levelo://app?vid=595893ca-341b-46e4-afb9-7d49bc8da4a5"},"vehicle_type_id":"4","last_reported":1722172104,"current_range_meters":23600,"station_id":"ce4bhbh2rcd13ifvqepg","pricing_plan_id":"cebpf4jnsgd1na2vs0mg"},{"bike_id":"91080e46-6f22-4e0b-97c9-ba9ba49a512a","system_id":"levelo_inurba_marseille","lat":43.284219,"lon":5.3497,"is_reserved":false,"is_disabled":false,"rental_uris":{"android":"levelo://app?vid=91080e46-6f22-4e0b-97c9-ba9ba49a512a","ios":"levelo://app?vid=91080e46-6f22-4e0b-97c9-ba9ba49a512a"},"vehicle_type_id":"4","last_reported":1722172104,"current_range_meters":18800,"station_id":"ce4bhbh2rcd13ifvqepg","pricing_plan_id":"cebpf4jnsgd1na2vs0mg"},{"bike_id":"1cab26bf-9771-4a67-8fa6-441a4eee3ebd","system_id":"levelo_inurba_marseille","lat":43.284219,"lon":5.3497,"is_reserved":false,"is_disabled":false,"rental_uris":{"android":"levelo://app?vid=1cab26bf-9771-4a67-8fa6-441a4eee3ebd","ios":"levelo://app?vid=1cab26bf-9771-4a67-8fa6-441a4eee3ebd"},"vehicle_type_id":"4","last_reported":1722172104,"current_range_meters":13600,"station_id":"ce4bhbh2rcd13ifvqepg","pricing_plan_id":"cebpf4jnsgd1na2vs0mg"},{"bike_id":"c30a0bd6-432a-4179-8c30-bf2700ba18a1","system_id":"levelo_inurba_marseille","lat":43.28411,"lon":5.34995,"is_reserved":false,"is_disabled":false,"rental_uris":{"android":"levelo://app?vid=c30a0bd6-432a-4179-8c30-bf2700ba18a1","ios":"levelo://app?vid=c30a0bd6-432a-4179-8c30-bf2700ba18a1"},"vehicle_type_id":"4","last_reported":1722172104,"current_range_meters":26400,"station_id":"ce4bhbh2rcd13ifvqepg","pricing_plan_id":"cebpf4jnsgd1na2vs0mg"},{"bike_id":"f8d1fcdd-3ac5-4f15-becb-8316d463c5ed","system_id":"levelo_inurba_marseille","lat":43.284217,"lon":5.349697,"is_reserved":false,"is_disabled":false,"rental_uris":{"android":"levelo://app?vid=f8d1fcdd-3ac5-4f15-becb-8316d463c5ed","ios":"levelo://app?vid=f8d1fcdd-3ac5-4f15-becb-8316d463c5ed"},"vehicle_type_id":"4","last_reported":1722172104,"current_range_meters":12000,"station_id":"ce4bhbh2rcd13ifvqepg","pricing_plan_id":"cebpf4jnsgd1na2vs0mg"},{"bike_id":"5bcccf47-68e2-4114-8dcb-586ed3ab51ab","system_id":"levelo_inurba_marseille","lat":43.284219,"lon":5.3497,"is_reserved":false,"is_disabled":false,"rental_uris":{"android":"levelo://app?vid=5bcccf47-68e2-4114-8dcb-586ed3ab51ab","ios":"levelo://app?vid=5bcccf47-68e2-4114-8dcb-586ed3ab51ab"},"vehicle_type_id":"4","last_reported":1722172104,"current_range_meters":9600,"station_id":"ce4bhbh2rcd13ifvqepg","pricing_plan_id":"cebpf4jnsgd1na2vs0mg"},{"bike_id":"43c035fa-ebad-43ae-b6cc-7857b3b8dd7f","system_id":"levelo_inurba_marseille","lat":43.28413,"lon":5.34986,"is_reserved":false,"is_disabled":false,"rental_uris":{"android":"levelo://app?vid=43c035fa-ebad-43ae-b6cc-7857b3b8dd7f","ios":"levelo://app?vid=43c035fa-ebad-43ae-b6cc-7857b3b8dd7f"},"vehicle_type_id":"4","last_reported":1722172104,"current_range_meters":22000,"station_id":"ce4bhbh2rcd13ifvqepg","pricing_plan_id":"cebpf4jnsgd1na2vs0mg"},{"bike_id":"8664ef68-bf7b-4b6b-9590-384cfbb6d5df","system_id":"levelo_inurba_marseille","lat":43.284219,"lon":5.3497,"is_reserved":false,"is_disabled":false,"rental_uris":{"android":"levelo://app?vid=8664ef68-bf7b-4b6b-9590-384cfbb6d5df","ios":"levelo://app?vid=8664ef68-bf7b-4b6b-9590-384cfbb6d5df"},"vehicle_type_id":"4","last_reported":1722172104,"current_range_meters":0,"station_id":"ce4bhbh2rcd13ifvqepg","pricing_plan_id":"cebpf4jnsgd1na2vs0mg"},{"bike_id":"109fcc8c-2a0c-4088-9e56-fa6fb9478109","system_id":"levelo_inurba_marseille","lat":43.28413,"lon":5.34982,"is_reserved":false,"is_disabled":false,"rental_uris":{"android":"levelo://app?vid=109fcc8c-2a0c-4088-9e56-fa6fb9478109","ios":"levelo://app?vid=109fcc8c-2a0c-4088-9e56-fa6fb9478109"},"vehicle_type_id":"4","last_reported":1722172104,"current_range_meters":24800,"station_id":"ce4bhbh2rcd13ifvqepg","pricing_plan_id":"cebpf4jnsgd1na2vs0mg"},{"bike_id":"df5bed49-94c9-4e44-9e5f-e2bac932bf93","system_id":"levelo_inurba_marseille","lat":43.28411,"lon":5.34986,"is_reserved":false,"is_disabled":false,"rental_uris":{"android":"levelo://app?vid=df5bed49-94c9-4e44-9e5f-e2bac932bf93","ios":"levelo://app?vid=df5bed49-94c9-4e44-9e5f-e2bac932bf93"},"vehicle_type_id":"4","last_reported":1722172104,"current_range_meters":20400,"station_id":"ce4bhbh2rcd13ifvqepg","pricing_plan_id":"cebpf4jnsgd1na2vs0mg"},{"bike_id":"65208ef2-ef29-4b00-9485-ad8951d2da99","system_id":"levelo_inurba_marseille","lat":43.28413,"lon":5.34977,"is_reserved":false,"is_disabled":false,"rental_uris":{"android":"levelo://app?vid=65208ef2-ef29-4b00-9485-ad8951d2da99","ios":"levelo://app?vid=65208ef2-ef29-4b00-9485-ad8951d2da99"},"vehicle_type_id":"4","last_reported":1722172104,"current_range_meters":13200,"station_id":"ce4bhbh2rcd13ifvqepg","pricing_plan_id":"cebpf4jnsgd1na2vs0mg"},{"bike_id":"436f6a65-c7c0-46ce-abc3-49683121e043","system_id":"levelo_inurba_marseille","lat":43.284097,"lon":5.349853,"is_reserved":false,"is_disabled":false,"rental_uris":{"android":"levelo://app?vid=436f6a65-c7c0-46ce-abc3-49683121e043","ios":"levelo://app?vid=436f6a65-c7c0-46ce-abc3-49683121e043"},"vehicle_type_id":"4","last_reported":1722172104,"current_range_meters":15600,"station_id":"ce4bhbh2rcd13ifvqepg","pricing_plan_id":"cebpf4jnsgd1na2vs0mg"},{"bike_id":"22652bd1-43e7-4f3b-8639-5b94c3e0ceda","system_id":"levelo_inurba_marseille","lat":43.284057,"lon":5.34992,"is_reserved":false,"is_disabled":false,"rental_uris":{"android":"levelo://app?vid=22652bd1-43e7-4f3b-8639-5b94c3e0ceda","ios":"levelo://app?vid=22652bd1-43e7-4f3b-8639-5b94c3e0ceda"},"vehicle_type_id":"4","last_reported":1722172104,"current_range_meters":22000,"station_id":"ce4bhbh2rcd13ifvqepg","pricing_plan_id":"cebpf4jnsgd1na2vs0mg"},{"bike_id":"f67cb7dc-3a78-46ef-9cab-00f84ca248ed","system_id":"levelo_inurba_marseille","lat":43.28406,"lon":5.34984,"is_reserved":false,"is_disabled":false,"rental_uris":{"android":"levelo://app?vid=f67cb7dc-3a78-46ef-9cab-00f84ca248ed","ios":"levelo://app?vid=f67cb7dc-3a78-46ef-9cab-00f84ca248ed"},"vehicle_type_id":"4","last_reported":1722172104,"current_range_meters":4800,"station_id":"ce4bhbh2rcd13ifvqepg","pricing_plan_id":"cebpf4jnsgd1na2vs0mg"},{"bike_id":"14ddf4d8-5d3a-4aca-80d3-bbcd673ba22b","system_id":"levelo_inurba_marseille","lat":43.284054,"lon":5.34985,"is_reserved":false,"is_disabled":false,"rental_uris":{"android":"levelo://app?vid=14ddf4d8-5d3a-4aca-80d3-bbcd673ba22b","ios":"levelo://app?vid=14ddf4d8-5d3a-4aca-80d3-bbcd673ba22b"},"vehicle_type_id":"4","last_reported":1722172104,"current_range_meters":12000,"station_id":"ce4bhbh2rcd13ifvqepg","pricing_plan_id":"cebpf4jnsgd1na2vs0mg"},{"bike_id":"f5e47feb-f9d8-40e5-9326-fbe4a71fc1a7","system_id":"levelo_inurba_marseille","lat":43.283095,"lon":5.352478,"is_reserved":false,"is_disabled":false,"rental_uris":{"android":"levelo://app?vid=f5e47feb-f9d8-40e5-9326-fbe4a71fc1a7","ios":"levelo://app?vid=f5e47feb-f9d8-40e5-9326-fbe4a71fc1a7"},"vehicle_type_id":"4","last_reported":1722172104,"current_range_meters":13200,"station_id":"ce4bhbh2rcd13ifvqepg","pricing_plan_id":"cebpf4jnsgd1na2vs0mg"},{"bike_id":"17439842-f51a-46ba-a0b2-44e4b92dc3c3","system_id":"levelo_inurba_marseille","lat":43.28936,"lon":5.39639,"is_reserved":false,"is_disabled":false,"rental_uris":{"android":"levelo://app?vid=17439842-f51a-46ba-a0b2-44e4b92dc3c3","ios":"levelo://app?vid=17439842-f51a-46ba-a0b2-44e4b92dc3c3"},"vehicle_type_id":"4","last_reported":1722172104,"current_range_meters":0,"station_id":"ce4bh3h2rcd13ifvqdn0","pricing_plan_id":"cebpf4jnsgd1na2vs0mg"},{"bike_id":"282819bd-e6b3-4e1c-bff2-dd0b464f2236","system_id":"levelo_inurba_marseille","lat":43.282744,"lon":5.350533,"is_reserved":false,"is_disabled":false,"rental_uris":{"android":"levelo://app?vid=282819bd-e6b3-4e1c-bff2-dd0b464f2236","ios":"levelo://app?vid=282819bd-e6b3-4e1c-bff2-dd0b464f2236"},"vehicle_type_id":"4","last_reported":1722172104,"current_range_meters":0,"station_id":"ce4bhbp2rcd13ifvqerg","pricing_plan_id":"cebpf4jnsgd1na2vs0mg"},{"bike_id":"d5407db6-56d5-4465-8c5a-0f29c30529fa","system_id":"levelo_inurba_marseille","lat":43.282744,"lon":5.350533,"is_reserved":false,"is_disabled":false,"rental_uris":{"android":"levelo://app?vid=d5407db6-56d5-4465-8c5a-0f29c30529fa","ios":"levelo://app?vid=d5407db6-56d5-4465-8c5a-0f29c30529fa"},"vehicle_type_id":"4","last_reported":1722172104,"current_range_meters":1600,"station_id":"ce4bhbp2rcd13ifvqerg","pricing_plan_id":"cebpf4jnsgd1na2vs0mg"},{"bike_id":"33dc4b0c-7995-4f04-a850-0046f828c7dd","system_id":"levelo_inurba_marseille","lat":43.282744,"lon":5.350533,"is_reserved":false,"is_disabled":false,"rental_uris":{"android":"levelo://app?vid=33dc4b0c-7995-4f04-a850-0046f828c7dd","ios":"levelo://app?vid=33dc4b0c-7995-4f04-a850-0046f828c7dd"},"vehicle_type_id":"4","last_reported":1722172104,"current_range_meters":27600,"station_id":"ce4bhbp2rcd13ifvqerg","pricing_plan_id":"cebpf4jnsgd1na2vs0mg"},{"bike_id":"1cd51ef4-561b-4080-85cd-b7e00b4cccf3","system_id":"levelo_inurba_marseille","lat":43.282744,"lon":5.350533,"is_reserved":false,"is_disabled":false,"rental_uris":{"android":"levelo://app?vid=1cd51ef4-561b-4080-85cd-b7e00b4cccf3","ios":"levelo://app?vid=1cd51ef4-561b-4080-85cd-b7e00b4cccf3"},"vehicle_type_id":"4","last_reported":1722172104,"current_range_meters":19200,"station_id":"ce4bhbp2rcd13ifvqerg","pricing_plan_id":"cebpf4jnsgd1na2vs0mg"},{"bike_id":"f8a2cf19-97a8-489d-af13-6538b2176385","system_id":"levelo_inurba_marseille","lat":43.282744,"lon":5.350533,"is_reserved":false,"is_disabled":false,"rental_uris":{"android":"levelo://app?vid=f8a2cf19-97a8-489d-af13-6538b2176385","ios":"levelo://app?vid=f8a2cf19-97a8-489d-af13-6538b2176385"},"vehicle_type_id":"4","last_reported":1722172104,"current_range_meters":2800,"station_id":"ce4bhbp2rcd13ifvqerg","pricing_plan_id":"cebpf4jnsgd1na2vs0mg"},{"bike_id":"bc586f93-06d6-432f-9077-fa7d9494b4c0","system_id":"levelo_inurba_marseille","lat":43.28266,"lon":5.35071,"is_reserved":false,"is_disabled":false,"rental_uris":{"android":"levelo://app?vid=bc586f93-06d6-432f-9077-fa7d9494b4c0","ios":"levelo://app?vid=bc586f93-06d6-432f-9077-fa7d9494b4c0"},"vehicle_type_id":"4","last_reported":1722172104,"current_range_meters":400,"station_id":"ce4bhbp2rcd13ifvqerg","pricing_plan_id":"cebpf4jnsgd1na2vs0mg"},{"bike_id":"80f44da3-917c-421b-817d-1fd7006e4d5d","system_id":"levelo_inurba_marseille","lat":43.282744,"lon":5.350533,"is_reserved":false,"is_disabled":false,"rental_uris":{"android":"levelo://app?vid=80f44da3-917c-421b-817d-1fd7006e4d5d","ios":"levelo://app?vid=80f44da3-917c-421b-817d-1fd7006e4d5d"},"vehicle_type_id":"4","last_reported":1722172104,"current_range_meters":23600,"station_id":"ce4bhbp2rcd13ifvqerg","pricing_plan_id":"cebpf4jnsgd1na2vs0mg"},{"bike_id":"d2203774-31e4-4b87-bcc1-be446185c6ce","system_id":"levelo_inurba_marseille","lat":43.282744,"lon":5.350533,"is_reserved":false,"is_disabled":false,"rental_uris":{"android":"levelo://app?vid=d2203774-31e4-4b87-bcc1-be446185c6ce","ios":"levelo://app?vid=d2203774-31e4-4b87-bcc1-be446185c6ce"},"vehicle_type_id":"4","last_reported":1722172104,"current_range_meters":2800,"station_id":"ce4bhbp2rcd13ifvqerg","pricing_plan_id":"cebpf4jnsgd1na2vs0mg"},{"bike_id":"b671a209-f2b6-4e3b-843d-4de172af5735","system_id":"levelo_inurba_marseille","lat":43.282744,"lon":5.350533,"is_reserved":false,"is_disabled":false,"rental_uris":{"android":"levelo://app?vid=b671a209-f2b6-4e3b-843d-4de172af5735","ios":"levelo://app?vid=b671a209-f2b6-4e3b-843d-4de172af5735"},"vehicle_type_id":"4","last_reported":1722172104,"current_range_meters":0,"station_id":"ce4bhbp2rcd13ifvqerg","pricing_plan_id":"cebpf4jnsgd1na2vs0mg"},{"bike_id":"68491829-81f9-408b-983d-e0232b11ea4a","system_id":"levelo_inurba_marseille","lat":43.28269,"lon":5.35059,"is_reserved":false,"is_disabled":false,"rental_uris":{"android":"levelo://app?vid=68491829-81f9-408b-983d-e0232b11ea4a","ios":"levelo://app?vid=68491829-81f9-408b-983d-e0232b11ea4a"},"vehicle_type_id":"4","last_reported":1722172104,"current_range_meters":10800,"station_id":"ce4bhbp2rcd13ifvqerg","pricing_plan_id":"cebpf4jnsgd1na2vs0mg"},{"bike_id":"98ee1953-a10f-40b0-9466-9d8b541ea5a0","system_id":"levelo_inurba_marseille","lat":43.28265,"lon":5.35072,"is_reserved":false,"is_disabled":false,"rental_uris":{"android":"levelo://app?vid=98ee1953-a10f-40b0-9466-9d8b541ea5a0","ios":"levelo://app?vid=98ee1953-a10f-40b0-9466-9d8b541ea5a0"},"vehicle_type_id":"4","last_reported":1722172104,"current_range_meters":2800,"station_id":"ce4bhbp2rcd13ifvqerg","pricing_plan_id":"cebpf4jnsgd1na2vs0mg"},{"bike_id":"20b2f615-775f-4757-a5f8-1a979c339fc2","system_id":"levelo_inurba_marseille","lat":43.28267,"lon":5.35065,"is_reserved":false,"is_disabled":false,"rental_uris":{"android":"levelo://app?vid=20b2f615-775f-4757-a5f8-1a979c339fc2","ios":"levelo://app?vid=20b2f615-775f-4757-a5f8-1a979c339fc2"},"vehicle_type_id":"4","last_reported":1722172104,"current_range_meters":1200,"station_id":"ce4bhbp2rcd13ifvqerg","pricing_plan_id":"cebpf4jnsgd1na2vs0mg"},{"bike_id":"1708735e-4535-486c-980c-595afee19685","system_id":"levelo_inurba_marseille","lat":43.28265,"lon":5.35068,"is_reserved":false,"is_disabled":false,"rental_uris":{"android":"levelo://app?vid=1708735e-4535-486c-980c-595afee19685","ios":"levelo://app?vid=1708735e-4535-486c-980c-595afee19685"},"vehicle_type_id":"4","last_reported":1722172104,"current_range_meters":26800,"station_id":"ce4bhbp2rcd13ifvqerg","pricing_plan_id":"cebpf4jnsgd1na2vs0mg"},{"bike_id":"3fdb4621-3b37-4e69-9ef4-7d956cc89ec4","system_id":"levelo_inurba_marseille","lat":43.28262,"lon":5.35076,"is_reserved":false,"is_disabled":false,"rental_uris":{"android":"levelo://app?vid=3fdb4621-3b37-4e69-9ef4-7d956cc89ec4","ios":"levelo://app?vid=3fdb4621-3b37-4e69-9ef4-7d956cc89ec4"},"vehicle_type_id":"4","last_reported":1722172104,"current_range_meters":29600,"station_id":"ce4bhbp2rcd13ifvqerg","pricing_plan_id":"cebpf4jnsgd1na2vs0mg"},{"bike_id":"1e83e75c-9f99-41e6-840d-1ace419a1008","system_id":"levelo_inurba_marseille","lat":43.2826,"lon":5.35082,"is_reserved":false,"is_disabled":false,"rental_uris":{"android":"levelo://app?vid=1e83e75c-9f99-41e6-840d-1ace419a1008","ios":"levelo://app?vid=1e83e75c-9f99-41e6-840d-1ace419a1008"},"vehicle_type_id":"4","last_reported":1722172104,"current_range_meters":0,"station_id":"ce4bhbp2rcd13ifvqerg","pricing_plan_id":"cebpf4jnsgd1na2vs0mg"},{"bike_id":"3c82fc9c-2b47-42c9-9df9-988383fe32d3","system_id":"levelo_inurba_marseille","lat":43.282754,"lon":5.350519,"is_reserved":false,"is_disabled":false,"rental_uris":{"android":"levelo://app?vid=3c82fc9c-2b47-42c9-9df9-988383fe32d3","ios":"levelo://app?vid=3c82fc9c-2b47-42c9-9df9-988383fe32d3"},"vehicle_type_id":"4","last_reported":1722172104,"current_range_meters":19200,"station_id":"ce4bhbp2rcd13ifvqerg","pricing_plan_id":"cebpf4jnsgd1na2vs0mg"},{"bike_id":"7362b8dd-d36c-4990-bee5-c03299cc99f1","system_id":"levelo_inurba_marseille","lat":43.28265,"lon":5.3506,"is_reserved":false,"is_disabled":false,"rental_uris":{"android":"levelo://app?vid=7362b8dd-d36c-4990-bee5-c03299cc99f1","ios":"levelo://app?vid=7362b8dd-d36c-4990-bee5-c03299cc99f1"},"vehicle_type_id":"4","last_reported":1722172104,"current_range_meters":3600,"station_id":"ce4bhbp2rcd13ifvqerg","pricing_plan_id":"cebpf4jnsgd1na2vs0mg"},{"bike_id":"0c09e4d3-d7af-4a66-bc1b-4abe5a4d4815","system_id":"levelo_inurba_marseille","lat":43.28043,"lon":5.36936,"is_reserved":false,"is_disabled":false,"rental_uris":{"android":"levelo://app?vid=0c09e4d3-d7af-4a66-bc1b-4abe5a4d4815","ios":"levelo://app?vid=0c09e4d3-d7af-4a66-bc1b-4abe5a4d4815"},"vehicle_type_id":"4","last_reported":1722172104,"current_range_meters":0,"station_id":"ce4bha12rcd13ifvqef0","pricing_plan_id":"cebpf4jnsgd1na2vs0mg"},{"bike_id":"7d12d35b-5e5d-4050-853a-3156e0459374","system_id":"levelo_inurba_marseille","lat":43.28039,"lon":5.369297,"is_reserved":false,"is_disabled":false,"rental_uris":{"android":"levelo://app?vid=7d12d35b-5e5d-4050-853a-3156e0459374","ios":"levelo://app?vid=7d12d35b-5e5d-4050-853a-3156e0459374"},"vehicle_type_id":"4","last_reported":1722172104,"current_range_meters":17200,"station_id":"ce4bha12rcd13ifvqef0","pricing_plan_id":"cebpf4jnsgd1na2vs0mg"},{"bike_id":"85134e26-1c59-4165-8edf-fde12433018c","system_id":"levelo_inurba_marseille","lat":43.28259,"lon":5.35063,"is_reserved":false,"is_disabled":false,"rental_uris":{"android":"levelo://app?vid=85134e26-1c59-4165-8edf-fde12433018c","ios":"levelo://app?vid=85134e26-1c59-4165-8edf-fde12433018c"},"vehicle_type_id":"4","last_reported":1722172104,"current_range_meters":6000,"station_id":"ce4bhbp2rcd13ifvqerg","pricing_plan_id":"cebpf4jnsgd1na2vs0mg"},{"bike_id":"3bb4a3bf-4d06-4885-b59e-9b2d2367b225","system_id":"levelo_inurba_marseille","lat":43.280382,"lon":5.369291,"is_reserved":false,"is_disabled":false,"rental_uris":{"android":"levelo://app?vid=3bb4a3bf-4d06-4885-b59e-9b2d2367b225","ios":"levelo://app?vid=3bb4a3bf-4d06-4885-b59e-9b2d2367b225"},"vehicle_type_id":"4","last_reported":1722172104,"current_range_meters":0,"station_id":"ce4bha12rcd13ifvqef0","pricing_plan_id":"cebpf4jnsgd1na2vs0mg"},{"bike_id":"cc41c77c-82d5-44d0-8852-7674e52b4587","system_id":"levelo_inurba_marseille","lat":43.28039,"lon":5.369297,"is_reserved":false,"is_disabled":false,"rental_uris":{"android":"levelo://app?vid=cc41c77c-82d5-44d0-8852-7674e52b4587","ios":"levelo://app?vid=cc41c77c-82d5-44d0-8852-7674e52b4587"},"vehicle_type_id":"4","last_reported":1722172104,"current_range_meters":2000,"station_id":"ce4bha12rcd13ifvqef0","pricing_plan_id":"cebpf4jnsgd1na2vs0mg"},{"bike_id":"a341ae67-aa7f-4592-a0a5-dd5c3b5eeee5","system_id":"levelo_inurba_marseille","lat":43.28038,"lon":5.36942,"is_reserved":false,"is_disabled":false,"rental_uris":{"android":"levelo://app?vid=a341ae67-aa7f-4592-a0a5-dd5c3b5eeee5","ios":"levelo://app?vid=a341ae67-aa7f-4592-a0a5-dd5c3b5eeee5"},"vehicle_type_id":"4","last_reported":1722172104,"current_range_meters":4000,"station_id":"ce4bha12rcd13ifvqef0","pricing_plan_id":"cebpf4jnsgd1na2vs0mg"},{"bike_id":"1ee562e0-1c59-4824-b1e4-39181633ca86","system_id":"levelo_inurba_marseille","lat":43.282744,"lon":5.350533,"is_reserved":false,"is_disabled":false,"rental_uris":{"android":"levelo://app?vid=1ee562e0-1c59-4824-b1e4-39181633ca86","ios":"levelo://app?vid=1ee562e0-1c59-4824-b1e4-39181633ca86"},"vehicle_type_id":"4","last_reported":1722172104,"current_range_meters":18400,"station_id":"ce4bhbp2rcd13ifvqerg","pricing_plan_id":"cebpf4jnsgd1na2vs0mg"},{"bike_id":"76587f3e-8e89-47db-9727-6efc1aa26ac4","system_id":"levelo_inurba_marseille","lat":43.282744,"lon":5.350533,"is_reserved":false,"is_disabled":false,"rental_uris":{"android":"levelo://app?vid=76587f3e-8e89-47db-9727-6efc1aa26ac4","ios":"levelo://app?vid=76587f3e-8e89-47db-9727-6efc1aa26ac4"},"vehicle_type_id":"4","last_reported":1722172104,"current_range_meters":17600,"station_id":"ce4bhbp2rcd13ifvqerg","pricing_plan_id":"cebpf4jnsgd1na2vs0mg"},{"bike_id":"2498e8da-dd71-47e2-9194-1cb829d5dd74","system_id":"levelo_inurba_marseille","lat":43.28039,"lon":5.369297,"is_reserved":false,"is_disabled":false,"rental_uris":{"android":"levelo://app?vid=2498e8da-dd71-47e2-9194-1cb829d5dd74","ios":"levelo://app?vid=2498e8da-dd71-47e2-9194-1cb829d5dd74"},"vehicle_type_id":"4","last_reported":1722172104,"current_range_meters":8400,"station_id":"ce4bha12rcd13ifvqef0","pricing_plan_id":"cebpf4jnsgd1na2vs0mg"},{"bike_id":"ae3ddd90-4709-4a22-bf67-6254385e0194","system_id":"levelo_inurba_marseille","lat":43.28039,"lon":5.369297,"is_reserved":false,"is_disabled":false,"rental_uris":{"android":"levelo://app?vid=ae3ddd90-4709-4a22-bf67-6254385e0194","ios":"levelo://app?vid=ae3ddd90-4709-4a22-bf67-6254385e0194"},"vehicle_type_id":"4","last_reported":1722172104,"current_range_meters":8000,"station_id":"ce4bha12rcd13ifvqef0","pricing_plan_id":"cebpf4jnsgd1na2vs0mg"},{"bike_id":"e926a691-2c4c-4b7e-b60f-7cd3b6a5d8d3","system_id":"levelo_inurba_marseille","lat":43.28247,"lon":5.350737,"is_reserved":false,"is_disabled":false,"rental_uris":{"android":"levelo://app?vid=e926a691-2c4c-4b7e-b60f-7cd3b6a5d8d3","ios":"levelo://app?vid=e926a691-2c4c-4b7e-b60f-7cd3b6a5d8d3"},"vehicle_type_id":"4","last_reported":1722172104,"current_range_meters":14400,"station_id":"ce4bhbp2rcd13ifvqerg","pricing_plan_id":"cebpf4jnsgd1na2vs0mg"},{"bike_id":"e8080547-572f-47d1-bde8-ffc26f12c275","system_id":"levelo_inurba_marseille","lat":43.34091,"lon":5.39103,"is_reserved":false,"is_disabled":false,"rental_uris":{"android":"levelo://app?vid=e8080547-572f-47d1-bde8-ffc26f12c275","ios":"levelo://app?vid=e8080547-572f-47d1-bde8-ffc26f12c275"},"vehicle_type_id":"4","last_reported":1722172104,"current_range_meters":9200,"station_id":"","pricing_plan_id":"cebpf4jnsgd1na2vs0mg"},{"bike_id":"c84ef0ac-e9b5-49b9-b9a3-cd1c3346e515","system_id":"levelo_inurba_marseille","lat":43.28445,"lon":5.392,"is_reserved":false,"is_disabled":false,"rental_uris":{"android":"levelo://app?vid=c84ef0ac-e9b5-49b9-b9a3-cd1c3346e515","ios":"levelo://app?vid=c84ef0ac-e9b5-49b9-b9a3-cd1c3346e515"},"vehicle_type_id":"4","last_reported":1722172104,"current_range_meters":17600,"station_id":"ce4bhoh2rcd13ifvqh5g","pricing_plan_id":"cebpf4jnsgd1na2vs0mg"},{"bike_id":"a5beeb07-cf55-468c-8c03-d2688047bebf","system_id":"levelo_inurba_marseille","lat":43.284462,"lon":5.392121,"is_reserved":false,"is_disabled":false,"rental_uris":{"android":"levelo://app?vid=a5beeb07-cf55-468c-8c03-d2688047bebf","ios":"levelo://app?vid=a5beeb07-cf55-468c-8c03-d2688047bebf"},"vehicle_type_id":"4","last_reported":1722172104,"current_range_meters":27600,"station_id":"ce4bhoh2rcd13ifvqh5g","pricing_plan_id":"cebpf4jnsgd1na2vs0mg"},{"bike_id":"6ddbd5ef-c1f9-4d80-a7ff-c91c8cb1951e","system_id":"levelo_inurba_marseille","lat":43.284462,"lon":5.392121,"is_reserved":false,"is_disabled":false,"rental_uris":{"android":"levelo://app?vid=6ddbd5ef-c1f9-4d80-a7ff-c91c8cb1951e","ios":"levelo://app?vid=6ddbd5ef-c1f9-4d80-a7ff-c91c8cb1951e"},"vehicle_type_id":"4","last_reported":1722172104,"current_range_meters":0,"station_id":"ce4bhoh2rcd13ifvqh5g","pricing_plan_id":"cebpf4jnsgd1na2vs0mg"},{"bike_id":"8388d65e-7197-456c-a6b8-54df3c0c1d59","system_id":"levelo_inurba_marseille","lat":43.279087,"lon":5.380114,"is_reserved":false,"is_disabled":false,"rental_uris":{"android":"levelo://app?vid=8388d65e-7197-456c-a6b8-54df3c0c1d59","ios":"levelo://app?vid=8388d65e-7197-456c-a6b8-54df3c0c1d59"},"vehicle_type_id":"4","last_reported":1722172104,"current_range_meters":16400,"station_id":"ce4bhf92rcd13ifvqf50","pricing_plan_id":"cebpf4jnsgd1na2vs0mg"},{"bike_id":"48868a67-daba-4d8f-8aef-700d9d70d8f1","system_id":"levelo_inurba_marseille","lat":43.347816,"lon":5.373733,"is_reserved":false,"is_disabled":false,"rental_uris":{"android":"levelo://app?vid=48868a67-daba-4d8f-8aef-700d9d70d8f1","ios":"levelo://app?vid=48868a67-daba-4d8f-8aef-700d9d70d8f1"},"vehicle_type_id":"4","last_reported":1722172104,"current_range_meters":9200,"station_id":"","pricing_plan_id":"cebpf4jnsgd1na2vs0mg"},{"bike_id":"330deabc-97e9-4706-8d35-42020c86eec8","system_id":"levelo_inurba_marseille","lat":43.28039,"lon":5.369297,"is_reserved":false,"is_disabled":false,"rental_uris":{"android":"levelo://app?vid=330deabc-97e9-4706-8d35-42020c86eec8","ios":"levelo://app?vid=330deabc-97e9-4706-8d35-42020c86eec8"},"vehicle_type_id":"4","last_reported":1722172104,"current_range_meters":18400,"station_id":"ce4bha12rcd13ifvqef0","pricing_plan_id":"cebpf4jnsgd1na2vs0mg"},{"bike_id":"6bd673bd-5ef7-4ffa-862c-0a035dece547","system_id":"levelo_inurba_marseille","lat":43.320045,"lon":5.415048,"is_reserved":false,"is_disabled":false,"rental_uris":{"android":"levelo://app?vid=6bd673bd-5ef7-4ffa-862c-0a035dece547","ios":"levelo://app?vid=6bd673bd-5ef7-4ffa-862c-0a035dece547"},"vehicle_type_id":"4","last_reported":1722172104,"current_range_meters":1200,"station_id":"ce4bhq92rcd13ifvqhkg","pricing_plan_id":"cebpf4jnsgd1na2vs0mg"},{"bike_id":"99d5fb42-23d2-4453-b911-44ed34ebd164","system_id":"levelo_inurba_marseille","lat":43.320045,"lon":5.415046,"is_reserved":false,"is_disabled":false,"rental_uris":{"android":"levelo://app?vid=99d5fb42-23d2-4453-b911-44ed34ebd164","ios":"levelo://app?vid=99d5fb42-23d2-4453-b911-44ed34ebd164"},"vehicle_type_id":"4","last_reported":1722172104,"current_range_meters":0,"station_id":"ce4bhq92rcd13ifvqhkg","pricing_plan_id":"cebpf4jnsgd1na2vs0mg"},{"bike_id":"33208c12-b545-473a-9052-a61aafea7e18","system_id":"levelo_inurba_marseille","lat":43.320492,"lon":5.415588,"is_reserved":false,"is_disabled":false,"rental_uris":{"android":"levelo://app?vid=33208c12-b545-473a-9052-a61aafea7e18","ios":"levelo://app?vid=33208c12-b545-473a-9052-a61aafea7e18"},"vehicle_type_id":"4","last_reported":1722172104,"current_range_meters":6000,"station_id":"ce4bhq92rcd13ifvqhkg","pricing_plan_id":"cebpf4jnsgd1na2vs0mg"},{"bike_id":"517b4365-d468-4f71-8611-68d1e91ccf41","system_id":"levelo_inurba_marseille","lat":43.320357,"lon":5.415687,"is_reserved":false,"is_disabled":false,"rental_uris":{"android":"levelo://app?vid=517b4365-d468-4f71-8611-68d1e91ccf41","ios":"levelo://app?vid=517b4365-d468-4f71-8611-68d1e91ccf41"},"vehicle_type_id":"4","last_reported":1722172104,"current_range_meters":3600,"station_id":"ce4bhq92rcd13ifvqhkg","pricing_plan_id":"cebpf4jnsgd1na2vs0mg"},{"bike_id":"b8262cb6-56c1-4c49-a328-ee72f0c71105","system_id":"levelo_inurba_marseille","lat":43.27967,"lon":5.38748,"is_reserved":false,"is_disabled":false,"rental_uris":{"android":"levelo://app?vid=b8262cb6-56c1-4c49-a328-ee72f0c71105","ios":"levelo://app?vid=b8262cb6-56c1-4c49-a328-ee72f0c71105"},"vehicle_type_id":"4","last_reported":1722172104,"current_range_meters":15600,"station_id":"ce4bhg12rcd13ifvqf80","pricing_plan_id":"cebpf4jnsgd1na2vs0mg"},{"bike_id":"d4ec0aee-e300-48d6-b436-54bf13e76cb4","system_id":"levelo_inurba_marseille","lat":43.292571,"lon":5.409107,"is_reserved":false,"is_disabled":false,"rental_uris":{"android":"levelo://app?vid=d4ec0aee-e300-48d6-b436-54bf13e76cb4","ios":"levelo://app?vid=d4ec0aee-e300-48d6-b436-54bf13e76cb4"},"vehicle_type_id":"4","last_reported":1722172104,"current_range_meters":14400,"station_id":"ce4bh192rcd13ifvqdc0","pricing_plan_id":"cebpf4jnsgd1na2vs0mg"},{"bike_id":"a17bbf28-ba85-454f-95c5-58d5dfe850b6","system_id":"levelo_inurba_marseille","lat":43.325233,"lon":5.414318,"is_reserved":false,"is_disabled":false,"rental_uris":{"android":"levelo://app?vid=a17bbf28-ba85-454f-95c5-58d5dfe850b6","ios":"levelo://app?vid=a17bbf28-ba85-454f-95c5-58d5dfe850b6"},"vehicle_type_id":"4","last_reported":1722172104,"current_range_meters":13200,"station_id":"ce4bhq12rcd13ifvqhhg","pricing_plan_id":"cebpf4jnsgd1na2vs0mg"},{"bike_id":"1100654e-439b-4f5b-8a5d-31ef7b1a0e29","system_id":"levelo_inurba_marseille","lat":43.292571,"lon":5.409107,"is_reserved":false,"is_disabled":false,"rental_uris":{"android":"levelo://app?vid=1100654e-439b-4f5b-8a5d-31ef7b1a0e29","ios":"levelo://app?vid=1100654e-439b-4f5b-8a5d-31ef7b1a0e29"},"vehicle_type_id":"4","last_reported":1722172104,"current_range_meters":0,"station_id":"ce4bh192rcd13ifvqdc0","pricing_plan_id":"cebpf4jnsgd1na2vs0mg"},{"bike_id":"b8a5951d-1ac1-4a54-ac88-2eec86217caf","system_id":"levelo_inurba_marseille","lat":43.292569,"lon":5.409107,"is_reserved":false,"is_disabled":false,"rental_uris":{"android":"levelo://app?vid=b8a5951d-1ac1-4a54-ac88-2eec86217caf","ios":"levelo://app?vid=b8a5951d-1ac1-4a54-ac88-2eec86217caf"},"vehicle_type_id":"4","last_reported":1722172104,"current_range_meters":19600,"station_id":"ce4bh192rcd13ifvqdc0","pricing_plan_id":"cebpf4jnsgd1na2vs0mg"},{"bike_id":"6751f496-ceb1-4051-b47d-6ff7b0e38a2b","system_id":"levelo_inurba_marseille","lat":43.27618,"lon":5.361009,"is_reserved":false,"is_disabled":false,"rental_uris":{"android":"levelo://app?vid=6751f496-ceb1-4051-b47d-6ff7b0e38a2b","ios":"levelo://app?vid=6751f496-ceb1-4051-b47d-6ff7b0e38a2b"},"vehicle_type_id":"4","last_reported":1722172104,"current_range_meters":23200,"station_id":"ce4bgj92rcd13ifvqbe0","pricing_plan_id":"cebpf4jnsgd1na2vs0mg"},{"bike_id":"41b3c674-b24c-4305-aa54-531e8d9bdd2f","system_id":"levelo_inurba_marseille","lat":43.27618,"lon":5.361009,"is_reserved":false,"is_disabled":false,"rental_uris":{"android":"levelo://app?vid=41b3c674-b24c-4305-aa54-531e8d9bdd2f","ios":"levelo://app?vid=41b3c674-b24c-4305-aa54-531e8d9bdd2f"},"vehicle_type_id":"4","last_reported":1722172104,"current_range_meters":14400,"station_id":"ce4bgj92rcd13ifvqbe0","pricing_plan_id":"cebpf4jnsgd1na2vs0mg"},{"bike_id":"ad68280f-919e-448b-8d6b-efbb7beba03d","system_id":"levelo_inurba_marseille","lat":43.325233,"lon":5.414318,"is_reserved":false,"is_disabled":false,"rental_uris":{"android":"levelo://app?vid=ad68280f-919e-448b-8d6b-efbb7beba03d","ios":"levelo://app?vid=ad68280f-919e-448b-8d6b-efbb7beba03d"},"vehicle_type_id":"4","last_reported":1722172104,"current_range_meters":31200,"station_id":"ce4bhq12rcd13ifvqhhg","pricing_plan_id":"cebpf4jnsgd1na2vs0mg"},{"bike_id":"0752e209-b608-42af-876c-750ae14ee971","system_id":"levelo_inurba_marseille","lat":43.27618,"lon":5.361009,"is_reserved":false,"is_disabled":false,"rental_uris":{"android":"levelo://app?vid=0752e209-b608-42af-876c-750ae14ee971","ios":"levelo://app?vid=0752e209-b608-42af-876c-750ae14ee971"},"vehicle_type_id":"4","last_reported":1722172104,"current_range_meters":4400,"station_id":"ce4bgj92rcd13ifvqbe0","pricing_plan_id":"cebpf4jnsgd1na2vs0mg"},{"bike_id":"6aec196d-efb5-40d3-9f41-f6a5183e6a2e","system_id":"levelo_inurba_marseille","lat":43.27618,"lon":5.361009,"is_reserved":false,"is_disabled":false,"rental_uris":{"android":"levelo://app?vid=6aec196d-efb5-40d3-9f41-f6a5183e6a2e","ios":"levelo://app?vid=6aec196d-efb5-40d3-9f41-f6a5183e6a2e"},"vehicle_type_id":"4","last_reported":1722172104,"current_range_meters":17600,"station_id":"ce4bgj92rcd13ifvqbe0","pricing_plan_id":"cebpf4jnsgd1na2vs0mg"},{"bike_id":"f3e983b5-cdae-484a-9078-a5c18f21a193","system_id":"levelo_inurba_marseille","lat":43.27618,"lon":5.361009,"is_reserved":false,"is_disabled":false,"rental_uris":{"android":"levelo://app?vid=f3e983b5-cdae-484a-9078-a5c18f21a193","ios":"levelo://app?vid=f3e983b5-cdae-484a-9078-a5c18f21a193"},"vehicle_type_id":"4","last_reported":1722172104,"current_range_meters":18400,"station_id":"ce4bgj92rcd13ifvqbe0","pricing_plan_id":"cebpf4jnsgd1na2vs0mg"},{"bike_id":"5c93b049-b0e5-4a99-ba3c-ccf551309b73","system_id":"levelo_inurba_marseille","lat":43.27618,"lon":5.361009,"is_reserved":false,"is_disabled":false,"rental_uris":{"android":"levelo://app?vid=5c93b049-b0e5-4a99-ba3c-ccf551309b73","ios":"levelo://app?vid=5c93b049-b0e5-4a99-ba3c-ccf551309b73"},"vehicle_type_id":"4","last_reported":1722172104,"current_range_meters":6400,"station_id":"ce4bgj92rcd13ifvqbe0","pricing_plan_id":"cebpf4jnsgd1na2vs0mg"},{"bike_id":"075026db-c763-4211-8607-f008b5e8e8b8","system_id":"levelo_inurba_marseille","lat":43.276179,"lon":5.361009,"is_reserved":false,"is_disabled":false,"rental_uris":{"android":"levelo://app?vid=075026db-c763-4211-8607-f008b5e8e8b8","ios":"levelo://app?vid=075026db-c763-4211-8607-f008b5e8e8b8"},"vehicle_type_id":"4","last_reported":1722172104,"current_range_meters":9600,"station_id":"ce4bgj92rcd13ifvqbe0","pricing_plan_id":"cebpf4jnsgd1na2vs0mg"},{"bike_id":"bdc394f3-3205-4d4e-9bf8-efb299ac0692","system_id":"levelo_inurba_marseille","lat":43.27618,"lon":5.361009,"is_reserved":false,"is_disabled":false,"rental_uris":{"android":"levelo://app?vid=bdc394f3-3205-4d4e-9bf8-efb299ac0692","ios":"levelo://app?vid=bdc394f3-3205-4d4e-9bf8-efb299ac0692"},"vehicle_type_id":"4","last_reported":1722172104,"current_range_meters":6800,"station_id":"ce4bgj92rcd13ifvqbe0","pricing_plan_id":"cebpf4jnsgd1na2vs0mg"},{"bike_id":"48547892-e257-4079-af67-fbd20c771d28","system_id":"levelo_inurba_marseille","lat":43.276179,"lon":5.361009,"is_reserved":false,"is_disabled":false,"rental_uris":{"android":"levelo://app?vid=48547892-e257-4079-af67-fbd20c771d28","ios":"levelo://app?vid=48547892-e257-4079-af67-fbd20c771d28"},"vehicle_type_id":"4","last_reported":1722172104,"current_range_meters":22400,"station_id":"ce4bgj92rcd13ifvqbe0","pricing_plan_id":"cebpf4jnsgd1na2vs0mg"},{"bike_id":"96de632e-6e11-4f7e-93e3-6e171162e656","system_id":"levelo_inurba_marseille","lat":43.325243,"lon":5.414326,"is_reserved":false,"is_disabled":false,"rental_uris":{"android":"levelo://app?vid=96de632e-6e11-4f7e-93e3-6e171162e656","ios":"levelo://app?vid=96de632e-6e11-4f7e-93e3-6e171162e656"},