{"last_updated":1687049178,"ttl":30,"version":"2.2","data":{"bikes":[{"bike_id":"75916f50-03a5-4bea-8546-9493d8da4d8d","system_id":"levelo_inurba_marseille","lat":43.313391,"lon":5.36706,"is_reserved":false,"is_disabled":false,"rental_uris":{"android":"levelo://app?vid=75916f50-03a5-4bea-8546-9493d8da4d8d","ios":"levelo://app?vid=75916f50-03a5-4bea-8546-9493d8da4d8d"},"vehicle_type_id":"4","last_reported":1687049179,"current_range_meters":30000,"station_id":"ce4bgr92rcd13ifvqc6g","pricing_plan_id":"free"},{"bike_id":"9c746439-937e-436d-8c66-cb90c42aae7f","system_id":"levelo_inurba_marseille","lat":43.31442,"lon":5.3733,"is_reserved":false,"is_disabled":false,"rental_uris":{"android":"levelo://app?vid=9c746439-937e-436d-8c66-cb90c42aae7f","ios":"levelo://app?vid=9c746439-937e-436d-8c66-cb90c42aae7f"},"vehicle_type_id":"4","last_reported":1687049179,"current_range_meters":27600,"station_id":"","pricing_plan_id":"free"},{"bike_id":"8bc94eb9-4ba7-467d-8d24-2332a826656a","system_id":"levelo_inurba_marseille","lat":43.314811,"lon":5.373104,"is_reserved":false,"is_disabled":false,"rental_uris":{"android":"levelo://app?vid=8bc94eb9-4ba7-467d-8d24-2332a826656a","ios":"levelo://app?vid=8bc94eb9-4ba7-467d-8d24-2332a826656a"},"vehicle_type_id":"4","last_reported":1687049179,"current_range_meters":30800,"station_id":"ce4bgt12rcd13ifvqcd0","pricing_plan_id":"free"},{"bike_id":"03c63a22-5af4-4731-b58c-68faf2f7a292","system_id":"levelo_inurba_marseille","lat":43.31205,"lon":5.37683,"is_reserved":false,"is_disabled":false,"rental_uris":{"android":"levelo://app?vid=03c63a22-5af4-4731-b58c-68faf2f7a292","ios":"levelo://app?vid=03c63a22-5af4-4731-b58c-68faf2f7a292"},"vehicle_type_id":"4","last_reported":1687049179,"current_range_meters":30000,"station_id":"","pricing_plan_id":"free"},{"bike_id":"ff809a52-c8c8-4c17-b4f9-30f22a540c0a","system_id":"levelo_inurba_marseille","lat":43.311125,"lon":5.377624,"is_reserved":false,"is_disabled":false,"rental_uris":{"android":"levelo://app?vid=ff809a52-c8c8-4c17-b4f9-30f22a540c0a","ios":"levelo://app?vid=ff809a52-c8c8-4c17-b4f9-30f22a540c0a"},"vehicle_type_id":"4","last_reported":1687049179,"current_range_meters":29200,"station_id":"ce4bgt92rcd13ifvqcg0","pricing_plan_id":"free"},{"bike_id":"56b59b9a-34bc-41be-872f-571c330c0e54","system_id":"levelo_inurba_marseille","lat":43.311125,"lon":5.377624,"is_reserved":false,"is_disabled":false,"rental_uris":{"android":"levelo://app?vid=56b59b9a-34bc-41be-872f-571c330c0e54","ios":"levelo://app?vid=56b59b9a-34bc-41be-872f-571c330c0e54"},"vehicle_type_id":"4","last_reported":1687049179,"current_range_meters":27600,"station_id":"ce4bgt92rcd13ifvqcg0","pricing_plan_id":"free"},{"bike_id":"2424216c-0462-4ad0-b127-d0366c91b61c","system_id":"levelo_inurba_marseille","lat":43.31712,"lon":5.37726,"is_reserved":false,"is_disabled":false,"rental_uris":{"android":"levelo://app?vid=2424216c-0462-4ad0-b127-d0366c91b61c","ios":"levelo://app?vid=2424216c-0462-4ad0-b127-d0366c91b61c"},"vehicle_type_id":"4","last_reported":1687049179,"current_range_meters":30800,"station_id":"ce4bgth2rcd13ifvqch0","pricing_plan_id":"free"},{"bike_id":"dc24202a-fe47-4c38-8054-5ecb143a4c13","system_id":"levelo_inurba_marseille","lat":43.317075,"lon":5.377367,"is_reserved":false,"is_disabled":false,"rental_uris":{"android":"levelo://app?vid=dc24202a-fe47-4c38-8054-5ecb143a4c13","ios":"levelo://app?vid=dc24202a-fe47-4c38-8054-5ecb143a4c13"},"vehicle_type_id":"4","last_reported":1687049179,"current_range_meters":20400,"station_id":"ce4bgth2rcd13ifvqch0","pricing_plan_id":"free"},{"bike_id":"3bbb518e-9a83-40f5-84e5-3a5e60f17226","system_id":"levelo_inurba_marseille","lat":43.317075,"lon":5.377367,"is_reserved":false,"is_disabled":false,"rental_uris":{"android":"levelo://app?vid=3bbb518e-9a83-40f5-84e5-3a5e60f17226","ios":"levelo://app?vid=3bbb518e-9a83-40f5-84e5-3a5e60f17226"},"vehicle_type_id":"4","last_reported":1687049179,"current_range_meters":18000,"station_id":"ce4bgth2rcd13ifvqch0","pricing_plan_id":"free"},{"bike_id":"0db3308e-a308-4e01-b972-880bec556f3d","system_id":"levelo_inurba_marseille","lat":43.31713,"lon":5.37759,"is_reserved":false,"is_disabled":false,"rental_uris":{"android":"levelo://app?vid=0db3308e-a308-4e01-b972-880bec556f3d","ios":"levelo://app?vid=0db3308e-a308-4e01-b972-880bec556f3d"},"vehicle_type_id":"4","last_reported":1687049179,"current_range_meters":25600,"station_id":"ce4bgth2rcd13ifvqch0","pricing_plan_id":"free"},{"bike_id":"e6f517a2-015b-4af0-a2e1-67fb0280e8a5","system_id":"levelo_inurba_marseille","lat":43.315293,"lon":5.380349,"is_reserved":false,"is_disabled":false,"rental_uris":{"android":"levelo://app?vid=e6f517a2-015b-4af0-a2e1-67fb0280e8a5","ios":"levelo://app?vid=e6f517a2-015b-4af0-a2e1-67fb0280e8a5"},"vehicle_type_id":"4","last_reported":1687049179,"current_range_meters":4400,"station_id":"ce4bhsp2rcd13ifvqi50","pricing_plan_id":"free"},{"bike_id":"54105187-4d93-4d9f-90b5-aa0b4942a62d","system_id":"levelo_inurba_marseille","lat":43.315289,"lon":5.380349,"is_reserved":false,"is_disabled":false,"rental_uris":{"android":"levelo://app?vid=54105187-4d93-4d9f-90b5-aa0b4942a62d","ios":"levelo://app?vid=54105187-4d93-4d9f-90b5-aa0b4942a62d"},"vehicle_type_id":"4","last_reported":1687049179,"current_range_meters":0,"station_id":"ce4bhsp2rcd13ifvqi50","pricing_plan_id":"free"},{"bike_id":"8d51db3c-ddf0-4868-a42f-0868b9c8ed86","system_id":"levelo_inurba_marseille","lat":43.31531,"lon":5.38029,"is_reserved":false,"is_disabled":false,"rental_uris":{"android":"levelo://app?vid=8d51db3c-ddf0-4868-a42f-0868b9c8ed86","ios":"levelo://app?vid=8d51db3c-ddf0-4868-a42f-0868b9c8ed86"},"vehicle_type_id":"4","last_reported":1687049179,"current_range_meters":6000,"station_id":"ce4bhsp2rcd13ifvqi50","pricing_plan_id":"free"},{"bike_id":"94107f06-e304-40bf-9c9b-91d6304d67c0","system_id":"levelo_inurba_marseille","lat":43.315289,"lon":5.380349,"is_reserved":false,"is_disabled":false,"rental_uris":{"android":"levelo://app?vid=94107f06-e304-40bf-9c9b-91d6304d67c0","ios":"levelo://app?vid=94107f06-e304-40bf-9c9b-91d6304d67c0"},"vehicle_type_id":"4","last_reported":1687049179,"current_range_meters":18400,"station_id":"ce4bhsp2rcd13ifvqi50","pricing_plan_id":"free"},{"bike_id":"b05dad50-0197-4544-a415-ef3f823f99bf","system_id":"levelo_inurba_marseille","lat":43.308012,"lon":5.381511,"is_reserved":false,"is_disabled":false,"rental_uris":{"android":"levelo://app?vid=b05dad50-0197-4544-a415-ef3f823f99bf","ios":"levelo://app?vid=b05dad50-0197-4544-a415-ef3f823f99bf"},"vehicle_type_id":"4","last_reported":1687049179,"current_range_meters":1200,"station_id":"ce4bgt12rcd13ifvqce0","pricing_plan_id":"free"},{"bike_id":"db763462-e85e-4603-a63e-b52efb040c32","system_id":"levelo_inurba_marseille","lat":43.308012,"lon":5.381511,"is_reserved":false,"is_disabled":false,"rental_uris":{"android":"levelo://app?vid=db763462-e85e-4603-a63e-b52efb040c32","ios":"levelo://app?vid=db763462-e85e-4603-a63e-b52efb040c32"},"vehicle_type_id":"4","last_reported":1687049179,"current_range_meters":20400,"station_id":"ce4bgt12rcd13ifvqce0","pricing_plan_id":"free"},{"bike_id":"8d7f97b3-bbc5-42ca-a0a6-0159f290fe53","system_id":"levelo_inurba_marseille","lat":43.308012,"lon":5.381511,"is_reserved":false,"is_disabled":false,"rental_uris":{"android":"levelo://app?vid=8d7f97b3-bbc5-42ca-a0a6-0159f290fe53","ios":"levelo://app?vid=8d7f97b3-bbc5-42ca-a0a6-0159f290fe53"},"vehicle_type_id":"4","last_reported":1687049179,"current_range_meters":26400,"station_id":"ce4bgt12rcd13ifvqce0","pricing_plan_id":"free"},{"bike_id":"6656ae4f-58c5-4619-9d34-c285203d646d","system_id":"levelo_inurba_marseille","lat":43.3079,"lon":5.38145,"is_reserved":false,"is_disabled":false,"rental_uris":{"android":"levelo://app?vid=6656ae4f-58c5-4619-9d34-c285203d646d","ios":"levelo://app?vid=6656ae4f-58c5-4619-9d34-c285203d646d"},"vehicle_type_id":"4","last_reported":1687049179,"current_range_meters":25600,"station_id":"","pricing_plan_id":"free"},{"bike_id":"b2ce52a1-cc64-478d-b541-e6418ecffdaf","system_id":"levelo_inurba_marseille","lat":43.308012,"lon":5.381511,"is_reserved":false,"is_disabled":false,"rental_uris":{"android":"levelo://app?vid=b2ce52a1-cc64-478d-b541-e6418ecffdaf","ios":"levelo://app?vid=b2ce52a1-cc64-478d-b541-e6418ecffdaf"},"vehicle_type_id":"4","last_reported":1687049179,"current_range_meters":0,"station_id":"ce4bgt12rcd13ifvqce0","pricing_plan_id":"free"},{"bike_id":"ae33307b-fcd5-479b-9ae1-9002ed226c6e","system_id":"levelo_inurba_marseille","lat":43.308012,"lon":5.381511,"is_reserved":false,"is_disabled":false,"rental_uris":{"android":"levelo://app?vid=ae33307b-fcd5-479b-9ae1-9002ed226c6e","ios":"levelo://app?vid=ae33307b-fcd5-479b-9ae1-9002ed226c6e"},"vehicle_type_id":"4","last_reported":1687049179,"current_range_meters":31200,"station_id":"ce4bgt12rcd13ifvqce0","pricing_plan_id":"free"},{"bike_id":"4dd533f8-ae06-4536-ba81-d0b5828d5792","system_id":"levelo_inurba_marseille","lat":43.308012,"lon":5.381511,"is_reserved":false,"is_disabled":false,"rental_uris":{"android":"levelo://app?vid=4dd533f8-ae06-4536-ba81-d0b5828d5792","ios":"levelo://app?vid=4dd533f8-ae06-4536-ba81-d0b5828d5792"},"vehicle_type_id":"4","last_reported":1687049179,"current_range_meters":19200,"station_id":"ce4bgt12rcd13ifvqce0","pricing_plan_id":"free"},{"bike_id":"43fc693e-f2a9-4aec-8fd9-d094bb02cb70","system_id":"levelo_inurba_marseille","lat":43.304606,"lon":5.379026,"is_reserved":false,"is_disabled":false,"rental_uris":{"android":"levelo://app?vid=43fc693e-f2a9-4aec-8fd9-d094bb02cb70","ios":"levelo://app?vid=43fc693e-f2a9-4aec-8fd9-d094bb02cb70"},"vehicle_type_id":"4","last_reported":1687049179,"current_range_meters":19600,"station_id":"ce4bgup2rcd13ifvqcn0","pricing_plan_id":"free"},{"bike_id":"d7b9efc2-84f3-49fc-93f3-865a334fa1b1","system_id":"levelo_inurba_marseille","lat":43.30143,"lon":5.37413,"is_reserved":false,"is_disabled":false,"rental_uris":{"android":"levelo://app?vid=d7b9efc2-84f3-49fc-93f3-865a334fa1b1","ios":"levelo://app?vid=d7b9efc2-84f3-49fc-93f3-865a334fa1b1"},"vehicle_type_id":"4","last_reported":1687049179,"current_range_meters":8800,"station_id":"ce4bgs92rcd13ifvqcc0","pricing_plan_id":"free"},{"bike_id":"6b90b33e-43e5-439c-8712-0cf8846cf827","system_id":"levelo_inurba_marseille","lat":43.30143,"lon":5.37413,"is_reserved":false,"is_disabled":false,"rental_uris":{"android":"levelo://app?vid=6b90b33e-43e5-439c-8712-0cf8846cf827","ios":"levelo://app?vid=6b90b33e-43e5-439c-8712-0cf8846cf827"},"vehicle_type_id":"4","last_reported":1687049179,"current_range_meters":24800,"station_id":"ce4bgs92rcd13ifvqcc0","pricing_plan_id":"free"},{"bike_id":"3c3aa989-db63-4017-86a4-556c2b8f3d59","system_id":"levelo_inurba_marseille","lat":43.319935,"lon":5.381699,"is_reserved":false,"is_disabled":false,"rental_uris":{"android":"levelo://app?vid=3c3aa989-db63-4017-86a4-556c2b8f3d59","ios":"levelo://app?vid=3c3aa989-db63-4017-86a4-556c2b8f3d59"},"vehicle_type_id":"4","last_reported":1687049179,"current_range_meters":20400,"station_id":"ce4bhr12rcd13ifvqhpg","pricing_plan_id":"free"},{"bike_id":"5003c2fa-8578-4b5b-aee0-bf9c6a52e3f5","system_id":"levelo_inurba_marseille","lat":43.31996,"lon":5.38156,"is_reserved":false,"is_disabled":false,"rental_uris":{"android":"levelo://app?vid=5003c2fa-8578-4b5b-aee0-bf9c6a52e3f5","ios":"levelo://app?vid=5003c2fa-8578-4b5b-aee0-bf9c6a52e3f5"},"vehicle_type_id":"4","last_reported":1687049179,"current_range_meters":0,"station_id":"ce4bhr12rcd13ifvqhpg","pricing_plan_id":"free"},{"bike_id":"0d90829d-c5f9-4015-986a-d376131874e6","system_id":"levelo_inurba_marseille","lat":43.313571,"lon":5.384829,"is_reserved":false,"is_disabled":false,"rental_uris":{"android":"levelo://app?vid=0d90829d-c5f9-4015-986a-d376131874e6","ios":"levelo://app?vid=0d90829d-c5f9-4015-986a-d376131874e6"},"vehicle_type_id":"4","last_reported":1687049179,"current_range_meters":27200,"station_id":"ce4bgt92rcd13ifvqcf0","pricing_plan_id":"free"},{"bike_id":"be9b30f3-9373-4cea-afa6-196e414e5e56","system_id":"levelo_inurba_marseille","lat":43.31365,"lon":5.38494,"is_reserved":false,"is_disabled":false,"rental_uris":{"android":"levelo://app?vid=be9b30f3-9373-4cea-afa6-196e414e5e56","ios":"levelo://app?vid=be9b30f3-9373-4cea-afa6-196e414e5e56"},"vehicle_type_id":"4","last_reported":1687049179,"current_range_meters":25600,"station_id":"ce4bgt92rcd13ifvqcf0","pricing_plan_id":"free"},{"bike_id":"a37eae01-9c97-4166-a85a-f4f3ab945240","system_id":"levelo_inurba_marseille","lat":43.31374,"lon":5.38495,"is_reserved":false,"is_disabled":false,"rental_uris":{"android":"levelo://app?vid=a37eae01-9c97-4166-a85a-f4f3ab945240","ios":"levelo://app?vid=a37eae01-9c97-4166-a85a-f4f3ab945240"},"vehicle_type_id":"4","last_reported":1687049179,"current_range_meters":30400,"station_id":"ce4bgt92rcd13ifvqcf0","pricing_plan_id":"free"},{"bike_id":"b50ba2f7-d5f2-4418-a133-9c573d2a7e86","system_id":"levelo_inurba_marseille","lat":43.31365,"lon":5.38497,"is_reserved":false,"is_disabled":false,"rental_uris":{"android":"levelo://app?vid=b50ba2f7-d5f2-4418-a133-9c573d2a7e86","ios":"levelo://app?vid=b50ba2f7-d5f2-4418-a133-9c573d2a7e86"},"vehicle_type_id":"4","last_reported":1687049179,"current_range_meters":23600,"station_id":"ce4bgt92rcd13ifvqcf0","pricing_plan_id":"free"},{"bike_id":"4a57e2fa-aab3-4e22-bb4b-93f5b114fb05","system_id":"levelo_inurba_marseille","lat":43.31354,"lon":5.38499,"is_reserved":false,"is_disabled":false,"rental_uris":{"android":"levelo://app?vid=4a57e2fa-aab3-4e22-bb4b-93f5b114fb05","ios":"levelo://app?vid=4a57e2fa-aab3-4e22-bb4b-93f5b114fb05"},"vehicle_type_id":"4","last_reported":1687049179,"current_range_meters":13600,"station_id":"ce4bgt92rcd13ifvqcf0","pricing_plan_id":"free"},{"bike_id":"47851bed-6dee-4f60-a6d5-7a8303bf4d46","system_id":"levelo_inurba_marseille","lat":43.31375,"lon":5.385,"is_reserved":false,"is_disabled":false,"rental_uris":{"android":"levelo://app?vid=47851bed-6dee-4f60-a6d5-7a8303bf4d46","ios":"levelo://app?vid=47851bed-6dee-4f60-a6d5-7a8303bf4d46"},"vehicle_type_id":"4","last_reported":1687049179,"current_range_meters":31200,"station_id":"ce4bgt92rcd13ifvqcf0","pricing_plan_id":"free"},{"bike_id":"71500408-18a8-4462-a538-479ec487d429","system_id":"levelo_inurba_marseille","lat":43.31367,"lon":5.38501,"is_reserved":false,"is_disabled":false,"rental_uris":{"android":"levelo://app?vid=71500408-18a8-4462-a538-479ec487d429","ios":"levelo://app?vid=71500408-18a8-4462-a538-479ec487d429"},"vehicle_type_id":"4","last_reported":1687049179,"current_range_meters":30400,"station_id":"ce4bgt92rcd13ifvqcf0","pricing_plan_id":"free"},{"bike_id":"6e28bd5a-93e6-42b5-b6f5-0c239ef2e7f7","system_id":"levelo_inurba_marseille","lat":43.313571,"lon":5.384829,"is_reserved":false,"is_disabled":false,"rental_uris":{"android":"levelo://app?vid=6e28bd5a-93e6-42b5-b6f5-0c239ef2e7f7","ios":"levelo://app?vid=6e28bd5a-93e6-42b5-b6f5-0c239ef2e7f7"},"vehicle_type_id":"4","last_reported":1687049179,"current_range_meters":24800,"station_id":"ce4bgt92rcd13ifvqcf0","pricing_plan_id":"free"},{"bike_id":"9df6f6c5-ef10-4036-b037-0ac3f0c6ceab","system_id":"levelo_inurba_marseille","lat":43.31368,"lon":5.38503,"is_reserved":false,"is_disabled":false,"rental_uris":{"android":"levelo://app?vid=9df6f6c5-ef10-4036-b037-0ac3f0c6ceab","ios":"levelo://app?vid=9df6f6c5-ef10-4036-b037-0ac3f0c6ceab"},"vehicle_type_id":"4","last_reported":1687049179,"current_range_meters":30400,"station_id":"","pricing_plan_id":"free"},{"bike_id":"9f2a96b0-ee04-4dc0-bb33-b97070d5fcbc","system_id":"levelo_inurba_marseille","lat":43.31365,"lon":5.38504,"is_reserved":false,"is_disabled":false,"rental_uris":{"android":"levelo://app?vid=9f2a96b0-ee04-4dc0-bb33-b97070d5fcbc","ios":"levelo://app?vid=9f2a96b0-ee04-4dc0-bb33-b97070d5fcbc"},"vehicle_type_id":"4","last_reported":1687049179,"current_range_meters":30000,"station_id":"ce4bgt92rcd13ifvqcf0","pricing_plan_id":"free"},{"bike_id":"f079f503-8210-4f5c-97ef-c120255793ab","system_id":"levelo_inurba_marseille","lat":43.299222,"lon":5.365554,"is_reserved":false,"is_disabled":false,"rental_uris":{"android":"levelo://app?vid=f079f503-8210-4f5c-97ef-c120255793ab","ios":"levelo://app?vid=f079f503-8210-4f5c-97ef-c120255793ab"},"vehicle_type_id":"4","last_reported":1687049179,"current_range_meters":20800,"station_id":"ce4bgm92rcd13ifvqbr0","pricing_plan_id":"free"},{"bike_id":"330412da-b9eb-49fa-9ba0-9288ee9ddd31","system_id":"levelo_inurba_marseille","lat":43.30046,"lon":5.37518,"is_reserved":false,"is_disabled":false,"rental_uris":{"android":"levelo://app?vid=330412da-b9eb-49fa-9ba0-9288ee9ddd31","ios":"levelo://app?vid=330412da-b9eb-49fa-9ba0-9288ee9ddd31"},"vehicle_type_id":"4","last_reported":1687049179,"current_range_meters":16800,"station_id":"","pricing_plan_id":"free"},{"bike_id":"87d94680-cb9b-4a9a-a11b-3c1f095a6825","system_id":"levelo_inurba_marseille","lat":43.311722,"lon":5.387247,"is_reserved":false,"is_disabled":false,"rental_uris":{"android":"levelo://app?vid=87d94680-cb9b-4a9a-a11b-3c1f095a6825","ios":"levelo://app?vid=87d94680-cb9b-4a9a-a11b-3c1f095a6825"},"vehicle_type_id":"4","last_reported":1687049179,"current_range_meters":26400,"station_id":"ce4bgv12rcd13ifvqcp0","pricing_plan_id":"free"},{"bike_id":"4a7865df-33ab-4428-a972-c332c8fb4662","system_id":"levelo_inurba_marseille","lat":43.297794,"lon":5.370888,"is_reserved":false,"is_disabled":false,"rental_uris":{"android":"levelo://app?vid=4a7865df-33ab-4428-a972-c332c8fb4662","ios":"levelo://app?vid=4a7865df-33ab-4428-a972-c332c8fb4662"},"vehicle_type_id":"4","last_reported":1687049179,"current_range_meters":29600,"station_id":"ce4bgop2rcd13ifvqc1g","pricing_plan_id":"free"},{"bike_id":"6d5ccf33-759a-4c7a-af82-9f67388b4177","system_id":"levelo_inurba_marseille","lat":43.328371,"lon":5.366909,"is_reserved":false,"is_disabled":false,"rental_uris":{"android":"levelo://app?vid=6d5ccf33-759a-4c7a-af82-9f67388b4177","ios":"levelo://app?vid=6d5ccf33-759a-4c7a-af82-9f67388b4177"},"vehicle_type_id":"4","last_reported":1687049179,"current_range_meters":31200,"station_id":"ce4bhs92rcd13ifvqi0g","pricing_plan_id":"free"},{"bike_id":"69bf5c29-7e5d-45c7-b1b2-514d42707ee7","system_id":"levelo_inurba_marseille","lat":43.328371,"lon":5.366909,"is_reserved":false,"is_disabled":false,"rental_uris":{"android":"levelo://app?vid=69bf5c29-7e5d-45c7-b1b2-514d42707ee7","ios":"levelo://app?vid=69bf5c29-7e5d-45c7-b1b2-514d42707ee7"},"vehicle_type_id":"4","last_reported":1687049179,"current_range_meters":31200,"station_id":"ce4bhs92rcd13ifvqi0g","pricing_plan_id":"free"},{"bike_id":"731cce5d-c725-402d-b941-54910a08f036","system_id":"levelo_inurba_marseille","lat":43.32828,"lon":5.36683,"is_reserved":false,"is_disabled":false,"rental_uris":{"android":"levelo://app?vid=731cce5d-c725-402d-b941-54910a08f036","ios":"levelo://app?vid=731cce5d-c725-402d-b941-54910a08f036"},"vehicle_type_id":"4","last_reported":1687049179,"current_range_meters":31200,"station_id":"ce4bhs92rcd13ifvqi0g","pricing_plan_id":"free"},{"bike_id":"bcb29fbe-0b37-4e2a-8674-e8090cda3df1","system_id":"levelo_inurba_marseille","lat":43.328371,"lon":5.366909,"is_reserved":false,"is_disabled":false,"rental_uris":{"android":"levelo://app?vid=bcb29fbe-0b37-4e2a-8674-e8090cda3df1","ios":"levelo://app?vid=bcb29fbe-0b37-4e2a-8674-e8090cda3df1"},"vehicle_type_id":"4","last_reported":1687049179,"current_range_meters":31200,"station_id":"ce4bhs92rcd13ifvqi0g","pricing_plan_id":"free"},{"bike_id":"3a370e0c-05ee-4a84-9b50-cd3c6137f4e3","system_id":"levelo_inurba_marseille","lat":43.328371,"lon":5.366909,"is_reserved":false,"is_disabled":false,"rental_uris":{"android":"levelo://app?vid=3a370e0c-05ee-4a84-9b50-cd3c6137f4e3","ios":"levelo://app?vid=3a370e0c-05ee-4a84-9b50-cd3c6137f4e3"},"vehicle_type_id":"4","last_reported":1687049179,"current_range_meters":13600,"station_id":"ce4bhs92rcd13ifvqi0g","pricing_plan_id":"free"},{"bike_id":"dba9e30e-a749-43fa-a75b-51b691339771","system_id":"levelo_inurba_marseille","lat":43.328371,"lon":5.366909,"is_reserved":false,"is_disabled":false,"rental_uris":{"android":"levelo://app?vid=dba9e30e-a749-43fa-a75b-51b691339771","ios":"levelo://app?vid=dba9e30e-a749-43fa-a75b-51b691339771"},"vehicle_type_id":"4","last_reported":1687049179,"current_range_meters":31200,"station_id":"ce4bhs92rcd13ifvqi0g","pricing_plan_id":"free"},{"bike_id":"c425ddc1-98fb-4f5b-a30e-e4f1e90290b1","system_id":"levelo_inurba_marseille","lat":43.328371,"lon":5.366909,"is_reserved":false,"is_disabled":false,"rental_uris":{"android":"levelo://app?vid=c425ddc1-98fb-4f5b-a30e-e4f1e90290b1","ios":"levelo://app?vid=c425ddc1-98fb-4f5b-a30e-e4f1e90290b1"},"vehicle_type_id":"4","last_reported":1687049179,"current_range_meters":8400,"station_id":"ce4bhs92rcd13ifvqi0g","pricing_plan_id":"free"},{"bike_id":"1d3d18ff-fbf4-41db-ad9a-89755d22ca16","system_id":"levelo_inurba_marseille","lat":43.328371,"lon":5.366909,"is_reserved":false,"is_disabled":false,"rental_uris":{"android":"levelo://app?vid=1d3d18ff-fbf4-41db-ad9a-89755d22ca16","ios":"levelo://app?vid=1d3d18ff-fbf4-41db-ad9a-89755d22ca16"},"vehicle_type_id":"4","last_reported":1687049179,"current_range_meters":31200,"station_id":"ce4bhs92rcd13ifvqi0g","pricing_plan_id":"free"},{"bike_id":"176f4894-d7fc-460e-aa5d-7c8c1e206dc3","system_id":"levelo_inurba_marseille","lat":43.297163,"lon":5.365866,"is_reserved":false,"is_disabled":false,"rental_uris":{"android":"levelo://app?vid=176f4894-d7fc-460e-aa5d-7c8c1e206dc3","ios":"levelo://app?vid=176f4894-d7fc-460e-aa5d-7c8c1e206dc3"},"vehicle_type_id":"4","last_reported":1687049179,"current_range_meters":13600,"station_id":"ce4bgn12rcd13ifvqbt0","pricing_plan_id":"free"},{"bike_id":"88d0330c-5bb0-4a19-9b65-d4683b42e015","system_id":"levelo_inurba_marseille","lat":43.29683,"lon":5.36046,"is_reserved":false,"is_disabled":false,"rental_uris":{"android":"levelo://app?vid=88d0330c-5bb0-4a19-9b65-d4683b42e015","ios":"levelo://app?vid=88d0330c-5bb0-4a19-9b65-d4683b42e015"},"vehicle_type_id":"4","last_reported":1687049179,"current_range_meters":4400,"station_id":"ce4bgpp2rcd13ifvqc3g","pricing_plan_id":"free"},{"bike_id":"24f41ca5-b432-4feb-a0c8-a15026b97306","system_id":"levelo_inurba_marseille","lat":43.296131,"lon":5.370773,"is_reserved":false,"is_disabled":false,"rental_uris":{"android":"levelo://app?vid=24f41ca5-b432-4feb-a0c8-a15026b97306","ios":"levelo://app?vid=24f41ca5-b432-4feb-a0c8-a15026b97306"},"vehicle_type_id":"4","last_reported":1687049179,"current_range_meters":14000,"station_id":"ce4bgnh2rcd13ifvqc0g","pricing_plan_id":"free"},{"bike_id":"3f6fc75e-d9a7-4759-b637-6aa9608e1e7f","system_id":"levelo_inurba_marseille","lat":43.317557,"lon":5.390173,"is_reserved":false,"is_disabled":false,"rental_uris":{"android":"levelo://app?vid=3f6fc75e-d9a7-4759-b637-6aa9608e1e7f","ios":"levelo://app?vid=3f6fc75e-d9a7-4759-b637-6aa9608e1e7f"},"vehicle_type_id":"4","last_reported":1687049179,"current_range_meters":22800,"station_id":"ce4bhqp2rcd13ifvqhng","pricing_plan_id":"free"},{"bike_id":"d89a6111-594c-4044-bab7-fa8ad5f81068","system_id":"levelo_inurba_marseille","lat":43.317557,"lon":5.390173,"is_reserved":false,"is_disabled":false,"rental_uris":{"android":"levelo://app?vid=d89a6111-594c-4044-bab7-fa8ad5f81068","ios":"levelo://app?vid=d89a6111-594c-4044-bab7-fa8ad5f81068"},"vehicle_type_id":"4","last_reported":1687049179,"current_range_meters":5600,"station_id":"ce4bhqp2rcd13ifvqhng","pricing_plan_id":"free"},{"bike_id":"4a10882c-7152-4233-bc08-3e7673adbd38","system_id":"levelo_inurba_marseille","lat":43.317557,"lon":5.390173,"is_reserved":false,"is_disabled":false,"rental_uris":{"android":"levelo://app?vid=4a10882c-7152-4233-bc08-3e7673adbd38","ios":"levelo://app?vid=4a10882c-7152-4233-bc08-3e7673adbd38"},"vehicle_type_id":"4","last_reported":1687049179,"current_range_meters":27200,"station_id":"ce4bhqp2rcd13ifvqhng","pricing_plan_id":"free"},{"bike_id":"250c8a96-8498-4211-b8f3-1b00a8d1fbaf","system_id":"levelo_inurba_marseille","lat":43.296477,"lon":5.37768,"is_reserved":false,"is_disabled":false,"rental_uris":{"android":"levelo://app?vid=250c8a96-8498-4211-b8f3-1b00a8d1fbaf","ios":"levelo://app?vid=250c8a96-8498-4211-b8f3-1b00a8d1fbaf"},"vehicle_type_id":"4","last_reported":1687049179,"current_range_meters":14800,"station_id":"","pricing_plan_id":"free"},{"bike_id":"f632d761-42bb-476b-a895-6312bdabc091","system_id":"levelo_inurba_marseille","lat":43.304278,"lon":5.388868,"is_reserved":false,"is_disabled":false,"rental_uris":{"android":"levelo://app?vid=f632d761-42bb-476b-a895-6312bdabc091","ios":"levelo://app?vid=f632d761-42bb-476b-a895-6312bdabc091"},"vehicle_type_id":"4","last_reported":1687049179,"current_range_meters":23200,"station_id":"ce4bgk12rcd13ifvqbi0","pricing_plan_id":"free"},{"bike_id":"a3852343-0ebc-425b-9db4-b807831bb9d0","system_id":"levelo_inurba_marseille","lat":43.299707,"lon":5.384859,"is_reserved":false,"is_disabled":false,"rental_uris":{"android":"levelo://app?vid=a3852343-0ebc-425b-9db4-b807831bb9d0","ios":"levelo://app?vid=a3852343-0ebc-425b-9db4-b807831bb9d0"},"vehicle_type_id":"4","last_reported":1687049179,"current_range_meters":24800,"station_id":"ce4bgj92rcd13ifvqbd0","pricing_plan_id":"free"},{"bike_id":"91957a4a-c41e-4558-a341-4109e988134b","system_id":"levelo_inurba_marseille","lat":43.299707,"lon":5.384859,"is_reserved":false,"is_disabled":false,"rental_uris":{"android":"levelo://app?vid=91957a4a-c41e-4558-a341-4109e988134b","ios":"levelo://app?vid=91957a4a-c41e-4558-a341-4109e988134b"},"vehicle_type_id":"4","last_reported":1687049179,"current_range_meters":21600,"station_id":"ce4bgj92rcd13ifvqbd0","pricing_plan_id":"free"},{"bike_id":"a68bc63a-8d03-4c81-9e23-0d9c6cc27a10","system_id":"levelo_inurba_marseille","lat":43.299717,"lon":5.384845,"is_reserved":false,"is_disabled":false,"rental_uris":{"android":"levelo://app?vid=a68bc63a-8d03-4c81-9e23-0d9c6cc27a10","ios":"levelo://app?vid=a68bc63a-8d03-4c81-9e23-0d9c6cc27a10"},"vehicle_type_id":"4","last_reported":1687049179,"current_range_meters":2800,"station_id":"ce4bgj92rcd13ifvqbd0","pricing_plan_id":"free"},{"bike_id":"eb56f040-d7e3-440c-9d05-82afe187dd21","system_id":"levelo_inurba_marseille","lat":43.299717,"lon":5.384845,"is_reserved":false,"is_disabled":false,"rental_uris":{"android":"levelo://app?vid=eb56f040-d7e3-440c-9d05-82afe187dd21","ios":"levelo://app?vid=eb56f040-d7e3-440c-9d05-82afe187dd21"},"vehicle_type_id":"4","last_reported":1687049179,"current_range_meters":30800,"station_id":"ce4bgj92rcd13ifvqbd0","pricing_plan_id":"free"},{"bike_id":"6e40926a-356b-4831-8b76-bfd9bcdd471c","system_id":"levelo_inurba_marseille","lat":43.302759,"lon":5.400793,"is_reserved":false,"is_disabled":false,"rental_uris":{"android":"levelo://app?vid=6e40926a-356b-4831-8b76-bfd9bcdd471c","ios":"levelo://app?vid=6e40926a-356b-4831-8b76-bfd9bcdd471c"},"vehicle_type_id":"4","last_reported":1687049179,"current_range_meters":27200,"station_id":"ce4bgvh2rcd13ifvqcs0","pricing_plan_id":"free"},{"bike_id":"2c9ad911-25e0-4222-8751-d809dfadd582","system_id":"levelo_inurba_marseille","lat":43.32375,"lon":5.3886,"is_reserved":false,"is_disabled":false,"rental_uris":{"android":"levelo://app?vid=2c9ad911-25e0-4222-8751-d809dfadd582","ios":"levelo://app?vid=2c9ad911-25e0-4222-8751-d809dfadd582"},"vehicle_type_id":"4","last_reported":1687049179,"current_range_meters":23600,"station_id":"ce4bhqp2rcd13ifvqhog","pricing_plan_id":"free"},{"bike_id":"57f97489-c42b-4c9d-8f2a-d39ab8b39f5a","system_id":"levelo_inurba_marseille","lat":43.32367,"lon":5.388836,"is_reserved":false,"is_disabled":false,"rental_uris":{"android":"levelo://app?vid=57f97489-c42b-4c9d-8f2a-d39ab8b39f5a","ios":"levelo://app?vid=57f97489-c42b-4c9d-8f2a-d39ab8b39f5a"},"vehicle_type_id":"4","last_reported":1687049179,"current_range_meters":12000,"station_id":"ce4bhqp2rcd13ifvqhog","pricing_plan_id":"free"},{"bike_id":"05d585c0-9c9e-4f05-83e5-50aae80e7424","system_id":"levelo_inurba_marseille","lat":43.32367,"lon":5.388836,"is_reserved":false,"is_disabled":false,"rental_uris":{"android":"levelo://app?vid=05d585c0-9c9e-4f05-83e5-50aae80e7424","ios":"levelo://app?vid=05d585c0-9c9e-4f05-83e5-50aae80e7424"},"vehicle_type_id":"4","last_reported":1687049179,"current_range_meters":6000,"station_id":"ce4bhqp2rcd13ifvqhog","pricing_plan_id":"free"},{"bike_id":"6b4d4d55-f9ce-4a35-a295-795e3acc7e51","system_id":"levelo_inurba_marseille","lat":43.32367,"lon":5.388836,"is_reserved":false,"is_disabled":false,"rental_uris":{"android":"levelo://app?vid=6b4d4d55-f9ce-4a35-a295-795e3acc7e51","ios":"levelo://app?vid=6b4d4d55-f9ce-4a35-a295-795e3acc7e51"},"vehicle_type_id":"4","last_reported":1687049179,"current_range_meters":28400,"station_id":"ce4bhqp2rcd13ifvqhog","pricing_plan_id":"free"},{"bike_id":"a5d34394-8ea3-4622-ac56-bc8a8abe2d11","system_id":"levelo_inurba_marseille","lat":43.32367,"lon":5.388836,"is_reserved":false,"is_disabled":false,"rental_uris":{"android":"levelo://app?vid=a5d34394-8ea3-4622-ac56-bc8a8abe2d11","ios":"levelo://app?vid=a5d34394-8ea3-4622-ac56-bc8a8abe2d11"},"vehicle_type_id":"4","last_reported":1687049179,"current_range_meters":31200,"station_id":"ce4bhqp2rcd13ifvqhog","pricing_plan_id":"free"},{"bike_id":"6bf2229b-f534-4647-b322-42cb17c0e26c","system_id":"levelo_inurba_marseille","lat":43.323667,"lon":5.388827,"is_reserved":false,"is_disabled":false,"rental_uris":{"android":"levelo://app?vid=6bf2229b-f534-4647-b322-42cb17c0e26c","ios":"levelo://app?vid=6bf2229b-f534-4647-b322-42cb17c0e26c"},"vehicle_type_id":"4","last_reported":1687049179,"current_range_meters":17600,"station_id":"ce4bhqp2rcd13ifvqhog","pricing_plan_id":"free"},{"bike_id":"c25bbca6-334a-48c9-b2aa-c69eb97c9d81","system_id":"levelo_inurba_marseille","lat":43.32367,"lon":5.388836,"is_reserved":false,"is_disabled":false,"rental_uris":{"android":"levelo://app?vid=c25bbca6-334a-48c9-b2aa-c69eb97c9d81","ios":"levelo://app?vid=c25bbca6-334a-48c9-b2aa-c69eb97c9d81"},"vehicle_type_id":"4","last_reported":1687049179,"current_range_meters":12400,"station_id":"ce4bhqp2rcd13ifvqhog","pricing_plan_id":"free"},{"bike_id":"516c0ce3-d332-458a-9ade-293bc05411d3","system_id":"levelo_inurba_marseille","lat":43.32367,"lon":5.388836,"is_reserved":false,"is_disabled":false,"rental_uris":{"android":"levelo://app?vid=516c0ce3-d332-458a-9ade-293bc05411d3","ios":"levelo://app?vid=516c0ce3-d332-458a-9ade-293bc05411d3"},"vehicle_type_id":"4","last_reported":1687049179,"current_range_meters":19600,"station_id":"ce4bhqp2rcd13ifvqhog","pricing_plan_id":"free"},{"bike_id":"994ffda2-4c5a-4608-9f56-696508fcf4bd","system_id":"levelo_inurba_marseille","lat":43.32367,"lon":5.388836,"is_reserved":false,"is_disabled":false,"rental_uris":{"android":"levelo://app?vid=994ffda2-4c5a-4608-9f56-696508fcf4bd","ios":"levelo://app?vid=994ffda2-4c5a-4608-9f56-696508fcf4bd"},"vehicle_type_id":"4","last_reported":1687049179,"current_range_meters":15200,"station_id":"ce4bhqp2rcd13ifvqhog","pricing_plan_id":"free"},{"bike_id":"bd5e051b-6414-4247-b6a0-72183ead9f6c","system_id":"levelo_inurba_marseille","lat":43.31972,"lon":5.392,"is_reserved":false,"is_disabled":false,"rental_uris":{"android":"levelo://app?vid=bd5e051b-6414-4247-b6a0-72183ead9f6c","ios":"levelo://app?vid=bd5e051b-6414-4247-b6a0-72183ead9f6c"},"vehicle_type_id":"4","last_reported":1687049179,"current_range_meters":8000,"station_id":"","pricing_plan_id":"free"},{"bike_id":"0bb85e9a-a638-4706-a270-489b001f3494","system_id":"levelo_inurba_marseille","lat":43.302992,"lon":5.392136,"is_reserved":false,"is_disabled":false,"rental_uris":{"android":"levelo://app?vid=0bb85e9a-a638-4706-a270-489b001f3494","ios":"levelo://app?vid=0bb85e9a-a638-4706-a270-489b001f3494"},"vehicle_type_id":"4","last_reported":1687049179,"current_range_meters":6400,"station_id":"ce4bgkh2rcd13ifvqbk0","pricing_plan_id":"free"},{"bike_id":"a4cddb23-f500-471c-84ba-145709be69c3","system_id":"levelo_inurba_marseille","lat":43.300852,"lon":5.390859,"is_reserved":false,"is_disabled":false,"rental_uris":{"android":"levelo://app?vid=a4cddb23-f500-471c-84ba-145709be69c3","ios":"levelo://app?vid=a4cddb23-f500-471c-84ba-145709be69c3"},"vehicle_type_id":"4","last_reported":1687049179,"current_range_meters":12800,"station_id":"ce4bh192rcd13ifvqdb0","pricing_plan_id":"free"},{"bike_id":"d2cdcd55-e271-4561-b137-60a0369655a2","system_id":"levelo_inurba_marseille","lat":43.30085,"lon":5.390856,"is_reserved":false,"is_disabled":false,"rental_uris":{"android":"levelo://app?vid=d2cdcd55-e271-4561-b137-60a0369655a2","ios":"levelo://app?vid=d2cdcd55-e271-4561-b137-60a0369655a2"},"vehicle_type_id":"4","last_reported":1687049179,"current_range_meters":30000,"station_id":"ce4bh192rcd13ifvqdb0","pricing_plan_id":"free"},{"bike_id":"46289fa7-65b2-43e0-962d-7f4b0c7e7f37","system_id":"levelo_inurba_marseille","lat":43.30894,"lon":5.39626,"is_reserved":false,"is_disabled":false,"rental_uris":{"android":"levelo://app?vid=46289fa7-65b2-43e0-962d-7f4b0c7e7f37","ios":"levelo://app?vid=46289fa7-65b2-43e0-962d-7f4b0c7e7f37"},"vehicle_type_id":"4","last_reported":1687049179,"current_range_meters":25200,"station_id":"ce4bh012rcd13ifvqcv0","pricing_plan_id":"free"},{"bike_id":"2b0aedbb-f6c9-4026-8f50-60792a4d6c25","system_id":"levelo_inurba_marseille","lat":43.30879,"lon":5.39634,"is_reserved":false,"is_disabled":false,"rental_uris":{"android":"levelo://app?vid=2b0aedbb-f6c9-4026-8f50-60792a4d6c25","ios":"levelo://app?vid=2b0aedbb-f6c9-4026-8f50-60792a4d6c25"},"vehicle_type_id":"4","last_reported":1687049179,"current_range_meters":20000,"station_id":"","pricing_plan_id":"free"},{"bike_id":"80dfa593-6862-42a7-9871-f730c2af4749","system_id":"levelo_inurba_marseille","lat":43.313291,"lon":5.396838,"is_reserved":false,"is_disabled":false,"rental_uris":{"android":"levelo://app?vid=80dfa593-6862-42a7-9871-f730c2af4749","ios":"levelo://app?vid=80dfa593-6862-42a7-9871-f730c2af4749"},"vehicle_type_id":"4","last_reported":1687049179,"current_range_meters":31200,"station_id":"ce4bgvp2rcd13ifvqcu0","pricing_plan_id":"free"},{"bike_id":"207ecc72-159c-4ae7-88aa-5dc2fac9a3d8","system_id":"levelo_inurba_marseille","lat":43.313291,"lon":5.396838,"is_reserved":false,"is_disabled":false,"rental_uris":{"android":"levelo://app?vid=207ecc72-159c-4ae7-88aa-5dc2fac9a3d8","ios":"levelo://app?vid=207ecc72-159c-4ae7-88aa-5dc2fac9a3d8"},"vehicle_type_id":"4","last_reported":1687049179,"current_range_meters":28800,"station_id":"ce4bgvp2rcd13ifvqcu0","pricing_plan_id":"free"},{"bike_id":"a4a65385-7ff2-4adc-b6d8-4ca98d249d15","system_id":"levelo_inurba_marseille","lat":43.291994,"lon":5.357886,"is_reserved":false,"is_disabled":false,"rental_uris":{"android":"levelo://app?vid=a4a65385-7ff2-4adc-b6d8-4ca98d249d15","ios":"levelo://app?vid=a4a65385-7ff2-4adc-b6d8-4ca98d249d15"},"vehicle_type_id":"4","last_reported":1687049179,"current_range_meters":23200,"station_id":"ce4bhb12rcd13ifvqel0","pricing_plan_id":"free"},{"bike_id":"7b131414-1faa-4c9c-acf8-a8f42ea160db","system_id":"levelo_inurba_marseille","lat":43.313291,"lon":5.396838,"is_reserved":false,"is_disabled":false,"rental_uris":{"android":"levelo://app?vid=7b131414-1faa-4c9c-acf8-a8f42ea160db","ios":"levelo://app?vid=7b131414-1faa-4c9c-acf8-a8f42ea160db"},"vehicle_type_id":"4","last_reported":1687049179,"current_range_meters":3600,"station_id":"ce4bgvp2rcd13ifvqcu0","pricing_plan_id":"free"},{"bike_id":"2c2bd094-5ccd-443b-8115-70615c977b46","system_id":"levelo_inurba_marseille","lat":43.313291,"lon":5.396838,"is_reserved":false,"is_disabled":false,"rental_uris":{"android":"levelo://app?vid=2c2bd094-5ccd-443b-8115-70615c977b46","ios":"levelo://app?vid=2c2bd094-5ccd-443b-8115-70615c977b46"},"vehicle_type_id":"4","last_reported":1687049179,"current_range_meters":24000,"station_id":"ce4bgvp2rcd13ifvqcu0","pricing_plan_id":"free"},{"bike_id":"d1e01e1b-0812-4706-a408-96e22cf8e5b8","system_id":"levelo_inurba_marseille","lat":43.291994,"lon":5.357886,"is_reserved":false,"is_disabled":false,"rental_uris":{"android":"levelo://app?vid=d1e01e1b-0812-4706-a408-96e22cf8e5b8","ios":"levelo://app?vid=d1e01e1b-0812-4706-a408-96e22cf8e5b8"},"vehicle_type_id":"4","last_reported":1687049179,"current_range_meters":25600,"station_id":"ce4bhb12rcd13ifvqel0","pricing_plan_id":"free"},{"bike_id":"279e04c7-e537-4d5f-b788-544376849e28","system_id":"levelo_inurba_marseille","lat":43.313291,"lon":5.396838,"is_reserved":false,"is_disabled":false,"rental_uris":{"android":"levelo://app?vid=279e04c7-e537-4d5f-b788-544376849e28","ios":"levelo://app?vid=279e04c7-e537-4d5f-b788-544376849e28"},"vehicle_type_id":"4","last_reported":1687049179,"current_range_meters":31200,"station_id":"ce4bgvp2rcd13ifvqcu0","pricing_plan_id":"free"},{"bike_id":"1175779c-621d-4b79-aeaf-18ccf584fda9","system_id":"levelo_inurba_marseille","lat":43.30884,"lon":5.39655,"is_reserved":false,"is_disabled":false,"rental_uris":{"android":"levelo://app?vid=1175779c-621d-4b79-aeaf-18ccf584fda9","ios":"levelo://app?vid=1175779c-621d-4b79-aeaf-18ccf584fda9"},"vehicle_type_id":"4","last_reported":1687049179,"current_range_meters":30000,"station_id":"ce4bh012rcd13ifvqcv0","pricing_plan_id":"free"},{"bike_id":"2062b11c-a9c7-48c7-81d6-71a310c44278","system_id":"levelo_inurba_marseille","lat":43.3088,"lon":5.39657,"is_reserved":false,"is_disabled":false,"rental_uris":{"android":"levelo://app?vid=2062b11c-a9c7-48c7-81d6-71a310c44278","ios":"levelo://app?vid=2062b11c-a9c7-48c7-81d6-71a310c44278"},"vehicle_type_id":"4","last_reported":1687049179,"current_range_meters":31200,"station_id":"","pricing_plan_id":"free"},{"bike_id":"fdec3b17-726b-4ffe-b2dc-8da9341fb36c","system_id":"levelo_inurba_marseille","lat":43.29179,"lon":5.35797,"is_reserved":false,"is_disabled":false,"rental_uris":{"android":"levelo://app?vid=fdec3b17-726b-4ffe-b2dc-8da9341fb36c","ios":"levelo://app?vid=fdec3b17-726b-4ffe-b2dc-8da9341fb36c"},"vehicle_type_id":"4","last_reported":1687049179,"current_range_meters":30800,"station_id":"ce4bhb12rcd13ifvqel0","pricing_plan_id":"free"},{"bike_id":"7b01f786-7470-4639-b779-eb329fba145a","system_id":"levelo_inurba_marseille","lat":43.30886,"lon":5.39662,"is_reserved":false,"is_disabled":false,"rental_uris":{"android":"levelo://app?vid=7b01f786-7470-4639-b779-eb329fba145a","ios":"levelo://app?vid=7b01f786-7470-4639-b779-eb329fba145a"},"vehicle_type_id":"4","last_reported":1687049179,"current_range_meters":26800,"station_id":"ce4bh012rcd13ifvqcv0","pricing_plan_id":"free"},{"bike_id":"a402ce1a-97a5-47dc-8abc-3cb842d08948","system_id":"levelo_inurba_marseille","lat":43.29525,"lon":5.38534,"is_reserved":false,"is_disabled":false,"rental_uris":{"android":"levelo://app?vid=a402ce1a-97a5-47dc-8abc-3cb842d08948","ios":"levelo://app?vid=a402ce1a-97a5-47dc-8abc-3cb842d08948"},"vehicle_type_id":"4","last_reported":1687049179,"current_range_meters":18400,"station_id":"ce4bgih2rcd13ifvqba0","pricing_plan_id":"free"},{"bike_id":"d3369d4c-d5ee-425a-9c1a-ed93fb2a9e9c","system_id":"levelo_inurba_marseille","lat":43.290779,"lon":5.371482,"is_reserved":false,"is_disabled":false,"rental_uris":{"android":"levelo://app?vid=d3369d4c-d5ee-425a-9c1a-ed93fb2a9e9c","ios":"levelo://app?vid=d3369d4c-d5ee-425a-9c1a-ed93fb2a9e9c"},"vehicle_type_id":"4","last_reported":1687049179,"current_range_meters":30000,"station_id":"ce4bh5p2rcd13ifvqe4g","pricing_plan_id":"free"},{"bike_id":"2b741cbc-8c42-4c85-8c4e-3a20134f7fe0","system_id":"levelo_inurba_marseille","lat":43.290631,"lon":5.359244,"is_reserved":false,"is_disabled":false,"rental_uris":{"android":"levelo://app?vid=2b741cbc-8c42-4c85-8c4e-3a20134f7fe0","ios":"levelo://app?vid=2b741cbc-8c42-4c85-8c4e-3a20134f7fe0"},"vehicle_type_id":"4","last_reported":1687049179,"current_range_meters":18800,"station_id":"ce4bha92rcd13ifvqeg0","pricing_plan_id":"free"},{"bike_id":"88950928-f9de-4116-a4f7-2573e4140727","system_id":"levelo_inurba_marseille","lat":43.290631,"lon":5.359244,"is_reserved":false,"is_disabled":false,"rental_uris":{"android":"levelo://app?vid=88950928-f9de-4116-a4f7-2573e4140727","ios":"levelo://app?vid=88950928-f9de-4116-a4f7-2573e4140727"},"vehicle_type_id":"4","last_reported":1687049179,"current_range_meters":30800,"station_id":"ce4bha92rcd13ifvqeg0","pricing_plan_id":"free"},{"bike_id":"9f1635c4-cc44-481f-96fd-4988ef9ed4da","system_id":"levelo_inurba_marseille","lat":43.290624,"lon":5.359245,"is_reserved":false,"is_disabled":false,"rental_uris":{"android":"levelo://app?vid=9f1635c4-cc44-481f-96fd-4988ef9ed4da","ios":"levelo://app?vid=9f1635c4-cc44-481f-96fd-4988ef9ed4da"},"vehicle_type_id":"4","last_reported":1687049179,"current_range_meters":30000,"station_id":"ce4bha92rcd13ifvqeg0","pricing_plan_id":"free"},{"bike_id":"1743d1fe-ee02-459e-ac0d-6c270c98c590","system_id":"levelo_inurba_marseille","lat":43.290624,"lon":5.359245,"is_reserved":false,"is_disabled":false,"rental_uris":{"android":"levelo://app?vid=1743d1fe-ee02-459e-ac0d-6c270c98c590","ios":"levelo://app?vid=1743d1fe-ee02-459e-ac0d-6c270c98c590"},"vehicle_type_id":"4","last_reported":1687049179,"current_range_meters":19200,"station_id":"ce4bha92rcd13ifvqeg0","pricing_plan_id":"free"},{"bike_id":"13a82150-e9c8-4869-a14b-e3c30e80ded9","system_id":"levelo_inurba_marseille","lat":43.290631,"lon":5.359244,"is_reserved":false,"is_disabled":false,"rental_uris":{"android":"levelo://app?vid=13a82150-e9c8-4869-a14b-e3c30e80ded9","ios":"levelo://app?vid=13a82150-e9c8-4869-a14b-e3c30e80ded9"},"vehicle_type_id":"4","last_reported":1687049179,"current_range_meters":22800,"station_id":"ce4bha92rcd13ifvqeg0","pricing_plan_id":"free"},{"bike_id":"97ad0095-a1a8-484f-a757-97e0f3cf85da","system_id":"levelo_inurba_marseille","lat":43.289184,"lon":5.366408,"is_reserved":false,"is_disabled":false,"rental_uris":{"android":"levelo://app?vid=97ad0095-a1a8-484f-a757-97e0f3cf85da","ios":"levelo://app?vid=97ad0095-a1a8-484f-a757-97e0f3cf85da"},"vehicle_type_id":"4","last_reported":1687049179,"current_range_meters":31200,"station_id":"ce4bhap2rcd13ifvqek0","pricing_plan_id":"free"},{"bike_id":"bbafb176-df06-4519-94d6-4df36d602277","system_id":"levelo_inurba_marseille","lat":43.289401,"lon":5.36643,"is_reserved":false,"is_disabled":false,"rental_uris":{"android":"levelo://app?vid=bbafb176-df06-4519-94d6-4df36d602277","ios":"levelo://app?vid=bbafb176-df06-4519-94d6-4df36d602277"},"vehicle_type_id":"4","last_reported":1687049179,"current_range_meters":12000,"station_id":"","pricing_plan_id":"free"},{"bike_id":"35fcd343-02b8-44f4-8ca6-b387bb84d032","system_id":"levelo_inurba_marseille","lat":43.289184,"lon":5.366408,"is_reserved":false,"is_disabled":false,"rental_uris":{"android":"levelo://app?vid=35fcd343-02b8-44f4-8ca6-b387bb84d032","ios":"levelo://app?vid=35fcd343-02b8-44f4-8ca6-b387bb84d032"},"vehicle_type_id":"4","last_reported":1687049179,"current_range_meters":26400,"station_id":"ce4bhap2rcd13ifvqek0","pricing_plan_id":"free"},{"bike_id":"a33218cc-00ea-4178-9451-b6f5eb612f8b","system_id":"levelo_inurba_marseille","lat":43.289184,"lon":5.366408,"is_reserved":false,"is_disabled":false,"rental_uris":{"android":"levelo://app?vid=a33218cc-00ea-4178-9451-b6f5eb612f8b","ios":"levelo://app?vid=a33218cc-00ea-4178-9451-b6f5eb612f8b"},"vehicle_type_id":"4","last_reported":1687049179,"current_range_meters":31200,"station_id":"ce4bhap2rcd13ifvqek0","pricing_plan_id":"free"},{"bike_id":"73f1b05d-92a6-4046-b95f-397f249d7183","system_id":"levelo_inurba_marseille","lat":43.289184,"lon":5.366408,"is_reserved":false,"is_disabled":false,"rental_uris":{"android":"levelo://app?vid=73f1b05d-92a6-4046-b95f-397f249d7183","ios":"levelo://app?vid=73f1b05d-92a6-4046-b95f-397f249d7183"},"vehicle_type_id":"4","last_reported":1687049179,"current_range_meters":31200,"station_id":"ce4bhap2rcd13ifvqek0","pricing_plan_id":"free"},{"bike_id":"38eb09af-7166-42b9-865e-84246929498f","system_id":"levelo_inurba_marseille","lat":43.292642,"lon":5.384254,"is_reserved":false,"is_disabled":false,"rental_uris":{"android":"levelo://app?vid=38eb09af-7166-42b9-865e-84246929498f","ios":"levelo://app?vid=38eb09af-7166-42b9-865e-84246929498f"},"vehicle_type_id":"4","last_reported":1687049179,"current_range_meters":31200,"station_id":"ce4bh692rcd13ifvqea0","pricing_plan_id":"free"},{"bike_id":"07e10cdf-e3c6-4ac1-875f-031bc6c5f47c","system_id":"levelo_inurba_marseille","lat":43.304274,"lon":5.397513,"is_reserved":false,"is_disabled":false,"rental_uris":{"android":"levelo://app?vid=07e10cdf-e3c6-4ac1-875f-031bc6c5f47c","ios":"levelo://app?vid=07e10cdf-e3c6-4ac1-875f-031bc6c5f47c"},"vehicle_type_id":"4","last_reported":1687049179,"current_range_meters":0,"station_id":"ce4bh092rcd13ifvqd20","pricing_plan_id":"free"},{"bike_id":"7a19f85c-3a1e-497c-ac40-4aee991e94ff","system_id":"levelo_inurba_marseille","lat":43.330442,"lon":5.389148,"is_reserved":false,"is_disabled":false,"rental_uris":{"android":"levelo://app?vid=7a19f85c-3a1e-497c-ac40-4aee991e94ff","ios":"levelo://app?vid=7a19f85c-3a1e-497c-ac40-4aee991e94ff"},"vehicle_type_id":"4","last_reported":1687049179,"current_range_meters":31200,"station_id":"ce4bhr92rcd13ifvqhrg","pricing_plan_id":"free"},{"bike_id":"a6fa5d2e-257b-4d29-b15b-ced973c9f431","system_id":"levelo_inurba_marseille","lat":43.330442,"lon":5.389148,"is_reserved":false,"is_disabled":false,"rental_uris":{"android":"levelo://app?vid=a6fa5d2e-257b-4d29-b15b-ced973c9f431","ios":"levelo://app?vid=a6fa5d2e-257b-4d29-b15b-ced973c9f431"},"vehicle_type_id":"4","last_reported":1687049179,"current_range_meters":31200,"station_id":"ce4bhr92rcd13ifvqhrg","pricing_plan_id":"free"},{"bike_id":"55c4fc83-4495-499d-8f80-4b519db72cd9","system_id":"levelo_inurba_marseille","lat":43.33042,"lon":5.38918,"is_reserved":false,"is_disabled":false,"rental_uris":{"android":"levelo://app?vid=55c4fc83-4495-499d-8f80-4b519db72cd9","ios":"levelo://app?vid=55c4fc83-4495-499d-8f80-4b519db72cd9"},"vehicle_type_id":"4","last_reported":1687049179,"current_range_meters":1200,"station_id":"ce4bhr92rcd13ifvqhrg","pricing_plan_id":"free"},{"bike_id":"40e59e64-9295-42a0-9590-a684a2d1ed78","system_id":"levelo_inurba_marseille","lat":43.330442,"lon":5.389148,"is_reserved":false,"is_disabled":false,"rental_uris":{"android":"levelo://app?vid=40e59e64-9295-42a0-9590-a684a2d1ed78","ios":"levelo://app?vid=40e59e64-9295-42a0-9590-a684a2d1ed78"},"vehicle_type_id":"4","last_reported":1687049179,"current_range_meters":19200,"station_id":"ce4bhr92rcd13ifvqhrg","pricing_plan_id":"free"},{"bike_id":"95c066a4-e4d6-47f9-9ac2-324b145985cd","system_id":"levelo_inurba_marseille","lat":43.330442,"lon":5.389148,"is_reserved":false,"is_disabled":false,"rental_uris":{"android":"levelo://app?vid=95c066a4-e4d6-47f9-9ac2-324b145985cd","ios":"levelo://app?vid=95c066a4-e4d6-47f9-9ac2-324b145985cd"},"vehicle_type_id":"4","last_reported":1687049179,"current_range_meters":14400,"station_id":"ce4bhr92rcd13ifvqhrg","pricing_plan_id":"free"},{"bike_id":"46a8e731-9ddb-4ace-907b-cbe70799f0ca","system_id":"levelo_inurba_marseille","lat":43.330442,"lon":5.389148,"is_reserved":false,"is_disabled":false,"rental_uris":{"android":"levelo://app?vid=46a8e731-9ddb-4ace-907b-cbe70799f0ca","ios":"levelo://app?vid=46a8e731-9ddb-4ace-907b-cbe70799f0ca"},"vehicle_type_id":"4","last_reported":1687049179,"current_range_meters":30400,"station_id":"ce4bhr92rcd13ifvqhrg","pricing_plan_id":"free"},{"bike_id":"af779039-8539-4a60-9c5e-b3e41fc1f3ab","system_id":"levelo_inurba_marseille","lat":43.330442,"lon":5.389148,"is_reserved":false,"is_disabled":false,"rental_uris":{"android":"levelo://app?vid=af779039-8539-4a60-9c5e-b3e41fc1f3ab","ios":"levelo://app?vid=af779039-8539-4a60-9c5e-b3e41fc1f3ab"},"vehicle_type_id":"4","last_reported":1687049179,"current_range_meters":19200,"station_id":"ce4bhr92rcd13ifvqhrg","pricing_plan_id":"free"},{"bike_id":"192f3e53-f4bf-4bb2-9b9f-05071f5366f1","system_id":"levelo_inurba_marseille","lat":43.297815,"lon":5.393548,"is_reserved":false,"is_disabled":false,"rental_uris":{"android":"levelo://app?vid=192f3e53-f4bf-4bb2-9b9f-05071f5366f1","ios":"levelo://app?vid=192f3e53-f4bf-4bb2-9b9f-05071f5366f1"},"vehicle_type_id":"4","last_reported":1687049179,"current_range_meters":14000,"station_id":"chh1huq6cuj3fo74tm60","pricing_plan_id":"free"},{"bike_id":"57e4515f-5abb-42e3-9895-a0a53ffa2d33","system_id":"levelo_inurba_marseille","lat":43.297815,"lon":5.393548,"is_reserved":false,"is_disabled":false,"rental_uris":{"android":"levelo://app?vid=57e4515f-5abb-42e3-9895-a0a53ffa2d33","ios":"levelo://app?vid=57e4515f-5abb-42e3-9895-a0a53ffa2d33"},"vehicle_type_id":"4","last_reported":1687049179,"current_range_meters":24000,"station_id":"chh1huq6cuj3fo74tm60","pricing_plan_id":"free"},{"bike_id":"b9b44b37-7edf-4ab6-8685-17eb58a26dbc","system_id":"levelo_inurba_marseille","lat":43.29518,"lon":5.3904,"is_reserved":false,"is_disabled":false,"rental_uris":{"android":"levelo://app?vid=b9b44b37-7edf-4ab6-8685-17eb58a26dbc","ios":"levelo://app?vid=b9b44b37-7edf-4ab6-8685-17eb58a26dbc"},"vehicle_type_id":"4","last_reported":1687049179,"current_range_meters":29600,"station_id":"ce4bh3p2rcd13ifvqdp0","pricing_plan_id":"free"},{"bike_id":"d7a2ff4a-806d-4617-a2e4-9b3bb2648952","system_id":"levelo_inurba_marseille","lat":43.2897,"lon":5.37841,"is_reserved":false,"is_disabled":false,"rental_uris":{"android":"levelo://app?vid=d7a2ff4a-806d-4617-a2e4-9b3bb2648952","ios":"levelo://app?vid=d7a2ff4a-806d-4617-a2e4-9b3bb2648952"},"vehicle_type_id":"4","last_reported":1687049179,"current_range_meters":24400,"station_id":"ce4bh9p2rcd13ifvqed0","pricing_plan_id":"free"},{"bike_id":"fbeda08f-464e-44c1-838a-5e883cb2c90e","system_id":"levelo_inurba_marseille","lat":43.28863,"lon":5.35857,"is_reserved":false,"is_disabled":false,"rental_uris":{"android":"levelo://app?vid=fbeda08f-464e-44c1-838a-5e883cb2c90e","ios":"levelo://app?vid=fbeda08f-464e-44c1-838a-5e883cb2c90e"},"vehicle_type_id":"4","last_reported":1687049179,"current_range_meters":29200,"station_id":"ce4bhb12rcd13ifvqem0","pricing_plan_id":"free"},{"bike_id":"c087bfce-1851-4c81-8fb2-ae37e2d281fd","system_id":"levelo_inurba_marseille","lat":43.2886,"lon":5.35844,"is_reserved":false,"is_disabled":false,"rental_uris":{"android":"levelo://app?vid=c087bfce-1851-4c81-8fb2-ae37e2d281fd","ios":"levelo://app?vid=c087bfce-1851-4c81-8fb2-ae37e2d281fd"},"vehicle_type_id":"4","last_reported":1687049179,"current_range_meters":0,"station_id":"ce4bhb12rcd13ifvqem0","pricing_plan_id":"free"},{"bike_id":"5d670bdf-8a30-4f11-9f44-e2f3cc59b612","system_id":"levelo_inurba_marseille","lat":43.28856,"lon":5.358371,"is_reserved":false,"is_disabled":false,"rental_uris":{"android":"levelo://app?vid=5d670bdf-8a30-4f11-9f44-e2f3cc59b612","ios":"levelo://app?vid=5d670bdf-8a30-4f11-9f44-e2f3cc59b612"},"vehicle_type_id":"4","last_reported":1687049179,"current_range_meters":20400,"station_id":"ce4bhb12rcd13ifvqem0","pricing_plan_id":"free"},{"bike_id":"2c61e288-c6ea-42a7-a7e6-3adc41ce6c8c","system_id":"levelo_inurba_marseille","lat":43.28856,"lon":5.35855,"is_reserved":false,"is_disabled":false,"rental_uris":{"android":"levelo://app?vid=2c61e288-c6ea-42a7-a7e6-3adc41ce6c8c","ios":"levelo://app?vid=2c61e288-c6ea-42a7-a7e6-3adc41ce6c8c"},"vehicle_type_id":"4","last_reported":1687049179,"current_range_meters":27600,"station_id":"","pricing_plan_id":"free"},{"bike_id":"226e53f5-5932-4c01-9445-4efc35d7ce9f","system_id":"levelo_inurba_marseille","lat":43.28856,"lon":5.358371,"is_reserved":false,"is_disabled":false,"rental_uris":{"android":"levelo://app?vid=226e53f5-5932-4c01-9445-4efc35d7ce9f","ios":"levelo://app?vid=226e53f5-5932-4c01-9445-4efc35d7ce9f"},"vehicle_type_id":"4","last_reported":1687049179,"current_range_meters":15600,"station_id":"ce4bhb12rcd13ifvqem0","pricing_plan_id":"free"},{"bike_id":"cbe14383-b435-4a6a-8577-5c18ba89ff5e","system_id":"levelo_inurba_marseille","lat":43.28856,"lon":5.358371,"is_reserved":false,"is_disabled":false,"rental_uris":{"android":"levelo://app?vid=cbe14383-b435-4a6a-8577-5c18ba89ff5e","ios":"levelo://app?vid=cbe14383-b435-4a6a-8577-5c18ba89ff5e"},"vehicle_type_id":"4","last_reported":1687049179,"current_range_meters":27600,"station_id":"ce4bhb12rcd13ifvqem0","pricing_plan_id":"free"},{"bike_id":"c0fb8083-e02d-4dec-b1b9-fa095e6c5b75","system_id":"levelo_inurba_marseille","lat":43.337396,"lon":5.374526,"is_reserved":false,"is_disabled":false,"rental_uris":{"android":"levelo://app?vid=c0fb8083-e02d-4dec-b1b9-fa095e6c5b75","ios":"levelo://app?vid=c0fb8083-e02d-4dec-b1b9-fa095e6c5b75"},"vehicle_type_id":"4","last_reported":1687049179,"current_range_meters":0,"station_id":"ce4bhp92rcd13ifvqhag","pricing_plan_id":"free"},{"bike_id":"62a093da-a0fe-468c-a21b-e310e8a5a031","system_id":"levelo_inurba_marseille","lat":43.30642,"lon":5.401031,"is_reserved":false,"is_disabled":false,"rental_uris":{"android":"levelo://app?vid=62a093da-a0fe-468c-a21b-e310e8a5a031","ios":"levelo://app?vid=62a093da-a0fe-468c-a21b-e310e8a5a031"},"vehicle_type_id":"4","last_reported":1687049179,"current_range_meters":14000,"station_id":"ce4bh112rcd13ifvqda0","pricing_plan_id":"free"},{"bike_id":"4f356222-17b5-4ae9-9064-9f9fc4ff12ee","system_id":"levelo_inurba_marseille","lat":43.309371,"lon":5.401449,"is_reserved":false,"is_disabled":false,"rental_uris":{"android":"levelo://app?vid=4f356222-17b5-4ae9-9064-9f9fc4ff12ee","ios":"levelo://app?vid=4f356222-17b5-4ae9-9064-9f9fc4ff12ee"},"vehicle_type_id":"4","last_reported":1687049179,"current_range_meters":13200,"station_id":"ce4bgvp2rcd13ifvqct0","pricing_plan_id":"free"},{"bike_id":"0d2f385d-207e-4e83-9707-797f3496c11d","system_id":"levelo_inurba_marseille","lat":43.30642,"lon":5.401031,"is_reserved":false,"is_disabled":false,"rental_uris":{"android":"levelo://app?vid=0d2f385d-207e-4e83-9707-797f3496c11d","ios":"levelo://app?vid=0d2f385d-207e-4e83-9707-797f3496c11d"},"vehicle_type_id":"4","last_reported":1687049179,"current_range_meters":10400,"station_id":"ce4bh112rcd13ifvqda0","pricing_plan_id":"free"},{"bike_id":"9431a51f-e68a-4914-b96e-57b1f86f7e68","system_id":"levelo_inurba_marseille","lat":43.30642,"lon":5.401031,"is_reserved":false,"is_disabled":false,"rental_uris":{"android":"levelo://app?vid=9431a51f-e68a-4914-b96e-57b1f86f7e68","ios":"levelo://app?vid=9431a51f-e68a-4914-b96e-57b1f86f7e68"},"vehicle_type_id":"4","last_reported":1687049179,"current_range_meters":26400,"station_id":"ce4bh112rcd13ifvqda0","pricing_plan_id":"free"},{"bike_id":"9fc2d521-b395-4924-8b62-ed7954c12a57","system_id":"levelo_inurba_marseille","lat":43.30642,"lon":5.401031,"is_reserved":false,"is_disabled":false,"rental_uris":{"android":"levelo://app?vid=9fc2d521-b395-4924-8b62-ed7954c12a57","ios":"levelo://app?vid=9fc2d521-b395-4924-8b62-ed7954c12a57"},"vehicle_type_id":"4","last_reported":1687049179,"current_range_meters":25600,"station_id":"ce4bh112rcd13ifvqda0","pricing_plan_id":"free"},{"bike_id":"0a863b74-b1d7-4a4d-b636-8de9698db32b","system_id":"levelo_inurba_marseille","lat":43.30642,"lon":5.401031,"is_reserved":false,"is_disabled":false,"rental_uris":{"android":"levelo://app?vid=0a863b74-b1d7-4a4d-b636-8de9698db32b","ios":"levelo://app?vid=0a863b74-b1d7-4a4d-b636-8de9698db32b"},"vehicle_type_id":"4","last_reported":1687049179,"current_range_meters":13200,"station_id":"ce4bh112rcd13ifvqda0","pricing_plan_id":"free"},{"bike_id":"41a8749b-6d93-4d1b-8e52-c5f60f65ae7c","system_id":"levelo_inurba_marseille","lat":43.33752,"lon":5.37443,"is_reserved":false,"is_disabled":false,"rental_uris":{"android":"levelo://app?vid=41a8749b-6d93-4d1b-8e52-c5f60f65ae7c","ios":"levelo://app?vid=41a8749b-6d93-4d1b-8e52-c5f60f65ae7c"},"vehicle_type_id":"4","last_reported":1687049179,"current_range_meters":28800,"station_id":"","pricing_plan_id":"free"},{"bike_id":"1d9e3791-24ad-43f3-ada1-38a58894d15d","system_id":"levelo_inurba_marseille","lat":43.309371,"lon":5.401449,"is_reserved":false,"is_disabled":false,"rental_uris":{"android":"levelo://app?vid=1d9e3791-24ad-43f3-ada1-38a58894d15d","ios":"levelo://app?vid=1d9e3791-24ad-43f3-ada1-38a58894d15d"},"vehicle_type_id":"4","last_reported":1687049179,"current_range_meters":17600,"station_id":"ce4bgvp2rcd13ifvqct0","pricing_plan_id":"free"},{"bike_id":"70ff8571-1cf2-4147-a7ae-e48cb29b3526","system_id":"levelo_inurba_marseille","lat":43.30642,"lon":5.401031,"is_reserved":false,"is_disabled":false,"rental_uris":{"android":"levelo://app?vid=70ff8571-1cf2-4147-a7ae-e48cb29b3526","ios":"levelo://app?vid=70ff8571-1cf2-4147-a7ae-e48cb29b3526"},"vehicle_type_id":"4","last_reported":1687049179,"current_range_meters":14000,"station_id":"ce4bh112rcd13ifvqda0","pricing_plan_id":"free"},{"bike_id":"79aeb243-40b9-4c4f-b95b-90e1c217502f","system_id":"levelo_inurba_marseille","lat":43.30642,"lon":5.401031,"is_reserved":false,"is_disabled":false,"rental_uris":{"android":"levelo://app?vid=79aeb243-40b9-4c4f-b95b-90e1c217502f","ios":"levelo://app?vid=79aeb243-40b9-4c4f-b95b-90e1c217502f"},"vehicle_type_id":"4","last_reported":1687049179,"current_range_meters":7600,"station_id":"ce4bh112rcd13ifvqda0","pricing_plan_id":"free"},{"bike_id":"a02c1bff-a722-4527-bb5f-6fcbcd0cb252","system_id":"levelo_inurba_marseille","lat":43.301117,"lon":5.398795,"is_reserved":false,"is_disabled":false,"rental_uris":{"android":"levelo://app?vid=a02c1bff-a722-4527-bb5f-6fcbcd0cb252","ios":"levelo://app?vid=a02c1bff-a722-4527-bb5f-6fcbcd0cb252"},"vehicle_type_id":"4","last_reported":1687049179,"current_range_meters":6400,"station_id":"ce4bh0h2rcd13ifvqd40","pricing_plan_id":"free"},{"bike_id":"3493321d-0890-4291-a8ea-6b2c391d8855","system_id":"levelo_inurba_marseille","lat":43.30134,"lon":5.39872,"is_reserved":false,"is_disabled":false,"rental_uris":{"android":"levelo://app?vid=3493321d-0890-4291-a8ea-6b2c391d8855","ios":"levelo://app?vid=3493321d-0890-4291-a8ea-6b2c391d8855"},"vehicle_type_id":"4","last_reported":1687049179,"current_range_meters":14000,"station_id":"ce4bh0h2rcd13ifvqd40","pricing_plan_id":"free"},{"bike_id":"416a8fbb-a253-4839-a02e-62f8fdcf2e24","system_id":"levelo_inurba_marseille","lat":43.29871,"lon":5.39724,"is_reserved":false,"is_disabled":false,"rental_uris":{"android":"levelo://app?vid=416a8fbb-a253-4839-a02e-62f8fdcf2e24","ios":"levelo://app?vid=416a8fbb-a253-4839-a02e-62f8fdcf2e24"},"vehicle_type_id":"4","last_reported":1687049179,"current_range_meters":6800,"station_id":"ce4bh0h2rcd13ifvqd50","pricing_plan_id":"free"},{"bike_id":"877f38c0-8bef-4ac6-865a-3a6eade24f98","system_id":"levelo_inurba_marseille","lat":43.286591,"lon":5.363346,"is_reserved":false,"is_disabled":false,"rental_uris":{"android":"levelo://app?vid=877f38c0-8bef-4ac6-865a-3a6eade24f98","ios":"levelo://app?vid=877f38c0-8bef-4ac6-865a-3a6eade24f98"},"vehicle_type_id":"4","last_reported":1687049179,"current_range_meters":14000,"station_id":"ce4bhah2rcd13ifvqej0","pricing_plan_id":"free"},{"bike_id":"93369fd3-5575-41cd-a635-fc72f719be1a","system_id":"levelo_inurba_marseille","lat":43.286591,"lon":5.363346,"is_reserved":false,"is_disabled":false,"rental_uris":{"android":"levelo://app?vid=93369fd3-5575-41cd-a635-fc72f719be1a","ios":"levelo://app?vid=93369fd3-5575-41cd-a635-fc72f719be1a"},"vehicle_type_id":"4","last_reported":1687049179,"current_range_meters":28800,"station_id":"ce4bhah2rcd13ifvqej0","pricing_plan_id":"free"},{"bike_id":"3582910f-9b14-4016-a5a8-c11c16333f00","system_id":"levelo_inurba_marseille","lat":43.298681,"lon":5.397225,"is_reserved":false,"is_disabled":false,"rental_uris":{"android":"levelo://app?vid=3582910f-9b14-4016-a5a8-c11c16333f00","ios":"levelo://app?vid=3582910f-9b14-4016-a5a8-c11c16333f00"},"vehicle_type_id":"4","last_reported":1687049179,"current_range_meters":14400,"station_id":"ce4bh0h2rcd13ifvqd50","pricing_plan_id":"free"},{"bike_id":"07010885-1443-4b8f-94a8-c3881f0295d6","system_id":"levelo_inurba_marseille","lat":43.286591,"lon":5.363346,"is_reserved":false,"is_disabled":false,"rental_uris":{"android":"levelo://app?vid=07010885-1443-4b8f-94a8-c3881f0295d6","ios":"levelo://app?vid=07010885-1443-4b8f-94a8-c3881f0295d6"},"vehicle_type_id":"4","last_reported":1687049179,"current_range_meters":14800,"station_id":"ce4bhah2rcd13ifvqej0","pricing_plan_id":"free"},{"bike_id":"683d132e-74eb-48a7-b48f-8dadddca1d4f","system_id":"levelo_inurba_marseille","lat":43.286591,"lon":5.363346,"is_reserved":false,"is_disabled":false,"rental_uris":{"android":"levelo://app?vid=683d132e-74eb-48a7-b48f-8dadddca1d4f","ios":"levelo://app?vid=683d132e-74eb-48a7-b48f-8dadddca1d4f"},"vehicle_type_id":"4","last_reported":1687049179,"current_range_meters":4800,"station_id":"ce4bhah2rcd13ifvqej0","pricing_plan_id":"free"},{"bike_id":"c785f083-7452-4d1b-ae2d-f5afd58be341","system_id":"levelo_inurba_marseille","lat":43.298681,"lon":5.397225,"is_reserved":false,"is_disabled":false,"rental_uris":{"android":"levelo://app?vid=c785f083-7452-4d1b-ae2d-f5afd58be341","ios":"levelo://app?vid=c785f083-7452-4d1b-ae2d-f5afd58be341"},"vehicle_type_id":"4","last_reported":1687049179,"current_range_meters":27200,"station_id":"ce4bh0h2rcd13ifvqd50","pricing_plan_id":"free"},{"bike_id":"5d050b3e-4fa0-4619-a31e-581192da1f1f","system_id":"levelo_inurba_marseille","lat":43.286593,"lon":5.363346,"is_reserved":false,"is_disabled":false,"rental_uris":{"android":"levelo://app?vid=5d050b3e-4fa0-4619-a31e-581192da1f1f","ios":"levelo://app?vid=5d050b3e-4fa0-4619-a31e-581192da1f1f"},"vehicle_type_id":"4","last_reported":1687049179,"current_range_meters":23200,"station_id":"ce4bhah2rcd13ifvqej0","pricing_plan_id":"free"},{"bike_id":"a812b1fb-3cf8-4b17-9f22-2bfe6f043843","system_id":"levelo_inurba_marseille","lat":43.295194,"lon":5.39397,"is_reserved":false,"is_disabled":false,"rental_uris":{"android":"levelo://app?vid=a812b1fb-3cf8-4b17-9f22-2bfe6f043843","ios":"levelo://app?vid=a812b1fb-3cf8-4b17-9f22-2bfe6f043843"},"vehicle_type_id":"4","last_reported":1687049179,"current_range_meters":14800,"station_id":"ce4bh292rcd13ifvqdf0","pricing_plan_id":"free"},{"bike_id":"7772b93e-f56a-4d7d-9c2f-6ebee52e74bd","system_id":"levelo_inurba_marseille","lat":43.286591,"lon":5.363346,"is_reserved":false,"is_disabled":false,"rental_uris":{"android":"levelo://app?vid=7772b93e-f56a-4d7d-9c2f-6ebee52e74bd","ios":"levelo://app?vid=7772b93e-f56a-4d7d-9c2f-6ebee52e74bd"},"vehicle_type_id":"4","last_reported":1687049179,"current_range_meters":23600,"station_id":"ce4bhah2rcd13ifvqej0","pricing_plan_id":"free"},{"bike_id":"9b28ffd6-736e-4196-b535-1b376254a709","system_id":"levelo_inurba_marseille","lat":43.295194,"lon":5.39397,"is_reserved":false,"is_disabled":false,"rental_uris":{"android":"levelo://app?vid=9b28ffd6-736e-4196-b535-1b376254a709","ios":"levelo://app?vid=9b28ffd6-736e-4196-b535-1b376254a709"},"vehicle_type_id":"4","last_reported":1687049179,"current_range_meters":18000,"station_id":"ce4bh292rcd13ifvqdf0","pricing_plan_id":"free"},{"bike_id":"8f392288-48e8-4530-bc9b-7a4bd7128a0b","system_id":"levelo_inurba_marseille","lat":43.302759,"lon":5.400793,"is_reserved":false,"is_disabled":false,"rental_uris":{"android":"levelo://app?vid=8f392288-48e8-4530-bc9b-7a4bd7128a0b","ios":"levelo://app?vid=8f392288-48e8-4530-bc9b-7a4bd7128a0b"},"vehicle_type_id":"4","last_reported":1687049179,"current_range_meters":21200,"station_id":"ce4bgvh2rcd13ifvqcs0","pricing_plan_id":"free"},{"bike_id":"3f72b3d5-3ce7-4820-ba0a-bd0f451084b7","system_id":"levelo_inurba_marseille","lat":43.290345,"lon":5.38646,"is_reserved":false,"is_disabled":false,"rental_uris":{"android":"levelo://app?vid=3f72b3d5-3ce7-4820-ba0a-bd0f451084b7","ios":"levelo://app?vid=3f72b3d5-3ce7-4820-ba0a-bd0f451084b7"},"vehicle_type_id":"4","last_reported":1687049179,"current_range_meters":10800,"station_id":"ce4bh4p2rcd13ifvqe0g","pricing_plan_id":"free"},{"bike_id":"c16cd8a2-f45f-40d1-aaac-a94463da4f69","system_id":"levelo_inurba_marseille","lat":43.302759,"lon":5.400793,"is_reserved":false,"is_disabled":false,"rental_uris":{"android":"levelo://app?vid=c16cd8a2-f45f-40d1-aaac-a94463da4f69","ios":"levelo://app?vid=c16cd8a2-f45f-40d1-aaac-a94463da4f69"},"vehicle_type_id":"4","last_reported":1687049179,"current_range_meters":16000,"station_id":"ce4bgvh2rcd13ifvqcs0","pricing_plan_id":"free"},{"bike_id":"87dc0c4d-13df-4078-af62-c1c0a8b60a87","system_id":"levelo_inurba_marseille","lat":43.290345,"lon":5.38646,"is_reserved":false,"is_disabled":false,"rental_uris":{"android":"levelo://app?vid=87dc0c4d-13df-4078-af62-c1c0a8b60a87","ios":"levelo://app?vid=87dc0c4d-13df-4078-af62-c1c0a8b60a87"},"vehicle_type_id":"4","last_reported":1687049179,"current_range_meters":30000,"station_id":"ce4bh4p2rcd13ifvqe0g","pricing_plan_id":"free"},{"bike_id":"b9d11a7a-8b84-44d9-9906-bfd0c7fdc492","system_id":"levelo_inurba_marseille","lat":43.302759,"lon":5.400793,"is_reserved":false,"is_disabled":false,"rental_uris":{"android":"levelo://app?vid=b9d11a7a-8b84-44d9-9906-bfd0c7fdc492","ios":"levelo://app?vid=b9d11a7a-8b84-44d9-9906-bfd0c7fdc492"},"vehicle_type_id":"4","last_reported":1687049179,"current_range_meters":22000,"station_id":"ce4bgvh2rcd13ifvqcs0","pricing_plan_id":"free"},{"bike_id":"363358b6-1711-4e58-99d3-4183c9c5eb18","system_id":"levelo_inurba_marseille","lat":43.302759,"lon":5.400793,"is_reserved":false,"is_disabled":false,"rental_uris":{"android":"levelo://app?vid=363358b6-1711-4e58-99d3-4183c9c5eb18","ios":"levelo://app?vid=363358b6-1711-4e58-99d3-4183c9c5eb18"},"vehicle_type_id":"4","last_reported":1687049179,"current_range_meters":22400,"station_id":"ce4bgvh2rcd13ifvqcs0","pricing_plan_id":"free"},{"bike_id":"06bcf0e7-f22e-4cd3-8ec0-6a8f000d930d","system_id":"levelo_inurba_marseille","lat":43.290345,"lon":5.38646,"is_reserved":false,"is_disabled":false,"rental_uris":{"android":"levelo://app?vid=06bcf0e7-f22e-4cd3-8ec0-6a8f000d930d","ios":"levelo://app?vid=06bcf0e7-f22e-4cd3-8ec0-6a8f000d930d"},"vehicle_type_id":"4","last_reported":1687049179,"current_range_meters":20400,"station_id":"ce4bh4p2rcd13ifvqe0g","pricing_plan_id":"free"},{"bike_id":"0287f98a-d338-4eda-825e-5d11bf3aa33a","system_id":"levelo_inurba_marseille","lat":43.302759,"lon":5.400793,"is_reserved":false,"is_disabled":false,"rental_uris":{"android":"levelo://app?vid=0287f98a-d338-4eda-825e-5d11bf3aa33a","ios":"levelo://app?vid=0287f98a-d338-4eda-825e-5d11bf3aa33a"},"vehicle_type_id":"4","last_reported":1687049179,"current_range_meters":23600,"station_id":"ce4bgvh2rcd13ifvqcs0","pricing_plan_id":"free"},{"bike_id":"4a74f9c8-3b59-4801-9fd4-445288615a3e","system_id":"levelo_inurba_marseille","lat":43.302759,"lon":5.400793,"is_reserved":false,"is_disabled":false,"rental_uris":{"android":"levelo://app?vid=4a74f9c8-3b59-4801-9fd4-445288615a3e","ios":"levelo://app?vid=4a74f9c8-3b59-4801-9fd4-445288615a3e"},"vehicle_type_id":"4","last_reported":1687049179,"current_range_meters":18800,"station_id":"ce4bgvh2rcd13ifvqcs0","pricing_plan_id":"free"},{"bike_id":"ccc4a240-8c5b-4aad-825b-624effa7dfdb","system_id":"levelo_inurba_marseille","lat":43.302759,"lon":5.400793,"is_reserved":false,"is_disabled":false,"rental_uris":{"android":"levelo://app?vid=ccc4a240-8c5b-4aad-825b-624effa7dfdb","ios":"levelo://app?vid=ccc4a240-8c5b-4aad-825b-624effa7dfdb"},"vehicle_type_id":"4","last_reported":1687049179,"current_range_meters":25600,"station_id":"ce4bgvh2rcd13ifvqcs0","pricing_plan_id":"free"},{"bike_id":"23ed75f5-98f9-4078-b293-962b7f6d8657","system_id":"levelo_inurba_marseille","lat":43.302759,"lon":5.400793,"is_reserved":false,"is_disabled":false,"rental_uris":{"android":"levelo://app?vid=23ed75f5-98f9-4078-b293-962b7f6d8657","ios":"levelo://app?vid=23ed75f5-98f9-4078-b293-962b7f6d8657"},"vehicle_type_id":"4","last_reported":1687049179,"current_range_meters":31200,"station_id":"ce4bgvh2rcd13ifvqcs0","pricing_plan_id":"free"},{"bike_id":"fe7f77cd-afb3-467b-99a3-1518357b1863","system_id":"levelo_inurba_marseille","lat":43.302759,"lon":5.400793,"is_reserved":false,"is_disabled":false,"rental_uris":{"android":"levelo://app?vid=fe7f77cd-afb3-467b-99a3-1518357b1863","ios":"levelo://app?vid=fe7f77cd-afb3-467b-99a3-1518357b1863"},"vehicle_type_id":"4","last_reported":1687049179,"current_range_meters":26400,"station_id":"ce4bgvh2rcd13ifvqcs0","pricing_plan_id":"free"},{"bike_id":"9f750c28-a9c8-4f25-943e-2579b1e98fcc","system_id":"levelo_inurba_marseille","lat":43.302759,"lon":5.400793,"is_reserved":false,"is_disabled":false,"rental_uris":{"android":"levelo://app?vid=9f750c28-a9c8-4f25-943e-2579b1e98fcc","ios":"levelo://app?vid=9f750c28-a9c8-4f25-943e-2579b1e98fcc"},"vehicle_type_id":"4","last_reported":1687049179,"current_range_meters":10800,"station_id":"ce4bgvh2rcd13ifvqcs0","pricing_plan_id":"free"},{"bike_id":"39ebb783-a4ad-497a-a8b4-f26310952609","system_id":"levelo_inurba_marseille","lat":43.302759,"lon":5.400793,"is_reserved":false,"is_disabled":false,"rental_uris":{"android":"levelo://app?vid=39ebb783-a4ad-497a-a8b4-f26310952609","ios":"levelo://app?vid=39ebb783-a4ad-497a-a8b4-f26310952609"},"vehicle_type_id":"4","last_reported":1687049179,"current_range_meters":20800,"station_id":"ce4bgvh2rcd13ifvqcs0","pricing_plan_id":"free"},{"bike_id":"bc29dac3-e114-45fb-a7dc-dfbb198dae11","system_id":"levelo_inurba_marseille","lat":43.287185,"lon":5.379373,"is_reserved":false,"is_disabled":false,"rental_uris":{"android":"levelo://app?vid=bc29dac3-e114-45fb-a7dc-dfbb198dae11","ios":"levelo://app?vid=bc29dac3-e114-45fb-a7dc-dfbb198dae11"},"vehicle_type_id":"4","last_reported":1687049179,"current_range_meters":30800,"station_id":"ce4bh9p2rcd13ifvqec0","pricing_plan_id":"free"},{"bike_id":"846627d3-77cb-4222-943f-f7a2afee9f7b","system_id":"levelo_inurba_marseille","lat":43.287185,"lon":5.379373,"is_reserved":false,"is_disabled":false,"rental_uris":{"android":"levelo://app?vid=846627d3-77cb-4222-943f-f7a2afee9f7b","ios":"levelo://app?vid=846627d3-77cb-4222-943f-f7a2afee9f7b"},"vehicle_type_id":"4","last_reported":1687049179,"current_range_meters":17600,"station_id":"ce4bh9p2rcd13ifvqec0","pricing_plan_id":"free"},{"bike_id":"f53f8b0c-3c08-4e86-ac89-0156aaafe9f9","system_id":"levelo_inurba_marseille","lat":43.316517,"lon":5.404375,"is_reserved":false,"is_disabled":false,"rental_uris":{"android":"levelo://app?vid=f53f8b0c-3c08-4e86-ac89-0156aaafe9f9","ios":"levelo://app?vid=f53f8b0c-3c08-4e86-ac89-0156aaafe9f9"},"vehicle_type_id":"4","last_reported":1687049179,"current_range_meters":3200,"station_id":"ce4bh012rcd13ifvqd00","pricing_plan_id":"free"},{"bike_id":"a60d2e0b-86c6-43af-bf6a-788e539c286b","system_id":"levelo_inurba_marseille","lat":43.316517,"lon":5.404375,"is_reserved":false,"is_disabled":false,"rental_uris":{"android":"levelo://app?vid=a60d2e0b-86c6-43af-bf6a-788e539c286b","ios":"levelo://app?vid=a60d2e0b-86c6-43af-bf6a-788e539c286b"},"vehicle_type_id":"4","last_reported":1687049179,"current_range_meters":2800,"station_id":"ce4bh012rcd13ifvqd00","pricing_plan_id":"free"},{"bike_id":"601d3e1f-4251-432d-9d88-4605b3d186eb","system_id":"levelo_inurba_marseille","lat":43.316517,"lon":5.404375,"is_reserved":false,"is_disabled":false,"rental_uris":{"android":"levelo://app?vid=601d3e1f-4251-432d-9d88-4605b3d186eb","ios":"levelo://app?vid=601d3e1f-4251-432d-9d88-4605b3d186eb"},"vehicle_type_id":"4","last_reported":1687049179,"current_range_meters":8400,"station_id":"ce4bh012rcd13ifvqd00","pricing_plan_id":"free"},{"bike_id":"6545cebb-fbb9-47db-8d14-52a4e106c357","system_id":"levelo_inurba_marseille","lat":43.316517,"lon":5.404375,"is_reserved":false,"is_disabled":false,"rental_uris":{"android":"levelo://app?vid=6545cebb-fbb9-47db-8d14-52a4e106c357","ios":"levelo://app?vid=6545cebb-fbb9-47db-8d14-52a4e106c357"},"vehicle_type_id":"4","last_reported":1687049179,"current_range_meters":26400,"station_id":"ce4bh012rcd13ifvqd00","pricing_plan_id":"free"},{"bike_id":"e90f8b03-ef4d-4ce8-ae77-d60de61ac678","system_id":"levelo_inurba_marseille","lat":43.316517,"lon":5.404375,"is_reserved":false,"is_disabled":false,"rental_uris":{"android":"levelo://app?vid=e90f8b03-ef4d-4ce8-ae77-d60de61ac678","ios":"levelo://app?vid=e90f8b03-ef4d-4ce8-ae77-d60de61ac678"},"vehicle_type_id":"4","last_reported":1687049179,"current_range_meters":24400,"station_id":"ce4bh012rcd13ifvqd00","pricing_plan_id":"free"},{"bike_id":"bc1c732f-dc2e-420e-880e-c9303ed311d1","system_id":"levelo_inurba_marseille","lat":43.291994,"lon":5.392907,"is_reserved":false,"is_disabled":false,"rental_uris":{"android":"levelo://app?vid=bc1c732f-dc2e-420e-880e-c9303ed311d1","ios":"levelo://app?vid=bc1c732f-dc2e-420e-880e-c9303ed311d1"},"vehicle_type_id":"4","last_reported":1687049179,"current_range_meters":23600,"station_id":"ce4bh192rcd13ifvqdd0","pricing_plan_id":"free"},{"bike_id":"ae6a52ba-f5f5-43a8-b4fe-273ce0242021","system_id":"levelo_inurba_marseille","lat":43.291994,"lon":5.392907,"is_reserved":false,"is_disabled":false,"rental_uris":{"android":"levelo://app?vid=ae6a52ba-f5f5-43a8-b4fe-273ce0242021","ios":"levelo://app?vid=ae6a52ba-f5f5-43a8-b4fe-273ce0242021"},"vehicle_type_id":"4","last_reported":1687049179,"current_range_meters":30000,"station_id":"ce4bh192rcd13ifvqdd0","pricing_plan_id":"free"},{"bike_id":"ff30f783-ec47-425f-b8ee-47edd928e37b","system_id":"levelo_inurba_marseille","lat":43.284534,"lon":5.358662,"is_reserved":false,"is_disabled":false,"rental_uris":{"android":"levelo://app?vid=ff30f783-ec47-425f-b8ee-47edd928e37b","ios":"levelo://app?vid=ff30f783-ec47-425f-b8ee-47edd928e37b"},"vehicle_type_id":"4","last_reported":1687049179,"current_range_meters":30000,"station_id":"ce4bhah2rcd13ifvqei0","pricing_plan_id":"free"},{"bike_id":"6d9e43eb-65ac-4c02-a5d9-a28328f0519e","system_id":"levelo_inurba_marseille","lat":43.284534,"lon":5.358662,"is_reserved":false,"is_disabled":false,"rental_uris":{"android":"levelo://app?vid=6d9e43eb-65ac-4c02-a5d9-a28328f0519e","ios":"levelo://app?vid=6d9e43eb-65ac-4c02-a5d9-a28328f0519e"},"vehicle_type_id":"4","last_reported":1687049179,"current_range_meters":27600,"station_id":"ce4bhah2rcd13ifvqei0","pricing_plan_id":"free"},{"bike_id":"9189b13a-cbfe-46e5-944c-7a0360dffe8f","system_id":"levelo_inurba_marseille","lat":43.284534,"lon":5.358662,"is_reserved":false,"is_disabled":false,"rental_uris":{"android":"levelo://app?vid=9189b13a-cbfe-46e5-944c-7a0360dffe8f","ios":"levelo://app?vid=9189b13a-cbfe-46e5-944c-7a0360dffe8f"},"vehicle_type_id":"4","last_reported":1687049179,"current_range_meters":22000,"station_id":"ce4bhah2rcd13ifvqei0","pricing_plan_id":"free"},{"bike_id":"39c93b65-9c2c-4549-98f2-8cd2003b086a","system_id":"levelo_inurba_marseille","lat":43.284534,"lon":5.358662,"is_reserved":false,"is_disabled":false,"rental_uris":{"android":"levelo://app?vid=39c93b65-9c2c-4549-98f2-8cd2003b086a","ios":"levelo://app?vid=39c93b65-9c2c-4549-98f2-8cd2003b086a"},"vehicle_type_id":"4","last_reported":1687049179,"current_range_meters":10000,"station_id":"ce4bhah2rcd13ifvqei0","pricing_plan_id":"free"},{"bike_id":"00ec7486-4df5-46db-9164-b38bdc4e137e","system_id":"levelo_inurba_marseille","lat":43.28611,"lon":5.35103,"is_reserved":false,"is_disabled":false,"rental_uris":{"android":"levelo://app?vid=00ec7486-4df5-46db-9164-b38bdc4e137e","ios":"levelo://app?vid=00ec7486-4df5-46db-9164-b38bdc4e137e"},"vehicle_type_id":"4","last_reported":1687049179,"current_range_meters":24000,"station_id":"ce4bhch2rcd13ifvqeug","pricing_plan_id":"free"},{"bike_id":"bfc3fb8b-6c10-4156-95ec-88d492a1d78a","system_id":"levelo_inurba_marseille","lat":43.28417,"lon":5.37522,"is_reserved":false,"is_disabled":false,"rental_uris":{"android":"levelo://app?vid=bfc3fb8b-6c10-4156-95ec-88d492a1d78a","ios":"levelo://app?vid=bfc3fb8b-6c10-4156-95ec-88d492a1d78a"},"vehicle_type_id":"4","last_reported":1687049179,"current_range_meters":26400,"station_id":"ce4bh412rcd13ifvqds0","pricing_plan_id":"free"},{"bike_id":"e7218d01-18b1-40ce-b11b-4492bc8a198d","system_id":"levelo_inurba_marseille","lat":43.28407,"lon":5.37515,"is_reserved":false,"is_disabled":false,"rental_uris":{"android":"levelo://app?vid=e7218d01-18b1-40ce-b11b-4492bc8a198d","ios":"levelo://app?vid=e7218d01-18b1-40ce-b11b-4492bc8a198d"},"vehicle_type_id":"4","last_reported":1687049179,"current_range_meters":31200,"station_id":"ce4bh412rcd13ifvqds0","pricing_plan_id":"free"},{"bike_id":"65913c13-40d0-4c29-adf1-048ae4f0fbfd","system_id":"levelo_inurba_marseille","lat":43.295713,"lon":5.399639,"is_reserved":false,"is_disabled":false,"rental_uris":{"android":"levelo://app?vid=65913c13-40d0-4c29-adf1-048ae4f0fbfd","ios":"levelo://app?vid=65913c13-40d0-4c29-adf1-048ae4f0fbfd"},"vehicle_type_id":"4","last_reported":1687049179,"current_range_meters":8400,"station_id":"ce4bh312rcd13ifvqdj0","pricing_plan_id":"free"},{"bike_id":"79e6d00f-1080-4357-9c94-df8c2de293a9","system_id":"levelo_inurba_marseille","lat":43.28403,"lon":5.37506,"is_reserved":false,"is_disabled":false,"rental_uris":{"android":"levelo://app?vid=79e6d00f-1080-4357-9c94-df8c2de293a9","ios":"levelo://app?vid=79e6d00f-1080-4357-9c94-df8c2de293a9"},"vehicle_type_id":"4","last_reported":1687049179,"current_range_meters":30000,"station_id":"ce4bh412rcd13ifvqds0","pricing_plan_id":"free"},{"bike_id":"ca961a51-db6a-4e92-ae19-ae20101dbcfe","system_id":"levelo_inurba_marseille","lat":43.295713,"lon":5.399639,"is_reserved":false,"is_disabled":false,"rental_uris":{"android":"levelo://app?vid=ca961a51-db6a-4e92-ae19-ae20101dbcfe","ios":"levelo://app?vid=ca961a51-db6a-4e92-ae19-ae20101dbcfe"},"vehicle_type_id":"4","last_reported":1687049179,"current_range_meters":12800,"station_id":"ce4bh312rcd13ifvqdj0","pricing_plan_id":"free"},{"bike_id":"43275ef6-770c-4f0e-926c-1c3aecd7abec","system_id":"levelo_inurba_marseille","lat":43.287909,"lon":5.390554,"is_reserved":false,"is_disabled":false,"rental_uris":{"android":"levelo://app?vid=43275ef6-770c-4f0e-926c-1c3aecd7abec","ios":"levelo://app?vid=43275ef6-770c-4f0e-926c-1c3aecd7abec"},"vehicle_type_id":"4","last_reported":1687049179,"current_range_meters":14400,"station_id":"","pricing_plan_id":"free"},{"bike_id":"16e5fedd-6e86-436a-a0a2-72c7cd60a6ea","system_id":"levelo_inurba_marseille","lat":43.323464,"lon":5.406297,"is_reserved":false,"is_disabled":false,"rental_uris":{"android":"levelo://app?vid=16e5fedd-6e86-436a-a0a2-72c7cd60a6ea","ios":"levelo://app?vid=16e5fedd-6e86-436a-a0a2-72c7cd60a6ea"},"vehicle_type_id":"4","last_reported":1687049179,"current_range_meters":31200,"station_id":"ce4bhq92rcd13ifvqhjg","pricing_plan_id":"free"},{"bike_id":"5ac43348-fae4-4868-9730-a1c6e0f503f8","system_id":"levelo_inurba_marseille","lat":43.288501,"lon":5.393087,"is_reserved":false,"is_disabled":false,"rental_uris":{"android":"levelo://app?vid=5ac43348-fae4-4868-9730-a1c6e0f503f8","ios":"levelo://app?vid=5ac43348-fae4-4868-9730-a1c6e0f503f8"},"vehicle_type_id":"4","last_reported":1687049179,"current_range_meters":31200,"station_id":"ce4bh2p2rcd13ifvqdi0","pricing_plan_id":"free"},{"bike_id":"bba0571b-bba3-4f4e-a62e-7593e5de752d","system_id":"levelo_inurba_marseille","lat":43.288501,"lon":5.393087,"is_reserved":false,"is_disabled":false,"rental_uris":{"android":"levelo://app?vid=bba0571b-bba3-4f4e-a62e-7593e5de752d","ios":"levelo://app?vid=bba0571b-bba3-4f4e-a62e-7593e5de752d"},"vehicle_type_id":"4","last_reported":1687049179,"current_range_meters":10000,"station_id":"ce4bh2p2rcd13ifvqdi0","pricing_plan_id":"free"},{"bike_id":"0eea8ea0-6a87-40d8-87eb-a1077d013d10","system_id":"levelo_inurba_marseille","lat":43.288501,"lon":5.393087,"is_reserved":false,"is_disabled":false,"rental_uris":{"android":"levelo://app?vid=0eea8ea0-6a87-40d8-87eb-a1077d013d10","ios":"levelo://app?vid=0eea8ea0-6a87-40d8-87eb-a1077d013d10"},"vehicle_type_id":"4","last_reported":1687049179,"current_range_meters":0,"station_id":"ce4bh2p2rcd13ifvqdi0","pricing_plan_id":"free"},{"bike_id":"2624dea4-b888-4a15-b6de-a118c235a0f3","system_id":"levelo_inurba_marseille","lat":43.288501,"lon":5.393087,"is_reserved":false,"is_disabled":false,"rental_uris":{"android":"levelo://app?vid=2624dea4-b888-4a15-b6de-a118c235a0f3","ios":"levelo://app?vid=2624dea4-b888-4a15-b6de-a118c235a0f3"},"vehicle_type_id":"4","last_reported":1687049179,"current_range_meters":29200,"station_id":"ce4bh2p2rcd13ifvqdi0","pricing_plan_id":"free"},{"bike_id":"0aef9730-18b9-4440-a3f2-333dec009a79","system_id":"levelo_inurba_marseille","lat":43.28363,"lon":5.38107,"is_reserved":false,"is_disabled":false,"rental_uris":{"android":"levelo://app?vid=0aef9730-18b9-4440-a3f2-333dec009a79","ios":"levelo://app?vid=0aef9730-18b9-4440-a3f2-333dec009a79"},"vehicle_type_id":"4","last_reported":1687049179,"current_range_meters":31200,"station_id":"ce4bh412rcd13ifvqdr0","pricing_plan_id":"free"},{"bike_id":"b6931b22-2522-4232-bc01-ebae72f397dd","system_id":"levelo_inurba_marseille","lat":43.28357,"lon":5.38105,"is_reserved":false,"is_disabled":false,"rental_uris":{"android":"levelo://app?vid=b6931b22-2522-4232-bc01-ebae72f397dd","ios":"levelo://app?vid=b6931b22-2522-4232-bc01-ebae72f397dd"},"vehicle_type_id":"4","last_reported":1687049179,"current_range_meters":31200,"station_id":"ce4bh412rcd13ifvqdr0","pricing_plan_id":"free"},{"bike_id":"00b4d942-d645-4a17-a320-9c02b5ecca68","system_id":"levelo_inurba_marseille","lat":43.288497,"lon":5.393089,"is_reserved":false,"is_disabled":false,"rental_uris":{"android":"levelo://app?vid=00b4d942-d645-4a17-a320-9c02b5ecca68","ios":"levelo://app?vid=00b4d942-d645-4a17-a320-9c02b5ecca68"},"vehicle_type_id":"4","last_reported":1687049179,"current_range_meters":24000,"station_id":"ce4bh2p2rcd13ifvqdi0","pricing_plan_id":"free"},{"bike_id":"e268a5db-b5b5-4f63-b9ec-0fcc87a33f6f","system_id":"levelo_inurba_marseille","lat":43.28353,"lon":5.38102,"is_reserved":false,"is_disabled":false,"rental_uris":{"android":"levelo://app?vid=e268a5db-b5b5-4f63-b9ec-0fcc87a33f6f","ios":"levelo://app?vid=e268a5db-b5b5-4f63-b9ec-0fcc87a33f6f"},"vehicle_type_id":"4","last_reported":1687049179,"current_range_meters":31200,"station_id":"ce4bh412rcd13ifvqdr0","pricing_plan_id":"free"},{"bike_id":"954ca34b-1082-44f1-8ef9-0ff6cc9681e4","system_id":"levelo_inurba_marseille","lat":43.28351,"lon":5.38099,"is_reserved":false,"is_disabled":false,"rental_uris":{"android":"levelo://app?vid=954ca34b-1082-44f1-8ef9-0ff6cc9681e4","ios":"levelo://app?vid=954ca34b-1082-44f1-8ef9-0ff6cc9681e4"},"vehicle_type_id":"4","last_reported":1687049179,"current_range_meters":23200,"station_id":"ce4bh412rcd13ifvqdr0","pricing_plan_id":"free"},{"bike_id":"b04ef1cc-fd80-4689-bf36-4f6ee8b30751","system_id":"levelo_inurba_marseille","lat":43.28349,"lon":5.38111,"is_reserved":false,"is_disabled":false,"rental_uris":{"android":"levelo://app?vid=b04ef1cc-fd80-4689-bf36-4f6ee8b30751","ios":"levelo://app?vid=b04ef1cc-fd80-4689-bf36-4f6ee8b30751"},"vehicle_type_id":"4","last_reported":1687049179,"current_range_meters":30400,"station_id":"ce4bh412rcd13ifvqdr0","pricing_plan_id":"free"},{"bike_id":"485fbe80-7791-47a3-874c-0d57ca2838f7","system_id":"levelo_inurba_marseille","lat":43.28341,"lon":5.38099,"is_reserved":false,"is_disabled":false,"rental_uris":{"android":"levelo://app?vid=485fbe80-7791-47a3-874c-0d57ca2838f7","ios":"levelo://app?vid=485fbe80-7791-47a3-874c-0d57ca2838f7"},"vehicle_type_id":"4","last_reported":1687049179,"current_range_meters":21600,"station_id":"ce4bh412rcd13ifvqdr0","pricing_plan_id":"free"},{"bike_id":"f5bea615-ccaa-4deb-a010-dd2da91bcff8","system_id":"levelo_inurba_marseille","lat":43.289363,"lon":5.396322,"is_reserved":false,"is_disabled":false,"rental_uris":{"android":"levelo://app?vid=f5bea615-ccaa-4deb-a010-dd2da91bcff8","ios":"levelo://app?vid=f5bea615-ccaa-4deb-a010-dd2da91bcff8"},"vehicle_type_id":"4","last_reported":1687049179,"current_range_meters":30000,"station_id":"ce4bh3h2rcd13ifvqdn0","pricing_plan_id":"free"},{"bike_id":"7258b29c-3a4a-4760-9b6f-13710f3f396f","system_id":"levelo_inurba_marseille","lat":43.289363,"lon":5.396322,"is_reserved":false,"is_disabled":false,"rental_uris":{"android":"levelo://app?vid=7258b29c-3a4a-4760-9b6f-13710f3f396f","ios":"levelo://app?vid=7258b29c-3a4a-4760-9b6f-13710f3f396f"},"vehicle_type_id":"4","last_reported":1687049179,"current_range_meters":30800,"station_id":"ce4bh3h2rcd13ifvqdn0","pricing_plan_id":"free"},{"bike_id":"200b30e8-2a1b-4d8b-8cc3-84cf5b148702","system_id":"levelo_inurba_marseille","lat":43.289363,"lon":5.396322,"is_reserved":false,"is_disabled":false,"rental_uris":{"android":"levelo://app?vid=200b30e8-2a1b-4d8b-8cc3-84cf5b148702","ios":"levelo://app?vid=200b30e8-2a1b-4d8b-8cc3-84cf5b148702"},"vehicle_type_id":"4","last_reported":1687049179,"current_range_meters":13600,"station_id":"ce4bh3h2rcd13ifvqdn0","pricing_plan_id":"free"},{"bike_id":"1f24386c-f4de-4f2b-bb8a-d54495b1f62e","system_id":"levelo_inurba_marseille","lat":43.29312,"lon":5.40126,"is_reserved":false,"is_disabled":false,"rental_uris":{"android":"levelo://app?vid=1f24386c-f4de-4f2b-bb8a-d54495b1f62e","ios":"levelo://app?vid=1f24386c-f4de-4f2b-bb8a-d54495b1f62e"},"vehicle_type_id":"4","last_reported":1687049179,"current_range_meters":28400,"station_id":"","pricing_plan_id":"free"},{"bike_id":"0bb0725b-121d-4650-98cb-ec4da17ec635","system_id":"levelo_inurba_marseille","lat":43.2928,"lon":5.40106,"is_reserved":false,"is_disabled":false,"rental_uris":{"android":"levelo://app?vid=0bb0725b-121d-4650-98cb-ec4da17ec635","ios":"levelo://app?vid=0bb0725b-121d-4650-98cb-ec4da17ec635"},"vehicle_type_id":"4","last_reported":1687049179,"current_range_meters":2400,"station_id":"ce4bh312rcd13ifvqdk0","pricing_plan_id":"free"},{"bike_id":"2dadd1f0-5336-4790-b71b-280ca15e26f8","system_id":"levelo_inurba_marseille","lat":43.29279,"lon":5.40124,"is_reserved":false,"is_disabled":false,"rental_uris":{"android":"levelo://app?vid=2dadd1f0-5336-4790-b71b-280ca15e26f8","ios":"levelo://app?vid=2dadd1f0-5336-4790-b71b-280ca15e26f8"},"vehicle_type_id":"4","last_reported":1687049179,"current_range_meters":26400,"station_id":"ce4bh312rcd13ifvqdk0","pricing_plan_id":"free"},{"bike_id":"d3b3daee-d4ae-40dc-9530-306a98e6ea17","system_id":"levelo_inurba_marseille","lat":43.282744,"lon":5.350533,"is_reserved":false,"is_disabled":false,"rental_uris":{"android":"levelo://app?vid=d3b3daee-d4ae-40dc-9530-306a98e6ea17","ios":"levelo://app?vid=d3b3daee-d4ae-40dc-9530-306a98e6ea17"},"vehicle_type_id":"4","last_reported":1687049179,"current_range_meters":27200,"station_id":"ce4bhbp2rcd13ifvqerg","pricing_plan_id":"free"},{"bike_id":"3881f7e9-1442-4342-96ac-0382d6ec4a2b","system_id":"levelo_inurba_marseille","lat":43.282744,"lon":5.350533,"is_reserved":false,"is_disabled":false,"rental_uris":{"android":"levelo://app?vid=3881f7e9-1442-4342-96ac-0382d6ec4a2b","ios":"levelo://app?vid=3881f7e9-1442-4342-96ac-0382d6ec4a2b"},"vehicle_type_id":"4","last_reported":1687049179,"current_range_meters":29200,"station_id":"ce4bhbp2rcd13ifvqerg","pricing_plan_id":"free"},{"bike_id":"cc792ed5-0960-41a3-9aa1-a43a107f9bf6","system_id":"levelo_inurba_marseille","lat":43.282744,"lon":5.350533,"is_reserved":false,"is_disabled":false,"rental_uris":{"android":"levelo://app?vid=cc792ed5-0960-41a3-9aa1-a43a107f9bf6","ios":"levelo://app?vid=cc792ed5-0960-41a3-9aa1-a43a107f9bf6"},"vehicle_type_id":"4","last_reported":1687049179,"current_range_meters":29600,"station_id":"ce4bhbp2rcd13ifvqerg","pricing_plan_id":"free"},{"bike_id":"04851678-4039-4fc9-b6c3-a742d37932ca","system_id":"levelo_inurba_marseille","lat":43.282744,"lon":5.350533,"is_reserved":false,"is_disabled":false,"rental_uris":{"android":"levelo://app?vid=04851678-4039-4fc9-b6c3-a742d37932ca","ios":"levelo://app?vid=04851678-4039-4fc9-b6c3-a742d37932ca"},"vehicle_type_id":"4","last_reported":1687049179,"current_range_meters":30800,"station_id":"ce4bhbp2rcd13ifvqerg","pricing_plan_id":"free"},{"bike_id":"c7da6911-8a66-405c-ba6c-9b2ec377acb8","system_id":"levelo_inurba_marseille","lat":43.282744,"lon":5.350533,"is_reserved":false,"is_disabled":false,"rental_uris":{"android":"levelo://app?vid=c7da6911-8a66-405c-ba6c-9b2ec377acb8","ios":"levelo://app?vid=c7da6911-8a66-405c-ba6c-9b2ec377acb8"},"vehicle_type_id":"4","last_reported":1687049179,"current_range_meters":29600,"station_id":"ce4bhbp2rcd13ifvqerg","pricing_plan_id":"free"},{"bike_id":"5466ae6a-fab2-4b3c-bc20-f26a798490f0","system_id":"levelo_inurba_marseille","lat":43.28039,"lon":5.369297,"is_reserved":false,"is_disabled":false,"rental_uris":{"android":"levelo://app?vid=5466ae6a-fab2-4b3c-bc20-f26a798490f0","ios":"levelo://app?vid=5466ae6a-fab2-4b3c-bc20-f26a798490f0"},"vehicle_type_id":"4","last_reported":1687049179,"current_range_meters":30400,"station_id":"ce4bha12rcd13ifvqef0","pricing_plan_id":"free"},{"bike_id":"889ea635-e838-4149-8b4c-152e5f63694b","system_id":"levelo_inurba_marseille","lat":43.282744,"lon":5.350533,"is_reserved":false,"is_disabled":false,"rental_uris":{"android":"levelo://app?vid=889ea635-e838-4149-8b4c-152e5f63694b","ios":"levelo://app?vid=889ea635-e838-4149-8b4c-152e5f63694b"},"vehicle_type_id":"4","last_reported":1687049179,"current_range_meters":17600,"station_id":"ce4bhbp2rcd13ifvqerg","pricing_plan_id":"free"},{"bike_id":"04754bb5-036e-46a6-8ae0-bee8facf7db8","system_id":"levelo_inurba_marseille","lat":43.282744,"lon":5.350533,"is_reserved":false,"is_disabled":false,"rental_uris":{"android":"levelo://app?vid=04754bb5-036e-46a6-8ae0-bee8facf7db8","ios":"levelo://app?vid=04754bb5-036e-46a6-8ae0-bee8facf7db8"},"vehicle_type_id":"4","last_reported":1687049179,"current_range_meters":22800,"station_id":"ce4bhbp2rcd13ifvqerg","pricing_plan_id":"free"},{"bike_id":"32c84e20-4726-4674-87ba-2b5ef7e1f362","system_id":"levelo_inurba_marseille","lat":43.28039,"lon":5.369297,"is_reserved":false,"is_disabled":false,"rental_uris":{"android":"levelo://app?vid=32c84e20-4726-4674-87ba-2b5ef7e1f362","ios":"levelo://app?vid=32c84e20-4726-4674-87ba-2b5ef7e1f362"},"vehicle_type_id":"4","last_reported":1687049179,"current_range_meters":31200,"station_id":"ce4bha12rcd13ifvqef0","pricing_plan_id":"free"},{"bike_id":"1efdc037-47aa-4a42-8d73-36b72f0a257a","system_id":"levelo_inurba_marseille","lat":43.280382,"lon":5.369291,"is_reserved":false,"is_disabled":false,"rental_uris":{"android":"levelo://app?vid=1efdc037-47aa-4a42-8d73-36b72f0a257a","ios":"levelo://app?vid=1efdc037-47aa-4a42-8d73-36b72f0a257a"},"vehicle_type_id":"4","last_reported":1687049179,"current_range_meters":24000,"station_id":"ce4bha12rcd13ifvqef0","pricing_plan_id":"free"},{"bike_id":"47e1e83f-3455-47b5-ab5a-cbceb55948b3","system_id":"levelo_inurba_marseille","lat":43.29048,"lon":5.39937,"is_reserved":false,"is_disabled":false,"rental_uris":{"android":"levelo://app?vid=47e1e83f-3455-47b5-ab5a-cbceb55948b3","ios":"levelo://app?vid=47e1e83f-3455-47b5-ab5a-cbceb55948b3"},"vehicle_type_id":"4","last_reported":1687049179,"current_range_meters":12800,"station_id":"","pricing_plan_id":"free"},{"bike_id":"5830a0d0-7406-4969-8a8f-c7979d4ad845","system_id":"levelo_inurba_marseille","lat":43.29048,"lon":5.39943,"is_reserved":false,"is_disabled":false,"rental_uris":{"android":"levelo://app?vid=5830a0d0-7406-4969-8a8f-c7979d4ad845","ios":"levelo://app?vid=5830a0d0-7406-4969-8a8f-c7979d4ad845"},"vehicle_type_id":"4","last_reported":1687049179,"current_range_meters":18800,"station_id":"ce4bh392rcd13ifvqdm0","pricing_plan_id":"free"},{"bike_id":"79f0dd2c-821d-4f48-9f14-7832bdfb56df","system_id":"levelo_inurba_marseille","lat":43.29043,"lon":5.39943,"is_reserved":false,"is_disabled":false,"rental_uris":{"android":"levelo://app?vid=79f0dd2c-821d-4f48-9f14-7832bdfb56df","ios":"levelo://app?vid=79f0dd2c-821d-4f48-9f14-7832bdfb56df"},"vehicle_type_id":"4","last_reported":1687049179,"current_range_meters":31200,"station_id":"ce4bh392rcd13ifvqdm0","pricing_plan_id":"free"},{"bike_id":"2df0399b-2c7a-4f5d-86a5-c6c96d24e54b","system_id":"levelo_inurba_marseille","lat":43.29041,"lon":5.39948,"is_reserved":false,"is_disabled":false,"rental_uris":{"android":"levelo://app?vid=2df0399b-2c7a-4f5d-86a5-c6c96d24e54b","ios":"levelo://app?vid=2df0399b-2c7a-4f5d-86a5-c6c96d24e54b"},"vehicle_type_id":"4","last_reported":1687049179,"current_range_meters":8800,"station_id":"ce4bh392rcd13ifvqdm0","pricing_plan_id":"free"},{"bike_id":"24d8c596-6f26-479e-b590-2e6f43206cd2","system_id":"levelo_inurba_marseille","lat":43.29038,"lon":5.3995,"is_reserved":false,"is_disabled":false,"rental_uris":{"android":"levelo://app?vid=24d8c596-6f26-479e-b590-2e6f43206cd2","ios":"levelo://app?vid=24d8c596-6f26-479e-b590-2e6f43206cd2"},"vehicle_type_id":"4","last_reported":1687049179,"current_range_meters":14800,"station_id":"ce4bh392rcd13ifvqdm0","pricing_plan_id":"free"},{"bike_id":"9a24e0f9-7080-438f-9549-e9d03ec0cbbf","system_id":"levelo_inurba_marseille","lat":43.29039,"lon":5.39953,"is_reserved":false,"is_disabled":false,"rental_uris":{"android":"levelo://app?vid=9a24e0f9-7080-438f-9549-e9d03ec0cbbf","ios":"levelo://app?vid=9a24e0f9-7080-438f-9549-e9d03ec0cbbf"},"vehicle_type_id":"4","last_reported":1687049179,"current_range_meters":17200,"station_id":"ce4bh392rcd13ifvqdm0","pricing_plan_id":"free"},{"bike_id":"4904d3ff-1924-4653-96b7-936e0f5c4f7e","system_id":"levelo_inurba_marseille","lat":43.2904,"lon":5.39957,"is_reserved":false,"is_disabled":false,"rental_uris":{"android":"levelo://app?vid=4904d3ff-1924-4653-96b7-936e0f5c4f7e","ios":"levelo://app?vid=4904d3ff-1924-4653-96b7-936e0f5c4f7e"},"vehicle_type_id":"4","last_reported":1687049179,"current_range_meters":14800,"station_id":"ce4bh392rcd13ifvqdm0","pricing_plan_id":"free"},{"bike_id":"a60a7fab-0ccf-491e-8bb8-990f1321af05","system_id":"levelo_inurba_marseille","lat":43.29041,"lon":5.39975,"is_reserved":false,"is_disabled":false,"rental_uris":{"android":"levelo://app?vid=a60a7fab-0ccf-491e-8bb8-990f1321af05","ios":"levelo://app?vid=a60a7fab-0ccf-491e-8bb8-990f1321af05"},"vehicle_type_id":"4","last_reported":1687049179,"current_range_meters":31200,"station_id":"ce4bh392rcd13ifvqdm0","pricing_plan_id":"free"},{"bike_id":"fbc40944-8527-4bf7-88de-219430d046dd","system_id":"levelo_inurba_marseille","lat":43.28108,"lon":5.37832,"is_reserved":false,"is_disabled":false,"rental_uris":{"android":"levelo://app?vid=fbc40944-8527-4bf7-88de-219430d046dd","ios":"levelo://app?vid=fbc40944-8527-4bf7-88de-219430d046dd"},"vehicle_type_id":"4","last_reported":1687049179,"current_range_meters":31200,"station_id":"ce4bha12rcd13ifvqee0","pricing_plan_id":"free"},{"bike_id":"e319f23b-78fa-4e87-95d8-0d70d4880215","system_id":"levelo_inurba_marseille","lat":43.281044,"lon":5.378308,"is_reserved":false,"is_disabled":false,"rental_uris":{"android":"levelo://app?vid=e319f23b-78fa-4e87-95d8-0d70d4880215","ios":"levelo://app?vid=e319f23b-78fa-4e87-95d8-0d70d4880215"},"vehicle_type_id":"4","last_reported":1687049179,"current_range_meters":21600,"station_id":"ce4bha12rcd13ifvqee0","pricing_plan_id":"free"},{"bike_id":"d50e6d5f-5007-48b5-993b-448805bf0810","system_id":"levelo_inurba_marseille","lat":43.28108,"lon":5.37849,"is_reserved":false,"is_disabled":false,"rental_uris":{"android":"levelo://app?vid=d50e6d5f-5007-48b5-993b-448805bf0810","ios":"levelo://app?vid=d50e6d5f-5007-48b5-993b-448805bf0810"},"vehicle_type_id":"4","last_reported":1687049179,"current_range_meters":28800,"station_id":"ce4bha12rcd13ifvqee0","pricing_plan_id":"free"},{"bike_id":"a082d075-1556-4b5d-bf07-4e333dc1b5f0","system_id":"levelo_inurba_marseille","lat":43.296263,"lon":5.40601,"is_reserved":false,"is_disabled":false,"rental_uris":{"android":"levelo://app?vid=a082d075-1556-4b5d-bf07-4e333dc1b5f0","ios":"levelo://app?vid=a082d075-1556-4b5d-bf07-4e333dc1b5f0"},"vehicle_type_id":"4","last_reported":1687049179,"current_range_meters":31200,"station_id":"ce4bh0h2rcd13ifvqd60","pricing_plan_id":"free"},{"bike_id":"c56d83cb-e3fc-44ba-9ee1-959f3301dbaa","system_id":"levelo_inurba_marseille","lat":43.29035,"lon":5.3998,"is_reserved":false,"is_disabled":false,"rental_uris":{"android":"levelo://app?vid=c56d83cb-e3fc-44ba-9ee1-959f3301dbaa","ios":"levelo://app?vid=c56d83cb-e3fc-44ba-9ee1-959f3301dbaa"},"vehicle_type_id":"4","last_reported":1687049179,"current_range_meters":22400,"station_id":"ce4bh392rcd13ifvqdm0","pricing_plan_id":"free"},{"bike_id":"37f8100c-083d-4d3d-8809-15c71bec8906","system_id":"levelo_inurba_marseille","lat":43.28105,"lon":5.37839,"is_reserved":false,"is_disabled":false,"rental_uris":{"android":"levelo://app?vid=37f8100c-083d-4d3d-8809-15c71bec8906","ios":"levelo://app?vid=37f8100c-083d-4d3d-8809-15c71bec8906"},"vehicle_type_id":"4","last_reported":1687049179,"current_range_meters":6400,"station_id":"ce4bha12rcd13ifvqee0","pricing_plan_id":"free"},{"bike_id":"c4af24ee-4c33-4f0a-95bc-172a9f1e5cc2","system_id":"levelo_inurba_marseille","lat":43.28106,"lon":5.37846,"is_reserved":false,"is_disabled":false,"rental_uris":{"android":"levelo://app?vid=c4af24ee-4c33-4f0a-95bc-172a9f1e5cc2","ios":"levelo://app?vid=c4af24ee-4c33-4f0a-95bc-172a9f1e5cc2"},"vehicle_type_id":"4","last_reported":1687049179,"current_range_meters":30400,"station_id":"ce4bha12rcd13ifvqee0","pricing_plan_id":"free"},{"bike_id":"1659fa87-c854-4c6c-bc6d-d2969cf6c71e","system_id":"levelo_inurba_marseille","lat":43.296263,"lon":5.40601,"is_reserved":false,"is_disabled":false,"rental_uris":{"android":"levelo://app?vid=1659fa87-c854-4c6c-bc6d-d2969cf6c71e","ios":"levelo://app?vid=1659fa87-c854-4c6c-bc6d-d2969cf6c71e"},"vehicle_type_id":"4","last_reported":1687049179,"current_range_meters":30400,"station_id":"ce4bh0h2rcd13ifvqd60","pricing_plan_id":"free"},{"bike_id":"94cbf57a-4fa0-4675-b434-98a14fdccac1","system_id":"levelo_inurba_marseille","lat":43.296263,"lon":5.40601,"is_reserved":false,"is_disabled":false,"rental_uris":{"android":"levelo://app?vid=94cbf57a-4fa0-4675-b434-98a14fdccac1","ios":"levelo://app?vid=94cbf57a-4fa0-4675-b434-98a14fdccac1"},"vehicle_type_id":"4","last_reported":1687049179,"current_range_meters":31600,"station_id":"ce4bh0h2rcd13ifvqd60","pricing_plan_id":"free"},{"bike_id":"0c8200be-f0df-49da-b035-d4aabb52fe78","system_id":"levelo_inurba_marseille","lat":43.28102,"lon":5.3784,"is_reserved":false,"is_disabled":false,"rental_uris":{"android":"levelo://app?vid=0c8200be-f0df-49da-b035-d4aabb52fe78","ios":"levelo://app?vid=0c8200be-f0df-49da-b035-d4aabb52fe78"},"vehicle_type_id":"4","last_reported":1687049179,"current_range_meters":27600,"station_id":"ce4bha12rcd13ifvqee0","pricing_plan_id":"free"},{"bike_id":"1a3974ef-b364-4b0b-ab91-33ed2ed8f891","system_id":"levelo_inurba_marseille","lat":43.28099,"lon":5.37837,"is_reserved":false,"is_disabled":false,"rental_uris":{"android":"levelo://app?vid=1a3974ef-b364-4b0b-ab91-33ed2ed8f891","ios":"levelo://app?vid=1a3974ef-b364-4b0b-ab91-33ed2ed8f891"},"vehicle_type_id":"4","last_reported":1687049179,"current_range_meters":17200,"station_id":"ce4bha12rcd13ifvqee0","pricing_plan_id":"free"},{"bike_id":"1acb3090-b03d-4c7c-bfde-97c9408ca25a","system_id":"levelo_inurba_marseille","lat":43.28101,"lon":5.37848,"is_reserved":false,"is_disabled":false,"rental_uris":{"android":"levelo://app?vid=1acb3090-b03d-4c7c-bfde-97c9408ca25a","ios":"levelo://app?vid=1acb3090-b03d-4c7c-bfde-97c9408ca25a"},"vehicle_type_id":"4","last_reported":1687049179,"current_range_meters":8800,"station_id":"ce4bha12rcd13ifvqee0","pricing_plan_id":"free"},{"bike_id":"6576cb4b-d303-40f1-a1e8-fc85b0216c23","system_id":"levelo_inurba_marseille","lat":43.281,"lon":5.37844,"is_reserved":false,"is_disabled":false,"rental_uris":{"android":"levelo://app?vid=6576cb4b-d303-40f1-a1e8-fc85b0216c23","ios":"levelo://app?vid=6576cb4b-d303-40f1-a1e8-fc85b0216c23"},"vehicle_type_id":"4","last_reported":1687049179,"current_range_meters":24400,"station_id":"ce4bha12rcd13ifvqee0","pricing_plan_id":"free"},{"bike_id":"aaf28640-ba06-4a8b-91a2-88dcbf7901b0","system_id":"levelo_inurba_marseille","lat":43.296263,"lon":5.40601,"is_reserved":false,"is_disabled":false,"rental_uris":{"android":"levelo://app?vid=aaf28640-ba06-4a8b-91a2-88dcbf7901b0","ios":"levelo://app?vid=aaf28640-ba06-4a8b-91a2-88dcbf7901b0"},"vehicle_type_id":"4","last_reported":1687049179,"current_range_meters":12800,"station_id":"ce4bh0h2rcd13ifvqd60","pricing_plan_id":"free"},{"bike_id":"0a352ec3-1abc-4b0e-8702-394c615b8993","system_id":"levelo_inurba_marseille","lat":43.296263,"lon":5.40601,"is_reserved":false,"is_disabled":false,"rental_uris":{"android":"levelo://app?vid=0a352ec3-1abc-4b0e-8702-394c615b8993","ios":"levelo://app?vid=0a352ec3-1abc-4b0e-8702-394c615b8993"},