{"last_updated":1758798543,"ttl":60,"version":"2.2","data":{"bikes":[{"bike_id":"c0e09fcd-6eb3-4487-95c6-c6f132f39de3","system_id":"levelo_inurba_marseille","lat":43.22544,"lon":5.34821,"is_reserved":false,"is_disabled":false,"rental_uris":{"android":"levelo://app?vid=c0e09fcd-6eb3-4487-95c6-c6f132f39de3","ios":"levelo://app?vid=c0e09fcd-6eb3-4487-95c6-c6f132f39de3"},"vehicle_type_id":"4","last_reported":1758798543,"current_range_meters":2800,"station_id":"","pricing_plan_id":"cebpf4jnsgd1na2vs0mg"},{"bike_id":"15f03254-554c-4b14-b6dc-7183e64bce32","system_id":"levelo_inurba_marseille","lat":43.29705,"lon":5.37685,"is_reserved":false,"is_disabled":false,"rental_uris":{"android":"levelo://app?vid=15f03254-554c-4b14-b6dc-7183e64bce32","ios":"levelo://app?vid=15f03254-554c-4b14-b6dc-7183e64bce32"},"vehicle_type_id":"4","last_reported":1758798543,"current_range_meters":2800,"station_id":"ce4bgkh2rcd13ifvqbl0","pricing_plan_id":"cebpf4jnsgd1na2vs0mg"},{"bike_id":"fe397054-ab1a-42a1-9a55-f0d6d35e7a72","system_id":"levelo_inurba_marseille","lat":43.29809,"lon":5.38099,"is_reserved":false,"is_disabled":false,"rental_uris":{"android":"levelo://app?vid=fe397054-ab1a-42a1-9a55-f0d6d35e7a72","ios":"levelo://app?vid=fe397054-ab1a-42a1-9a55-f0d6d35e7a72"},"vehicle_type_id":"4","last_reported":1758798543,"current_range_meters":2800,"station_id":"ce4bgip2rcd13ifvqbb0","pricing_plan_id":"cebpf4jnsgd1na2vs0mg"},{"bike_id":"8c70b728-5bff-49e9-acbe-398b4555c69b","system_id":"levelo_inurba_marseille","lat":43.22931,"lon":5.35373,"is_reserved":false,"is_disabled":false,"rental_uris":{"android":"levelo://app?vid=8c70b728-5bff-49e9-acbe-398b4555c69b","ios":"levelo://app?vid=8c70b728-5bff-49e9-acbe-398b4555c69b"},"vehicle_type_id":"4","last_reported":1758798543,"current_range_meters":2800,"station_id":"cpo3532slgdg3j2ikp40","pricing_plan_id":"cebpf4jnsgd1na2vs0mg"},{"bike_id":"95625f78-2a5c-4554-93e6-b132de3262e3","system_id":"levelo_inurba_marseille","lat":43.30455,"lon":5.37895,"is_reserved":false,"is_disabled":false,"rental_uris":{"android":"levelo://app?vid=95625f78-2a5c-4554-93e6-b132de3262e3","ios":"levelo://app?vid=95625f78-2a5c-4554-93e6-b132de3262e3"},"vehicle_type_id":"4","last_reported":1758798543,"current_range_meters":3200,"station_id":"ce4bgup2rcd13ifvqcn0","pricing_plan_id":"cebpf4jnsgd1na2vs0mg"},{"bike_id":"7683e0cf-b863-4c5f-9f93-d56a999ef06d","system_id":"levelo_inurba_marseille","lat":43.30532,"lon":5.36711,"is_reserved":false,"is_disabled":false,"rental_uris":{"android":"levelo://app?vid=7683e0cf-b863-4c5f-9f93-d56a999ef06d","ios":"levelo://app?vid=7683e0cf-b863-4c5f-9f93-d56a999ef06d"},"vehicle_type_id":"4","last_reported":1758798543,"current_range_meters":3200,"station_id":"ce4bgrp2rcd13ifvqc9g","pricing_plan_id":"cebpf4jnsgd1na2vs0mg"},{"bike_id":"658ecd88-0ac3-479c-8e5e-a6af3f63ea95","system_id":"levelo_inurba_marseille","lat":43.311151,"lon":5.377772,"is_reserved":false,"is_disabled":false,"rental_uris":{"android":"levelo://app?vid=658ecd88-0ac3-479c-8e5e-a6af3f63ea95","ios":"levelo://app?vid=658ecd88-0ac3-479c-8e5e-a6af3f63ea95"},"vehicle_type_id":"4","last_reported":1758798543,"current_range_meters":3200,"station_id":"ce4bgt92rcd13ifvqcg0","pricing_plan_id":"cebpf4jnsgd1na2vs0mg"},{"bike_id":"d16ba75f-95b5-456a-930a-43f984b8a3a6","system_id":"levelo_inurba_marseille","lat":43.290302,"lon":5.381245,"is_reserved":false,"is_disabled":false,"rental_uris":{"android":"levelo://app?vid=d16ba75f-95b5-456a-930a-43f984b8a3a6","ios":"levelo://app?vid=d16ba75f-95b5-456a-930a-43f984b8a3a6"},"vehicle_type_id":"4","last_reported":1758798543,"current_range_meters":4000,"station_id":"ce4bh4p2rcd13ifvqe1g","pricing_plan_id":"cebpf4jnsgd1na2vs0mg"},{"bike_id":"1ea752be-f17e-456c-9f02-3a277268389e","system_id":"levelo_inurba_marseille","lat":43.28932,"lon":5.38391,"is_reserved":false,"is_disabled":false,"rental_uris":{"android":"levelo://app?vid=1ea752be-f17e-456c-9f02-3a277268389e","ios":"levelo://app?vid=1ea752be-f17e-456c-9f02-3a277268389e"},"vehicle_type_id":"4","last_reported":1758798543,"current_range_meters":4000,"station_id":"ce4bh612rcd13ifvqe6g","pricing_plan_id":"cebpf4jnsgd1na2vs0mg"},{"bike_id":"1efddf8d-578f-4e4c-8c3f-e3a8bd592ba4","system_id":"levelo_inurba_marseille","lat":43.29953,"lon":5.37317,"is_reserved":false,"is_disabled":false,"rental_uris":{"android":"levelo://app?vid=1efddf8d-578f-4e4c-8c3f-e3a8bd592ba4","ios":"levelo://app?vid=1efddf8d-578f-4e4c-8c3f-e3a8bd592ba4"},"vehicle_type_id":"4","last_reported":1758798543,"current_range_meters":4400,"station_id":"","pricing_plan_id":"cebpf4jnsgd1na2vs0mg"},{"bike_id":"5e803ee4-5a95-4ac5-a154-0895584618eb","system_id":"levelo_inurba_marseille","lat":43.30424,"lon":5.39747,"is_reserved":false,"is_disabled":false,"rental_uris":{"android":"levelo://app?vid=5e803ee4-5a95-4ac5-a154-0895584618eb","ios":"levelo://app?vid=5e803ee4-5a95-4ac5-a154-0895584618eb"},"vehicle_type_id":"4","last_reported":1758798543,"current_range_meters":4400,"station_id":"ce4bh092rcd13ifvqd20","pricing_plan_id":"cebpf4jnsgd1na2vs0mg"},{"bike_id":"9446425e-0a86-42ae-bc3c-f72ad738e590","system_id":"levelo_inurba_marseille","lat":43.33652,"lon":5.36306,"is_reserved":false,"is_disabled":false,"rental_uris":{"android":"levelo://app?vid=9446425e-0a86-42ae-bc3c-f72ad738e590","ios":"levelo://app?vid=9446425e-0a86-42ae-bc3c-f72ad738e590"},"vehicle_type_id":"4","last_reported":1758798543,"current_range_meters":4400,"station_id":"","pricing_plan_id":"cebpf4jnsgd1na2vs0mg"},{"bike_id":"9765fd3b-7472-4f3c-b5ea-2cb20800a3a9","system_id":"levelo_inurba_marseille","lat":43.24633,"lon":5.3958,"is_reserved":false,"is_disabled":false,"rental_uris":{"android":"levelo://app?vid=9765fd3b-7472-4f3c-b5ea-2cb20800a3a9","ios":"levelo://app?vid=9765fd3b-7472-4f3c-b5ea-2cb20800a3a9"},"vehicle_type_id":"4","last_reported":1758798543,"current_range_meters":4800,"station_id":"","pricing_plan_id":"cebpf4jnsgd1na2vs0mg"},{"bike_id":"7280e9e2-bebf-43bc-8667-4b7f3bd00a84","system_id":"levelo_inurba_marseille","lat":43.292017,"lon":5.35791,"is_reserved":false,"is_disabled":false,"rental_uris":{"android":"levelo://app?vid=7280e9e2-bebf-43bc-8667-4b7f3bd00a84","ios":"levelo://app?vid=7280e9e2-bebf-43bc-8667-4b7f3bd00a84"},"vehicle_type_id":"4","last_reported":1758798543,"current_range_meters":5600,"station_id":"ce4bhb12rcd13ifvqel0","pricing_plan_id":"cebpf4jnsgd1na2vs0mg"},{"bike_id":"b69fcbcc-ebec-4fd3-955c-597d2d6ac11f","system_id":"levelo_inurba_marseille","lat":43.28416,"lon":5.37505,"is_reserved":false,"is_disabled":false,"rental_uris":{"android":"levelo://app?vid=b69fcbcc-ebec-4fd3-955c-597d2d6ac11f","ios":"levelo://app?vid=b69fcbcc-ebec-4fd3-955c-597d2d6ac11f"},"vehicle_type_id":"4","last_reported":1758798543,"current_range_meters":5600,"station_id":"ce4bh412rcd13ifvqds0","pricing_plan_id":"cebpf4jnsgd1na2vs0mg"},{"bike_id":"7c0482c3-9253-4d1b-b4f3-be55cdb7721d","system_id":"levelo_inurba_marseille","lat":43.33757,"lon":5.37466,"is_reserved":false,"is_disabled":false,"rental_uris":{"android":"levelo://app?vid=7c0482c3-9253-4d1b-b4f3-be55cdb7721d","ios":"levelo://app?vid=7c0482c3-9253-4d1b-b4f3-be55cdb7721d"},"vehicle_type_id":"4","last_reported":1758798543,"current_range_meters":6000,"station_id":"","pricing_plan_id":"cebpf4jnsgd1na2vs0mg"},{"bike_id":"eb689df7-706f-4335-a640-8ea9e24aa630","system_id":"levelo_inurba_marseille","lat":43.30948,"lon":5.39044,"is_reserved":false,"is_disabled":false,"rental_uris":{"android":"levelo://app?vid=eb689df7-706f-4335-a640-8ea9e24aa630","ios":"levelo://app?vid=eb689df7-706f-4335-a640-8ea9e24aa630"},"vehicle_type_id":"4","last_reported":1758798543,"current_range_meters":6000,"station_id":"ce4bgup2rcd13ifvqco0","pricing_plan_id":"cebpf4jnsgd1na2vs0mg"},{"bike_id":"5f7a5080-e77c-4892-a096-c578510b27d0","system_id":"levelo_inurba_marseille","lat":43.27958,"lon":5.41019,"is_reserved":false,"is_disabled":true,"rental_uris":{"android":"levelo://app?vid=5f7a5080-e77c-4892-a096-c578510b27d0","ios":"levelo://app?vid=5f7a5080-e77c-4892-a096-c578510b27d0"},"vehicle_type_id":"4","last_reported":1758798543,"current_range_meters":6400,"station_id":"ce4bhnp2rcd13ifvqh0g","pricing_plan_id":"cebpf4jnsgd1na2vs0mg"},{"bike_id":"5b472151-2963-4020-b9ec-fd51857560ce","system_id":"levelo_inurba_marseille","lat":43.2989,"lon":5.38898,"is_reserved":false,"is_disabled":false,"rental_uris":{"android":"levelo://app?vid=5b472151-2963-4020-b9ec-fd51857560ce","ios":"levelo://app?vid=5b472151-2963-4020-b9ec-fd51857560ce"},"vehicle_type_id":"4","last_reported":1758798543,"current_range_meters":6000,"station_id":"ce4bh392rcd13ifvqdl0","pricing_plan_id":"cebpf4jnsgd1na2vs0mg"},{"bike_id":"a08cb348-0dd7-41dc-8620-8238d2a1065e","system_id":"levelo_inurba_marseille","lat":43.2953,"lon":5.38538,"is_reserved":false,"is_disabled":false,"rental_uris":{"android":"levelo://app?vid=a08cb348-0dd7-41dc-8620-8238d2a1065e","ios":"levelo://app?vid=a08cb348-0dd7-41dc-8620-8238d2a1065e"},"vehicle_type_id":"4","last_reported":1758798543,"current_range_meters":6400,"station_id":"ce4bgih2rcd13ifvqba0","pricing_plan_id":"cebpf4jnsgd1na2vs0mg"},{"bike_id":"939538dc-20bd-4d94-8a10-8e1e0a179bc7","system_id":"levelo_inurba_marseille","lat":43.305,"lon":5.36652,"is_reserved":false,"is_disabled":false,"rental_uris":{"android":"levelo://app?vid=939538dc-20bd-4d94-8a10-8e1e0a179bc7","ios":"levelo://app?vid=939538dc-20bd-4d94-8a10-8e1e0a179bc7"},"vehicle_type_id":"4","last_reported":1758798543,"current_range_meters":6400,"station_id":"","pricing_plan_id":"cebpf4jnsgd1na2vs0mg"},{"bike_id":"eecb56ba-37fa-432c-b86b-3a45a607d9f8","system_id":"levelo_inurba_marseille","lat":43.22929,"lon":5.35378,"is_reserved":false,"is_disabled":false,"rental_uris":{"android":"levelo://app?vid=eecb56ba-37fa-432c-b86b-3a45a607d9f8","ios":"levelo://app?vid=eecb56ba-37fa-432c-b86b-3a45a607d9f8"},"vehicle_type_id":"4","last_reported":1758798543,"current_range_meters":6400,"station_id":"cpo3532slgdg3j2ikp40","pricing_plan_id":"cebpf4jnsgd1na2vs0mg"},{"bike_id":"117acf13-6b03-4ee3-b4a5-edb1f47e11bc","system_id":"levelo_inurba_marseille","lat":43.26628,"lon":5.38197,"is_reserved":false,"is_disabled":false,"rental_uris":{"android":"levelo://app?vid=117acf13-6b03-4ee3-b4a5-edb1f47e11bc","ios":"levelo://app?vid=117acf13-6b03-4ee3-b4a5-edb1f47e11bc"},"vehicle_type_id":"4","last_reported":1758798543,"current_range_meters":6400,"station_id":"","pricing_plan_id":"cebpf4jnsgd1na2vs0mg"},{"bike_id":"9ababc54-a2fe-4564-9c73-45f4b3ab8ee9","system_id":"levelo_inurba_marseille","lat":43.25718,"lon":5.41114,"is_reserved":false,"is_disabled":false,"rental_uris":{"android":"levelo://app?vid=9ababc54-a2fe-4564-9c73-45f4b3ab8ee9","ios":"levelo://app?vid=9ababc54-a2fe-4564-9c73-45f4b3ab8ee9"},"vehicle_type_id":"4","last_reported":1758798543,"current_range_meters":6800,"station_id":"ce4bhkp2rcd13ifvqgd0","pricing_plan_id":"cebpf4jnsgd1na2vs0mg"},{"bike_id":"9c4a7bdb-c552-4dfd-8efb-40b9e0b0b147","system_id":"levelo_inurba_marseille","lat":43.30911,"lon":5.36697,"is_reserved":false,"is_disabled":false,"rental_uris":{"android":"levelo://app?vid=9c4a7bdb-c552-4dfd-8efb-40b9e0b0b147","ios":"levelo://app?vid=9c4a7bdb-c552-4dfd-8efb-40b9e0b0b147"},"vehicle_type_id":"4","last_reported":1758798543,"current_range_meters":6800,"station_id":"","pricing_plan_id":"cebpf4jnsgd1na2vs0mg"},{"bike_id":"e1c0b721-86e2-4f4f-b97d-3fb8290653a3","system_id":"levelo_inurba_marseille","lat":43.27492,"lon":5.42449,"is_reserved":false,"is_disabled":true,"rental_uris":{"android":"levelo://app?vid=e1c0b721-86e2-4f4f-b97d-3fb8290653a3","ios":"levelo://app?vid=e1c0b721-86e2-4f4f-b97d-3fb8290653a3"},"vehicle_type_id":"4","last_reported":1758798543,"current_range_meters":6800,"station_id":"ce4bhn92rcd13ifvqgrg","pricing_plan_id":"cebpf4jnsgd1na2vs0mg"},{"bike_id":"eb185984-e809-44cd-a3f8-2f9bbad23b30","system_id":"levelo_inurba_marseille","lat":43.25868,"lon":5.39896,"is_reserved":false,"is_disabled":false,"rental_uris":{"android":"levelo://app?vid=eb185984-e809-44cd-a3f8-2f9bbad23b30","ios":"levelo://app?vid=eb185984-e809-44cd-a3f8-2f9bbad23b30"},"vehicle_type_id":"4","last_reported":1758798543,"current_range_meters":8800,"station_id":"ce4bhl92rcd13ifvqghg","pricing_plan_id":"cebpf4jnsgd1na2vs0mg"},{"bike_id":"cb3d83dd-8277-415b-bc5d-a118e1200728","system_id":"levelo_inurba_marseille","lat":43.30111,"lon":5.41026,"is_reserved":false,"is_disabled":false,"rental_uris":{"android":"levelo://app?vid=cb3d83dd-8277-415b-bc5d-a118e1200728","ios":"levelo://app?vid=cb3d83dd-8277-415b-bc5d-a118e1200728"},"vehicle_type_id":"4","last_reported":1758798543,"current_range_meters":7200,"station_id":"","pricing_plan_id":"cebpf4jnsgd1na2vs0mg"},{"bike_id":"3e03cc56-04ba-4f17-925d-db6ba1d7b690","system_id":"levelo_inurba_marseille","lat":43.26566,"lon":5.39006,"is_reserved":false,"is_disabled":false,"rental_uris":{"android":"levelo://app?vid=3e03cc56-04ba-4f17-925d-db6ba1d7b690","ios":"levelo://app?vid=3e03cc56-04ba-4f17-925d-db6ba1d7b690"},"vehicle_type_id":"4","last_reported":1758798543,"current_range_meters":8000,"station_id":"ce4bhe12rcd13ifvqf30","pricing_plan_id":"cebpf4jnsgd1na2vs0mg"},{"bike_id":"136a707a-b224-4c44-8119-f846f7b7d0a7","system_id":"levelo_inurba_marseille","lat":43.29516,"lon":5.37375,"is_reserved":false,"is_disabled":false,"rental_uris":{"android":"levelo://app?vid=136a707a-b224-4c44-8119-f846f7b7d0a7","ios":"levelo://app?vid=136a707a-b224-4c44-8119-f846f7b7d0a7"},"vehicle_type_id":"4","last_reported":1758798543,"current_range_meters":8000,"station_id":"","pricing_plan_id":"cebpf4jnsgd1na2vs0mg"},{"bike_id":"23e1201a-e9b6-4ef4-91c7-5718bdf9bd14","system_id":"levelo_inurba_marseille","lat":43.240691,"lon":5.377652,"is_reserved":false,"is_disabled":false,"rental_uris":{"android":"levelo://app?vid=23e1201a-e9b6-4ef4-91c7-5718bdf9bd14","ios":"levelo://app?vid=23e1201a-e9b6-4ef4-91c7-5718bdf9bd14"},"vehicle_type_id":"4","last_reported":1758798543,"current_range_meters":8000,"station_id":"ce4bhnp2rcd13ifvqgvg","pricing_plan_id":"cebpf4jnsgd1na2vs0mg"},{"bike_id":"fcb0ac1f-a238-4e41-a8d9-ca40b9e97cb8","system_id":"levelo_inurba_marseille","lat":43.29281,"lon":5.38437,"is_reserved":false,"is_disabled":false,"rental_uris":{"android":"levelo://app?vid=fcb0ac1f-a238-4e41-a8d9-ca40b9e97cb8","ios":"levelo://app?vid=fcb0ac1f-a238-4e41-a8d9-ca40b9e97cb8"},"vehicle_type_id":"4","last_reported":1758798543,"current_range_meters":8000,"station_id":"ce4bh692rcd13ifvqea0","pricing_plan_id":"cebpf4jnsgd1na2vs0mg"},{"bike_id":"a676f0cb-4f48-4a5e-806b-b7f7d622f01f","system_id":"levelo_inurba_marseille","lat":43.29573,"lon":5.37525,"is_reserved":false,"is_disabled":false,"rental_uris":{"android":"levelo://app?vid=a676f0cb-4f48-4a5e-806b-b7f7d622f01f","ios":"levelo://app?vid=a676f0cb-4f48-4a5e-806b-b7f7d622f01f"},"vehicle_type_id":"4","last_reported":1758798543,"current_range_meters":8000,"station_id":"ce4bgh92rcd13ifvqb50","pricing_plan_id":"cebpf4jnsgd1na2vs0mg"},{"bike_id":"4e737411-53ce-4bdf-9802-c3bc30d9bc94","system_id":"levelo_inurba_marseille","lat":43.29549,"lon":5.40656,"is_reserved":false,"is_disabled":false,"rental_uris":{"android":"levelo://app?vid=4e737411-53ce-4bdf-9802-c3bc30d9bc94","ios":"levelo://app?vid=4e737411-53ce-4bdf-9802-c3bc30d9bc94"},"vehicle_type_id":"4","last_reported":1758798543,"current_range_meters":8400,"station_id":"","pricing_plan_id":"cebpf4jnsgd1na2vs0mg"},{"bike_id":"e0c80f75-7557-4943-9ebe-1fe86d170951","system_id":"levelo_inurba_marseille","lat":43.23968,"lon":5.3663,"is_reserved":false,"is_disabled":false,"rental_uris":{"android":"levelo://app?vid=e0c80f75-7557-4943-9ebe-1fe86d170951","ios":"levelo://app?vid=e0c80f75-7557-4943-9ebe-1fe86d170951"},"vehicle_type_id":"4","last_reported":1758798543,"current_range_meters":8400,"station_id":"ce4bhi12rcd13ifvqfp0","pricing_plan_id":"cebpf4jnsgd1na2vs0mg"},{"bike_id":"438ead59-de14-4fa0-a61d-03a70a4122ae","system_id":"levelo_inurba_marseille","lat":43.97269,"lon":4.89111,"is_reserved":false,"is_disabled":true,"rental_uris":{"android":"levelo://app?vid=438ead59-de14-4fa0-a61d-03a70a4122ae","ios":"levelo://app?vid=438ead59-de14-4fa0-a61d-03a70a4122ae"},"vehicle_type_id":"4","last_reported":1758798543,"current_range_meters":8400,"station_id":"","pricing_plan_id":"cebpf4jnsgd1na2vs0mg"},{"bike_id":"f8e01dbd-38eb-4c44-997f-738bb6f6d69f","system_id":"levelo_inurba_marseille","lat":43.29197,"lon":5.35803,"is_reserved":false,"is_disabled":false,"rental_uris":{"android":"levelo://app?vid=f8e01dbd-38eb-4c44-997f-738bb6f6d69f","ios":"levelo://app?vid=f8e01dbd-38eb-4c44-997f-738bb6f6d69f"},"vehicle_type_id":"4","last_reported":1758798543,"current_range_meters":8400,"station_id":"ce4bhb12rcd13ifvqel0","pricing_plan_id":"cebpf4jnsgd1na2vs0mg"},{"bike_id":"65169100-7365-4f6a-98ce-8b18a1b7a183","system_id":"levelo_inurba_marseille","lat":43.29713,"lon":5.36595,"is_reserved":false,"is_disabled":false,"rental_uris":{"android":"levelo://app?vid=65169100-7365-4f6a-98ce-8b18a1b7a183","ios":"levelo://app?vid=65169100-7365-4f6a-98ce-8b18a1b7a183"},"vehicle_type_id":"4","last_reported":1758798543,"current_range_meters":8800,"station_id":"ce4bgn12rcd13ifvqbt0","pricing_plan_id":"cebpf4jnsgd1na2vs0mg"},{"bike_id":"77daa39a-6d92-4fe8-8266-f8eceab04af2","system_id":"levelo_inurba_marseille","lat":43.29847,"lon":5.36285,"is_reserved":false,"is_disabled":false,"rental_uris":{"android":"levelo://app?vid=77daa39a-6d92-4fe8-8266-f8eceab04af2","ios":"levelo://app?vid=77daa39a-6d92-4fe8-8266-f8eceab04af2"},"vehicle_type_id":"4","last_reported":1758798543,"current_range_meters":8800,"station_id":"ce4bgpp2rcd13ifvqc3g","pricing_plan_id":"cebpf4jnsgd1na2vs0mg"},{"bike_id":"6efd8ee2-c0fb-4284-936d-046837a0361c","system_id":"levelo_inurba_marseille","lat":43.2885,"lon":5.35869,"is_reserved":false,"is_disabled":false,"rental_uris":{"android":"levelo://app?vid=6efd8ee2-c0fb-4284-936d-046837a0361c","ios":"levelo://app?vid=6efd8ee2-c0fb-4284-936d-046837a0361c"},"vehicle_type_id":"4","last_reported":1758798543,"current_range_meters":12800,"station_id":"ce4bhb12rcd13ifvqem0","pricing_plan_id":"cebpf4jnsgd1na2vs0mg"},{"bike_id":"7b9baa05-893e-4610-ba13-86cd6c33417c","system_id":"levelo_inurba_marseille","lat":43.30187,"lon":5.36614,"is_reserved":false,"is_disabled":false,"rental_uris":{"android":"levelo://app?vid=7b9baa05-893e-4610-ba13-86cd6c33417c","ios":"levelo://app?vid=7b9baa05-893e-4610-ba13-86cd6c33417c"},"vehicle_type_id":"4","last_reported":1758798543,"current_range_meters":8800,"station_id":"ce4bgrh2rcd13ifvqc8g","pricing_plan_id":"cebpf4jnsgd1na2vs0mg"},{"bike_id":"b5097eea-9912-4be2-9cf9-14c224c5fab6","system_id":"levelo_inurba_marseille","lat":43.23197,"lon":5.35549,"is_reserved":false,"is_disabled":false,"rental_uris":{"android":"levelo://app?vid=b5097eea-9912-4be2-9cf9-14c224c5fab6","ios":"levelo://app?vid=b5097eea-9912-4be2-9cf9-14c224c5fab6"},"vehicle_type_id":"4","last_reported":1758798543,"current_range_meters":9200,"station_id":"ce4bhu92rcd13ifvqi70","pricing_plan_id":"cebpf4jnsgd1na2vs0mg"},{"bike_id":"b7d15b37-9a5f-4b39-995a-987ae6496a26","system_id":"levelo_inurba_marseille","lat":43.32475,"lon":5.36539,"is_reserved":false,"is_disabled":false,"rental_uris":{"android":"levelo://app?vid=b7d15b37-9a5f-4b39-995a-987ae6496a26","ios":"levelo://app?vid=b7d15b37-9a5f-4b39-995a-987ae6496a26"},"vehicle_type_id":"4","last_reported":1758798543,"current_range_meters":9200,"station_id":"ce4bhs12rcd13ifvqhvg","pricing_plan_id":"cebpf4jnsgd1na2vs0mg"},{"bike_id":"d2be082e-bd73-4203-addb-18871b3a9587","system_id":"levelo_inurba_marseille","lat":43.29415,"lon":5.37493,"is_reserved":false,"is_disabled":false,"rental_uris":{"android":"levelo://app?vid=d2be082e-bd73-4203-addb-18871b3a9587","ios":"levelo://app?vid=d2be082e-bd73-4203-addb-18871b3a9587"},"vehicle_type_id":"4","last_reported":1758798543,"current_range_meters":9200,"station_id":"","pricing_plan_id":"cebpf4jnsgd1na2vs0mg"},{"bike_id":"ae4d123c-65ee-4c52-8933-f4b14d3f9582","system_id":"levelo_inurba_marseille","lat":43.22563,"lon":5.41627,"is_reserved":false,"is_disabled":false,"rental_uris":{"android":"levelo://app?vid=ae4d123c-65ee-4c52-8933-f4b14d3f9582","ios":"levelo://app?vid=ae4d123c-65ee-4c52-8933-f4b14d3f9582"},"vehicle_type_id":"4","last_reported":1758798543,"current_range_meters":9600,"station_id":"st_d2o4gvlbi1j2169b742g","pricing_plan_id":"cebpf4jnsgd1na2vs0mg"},{"bike_id":"4be419bc-4fd3-41a4-8a66-2f681711af58","system_id":"levelo_inurba_marseille","lat":43.3204,"lon":5.4154,"is_reserved":false,"is_disabled":false,"rental_uris":{"android":"levelo://app?vid=4be419bc-4fd3-41a4-8a66-2f681711af58","ios":"levelo://app?vid=4be419bc-4fd3-41a4-8a66-2f681711af58"},"vehicle_type_id":"4","last_reported":1758798543,"current_range_meters":9200,"station_id":"ce4bhq92rcd13ifvqhkg","pricing_plan_id":"cebpf4jnsgd1na2vs0mg"},{"bike_id":"06c10839-75c7-457b-804b-f341157fb4f3","system_id":"levelo_inurba_marseille","lat":43.25053,"lon":5.40472,"is_reserved":false,"is_disabled":false,"rental_uris":{"android":"levelo://app?vid=06c10839-75c7-457b-804b-f341157fb4f3","ios":"levelo://app?vid=06c10839-75c7-457b-804b-f341157fb4f3"},"vehicle_type_id":"4","last_reported":1758798543,"current_range_meters":9600,"station_id":"","pricing_plan_id":"cebpf4jnsgd1na2vs0mg"},{"bike_id":"8d51a4c9-9fea-426e-b1ee-7fca734ec336","system_id":"levelo_inurba_marseille","lat":43.24078,"lon":5.37753,"is_reserved":false,"is_disabled":false,"rental_uris":{"android":"levelo://app?vid=8d51a4c9-9fea-426e-b1ee-7fca734ec336","ios":"levelo://app?vid=8d51a4c9-9fea-426e-b1ee-7fca734ec336"},"vehicle_type_id":"4","last_reported":1758798543,"current_range_meters":9600,"station_id":"ce4bhnp2rcd13ifvqgvg","pricing_plan_id":"cebpf4jnsgd1na2vs0mg"},{"bike_id":"a837df9a-af82-4940-839b-f8d94f819041","system_id":"levelo_inurba_marseille","lat":43.29868,"lon":5.38905,"is_reserved":false,"is_disabled":false,"rental_uris":{"android":"levelo://app?vid=a837df9a-af82-4940-839b-f8d94f819041","ios":"levelo://app?vid=a837df9a-af82-4940-839b-f8d94f819041"},"vehicle_type_id":"4","last_reported":1758798543,"current_range_meters":9600,"station_id":"ce4bh392rcd13ifvqdl0","pricing_plan_id":"cebpf4jnsgd1na2vs0mg"},{"bike_id":"47c4f3ab-ac15-4b3d-a5f9-5573a07d0401","system_id":"levelo_inurba_marseille","lat":43.22559,"lon":5.41653,"is_reserved":false,"is_disabled":false,"rental_uris":{"android":"levelo://app?vid=47c4f3ab-ac15-4b3d-a5f9-5573a07d0401","ios":"levelo://app?vid=47c4f3ab-ac15-4b3d-a5f9-5573a07d0401"},"vehicle_type_id":"4","last_reported":1758798543,"current_range_meters":9600,"station_id":"st_d2o4gvlbi1j2169b742g","pricing_plan_id":"cebpf4jnsgd1na2vs0mg"},{"bike_id":"a6de4562-fee5-4c1c-8d3b-218fc8b4051d","system_id":"levelo_inurba_marseille","lat":43.23207,"lon":5.35555,"is_reserved":false,"is_disabled":false,"rental_uris":{"android":"levelo://app?vid=a6de4562-fee5-4c1c-8d3b-218fc8b4051d","ios":"levelo://app?vid=a6de4562-fee5-4c1c-8d3b-218fc8b4051d"},"vehicle_type_id":"4","last_reported":1758798543,"current_range_meters":9600,"station_id":"ce4bhu92rcd13ifvqi70","pricing_plan_id":"cebpf4jnsgd1na2vs0mg"},{"bike_id":"450844ba-2fc2-47be-9959-8fee61f07fb6","system_id":"levelo_inurba_marseille","lat":43.31741,"lon":5.39024,"is_reserved":false,"is_disabled":false,"rental_uris":{"android":"levelo://app?vid=450844ba-2fc2-47be-9959-8fee61f07fb6","ios":"levelo://app?vid=450844ba-2fc2-47be-9959-8fee61f07fb6"},"vehicle_type_id":"4","last_reported":1758798543,"current_range_meters":10000,"station_id":"ce4bhqp2rcd13ifvqhng","pricing_plan_id":"cebpf4jnsgd1na2vs0mg"},{"bike_id":"bf1244d3-d7e7-45bd-8580-d0cbc34b36e3","system_id":"levelo_inurba_marseille","lat":43.22574,"lon":5.41632,"is_reserved":false,"is_disabled":false,"rental_uris":{"android":"levelo://app?vid=bf1244d3-d7e7-45bd-8580-d0cbc34b36e3","ios":"levelo://app?vid=bf1244d3-d7e7-45bd-8580-d0cbc34b36e3"},"vehicle_type_id":"4","last_reported":1758798543,"current_range_meters":10000,"station_id":"st_d2o4gvlbi1j2169b742g","pricing_plan_id":"cebpf4jnsgd1na2vs0mg"},{"bike_id":"98e03337-e064-46a2-ac09-2f416f284c49","system_id":"levelo_inurba_marseille","lat":43.24804,"lon":5.37452,"is_reserved":false,"is_disabled":false,"rental_uris":{"android":"levelo://app?vid=98e03337-e064-46a2-ac09-2f416f284c49","ios":"levelo://app?vid=98e03337-e064-46a2-ac09-2f416f284c49"},"vehicle_type_id":"4","last_reported":1758798543,"current_range_meters":12000,"station_id":"ce4bhgh2rcd13ifvqfb0","pricing_plan_id":"cebpf4jnsgd1na2vs0mg"},{"bike_id":"404ef866-e4bd-4c2e-a59f-e49edb711cb4","system_id":"levelo_inurba_marseille","lat":43.33611,"lon":5.41031,"is_reserved":false,"is_disabled":false,"rental_uris":{"android":"levelo://app?vid=404ef866-e4bd-4c2e-a59f-e49edb711cb4","ios":"levelo://app?vid=404ef866-e4bd-4c2e-a59f-e49edb711cb4"},"vehicle_type_id":"4","last_reported":1758798543,"current_range_meters":10000,"station_id":"ce4bhqh2rcd13ifvqhmg","pricing_plan_id":"cebpf4jnsgd1na2vs0mg"},{"bike_id":"2b17e31d-483a-446f-ab70-be77e8fc701b","system_id":"levelo_inurba_marseille","lat":43.29228,"lon":5.36074,"is_reserved":false,"is_disabled":false,"rental_uris":{"android":"levelo://app?vid=2b17e31d-483a-446f-ab70-be77e8fc701b","ios":"levelo://app?vid=2b17e31d-483a-446f-ab70-be77e8fc701b"},"vehicle_type_id":"4","last_reported":1758798543,"current_range_meters":10000,"station_id":"ce4bhbh2rcd13ifvqeqg","pricing_plan_id":"cebpf4jnsgd1na2vs0mg"},{"bike_id":"277b793a-107b-4bbf-b02a-da54ee239811","system_id":"levelo_inurba_marseille","lat":43.29875,"lon":5.38903,"is_reserved":false,"is_disabled":false,"rental_uris":{"android":"levelo://app?vid=277b793a-107b-4bbf-b02a-da54ee239811","ios":"levelo://app?vid=277b793a-107b-4bbf-b02a-da54ee239811"},"vehicle_type_id":"4","last_reported":1758798543,"current_range_meters":14800,"station_id":"ce4bh392rcd13ifvqdl0","pricing_plan_id":"cebpf4jnsgd1na2vs0mg"},{"bike_id":"1760993c-3fed-448f-9d68-01cb205cc781","system_id":"levelo_inurba_marseille","lat":43.217461,"lon":5.346095,"is_reserved":false,"is_disabled":false,"rental_uris":{"android":"levelo://app?vid=1760993c-3fed-448f-9d68-01cb205cc781","ios":"levelo://app?vid=1760993c-3fed-448f-9d68-01cb205cc781"},"vehicle_type_id":"4","last_reported":1758798543,"current_range_meters":10000,"station_id":"st_cvj6r9ubvosntc0bgbag","pricing_plan_id":"cebpf4jnsgd1na2vs0mg"},{"bike_id":"43c0f1cd-a802-465a-ae6d-efca59ba7535","system_id":"levelo_inurba_marseille","lat":43.258265,"lon":5.394374,"is_reserved":false,"is_disabled":false,"rental_uris":{"android":"levelo://app?vid=43c0f1cd-a802-465a-ae6d-efca59ba7535","ios":"levelo://app?vid=43c0f1cd-a802-465a-ae6d-efca59ba7535"},"vehicle_type_id":"4","last_reported":1758798543,"current_range_meters":10000,"station_id":"ce4bhip2rcd13ifvqft0","pricing_plan_id":"cebpf4jnsgd1na2vs0mg"},{"bike_id":"73720335-0e4b-4178-b0db-f9ed60f026d5","system_id":"levelo_inurba_marseille","lat":43.24079,"lon":5.37756,"is_reserved":false,"is_disabled":false,"rental_uris":{"android":"levelo://app?vid=73720335-0e4b-4178-b0db-f9ed60f026d5","ios":"levelo://app?vid=73720335-0e4b-4178-b0db-f9ed60f026d5"},"vehicle_type_id":"4","last_reported":1758798543,"current_range_meters":10000,"station_id":"ce4bhnp2rcd13ifvqgvg","pricing_plan_id":"cebpf4jnsgd1na2vs0mg"},{"bike_id":"259d7e6a-e130-479a-a9d2-6fe14e2dcb72","system_id":"levelo_inurba_marseille","lat":43.298839,"lon":5.389054,"is_reserved":false,"is_disabled":false,"rental_uris":{"android":"levelo://app?vid=259d7e6a-e130-479a-a9d2-6fe14e2dcb72","ios":"levelo://app?vid=259d7e6a-e130-479a-a9d2-6fe14e2dcb72"},"vehicle_type_id":"4","last_reported":1758798543,"current_range_meters":10800,"station_id":"ce4bh392rcd13ifvqdl0","pricing_plan_id":"cebpf4jnsgd1na2vs0mg"},{"bike_id":"e35ea2b2-1db1-437f-adb4-3b9ff3ff066d","system_id":"levelo_inurba_marseille","lat":43.307861,"lon":5.376539,"is_reserved":false,"is_disabled":false,"rental_uris":{"android":"levelo://app?vid=e35ea2b2-1db1-437f-adb4-3b9ff3ff066d","ios":"levelo://app?vid=e35ea2b2-1db1-437f-adb4-3b9ff3ff066d"},"vehicle_type_id":"4","last_reported":1758798543,"current_range_meters":8000,"station_id":"ce4bgv92rcd13ifvqcq0","pricing_plan_id":"cebpf4jnsgd1na2vs0mg"},{"bike_id":"15575346-853d-4606-a340-5bfabb81588d","system_id":"levelo_inurba_marseille","lat":43.29967,"lon":5.3718,"is_reserved":false,"is_disabled":false,"rental_uris":{"android":"levelo://app?vid=15575346-853d-4606-a340-5bfabb81588d","ios":"levelo://app?vid=15575346-853d-4606-a340-5bfabb81588d"},"vehicle_type_id":"4","last_reported":1758798543,"current_range_meters":10800,"station_id":"ce4bgr92rcd13ifvqc7g","pricing_plan_id":"cebpf4jnsgd1na2vs0mg"},{"bike_id":"535e424a-7d1e-4823-8e80-5f3f6875470a","system_id":"levelo_inurba_marseille","lat":43.24808,"lon":5.374648,"is_reserved":false,"is_disabled":false,"rental_uris":{"android":"levelo://app?vid=535e424a-7d1e-4823-8e80-5f3f6875470a","ios":"levelo://app?vid=535e424a-7d1e-4823-8e80-5f3f6875470a"},"vehicle_type_id":"4","last_reported":1758798543,"current_range_meters":10800,"station_id":"ce4bhgh2rcd13ifvqfb0","pricing_plan_id":"cebpf4jnsgd1na2vs0mg"},{"bike_id":"5d8e9c59-36ad-4657-bc8c-18dd84fdb07e","system_id":"levelo_inurba_marseille","lat":43.30593,"lon":5.3936,"is_reserved":false,"is_disabled":false,"rental_uris":{"android":"levelo://app?vid=5d8e9c59-36ad-4657-bc8c-18dd84fdb07e","ios":"levelo://app?vid=5d8e9c59-36ad-4657-bc8c-18dd84fdb07e"},"vehicle_type_id":"4","last_reported":1758798543,"current_range_meters":10800,"station_id":"ce4bh0p2rcd13ifvqd80","pricing_plan_id":"cebpf4jnsgd1na2vs0mg"},{"bike_id":"3a83ddcd-ce03-4ed4-a7fa-b273c2464f02","system_id":"levelo_inurba_marseille","lat":43.27966,"lon":5.36321,"is_reserved":false,"is_disabled":false,"rental_uris":{"android":"levelo://app?vid=3a83ddcd-ce03-4ed4-a7fa-b273c2464f02","ios":"levelo://app?vid=3a83ddcd-ce03-4ed4-a7fa-b273c2464f02"},"vehicle_type_id":"4","last_reported":1758798543,"current_range_meters":10800,"station_id":"","pricing_plan_id":"cebpf4jnsgd1na2vs0mg"},{"bike_id":"577845b1-4a8b-4565-940e-17df08062102","system_id":"levelo_inurba_marseille","lat":43.30595,"lon":5.39355,"is_reserved":false,"is_disabled":false,"rental_uris":{"android":"levelo://app?vid=577845b1-4a8b-4565-940e-17df08062102","ios":"levelo://app?vid=577845b1-4a8b-4565-940e-17df08062102"},"vehicle_type_id":"4","last_reported":1758798543,"current_range_meters":11200,"station_id":"ce4bh0p2rcd13ifvqd80","pricing_plan_id":"cebpf4jnsgd1na2vs0mg"},{"bike_id":"389f5287-5cb0-4bf8-9416-2ea82a603d51","system_id":"levelo_inurba_marseille","lat":43.24545,"lon":5.39527,"is_reserved":false,"is_disabled":false,"rental_uris":{"android":"levelo://app?vid=389f5287-5cb0-4bf8-9416-2ea82a603d51","ios":"levelo://app?vid=389f5287-5cb0-4bf8-9416-2ea82a603d51"},"vehicle_type_id":"4","last_reported":1758798543,"current_range_meters":11200,"station_id":"ce4bhlp2rcd13ifvqgjg","pricing_plan_id":"cebpf4jnsgd1na2vs0mg"},{"bike_id":"50114ada-df5b-4d19-9d8a-2112dce2ade2","system_id":"levelo_inurba_marseille","lat":43.3013,"lon":5.39853,"is_reserved":false,"is_disabled":false,"rental_uris":{"android":"levelo://app?vid=50114ada-df5b-4d19-9d8a-2112dce2ade2","ios":"levelo://app?vid=50114ada-df5b-4d19-9d8a-2112dce2ade2"},"vehicle_type_id":"4","last_reported":1758798543,"current_range_meters":11200,"station_id":"ce4bh0h2rcd13ifvqd40","pricing_plan_id":"cebpf4jnsgd1na2vs0mg"},{"bike_id":"bbba99c9-2743-4dd4-9a33-a3863caf6316","system_id":"levelo_inurba_marseille","lat":43.27064,"lon":5.40239,"is_reserved":false,"is_disabled":false,"rental_uris":{"android":"levelo://app?vid=bbba99c9-2743-4dd4-9a33-a3863caf6316","ios":"levelo://app?vid=bbba99c9-2743-4dd4-9a33-a3863caf6316"},"vehicle_type_id":"4","last_reported":1758798543,"current_range_meters":11200,"station_id":"ce4bhk92rcd13ifvqgc0","pricing_plan_id":"cebpf4jnsgd1na2vs0mg"},{"bike_id":"002673c7-e49b-40c2-82da-6cf2f4393eb8","system_id":"levelo_inurba_marseille","lat":43.304618,"lon":5.379063,"is_reserved":false,"is_disabled":true,"rental_uris":{"android":"levelo://app?vid=002673c7-e49b-40c2-82da-6cf2f4393eb8","ios":"levelo://app?vid=002673c7-e49b-40c2-82da-6cf2f4393eb8"},"vehicle_type_id":"4","last_reported":1758798543,"current_range_meters":11200,"station_id":"","pricing_plan_id":"cebpf4jnsgd1na2vs0mg"},{"bike_id":"6e01c809-218f-4d4d-a4ac-0112eb240792","system_id":"levelo_inurba_marseille","lat":43.30165,"lon":5.38086,"is_reserved":false,"is_disabled":false,"rental_uris":{"android":"levelo://app?vid=6e01c809-218f-4d4d-a4ac-0112eb240792","ios":"levelo://app?vid=6e01c809-218f-4d4d-a4ac-0112eb240792"},"vehicle_type_id":"4","last_reported":1758798543,"current_range_meters":11200,"station_id":"ce4bgjp2rcd13ifvqbh0","pricing_plan_id":"cebpf4jnsgd1na2vs0mg"},{"bike_id":"379911e0-a8b9-4b05-96ac-c75be54d3c45","system_id":"levelo_inurba_marseille","lat":43.28872,"lon":5.42501,"is_reserved":false,"is_disabled":false,"rental_uris":{"android":"levelo://app?vid=379911e0-a8b9-4b05-96ac-c75be54d3c45","ios":"levelo://app?vid=379911e0-a8b9-4b05-96ac-c75be54d3c45"},"vehicle_type_id":"4","last_reported":1758798543,"current_range_meters":11200,"station_id":"","pricing_plan_id":"cebpf4jnsgd1na2vs0mg"},{"bike_id":"ac96891f-daf7-4a29-9d67-a062e626ba76","system_id":"levelo_inurba_marseille","lat":43.29789,"lon":5.39342,"is_reserved":false,"is_disabled":false,"rental_uris":{"android":"levelo://app?vid=ac96891f-daf7-4a29-9d67-a062e626ba76","ios":"levelo://app?vid=ac96891f-daf7-4a29-9d67-a062e626ba76"},"vehicle_type_id":"4","last_reported":1758798543,"current_range_meters":11200,"station_id":"chh1huq6cuj3fo74tm60","pricing_plan_id":"cebpf4jnsgd1na2vs0mg"},{"bike_id":"b0285be3-d866-45e0-a193-420b5d2c822a","system_id":"levelo_inurba_marseille","lat":43.30317,"lon":5.36873,"is_reserved":false,"is_disabled":false,"rental_uris":{"android":"levelo://app?vid=b0285be3-d866-45e0-a193-420b5d2c822a","ios":"levelo://app?vid=b0285be3-d866-45e0-a193-420b5d2c822a"},"vehicle_type_id":"4","last_reported":1758798543,"current_range_meters":11600,"station_id":"ce4bgqh2rcd13ifvqc5g","pricing_plan_id":"cebpf4jnsgd1na2vs0mg"},{"bike_id":"e3745fa9-250e-4eab-8ffb-4481f169f2b3","system_id":"levelo_inurba_marseille","lat":43.33026,"lon":5.39035,"is_reserved":false,"is_disabled":false,"rental_uris":{"android":"levelo://app?vid=e3745fa9-250e-4eab-8ffb-4481f169f2b3","ios":"levelo://app?vid=e3745fa9-250e-4eab-8ffb-4481f169f2b3"},"vehicle_type_id":"4","last_reported":1758798543,"current_range_meters":11600,"station_id":"ce4bhr92rcd13ifvqhrg","pricing_plan_id":"cebpf4jnsgd1na2vs0mg"},{"bike_id":"8eae954c-dab6-4303-94f5-569e1c483f62","system_id":"levelo_inurba_marseille","lat":43.29451,"lon":5.40759,"is_reserved":false,"is_disabled":false,"rental_uris":{"android":"levelo://app?vid=8eae954c-dab6-4303-94f5-569e1c483f62","ios":"levelo://app?vid=8eae954c-dab6-4303-94f5-569e1c483f62"},"vehicle_type_id":"4","last_reported":1758798543,"current_range_meters":11600,"station_id":"","pricing_plan_id":"cebpf4jnsgd1na2vs0mg"},{"bike_id":"0e9ca394-4351-4bf8-a641-f4e5215baf20","system_id":"levelo_inurba_marseille","lat":43.2826,"lon":5.35109,"is_reserved":false,"is_disabled":false,"rental_uris":{"android":"levelo://app?vid=0e9ca394-4351-4bf8-a641-f4e5215baf20","ios":"levelo://app?vid=0e9ca394-4351-4bf8-a641-f4e5215baf20"},"vehicle_type_id":"4","last_reported":1758798543,"current_range_meters":11600,"station_id":"ce4bhbp2rcd13ifvqerg","pricing_plan_id":"cebpf4jnsgd1na2vs0mg"},{"bike_id":"8584eb3e-f7b4-4300-97fe-005a37d8d75b","system_id":"levelo_inurba_marseille","lat":43.36887,"lon":5.36298,"is_reserved":false,"is_disabled":false,"rental_uris":{"android":"levelo://app?vid=8584eb3e-f7b4-4300-97fe-005a37d8d75b","ios":"levelo://app?vid=8584eb3e-f7b4-4300-97fe-005a37d8d75b"},"vehicle_type_id":"4","last_reported":1758798543,"current_range_meters":11600,"station_id":"","pricing_plan_id":"cebpf4jnsgd1na2vs0mg"},{"bike_id":"34674e84-8c28-42f2-b2b9-e63abc4c0448","system_id":"levelo_inurba_marseille","lat":43.22392,"lon":5.34661,"is_reserved":false,"is_disabled":false,"rental_uris":{"android":"levelo://app?vid=34674e84-8c28-42f2-b2b9-e63abc4c0448","ios":"levelo://app?vid=34674e84-8c28-42f2-b2b9-e63abc4c0448"},"vehicle_type_id":"4","last_reported":1758798543,"current_range_meters":12000,"station_id":"","pricing_plan_id":"cebpf4jnsgd1na2vs0mg"},{"bike_id":"1962763a-068c-43af-80ca-b2d480514eda","system_id":"levelo_inurba_marseille","lat":43.249648,"lon":5.404727,"is_reserved":false,"is_disabled":false,"rental_uris":{"android":"levelo://app?vid=1962763a-068c-43af-80ca-b2d480514eda","ios":"levelo://app?vid=1962763a-068c-43af-80ca-b2d480514eda"},"vehicle_type_id":"4","last_reported":1758798543,"current_range_meters":12000,"station_id":"","pricing_plan_id":"cebpf4jnsgd1na2vs0mg"},{"bike_id":"c34cd464-5d4b-462e-a363-5b3baac95668","system_id":"levelo_inurba_marseille","lat":43.33792,"lon":5.374664,"is_reserved":false,"is_disabled":false,"rental_uris":{"android":"levelo://app?vid=c34cd464-5d4b-462e-a363-5b3baac95668","ios":"levelo://app?vid=c34cd464-5d4b-462e-a363-5b3baac95668"},"vehicle_type_id":"4","last_reported":1758798543,"current_range_meters":12000,"station_id":"","pricing_plan_id":"cebpf4jnsgd1na2vs0mg"},{"bike_id":"3b31d633-b5d5-4cb8-bc19-6e3745360861","system_id":"levelo_inurba_marseille","lat":43.31237,"lon":5.36851,"is_reserved":false,"is_disabled":false,"rental_uris":{"android":"levelo://app?vid=3b31d633-b5d5-4cb8-bc19-6e3745360861","ios":"levelo://app?vid=3b31d633-b5d5-4cb8-bc19-6e3745360861"},"vehicle_type_id":"4","last_reported":1758798543,"current_range_meters":12000,"station_id":"ce4bgl92rcd13ifvqbq0","pricing_plan_id":"cebpf4jnsgd1na2vs0mg"},{"bike_id":"e4bbd292-d5c5-4977-a65f-fe2794f65c6b","system_id":"levelo_inurba_marseille","lat":43.29904,"lon":5.37471,"is_reserved":false,"is_disabled":false,"rental_uris":{"android":"levelo://app?vid=e4bbd292-d5c5-4977-a65f-fe2794f65c6b","ios":"levelo://app?vid=e4bbd292-d5c5-4977-a65f-fe2794f65c6b"},"vehicle_type_id":"4","last_reported":1758798543,"current_range_meters":12000,"station_id":"ce4bgjh2rcd13ifvqbg0","pricing_plan_id":"cebpf4jnsgd1na2vs0mg"},{"bike_id":"d8fbd614-0063-4328-abf5-b0b8841cca49","system_id":"levelo_inurba_marseille","lat":43.28702,"lon":5.37392,"is_reserved":false,"is_disabled":false,"rental_uris":{"android":"levelo://app?vid=d8fbd614-0063-4328-abf5-b0b8841cca49","ios":"levelo://app?vid=d8fbd614-0063-4328-abf5-b0b8841cca49"},"vehicle_type_id":"4","last_reported":1758798543,"current_range_meters":12000,"station_id":"ce4bh3p2rcd13ifvqdq0","pricing_plan_id":"cebpf4jnsgd1na2vs0mg"},{"bike_id":"d5632eaf-207f-4351-be9c-95c58bc9c538","system_id":"levelo_inurba_marseille","lat":43.29554,"lon":5.37477,"is_reserved":false,"is_disabled":true,"rental_uris":{"android":"levelo://app?vid=d5632eaf-207f-4351-be9c-95c58bc9c538","ios":"levelo://app?vid=d5632eaf-207f-4351-be9c-95c58bc9c538"},"vehicle_type_id":"4","last_reported":1758798543,"current_range_meters":12400,"station_id":"ce4bgkp2rcd13ifvqbmg","pricing_plan_id":"cebpf4jnsgd1na2vs0mg"},{"bike_id":"825deff0-a906-481c-ac87-686bfee56f0d","system_id":"levelo_inurba_marseille","lat":43.291705,"lon":5.371517,"is_reserved":false,"is_disabled":false,"rental_uris":{"android":"levelo://app?vid=825deff0-a906-481c-ac87-686bfee56f0d","ios":"levelo://app?vid=825deff0-a906-481c-ac87-686bfee56f0d"},"vehicle_type_id":"4","last_reported":1758798543,"current_range_meters":12400,"station_id":"ce4bha92rcd13ifvqeh0","pricing_plan_id":"cebpf4jnsgd1na2vs0mg"},{"bike_id":"bdec3261-de13-477f-818b-7af8ae1d1f6a","system_id":"levelo_inurba_marseille","lat":43.23964,"lon":5.37675,"is_reserved":false,"is_disabled":false,"rental_uris":{"android":"levelo://app?vid=bdec3261-de13-477f-818b-7af8ae1d1f6a","ios":"levelo://app?vid=bdec3261-de13-477f-818b-7af8ae1d1f6a"},"vehicle_type_id":"4","last_reported":1758798543,"current_range_meters":12400,"station_id":"","pricing_plan_id":"cebpf4jnsgd1na2vs0mg"},{"bike_id":"e836e83a-4cb1-46d6-916d-fa117e09b3f8","system_id":"levelo_inurba_marseille","lat":43.29286,"lon":5.40118,"is_reserved":false,"is_disabled":false,"rental_uris":{"android":"levelo://app?vid=e836e83a-4cb1-46d6-916d-fa117e09b3f8","ios":"levelo://app?vid=e836e83a-4cb1-46d6-916d-fa117e09b3f8"},"vehicle_type_id":"4","last_reported":1758798543,"current_range_meters":12000,"station_id":"ce4bh312rcd13ifvqdk0","pricing_plan_id":"cebpf4jnsgd1na2vs0mg"},{"bike_id":"c0e4c8ad-9df3-4c57-91e9-2371d813c89e","system_id":"levelo_inurba_marseille","lat":43.2973,"lon":5.37691,"is_reserved":false,"is_disabled":false,"rental_uris":{"android":"levelo://app?vid=c0e4c8ad-9df3-4c57-91e9-2371d813c89e","ios":"levelo://app?vid=c0e4c8ad-9df3-4c57-91e9-2371d813c89e"},"vehicle_type_id":"4","last_reported":1758798543,"current_range_meters":12400,"station_id":"ce4bgkh2rcd13ifvqbl0","pricing_plan_id":"cebpf4jnsgd1na2vs0mg"},{"bike_id":"a6ad0c6c-868d-42f3-ba54-573e1a175a36","system_id":"levelo_inurba_marseille","lat":43.2627,"lon":5.41291,"is_reserved":false,"is_disabled":false,"rental_uris":{"android":"levelo://app?vid=a6ad0c6c-868d-42f3-ba54-573e1a175a36","ios":"levelo://app?vid=a6ad0c6c-868d-42f3-ba54-573e1a175a36"},"vehicle_type_id":"4","last_reported":1758798543,"current_range_meters":12400,"station_id":"","pricing_plan_id":"cebpf4jnsgd1na2vs0mg"},{"bike_id":"a7f90678-07c2-4f03-8a02-e1b4554e0a14","system_id":"levelo_inurba_marseille","lat":43.31248,"lon":5.3686,"is_reserved":false,"is_disabled":false,"rental_uris":{"android":"levelo://app?vid=a7f90678-07c2-4f03-8a02-e1b4554e0a14","ios":"levelo://app?vid=a7f90678-07c2-4f03-8a02-e1b4554e0a14"},"vehicle_type_id":"4","last_reported":1758798543,"current_range_meters":12400,"station_id":"ce4bgl92rcd13ifvqbq0","pricing_plan_id":"cebpf4jnsgd1na2vs0mg"},{"bike_id":"01d0fa46-64ea-4110-93a6-5157490c764c","system_id":"levelo_inurba_marseille","lat":43.30417,"lon":5.41279,"is_reserved":false,"is_disabled":false,"rental_uris":{"android":"levelo://app?vid=01d0fa46-64ea-4110-93a6-5157490c764c","ios":"levelo://app?vid=01d0fa46-64ea-4110-93a6-5157490c764c"},"vehicle_type_id":"4","last_reported":1758798543,"current_range_meters":12800,"station_id":"ce4bhop2rcd13ifvqh8g","pricing_plan_id":"cebpf4jnsgd1na2vs0mg"},{"bike_id":"003515e8-8117-44bb-979d-5f47e8d50fda","system_id":"levelo_inurba_marseille","lat":43.30649,"lon":5.37586,"is_reserved":false,"is_disabled":false,"rental_uris":{"android":"levelo://app?vid=003515e8-8117-44bb-979d-5f47e8d50fda","ios":"levelo://app?vid=003515e8-8117-44bb-979d-5f47e8d50fda"},"vehicle_type_id":"4","last_reported":1758798543,"current_range_meters":12800,"station_id":"","pricing_plan_id":"cebpf4jnsgd1na2vs0mg"},{"bike_id":"0c16ac8a-a536-4d89-a0b4-2803631fd83e","system_id":"levelo_inurba_marseille","lat":43.25007,"lon":5.38922,"is_reserved":false,"is_disabled":false,"rental_uris":{"android":"levelo://app?vid=0c16ac8a-a536-4d89-a0b4-2803631fd83e","ios":"levelo://app?vid=0c16ac8a-a536-4d89-a0b4-2803631fd83e"},"vehicle_type_id":"4","last_reported":1758798543,"current_range_meters":12800,"station_id":"ce4bhgp2rcd13ifvqfd0","pricing_plan_id":"cebpf4jnsgd1na2vs0mg"},{"bike_id":"9fd15e46-d713-423e-ab94-b5de949787aa","system_id":"levelo_inurba_marseille","lat":43.26555,"lon":5.37285,"is_reserved":false,"is_disabled":false,"rental_uris":{"android":"levelo://app?vid=9fd15e46-d713-423e-ab94-b5de949787aa","ios":"levelo://app?vid=9fd15e46-d713-423e-ab94-b5de949787aa"},"vehicle_type_id":"4","last_reported":1758798543,"current_range_meters":12800,"station_id":"ce4bhg12rcd13ifvqf70","pricing_plan_id":"cebpf4jnsgd1na2vs0mg"},{"bike_id":"46923300-e0d3-40c1-8c76-7dadc761100f","system_id":"levelo_inurba_marseille","lat":43.29006,"lon":5.35615,"is_reserved":false,"is_disabled":false,"rental_uris":{"android":"levelo://app?vid=46923300-e0d3-40c1-8c76-7dadc761100f","ios":"levelo://app?vid=46923300-e0d3-40c1-8c76-7dadc761100f"},"vehicle_type_id":"4","last_reported":1758798543,"current_range_meters":12800,"station_id":"ce4bhb92rcd13ifvqen0","pricing_plan_id":"cebpf4jnsgd1na2vs0mg"},{"bike_id":"d1035cda-0828-4480-ab90-b06087f3ef72","system_id":"levelo_inurba_marseille","lat":43.25574,"lon":5.38249,"is_reserved":false,"is_disabled":false,"rental_uris":{"android":"levelo://app?vid=d1035cda-0828-4480-ab90-b06087f3ef72","ios":"levelo://app?vid=d1035cda-0828-4480-ab90-b06087f3ef72"},"vehicle_type_id":"4","last_reported":1758798543,"current_range_meters":12800,"station_id":"ce4bhih2rcd13ifvqfs0","pricing_plan_id":"cebpf4jnsgd1na2vs0mg"},{"bike_id":"f9af076b-c426-46f0-97f6-f6a5a530c8e2","system_id":"levelo_inurba_marseille","lat":43.33232,"lon":5.39847,"is_reserved":false,"is_disabled":false,"rental_uris":{"android":"levelo://app?vid=f9af076b-c426-46f0-97f6-f6a5a530c8e2","ios":"levelo://app?vid=f9af076b-c426-46f0-97f6-f6a5a530c8e2"},"vehicle_type_id":"4","last_reported":1758798543,"current_range_meters":12800,"station_id":"","pricing_plan_id":"cebpf4jnsgd1na2vs0mg"},{"bike_id":"f0c5386a-9938-4d6a-81e8-14ec0c5e2580","system_id":"levelo_inurba_marseille","lat":43.31662,"lon":5.37894,"is_reserved":false,"is_disabled":false,"rental_uris":{"android":"levelo://app?vid=f0c5386a-9938-4d6a-81e8-14ec0c5e2580","ios":"levelo://app?vid=f0c5386a-9938-4d6a-81e8-14ec0c5e2580"},"vehicle_type_id":"4","last_reported":1758798543,"current_range_meters":12800,"station_id":"","pricing_plan_id":"cebpf4jnsgd1na2vs0mg"},{"bike_id":"61343268-11fe-4faa-a2cf-efa6c04bb12f","system_id":"levelo_inurba_marseille","lat":43.30593,"lon":5.3936,"is_reserved":false,"is_disabled":false,"rental_uris":{"android":"levelo://app?vid=61343268-11fe-4faa-a2cf-efa6c04bb12f","ios":"levelo://app?vid=61343268-11fe-4faa-a2cf-efa6c04bb12f"},"vehicle_type_id":"4","last_reported":1758798543,"current_range_meters":13600,"station_id":"ce4bh0p2rcd13ifvqd80","pricing_plan_id":"cebpf4jnsgd1na2vs0mg"},{"bike_id":"2bd2a176-8590-4e06-8b8c-a96b49b7b36a","system_id":"levelo_inurba_marseille","lat":43.262237,"lon":5.404538,"is_reserved":false,"is_disabled":false,"rental_uris":{"android":"levelo://app?vid=2bd2a176-8590-4e06-8b8c-a96b49b7b36a","ios":"levelo://app?vid=2bd2a176-8590-4e06-8b8c-a96b49b7b36a"},"vehicle_type_id":"4","last_reported":1758798543,"current_range_meters":13600,"station_id":"","pricing_plan_id":"cebpf4jnsgd1na2vs0mg"},{"bike_id":"212de2eb-8bbc-413c-b204-9fe1facd76e8","system_id":"levelo_inurba_marseille","lat":43.31274,"lon":5.37825,"is_reserved":false,"is_disabled":false,"rental_uris":{"android":"levelo://app?vid=212de2eb-8bbc-413c-b204-9fe1facd76e8","ios":"levelo://app?vid=212de2eb-8bbc-413c-b204-9fe1facd76e8"},"vehicle_type_id":"4","last_reported":1758798543,"current_range_meters":13600,"station_id":"","pricing_plan_id":"cebpf4jnsgd1na2vs0mg"},{"bike_id":"15e81773-13c2-4026-9a7b-90dea0c2e4d0","system_id":"levelo_inurba_marseille","lat":43.31235,"lon":5.36852,"is_reserved":false,"is_disabled":false,"rental_uris":{"android":"levelo://app?vid=15e81773-13c2-4026-9a7b-90dea0c2e4d0","ios":"levelo://app?vid=15e81773-13c2-4026-9a7b-90dea0c2e4d0"},"vehicle_type_id":"4","last_reported":1758798543,"current_range_meters":13600,"station_id":"ce4bgl92rcd13ifvqbq0","pricing_plan_id":"cebpf4jnsgd1na2vs0mg"},{"bike_id":"0a84fe53-fe2f-4012-a0d5-1b9b7f1b7ae0","system_id":"levelo_inurba_marseille","lat":43.27373,"lon":5.36259,"is_reserved":false,"is_disabled":false,"rental_uris":{"android":"levelo://app?vid=0a84fe53-fe2f-4012-a0d5-1b9b7f1b7ae0","ios":"levelo://app?vid=0a84fe53-fe2f-4012-a0d5-1b9b7f1b7ae0"},"vehicle_type_id":"4","last_reported":1758798543,"current_range_meters":14000,"station_id":"ce4bhbh2rcd13ifvqeo0","pricing_plan_id":"cebpf4jnsgd1na2vs0mg"},{"bike_id":"17b6e890-308f-4e08-9acd-7090f69670ec","system_id":"levelo_inurba_marseille","lat":43.3125,"lon":5.36896,"is_reserved":false,"is_disabled":false,"rental_uris":{"android":"levelo://app?vid=17b6e890-308f-4e08-9acd-7090f69670ec","ios":"levelo://app?vid=17b6e890-308f-4e08-9acd-7090f69670ec"},"vehicle_type_id":"4","last_reported":1758798543,"current_range_meters":14000,"station_id":"ce4bgl92rcd13ifvqbq0","pricing_plan_id":"cebpf4jnsgd1na2vs0mg"},{"bike_id":"48d3d2bf-74e3-4a28-9664-4f4f4b18531a","system_id":"levelo_inurba_marseille","lat":43.23192,"lon":5.35551,"is_reserved":false,"is_disabled":false,"rental_uris":{"android":"levelo://app?vid=48d3d2bf-74e3-4a28-9664-4f4f4b18531a","ios":"levelo://app?vid=48d3d2bf-74e3-4a28-9664-4f4f4b18531a"},"vehicle_type_id":"4","last_reported":1758798543,"current_range_meters":14000,"station_id":"ce4bhu92rcd13ifvqi70","pricing_plan_id":"cebpf4jnsgd1na2vs0mg"},{"bike_id":"579ea82b-fbed-4733-b912-9cfe03a15ccd","system_id":"levelo_inurba_marseille","lat":43.30151,"lon":5.39865,"is_reserved":false,"is_disabled":false,"rental_uris":{"android":"levelo://app?vid=579ea82b-fbed-4733-b912-9cfe03a15ccd","ios":"levelo://app?vid=579ea82b-fbed-4733-b912-9cfe03a15ccd"},"vehicle_type_id":"4","last_reported":1758798543,"current_range_meters":14000,"station_id":"ce4bh0h2rcd13ifvqd40","pricing_plan_id":"cebpf4jnsgd1na2vs0mg"},{"bike_id":"9879e35b-e5c8-4f18-a269-c14023d1431e","system_id":"levelo_inurba_marseille","lat":43.2917,"lon":5.37154,"is_reserved":false,"is_disabled":false,"rental_uris":{"android":"levelo://app?vid=9879e35b-e5c8-4f18-a269-c14023d1431e","ios":"levelo://app?vid=9879e35b-e5c8-4f18-a269-c14023d1431e"},"vehicle_type_id":"4","last_reported":1758798543,"current_range_meters":14000,"station_id":"ce4bha92rcd13ifvqeh0","pricing_plan_id":"cebpf4jnsgd1na2vs0mg"},{"bike_id":"87e35d32-0ec4-4cda-949d-9256b87baba1","system_id":"levelo_inurba_marseille","lat":43.337444,"lon":5.374475,"is_reserved":false,"is_disabled":false,"rental_uris":{"android":"levelo://app?vid=87e35d32-0ec4-4cda-949d-9256b87baba1","ios":"levelo://app?vid=87e35d32-0ec4-4cda-949d-9256b87baba1"},"vehicle_type_id":"4","last_reported":1758798543,"current_range_meters":14000,"station_id":"","pricing_plan_id":"cebpf4jnsgd1na2vs0mg"},{"bike_id":"4a264db1-9e75-4408-9445-f4a821bfc1c5","system_id":"levelo_inurba_marseille","lat":43.307912,"lon":5.376518,"is_reserved":false,"is_disabled":false,"rental_uris":{"android":"levelo://app?vid=4a264db1-9e75-4408-9445-f4a821bfc1c5","ios":"levelo://app?vid=4a264db1-9e75-4408-9445-f4a821bfc1c5"},"vehicle_type_id":"4","last_reported":1758798543,"current_range_meters":14400,"station_id":"ce4bgv92rcd13ifvqcq0","pricing_plan_id":"cebpf4jnsgd1na2vs0mg"},{"bike_id":"4dac9ff3-101f-4d1f-86d9-d76634819933","system_id":"levelo_inurba_marseille","lat":43.29194,"lon":5.35807,"is_reserved":false,"is_disabled":false,"rental_uris":{"android":"levelo://app?vid=4dac9ff3-101f-4d1f-86d9-d76634819933","ios":"levelo://app?vid=4dac9ff3-101f-4d1f-86d9-d76634819933"},"vehicle_type_id":"4","last_reported":1758798543,"current_range_meters":14400,"station_id":"ce4bhb12rcd13ifvqel0","pricing_plan_id":"cebpf4jnsgd1na2vs0mg"},{"bike_id":"1b20e7b2-029e-485f-b298-949b9e96bacd","system_id":"levelo_inurba_marseille","lat":43.3361,"lon":5.41025,"is_reserved":false,"is_disabled":false,"rental_uris":{"android":"levelo://app?vid=1b20e7b2-029e-485f-b298-949b9e96bacd","ios":"levelo://app?vid=1b20e7b2-029e-485f-b298-949b9e96bacd"},"vehicle_type_id":"4","last_reported":1758798543,"current_range_meters":14400,"station_id":"ce4bhqh2rcd13ifvqhmg","pricing_plan_id":"cebpf4jnsgd1na2vs0mg"},{"bike_id":"96c55bcf-90b7-4618-9025-978539f925b5","system_id":"levelo_inurba_marseille","lat":43.32368,"lon":5.36771,"is_reserved":false,"is_disabled":false,"rental_uris":{"android":"levelo://app?vid=96c55bcf-90b7-4618-9025-978539f925b5","ios":"levelo://app?vid=96c55bcf-90b7-4618-9025-978539f925b5"},"vehicle_type_id":"4","last_reported":1758798543,"current_range_meters":14400,"station_id":"ce4bhsh2rcd13ifvqi2g","pricing_plan_id":"cebpf4jnsgd1na2vs0mg"},{"bike_id":"03c12457-0866-4283-a32c-3c94a04d7d47","system_id":"levelo_inurba_marseille","lat":43.264737,"lon":5.373177,"is_reserved":false,"is_disabled":false,"rental_uris":{"android":"levelo://app?vid=03c12457-0866-4283-a32c-3c94a04d7d47","ios":"levelo://app?vid=03c12457-0866-4283-a32c-3c94a04d7d47"},"vehicle_type_id":"4","last_reported":1758798543,"current_range_meters":14400,"station_id":"ce4bhg12rcd13ifvqf70","pricing_plan_id":"cebpf4jnsgd1na2vs0mg"},{"bike_id":"af60c407-5d0d-4124-90bc-f5c672eb5129","system_id":"levelo_inurba_marseille","lat":43.31724,"lon":5.40454,"is_reserved":false,"is_disabled":false,"rental_uris":{"android":"levelo://app?vid=af60c407-5d0d-4124-90bc-f5c672eb5129","ios":"levelo://app?vid=af60c407-5d0d-4124-90bc-f5c672eb5129"},"vehicle_type_id":"4","last_reported":1758798543,"current_range_meters":14800,"station_id":"ce4bh012rcd13ifvqd00","pricing_plan_id":"cebpf4jnsgd1na2vs0mg"},{"bike_id":"f897d300-643c-4c7a-951b-f56d70ef23ca","system_id":"levelo_inurba_marseille","lat":43.30343,"lon":5.39072,"is_reserved":false,"is_disabled":false,"rental_uris":{"android":"levelo://app?vid=f897d300-643c-4c7a-951b-f56d70ef23ca","ios":"levelo://app?vid=f897d300-643c-4c7a-951b-f56d70ef23ca"},"vehicle_type_id":"4","last_reported":1758798543,"current_range_meters":14800,"station_id":"","pricing_plan_id":"cebpf4jnsgd1na2vs0mg"},{"bike_id":"7c7f647d-cf12-48f4-bc47-a35d8b9c9d9a","system_id":"levelo_inurba_marseille","lat":43.32543,"lon":5.41421,"is_reserved":false,"is_disabled":false,"rental_uris":{"android":"levelo://app?vid=7c7f647d-cf12-48f4-bc47-a35d8b9c9d9a","ios":"levelo://app?vid=7c7f647d-cf12-48f4-bc47-a35d8b9c9d9a"},"vehicle_type_id":"4","last_reported":1758798543,"current_range_meters":14400,"station_id":"ce4bhq12rcd13ifvqhhg","pricing_plan_id":"cebpf4jnsgd1na2vs0mg"},{"bike_id":"725b1ff1-3894-44f1-a38e-91bc39cbab7e","system_id":"levelo_inurba_marseille","lat":43.24636,"lon":5.43143,"is_reserved":false,"is_disabled":false,"rental_uris":{"android":"levelo://app?vid=725b1ff1-3894-44f1-a38e-91bc39cbab7e","ios":"levelo://app?vid=725b1ff1-3894-44f1-a38e-91bc39cbab7e"},"vehicle_type_id":"4","last_reported":1758798543,"current_range_meters":14800,"station_id":"st_d2m6c4gdas8pm72e190g","pricing_plan_id":"cebpf4jnsgd1na2vs0mg"},{"bike_id":"595573fc-e79a-41eb-8127-3c8f7b96d8f1","system_id":"levelo_inurba_marseille","lat":43.26567,"lon":5.37292,"is_reserved":false,"is_disabled":false,"rental_uris":{"android":"levelo://app?vid=595573fc-e79a-41eb-8127-3c8f7b96d8f1","ios":"levelo://app?vid=595573fc-e79a-41eb-8127-3c8f7b96d8f1"},"vehicle_type_id":"4","last_reported":1758798543,"current_range_meters":14800,"station_id":"ce4bhg12rcd13ifvqf70","pricing_plan_id":"cebpf4jnsgd1na2vs0mg"},{"bike_id":"d31d856a-933d-49cf-948f-ce03657dfc74","system_id":"levelo_inurba_marseille","lat":43.28409,"lon":5.35004,"is_reserved":false,"is_disabled":false,"rental_uris":{"android":"levelo://app?vid=d31d856a-933d-49cf-948f-ce03657dfc74","ios":"levelo://app?vid=d31d856a-933d-49cf-948f-ce03657dfc74"},"vehicle_type_id":"4","last_reported":1758798543,"current_range_meters":14800,"station_id":"ce4bhbh2rcd13ifvqepg","pricing_plan_id":"cebpf4jnsgd1na2vs0mg"},{"bike_id":"c7f6a08b-c655-4213-b2ba-7d02e7f382fe","system_id":"levelo_inurba_marseille","lat":43.27988,"lon":5.39483,"is_reserved":false,"is_disabled":false,"rental_uris":{"android":"levelo://app?vid=c7f6a08b-c655-4213-b2ba-7d02e7f382fe","ios":"levelo://app?vid=c7f6a08b-c655-4213-b2ba-7d02e7f382fe"},"vehicle_type_id":"4","last_reported":1758798543,"current_range_meters":14800,"station_id":"","pricing_plan_id":"cebpf4jnsgd1na2vs0mg"},{"bike_id":"fd4b0929-5dae-4f92-bfeb-801c6778a0f5","system_id":"levelo_inurba_marseille","lat":43.26559,"lon":5.37286,"is_reserved":false,"is_disabled":false,"rental_uris":{"android":"levelo://app?vid=fd4b0929-5dae-4f92-bfeb-801c6778a0f5","ios":"levelo://app?vid=fd4b0929-5dae-4f92-bfeb-801c6778a0f5"},"vehicle_type_id":"4","last_reported":1758798543,"current_range_meters":14800,"station_id":"ce4bhg12rcd13ifvqf70","pricing_plan_id":"cebpf4jnsgd1na2vs0mg"},{"bike_id":"e5303607-da03-4ac7-b81e-b332ede84cf7","system_id":"levelo_inurba_marseille","lat":43.313048,"lon":5.378214,"is_reserved":false,"is_disabled":false,"rental_uris":{"android":"levelo://app?vid=e5303607-da03-4ac7-b81e-b332ede84cf7","ios":"levelo://app?vid=e5303607-da03-4ac7-b81e-b332ede84cf7"},"vehicle_type_id":"4","last_reported":1758798543,"current_range_meters":14800,"station_id":"","pricing_plan_id":"cebpf4jnsgd1na2vs0mg"},{"bike_id":"3731e4b4-e57b-4ad8-affe-801decac42ca","system_id":"levelo_inurba_marseille","lat":43.24958,"lon":5.40495,"is_reserved":false,"is_disabled":false,"rental_uris":{"android":"levelo://app?vid=3731e4b4-e57b-4ad8-affe-801decac42ca","ios":"levelo://app?vid=3731e4b4-e57b-4ad8-affe-801decac42ca"},"vehicle_type_id":"4","last_reported":1758798543,"current_range_meters":15200,"station_id":"st_d2ngiaodas8pm72gd1h0","pricing_plan_id":"cebpf4jnsgd1na2vs0mg"},{"bike_id":"7d9bc6c2-b7a2-4f6c-aea0-0d0c542b7009","system_id":"levelo_inurba_marseille","lat":43.2418,"lon":5.39726,"is_reserved":false,"is_disabled":false,"rental_uris":{"android":"levelo://app?vid=7d9bc6c2-b7a2-4f6c-aea0-0d0c542b7009","ios":"levelo://app?vid=7d9bc6c2-b7a2-4f6c-aea0-0d0c542b7009"},"vehicle_type_id":"4","last_reported":1758798543,"current_range_meters":15200,"station_id":"ce4bhn12rcd13ifvqgpg","pricing_plan_id":"cebpf4jnsgd1na2vs0mg"},{"bike_id":"3e795a56-fcd5-414a-824d-13838a97cb44","system_id":"levelo_inurba_marseille","lat":43.24169,"lon":5.36388,"is_reserved":false,"is_disabled":false,"rental_uris":{"android":"levelo://app?vid=3e795a56-fcd5-414a-824d-13838a97cb44","ios":"levelo://app?vid=3e795a56-fcd5-414a-824d-13838a97cb44"},"vehicle_type_id":"4","last_reported":1758798543,"current_range_meters":16000,"station_id":"cpo36qri1sfpv3e86is0","pricing_plan_id":"cebpf4jnsgd1na2vs0mg"},{"bike_id":"d734f0f7-bb82-4cbc-9571-824c32d91d22","system_id":"levelo_inurba_marseille","lat":43.2417,"lon":5.36399,"is_reserved":false,"is_disabled":false,"rental_uris":{"android":"levelo://app?vid=d734f0f7-bb82-4cbc-9571-824c32d91d22","ios":"levelo://app?vid=d734f0f7-bb82-4cbc-9571-824c32d91d22"},"vehicle_type_id":"4","last_reported":1758798543,"current_range_meters":16000,"station_id":"cpo36qri1sfpv3e86is0","pricing_plan_id":"cebpf4jnsgd1na2vs0mg"},{"bike_id":"041cd397-24ab-4e04-af23-07b961e161f4","system_id":"levelo_inurba_marseille","lat":43.337444,"lon":5.374475,"is_reserved":false,"is_disabled":false,"rental_uris":{"android":"levelo://app?vid=041cd397-24ab-4e04-af23-07b961e161f4","ios":"levelo://app?vid=041cd397-24ab-4e04-af23-07b961e161f4"},"vehicle_type_id":"4","last_reported":1758798543,"current_range_meters":16000,"station_id":"","pricing_plan_id":"cebpf4jnsgd1na2vs0mg"},{"bike_id":"fcaecd28-9c45-495b-b16e-ab6e92337613","system_id":"levelo_inurba_marseille","lat":43.28622,"lon":5.35108,"is_reserved":false,"is_disabled":false,"rental_uris":{"android":"levelo://app?vid=fcaecd28-9c45-495b-b16e-ab6e92337613","ios":"levelo://app?vid=fcaecd28-9c45-495b-b16e-ab6e92337613"},"vehicle_type_id":"4","last_reported":1758798543,"current_range_meters":16000,"station_id":"ce4bhch2rcd13ifvqeug","pricing_plan_id":"cebpf4jnsgd1na2vs0mg"},{"bike_id":"d17f8b77-ecb6-436f-8afd-f17e730fd990","system_id":"levelo_inurba_marseille","lat":43.240715,"lon":5.377604,"is_reserved":false,"is_disabled":false,"rental_uris":{"android":"levelo://app?vid=d17f8b77-ecb6-436f-8afd-f17e730fd990","ios":"levelo://app?vid=d17f8b77-ecb6-436f-8afd-f17e730fd990"},"vehicle_type_id":"4","last_reported":1758798543,"current_range_meters":16000,"station_id":"ce4bhnp2rcd13ifvqgvg","pricing_plan_id":"cebpf4jnsgd1na2vs0mg"},{"bike_id":"4c7bc065-b7c8-4d30-8068-fafd04dbbe1a","system_id":"levelo_inurba_marseille","lat":43.3123,"lon":5.36857,"is_reserved":false,"is_disabled":false,"rental_uris":{"android":"levelo://app?vid=4c7bc065-b7c8-4d30-8068-fafd04dbbe1a","ios":"levelo://app?vid=4c7bc065-b7c8-4d30-8068-fafd04dbbe1a"},"vehicle_type_id":"4","last_reported":1758798543,"current_range_meters":16000,"station_id":"ce4bgl92rcd13ifvqbq0","pricing_plan_id":"cebpf4jnsgd1na2vs0mg"},{"bike_id":"40e16bca-77bb-4a6d-a21d-755249f56815","system_id":"levelo_inurba_marseille","lat":43.21201,"lon":5.35064,"is_reserved":false,"is_disabled":false,"rental_uris":{"android":"levelo://app?vid=40e16bca-77bb-4a6d-a21d-755249f56815","ios":"levelo://app?vid=40e16bca-77bb-4a6d-a21d-755249f56815"},"vehicle_type_id":"4","last_reported":1758798543,"current_range_meters":16400,"station_id":"ce4bhgp2rcd13ifvqfc0","pricing_plan_id":"cebpf4jnsgd1na2vs0mg"},{"bike_id":"7e70bd63-9275-4428-839a-79e0d9276580","system_id":"levelo_inurba_marseille","lat":43.30887,"lon":5.37193,"is_reserved":false,"is_disabled":false,"rental_uris":{"android":"levelo://app?vid=7e70bd63-9275-4428-839a-79e0d9276580","ios":"levelo://app?vid=7e70bd63-9275-4428-839a-79e0d9276580"},"vehicle_type_id":"4","last_reported":1758798543,"current_range_meters":16400,"station_id":"ce4bguh2rcd13ifvqckg","pricing_plan_id":"cebpf4jnsgd1na2vs0mg"},{"bike_id":"ea01a58e-1081-4f0d-9bb9-ce2a5c48144d","system_id":"levelo_inurba_marseille","lat":43.29574,"lon":5.37513,"is_reserved":false,"is_disabled":false,"rental_uris":{"android":"levelo://app?vid=ea01a58e-1081-4f0d-9bb9-ce2a5c48144d","ios":"levelo://app?vid=ea01a58e-1081-4f0d-9bb9-ce2a5c48144d"},"vehicle_type_id":"4","last_reported":1758798543,"current_range_meters":16400,"station_id":"ce4bgh92rcd13ifvqb50","pricing_plan_id":"cebpf4jnsgd1na2vs0mg"},{"bike_id":"30ebfd57-92a8-47b0-bfcc-5ebdaf67ffae","system_id":"levelo_inurba_marseille","lat":43.231492,"lon":5.437193,"is_reserved":false,"is_disabled":false,"rental_uris":{"android":"levelo://app?vid=30ebfd57-92a8-47b0-bfcc-5ebdaf67ffae","ios":"levelo://app?vid=30ebfd57-92a8-47b0-bfcc-5ebdaf67ffae"},"vehicle_type_id":"4","last_reported":1758798543,"current_range_meters":16400,"station_id":"ce4bhmp2rcd13ifvqgog","pricing_plan_id":"cebpf4jnsgd1na2vs0mg"},{"bike_id":"8e4d93ed-d24c-438d-94c2-4e040142fb9b","system_id":"levelo_inurba_marseille","lat":43.24069,"lon":5.37755,"is_reserved":false,"is_disabled":false,"rental_uris":{"android":"levelo://app?vid=8e4d93ed-d24c-438d-94c2-4e040142fb9b","ios":"levelo://app?vid=8e4d93ed-d24c-438d-94c2-4e040142fb9b"},"vehicle_type_id":"4","last_reported":1758798543,"current_range_meters":16800,"station_id":"ce4bhnp2rcd13ifvqgvg","pricing_plan_id":"cebpf4jnsgd1na2vs0mg"},{"bike_id":"22af37c4-6e40-4cc6-8f5d-cd9a19c804e4","system_id":"levelo_inurba_marseille","lat":43.28372,"lon":5.38634,"is_reserved":false,"is_disabled":false,"rental_uris":{"android":"levelo://app?vid=22af37c4-6e40-4cc6-8f5d-cd9a19c804e4","ios":"levelo://app?vid=22af37c4-6e40-4cc6-8f5d-cd9a19c804e4"},"vehicle_type_id":"4","last_reported":1758798543,"current_range_meters":16400,"station_id":"ce4bh492rcd13ifvqdvg","pricing_plan_id":"cebpf4jnsgd1na2vs0mg"},{"bike_id":"a10f7ed7-4d21-45d1-b57d-01405ef498fe","system_id":"levelo_inurba_marseille","lat":43.312245,"lon":5.368536,"is_reserved":false,"is_disabled":false,"rental_uris":{"android":"levelo://app?vid=a10f7ed7-4d21-45d1-b57d-01405ef498fe","ios":"levelo://app?vid=a10f7ed7-4d21-45d1-b57d-01405ef498fe"},"vehicle_type_id":"4","last_reported":1758798543,"current_range_meters":16400,"station_id":"","pricing_plan_id":"cebpf4jnsgd1na2vs0mg"},{"bike_id":"b6ff3672-4e7c-404c-ab2a-bd902cf95e14","system_id":"levelo_inurba_marseille","lat":43.26855,"lon":5.40666,"is_reserved":false,"is_disabled":false,"rental_uris":{"android":"levelo://app?vid=b6ff3672-4e7c-404c-ab2a-bd902cf95e14","ios":"levelo://app?vid=b6ff3672-4e7c-404c-ab2a-bd902cf95e14"},"vehicle_type_id":"4","last_reported":1758798543,"current_range_meters":16400,"station_id":"","pricing_plan_id":"cebpf4jnsgd1na2vs0mg"},{"bike_id":"97a5ee76-2e0a-479d-a727-d5a9ad8fecb2","system_id":"levelo_inurba_marseille","lat":43.22933,"lon":5.35379,"is_reserved":false,"is_disabled":false,"rental_uris":{"android":"levelo://app?vid=97a5ee76-2e0a-479d-a727-d5a9ad8fecb2","ios":"levelo://app?vid=97a5ee76-2e0a-479d-a727-d5a9ad8fecb2"},"vehicle_type_id":"4","last_reported":1758798543,"current_range_meters":16800,"station_id":"cpo3532slgdg3j2ikp40","pricing_plan_id":"cebpf4jnsgd1na2vs0mg"},{"bike_id":"748d98af-3fa9-4abe-a166-9ac48eafee04","system_id":"levelo_inurba_marseille","lat":43.28929,"lon":5.36637,"is_reserved":false,"is_disabled":false,"rental_uris":{"android":"levelo://app?vid=748d98af-3fa9-4abe-a166-9ac48eafee04","ios":"levelo://app?vid=748d98af-3fa9-4abe-a166-9ac48eafee04"},"vehicle_type_id":"4","last_reported":1758798543,"current_range_meters":16800,"station_id":"ce4bhap2rcd13ifvqek0","pricing_plan_id":"cebpf4jnsgd1na2vs0mg"},{"bike_id":"c31c58ee-4e29-4ce3-bf0a-25ae5cf57cfc","system_id":"levelo_inurba_marseille","lat":43.24947,"lon":5.40489,"is_reserved":false,"is_disabled":false,"rental_uris":{"android":"levelo://app?vid=c31c58ee-4e29-4ce3-bf0a-25ae5cf57cfc","ios":"levelo://app?vid=c31c58ee-4e29-4ce3-bf0a-25ae5cf57cfc"},"vehicle_type_id":"4","last_reported":1758798543,"current_range_meters":16800,"station_id":"st_d2ngiaodas8pm72gd1h0","pricing_plan_id":"cebpf4jnsgd1na2vs0mg"},{"bike_id":"39e6b2d7-e7bc-4366-8a01-87bc46855564","system_id":"levelo_inurba_marseille","lat":43.32089,"lon":5.36772,"is_reserved":false,"is_disabled":false,"rental_uris":{"android":"levelo://app?vid=39e6b2d7-e7bc-4366-8a01-87bc46855564","ios":"levelo://app?vid=39e6b2d7-e7bc-4366-8a01-87bc46855564"},"vehicle_type_id":"4","last_reported":1758798543,"current_range_meters":16800,"station_id":"ce4bhrh2rcd13ifvqhug","pricing_plan_id":"cebpf4jnsgd1na2vs0mg"},{"bike_id":"0bc745fa-3061-4ed3-ba51-547a540186a7","system_id":"levelo_inurba_marseille","lat":43.254079,"lon":5.42092,"is_reserved":false,"is_disabled":false,"rental_uris":{"android":"levelo://app?vid=0bc745fa-3061-4ed3-ba51-547a540186a7","ios":"levelo://app?vid=0bc745fa-3061-4ed3-ba51-547a540186a7"},"vehicle_type_id":"4","last_reported":1758798543,"current_range_meters":16800,"station_id":"st_d2m65c5bi1j21697t3ng","pricing_plan_id":"cebpf4jnsgd1na2vs0mg"},{"bike_id":"0fb6cd45-bafa-4bc6-8454-68966240bd7e","system_id":"levelo_inurba_marseille","lat":43.29261,"lon":5.36673,"is_reserved":false,"is_disabled":false,"rental_uris":{"android":"levelo://app?vid=0fb6cd45-bafa-4bc6-8454-68966240bd7e","ios":"levelo://app?vid=0fb6cd45-bafa-4bc6-8454-68966240bd7e"},"vehicle_type_id":"4","last_reported":1758798543,"current_range_meters":16800,"station_id":"","pricing_plan_id":"cebpf4jnsgd1na2vs0mg"},{"bike_id":"75d73ab9-ac13-44ed-a5f2-2eb47879b783","system_id":"levelo_inurba_marseille","lat":43.30527,"lon":5.36709,"is_reserved":false,"is_disabled":false,"rental_uris":{"android":"levelo://app?vid=75d73ab9-ac13-44ed-a5f2-2eb47879b783","ios":"levelo://app?vid=75d73ab9-ac13-44ed-a5f2-2eb47879b783"},"vehicle_type_id":"4","last_reported":1758798543,"current_range_meters":16800,"station_id":"ce4bgrp2rcd13ifvqc9g","pricing_plan_id":"cebpf4jnsgd1na2vs0mg"},{"bike_id":"7c4ad0e1-6c14-4cb3-bded-113bec18a207","system_id":"levelo_inurba_marseille","lat":43.33614,"lon":5.41045,"is_reserved":false,"is_disabled":false,"rental_uris":{"android":"levelo://app?vid=7c4ad0e1-6c14-4cb3-bded-113bec18a207","ios":"levelo://app?vid=7c4ad0e1-6c14-4cb3-bded-113bec18a207"},"vehicle_type_id":"4","last_reported":1758798543,"current_range_meters":17200,"station_id":"ce4bhqh2rcd13ifvqhmg","pricing_plan_id":"cebpf4jnsgd1na2vs0mg"},{"bike_id":"74741282-c1ea-42fe-9358-10ff7ed1a759","system_id":"levelo_inurba_marseille","lat":43.29568,"lon":5.37525,"is_reserved":false,"is_disabled":false,"rental_uris":{"android":"levelo://app?vid=74741282-c1ea-42fe-9358-10ff7ed1a759","ios":"levelo://app?vid=74741282-c1ea-42fe-9358-10ff7ed1a759"},"vehicle_type_id":"4","last_reported":1758798543,"current_range_meters":17200,"station_id":"ce4bgh92rcd13ifvqb50","pricing_plan_id":"cebpf4jnsgd1na2vs0mg"},{"bike_id":"f84ca7be-c651-4e74-bba2-65c5fe4928ff","system_id":"levelo_inurba_marseille","lat":43.23154,"lon":5.43709,"is_reserved":false,"is_disabled":false,"rental_uris":{"android":"levelo://app?vid=f84ca7be-c651-4e74-bba2-65c5fe4928ff","ios":"levelo://app?vid=f84ca7be-c651-4e74-bba2-65c5fe4928ff"},"vehicle_type_id":"4","last_reported":1758798543,"current_range_meters":17200,"station_id":"ce4bhmp2rcd13ifvqgog","pricing_plan_id":"cebpf4jnsgd1na2vs0mg"},{"bike_id":"a28c4950-acb8-4027-9776-770922e1aae9","system_id":"levelo_inurba_marseille","lat":43.231465,"lon":5.437145,"is_reserved":false,"is_disabled":false,"rental_uris":{"android":"levelo://app?vid=a28c4950-acb8-4027-9776-770922e1aae9","ios":"levelo://app?vid=a28c4950-acb8-4027-9776-770922e1aae9"},"vehicle_type_id":"4","last_reported":1758798543,"current_range_meters":17200,"station_id":"ce4bhmp2rcd13ifvqgog","pricing_plan_id":"cebpf4jnsgd1na2vs0mg"},{"bike_id":"237d670d-1d71-4e5a-9874-9ef01d2c1669","system_id":"levelo_inurba_marseille","lat":43.23071,"lon":5.35492,"is_reserved":false,"is_disabled":false,"rental_uris":{"android":"levelo://app?vid=237d670d-1d71-4e5a-9874-9ef01d2c1669","ios":"levelo://app?vid=237d670d-1d71-4e5a-9874-9ef01d2c1669"},"vehicle_type_id":"4","last_reported":1758798543,"current_range_meters":17200,"station_id":"cpo3342slgdg3j2ifvpg","pricing_plan_id":"cebpf4jnsgd1na2vs0mg"},{"bike_id":"03b26465-ea79-4279-a88d-c5e3dbb186d8","system_id":"levelo_inurba_marseille","lat":43.280639,"lon":5.426021,"is_reserved":false,"is_disabled":false,"rental_uris":{"android":"levelo://app?vid=03b26465-ea79-4279-a88d-c5e3dbb186d8","ios":"levelo://app?vid=03b26465-ea79-4279-a88d-c5e3dbb186d8"},"vehicle_type_id":"4","last_reported":1758798543,"current_range_meters":17200,"station_id":"ce4bhnh2rcd13ifvqgug","pricing_plan_id":"cebpf4jnsgd1na2vs0mg"},{"bike_id":"a57b3feb-2354-42fe-87fd-e8fcee3a0260","system_id":"levelo_inurba_marseille","lat":43.26953,"lon":5.40241,"is_reserved":false,"is_disabled":false,"rental_uris":{"android":"levelo://app?vid=a57b3feb-2354-42fe-87fd-e8fcee3a0260","ios":"levelo://app?vid=a57b3feb-2354-42fe-87fd-e8fcee3a0260"},"vehicle_type_id":"4","last_reported":1758798543,"current_range_meters":17200,"station_id":"","pricing_plan_id":"cebpf4jnsgd1na2vs0mg"},{"bike_id":"02120ce6-8c65-4979-bcd8-3a6c32af9be9","system_id":"levelo_inurba_marseille","lat":43.31363,"lon":5.36717,"is_reserved":false,"is_disabled":false,"rental_uris":{"android":"levelo://app?vid=02120ce6-8c65-4979-bcd8-3a6c32af9be9","ios":"levelo://app?vid=02120ce6-8c65-4979-bcd8-3a6c32af9be9"},"vehicle_type_id":"4","last_reported":1758798543,"current_range_meters":17600,"station_id":"ce4bgr92rcd13ifvqc6g","pricing_plan_id":"cebpf4jnsgd1na2vs0mg"},{"bike_id":"36f42d90-8bea-463b-9f5f-bc9ca9227405","system_id":"levelo_inurba_marseille","lat":43.28666,"lon":5.36352,"is_reserved":false,"is_disabled":false,"rental_uris":{"android":"levelo://app?vid=36f42d90-8bea-463b-9f5f-bc9ca9227405","ios":"levelo://app?vid=36f42d90-8bea-463b-9f5f-bc9ca9227405"},"vehicle_type_id":"4","last_reported":1758798543,"current_range_meters":17200,"station_id":"ce4bhah2rcd13ifvqej0","pricing_plan_id":"cebpf4jnsgd1na2vs0mg"},{"bike_id":"aeff7e6b-a7f3-4140-a005-9822fe4e1519","system_id":"levelo_inurba_marseille","lat":43.24658,"lon":5.4314,"is_reserved":false,"is_disabled":true,"rental_uris":{"android":"levelo://app?vid=aeff7e6b-a7f3-4140-a005-9822fe4e1519","ios":"levelo://app?vid=aeff7e6b-a7f3-4140-a005-9822fe4e1519"},"vehicle_type_id":"4","last_reported":1758798543,"current_range_meters":17600,"station_id":"st_d2m6c4gdas8pm72e190g","pricing_plan_id":"cebpf4jnsgd1na2vs0mg"},{"bike_id":"1bcc791a-1f87-40f6-9c97-a9cecc7cb39e","system_id":"levelo_inurba_marseille","lat":43.24671,"lon":5.38166,"is_reserved":false,"is_disabled":false,"rental_uris":{"android":"levelo://app?vid=1bcc791a-1f87-40f6-9c97-a9cecc7cb39e","ios":"levelo://app?vid=1bcc791a-1f87-40f6-9c97-a9cecc7cb39e"},"vehicle_type_id":"4","last_reported":1758798543,"current_range_meters":17600,"station_id":"ce4bhih2rcd13ifvqfr0","pricing_plan_id":"cebpf4jnsgd1na2vs0mg"},{"bike_id":"4fab6cb7-fc27-4968-821f-fe1b836c1b06","system_id":"levelo_inurba_marseille","lat":43.31072,"lon":5.38362,"is_reserved":false,"is_disabled":false,"rental_uris":{"android":"levelo://app?vid=4fab6cb7-fc27-4968-821f-fe1b836c1b06","ios":"levelo://app?vid=4fab6cb7-fc27-4968-821f-fe1b836c1b06"},"vehicle_type_id":"4","last_reported":1758798543,"current_range_meters":17600,"station_id":"ce4bgv92rcd13ifvqcr0","pricing_plan_id":"cebpf4jnsgd1na2vs0mg"},{"bike_id":"2ea09fe9-814d-43ca-bf25-d34e789a6b27","system_id":"levelo_inurba_marseille","lat":43.25584,"lon":5.38228,"is_reserved":false,"is_disabled":false,"rental_uris":{"android":"levelo://app?vid=2ea09fe9-814d-43ca-bf25-d34e789a6b27","ios":"levelo://app?vid=2ea09fe9-814d-43ca-bf25-d34e789a6b27"},"vehicle_type_id":"4","last_reported":1758798543,"current_range_meters":18000,"station_id":"ce4bhih2rcd13ifvqfs0","pricing_plan_id":"cebpf4jnsgd1na2vs0mg"},{"bike_id":"fe122dd9-ae1f-4c60-9d9d-a8486e2196bf","system_id":"levelo_inurba_marseille","lat":43.23156,"lon":5.43703,"is_reserved":false,"is_disabled":false,"rental_uris":{"android":"levelo://app?vid=fe122dd9-ae1f-4c60-9d9d-a8486e2196bf","ios":"levelo://app?vid=fe122dd9-ae1f-4c60-9d9d-a8486e2196bf"},"vehicle_type_id":"4","last_reported":1758798543,"current_range_meters":18000,"station_id":"ce4bhmp2rcd13ifvqgog","pricing_plan_id":"cebpf4jnsgd1na2vs0mg"},{"bike_id":"099fcddd-6bc9-490a-97f1-cdc0780f159c","system_id":"levelo_inurba_marseille","lat":43.2888,"lon":5.39425,"is_reserved":false,"is_disabled":false,"rental_uris":{"android":"levelo://app?vid=099fcddd-6bc9-490a-97f1-cdc0780f159c","ios":"levelo://app?vid=099fcddd-6bc9-490a-97f1-cdc0780f159c"},"vehicle_type_id":"4","last_reported":1758798543,"current_range_meters":18000,"station_id":"ce4bh2p2rcd13ifvqdi0","pricing_plan_id":"cebpf4jnsgd1na2vs0mg"},{"bike_id":"7d83008d-d423-4869-8a91-c2168822fe9a","system_id":"levelo_inurba_marseille","lat":43.30546,"lon":5.36688,"is_reserved":false,"is_disabled":false,"rental_uris":{"android":"levelo://app?vid=7d83008d-d423-4869-8a91-c2168822fe9a","ios":"levelo://app?vid=7d83008d-d423-4869-8a91-c2168822fe9a"},"vehicle_type_id":"4","last_reported":1758798543,"current_range_meters":18000,"station_id":"ce4bgrp2rcd13ifvqc9g","pricing_plan_id":"cebpf4jnsgd1na2vs0mg"},{"bike_id":"53575b32-ed29-4f33-a153-53bd5b3c725a","system_id":"levelo_inurba_marseille","lat":43.24696,"lon":5.3817,"is_reserved":false,"is_disabled":false,"rental_uris":{"android":"levelo://app?vid=53575b32-ed29-4f33-a153-53bd5b3c725a","ios":"levelo://app?vid=53575b32-ed29-4f33-a153-53bd5b3c725a"},"vehicle_type_id":"4","last_reported":1758798543,"current_range_meters":18000,"station_id":"ce4bhih2rcd13ifvqfr0","pricing_plan_id":"cebpf4jnsgd1na2vs0mg"},{"bike_id":"d5c6f204-ed52-4dbd-b695-e30430f7f223","system_id":"levelo_inurba_marseille","lat":43.217422,"lon":5.346046,"is_reserved":false,"is_disabled":false,"rental_uris":{"android":"levelo://app?vid=d5c6f204-ed52-4dbd-b695-e30430f7f223","ios":"levelo://app?vid=d5c6f204-ed52-4dbd-b695-e30430f7f223"},"vehicle_type_id":"4","last_reported":1758798543,"current_range_meters":18000,"station_id":"st_cvj6r9ubvosntc0bgbag","pricing_plan_id":"cebpf4jnsgd1na2vs0mg"},{"bike_id":"6abff3ff-6f25-403c-932e-68932b6e0682","system_id":"levelo_inurba_marseille","lat":43.23161,"lon":5.43709,"is_reserved":false,"is_disabled":false,"rental_uris":{"android":"levelo://app?vid=6abff3ff-6f25-403c-932e-68932b6e0682","ios":"levelo://app?vid=6abff3ff-6f25-403c-932e-68932b6e0682"},"vehicle_type_id":"4","last_reported":1758798543,"current_range_meters":18000,"station_id":"ce4bhmp2rcd13ifvqgog","pricing_plan_id":"cebpf4jnsgd1na2vs0mg"},{"bike_id":"27c7dccf-293e-424c-b564-456ad9a2e6b3","system_id":"levelo_inurba_marseille","lat":43.241716,"lon":5.363903,"is_reserved":false,"is_disabled":false,"rental_uris":{"android":"levelo://app?vid=27c7dccf-293e-424c-b564-456ad9a2e6b3","ios":"levelo://app?vid=27c7dccf-293e-424c-b564-456ad9a2e6b3"},"vehicle_type_id":"4","last_reported":1758798543,"current_range_meters":18000,"station_id":"cpo36qri1sfpv3e86is0","pricing_plan_id":"cebpf4jnsgd1na2vs0mg"},{"bike_id":"7f09bc43-02a6-468a-9182-731c83281b4a","system_id":"levelo_inurba_marseille","lat":43.26382,"lon":5.37466,"is_reserved":false,"is_disabled":false,"rental_uris":{"android":"levelo://app?vid=7f09bc43-02a6-468a-9182-731c83281b4a","ios":"levelo://app?vid=7f09bc43-02a6-468a-9182-731c83281b4a"},"vehicle_type_id":"4","last_reported":1758798543,"current_range_meters":18000,"station_id":"","pricing_plan_id":"cebpf4jnsgd1na2vs0mg"},{"bike_id":"13be0879-670b-43f4-8fc1-8fbc1c4ccf9c","system_id":"levelo_inurba_marseille","lat":43.28419,"lon":5.34987,"is_reserved":false,"is_disabled":false,"rental_uris":{"android":"levelo://app?vid=13be0879-670b-43f4-8fc1-8fbc1c4ccf9c","ios":"levelo://app?vid=13be0879-670b-43f4-8fc1-8fbc1c4ccf9c"},"vehicle_type_id":"4","last_reported":1758798543,"current_range_meters":18000,"station_id":"ce4bhbh2rcd13ifvqepg","pricing_plan_id":"cebpf4jnsgd1na2vs0mg"},{"bike_id":"a8f4efb7-ab13-40db-8202-0b46d9d81cf6","system_id":"levelo_inurba_marseille","lat":43.30539,"lon":5.36558,"is_reserved":false,"is_disabled":false,"rental_uris":{"android":"levelo://app?vid=a8f4efb7-ab13-40db-8202-0b46d9d81cf6","ios":"levelo://app?vid=a8f4efb7-ab13-40db-8202-0b46d9d81cf6"},"vehicle_type_id":"4","last_reported":1758798543,"current_range_meters":18000,"station_id":"ce4bgs12rcd13ifvqcag","pricing_plan_id":"cebpf4jnsgd1na2vs0mg"},{"bike_id":"43009bdc-c1d2-476d-8753-a235cb8d1a73","system_id":"levelo_inurba_marseille","lat":43.25018,"lon":5.3892,"is_reserved":false,"is_disabled":false,"rental_uris":{"android":"levelo://app?vid=43009bdc-c1d2-476d-8753-a235cb8d1a73","ios":"levelo://app?vid=43009bdc-c1d2-476d-8753-a235cb8d1a73"},"vehicle_type_id":"4","last_reported":1758798543,"current_range_meters":18000,"station_id":"ce4bhgp2rcd13ifvqfd0","pricing_plan_id":"cebpf4jnsgd1na2vs0mg"},{"bike_id":"327c041e-5c9e-4b0d-a97c-a2dbaab036ae","system_id":"levelo_inurba_marseille","lat":43.32806,"lon":5.41131,"is_reserved":false,"is_disabled":false,"rental_uris":{"android":"levelo://app?vid=327c041e-5c9e-4b0d-a97c-a2dbaab036ae","ios":"levelo://app?vid=327c041e-5c9e-4b0d-a97c-a2dbaab036ae"},"vehicle_type_id":"4","last_reported":1758798543,"current_range_meters":18800,"station_id":"","pricing_plan_id":"cebpf4jnsgd1na2vs0mg"},{"bike_id":"467b4306-5fd8-484e-9a4b-cf8eb50151ba","system_id":"levelo_inurba_marseille","lat":43.32294,"lon":5.38263,"is_reserved":false,"is_disabled":false,"rental_uris":{"android":"levelo://app?vid=467b4306-5fd8-484e-9a4b-cf8eb50151ba","ios":"levelo://app?vid=467b4306-5fd8-484e-9a4b-cf8eb50151ba"},"vehicle_type_id":"4","last_reported":1758798543,"current_range_meters":18800,"station_id":"ce4bhr12rcd13ifvqhqg","pricing_plan_id":"cebpf4jnsgd1na2vs0mg"},{"bike_id":"bfdb0d52-898f-45b7-b9e4-396d25ddff0c","system_id":"levelo_inurba_marseille","lat":43.30461,"lon":5.37899,"is_reserved":false,"is_disabled":false,"rental_uris":{"android":"levelo://app?vid=bfdb0d52-898f-45b7-b9e4-396d25ddff0c","ios":"levelo://app?vid=bfdb0d52-898f-45b7-b9e4-396d25ddff0c"},"vehicle_type_id":"4","last_reported":1758798543,"current_range_meters":18800,"station_id":"ce4bgup2rcd13ifvqcn0","pricing_plan_id":"cebpf4jnsgd1na2vs0mg"},{"bike_id":"804775e9-a2f9-4bb9-b370-a78162905497","system_id":"levelo_inurba_marseille","lat":43.24677,"lon":5.38147,"is_reserved":false,"is_disabled":false,"rental_uris":{"android":"levelo://app?vid=804775e9-a2f9-4bb9-b370-a78162905497","ios":"levelo://app?vid=804775e9-a2f9-4bb9-b370-a78162905497"},"vehicle_type_id":"4","last_reported":1758798543,"current_range_meters":18800,"station_id":"ce4bhih2rcd13ifvqfr0","pricing_plan_id":"cebpf4jnsgd1na2vs0mg"},{"bike_id":"0c8cc4cf-1548-4702-8beb-4813f33f974a","system_id":"levelo_inurba_marseille","lat":43.23159,"lon":5.43715,"is_reserved":false,"is_disabled":false,"rental_uris":{"android":"levelo://app?vid=0c8cc4cf-1548-4702-8beb-4813f33f974a","ios":"levelo://app?vid=0c8cc4cf-1548-4702-8beb-4813f33f974a"},"vehicle_type_id":"4","last_reported":1758798543,"current_range_meters":18800,"station_id":"ce4bhmp2rcd13ifvqgog","pricing_plan_id":"cebpf4jnsgd1na2vs0mg"},{"bike_id":"f5a888db-229a-4246-81ee-0ff2a1bcfdfa","system_id":"levelo_inurba_marseille","lat":43.22927,"lon":5.35372,"is_reserved":false,"is_disabled":false,"rental_uris":{"android":"levelo://app?vid=f5a888db-229a-4246-81ee-0ff2a1bcfdfa","ios":"levelo://app?vid=f5a888db-229a-4246-81ee-0ff2a1bcfdfa"},"vehicle_type_id":"4","last_reported":1758798543,"current_range_meters":18800,"station_id":"cpo3532slgdg3j2ikp40","pricing_plan_id":"cebpf4jnsgd1na2vs0mg"},{"bike_id":"08fe2b08-b3fa-43f8-ae73-04061f76318d","system_id":"levelo_inurba_marseille","lat":43.305552,"lon":5.365395,"is_reserved":false,"is_disabled":false,"rental_uris":{"android":"levelo://app?vid=08fe2b08-b3fa-43f8-ae73-04061f76318d","ios":"levelo://app?vid=08fe2b08-b3fa-43f8-ae73-04061f76318d"},"vehicle_type_id":"4","last_reported":1758798543,"current_range_meters":18800,"station_id":"","pricing_plan_id":"cebpf4jnsgd1na2vs0mg"},{"bike_id":"da9309db-bd40-47b3-84bb-b85d164d0adc","system_id":"levelo_inurba_marseille","lat":43.30137,"lon":5.37416,"is_reserved":false,"is_disabled":false,"rental_uris":{"android":"levelo://app?vid=da9309db-bd40-47b3-84bb-b85d164d0adc","ios":"levelo://app?vid=da9309db-bd40-47b3-84bb-b85d164d0adc"},"vehicle_type_id":"4","last_reported":1758798543,"current_range_meters":19200,"station_id":"ce4bgs92rcd13ifvqcc0","pricing_plan_id":"cebpf4jnsgd1na2vs0mg"},{"bike_id":"1d5d14cf-15e7-4470-bff9-613bb9abe120","system_id":"levelo_inurba_marseille","lat":43.3348,"lon":5.42063,"is_reserved":false,"is_disabled":false,"rental_uris":{"android":"levelo://app?vid=1d5d14cf-15e7-4470-bff9-613bb9abe120","ios":"levelo://app?vid=1d5d14cf-15e7-4470-bff9-613bb9abe120"},"vehicle_type_id":"4","last_reported":1758798543,"current_range_meters":18800,"station_id":"","pricing_plan_id":"cebpf4jnsgd1na2vs0mg"},{"bike_id":"592b1ba5-e76d-424a-880d-d370c85011a0","system_id":"levelo_inurba_marseille","lat":43.29214,"lon":5.36063,"is_reserved":false,"is_disabled":false,"rental_uris":{"android":"levelo://app?vid=592b1ba5-e76d-424a-880d-d370c85011a0","ios":"levelo://app?vid=592b1ba5-e76d-424a-880d-d370c85011a0"},"vehicle_type_id":"4","last_reported":1758798543,"current_range_meters":18800,"station_id":"ce4bhbh2rcd13ifvqeqg","pricing_plan_id":"cebpf4jnsgd1na2vs0mg"},{"bike_id":"0850322e-223c-40f6-9cf6-f506ac5c8015","system_id":"levelo_inurba_marseille","lat":43.31139,"lon":5.36912,"is_reserved":false,"is_disabled":false,"rental_uris":{"android":"levelo://app?vid=0850322e-223c-40f6-9cf6-f506ac5c8015","ios":"levelo://app?vid=0850322e-223c-40f6-9cf6-f506ac5c8015"},"vehicle_type_id":"4","last_reported":1758798543,"current_range_meters":18800,"station_id":"","pricing_plan_id":"cebpf4jnsgd1na2vs0mg"},{"bike_id":"208d8654-3228-40c7-b9c8-8618c2e5fa52","system_id":"levelo_inurba_marseille","lat":43.28645,"lon":5.38264,"is_reserved":false,"is_disabled":false,"rental_uris":{"android":"levelo://app?vid=208d8654-3228-40c7-b9c8-8618c2e5fa52","ios":"levelo://app?vid=208d8654-3228-40c7-b9c8-8618c2e5fa52"},"vehicle_type_id":"4","last_reported":1758798543,"current_range_meters":18800,"station_id":"","pricing_plan_id":"cebpf4jnsgd1na2vs0mg"},{"bike_id":"1df5ce8c-d7d2-4870-a705-78837839c325","system_id":"levelo_inurba_marseille","lat":43.26778,"lon":5.39416,"is_reserved":false,"is_disabled":false,"rental_uris":{"android":"levelo://app?vid=1df5ce8c-d7d2-4870-a705-78837839c325","ios":"levelo://app?vid=1df5ce8c-d7d2-4870-a705-78837839c325"},"vehicle_type_id":"4","last_reported":1758798543,"current_range_meters":18800,"station_id":"ce4bhh12rcd13ifvqfg0","pricing_plan_id":"cebpf4jnsgd1na2vs0mg"},{"bike_id":"10b8d871-07e9-4114-9eb9-6bcce40e7beb","system_id":"levelo_inurba_marseille","lat":43.27045,"lon":5.392226,"is_reserved":false,"is_disabled":false,"rental_uris":{"android":"levelo://app?vid=10b8d871-07e9-4114-9eb9-6bcce40e7beb","ios":"levelo://app?vid=10b8d871-07e9-4114-9eb9-6bcce40e7beb"},"vehicle_type_id":"4","last_reported":1758798543,"current_range_meters":18800,"station_id":"ce4bhe12rcd13ifvqf30","pricing_plan_id":"cebpf4jnsgd1na2vs0mg"},{"bike_id":"e95cee46-f4e5-4be6-a197-4bf26319767c","system_id":"levelo_inurba_marseille","lat":43.24649,"lon":5.38894,"is_reserved":false,"is_disabled":false,"rental_uris":{"android":"levelo://app?vid=e95cee46-f4e5-4be6-a197-4bf26319767c","ios":"levelo://app?vid=e95cee46-f4e5-4be6-a197-4bf26319767c"},"vehicle_type_id":"4","last_reported":1758798543,"current_range_meters":18800,"station_id":"ce4bhg12rcd13ifvqf60","pricing_plan_id":"cebpf4jnsgd1na2vs0mg"},{"bike_id":"946d80c4-8f08-4811-b89b-bbc74a3b20aa","system_id":"levelo_inurba_marseille","lat":43.33025,"lon":5.39036,"is_reserved":false,"is_disabled":false,"rental_uris":{"android":"levelo://app?vid=946d80c4-8f08-4811-b89b-bbc74a3b20aa","ios":"levelo://app?vid=946d80c4-8f08-4811-b89b-bbc74a3b20aa"},"vehicle_type_id":"4","last_reported":1758798543,"current_range_meters":18800,"station_id":"ce4bhr92rcd13ifvqhrg","pricing_plan_id":"cebpf4jnsgd1na2vs0mg"},{"bike_id":"d48eeb4a-79c3-455d-addb-b11e7710be08","system_id":"levelo_inurba_marseille","lat":43.287226,"lon":5.379388,"is_reserved":false,"is_disabled":false,"rental_uris":{"android":"levelo://app?vid=d48eeb4a-79c3-455d-addb-b11e7710be08","ios":"levelo://app?vid=d48eeb4a-79c3-455d-addb-b11e7710be08"},"vehicle_type_id":"4","last_reported":1758798543,"current_range_meters":19600,"station_id":"ce4bh9p2rcd13ifvqec0","pricing_plan_id":"cebpf4jnsgd1na2vs0mg"},{"bike_id":"75611fb7-df45-4d9f-9db0-a181136cc424","system_id":"levelo_inurba_marseille","lat":43.21746,"lon":5.34597,"is_reserved":false,"is_disabled":true,"rental_uris":{"android":"levelo://app?vid=75611fb7-df45-4d9f-9db0-a181136cc424","ios":"levelo://app?vid=75611fb7-df45-4d9f-9db0-a181136cc424"},"vehicle_type_id":"4","last_reported":1758798543,"current_range_meters":19200,"station_id":"st_cvj6r9ubvosntc0bgbag","pricing_plan_id":"cebpf4jnsgd1na2vs0mg"},{"bike_id":"b567dfa6-db04-4eb0-a3dc-2ac34452da5d","system_id":"levelo_inurba_marseille","lat":43.23154,"lon":5.43696,"is_reserved":false,"is_disabled":true,"rental_uris":{"android":"levelo://app?vid=b567dfa6-db04-4eb0-a3dc-2ac34452da5d","ios":"levelo://app?vid=b567dfa6-db04-4eb0-a3dc-2ac34452da5d"},"vehicle_type_id":"4","last_reported":1758798543,"current_range_meters":19200,"station_id":"ce4bhmp2rcd13ifvqgog","pricing_plan_id":"cebpf4jnsgd1na2vs0mg"},{"bike_id":"10eaa024-4be7-446e-8c0b-784593078904","system_id":"levelo_inurba_marseille","lat":43.25588,"lon":5.38228,"is_reserved":false,"is_disabled":false,"rental_uris":{"android":"levelo://app?vid=10eaa024-4be7-446e-8c0b-784593078904","ios":"levelo://app?vid=10eaa024-4be7-446e-8c0b-784593078904"},"vehicle_type_id":"4","last_reported":1758798543,"current_range_meters":19200,"station_id":"ce4bhih2rcd13ifvqfs0","pricing_plan_id":"cebpf4jnsgd1na2vs0mg"},{"bike_id":"48f118ba-5e81-4c62-9fdf-4f2e2bca94e9","system_id":"levelo_inurba_marseille","lat":43.26214,"lon":5.37435,"is_reserved":false,"is_disabled":false,"rental_uris":{"android":"levelo://app?vid=48f118ba-5e81-4c62-9fdf-4f2e2bca94e9","ios":"levelo://app?vid=48f118ba-5e81-4c62-9fdf-4f2e2bca94e9"},"vehicle_type_id":"4","last_reported":1758798543,"current_range_meters":19200,"station_id":"ce4bhgp2rcd13ifvqfc0","pricing_plan_id":"cebpf4jnsgd1na2vs0mg"},{"bike_id":"b1138af5-ef4d-4112-a9d8-8a967a627120","system_id":"levelo_inurba_marseille","lat":43.3014,"lon":5.37414,"is_reserved":false,"is_disabled":false,"rental_uris":{"android":"levelo://app?vid=b1138af5-ef4d-4112-a9d8-8a967a627120","ios":"levelo://app?vid=b1138af5-ef4d-4112-a9d8-8a967a627120"},"vehicle_type_id":"4","last_reported":1758798543,"current_range_meters":19200,"station_id":"ce4bgs92rcd13ifvqcc0","pricing_plan_id":"cebpf4jnsgd1na2vs0mg"},{"bike_id":"77e2d895-129a-4ff3-9d84-075d048492b7","system_id":"levelo_inurba_marseille","lat":43.24992,"lon":5.38935,"is_reserved":false,"is_disabled":false,"rental_uris":{"android":"levelo://app?vid=77e2d895-129a-4ff3-9d84-075d048492b7","ios":"levelo://app?vid=77e2d895-129a-4ff3-9d84-075d048492b7"},"vehicle_type_id":"4","last_reported":1758798543,"current_range_meters":19200,"station_id":"ce4bhgp2rcd13ifvqfd0","pricing_plan_id":"cebpf4jnsgd1na2vs0mg"},{"bike_id":"9006bf3d-4da8-4adb-9ea9-b302b3a5f525","system_id":"levelo_inurba_marseille","lat":43.24066,"lon":5.37687,"is_reserved":false,"is_disabled":false,"rental_uris":{"android":"levelo://app?vid=9006bf3d-4da8-4adb-9ea9-b302b3a5f525","ios":"levelo://app?vid=9006bf3d-4da8-4adb-9ea9-b302b3a5f525"},"vehicle_type_id":"4","last_reported":1758798543,"current_range_meters":19200,"station_id":"ce4bhnp2rcd13ifvqgvg","pricing_plan_id":"cebpf4jnsgd1na2vs0mg"},{"bike_id":"2467a753-313c-471d-a85f-f37385397fb9","system_id":"levelo_inurba_marseille","lat":43.25932,"lon":5.409,"is_reserved":false,"is_disabled":false,"rental_uris":{"android":"levelo://app?vid=2467a753-313c-471d-a85f-f37385397fb9","ios":"levelo://app?vid=2467a753-313c-471d-a85f-f37385397fb9"},"vehicle_type_id":"4","last_reported":1758798543,"current_range_meters":19200,"station_id":"ce4bhm92rcd13ifvqglg","pricing_plan_id":"cebpf4jnsgd1na2vs0mg"},{"bike_id":"4eac160a-8c0b-43da-a1dc-0417f5b960ac","system_id":"levelo_inurba_marseille","lat":43.267917,"lon":5.394062,"is_reserved":false,"is_disabled":false,"rental_uris":{"android":"levelo://app?vid=4eac160a-8c0b-43da-a1dc-0417f5b960ac","ios":"levelo://app?vid=4eac160a-8c0b-43da-a1dc-0417f5b960ac"},"vehicle_type_id":"4","last_reported":1758798543,"current_range_meters":18800,"station_id":"ce4bhh12rcd13ifvqfg0","pricing_plan_id":"cebpf4jnsgd1na2vs0mg"},{"bike_id":"ef570248-6c5a-4863-8c54-70c3a81b29c9","system_id":"levelo_inurba_marseille","lat":43.31241,"lon":5.37112,"is_reserved":false,"is_disabled":false,"rental_uris":{"android":"levelo://app?vid=ef570248-6c5a-4863-8c54-70c3a81b29c9","ios":"levelo://app?vid=ef570248-6c5a-4863-8c54-70c3a81b29c9"},"vehicle_type_id":"4","last_reported":1758798543,"current_range_meters":19600,"station_id":"","pricing_plan_id":"cebpf4jnsgd1na2vs0mg"},{"bike_id":"d7a875e7-b66c-4fa8-be35-eb57bdce7aff","system_id":"levelo_inurba_marseille","lat":43.23153,"lon":5.43716,"is_reserved":false,"is_disabled":false,"rental_uris":{"android":"levelo://app?vid=d7a875e7-b66c-4fa8-be35-eb57bdce7aff","ios":"levelo://app?vid=d7a875e7-b66c-4fa8-be35-eb57bdce7aff"},"vehicle_type_id":"4","last_reported":1758798543,"current_range_meters":19200,"station_id":"ce4bhmp2rcd13ifvqgog","pricing_plan_id":"cebpf4jnsgd1na2vs0mg"},{"bike_id":"30379cfe-0267-420e-8d80-e5621469a8d3","system_id":"levelo_inurba_marseille","lat":43.29193,"lon":5.35806,"is_reserved":false,"is_disabled":false,"rental_uris":{"android":"levelo://app?vid=30379cfe-0267-420e-8d80-e5621469a8d3","ios":"levelo://app?vid=30379cfe-0267-420e-8d80-e5621469a8d3"},"vehicle_type_id":"4","last_reported":1758798543,"current_range_meters":19200,"station_id":"ce4bhb12rcd13ifvqel0","pricing_plan_id":"cebpf4jnsgd1na2vs0mg"},{"bike_id":"e4fa45e2-da10-440b-87a9-554053aae45b","system_id":"levelo_inurba_marseille","lat":43.27374,"lon":5.36248,"is_reserved":false,"is_disabled":false,"rental_uris":{"android":"levelo://app?vid=e4fa45e2-da10-440b-87a9-554053aae45b","ios":"levelo://app?vid=e4fa45e2-da10-440b-87a9-554053aae45b"},"vehicle_type_id":"4","last_reported":1758798543,"current_range_meters":19600,"station_id":"ce4bhbh2rcd13ifvqeo0","pricing_plan_id":"cebpf4jnsgd1na2vs0mg"},{"bike_id":"642c56d5-363d-4f9f-92f9-597e68eab215","system_id":"levelo_inurba_marseille","lat":43.26795,"lon":5.39406,"is_reserved":false,"is_disabled":false,"rental_uris":{"android":"levelo://app?vid=642c56d5-363d-4f9f-92f9-597e68eab215","ios":"levelo://app?vid=642c56d5-363d-4f9f-92f9-597e68eab215"},"vehicle_type_id":"4","last_reported":1758798543,"current_range_meters":19200,"station_id":"ce4bhh12rcd13ifvqfg0","pricing_plan_id":"cebpf4jnsgd1na2vs0mg"},{"bike_id":"11640577-6482-4809-9c4f-464f67f3495e","system_id":"levelo_inurba_marseille","lat":43.29275,"lon":5.40112,"is_reserved":false,"is_disabled":false,"rental_uris":{"android":"levelo://app?vid=11640577-6482-4809-9c4f-464f67f3495e","ios":"levelo://app?vid=11640577-6482-4809-9c4f-464f67f3495e"},"vehicle_type_id":"4","last_reported":1758798543,"current_range_meters":19600,"station_id":"ce4bh312rcd13ifvqdk0","pricing_plan_id":"cebpf4jnsgd1na2vs0mg"},{"bike_id":"9d9b48f2-60aa-4ecf-9db6-4f841b0467be","system_id":"levelo_inurba_marseille","lat":43.24075,"lon":5.3776,"is_reserved":false,"is_disabled":false,"rental_uris":{"android":"levelo://app?vid=9d9b48f2-60aa-4ecf-9db6-4f841b0467be","ios":"levelo://app?vid=9d9b48f2-60aa-4ecf-9db6-4f841b0467be"},"vehicle_type_id":"4","last_reported":1758798543,"current_range_meters":19600,"station_id":"ce4bhnp2rcd13ifvqgvg","pricing_plan_id":"cebpf4jnsgd1na2vs0mg"},{"bike_id":"20f9bd49-6fda-4430-aefc-408e616dd032","system_id":"levelo_inurba_marseille","lat":43.32357,"lon":5.36771,"is_reserved":false,"is_disabled":false,"rental_uris":{"android":"levelo://app?vid=20f9bd49-6fda-4430-aefc-408e616dd032","ios":"levelo://app?vid=20f9bd49-6fda-4430-aefc-408e616dd032"},"vehicle_type_id":"4","last_reported":1758798543,"current_range_meters":19600,"station_id":"ce4bhsh2rcd13ifvqi2g","pricing_plan_id":"cebpf4jnsgd1na2vs0mg"},{"bike_id":"d7dc6888-512c-47b2-be62-8950ff4cf027","system_id":"levelo_inurba_marseille","lat":43.31239,"lon":5.36843,"is_reserved":false,"is_disabled":false,"rental_uris":{"android":"levelo://app?vid=d7dc6888-512c-47b2-be62-8950ff4cf027","ios":"levelo://app?vid=d7dc6888-512c-47b2-be62-8950ff4cf027"},"vehicle_type_id":"4","last_reported":1758798543,"current_range_meters":20000,"station_id":"ce4bgl92rcd13ifvqbq0","pricing_plan_id":"cebpf4jnsgd1na2vs0mg"},{"bike_id":"7d6d35c3-da0e-4e0b-8c2c-eb025390d053","system_id":"levelo_inurba_marseille","lat":43.33028,"lon":5.39038,"is_reserved":false,"is_disabled":false,"rental_uris":{"android":"levelo://app?vid=7d6d35c3-da0e-4e0b-8c2c-eb025390d053","ios":"levelo://app?vid=7d6d35c3-da0e-4e0b-8c2c-eb025390d053"},"vehicle_type_id":"4","last_reported":1758798543,"current_range_meters":20000,"station_id":"ce4bhr92rcd13ifvqhrg","pricing_plan_id":"cebpf4jnsgd1na2vs0mg"},{"bike_id":"3a06f3c5-3b56-46ec-9272-f8a39e618450","system_id":"levelo_inurba_marseille","lat":43.27421,"lon":5.39418,"is_reserved":false,"is_disabled":false,"rental_uris":{"android":"levelo://app?vid=3a06f3c5-3b56-46ec-9272-f8a39e618450","ios":"levelo://app?vid=3a06f3c5-3b56-46ec-9272-f8a39e618450"},"vehicle_type_id":"4","last_reported":1758798543,"current_range_meters":20000,"station_id":"ce4bhdp2rcd13ifvqf20","pricing_plan_id":"cebpf4jnsgd1na2vs0mg"},{"bike_id":"9a4f92ed-e086-4038-a651-bbe0613f80bd","system_id":"levelo_inurba_marseille","lat":43.22572,"lon":5.41617,"is_reserved":false,"is_disabled":false,"rental_uris":{"android":"levelo://app?vid=9a4f92ed-e086-4038-a651-bbe0613f80bd","ios":"levelo://app?vid=9a4f92ed-e086-4038-a651-bbe0613f80bd"},"vehicle_type_id":"4","last_reported":1758798543,"current_range_meters":20000,"station_id":"st_d2o4gvlbi1j2169b742g","pricing_plan_id":"cebpf4jnsgd1na2vs0mg"},{"bike_id":"4736207d-942c-4db1-a3a0-3b7f20f74b2c","system_id":"levelo_inurba_marseille","lat":43.286719,"lon":5.363483,"is_reserved":false,"is_disabled":false,"rental_uris":{"android":"levelo://app?vid=4736207d-942c-4db1-a3a0-3b7f20f74b2c","ios":"levelo://app?vid=4736207d-942c-4db1-a3a0-3b7f20f74b2c"},"vehicle_type_id":"4","last_reported":1758798543,"current_range_meters":20000,"station_id":"","pricing_plan_id":"cebpf4jnsgd1na2vs0mg"},{"bike_id":"ba9dadf9-9651-45ec-a030-94820da5d5bc","system_id":"levelo_inurba_marseille","lat":43.292835,"lon":5.401144,"is_reserved":false,"is_disabled":false,"rental_uris":{"android":"levelo://app?vid=ba9dadf9-9651-45ec-a030-94820da5d5bc","ios":"levelo://app?vid=ba9dadf9-9651-45ec-a030-94820da5d5bc"},"vehicle_type_id":"4","last_reported":1758798543,"current_range_meters":20000,"station_id":"","pricing_plan_id":"cebpf4jnsgd1na2vs0mg"},{"bike_id":"5f223084-1425-4f37-95d4-648be027f548","system_id":"levelo_inurba_marseille","lat":43.30543,"lon":5.36693,"is_reserved":false,"is_disabled":false,"rental_uris":{"android":"levelo://app?vid=5f223084-1425-4f37-95d4-648be027f548","ios":"levelo://app?vid=5f223084-1425-4f37-95d4-648be027f548"},"vehicle_type_id":"4","last_reported":1758798543,"current_range_meters":20000,"station_id":"ce4bgrp2rcd13ifvqc9g","pricing_plan_id":"cebpf4jnsgd1na2vs0mg"},{"bike_id":"f8d2044d-759a-4cf1-b010-d3fc9b0a570d","system_id":"levelo_inurba_marseille","lat":43.29101,"lon":5.3814,"is_reserved":false,"is_disabled":false,"rental_uris":{"android":"levelo://app?vid=f8d2044d-759a-4cf1-b010-d3fc9b0a570d","ios":"levelo://app?vid=f8d2044d-759a-4cf1-b010-d3fc9b0a570d"},"vehicle_type_id":"4","last_reported":1758798543,"current_range_meters":20000,"station_id":"ce4bh512rcd13ifvqe2g","pricing_plan_id":"cebpf4jnsgd1na2vs0mg"},{"bike_id":"639471ea-6aa1-4780-bd89-dc7a1da39e3a","system_id":"levelo_inurba_marseille","lat":43.27946,"lon":5.41045,"is_reserved":false,"is_disabled":false,"rental_uris":{"android":"levelo://app?vid=639471ea-6aa1-4780-bd89-dc7a1da39e3a","ios":"levelo://app?vid=639471ea-6aa1-4780-bd89-dc7a1da39e3a"},"vehicle_type_id":"4","last_reported":1758798543,"current_range_meters":20000,"station_id":"ce4bhnp2rcd13ifvqh0g","pricing_plan_id":"cebpf4jnsgd1na2vs0mg"},{"bike_id":"f2081a63-a993-4322-9621-5600ba60f1f2","system_id":"levelo_inurba_marseille","lat":43.26195,"lon":5.37459,"is_reserved":false,"is_disabled":true,"rental_uris":{"android":"levelo://app?vid=f2081a63-a993-4322-9621-5600ba60f1f2","ios":"levelo://app?vid=f2081a63-a993-4322-9621-5600ba60f1f2"},"vehicle_type_id":"4","last_reported":1758798543,"current_range_meters":20000,"station_id":"ce4bhgp2rcd13ifvqfc0","pricing_plan_id":"cebpf4jnsgd1na2vs0mg"},{"bike_id":"47dcf30c-c1f7-4478-8ba1-8cc04c4dc1c7","system_id":"levelo_inurba_marseille","lat":43.29307,"lon":5.37193,"is_reserved":false,"is_disabled":false,"rental_uris":{"android":"levelo://app?vid=47dcf30c-c1f7-4478-8ba1-8cc04c4dc1c7","ios":"levelo://app?vid=47dcf30c-c1f7-4478-8ba1-8cc04c4dc1c7"},"vehicle_type_id":"4","last_reported":1758798543,"current_range_meters":20000,"station_id":"ce4bgh92rcd13ifvqb40","pricing_plan_id":"cebpf4jnsgd1na2vs0mg"},{"bike_id":"0a059bdb-4a04-4f61-becd-2295fd720c27","system_id":"levelo_inurba_marseille","lat":43.291732,"lon":5.371609,"is_reserved":false,"is_disabled":false,"rental_uris":{"android":"levelo://app?vid=0a059bdb-4a04-4f61-becd-2295fd720c27","ios":"levelo://app?vid=0a059bdb-4a04-4f61-becd-2295fd720c27"},"vehicle_type_id":"4","last_reported":1758798543,"current_range_meters":20000,"station_id":"ce4bha92rcd13ifvqeh0","pricing_plan_id":"cebpf4jnsgd1na2vs0mg"},{"bike_id":"142f4edc-4f9a-4077-9e9a-9e1c873c8fff","system_id":"levelo_inurba_marseille","lat":43.29322,"lon":5.3716,"is_reserved":false,"is_disabled":false,"rental_uris":{"android":"levelo://app?vid=142f4edc-4f9a-4077-9e9a-9e1c873c8fff","ios":"levelo://app?vid=142f4edc-4f9a-4077-9e9a-9e1c873c8fff"},"vehicle_type_id":"4","last_reported":1758798543,"current_range_meters":20000,"station_id":"ce4bgh92rcd13ifvqb40","pricing_plan_id":"cebpf4jnsgd1na2vs0mg"},{"bike_id":"ef4ee8b7-3258-4aad-a3f8-62940ae3f55f","system_id":"levelo_inurba_marseille","lat":43.23155,"lon":5.43719,"is_reserved":false,"is_disabled":false,"rental_uris":{"android":"levelo://app?vid=ef4ee8b7-3258-4aad-a3f8-62940ae3f55f","ios":"levelo://app?vid=ef4ee8b7-3258-4aad-a3f8-62940ae3f55f"},"vehicle_type_id":"4","last_reported":1758798543,"current_range_meters":20000,"station_id":"ce4bhmp2rcd13ifvqgog","pricing_plan_id":"cebpf4jnsgd1na2vs0mg"},{"bike_id":"cc1b766d-7a66-4717-9955-e5ea9f76c1b8","system_id":"levelo_inurba_marseille","lat":43.33772,"lon":5.3743,"is_reserved":false,"is_disabled":false,"rental_uris":{"android":"levelo://app?vid=cc1b766d-7a66-4717-9955-e5ea9f76c1b8","ios":"levelo://app?vid=cc1b766d-7a66-4717-9955-e5ea9f76c1b8"},"vehicle_type_id":"4","last_reported":1758798543,"current_range_meters":20000,"station_id":"","pricing_plan_id":"cebpf4jnsgd1na2vs0mg"},{"bike_id":"5c095b09-59fe-44f3-8c6b-fc550f9b94de","system_id":"levelo_inurba_marseille","lat":43.30933,"lon":5.40145,"is_reserved":false,"is_disabled":false,"rental_uris":{"android":"levelo://app?vid=5c095b09-59fe-44f3-8c6b-fc550f9b94de","ios":"levelo://app?vid=5c095b09-59fe-44f3-8c6b-fc550f9b94de"},