{"last_updated":1726499362,"ttl":30,"version":"2.2","data":{"bikes":[{"bike_id":"9117cb7a-60bd-44af-9883-9e57d72bdf22","system_id":"levelo_inurba_marseille","lat":43.26943,"lon":5.40256,"is_reserved":false,"is_disabled":false,"rental_uris":{"android":"levelo://app?vid=9117cb7a-60bd-44af-9883-9e57d72bdf22","ios":"levelo://app?vid=9117cb7a-60bd-44af-9883-9e57d72bdf22"},"vehicle_type_id":"4","last_reported":1726499362,"current_range_meters":28000,"station_id":"cjm6bp8fraef2m0cb0m0","pricing_plan_id":"cebpf4jnsgd1na2vs0mg"},{"bike_id":"43176770-eaee-4996-86c7-d408161e4ce6","system_id":"levelo_inurba_marseille","lat":43.29903,"lon":5.43658,"is_reserved":false,"is_disabled":false,"rental_uris":{"android":"levelo://app?vid=43176770-eaee-4996-86c7-d408161e4ce6","ios":"levelo://app?vid=43176770-eaee-4996-86c7-d408161e4ce6"},"vehicle_type_id":"4","last_reported":1726499362,"current_range_meters":10000,"station_id":"ce4bhpp2rcd13ifvqhfg","pricing_plan_id":"cebpf4jnsgd1na2vs0mg"},{"bike_id":"7e74ccf1-6e94-422c-bb3a-8867c576e37a","system_id":"levelo_inurba_marseille","lat":43.22931,"lon":5.35374,"is_reserved":false,"is_disabled":false,"rental_uris":{"android":"levelo://app?vid=7e74ccf1-6e94-422c-bb3a-8867c576e37a","ios":"levelo://app?vid=7e74ccf1-6e94-422c-bb3a-8867c576e37a"},"vehicle_type_id":"4","last_reported":1726499362,"current_range_meters":25200,"station_id":"cpo3532slgdg3j2ikp40","pricing_plan_id":"cebpf4jnsgd1na2vs0mg"},{"bike_id":"253d1e55-6b14-4b19-a1ba-1940e8d838ab","system_id":"levelo_inurba_marseille","lat":43.29192,"lon":5.39306,"is_reserved":false,"is_disabled":false,"rental_uris":{"android":"levelo://app?vid=253d1e55-6b14-4b19-a1ba-1940e8d838ab","ios":"levelo://app?vid=253d1e55-6b14-4b19-a1ba-1940e8d838ab"},"vehicle_type_id":"4","last_reported":1726499362,"current_range_meters":38800,"station_id":"ce4bh192rcd13ifvqdd0","pricing_plan_id":"cebpf4jnsgd1na2vs0mg"},{"bike_id":"9b6d7f52-af36-4e13-b3e4-bf7557e9e324","system_id":"levelo_inurba_marseille","lat":43.32001,"lon":5.38152,"is_reserved":false,"is_disabled":false,"rental_uris":{"android":"levelo://app?vid=9b6d7f52-af36-4e13-b3e4-bf7557e9e324","ios":"levelo://app?vid=9b6d7f52-af36-4e13-b3e4-bf7557e9e324"},"vehicle_type_id":"4","last_reported":1726499362,"current_range_meters":34800,"station_id":"ce4bhr12rcd13ifvqhpg","pricing_plan_id":"cebpf4jnsgd1na2vs0mg"},{"bike_id":"2cfc69a0-d217-4f27-8224-6ff4110ade51","system_id":"levelo_inurba_marseille","lat":43.25867,"lon":5.39895,"is_reserved":false,"is_disabled":false,"rental_uris":{"android":"levelo://app?vid=2cfc69a0-d217-4f27-8224-6ff4110ade51","ios":"levelo://app?vid=2cfc69a0-d217-4f27-8224-6ff4110ade51"},"vehicle_type_id":"4","last_reported":1726499362,"current_range_meters":4000,"station_id":"ce4bhl92rcd13ifvqghg","pricing_plan_id":"cebpf4jnsgd1na2vs0mg"},{"bike_id":"13ec4916-f0ea-4897-8afc-596425b42c42","system_id":"levelo_inurba_marseille","lat":43.23197,"lon":5.35557,"is_reserved":false,"is_disabled":false,"rental_uris":{"android":"levelo://app?vid=13ec4916-f0ea-4897-8afc-596425b42c42","ios":"levelo://app?vid=13ec4916-f0ea-4897-8afc-596425b42c42"},"vehicle_type_id":"4","last_reported":1726499362,"current_range_meters":15200,"station_id":"ce4bhu92rcd13ifvqi70","pricing_plan_id":"cebpf4jnsgd1na2vs0mg"},{"bike_id":"76c2ad49-6301-48ff-bc82-807c296aea33","system_id":"levelo_inurba_marseille","lat":43.33025,"lon":5.39045,"is_reserved":false,"is_disabled":false,"rental_uris":{"android":"levelo://app?vid=76c2ad49-6301-48ff-bc82-807c296aea33","ios":"levelo://app?vid=76c2ad49-6301-48ff-bc82-807c296aea33"},"vehicle_type_id":"4","last_reported":1726499362,"current_range_meters":4400,"station_id":"ce4bhr92rcd13ifvqhrg","pricing_plan_id":"cebpf4jnsgd1na2vs0mg"},{"bike_id":"a5d028f3-e5ca-44bc-9f9e-717afb6f4795","system_id":"levelo_inurba_marseille","lat":43.33035,"lon":5.39049,"is_reserved":false,"is_disabled":false,"rental_uris":{"android":"levelo://app?vid=a5d028f3-e5ca-44bc-9f9e-717afb6f4795","ios":"levelo://app?vid=a5d028f3-e5ca-44bc-9f9e-717afb6f4795"},"vehicle_type_id":"4","last_reported":1726499362,"current_range_meters":23200,"station_id":"ce4bhr92rcd13ifvqhrg","pricing_plan_id":"cebpf4jnsgd1na2vs0mg"},{"bike_id":"e021079d-4326-414d-864f-0fd36d28089b","system_id":"levelo_inurba_marseille","lat":43.246613,"lon":5.381593,"is_reserved":false,"is_disabled":false,"rental_uris":{"android":"levelo://app?vid=e021079d-4326-414d-864f-0fd36d28089b","ios":"levelo://app?vid=e021079d-4326-414d-864f-0fd36d28089b"},"vehicle_type_id":"4","last_reported":1726499362,"current_range_meters":35600,"station_id":"ce4bhih2rcd13ifvqfr0","pricing_plan_id":"cebpf4jnsgd1na2vs0mg"},{"bike_id":"74c67d55-8a5f-40c9-8066-d68354718f8c","system_id":"levelo_inurba_marseille","lat":43.23196,"lon":5.35547,"is_reserved":false,"is_disabled":false,"rental_uris":{"android":"levelo://app?vid=74c67d55-8a5f-40c9-8066-d68354718f8c","ios":"levelo://app?vid=74c67d55-8a5f-40c9-8066-d68354718f8c"},"vehicle_type_id":"4","last_reported":1726499362,"current_range_meters":12400,"station_id":"ce4bhu92rcd13ifvqi70","pricing_plan_id":"cebpf4jnsgd1na2vs0mg"},{"bike_id":"f05d84f1-db17-4921-a353-e31d06725ec7","system_id":"levelo_inurba_marseille","lat":43.28264,"lon":5.35055,"is_reserved":false,"is_disabled":false,"rental_uris":{"android":"levelo://app?vid=f05d84f1-db17-4921-a353-e31d06725ec7","ios":"levelo://app?vid=f05d84f1-db17-4921-a353-e31d06725ec7"},"vehicle_type_id":"4","last_reported":1726499362,"current_range_meters":32400,"station_id":"ce4bhbp2rcd13ifvqerg","pricing_plan_id":"cebpf4jnsgd1na2vs0mg"},{"bike_id":"997c52bc-8b12-44b3-92dd-956cacb4d3a6","system_id":"levelo_inurba_marseille","lat":43.30432,"lon":5.38876,"is_reserved":false,"is_disabled":false,"rental_uris":{"android":"levelo://app?vid=997c52bc-8b12-44b3-92dd-956cacb4d3a6","ios":"levelo://app?vid=997c52bc-8b12-44b3-92dd-956cacb4d3a6"},"vehicle_type_id":"4","last_reported":1726499362,"current_range_meters":10000,"station_id":"ce4bgk12rcd13ifvqbi0","pricing_plan_id":"cebpf4jnsgd1na2vs0mg"},{"bike_id":"f4fc0b87-1f02-4805-98ca-f2187fca17da","system_id":"levelo_inurba_marseille","lat":43.28264,"lon":5.35067,"is_reserved":false,"is_disabled":false,"rental_uris":{"android":"levelo://app?vid=f4fc0b87-1f02-4805-98ca-f2187fca17da","ios":"levelo://app?vid=f4fc0b87-1f02-4805-98ca-f2187fca17da"},"vehicle_type_id":"4","last_reported":1726499362,"current_range_meters":33200,"station_id":"ce4bhbp2rcd13ifvqerg","pricing_plan_id":"cebpf4jnsgd1na2vs0mg"},{"bike_id":"eaf9baad-61d3-4fce-a9d9-6b2674930f77","system_id":"levelo_inurba_marseille","lat":43.30134,"lon":5.3985,"is_reserved":false,"is_disabled":false,"rental_uris":{"android":"levelo://app?vid=eaf9baad-61d3-4fce-a9d9-6b2674930f77","ios":"levelo://app?vid=eaf9baad-61d3-4fce-a9d9-6b2674930f77"},"vehicle_type_id":"4","last_reported":1726499362,"current_range_meters":38400,"station_id":"ce4bh0h2rcd13ifvqd40","pricing_plan_id":"cebpf4jnsgd1na2vs0mg"},{"bike_id":"0b38f715-14f9-4245-9df2-8de72bef48c0","system_id":"levelo_inurba_marseille","lat":43.29846,"lon":5.36272,"is_reserved":false,"is_disabled":false,"rental_uris":{"android":"levelo://app?vid=0b38f715-14f9-4245-9df2-8de72bef48c0","ios":"levelo://app?vid=0b38f715-14f9-4245-9df2-8de72bef48c0"},"vehicle_type_id":"4","last_reported":1726499362,"current_range_meters":28000,"station_id":"ce4bgpp2rcd13ifvqc3g","pricing_plan_id":"cebpf4jnsgd1na2vs0mg"},{"bike_id":"c5d0b44f-0985-4993-925f-38e66a993a95","system_id":"levelo_inurba_marseille","lat":43.28716,"lon":5.39995,"is_reserved":false,"is_disabled":false,"rental_uris":{"android":"levelo://app?vid=c5d0b44f-0985-4993-925f-38e66a993a95","ios":"levelo://app?vid=c5d0b44f-0985-4993-925f-38e66a993a95"},"vehicle_type_id":"4","last_reported":1726499362,"current_range_meters":8400,"station_id":"","pricing_plan_id":"cebpf4jnsgd1na2vs0mg"},{"bike_id":"1ed8a0b3-92f7-4363-9b00-2fe39ac7defb","system_id":"levelo_inurba_marseille","lat":43.2985,"lon":5.36278,"is_reserved":false,"is_disabled":false,"rental_uris":{"android":"levelo://app?vid=1ed8a0b3-92f7-4363-9b00-2fe39ac7defb","ios":"levelo://app?vid=1ed8a0b3-92f7-4363-9b00-2fe39ac7defb"},"vehicle_type_id":"4","last_reported":1726499362,"current_range_meters":39200,"station_id":"ce4bgpp2rcd13ifvqc3g","pricing_plan_id":"cebpf4jnsgd1na2vs0mg"},{"bike_id":"fd2e4f39-393f-4e9c-89fa-5165fdfb4d6d","system_id":"levelo_inurba_marseille","lat":43.30564,"lon":5.36536,"is_reserved":false,"is_disabled":false,"rental_uris":{"android":"levelo://app?vid=fd2e4f39-393f-4e9c-89fa-5165fdfb4d6d","ios":"levelo://app?vid=fd2e4f39-393f-4e9c-89fa-5165fdfb4d6d"},"vehicle_type_id":"4","last_reported":1726499362,"current_range_meters":34000,"station_id":"ce4bgs12rcd13ifvqcag","pricing_plan_id":"cebpf4jnsgd1na2vs0mg"},{"bike_id":"ab3c48ba-0c28-42ca-8161-20180a1f8c49","system_id":"levelo_inurba_marseille","lat":43.31534,"lon":5.38021,"is_reserved":false,"is_disabled":false,"rental_uris":{"android":"levelo://app?vid=ab3c48ba-0c28-42ca-8161-20180a1f8c49","ios":"levelo://app?vid=ab3c48ba-0c28-42ca-8161-20180a1f8c49"},"vehicle_type_id":"4","last_reported":1726499362,"current_range_meters":30400,"station_id":"ce4bhsp2rcd13ifvqi50","pricing_plan_id":"cebpf4jnsgd1na2vs0mg"},{"bike_id":"e75bdf37-6017-4dd9-8183-f2edc970ca06","system_id":"levelo_inurba_marseille","lat":43.23198,"lon":5.35548,"is_reserved":false,"is_disabled":false,"rental_uris":{"android":"levelo://app?vid=e75bdf37-6017-4dd9-8183-f2edc970ca06","ios":"levelo://app?vid=e75bdf37-6017-4dd9-8183-f2edc970ca06"},"vehicle_type_id":"4","last_reported":1726499362,"current_range_meters":35600,"station_id":"ce4bhu92rcd13ifvqi70","pricing_plan_id":"cebpf4jnsgd1na2vs0mg"},{"bike_id":"bee59858-1574-4182-a80b-41b3fb413179","system_id":"levelo_inurba_marseille","lat":43.267308,"lon":5.380877,"is_reserved":false,"is_disabled":false,"rental_uris":{"android":"levelo://app?vid=bee59858-1574-4182-a80b-41b3fb413179","ios":"levelo://app?vid=bee59858-1574-4182-a80b-41b3fb413179"},"vehicle_type_id":"4","last_reported":1726499362,"current_range_meters":7200,"station_id":"ce4bhjp2rcd13ifvqg90","pricing_plan_id":"cebpf4jnsgd1na2vs0mg"},{"bike_id":"8fb15b3d-4701-43e1-b495-e9d800eef3ff","system_id":"levelo_inurba_marseille","lat":43.276177,"lon":5.361044,"is_reserved":false,"is_disabled":false,"rental_uris":{"android":"levelo://app?vid=8fb15b3d-4701-43e1-b495-e9d800eef3ff","ios":"levelo://app?vid=8fb15b3d-4701-43e1-b495-e9d800eef3ff"},"vehicle_type_id":"4","last_reported":1726499362,"current_range_meters":10800,"station_id":"ce4bgj92rcd13ifvqbe0","pricing_plan_id":"cebpf4jnsgd1na2vs0mg"},{"bike_id":"089658cd-5a67-463d-bd1c-1d1732c4e6ba","system_id":"levelo_inurba_marseille","lat":43.29263,"lon":5.38431,"is_reserved":false,"is_disabled":false,"rental_uris":{"android":"levelo://app?vid=089658cd-5a67-463d-bd1c-1d1732c4e6ba","ios":"levelo://app?vid=089658cd-5a67-463d-bd1c-1d1732c4e6ba"},"vehicle_type_id":"4","last_reported":1726499362,"current_range_meters":31200,"station_id":"ce4bh692rcd13ifvqea0","pricing_plan_id":"cebpf4jnsgd1na2vs0mg"},{"bike_id":"b7e577f2-e522-472d-8d4c-d26793fc34ca","system_id":"levelo_inurba_marseille","lat":43.28084,"lon":5.39649,"is_reserved":false,"is_disabled":false,"rental_uris":{"android":"levelo://app?vid=b7e577f2-e522-472d-8d4c-d26793fc34ca","ios":"levelo://app?vid=b7e577f2-e522-472d-8d4c-d26793fc34ca"},"vehicle_type_id":"4","last_reported":1726499362,"current_range_meters":39200,"station_id":"ce4bho12rcd13ifvqh2g","pricing_plan_id":"cebpf4jnsgd1na2vs0mg"},{"bike_id":"877bffbf-ffb5-4a85-9021-eedf25e2cbe4","system_id":"levelo_inurba_marseille","lat":43.29302,"lon":5.37175,"is_reserved":false,"is_disabled":false,"rental_uris":{"android":"levelo://app?vid=877bffbf-ffb5-4a85-9021-eedf25e2cbe4","ios":"levelo://app?vid=877bffbf-ffb5-4a85-9021-eedf25e2cbe4"},"vehicle_type_id":"4","last_reported":1726499362,"current_range_meters":28000,"station_id":"ce4bgh92rcd13ifvqb40","pricing_plan_id":"cebpf4jnsgd1na2vs0mg"},{"bike_id":"101abf70-fb94-4484-b738-084265e385f6","system_id":"levelo_inurba_marseille","lat":43.295292,"lon":5.385869,"is_reserved":false,"is_disabled":false,"rental_uris":{"android":"levelo://app?vid=101abf70-fb94-4484-b738-084265e385f6","ios":"levelo://app?vid=101abf70-fb94-4484-b738-084265e385f6"},"vehicle_type_id":"4","last_reported":1726499362,"current_range_meters":4000,"station_id":"ce4bgih2rcd13ifvqba0","pricing_plan_id":"cebpf4jnsgd1na2vs0mg"},{"bike_id":"1ae9355b-25dd-43aa-82ff-3ba3b84a9f7c","system_id":"levelo_inurba_marseille","lat":43.28137,"lon":5.42647,"is_reserved":false,"is_disabled":false,"rental_uris":{"android":"levelo://app?vid=1ae9355b-25dd-43aa-82ff-3ba3b84a9f7c","ios":"levelo://app?vid=1ae9355b-25dd-43aa-82ff-3ba3b84a9f7c"},"vehicle_type_id":"4","last_reported":1726499362,"current_range_meters":24000,"station_id":"","pricing_plan_id":"cebpf4jnsgd1na2vs0mg"},{"bike_id":"e4a1b549-875e-4cca-9f4f-fd62728d0e86","system_id":"levelo_inurba_marseille","lat":43.3266,"lon":5.40984,"is_reserved":false,"is_disabled":false,"rental_uris":{"android":"levelo://app?vid=e4a1b549-875e-4cca-9f4f-fd62728d0e86","ios":"levelo://app?vid=e4a1b549-875e-4cca-9f4f-fd62728d0e86"},"vehicle_type_id":"4","last_reported":1726499362,"current_range_meters":28800,"station_id":"ce4bhpp2rcd13ifvqhgg","pricing_plan_id":"cebpf4jnsgd1na2vs0mg"},{"bike_id":"b9698a86-1ec3-4eed-ac6f-4fc5121a02f0","system_id":"levelo_inurba_marseille","lat":43.30548,"lon":5.36687,"is_reserved":false,"is_disabled":false,"rental_uris":{"android":"levelo://app?vid=b9698a86-1ec3-4eed-ac6f-4fc5121a02f0","ios":"levelo://app?vid=b9698a86-1ec3-4eed-ac6f-4fc5121a02f0"},"vehicle_type_id":"4","last_reported":1726499362,"current_range_meters":38800,"station_id":"ce4bgrp2rcd13ifvqc9g","pricing_plan_id":"cebpf4jnsgd1na2vs0mg"},{"bike_id":"77921fff-47b8-4c11-ab9a-82043db767f9","system_id":"levelo_inurba_marseille","lat":43.28578,"lon":5.39487,"is_reserved":false,"is_disabled":false,"rental_uris":{"android":"levelo://app?vid=77921fff-47b8-4c11-ab9a-82043db767f9","ios":"levelo://app?vid=77921fff-47b8-4c11-ab9a-82043db767f9"},"vehicle_type_id":"4","last_reported":1726499362,"current_range_meters":20400,"station_id":"ce4bh292rcd13ifvqdg0","pricing_plan_id":"cebpf4jnsgd1na2vs0mg"},{"bike_id":"34a4f91d-0c77-4f98-9145-df81bcebfdf7","system_id":"levelo_inurba_marseille","lat":43.23185,"lon":5.3998,"is_reserved":false,"is_disabled":false,"rental_uris":{"android":"levelo://app?vid=34a4f91d-0c77-4f98-9145-df81bcebfdf7","ios":"levelo://app?vid=34a4f91d-0c77-4f98-9145-df81bcebfdf7"},"vehicle_type_id":"4","last_reported":1726499362,"current_range_meters":17200,"station_id":"ce4bhn12rcd13ifvqgqg","pricing_plan_id":"cebpf4jnsgd1na2vs0mg"},{"bike_id":"f409a27c-3291-4d9b-ac57-9e74e75d80d1","system_id":"levelo_inurba_marseille","lat":43.32367,"lon":5.38881,"is_reserved":false,"is_disabled":false,"rental_uris":{"android":"levelo://app?vid=f409a27c-3291-4d9b-ac57-9e74e75d80d1","ios":"levelo://app?vid=f409a27c-3291-4d9b-ac57-9e74e75d80d1"},"vehicle_type_id":"4","last_reported":1726499362,"current_range_meters":20000,"station_id":"ce4bhqp2rcd13ifvqhog","pricing_plan_id":"cebpf4jnsgd1na2vs0mg"},{"bike_id":"7daac3b8-754e-41ac-a80c-c47f4a5f2213","system_id":"levelo_inurba_marseille","lat":43.31163,"lon":5.38724,"is_reserved":false,"is_disabled":false,"rental_uris":{"android":"levelo://app?vid=7daac3b8-754e-41ac-a80c-c47f4a5f2213","ios":"levelo://app?vid=7daac3b8-754e-41ac-a80c-c47f4a5f2213"},"vehicle_type_id":"4","last_reported":1726499362,"current_range_meters":17600,"station_id":"ce4bgv12rcd13ifvqcp0","pricing_plan_id":"cebpf4jnsgd1na2vs0mg"},{"bike_id":"a7649358-7b1e-4e20-b463-599f4ff8067d","system_id":"levelo_inurba_marseille","lat":43.25017,"lon":5.38908,"is_reserved":false,"is_disabled":false,"rental_uris":{"android":"levelo://app?vid=a7649358-7b1e-4e20-b463-599f4ff8067d","ios":"levelo://app?vid=a7649358-7b1e-4e20-b463-599f4ff8067d"},"vehicle_type_id":"4","last_reported":1726499362,"current_range_meters":34800,"station_id":"ce4bhgp2rcd13ifvqfd0","pricing_plan_id":"cebpf4jnsgd1na2vs0mg"},{"bike_id":"2ecef6a8-eb6f-44a5-99a4-1a36bc346834","system_id":"levelo_inurba_marseille","lat":43.29792,"lon":5.38104,"is_reserved":false,"is_disabled":false,"rental_uris":{"android":"levelo://app?vid=2ecef6a8-eb6f-44a5-99a4-1a36bc346834","ios":"levelo://app?vid=2ecef6a8-eb6f-44a5-99a4-1a36bc346834"},"vehicle_type_id":"4","last_reported":1726499362,"current_range_meters":13600,"station_id":"ce4bgip2rcd13ifvqbb0","pricing_plan_id":"cebpf4jnsgd1na2vs0mg"},{"bike_id":"2d420047-0b72-4c41-bb96-2fec0fa65cd9","system_id":"levelo_inurba_marseille","lat":43.29995,"lon":5.36576,"is_reserved":false,"is_disabled":false,"rental_uris":{"android":"levelo://app?vid=2d420047-0b72-4c41-bb96-2fec0fa65cd9","ios":"levelo://app?vid=2d420047-0b72-4c41-bb96-2fec0fa65cd9"},"vehicle_type_id":"4","last_reported":1726499362,"current_range_meters":26800,"station_id":"ce4bgrh2rcd13ifvqc8g","pricing_plan_id":"cebpf4jnsgd1na2vs0mg"},{"bike_id":"1c8f6216-9365-413e-ade4-d5a433c001f3","system_id":"levelo_inurba_marseille","lat":43.30117,"lon":5.39857,"is_reserved":false,"is_disabled":false,"rental_uris":{"android":"levelo://app?vid=1c8f6216-9365-413e-ade4-d5a433c001f3","ios":"levelo://app?vid=1c8f6216-9365-413e-ade4-d5a433c001f3"},"vehicle_type_id":"4","last_reported":1726499362,"current_range_meters":3600,"station_id":"ce4bh0h2rcd13ifvqd40","pricing_plan_id":"cebpf4jnsgd1na2vs0mg"},{"bike_id":"c7f93bf2-2b30-4c5c-aa72-447b3f4a28ea","system_id":"levelo_inurba_marseille","lat":43.29899,"lon":5.43658,"is_reserved":false,"is_disabled":false,"rental_uris":{"android":"levelo://app?vid=c7f93bf2-2b30-4c5c-aa72-447b3f4a28ea","ios":"levelo://app?vid=c7f93bf2-2b30-4c5c-aa72-447b3f4a28ea"},"vehicle_type_id":"4","last_reported":1726499362,"current_range_meters":14400,"station_id":"ce4bhpp2rcd13ifvqhfg","pricing_plan_id":"cebpf4jnsgd1na2vs0mg"},{"bike_id":"270b28ed-d0f1-460e-8d4b-2d9861c5289f","system_id":"levelo_inurba_marseille","lat":43.307268,"lon":5.381686,"is_reserved":false,"is_disabled":false,"rental_uris":{"android":"levelo://app?vid=270b28ed-d0f1-460e-8d4b-2d9861c5289f","ios":"levelo://app?vid=270b28ed-d0f1-460e-8d4b-2d9861c5289f"},"vehicle_type_id":"4","last_reported":1726499362,"current_range_meters":2000,"station_id":"ce4bgt12rcd13ifvqce0","pricing_plan_id":"cebpf4jnsgd1na2vs0mg"},{"bike_id":"6f7a57ac-26ac-490c-9c74-037a5056136a","system_id":"levelo_inurba_marseille","lat":43.282641,"lon":5.350625,"is_reserved":false,"is_disabled":false,"rental_uris":{"android":"levelo://app?vid=6f7a57ac-26ac-490c-9c74-037a5056136a","ios":"levelo://app?vid=6f7a57ac-26ac-490c-9c74-037a5056136a"},"vehicle_type_id":"4","last_reported":1726499362,"current_range_meters":8000,"station_id":"ce4bhbp2rcd13ifvqerg","pricing_plan_id":"cebpf4jnsgd1na2vs0mg"},{"bike_id":"0587dac1-d433-4fde-ac82-5f95d0df58bb","system_id":"levelo_inurba_marseille","lat":43.28414,"lon":5.34982,"is_reserved":false,"is_disabled":false,"rental_uris":{"android":"levelo://app?vid=0587dac1-d433-4fde-ac82-5f95d0df58bb","ios":"levelo://app?vid=0587dac1-d433-4fde-ac82-5f95d0df58bb"},"vehicle_type_id":"4","last_reported":1726499362,"current_range_meters":30000,"station_id":"ce4bhbh2rcd13ifvqepg","pricing_plan_id":"cebpf4jnsgd1na2vs0mg"},{"bike_id":"1bf1b9e2-eb6f-4206-9dd4-ba751e0b3fb5","system_id":"levelo_inurba_marseille","lat":43.28625,"lon":5.35106,"is_reserved":false,"is_disabled":false,"rental_uris":{"android":"levelo://app?vid=1bf1b9e2-eb6f-4206-9dd4-ba751e0b3fb5","ios":"levelo://app?vid=1bf1b9e2-eb6f-4206-9dd4-ba751e0b3fb5"},"vehicle_type_id":"4","last_reported":1726499362,"current_range_meters":16400,"station_id":"ce4bhch2rcd13ifvqeug","pricing_plan_id":"cebpf4jnsgd1na2vs0mg"},{"bike_id":"26db0265-0a91-4c66-8aa8-67a94f7eef0d","system_id":"levelo_inurba_marseille","lat":43.26932,"lon":5.4006,"is_reserved":false,"is_disabled":false,"rental_uris":{"android":"levelo://app?vid=26db0265-0a91-4c66-8aa8-67a94f7eef0d","ios":"levelo://app?vid=26db0265-0a91-4c66-8aa8-67a94f7eef0d"},"vehicle_type_id":"4","last_reported":1726499362,"current_range_meters":3600,"station_id":"","pricing_plan_id":"cebpf4jnsgd1na2vs0mg"},{"bike_id":"314cb5f0-a7b4-4b2b-918b-06a5b6094ab2","system_id":"levelo_inurba_marseille","lat":43.3013,"lon":5.39873,"is_reserved":false,"is_disabled":false,"rental_uris":{"android":"levelo://app?vid=314cb5f0-a7b4-4b2b-918b-06a5b6094ab2","ios":"levelo://app?vid=314cb5f0-a7b4-4b2b-918b-06a5b6094ab2"},"vehicle_type_id":"4","last_reported":1726499362,"current_range_meters":24000,"station_id":"ce4bh0h2rcd13ifvqd40","pricing_plan_id":"cebpf4jnsgd1na2vs0mg"},{"bike_id":"58b9a728-81cd-4bfd-badc-a23312c16bff","system_id":"levelo_inurba_marseille","lat":43.28462,"lon":5.35885,"is_reserved":false,"is_disabled":false,"rental_uris":{"android":"levelo://app?vid=58b9a728-81cd-4bfd-badc-a23312c16bff","ios":"levelo://app?vid=58b9a728-81cd-4bfd-badc-a23312c16bff"},"vehicle_type_id":"4","last_reported":1726499362,"current_range_meters":38800,"station_id":"ce4bhah2rcd13ifvqei0","pricing_plan_id":"cebpf4jnsgd1na2vs0mg"},{"bike_id":"e78b8bda-4f44-4867-8a63-a906cf5b95ea","system_id":"levelo_inurba_marseille","lat":43.30929,"lon":5.40148,"is_reserved":false,"is_disabled":false,"rental_uris":{"android":"levelo://app?vid=e78b8bda-4f44-4867-8a63-a906cf5b95ea","ios":"levelo://app?vid=e78b8bda-4f44-4867-8a63-a906cf5b95ea"},"vehicle_type_id":"4","last_reported":1726499362,"current_range_meters":2800,"station_id":"ce4bgvp2rcd13ifvqct0","pricing_plan_id":"cebpf4jnsgd1na2vs0mg"},{"bike_id":"52b9eebc-b7db-421e-b196-46301bed711a","system_id":"levelo_inurba_marseille","lat":43.284119,"lon":5.349792,"is_reserved":false,"is_disabled":false,"rental_uris":{"android":"levelo://app?vid=52b9eebc-b7db-421e-b196-46301bed711a","ios":"levelo://app?vid=52b9eebc-b7db-421e-b196-46301bed711a"},"vehicle_type_id":"4","last_reported":1726499362,"current_range_meters":22400,"station_id":"ce4bhbh2rcd13ifvqepg","pricing_plan_id":"cebpf4jnsgd1na2vs0mg"},{"bike_id":"7e34d840-6365-4a94-9c21-26783ae1d2df","system_id":"levelo_inurba_marseille","lat":43.29592,"lon":5.3822,"is_reserved":false,"is_disabled":false,"rental_uris":{"android":"levelo://app?vid=7e34d840-6365-4a94-9c21-26783ae1d2df","ios":"levelo://app?vid=7e34d840-6365-4a94-9c21-26783ae1d2df"},"vehicle_type_id":"4","last_reported":1726499362,"current_range_meters":30400,"station_id":"","pricing_plan_id":"cebpf4jnsgd1na2vs0mg"},{"bike_id":"51c4a454-7115-49d9-84e9-30bcdaa7214e","system_id":"levelo_inurba_marseille","lat":43.27914,"lon":5.38005,"is_reserved":false,"is_disabled":false,"rental_uris":{"android":"levelo://app?vid=51c4a454-7115-49d9-84e9-30bcdaa7214e","ios":"levelo://app?vid=51c4a454-7115-49d9-84e9-30bcdaa7214e"},"vehicle_type_id":"4","last_reported":1726499362,"current_range_meters":21600,"station_id":"ce4bhf92rcd13ifvqf50","pricing_plan_id":"cebpf4jnsgd1na2vs0mg"},{"bike_id":"4153cc51-d4e8-4e56-a8fd-c1a04ecf3fa7","system_id":"levelo_inurba_marseille","lat":43.29968,"lon":5.41329,"is_reserved":false,"is_disabled":false,"rental_uris":{"android":"levelo://app?vid=4153cc51-d4e8-4e56-a8fd-c1a04ecf3fa7","ios":"levelo://app?vid=4153cc51-d4e8-4e56-a8fd-c1a04ecf3fa7"},"vehicle_type_id":"4","last_reported":1726499362,"current_range_meters":34000,"station_id":"ce4bhp12rcd13ifvqh9g","pricing_plan_id":"cebpf4jnsgd1na2vs0mg"},{"bike_id":"704bd4ff-c6ae-4fcf-a83a-81202466c629","system_id":"levelo_inurba_marseille","lat":43.29966,"lon":5.41318,"is_reserved":false,"is_disabled":false,"rental_uris":{"android":"levelo://app?vid=704bd4ff-c6ae-4fcf-a83a-81202466c629","ios":"levelo://app?vid=704bd4ff-c6ae-4fcf-a83a-81202466c629"},"vehicle_type_id":"4","last_reported":1726499362,"current_range_meters":18800,"station_id":"ce4bhp12rcd13ifvqh9g","pricing_plan_id":"cebpf4jnsgd1na2vs0mg"},{"bike_id":"a0a59972-ab9b-4324-a599-fd24f9c8b87f","system_id":"levelo_inurba_marseille","lat":43.301239,"lon":5.398654,"is_reserved":false,"is_disabled":false,"rental_uris":{"android":"levelo://app?vid=a0a59972-ab9b-4324-a599-fd24f9c8b87f","ios":"levelo://app?vid=a0a59972-ab9b-4324-a599-fd24f9c8b87f"},"vehicle_type_id":"4","last_reported":1726499362,"current_range_meters":19600,"station_id":"ce4bh0h2rcd13ifvqd40","pricing_plan_id":"cebpf4jnsgd1na2vs0mg"},{"bike_id":"8cb592d9-f82f-4171-894f-8d7ffa6525e5","system_id":"levelo_inurba_marseille","lat":43.23196,"lon":5.35542,"is_reserved":false,"is_disabled":false,"rental_uris":{"android":"levelo://app?vid=8cb592d9-f82f-4171-894f-8d7ffa6525e5","ios":"levelo://app?vid=8cb592d9-f82f-4171-894f-8d7ffa6525e5"},"vehicle_type_id":"4","last_reported":1726499362,"current_range_meters":24800,"station_id":"ce4bhu92rcd13ifvqi70","pricing_plan_id":"cebpf4jnsgd1na2vs0mg"},{"bike_id":"471db4d4-4da6-4b10-81f2-7efe8673895e","system_id":"levelo_inurba_marseille","lat":43.29535,"lon":5.39041,"is_reserved":false,"is_disabled":false,"rental_uris":{"android":"levelo://app?vid=471db4d4-4da6-4b10-81f2-7efe8673895e","ios":"levelo://app?vid=471db4d4-4da6-4b10-81f2-7efe8673895e"},"vehicle_type_id":"4","last_reported":1726499362,"current_range_meters":12000,"station_id":"ce4bh3p2rcd13ifvqdp0","pricing_plan_id":"cebpf4jnsgd1na2vs0mg"},{"bike_id":"e8577ff1-e7d5-4bd8-af09-a820a63b8b50","system_id":"levelo_inurba_marseille","lat":43.33032,"lon":5.39038,"is_reserved":false,"is_disabled":false,"rental_uris":{"android":"levelo://app?vid=e8577ff1-e7d5-4bd8-af09-a820a63b8b50","ios":"levelo://app?vid=e8577ff1-e7d5-4bd8-af09-a820a63b8b50"},"vehicle_type_id":"4","last_reported":1726499362,"current_range_meters":19600,"station_id":"ce4bhr92rcd13ifvqhrg","pricing_plan_id":"cebpf4jnsgd1na2vs0mg"},{"bike_id":"87ef459e-6d4d-42e8-9711-4604cc27d1ce","system_id":"levelo_inurba_marseille","lat":43.337444,"lon":5.374475,"is_reserved":false,"is_disabled":false,"rental_uris":{"android":"levelo://app?vid=87ef459e-6d4d-42e8-9711-4604cc27d1ce","ios":"levelo://app?vid=87ef459e-6d4d-42e8-9711-4604cc27d1ce"},"vehicle_type_id":"4","last_reported":1726499362,"current_range_meters":29600,"station_id":"","pricing_plan_id":"cebpf4jnsgd1na2vs0mg"},{"bike_id":"fc5db9d7-eb8b-48b3-b4ba-c4ed7c78cf7b","system_id":"levelo_inurba_marseille","lat":43.2963,"lon":5.40592,"is_reserved":false,"is_disabled":false,"rental_uris":{"android":"levelo://app?vid=fc5db9d7-eb8b-48b3-b4ba-c4ed7c78cf7b","ios":"levelo://app?vid=fc5db9d7-eb8b-48b3-b4ba-c4ed7c78cf7b"},"vehicle_type_id":"4","last_reported":1726499362,"current_range_meters":6400,"station_id":"ce4bh0h2rcd13ifvqd60","pricing_plan_id":"cebpf4jnsgd1na2vs0mg"},{"bike_id":"23af3e5f-c4dd-433e-9385-25485af76f31","system_id":"levelo_inurba_marseille","lat":43.32482,"lon":5.3656,"is_reserved":false,"is_disabled":false,"rental_uris":{"android":"levelo://app?vid=23af3e5f-c4dd-433e-9385-25485af76f31","ios":"levelo://app?vid=23af3e5f-c4dd-433e-9385-25485af76f31"},"vehicle_type_id":"4","last_reported":1726499362,"current_range_meters":18000,"station_id":"ce4bhs12rcd13ifvqhvg","pricing_plan_id":"cebpf4jnsgd1na2vs0mg"},{"bike_id":"6fcb0470-5b2d-4c1d-8d35-ccfb07e79374","system_id":"levelo_inurba_marseille","lat":43.31333,"lon":5.39691,"is_reserved":false,"is_disabled":false,"rental_uris":{"android":"levelo://app?vid=6fcb0470-5b2d-4c1d-8d35-ccfb07e79374","ios":"levelo://app?vid=6fcb0470-5b2d-4c1d-8d35-ccfb07e79374"},"vehicle_type_id":"4","last_reported":1726499362,"current_range_meters":36800,"station_id":"ce4bgvp2rcd13ifvqcu0","pricing_plan_id":"cebpf4jnsgd1na2vs0mg"},{"bike_id":"e5b041ad-649d-4aa9-9539-d3f562b93cbb","system_id":"levelo_inurba_marseille","lat":43.33027,"lon":5.39041,"is_reserved":false,"is_disabled":false,"rental_uris":{"android":"levelo://app?vid=e5b041ad-649d-4aa9-9539-d3f562b93cbb","ios":"levelo://app?vid=e5b041ad-649d-4aa9-9539-d3f562b93cbb"},"vehicle_type_id":"4","last_reported":1726499362,"current_range_meters":31200,"station_id":"ce4bhr92rcd13ifvqhrg","pricing_plan_id":"cebpf4jnsgd1na2vs0mg"},{"bike_id":"b1db6496-7d7b-4acc-a88c-e5406d38e100","system_id":"levelo_inurba_marseille","lat":43.23198,"lon":5.35544,"is_reserved":false,"is_disabled":false,"rental_uris":{"android":"levelo://app?vid=b1db6496-7d7b-4acc-a88c-e5406d38e100","ios":"levelo://app?vid=b1db6496-7d7b-4acc-a88c-e5406d38e100"},"vehicle_type_id":"4","last_reported":1726499362,"current_range_meters":31200,"station_id":"ce4bhu92rcd13ifvqi70","pricing_plan_id":"cebpf4jnsgd1na2vs0mg"},{"bike_id":"ee721f16-71d0-49c8-9da4-858f78b55bcb","system_id":"levelo_inurba_marseille","lat":43.25944,"lon":5.40894,"is_reserved":false,"is_disabled":false,"rental_uris":{"android":"levelo://app?vid=ee721f16-71d0-49c8-9da4-858f78b55bcb","ios":"levelo://app?vid=ee721f16-71d0-49c8-9da4-858f78b55bcb"},"vehicle_type_id":"4","last_reported":1726499362,"current_range_meters":19600,"station_id":"ce4bhm92rcd13ifvqglg","pricing_plan_id":"cebpf4jnsgd1na2vs0mg"},{"bike_id":"d0e36ba8-691e-414b-b861-7719583dfe2d","system_id":"levelo_inurba_marseille","lat":43.24394,"lon":5.37058,"is_reserved":false,"is_disabled":false,"rental_uris":{"android":"levelo://app?vid=d0e36ba8-691e-414b-b861-7719583dfe2d","ios":"levelo://app?vid=d0e36ba8-691e-414b-b861-7719583dfe2d"},"vehicle_type_id":"4","last_reported":1726499362,"current_range_meters":25200,"station_id":"ce4bhhh2rcd13ifvqfk0","pricing_plan_id":"cebpf4jnsgd1na2vs0mg"},{"bike_id":"5cf4c2f1-f092-4550-b8cf-369099ebc3bc","system_id":"levelo_inurba_marseille","lat":43.24564,"lon":5.41549,"is_reserved":false,"is_disabled":false,"rental_uris":{"android":"levelo://app?vid=5cf4c2f1-f092-4550-b8cf-369099ebc3bc","ios":"levelo://app?vid=5cf4c2f1-f092-4550-b8cf-369099ebc3bc"},"vehicle_type_id":"4","last_reported":1726499362,"current_range_meters":8400,"station_id":"ce4bhlh2rcd13ifvqgig","pricing_plan_id":"cebpf4jnsgd1na2vs0mg"},{"bike_id":"dc46821f-7103-4f71-bb74-35fd35c7deb8","system_id":"levelo_inurba_marseille","lat":43.30649,"lon":5.40099,"is_reserved":false,"is_disabled":false,"rental_uris":{"android":"levelo://app?vid=dc46821f-7103-4f71-bb74-35fd35c7deb8","ios":"levelo://app?vid=dc46821f-7103-4f71-bb74-35fd35c7deb8"},"vehicle_type_id":"4","last_reported":1726499362,"current_range_meters":12000,"station_id":"ce4bh112rcd13ifvqda0","pricing_plan_id":"cebpf4jnsgd1na2vs0mg"},{"bike_id":"b07a4e45-8eec-4bc4-bc59-0e5e5492434d","system_id":"levelo_inurba_marseille","lat":43.28857,"lon":5.35863,"is_reserved":false,"is_disabled":false,"rental_uris":{"android":"levelo://app?vid=b07a4e45-8eec-4bc4-bc59-0e5e5492434d","ios":"levelo://app?vid=b07a4e45-8eec-4bc4-bc59-0e5e5492434d"},"vehicle_type_id":"4","last_reported":1726499362,"current_range_meters":6400,"station_id":"ce4bhb12rcd13ifvqem0","pricing_plan_id":"cebpf4jnsgd1na2vs0mg"},{"bike_id":"5dfdc9ce-42de-4d27-b0c1-926363bcf89b","system_id":"levelo_inurba_marseille","lat":43.266795,"lon":5.382691,"is_reserved":false,"is_disabled":false,"rental_uris":{"android":"levelo://app?vid=5dfdc9ce-42de-4d27-b0c1-926363bcf89b","ios":"levelo://app?vid=5dfdc9ce-42de-4d27-b0c1-926363bcf89b"},"vehicle_type_id":"4","last_reported":1726499362,"current_range_meters":9600,"station_id":"ce4bhhp2rcd13ifvqfm0","pricing_plan_id":"cebpf4jnsgd1na2vs0mg"},{"bike_id":"177999b7-50dc-4cc5-8fcc-1b7a44824e27","system_id":"levelo_inurba_marseille","lat":43.29962,"lon":5.38494,"is_reserved":false,"is_disabled":false,"rental_uris":{"android":"levelo://app?vid=177999b7-50dc-4cc5-8fcc-1b7a44824e27","ios":"levelo://app?vid=177999b7-50dc-4cc5-8fcc-1b7a44824e27"},"vehicle_type_id":"4","last_reported":1726499362,"current_range_meters":20400,"station_id":"ce4bgj92rcd13ifvqbd0","pricing_plan_id":"cebpf4jnsgd1na2vs0mg"},{"bike_id":"223bcd1f-bde5-46f7-ab5f-e5751f9d998e","system_id":"levelo_inurba_marseille","lat":43.3055,"lon":5.36696,"is_reserved":false,"is_disabled":false,"rental_uris":{"android":"levelo://app?vid=223bcd1f-bde5-46f7-ab5f-e5751f9d998e","ios":"levelo://app?vid=223bcd1f-bde5-46f7-ab5f-e5751f9d998e"},"vehicle_type_id":"4","last_reported":1726499362,"current_range_meters":20800,"station_id":"ce4bgrp2rcd13ifvqc9g","pricing_plan_id":"cebpf4jnsgd1na2vs0mg"},{"bike_id":"b08950ba-02a0-46d4-8c68-863f0b3477e8","system_id":"levelo_inurba_marseille","lat":43.32485,"lon":5.36555,"is_reserved":false,"is_disabled":false,"rental_uris":{"android":"levelo://app?vid=b08950ba-02a0-46d4-8c68-863f0b3477e8","ios":"levelo://app?vid=b08950ba-02a0-46d4-8c68-863f0b3477e8"},"vehicle_type_id":"4","last_reported":1726499362,"current_range_meters":36800,"station_id":"ce4bhs12rcd13ifvqhvg","pricing_plan_id":"cebpf4jnsgd1na2vs0mg"},{"bike_id":"b645ac77-0d58-4fa9-8ad3-947af8bdb1d9","system_id":"levelo_inurba_marseille","lat":43.29899,"lon":5.43659,"is_reserved":false,"is_disabled":false,"rental_uris":{"android":"levelo://app?vid=b645ac77-0d58-4fa9-8ad3-947af8bdb1d9","ios":"levelo://app?vid=b645ac77-0d58-4fa9-8ad3-947af8bdb1d9"},"vehicle_type_id":"4","last_reported":1726499362,"current_range_meters":28400,"station_id":"ce4bhpp2rcd13ifvqhfg","pricing_plan_id":"cebpf4jnsgd1na2vs0mg"},{"bike_id":"68c70869-82ea-4ed7-9394-09f2e93a0ddb","system_id":"levelo_inurba_marseille","lat":43.2738,"lon":5.36251,"is_reserved":false,"is_disabled":false,"rental_uris":{"android":"levelo://app?vid=68c70869-82ea-4ed7-9394-09f2e93a0ddb","ios":"levelo://app?vid=68c70869-82ea-4ed7-9394-09f2e93a0ddb"},"vehicle_type_id":"4","last_reported":1726499362,"current_range_meters":10800,"station_id":"ce4bhbh2rcd13ifvqeo0","pricing_plan_id":"cebpf4jnsgd1na2vs0mg"},{"bike_id":"10b7288d-8273-4ccf-9756-7c9913229faf","system_id":"levelo_inurba_marseille","lat":43.30535,"lon":5.36554,"is_reserved":false,"is_disabled":false,"rental_uris":{"android":"levelo://app?vid=10b7288d-8273-4ccf-9756-7c9913229faf","ios":"levelo://app?vid=10b7288d-8273-4ccf-9756-7c9913229faf"},"vehicle_type_id":"4","last_reported":1726499362,"current_range_meters":24800,"station_id":"ce4bgs12rcd13ifvqcag","pricing_plan_id":"cebpf4jnsgd1na2vs0mg"},{"bike_id":"6147d10e-b248-44fa-89d6-9880aa75ed4a","system_id":"levelo_inurba_marseille","lat":43.33726,"lon":5.39175,"is_reserved":false,"is_disabled":false,"rental_uris":{"android":"levelo://app?vid=6147d10e-b248-44fa-89d6-9880aa75ed4a","ios":"levelo://app?vid=6147d10e-b248-44fa-89d6-9880aa75ed4a"},"vehicle_type_id":"4","last_reported":1726499362,"current_range_meters":11200,"station_id":"ce4bhr92rcd13ifvqhsg","pricing_plan_id":"cebpf4jnsgd1na2vs0mg"},{"bike_id":"7abc2a25-404a-4f70-a7c0-c89315b5c4bc","system_id":"levelo_inurba_marseille","lat":43.31009,"lon":5.40056,"is_reserved":false,"is_disabled":false,"rental_uris":{"android":"levelo://app?vid=7abc2a25-404a-4f70-a7c0-c89315b5c4bc","ios":"levelo://app?vid=7abc2a25-404a-4f70-a7c0-c89315b5c4bc"},"vehicle_type_id":"4","last_reported":1726499362,"current_range_meters":26000,"station_id":"","pricing_plan_id":"cebpf4jnsgd1na2vs0mg"},{"bike_id":"81ee7304-68e5-4b14-bd51-4cba9f26c807","system_id":"levelo_inurba_marseille","lat":43.23149,"lon":5.43702,"is_reserved":false,"is_disabled":false,"rental_uris":{"android":"levelo://app?vid=81ee7304-68e5-4b14-bd51-4cba9f26c807","ios":"levelo://app?vid=81ee7304-68e5-4b14-bd51-4cba9f26c807"},"vehicle_type_id":"4","last_reported":1726499362,"current_range_meters":14400,"station_id":"ce4bhmp2rcd13ifvqgog","pricing_plan_id":"cebpf4jnsgd1na2vs0mg"},{"bike_id":"677498c9-746b-4650-9a8e-2c7479635944","system_id":"levelo_inurba_marseille","lat":43.33022,"lon":5.3905,"is_reserved":false,"is_disabled":false,"rental_uris":{"android":"levelo://app?vid=677498c9-746b-4650-9a8e-2c7479635944","ios":"levelo://app?vid=677498c9-746b-4650-9a8e-2c7479635944"},"vehicle_type_id":"4","last_reported":1726499362,"current_range_meters":26800,"station_id":"ce4bhr92rcd13ifvqhrg","pricing_plan_id":"cebpf4jnsgd1na2vs0mg"},{"bike_id":"79516232-4ac8-4bbe-a401-a13d8711199b","system_id":"levelo_inurba_marseille","lat":43.288483,"lon":5.39318,"is_reserved":false,"is_disabled":false,"rental_uris":{"android":"levelo://app?vid=79516232-4ac8-4bbe-a401-a13d8711199b","ios":"levelo://app?vid=79516232-4ac8-4bbe-a401-a13d8711199b"},"vehicle_type_id":"4","last_reported":1726499362,"current_range_meters":14800,"station_id":"ce4bh2p2rcd13ifvqdi0","pricing_plan_id":"cebpf4jnsgd1na2vs0mg"},{"bike_id":"38894744-911e-42cb-9034-5737d38051af","system_id":"levelo_inurba_marseille","lat":43.28266,"lon":5.35059,"is_reserved":false,"is_disabled":false,"rental_uris":{"android":"levelo://app?vid=38894744-911e-42cb-9034-5737d38051af","ios":"levelo://app?vid=38894744-911e-42cb-9034-5737d38051af"},"vehicle_type_id":"4","last_reported":1726499362,"current_range_meters":30800,"station_id":"ce4bhbp2rcd13ifvqerg","pricing_plan_id":"cebpf4jnsgd1na2vs0mg"},{"bike_id":"a09b8657-3298-4390-8dd5-f622909fc3da","system_id":"levelo_inurba_marseille","lat":43.31072,"lon":5.40091,"is_reserved":false,"is_disabled":false,"rental_uris":{"android":"levelo://app?vid=a09b8657-3298-4390-8dd5-f622909fc3da","ios":"levelo://app?vid=a09b8657-3298-4390-8dd5-f622909fc3da"},"vehicle_type_id":"4","last_reported":1726499362,"current_range_meters":38800,"station_id":"","pricing_plan_id":"cebpf4jnsgd1na2vs0mg"},{"bike_id":"7e84a3ad-b6e2-47cb-a879-414e01b71399","system_id":"levelo_inurba_marseille","lat":43.27499,"lon":5.42445,"is_reserved":false,"is_disabled":false,"rental_uris":{"android":"levelo://app?vid=7e84a3ad-b6e2-47cb-a879-414e01b71399","ios":"levelo://app?vid=7e84a3ad-b6e2-47cb-a879-414e01b71399"},"vehicle_type_id":"4","last_reported":1726499362,"current_range_meters":36400,"station_id":"ce4bhn92rcd13ifvqgrg","pricing_plan_id":"cebpf4jnsgd1na2vs0mg"},{"bike_id":"08f5f277-e4ec-486f-aa8e-821bb3e51e66","system_id":"levelo_inurba_marseille","lat":43.26497,"lon":5.39542,"is_reserved":false,"is_disabled":false,"rental_uris":{"android":"levelo://app?vid=08f5f277-e4ec-486f-aa8e-821bb3e51e66","ios":"levelo://app?vid=08f5f277-e4ec-486f-aa8e-821bb3e51e66"},"vehicle_type_id":"4","last_reported":1726499362,"current_range_meters":14000,"station_id":"ce4bhi12rcd13ifvqfq0","pricing_plan_id":"cebpf4jnsgd1na2vs0mg"},{"bike_id":"a17977b7-f5c8-458d-b64e-0e9931d6064c","system_id":"levelo_inurba_marseille","lat":43.25,"lon":5.38929,"is_reserved":false,"is_disabled":false,"rental_uris":{"android":"levelo://app?vid=a17977b7-f5c8-458d-b64e-0e9931d6064c","ios":"levelo://app?vid=a17977b7-f5c8-458d-b64e-0e9931d6064c"},"vehicle_type_id":"4","last_reported":1726499362,"current_range_meters":27200,"station_id":"ce4bhgp2rcd13ifvqfd0","pricing_plan_id":"cebpf4jnsgd1na2vs0mg"},{"bike_id":"dd2d821c-8b24-431f-a2ec-388c48a5aca8","system_id":"levelo_inurba_marseille","lat":43.24668,"lon":5.38168,"is_reserved":false,"is_disabled":false,"rental_uris":{"android":"levelo://app?vid=dd2d821c-8b24-431f-a2ec-388c48a5aca8","ios":"levelo://app?vid=dd2d821c-8b24-431f-a2ec-388c48a5aca8"},"vehicle_type_id":"4","last_reported":1726499362,"current_range_meters":38800,"station_id":"ce4bhih2rcd13ifvqfr0","pricing_plan_id":"cebpf4jnsgd1na2vs0mg"},{"bike_id":"aa293798-7068-4296-a418-7ccf38d6912d","system_id":"levelo_inurba_marseille","lat":43.309537,"lon":5.39031,"is_reserved":false,"is_disabled":false,"rental_uris":{"android":"levelo://app?vid=aa293798-7068-4296-a418-7ccf38d6912d","ios":"levelo://app?vid=aa293798-7068-4296-a418-7ccf38d6912d"},"vehicle_type_id":"4","last_reported":1726499362,"current_range_meters":18800,"station_id":"","pricing_plan_id":"cebpf4jnsgd1na2vs0mg"},{"bike_id":"2b17c26f-d867-445e-b68a-2c6f8b249fd3","system_id":"levelo_inurba_marseille","lat":43.25114,"lon":5.40316,"is_reserved":false,"is_disabled":false,"rental_uris":{"android":"levelo://app?vid=2b17c26f-d867-445e-b68a-2c6f8b249fd3","ios":"levelo://app?vid=2b17c26f-d867-445e-b68a-2c6f8b249fd3"},"vehicle_type_id":"4","last_reported":1726499362,"current_range_meters":38800,"station_id":"ce4bhlh2rcd13ifvqgig","pricing_plan_id":"cebpf4jnsgd1na2vs0mg"},{"bike_id":"665cca0f-e13a-404d-8965-1ae6d836e738","system_id":"levelo_inurba_marseille","lat":43.25941,"lon":5.40903,"is_reserved":false,"is_disabled":false,"rental_uris":{"android":"levelo://app?vid=665cca0f-e13a-404d-8965-1ae6d836e738","ios":"levelo://app?vid=665cca0f-e13a-404d-8965-1ae6d836e738"},"vehicle_type_id":"4","last_reported":1726499362,"current_range_meters":16800,"station_id":"ce4bhm92rcd13ifvqglg","pricing_plan_id":"cebpf4jnsgd1na2vs0mg"},{"bike_id":"99684f50-b398-427b-a4e9-7ca0a0382c79","system_id":"levelo_inurba_marseille","lat":43.23193,"lon":5.35544,"is_reserved":false,"is_disabled":false,"rental_uris":{"android":"levelo://app?vid=99684f50-b398-427b-a4e9-7ca0a0382c79","ios":"levelo://app?vid=99684f50-b398-427b-a4e9-7ca0a0382c79"},"vehicle_type_id":"4","last_reported":1726499362,"current_range_meters":39200,"station_id":"ce4bhu92rcd13ifvqi70","pricing_plan_id":"cebpf4jnsgd1na2vs0mg"},{"bike_id":"04aeebc4-6018-4217-b3ed-fcbeeb1780cb","system_id":"levelo_inurba_marseille","lat":43.32368,"lon":5.38884,"is_reserved":false,"is_disabled":false,"rental_uris":{"android":"levelo://app?vid=04aeebc4-6018-4217-b3ed-fcbeeb1780cb","ios":"levelo://app?vid=04aeebc4-6018-4217-b3ed-fcbeeb1780cb"},"vehicle_type_id":"4","last_reported":1726499362,"current_range_meters":28000,"station_id":"ce4bhqp2rcd13ifvqhog","pricing_plan_id":"cebpf4jnsgd1na2vs0mg"},{"bike_id":"1e50fdae-020a-4cb6-9b1c-d6613add5f05","system_id":"levelo_inurba_marseille","lat":43.309326,"lon":5.401449,"is_reserved":false,"is_disabled":false,"rental_uris":{"android":"levelo://app?vid=1e50fdae-020a-4cb6-9b1c-d6613add5f05","ios":"levelo://app?vid=1e50fdae-020a-4cb6-9b1c-d6613add5f05"},"vehicle_type_id":"4","last_reported":1726499362,"current_range_meters":22000,"station_id":"ce4bgvp2rcd13ifvqct0","pricing_plan_id":"cebpf4jnsgd1na2vs0mg"},{"bike_id":"0f808d02-6df2-4fb7-b534-a56f3c6d6147","system_id":"levelo_inurba_marseille","lat":43.32485,"lon":5.36556,"is_reserved":false,"is_disabled":false,"rental_uris":{"android":"levelo://app?vid=0f808d02-6df2-4fb7-b534-a56f3c6d6147","ios":"levelo://app?vid=0f808d02-6df2-4fb7-b534-a56f3c6d6147"},"vehicle_type_id":"4","last_reported":1726499362,"current_range_meters":30400,"station_id":"ce4bhs12rcd13ifvqhvg","pricing_plan_id":"cebpf4jnsgd1na2vs0mg"},{"bike_id":"51a0ef68-0a0c-4c80-8365-793323e0b2e1","system_id":"levelo_inurba_marseille","lat":43.31723,"lon":5.424,"is_reserved":false,"is_disabled":false,"rental_uris":{"android":"levelo://app?vid=51a0ef68-0a0c-4c80-8365-793323e0b2e1","ios":"levelo://app?vid=51a0ef68-0a0c-4c80-8365-793323e0b2e1"},"vehicle_type_id":"4","last_reported":1726499362,"current_range_meters":38800,"station_id":"ce4bhp92rcd13ifvqhbg","pricing_plan_id":"cebpf4jnsgd1na2vs0mg"},{"bike_id":"5586d3e5-948d-4b1b-bc04-513461f1fd5f","system_id":"levelo_inurba_marseille","lat":43.31503,"lon":5.37312,"is_reserved":false,"is_disabled":false,"rental_uris":{"android":"levelo://app?vid=5586d3e5-948d-4b1b-bc04-513461f1fd5f","ios":"levelo://app?vid=5586d3e5-948d-4b1b-bc04-513461f1fd5f"},"vehicle_type_id":"4","last_reported":1726499362,"current_range_meters":38800,"station_id":"ce4bgt12rcd13ifvqcd0","pricing_plan_id":"cebpf4jnsgd1na2vs0mg"},{"bike_id":"2c1960ce-e0f9-4106-9a51-4065fcf52c5a","system_id":"levelo_inurba_marseille","lat":43.29973,"lon":5.38492,"is_reserved":false,"is_disabled":false,"rental_uris":{"android":"levelo://app?vid=2c1960ce-e0f9-4106-9a51-4065fcf52c5a","ios":"levelo://app?vid=2c1960ce-e0f9-4106-9a51-4065fcf52c5a"},"vehicle_type_id":"4","last_reported":1726499362,"current_range_meters":6800,"station_id":"ce4bgj92rcd13ifvqbd0","pricing_plan_id":"cebpf4jnsgd1na2vs0mg"},{"bike_id":"d4a5eb26-b065-4afe-af9d-6f80f0b9f610","system_id":"levelo_inurba_marseille","lat":43.31713,"lon":5.43698,"is_reserved":false,"is_disabled":false,"rental_uris":{"android":"levelo://app?vid=d4a5eb26-b065-4afe-af9d-6f80f0b9f610","ios":"levelo://app?vid=d4a5eb26-b065-4afe-af9d-6f80f0b9f610"},"vehicle_type_id":"4","last_reported":1726499362,"current_range_meters":16400,"station_id":"ce4bhp92rcd13ifvqhcg","pricing_plan_id":"cebpf4jnsgd1na2vs0mg"},{"bike_id":"5e9e72e3-3352-4c5c-b401-283cc9e9431d","system_id":"levelo_inurba_marseille","lat":43.30135,"lon":5.38775,"is_reserved":false,"is_disabled":false,"rental_uris":{"android":"levelo://app?vid=5e9e72e3-3352-4c5c-b401-283cc9e9431d","ios":"levelo://app?vid=5e9e72e3-3352-4c5c-b401-283cc9e9431d"},"vehicle_type_id":"4","last_reported":1726499362,"current_range_meters":10000,"station_id":"ce4bghh2rcd13ifvqb60","pricing_plan_id":"cebpf4jnsgd1na2vs0mg"},{"bike_id":"785783be-7bfb-4269-b660-c5c3fd28c889","system_id":"levelo_inurba_marseille","lat":43.27995,"lon":5.41651,"is_reserved":false,"is_disabled":false,"rental_uris":{"android":"levelo://app?vid=785783be-7bfb-4269-b660-c5c3fd28c889","ios":"levelo://app?vid=785783be-7bfb-4269-b660-c5c3fd28c889"},"vehicle_type_id":"4","last_reported":1726499362,"current_range_meters":28800,"station_id":"ce4bho12rcd13ifvqh1g","pricing_plan_id":"cebpf4jnsgd1na2vs0mg"},{"bike_id":"6c6ee1d0-c2fb-4b3f-9bb2-6d146d89fd43","system_id":"levelo_inurba_marseille","lat":43.24165,"lon":5.36392,"is_reserved":false,"is_disabled":false,"rental_uris":{"android":"levelo://app?vid=6c6ee1d0-c2fb-4b3f-9bb2-6d146d89fd43","ios":"levelo://app?vid=6c6ee1d0-c2fb-4b3f-9bb2-6d146d89fd43"},"vehicle_type_id":"4","last_reported":1726499362,"current_range_meters":3600,"station_id":"cpo36qri1sfpv3e86is0","pricing_plan_id":"cebpf4jnsgd1na2vs0mg"},{"bike_id":"b04b6ce9-50fd-4aaa-a676-ad31cf0a36a5","system_id":"levelo_inurba_marseille","lat":43.306,"lon":5.37214,"is_reserved":false,"is_disabled":false,"rental_uris":{"android":"levelo://app?vid=b04b6ce9-50fd-4aaa-a676-ad31cf0a36a5","ios":"levelo://app?vid=b04b6ce9-50fd-4aaa-a676-ad31cf0a36a5"},"vehicle_type_id":"4","last_reported":1726499362,"current_range_meters":38800,"station_id":"ce4bgqh2rcd13ifvqc4g","pricing_plan_id":"cebpf4jnsgd1na2vs0mg"},{"bike_id":"b3349fe8-6b0c-4a40-8c21-7925af65c284","system_id":"levelo_inurba_marseille","lat":43.31501,"lon":5.37309,"is_reserved":false,"is_disabled":false,"rental_uris":{"android":"levelo://app?vid=b3349fe8-6b0c-4a40-8c21-7925af65c284","ios":"levelo://app?vid=b3349fe8-6b0c-4a40-8c21-7925af65c284"},"vehicle_type_id":"4","last_reported":1726499362,"current_range_meters":11200,"station_id":"ce4bgt12rcd13ifvqcd0","pricing_plan_id":"cebpf4jnsgd1na2vs0mg"},{"bike_id":"c43d8329-860b-4792-8ce2-387084c42c33","system_id":"levelo_inurba_marseille","lat":43.32486,"lon":5.36558,"is_reserved":false,"is_disabled":false,"rental_uris":{"android":"levelo://app?vid=c43d8329-860b-4792-8ce2-387084c42c33","ios":"levelo://app?vid=c43d8329-860b-4792-8ce2-387084c42c33"},"vehicle_type_id":"4","last_reported":1726499362,"current_range_meters":24000,"station_id":"ce4bhs12rcd13ifvqhvg","pricing_plan_id":"cebpf4jnsgd1na2vs0mg"},{"bike_id":"78ef158b-f472-48c4-a6d2-2dd6b3bb182b","system_id":"levelo_inurba_marseille","lat":43.28415,"lon":5.34985,"is_reserved":false,"is_disabled":false,"rental_uris":{"android":"levelo://app?vid=78ef158b-f472-48c4-a6d2-2dd6b3bb182b","ios":"levelo://app?vid=78ef158b-f472-48c4-a6d2-2dd6b3bb182b"},"vehicle_type_id":"4","last_reported":1726499362,"current_range_meters":19600,"station_id":"ce4bhbh2rcd13ifvqepg","pricing_plan_id":"cebpf4jnsgd1na2vs0mg"},{"bike_id":"e6c21cbb-a64c-440b-ad39-4a66fc0a1536","system_id":"levelo_inurba_marseille","lat":43.23068,"lon":5.35484,"is_reserved":false,"is_disabled":false,"rental_uris":{"android":"levelo://app?vid=e6c21cbb-a64c-440b-ad39-4a66fc0a1536","ios":"levelo://app?vid=e6c21cbb-a64c-440b-ad39-4a66fc0a1536"},"vehicle_type_id":"4","last_reported":1726499362,"current_range_meters":10000,"station_id":"cpo3342slgdg3j2ifvpg","pricing_plan_id":"cebpf4jnsgd1na2vs0mg"},{"bike_id":"25e305b7-c7fb-459a-bfdc-467ce5803429","system_id":"levelo_inurba_marseille","lat":43.26328,"lon":5.39666,"is_reserved":false,"is_disabled":false,"rental_uris":{"android":"levelo://app?vid=25e305b7-c7fb-459a-bfdc-467ce5803429","ios":"levelo://app?vid=25e305b7-c7fb-459a-bfdc-467ce5803429"},"vehicle_type_id":"4","last_reported":1726499362,"current_range_meters":36000,"station_id":"","pricing_plan_id":"cebpf4jnsgd1na2vs0mg"},{"bike_id":"ce703cb4-aa06-4ca3-9d0d-9d78109ec482","system_id":"levelo_inurba_marseille","lat":43.31245,"lon":5.36849,"is_reserved":false,"is_disabled":false,"rental_uris":{"android":"levelo://app?vid=ce703cb4-aa06-4ca3-9d0d-9d78109ec482","ios":"levelo://app?vid=ce703cb4-aa06-4ca3-9d0d-9d78109ec482"},"vehicle_type_id":"4","last_reported":1726499362,"current_range_meters":27600,"station_id":"ce4bgl92rcd13ifvqbq0","pricing_plan_id":"cebpf4jnsgd1na2vs0mg"},{"bike_id":"6ad2fe94-195b-4d58-9ac6-d3a9675a4c80","system_id":"levelo_inurba_marseille","lat":43.23069,"lon":5.3549,"is_reserved":false,"is_disabled":false,"rental_uris":{"android":"levelo://app?vid=6ad2fe94-195b-4d58-9ac6-d3a9675a4c80","ios":"levelo://app?vid=6ad2fe94-195b-4d58-9ac6-d3a9675a4c80"},"vehicle_type_id":"4","last_reported":1726499362,"current_range_meters":16400,"station_id":"cpo3342slgdg3j2ifvpg","pricing_plan_id":"cebpf4jnsgd1na2vs0mg"},{"bike_id":"6dd17a2f-59bb-4453-859d-2c09ab795824","system_id":"levelo_inurba_marseille","lat":43.33027,"lon":5.39038,"is_reserved":false,"is_disabled":false,"rental_uris":{"android":"levelo://app?vid=6dd17a2f-59bb-4453-859d-2c09ab795824","ios":"levelo://app?vid=6dd17a2f-59bb-4453-859d-2c09ab795824"},"vehicle_type_id":"4","last_reported":1726499362,"current_range_meters":36800,"station_id":"ce4bhr92rcd13ifvqhrg","pricing_plan_id":"cebpf4jnsgd1na2vs0mg"},{"bike_id":"41b42efe-9f39-4c33-b7b4-b3e8f7342449","system_id":"levelo_inurba_marseille","lat":43.29972,"lon":5.38489,"is_reserved":false,"is_disabled":false,"rental_uris":{"android":"levelo://app?vid=41b42efe-9f39-4c33-b7b4-b3e8f7342449","ios":"levelo://app?vid=41b42efe-9f39-4c33-b7b4-b3e8f7342449"},"vehicle_type_id":"4","last_reported":1726499362,"current_range_meters":26800,"station_id":"ce4bgj92rcd13ifvqbd0","pricing_plan_id":"cebpf4jnsgd1na2vs0mg"},{"bike_id":"fc2e8ef3-f33f-4409-a28c-80d42488b868","system_id":"levelo_inurba_marseille","lat":43.24811,"lon":5.37451,"is_reserved":false,"is_disabled":false,"rental_uris":{"android":"levelo://app?vid=fc2e8ef3-f33f-4409-a28c-80d42488b868","ios":"levelo://app?vid=fc2e8ef3-f33f-4409-a28c-80d42488b868"},"vehicle_type_id":"4","last_reported":1726499362,"current_range_meters":16800,"station_id":"ce4bhgh2rcd13ifvqfb0","pricing_plan_id":"cebpf4jnsgd1na2vs0mg"},{"bike_id":"a0da9788-6ad0-4bd2-9978-72c1654ca4ea","system_id":"levelo_inurba_marseille","lat":43.3237,"lon":5.38883,"is_reserved":false,"is_disabled":false,"rental_uris":{"android":"levelo://app?vid=a0da9788-6ad0-4bd2-9978-72c1654ca4ea","ios":"levelo://app?vid=a0da9788-6ad0-4bd2-9978-72c1654ca4ea"},"vehicle_type_id":"4","last_reported":1726499362,"current_range_meters":24800,"station_id":"ce4bhqp2rcd13ifvqhog","pricing_plan_id":"cebpf4jnsgd1na2vs0mg"},{"bike_id":"51c45171-9309-4551-855d-938bfb8d902b","system_id":"levelo_inurba_marseille","lat":43.28697,"lon":5.37378,"is_reserved":false,"is_disabled":false,"rental_uris":{"android":"levelo://app?vid=51c45171-9309-4551-855d-938bfb8d902b","ios":"levelo://app?vid=51c45171-9309-4551-855d-938bfb8d902b"},"vehicle_type_id":"4","last_reported":1726499362,"current_range_meters":35600,"station_id":"ce4bh3p2rcd13ifvqdq0","pricing_plan_id":"cebpf4jnsgd1na2vs0mg"},{"bike_id":"ee96fd0b-2e8e-46a7-9a56-213f944d9ccc","system_id":"levelo_inurba_marseille","lat":43.32493,"lon":5.36554,"is_reserved":false,"is_disabled":false,"rental_uris":{"android":"levelo://app?vid=ee96fd0b-2e8e-46a7-9a56-213f944d9ccc","ios":"levelo://app?vid=ee96fd0b-2e8e-46a7-9a56-213f944d9ccc"},"vehicle_type_id":"4","last_reported":1726499362,"current_range_meters":31200,"station_id":"ce4bhs12rcd13ifvqhvg","pricing_plan_id":"cebpf4jnsgd1na2vs0mg"},{"bike_id":"51b25cf4-f758-4707-b74f-016abb5a169e","system_id":"levelo_inurba_marseille","lat":43.32366,"lon":5.38883,"is_reserved":false,"is_disabled":false,"rental_uris":{"android":"levelo://app?vid=51b25cf4-f758-4707-b74f-016abb5a169e","ios":"levelo://app?vid=51b25cf4-f758-4707-b74f-016abb5a169e"},"vehicle_type_id":"4","last_reported":1726499362,"current_range_meters":19200,"station_id":"ce4bhqp2rcd13ifvqhog","pricing_plan_id":"cebpf4jnsgd1na2vs0mg"},{"bike_id":"1144f570-f9b4-45ed-9f6f-77fd7ad6e2c0","system_id":"levelo_inurba_marseille","lat":43.29965,"lon":5.4132,"is_reserved":false,"is_disabled":false,"rental_uris":{"android":"levelo://app?vid=1144f570-f9b4-45ed-9f6f-77fd7ad6e2c0","ios":"levelo://app?vid=1144f570-f9b4-45ed-9f6f-77fd7ad6e2c0"},"vehicle_type_id":"4","last_reported":1726499362,"current_range_meters":22400,"station_id":"ce4bhp12rcd13ifvqh9g","pricing_plan_id":"cebpf4jnsgd1na2vs0mg"},{"bike_id":"81ba51fc-7501-4da5-b99a-23b6040fa28c","system_id":"levelo_inurba_marseille","lat":43.30129,"lon":5.39854,"is_reserved":false,"is_disabled":false,"rental_uris":{"android":"levelo://app?vid=81ba51fc-7501-4da5-b99a-23b6040fa28c","ios":"levelo://app?vid=81ba51fc-7501-4da5-b99a-23b6040fa28c"},"vehicle_type_id":"4","last_reported":1726499362,"current_range_meters":16800,"station_id":"ce4bh0h2rcd13ifvqd40","pricing_plan_id":"cebpf4jnsgd1na2vs0mg"},{"bike_id":"22f26e89-4ccd-47af-bb30-5f037502847c","system_id":"levelo_inurba_marseille","lat":43.23187,"lon":5.39985,"is_reserved":false,"is_disabled":false,"rental_uris":{"android":"levelo://app?vid=22f26e89-4ccd-47af-bb30-5f037502847c","ios":"levelo://app?vid=22f26e89-4ccd-47af-bb30-5f037502847c"},"vehicle_type_id":"4","last_reported":1726499362,"current_range_meters":32400,"station_id":"ce4bhn12rcd13ifvqgqg","pricing_plan_id":"cebpf4jnsgd1na2vs0mg"},{"bike_id":"7581687f-d0f8-4dd3-8d97-089e0f135119","system_id":"levelo_inurba_marseille","lat":43.29256,"lon":5.4091,"is_reserved":false,"is_disabled":false,"rental_uris":{"android":"levelo://app?vid=7581687f-d0f8-4dd3-8d97-089e0f135119","ios":"levelo://app?vid=7581687f-d0f8-4dd3-8d97-089e0f135119"},"vehicle_type_id":"4","last_reported":1726499362,"current_range_meters":28800,"station_id":"ce4bh192rcd13ifvqdc0","pricing_plan_id":"cebpf4jnsgd1na2vs0mg"},{"bike_id":"21838f78-1771-4027-bf06-ae67beb6f0e9","system_id":"levelo_inurba_marseille","lat":43.29107,"lon":5.38138,"is_reserved":false,"is_disabled":false,"rental_uris":{"android":"levelo://app?vid=21838f78-1771-4027-bf06-ae67beb6f0e9","ios":"levelo://app?vid=21838f78-1771-4027-bf06-ae67beb6f0e9"},"vehicle_type_id":"4","last_reported":1726499362,"current_range_meters":12400,"station_id":"ce4bh512rcd13ifvqe2g","pricing_plan_id":"cebpf4jnsgd1na2vs0mg"},{"bike_id":"b7176f90-1b00-4928-b03a-5e1c1e2ace12","system_id":"levelo_inurba_marseille","lat":43.32488,"lon":5.36566,"is_reserved":false,"is_disabled":false,"rental_uris":{"android":"levelo://app?vid=b7176f90-1b00-4928-b03a-5e1c1e2ace12","ios":"levelo://app?vid=b7176f90-1b00-4928-b03a-5e1c1e2ace12"},"vehicle_type_id":"4","last_reported":1726499362,"current_range_meters":6000,"station_id":"ce4bhs12rcd13ifvqhvg","pricing_plan_id":"cebpf4jnsgd1na2vs0mg"},{"bike_id":"561aa5f8-0755-4bdb-bb43-8f4c2015c810","system_id":"levelo_inurba_marseille","lat":43.297607,"lon":5.381154,"is_reserved":false,"is_disabled":false,"rental_uris":{"android":"levelo://app?vid=561aa5f8-0755-4bdb-bb43-8f4c2015c810","ios":"levelo://app?vid=561aa5f8-0755-4bdb-bb43-8f4c2015c810"},"vehicle_type_id":"4","last_reported":1726499362,"current_range_meters":16800,"station_id":"ce4bhc92rcd13ifvqetg","pricing_plan_id":"cebpf4jnsgd1na2vs0mg"},{"bike_id":"c796fb75-e12c-4246-9ae2-40ccb08367d1","system_id":"levelo_inurba_marseille","lat":43.27378,"lon":5.36252,"is_reserved":false,"is_disabled":false,"rental_uris":{"android":"levelo://app?vid=c796fb75-e12c-4246-9ae2-40ccb08367d1","ios":"levelo://app?vid=c796fb75-e12c-4246-9ae2-40ccb08367d1"},"vehicle_type_id":"4","last_reported":1726499362,"current_range_meters":23200,"station_id":"ce4bhbh2rcd13ifvqeo0","pricing_plan_id":"cebpf4jnsgd1na2vs0mg"},{"bike_id":"65eecb51-7024-4f30-af20-d65f809bce2b","system_id":"levelo_inurba_marseille","lat":43.31496,"lon":5.38312,"is_reserved":false,"is_disabled":false,"rental_uris":{"android":"levelo://app?vid=65eecb51-7024-4f30-af20-d65f809bce2b","ios":"levelo://app?vid=65eecb51-7024-4f30-af20-d65f809bce2b"},"vehicle_type_id":"4","last_reported":1726499362,"current_range_meters":12400,"station_id":"ce4bgvp2rcd13ifvqcu0","pricing_plan_id":"cebpf4jnsgd1na2vs0mg"},{"bike_id":"714bd286-0914-421a-ac78-a8aec3d8de06","system_id":"levelo_inurba_marseille","lat":43.31722,"lon":5.43703,"is_reserved":false,"is_disabled":false,"rental_uris":{"android":"levelo://app?vid=714bd286-0914-421a-ac78-a8aec3d8de06","ios":"levelo://app?vid=714bd286-0914-421a-ac78-a8aec3d8de06"},"vehicle_type_id":"4","last_reported":1726499362,"current_range_meters":8800,"station_id":"ce4bhp92rcd13ifvqhcg","pricing_plan_id":"cebpf4jnsgd1na2vs0mg"},{"bike_id":"2ec8aa37-99bd-4656-a904-07c9c5c3e92b","system_id":"levelo_inurba_marseille","lat":43.30882,"lon":5.37189,"is_reserved":false,"is_disabled":false,"rental_uris":{"android":"levelo://app?vid=2ec8aa37-99bd-4656-a904-07c9c5c3e92b","ios":"levelo://app?vid=2ec8aa37-99bd-4656-a904-07c9c5c3e92b"},"vehicle_type_id":"4","last_reported":1726499362,"current_range_meters":36800,"station_id":"ce4bguh2rcd13ifvqckg","pricing_plan_id":"cebpf4jnsgd1na2vs0mg"},{"bike_id":"a4f36231-06e9-4b9f-b68a-36066559dbd2","system_id":"levelo_inurba_marseille","lat":43.29296,"lon":5.37461,"is_reserved":false,"is_disabled":false,"rental_uris":{"android":"levelo://app?vid=a4f36231-06e9-4b9f-b68a-36066559dbd2","ios":"levelo://app?vid=a4f36231-06e9-4b9f-b68a-36066559dbd2"},"vehicle_type_id":"4","last_reported":1726499362,"current_range_meters":22000,"station_id":"ce4bgi12rcd13ifvqb70","pricing_plan_id":"cebpf4jnsgd1na2vs0mg"},{"bike_id":"a18117be-7bd3-487f-af7a-2344c9ce9eb2","system_id":"levelo_inurba_marseille","lat":43.28266,"lon":5.35064,"is_reserved":false,"is_disabled":false,"rental_uris":{"android":"levelo://app?vid=a18117be-7bd3-487f-af7a-2344c9ce9eb2","ios":"levelo://app?vid=a18117be-7bd3-487f-af7a-2344c9ce9eb2"},"vehicle_type_id":"4","last_reported":1726499362,"current_range_meters":2800,"station_id":"ce4bhbp2rcd13ifvqerg","pricing_plan_id":"cebpf4jnsgd1na2vs0mg"},{"bike_id":"28d227ad-bafd-488d-8aad-9ae103ddecec","system_id":"levelo_inurba_marseille","lat":43.2841,"lon":5.34986,"is_reserved":false,"is_disabled":false,"rental_uris":{"android":"levelo://app?vid=28d227ad-bafd-488d-8aad-9ae103ddecec","ios":"levelo://app?vid=28d227ad-bafd-488d-8aad-9ae103ddecec"},"vehicle_type_id":"4","last_reported":1726499362,"current_range_meters":17200,"station_id":"ce4bhbh2rcd13ifvqepg","pricing_plan_id":"cebpf4jnsgd1na2vs0mg"},{"bike_id":"6bf7d7f3-ef53-425f-823b-037a50f20e2f","system_id":"levelo_inurba_marseille","lat":43.29633,"lon":5.40596,"is_reserved":false,"is_disabled":false,"rental_uris":{"android":"levelo://app?vid=6bf7d7f3-ef53-425f-823b-037a50f20e2f","ios":"levelo://app?vid=6bf7d7f3-ef53-425f-823b-037a50f20e2f"},"vehicle_type_id":"4","last_reported":1726499362,"current_range_meters":5600,"station_id":"ce4bh0h2rcd13ifvqd60","pricing_plan_id":"cebpf4jnsgd1na2vs0mg"},{"bike_id":"77be640b-ac4b-4617-be22-5763d79d29be","system_id":"levelo_inurba_marseille","lat":43.3248,"lon":5.3655,"is_reserved":false,"is_disabled":false,"rental_uris":{"android":"levelo://app?vid=77be640b-ac4b-4617-be22-5763d79d29be","ios":"levelo://app?vid=77be640b-ac4b-4617-be22-5763d79d29be"},"vehicle_type_id":"4","last_reported":1726499362,"current_range_meters":27600,"station_id":"ce4bhs12rcd13ifvqhvg","pricing_plan_id":"cebpf4jnsgd1na2vs0mg"},{"bike_id":"ede27382-2e15-413e-be39-239be05fdd62","system_id":"levelo_inurba_marseille","lat":43.23186,"lon":5.39989,"is_reserved":false,"is_disabled":false,"rental_uris":{"android":"levelo://app?vid=ede27382-2e15-413e-be39-239be05fdd62","ios":"levelo://app?vid=ede27382-2e15-413e-be39-239be05fdd62"},"vehicle_type_id":"4","last_reported":1726499362,"current_range_meters":35200,"station_id":"ce4bhn12rcd13ifvqgqg","pricing_plan_id":"cebpf4jnsgd1na2vs0mg"},{"bike_id":"f4cb07f7-6f8d-479d-967e-97fe26b88740","system_id":"levelo_inurba_marseille","lat":43.31331,"lon":5.39698,"is_reserved":false,"is_disabled":false,"rental_uris":{"android":"levelo://app?vid=f4cb07f7-6f8d-479d-967e-97fe26b88740","ios":"levelo://app?vid=f4cb07f7-6f8d-479d-967e-97fe26b88740"},"vehicle_type_id":"4","last_reported":1726499362,"current_range_meters":33600,"station_id":"ce4bgvp2rcd13ifvqcu0","pricing_plan_id":"cebpf4jnsgd1na2vs0mg"},{"bike_id":"6da566a6-1c56-4830-ad07-012b26ffeade","system_id":"levelo_inurba_marseille","lat":43.32474,"lon":5.36554,"is_reserved":false,"is_disabled":false,"rental_uris":{"android":"levelo://app?vid=6da566a6-1c56-4830-ad07-012b26ffeade","ios":"levelo://app?vid=6da566a6-1c56-4830-ad07-012b26ffeade"},"vehicle_type_id":"4","last_reported":1726499362,"current_range_meters":36800,"station_id":"ce4bhs12rcd13ifvqhvg","pricing_plan_id":"cebpf4jnsgd1na2vs0mg"},{"bike_id":"77304671-337d-4045-a26a-78d9ecafe9c7","system_id":"levelo_inurba_marseille","lat":43.29542,"lon":5.38537,"is_reserved":false,"is_disabled":false,"rental_uris":{"android":"levelo://app?vid=77304671-337d-4045-a26a-78d9ecafe9c7","ios":"levelo://app?vid=77304671-337d-4045-a26a-78d9ecafe9c7"},"vehicle_type_id":"4","last_reported":1726499362,"current_range_meters":35200,"station_id":"ce4bgih2rcd13ifvqba0","pricing_plan_id":"cebpf4jnsgd1na2vs0mg"},{"bike_id":"470a8b42-e2f4-468b-8759-dd2275935e4a","system_id":"levelo_inurba_marseille","lat":43.29269,"lon":5.38437,"is_reserved":false,"is_disabled":false,"rental_uris":{"android":"levelo://app?vid=470a8b42-e2f4-468b-8759-dd2275935e4a","ios":"levelo://app?vid=470a8b42-e2f4-468b-8759-dd2275935e4a"},"vehicle_type_id":"4","last_reported":1726499362,"current_range_meters":23200,"station_id":"ce4bh692rcd13ifvqea0","pricing_plan_id":"cebpf4jnsgd1na2vs0mg"},{"bike_id":"1442e3ae-beb0-4beb-a17c-939afed76e4a","system_id":"levelo_inurba_marseille","lat":43.32656,"lon":5.40995,"is_reserved":false,"is_disabled":false,"rental_uris":{"android":"levelo://app?vid=1442e3ae-beb0-4beb-a17c-939afed76e4a","ios":"levelo://app?vid=1442e3ae-beb0-4beb-a17c-939afed76e4a"},"vehicle_type_id":"4","last_reported":1726499362,"current_range_meters":24400,"station_id":"ce4bhpp2rcd13ifvqhgg","pricing_plan_id":"cebpf4jnsgd1na2vs0mg"},{"bike_id":"5aa46303-1a21-465d-b4e5-6b36de907927","system_id":"levelo_inurba_marseille","lat":43.290336,"lon":5.38648,"is_reserved":false,"is_disabled":false,"rental_uris":{"android":"levelo://app?vid=5aa46303-1a21-465d-b4e5-6b36de907927","ios":"levelo://app?vid=5aa46303-1a21-465d-b4e5-6b36de907927"},"vehicle_type_id":"4","last_reported":1726499362,"current_range_meters":11600,"station_id":"ce4bh4p2rcd13ifvqe0g","pricing_plan_id":"cebpf4jnsgd1na2vs0mg"},{"bike_id":"cbaf03bf-0340-4293-a424-18d0ef0b595f","system_id":"levelo_inurba_marseille","lat":43.29897,"lon":5.43668,"is_reserved":false,"is_disabled":false,"rental_uris":{"android":"levelo://app?vid=cbaf03bf-0340-4293-a424-18d0ef0b595f","ios":"levelo://app?vid=cbaf03bf-0340-4293-a424-18d0ef0b595f"},"vehicle_type_id":"4","last_reported":1726499362,"current_range_meters":26800,"station_id":"ce4bhpp2rcd13ifvqhfg","pricing_plan_id":"cebpf4jnsgd1na2vs0mg"},{"bike_id":"6137c734-5ad5-4b4b-b71b-84443c92ffcc","system_id":"levelo_inurba_marseille","lat":43.241622,"lon":5.396726,"is_reserved":false,"is_disabled":false,"rental_uris":{"android":"levelo://app?vid=6137c734-5ad5-4b4b-b71b-84443c92ffcc","ios":"levelo://app?vid=6137c734-5ad5-4b4b-b71b-84443c92ffcc"},"vehicle_type_id":"4","last_reported":1726499362,"current_range_meters":23200,"station_id":"ce4bhn12rcd13ifvqgqg","pricing_plan_id":"cebpf4jnsgd1na2vs0mg"},{"bike_id":"fabd6680-bf5f-42cc-b8ce-1a55fdaaaa2c","system_id":"levelo_inurba_marseille","lat":43.28622,"lon":5.35107,"is_reserved":false,"is_disabled":false,"rental_uris":{"android":"levelo://app?vid=fabd6680-bf5f-42cc-b8ce-1a55fdaaaa2c","ios":"levelo://app?vid=fabd6680-bf5f-42cc-b8ce-1a55fdaaaa2c"},"vehicle_type_id":"4","last_reported":1726499362,"current_range_meters":36800,"station_id":"ce4bhch2rcd13ifvqeug","pricing_plan_id":"cebpf4jnsgd1na2vs0mg"},{"bike_id":"9310b7ad-2ca0-43b0-8762-7d9a2657eb36","system_id":"levelo_inurba_marseille","lat":43.26946,"lon":5.40244,"is_reserved":false,"is_disabled":false,"rental_uris":{"android":"levelo://app?vid=9310b7ad-2ca0-43b0-8762-7d9a2657eb36","ios":"levelo://app?vid=9310b7ad-2ca0-43b0-8762-7d9a2657eb36"},"vehicle_type_id":"4","last_reported":1726499362,"current_range_meters":32800,"station_id":"cjm6bp8fraef2m0cb0m0","pricing_plan_id":"cebpf4jnsgd1na2vs0mg"},{"bike_id":"27f3791e-6be0-482d-a6ad-bd17b0a449c0","system_id":"levelo_inurba_marseille","lat":43.3033,"lon":5.40428,"is_reserved":false,"is_disabled":false,"rental_uris":{"android":"levelo://app?vid=27f3791e-6be0-482d-a6ad-bd17b0a449c0","ios":"levelo://app?vid=27f3791e-6be0-482d-a6ad-bd17b0a449c0"},"vehicle_type_id":"4","last_reported":1726499362,"current_range_meters":18800,"station_id":"ce4bh012rcd13ifvqd10","pricing_plan_id":"cebpf4jnsgd1na2vs0mg"},{"bike_id":"8084bf66-c542-4efe-b8fa-0ae4e7c6db78","system_id":"levelo_inurba_marseille","lat":43.31329,"lon":5.3969,"is_reserved":false,"is_disabled":false,"rental_uris":{"android":"levelo://app?vid=8084bf66-c542-4efe-b8fa-0ae4e7c6db78","ios":"levelo://app?vid=8084bf66-c542-4efe-b8fa-0ae4e7c6db78"},"vehicle_type_id":"4","last_reported":1726499362,"current_range_meters":35600,"station_id":"ce4bgvp2rcd13ifvqcu0","pricing_plan_id":"cebpf4jnsgd1na2vs0mg"},{"bike_id":"c3e18f63-5d54-48d9-bf5a-e04bfffe8d63","system_id":"levelo_inurba_marseille","lat":43.28468,"lon":5.35884,"is_reserved":false,"is_disabled":false,"rental_uris":{"android":"levelo://app?vid=c3e18f63-5d54-48d9-bf5a-e04bfffe8d63","ios":"levelo://app?vid=c3e18f63-5d54-48d9-bf5a-e04bfffe8d63"},"vehicle_type_id":"4","last_reported":1726499362,"current_range_meters":32400,"station_id":"ce4bhah2rcd13ifvqei0","pricing_plan_id":"cebpf4jnsgd1na2vs0mg"},{"bike_id":"1aa4718f-9c27-4777-bb45-8e9f7bbf680a","system_id":"levelo_inurba_marseille","lat":43.28259,"lon":5.35061,"is_reserved":false,"is_disabled":false,"rental_uris":{"android":"levelo://app?vid=1aa4718f-9c27-4777-bb45-8e9f7bbf680a","ios":"levelo://app?vid=1aa4718f-9c27-4777-bb45-8e9f7bbf680a"},"vehicle_type_id":"4","last_reported":1726499362,"current_range_meters":6400,"station_id":"ce4bhbp2rcd13ifvqerg","pricing_plan_id":"cebpf4jnsgd1na2vs0mg"},{"bike_id":"305b483b-9cf5-47cd-8114-29c0f13168a1","system_id":"levelo_inurba_marseille","lat":43.29416,"lon":5.38622,"is_reserved":false,"is_disabled":false,"rental_uris":{"android":"levelo://app?vid=305b483b-9cf5-47cd-8114-29c0f13168a1","ios":"levelo://app?vid=305b483b-9cf5-47cd-8114-29c0f13168a1"},"vehicle_type_id":"4","last_reported":1726499362,"current_range_meters":12800,"station_id":"ce4bh2h2rcd13ifvqdh0","pricing_plan_id":"cebpf4jnsgd1na2vs0mg"},{"bike_id":"a5cadd93-c7fd-4b70-813b-b446914b6e43","system_id":"levelo_inurba_marseille","lat":43.294098,"lon":5.386253,"is_reserved":false,"is_disabled":false,"rental_uris":{"android":"levelo://app?vid=a5cadd93-c7fd-4b70-813b-b446914b6e43","ios":"levelo://app?vid=a5cadd93-c7fd-4b70-813b-b446914b6e43"},"vehicle_type_id":"4","last_reported":1726499362,"current_range_meters":6800,"station_id":"ce4bh2h2rcd13ifvqdh0","pricing_plan_id":"cebpf4jnsgd1na2vs0mg"},{"bike_id":"0d4a0b87-919e-49b4-9f5f-411d466859bd","system_id":"levelo_inurba_marseille","lat":43.32005,"lon":5.38157,"is_reserved":false,"is_disabled":false,"rental_uris":{"android":"levelo://app?vid=0d4a0b87-919e-49b4-9f5f-411d466859bd","ios":"levelo://app?vid=0d4a0b87-919e-49b4-9f5f-411d466859bd"},"vehicle_type_id":"4","last_reported":1726499362,"current_range_meters":23200,"station_id":"ce4bhr12rcd13ifvqhpg","pricing_plan_id":"cebpf4jnsgd1na2vs0mg"},{"bike_id":"328d45f9-980e-4811-97c0-47d761861509","system_id":"levelo_inurba_marseille","lat":43.29847,"lon":5.37836,"is_reserved":false,"is_disabled":false,"rental_uris":{"android":"levelo://app?vid=328d45f9-980e-4811-97c0-47d761861509","ios":"levelo://app?vid=328d45f9-980e-4811-97c0-47d761861509"},"vehicle_type_id":"4","last_reported":1726499362,"current_range_meters":22800,"station_id":"ce4bgkh2rcd13ifvqbl0","pricing_plan_id":"cebpf4jnsgd1na2vs0mg"},{"bike_id":"4896d151-2d9e-453e-bdd1-c2fc4dc1aa85","system_id":"levelo_inurba_marseille","lat":43.24667,"lon":5.38162,"is_reserved":false,"is_disabled":false,"rental_uris":{"android":"levelo://app?vid=4896d151-2d9e-453e-bdd1-c2fc4dc1aa85","ios":"levelo://app?vid=4896d151-2d9e-453e-bdd1-c2fc4dc1aa85"},"vehicle_type_id":"4","last_reported":1726499362,"current_range_meters":38800,"station_id":"ce4bhih2rcd13ifvqfr0","pricing_plan_id":"cebpf4jnsgd1na2vs0mg"},{"bike_id":"2956481b-aae7-4cf4-ba56-dfbfddeb9ddc","system_id":"levelo_inurba_marseille","lat":43.26788,"lon":5.39416,"is_reserved":false,"is_disabled":false,"rental_uris":{"android":"levelo://app?vid=2956481b-aae7-4cf4-ba56-dfbfddeb9ddc","ios":"levelo://app?vid=2956481b-aae7-4cf4-ba56-dfbfddeb9ddc"},"vehicle_type_id":"4","last_reported":1726499362,"current_range_meters":38800,"station_id":"ce4bhh12rcd13ifvqfg0","pricing_plan_id":"cebpf4jnsgd1na2vs0mg"},{"bike_id":"6ebfcb62-747d-4411-b966-4d026a50e3cc","system_id":"levelo_inurba_marseille","lat":43.29619,"lon":5.37733,"is_reserved":false,"is_disabled":false,"rental_uris":{"android":"levelo://app?vid=6ebfcb62-747d-4411-b966-4d026a50e3cc","ios":"levelo://app?vid=6ebfcb62-747d-4411-b966-4d026a50e3cc"},"vehicle_type_id":"4","last_reported":1726499362,"current_range_meters":7200,"station_id":"ce4bgi92rcd13ifvqb90","pricing_plan_id":"cebpf4jnsgd1na2vs0mg"},{"bike_id":"d1bc1a92-c34f-45bd-b470-2fca788491ee","system_id":"levelo_inurba_marseille","lat":43.32477,"lon":5.36587,"is_reserved":false,"is_disabled":false,"rental_uris":{"android":"levelo://app?vid=d1bc1a92-c34f-45bd-b470-2fca788491ee","ios":"levelo://app?vid=d1bc1a92-c34f-45bd-b470-2fca788491ee"},"vehicle_type_id":"4","last_reported":1726499362,"current_range_meters":36800,"station_id":"ce4bhs12rcd13ifvqhvg","pricing_plan_id":"cebpf4jnsgd1na2vs0mg"},{"bike_id":"70f9a11e-2914-4ff5-9f6c-93f06312701e","system_id":"levelo_inurba_marseille","lat":43.28939,"lon":5.39633,"is_reserved":false,"is_disabled":false,"rental_uris":{"android":"levelo://app?vid=70f9a11e-2914-4ff5-9f6c-93f06312701e","ios":"levelo://app?vid=70f9a11e-2914-4ff5-9f6c-93f06312701e"},"vehicle_type_id":"4","last_reported":1726499362,"current_range_meters":26800,"station_id":"ce4bh3h2rcd13ifvqdn0","pricing_plan_id":"cebpf4jnsgd1na2vs0mg"},{"bike_id":"d9f1ebc2-5229-40f4-a47b-9250ef9a763c","system_id":"levelo_inurba_marseille","lat":43.29097,"lon":5.3814,"is_reserved":false,"is_disabled":false,"rental_uris":{"android":"levelo://app?vid=d9f1ebc2-5229-40f4-a47b-9250ef9a763c","ios":"levelo://app?vid=d9f1ebc2-5229-40f4-a47b-9250ef9a763c"},"vehicle_type_id":"4","last_reported":1726499362,"current_range_meters":9600,"station_id":"ce4bh512rcd13ifvqe2g","pricing_plan_id":"cebpf4jnsgd1na2vs0mg"},{"bike_id":"fa690805-233a-4a70-a9f3-33f1b67cdb1f","system_id":"levelo_inurba_marseille","lat":43.32295,"lon":5.38255,"is_reserved":false,"is_disabled":false,"rental_uris":{"android":"levelo://app?vid=fa690805-233a-4a70-a9f3-33f1b67cdb1f","ios":"levelo://app?vid=fa690805-233a-4a70-a9f3-33f1b67cdb1f"},"vehicle_type_id":"4","last_reported":1726499362,"current_range_meters":36800,"station_id":"ce4bhr12rcd13ifvqhqg","pricing_plan_id":"cebpf4jnsgd1na2vs0mg"},{"bike_id":"8b608b96-fedf-4511-8d4b-09bad2606e1a","system_id":"levelo_inurba_marseille","lat":43.27724,"lon":5.41128,"is_reserved":false,"is_disabled":false,"rental_uris":{"android":"levelo://app?vid=8b608b96-fedf-4511-8d4b-09bad2606e1a","ios":"levelo://app?vid=8b608b96-fedf-4511-8d4b-09bad2606e1a"},"vehicle_type_id":"4","last_reported":1726499362,"current_range_meters":16000,"station_id":"","pricing_plan_id":"cebpf4jnsgd1na2vs0mg"},{"bike_id":"d687a8dc-c1c6-418b-a078-1f315f5fdb26","system_id":"levelo_inurba_marseille","lat":43.32488,"lon":5.36569,"is_reserved":false,"is_disabled":false,"rental_uris":{"android":"levelo://app?vid=d687a8dc-c1c6-418b-a078-1f315f5fdb26","ios":"levelo://app?vid=d687a8dc-c1c6-418b-a078-1f315f5fdb26"},"vehicle_type_id":"4","last_reported":1726499362,"current_range_meters":21600,"station_id":"ce4bhs12rcd13ifvqhvg","pricing_plan_id":"cebpf4jnsgd1na2vs0mg"},{"bike_id":"e8884b30-0a87-4e5a-be87-af3b10edf72c","system_id":"levelo_inurba_marseille","lat":43.30787,"lon":5.37641,"is_reserved":false,"is_disabled":false,"rental_uris":{"android":"levelo://app?vid=e8884b30-0a87-4e5a-be87-af3b10edf72c","ios":"levelo://app?vid=e8884b30-0a87-4e5a-be87-af3b10edf72c"},"vehicle_type_id":"4","last_reported":1726499362,"current_range_meters":30400,"station_id":"ce4bgv92rcd13ifvqcq0","pricing_plan_id":"cebpf4jnsgd1na2vs0mg"},{"bike_id":"bdce8cdd-e66e-450d-87c0-cfa67d0db1e8","system_id":"levelo_inurba_marseille","lat":43.302,"lon":5.36624,"is_reserved":false,"is_disabled":false,"rental_uris":{"android":"levelo://app?vid=bdce8cdd-e66e-450d-87c0-cfa67d0db1e8","ios":"levelo://app?vid=bdce8cdd-e66e-450d-87c0-cfa67d0db1e8"},"vehicle_type_id":"4","last_reported":1726499362,"current_range_meters":3200,"station_id":"ce4bgrh2rcd13ifvqc8g","pricing_plan_id":"cebpf4jnsgd1na2vs0mg"},{"bike_id":"49d6b902-4ac7-41e4-be49-8f7320f11810","system_id":"levelo_inurba_marseille","lat":43.2962,"lon":5.37155,"is_reserved":false,"is_disabled":false,"rental_uris":{"android":"levelo://app?vid=49d6b902-4ac7-41e4-be49-8f7320f11810","ios":"levelo://app?vid=49d6b902-4ac7-41e4-be49-8f7320f11810"},"vehicle_type_id":"4","last_reported":1726499362,"current_range_meters":4000,"station_id":"ce4bgnh2rcd13ifvqc0g","pricing_plan_id":"cebpf4jnsgd1na2vs0mg"},{"bike_id":"fa2b0a9f-66ad-4cd1-b7bb-93b9cffdc904","system_id":"levelo_inurba_marseille","lat":43.25934,"lon":5.40904,"is_reserved":false,"is_disabled":false,"rental_uris":{"android":"levelo://app?vid=fa2b0a9f-66ad-4cd1-b7bb-93b9cffdc904","ios":"levelo://app?vid=fa2b0a9f-66ad-4cd1-b7bb-93b9cffdc904"},"vehicle_type_id":"4","last_reported":1726499362,"current_range_meters":27200,"station_id":"ce4bhm92rcd13ifvqglg","pricing_plan_id":"cebpf4jnsgd1na2vs0mg"},{"bike_id":"babc9179-829f-48be-b461-3942ab6ac3b0","system_id":"levelo_inurba_marseille","lat":43.337444,"lon":5.374475,"is_reserved":false,"is_disabled":false,"rental_uris":{"android":"levelo://app?vid=babc9179-829f-48be-b461-3942ab6ac3b0","ios":"levelo://app?vid=babc9179-829f-48be-b461-3942ab6ac3b0"},"vehicle_type_id":"4","last_reported":1726499362,"current_range_meters":19200,"station_id":"","pricing_plan_id":"cebpf4jnsgd1na2vs0mg"},{"bike_id":"d4c88bd5-a352-4ca1-93b6-38ee5b0f1032","system_id":"levelo_inurba_marseille","lat":43.28266,"lon":5.35055,"is_reserved":false,"is_disabled":false,"rental_uris":{"android":"levelo://app?vid=d4c88bd5-a352-4ca1-93b6-38ee5b0f1032","ios":"levelo://app?vid=d4c88bd5-a352-4ca1-93b6-38ee5b0f1032"},"vehicle_type_id":"4","last_reported":1726499362,"current_range_meters":20400,"station_id":"ce4bhbp2rcd13ifvqerg","pricing_plan_id":"cebpf4jnsgd1na2vs0mg"},{"bike_id":"28c6d943-5531-4458-8f95-af9087750f51","system_id":"levelo_inurba_marseille","lat":43.30554,"lon":5.36701,"is_reserved":false,"is_disabled":false,"rental_uris":{"android":"levelo://app?vid=28c6d943-5531-4458-8f95-af9087750f51","ios":"levelo://app?vid=28c6d943-5531-4458-8f95-af9087750f51"},"vehicle_type_id":"4","last_reported":1726499362,"current_range_meters":38800,"station_id":"ce4bgrp2rcd13ifvqc9g","pricing_plan_id":"cebpf4jnsgd1na2vs0mg"},{"bike_id":"adac1828-c7a9-4015-8f29-e1d5038b2fd7","system_id":"levelo_inurba_marseille","lat":43.30212,"lon":5.39459,"is_reserved":false,"is_disabled":false,"rental_uris":{"android":"levelo://app?vid=adac1828-c7a9-4015-8f29-e1d5038b2fd7","ios":"levelo://app?vid=adac1828-c7a9-4015-8f29-e1d5038b2fd7"},"vehicle_type_id":"4","last_reported":1726499362,"current_range_meters":18800,"station_id":"ce4bh0p2rcd13ifvqd70","pricing_plan_id":"cebpf4jnsgd1na2vs0mg"},{"bike_id":"2bc00c15-b391-445f-8056-cc4a33f1972d","system_id":"levelo_inurba_marseille","lat":43.25719,"lon":5.4111,"is_reserved":false,"is_disabled":false,"rental_uris":{"android":"levelo://app?vid=2bc00c15-b391-445f-8056-cc4a33f1972d","ios":"levelo://app?vid=2bc00c15-b391-445f-8056-cc4a33f1972d"},"vehicle_type_id":"4","last_reported":1726499362,"current_range_meters":24000,"station_id":"ce4bhkp2rcd13ifvqgd0","pricing_plan_id":"cebpf4jnsgd1na2vs0mg"},{"bike_id":"8ce5a7f4-7567-41a9-933e-bdcf2ff2d630","system_id":"levelo_inurba_marseille","lat":43.25003,"lon":5.38938,"is_reserved":false,"is_disabled":false,"rental_uris":{"android":"levelo://app?vid=8ce5a7f4-7567-41a9-933e-bdcf2ff2d630","ios":"levelo://app?vid=8ce5a7f4-7567-41a9-933e-bdcf2ff2d630"},"vehicle_type_id":"4","last_reported":1726499362,"current_range_meters":14400,"station_id":"ce4bhgp2rcd13ifvqfd0","pricing_plan_id":"cebpf4jnsgd1na2vs0mg"},{"bike_id":"f1e8ceee-9573-4b77-ab79-482d0d3b70cc","system_id":"levelo_inurba_marseille","lat":43.24171,"lon":5.36408,"is_reserved":false,"is_disabled":false,"rental_uris":{"android":"levelo://app?vid=f1e8ceee-9573-4b77-ab79-482d0d3b70cc","ios":"levelo://app?vid=f1e8ceee-9573-4b77-ab79-482d0d3b70cc"},"vehicle_type_id":"4","last_reported":1726499362,"current_range_meters":29600,"station_id":"cpo36qri1sfpv3e86is0","pricing_plan_id":"cebpf4jnsgd1na2vs0mg"},{"bike_id":"9e00eb09-2e9f-4fd4-9267-2fe6849c1532","system_id":"levelo_inurba_marseille","lat":43.2926,"lon":5.40893,"is_reserved":false,"is_disabled":false,"rental_uris":{"android":"levelo://app?vid=9e00eb09-2e9f-4fd4-9267-2fe6849c1532","ios":"levelo://app?vid=9e00eb09-2e9f-4fd4-9267-2fe6849c1532"},"vehicle_type_id":"4","last_reported":1726499362,"current_range_meters":38800,"station_id":"ce4bh192rcd13ifvqdc0","pricing_plan_id":"cebpf4jnsgd1na2vs0mg"},{"bike_id":"60928a60-5995-4573-8783-1721ea1387c0","system_id":"levelo_inurba_marseille","lat":43.28463,"lon":5.3588,"is_reserved":false,"is_disabled":false,"rental_uris":{"android":"levelo://app?vid=60928a60-5995-4573-8783-1721ea1387c0","ios":"levelo://app?vid=60928a60-5995-4573-8783-1721ea1387c0"},"vehicle_type_id":"4","last_reported":1726499362,"current_range_meters":14800,"station_id":"ce4bhah2rcd13ifvqei0","pricing_plan_id":"cebpf4jnsgd1na2vs0mg"},{"bike_id":"ee4f2646-d2ea-4c6c-8dd6-1a1502464a6a","system_id":"levelo_inurba_marseille","lat":43.31328,"lon":5.39693,"is_reserved":false,"is_disabled":false,"rental_uris":{"android":"levelo://app?vid=ee4f2646-d2ea-4c6c-8dd6-1a1502464a6a","ios":"levelo://app?vid=ee4f2646-d2ea-4c6c-8dd6-1a1502464a6a"},"vehicle_type_id":"4","last_reported":1726499362,"current_range_meters":20400,"station_id":"ce4bgvp2rcd13ifvqcu0","pricing_plan_id":"cebpf4jnsgd1na2vs0mg"},{"bike_id":"ba2283c5-19e8-46e8-a5c9-b12f386aa115","system_id":"levelo_inurba_marseille","lat":43.28154,"lon":5.42638,"is_reserved":false,"is_disabled":false,"rental_uris":{"android":"levelo://app?vid=ba2283c5-19e8-46e8-a5c9-b12f386aa115","ios":"levelo://app?vid=ba2283c5-19e8-46e8-a5c9-b12f386aa115"},"vehicle_type_id":"4","last_reported":1726499362,"current_range_meters":26000,"station_id":"ce4bhnh2rcd13ifvqgug","pricing_plan_id":"cebpf4jnsgd1na2vs0mg"},{"bike_id":"29f5156d-ca5d-40b3-8e37-cb5a4f03bee0","system_id":"levelo_inurba_marseille","lat":43.30543,"lon":5.36698,"is_reserved":false,"is_disabled":false,"rental_uris":{"android":"levelo://app?vid=29f5156d-ca5d-40b3-8e37-cb5a4f03bee0","ios":"levelo://app?vid=29f5156d-ca5d-40b3-8e37-cb5a4f03bee0"},"vehicle_type_id":"4","last_reported":1726499362,"current_range_meters":24000,"station_id":"ce4bgrp2rcd13ifvqc9g","pricing_plan_id":"cebpf4jnsgd1na2vs0mg"},{"bike_id":"8e871097-6ca9-458f-a7af-51bf04225af9","system_id":"levelo_inurba_marseille","lat":43.33026,"lon":5.39042,"is_reserved":false,"is_disabled":false,"rental_uris":{"android":"levelo://app?vid=8e871097-6ca9-458f-a7af-51bf04225af9","ios":"levelo://app?vid=8e871097-6ca9-458f-a7af-51bf04225af9"},"vehicle_type_id":"4","last_reported":1726499362,"current_range_meters":17200,"station_id":"ce4bhr92rcd13ifvqhrg","pricing_plan_id":"cebpf4jnsgd1na2vs0mg"},{"bike_id":"694ff864-2bf0-4394-8503-a129808daf75","system_id":"levelo_inurba_marseille","lat":43.28413,"lon":5.34984,"is_reserved":false,"is_disabled":false,"rental_uris":{"android":"levelo://app?vid=694ff864-2bf0-4394-8503-a129808daf75","ios":"levelo://app?vid=694ff864-2bf0-4394-8503-a129808daf75"},"vehicle_type_id":"4","last_reported":1726499362,"current_range_meters":12800,"station_id":"ce4bhbh2rcd13ifvqepg","pricing_plan_id":"cebpf4jnsgd1na2vs0mg"},{"bike_id":"3fad0f10-7219-4b65-9f59-5ec16bc06d16","system_id":"levelo_inurba_marseille","lat":43.290062,"lon":5.356073,"is_reserved":false,"is_disabled":false,"rental_uris":{"android":"levelo://app?vid=3fad0f10-7219-4b65-9f59-5ec16bc06d16","ios":"levelo://app?vid=3fad0f10-7219-4b65-9f59-5ec16bc06d16"},"vehicle_type_id":"4","last_reported":1726499362,"current_range_meters":33600,"station_id":"ce4bhb92rcd13ifvqen0","pricing_plan_id":"cebpf4jnsgd1na2vs0mg"},{"bike_id":"6355e703-11b8-4cc6-bcad-dde055c8e87d","system_id":"levelo_inurba_marseille","lat":43.25012,"lon":5.3892,"is_reserved":false,"is_disabled":false,"rental_uris":{"android":"levelo://app?vid=6355e703-11b8-4cc6-bcad-dde055c8e87d","ios":"levelo://app?vid=6355e703-11b8-4cc6-bcad-dde055c8e87d"},"vehicle_type_id":"4","last_reported":1726499362,"current_range_meters":38800,"station_id":"ce4bhgp2rcd13ifvqfd0","pricing_plan_id":"cebpf4jnsgd1na2vs0mg"},{"bike_id":"18f36b51-838b-46f8-9ad8-33cf10e0c950","system_id":"levelo_inurba_marseille","lat":43.32481,"lon":5.36554,"is_reserved":false,"is_disabled":false,"rental_uris":{"android":"levelo://app?vid=18f36b51-838b-46f8-9ad8-33cf10e0c950","ios":"levelo://app?vid=18f36b51-838b-46f8-9ad8-33cf10e0c950"},"vehicle_type_id":"4","last_reported":1726499362,"current_range_meters":37600,"station_id":"ce4bhs12rcd13ifvqhvg","pricing_plan_id":"cebpf4jnsgd1na2vs0mg"},{"bike_id":"eb4a8607-4840-45e0-82d9-2d48c7c3477e","system_id":"levelo_inurba_marseille","lat":43.31705,"lon":5.40459,"is_reserved":false,"is_disabled":false,"rental_uris":{"android":"levelo://app?vid=eb4a8607-4840-45e0-82d9-2d48c7c3477e","ios":"levelo://app?vid=eb4a8607-4840-45e0-82d9-2d48c7c3477e"},"vehicle_type_id":"4","last_reported":1726499362,"current_range_meters":36800,"station_id":"ce4bh012rcd13ifvqd00","pricing_plan_id":"cebpf4jnsgd1na2vs0mg"},{"bike_id":"6f387a41-1a28-4619-ac86-26875678b81b","system_id":"levelo_inurba_marseille","lat":43.29904,"lon":5.43661,"is_reserved":false,"is_disabled":false,"rental_uris":{"android":"levelo://app?vid=6f387a41-1a28-4619-ac86-26875678b81b","ios":"levelo://app?vid=6f387a41-1a28-4619-ac86-26875678b81b"},"vehicle_type_id":"4","last_reported":1726499362,"current_range_meters":26000,"station_id":"ce4bhpp2rcd13ifvqhfg","pricing_plan_id":"cebpf4jnsgd1na2vs0mg"},{"bike_id":"38491c9e-05ec-4ea6-9c2c-20509d7f0762","system_id":"levelo_inurba_marseille","lat":43.28267,"lon":5.35053,"is_reserved":false,"is_disabled":false,"rental_uris":{"android":"levelo://app?vid=38491c9e-05ec-4ea6-9c2c-20509d7f0762","ios":"levelo://app?vid=38491c9e-05ec-4ea6-9c2c-20509d7f0762"},"vehicle_type_id":"4","last_reported":1726499362,"current_range_meters":19600,"station_id":"ce4bhbp2rcd13ifvqerg","pricing_plan_id":"cebpf4jnsgd1na2vs0mg"},{"bike_id":"a11353cf-a7a0-4b6f-9045-658851c9deec","system_id":"levelo_inurba_marseille","lat":43.30552,"lon":5.367,"is_reserved":false,"is_disabled":false,"rental_uris":{"android":"levelo://app?vid=a11353cf-a7a0-4b6f-9045-658851c9deec","ios":"levelo://app?vid=a11353cf-a7a0-4b6f-9045-658851c9deec"},"vehicle_type_id":"4","last_reported":1726499362,"current_range_meters":38800,"station_id":"ce4bgrp2rcd13ifvqc9g","pricing_plan_id":"cebpf4jnsgd1na2vs0mg"},{"bike_id":"40a83f79-65a5-4c6c-b206-c215ca92a492","system_id":"levelo_inurba_marseille","lat":43.29789,"lon":5.39336,"is_reserved":false,"is_disabled":false,"rental_uris":{"android":"levelo://app?vid=40a83f79-65a5-4c6c-b206-c215ca92a492","ios":"levelo://app?vid=40a83f79-65a5-4c6c-b206-c215ca92a492"},"vehicle_type_id":"4","last_reported":1726499362,"current_range_meters":8800,"station_id":"chh1huq6cuj3fo74tm60","pricing_plan_id":"cebpf4jnsgd1na2vs0mg"},{"bike_id":"41dbf2b9-3f2f-419e-a067-6dd2920f7533","system_id":"levelo_inurba_marseille","lat":43.28444,"lon":5.39202,"is_reserved":false,"is_disabled":false,"rental_uris":{"android":"levelo://app?vid=41dbf2b9-3f2f-419e-a067-6dd2920f7533","ios":"levelo://app?vid=41dbf2b9-3f2f-419e-a067-6dd2920f7533"},"vehicle_type_id":"4","last_reported":1726499362,"current_range_meters":20800,"station_id":"ce4bhoh2rcd13ifvqh5g","pricing_plan_id":"cebpf4jnsgd1na2vs0mg"},{"bike_id":"2e1fae96-4597-4564-a65b-3d08c56d0dce","system_id":"levelo_inurba_marseille","lat":43.27998,"lon":5.41653,"is_reserved":false,"is_disabled":false,"rental_uris":{"android":"levelo://app?vid=2e1fae96-4597-4564-a65b-3d08c56d0dce","ios":"levelo://app?vid=2e1fae96-4597-4564-a65b-3d08c56d0dce"},"vehicle_type_id":"4","last_reported":1726499362,"current_range_meters":27600,"station_id":"ce4bho12rcd13ifvqh1g","pricing_plan_id":"cebpf4jnsgd1na2vs0mg"},{"bike_id":"7e1126f0-67ed-4a31-9e1e-12758e309d52","system_id":"levelo_inurba_marseille","lat":43.290283,"lon":5.375074,"is_reserved":false,"is_disabled":false,"rental_uris":{"android":"levelo://app?vid=7e1126f0-67ed-4a31-9e1e-12758e309d52","ios":"levelo://app?vid=7e1126f0-67ed-4a31-9e1e-12758e309d52"},"vehicle_type_id":"4","last_reported":1726499362,"current_range_meters":26000,"station_id":"ce4bh692rcd13ifvqe90","pricing_plan_id":"cebpf4jnsgd1na2vs0mg"},{"bike_id":"bb7330e5-13de-4ae4-aa9b-905759ec90e8","system_id":"levelo_inurba_marseille","lat":43.27208,"lon":5.39183,"is_reserved":false,"is_disabled":false,"rental_uris":{"android":"levelo://app?vid=bb7330e5-13de-4ae4-aa9b-905759ec90e8","ios":"levelo://app?vid=bb7330e5-13de-4ae4-aa9b-905759ec90e8"},"vehicle_type_id":"4","last_reported":1726499362,"current_range_meters":38400,"station_id":"ce4bhhp2rcd13ifvqfm0","pricing_plan_id":"cebpf4jnsgd1na2vs0mg"},{"bike_id":"36026ec5-3ee0-45e3-af94-f1975af7cce0","system_id":"levelo_inurba_marseille","lat":43.29711,"lon":5.3769,"is_reserved":false,"is_disabled":false,"rental_uris":{"android":"levelo://app?vid=36026ec5-3ee0-45e3-af94-f1975af7cce0","ios":"levelo://app?vid=36026ec5-3ee0-45e3-af94-f1975af7cce0"},"vehicle_type_id":"4","last_reported":1726499362,"current_range_meters":36000,"station_id":"ce4bgkh2rcd13ifvqbl0","pricing_plan_id":"cebpf4jnsgd1na2vs0mg"},{"bike_id":"4906488c-22fe-47ff-8e97-915ddd143442","system_id":"levelo_inurba_marseille","lat":43.29517,"lon":5.39396,"is_reserved":false,"is_disabled":false,"rental_uris":{"android":"levelo://app?vid=4906488c-22fe-47ff-8e97-915ddd143442","ios":"levelo://app?vid=4906488c-22fe-47ff-8e97-915ddd143442"},"vehicle_type_id":"4","last_reported":1726499362,"current_range_meters":20000,"station_id":"ce4bh292rcd13ifvqdf0","pricing_plan_id":"cebpf4jnsgd1na2vs0mg"},{"bike_id":"1ed52c16-c160-4b75-9c44-6b71894d92d0","system_id":"levelo_inurba_marseille","lat":43.31229,"lon":5.36854,"is_reserved":false,"is_disabled":false,"rental_uris":{"android":"levelo://app?vid=1ed52c16-c160-4b75-9c44-6b71894d92d0","ios":"levelo://app?vid=1ed52c16-c160-4b75-9c44-6b71894d92d0"},"vehicle_type_id":"4","last_reported":1726499362,"current_range_meters":34800,"station_id":"ce4bgl92rcd13ifvqbq0","pricing_plan_id":"cebpf4jnsgd1na2vs0mg"},{"bike_id":"8d611120-e7df-4704-bfb3-88e366b063c4","system_id":"levelo_inurba_marseille","lat":43.26685,"lon":5.38263,"is_reserved":false,"is_disabled":false,"rental_uris":{"android":"levelo://app?vid=8d611120-e7df-4704-bfb3-88e366b063c4","ios":"levelo://app?vid=8d611120-e7df-4704-bfb3-88e366b063c4"},"vehicle_type_id":"4","last_reported":1726499362,"current_range_meters":30400,"station_id":"ce4bhg92rcd13ifvqf90","pricing_plan_id":"cebpf4jnsgd1na2vs0mg"},{"bike_id":"9106ddff-5120-4c4f-8185-d2759a87beea","system_id":"levelo_inurba_marseille","lat":43.32367,"lon":5.38878,"is_reserved":false,"is_disabled":false,"rental_uris":{"android":"levelo://app?vid=9106ddff-5120-4c4f-8185-d2759a87beea","ios":"levelo://app?vid=9106ddff-5120-4c4f-8185-d2759a87beea"},"vehicle_type_id":"4","last_reported":1726499362,"current_range_meters":17200,"station_id":"ce4bhqp2rcd13ifvqhog","pricing_plan_id":"cebpf4jnsgd1na2vs0mg"},{"bike_id":"3762aca8-49e6-4f28-8a74-0e3ebebfeb9d","system_id":"levelo_inurba_marseille","lat":43.28348,"lon":5.38092,"is_reserved":false,"is_disabled":false,"rental_uris":{"android":"levelo://app?vid=3762aca8-49e6-4f28-8a74-0e3ebebfeb9d","ios":"levelo://app?vid=3762aca8-49e6-4f28-8a74-0e3ebebfeb9d"},"vehicle_type_id":"4","last_reported":1726499362,"current_range_meters":6400,"station_id":"ce4bh412rcd13ifvqdr0","pricing_plan_id":"cebpf4jnsgd1na2vs0mg"},{"bike_id":"fccccb4f-d4e8-48f7-b5dd-c21ffbe0ef1f","system_id":"levelo_inurba_marseille","lat":43.31197,"lon":5.38462,"is_reserved":false,"is_disabled":false,"rental_uris":{"android":"levelo://app?vid=fccccb4f-d4e8-48f7-b5dd-c21ffbe0ef1f","ios":"levelo://app?vid=fccccb4f-d4e8-48f7-b5dd-c21ffbe0ef1f"},"vehicle_type_id":"4","last_reported":1726499362,"current_range_meters":15200,"station_id":"","pricing_plan_id":"cebpf4jnsgd1na2vs0mg"},{"bike_id":"0c55c66b-7bee-42bf-aa97-13b51de70d49","system_id":"levelo_inurba_marseille","lat":43.31336,"lon":5.39688,"is_reserved":false,"is_disabled":false,"rental_uris":{"android":"levelo://app?vid=0c55c66b-7bee-42bf-aa97-13b51de70d49","ios":"levelo://app?vid=0c55c66b-7bee-42bf-aa97-13b51de70d49"},"vehicle_type_id":"4","last_reported":1726499362,"current_range_meters":17600,"station_id":"ce4bgvp2rcd13ifvqcu0","pricing_plan_id":"cebpf4jnsgd1na2vs0mg"},{"bike_id":"63b3292c-fdfc-47f6-901a-5d38dd642a88","system_id":"levelo_inurba_marseille","lat":43.3114,"lon":5.39333,"is_reserved":false,"is_disabled":false,"rental_uris":{"android":"levelo://app?vid=63b3292c-fdfc-47f6-901a-5d38dd642a88","ios":"levelo://app?vid=63b3292c-fdfc-47f6-901a-5d38dd642a88"},"vehicle_type_id":"4","last_reported":1726499362,"current_range_meters":8800,"station_id":"","pricing_plan_id":"cebpf4jnsgd1na2vs0mg"},{"bike_id":"43bffa8e-e3d8-495a-9ef2-6bf056ff1168","system_id":"levelo_inurba_marseille","lat":43.28085,"lon":5.39662,"is_reserved":false,"is_disabled":false,"rental_uris":{"android":"levelo://app?vid=43bffa8e-e3d8-495a-9ef2-6bf056ff1168","ios":"levelo://app?vid=43bffa8e-e3d8-495a-9ef2-6bf056ff1168"},"vehicle_type_id":"4","last_reported":1726499362,"current_range_meters":8800,"station_id":"ce4bho12rcd13ifvqh2g","pricing_plan_id":"cebpf4jnsgd1na2vs0mg"},{"bike_id":"0381ae05-82f7-4904-a2d2-24117c22525a","system_id":"levelo_inurba_marseille","lat":43.28357,"lon":5.38103,"is_reserved":false,"is_disabled":false,"rental_uris":{"android":"levelo://app?vid=0381ae05-82f7-4904-a2d2-24117c22525a","ios":"levelo://app?vid=0381ae05-82f7-4904-a2d2-24117c22525a"},"vehicle_type_id":"4","last_reported":1726499362,"current_range_meters":38800,"station_id":"","pricing_plan_id":"cebpf4jnsgd1na2vs0mg"},{"bike_id":"591c7935-bff8-491a-b31d-55e5f267557c","system_id":"levelo_inurba_marseille","lat":43.28701,"lon":5.39986,"is_reserved":false,"is_disabled":false,"rental_uris":{"android":"levelo://app?vid=591c7935-bff8-491a-b31d-55e5f267557c","ios":"levelo://app?vid=591c7935-bff8-491a-b31d-55e5f267557c"},"vehicle_type_id":"4","last_reported":1726499362,"current_range_meters":38800,"station_id":"ce4bho92rcd13ifvqh3g","pricing_plan_id":"cebpf4jnsgd1na2vs0mg"},{"bike_id":"c692ab99-c2e6-4e15-8d09-f4b9b480ecc5","system_id":"levelo_inurba_marseille","lat":43.28567,"lon":5.39488,"is_reserved":false,"is_disabled":false,"rental_uris":{"android":"levelo://app?vid=c692ab99-c2e6-4e15-8d09-f4b9b480ecc5","ios":"levelo://app?vid=c692ab99-c2e6-4e15-8d09-f4b9b480ecc5"},"vehicle_type_id":"4","last_reported":1726499362,"current_range_meters":6400,"station_id":"ce4bh292rcd13ifvqdg0","pricing_plan_id":"cebpf4jnsgd1na2vs0mg"},{"bike_id":"ade08cfe-33bf-4ed5-bf96-900a1042d054","system_id":"levelo_inurba_marseille","lat":43.30345,"lon":5.39379,"is_reserved":false,"is_disabled":false,"rental_uris":{"android":"levelo://app?vid=ade08cfe-33bf-4ed5-bf96-900a1042d054","ios":"levelo://app?vid=ade08cfe-33bf-4ed5-bf96-900a1042d054"},"vehicle_type_id":"4","last_reported":1726499362,"current_range_meters":16800,"station_id":"","pricing_plan_id":"cebpf4jnsgd1na2vs0mg"},{"bike_id":"db865793-aa7c-4f02-a065-6a457f5ad6dc","system_id":"levelo_inurba_marseille","lat":43.30093,"lon":5.3651,"is_reserved":false,"is_disabled":false,"rental_uris":{"android":"levelo://app?vid=db865793-aa7c-4f02-a065-6a457f5ad6dc","ios":"levelo://app?vid=db865793-aa7c-4f02-a065-6a457f5ad6dc"},"vehicle_type_id":"4","last_reported":1726499362,"current_range_meters":4000,"station_id":"","pricing_plan_id":"cebpf4jnsgd1na2vs0mg"},{"bike_id":"bd5c63c8-2eab-41fe-ad45-1f264e8e94bc","system_id":"levelo_inurba_marseille","lat":43.31166,"lon":5.387,"is_reserved":false,"is_disabled":false,"rental_uris":{"android":"levelo://app?vid=bd5c63c8-2eab-41fe-ad45-1f264e8e94bc","ios":"levelo://app?vid=bd5c63c8-2eab-41fe-ad45-1f264e8e94bc"},"vehicle_type_id":"4","last_reported":1726499362,"current_range_meters":22800,"station_id":"ce4bgv12rcd13ifvqcp0","pricing_plan_id":"cebpf4jnsgd1na2vs0mg"},{"bike_id":"32cf184f-c7fa-4d36-9e7e-6c0322c28147","system_id":"levelo_inurba_marseille","lat":43.27674,"lon":5.39788,"is_reserved":false,"is_disabled":false,"rental_uris":{"android":"levelo://app?vid=32cf184f-c7fa-4d36-9e7e-6c0322c28147","ios":"levelo://app?vid=32cf184f-c7fa-4d36-9e7e-6c0322c28147"},"vehicle_type_id":"4","last_reported":1726499362,"current_range_meters":28400,"station_id":"ce4bhih2rcd13ifvqfr0","pricing_plan_id":"cebpf4jnsgd1na2vs0mg"},{"bike_id":"cc8dc6a6-c0fe-4024-b45f-eae59a2ae42a","system_id":"levelo_inurba_marseille","lat":43.248092,"lon":5.374998,"is_reserved":false,"is_disabled":false,"rental_uris":{"android":"levelo://app?vid=cc8dc6a6-c0fe-4024-b45f-eae59a2ae42a","ios":"levelo://app?vid=cc8dc6a6-c0fe-4024-b45f-eae59a2ae42a"},"vehicle_type_id":"4","last_reported":1726499362,"current_range_meters":21600,"station_id":"ce4bhgh2rcd13ifvqfb0","pricing_plan_id":"cebpf4jnsgd1na2vs0mg"},{"bike_id":"18ea7b41-e6e2-4b83-ae3d-93c8331910c4","system_id":"levelo_inurba_marseille","lat":43.25,"lon":5.38936,"is_reserved":false,"is_disabled":false,"rental_uris":{"android":"levelo://app?vid=18ea7b41-e6e2-4b83-ae3d-93c8331910c4","ios":"levelo://app?vid=18ea7b41-e6e2-4b83-ae3d-93c8331910c4"},"vehicle_type_id":"4","last_reported":1726499362,"current_range_meters":12400,"station_id":"ce4bhgp2rcd13ifvqfd0","pricing_plan_id":"cebpf4jnsgd1na2vs0mg"},{"bike_id":"b9861e62-b31c-4cb4-9f1c-caac7022a220","system_id":"levelo_inurba_marseille","lat":43.280884,"lon":5.396574,"is_reserved":false,"is_disabled":false,"rental_uris":{"android":"levelo://app?vid=b9861e62-b31c-4cb4-9f1c-caac7022a220","ios":"levelo://app?vid=b9861e62-b31c-4cb4-9f1c-caac7022a220"},"vehicle_type_id":"4","last_reported":1726499362,"current_range_meters":4000,"station_id":"ce4bho12rcd13ifvqh2g","pricing_plan_id":"cebpf4jnsgd1na2vs0mg"},{"bike_id":"4221412a-f787-4072-97ae-5cff09417b24","system_id":"levelo_inurba_marseille","lat":43.24665,"lon":5.38157,"is_reserved":false,"is_disabled":false,"rental_uris":{"android":"levelo://app?vid=4221412a-f787-4072-97ae-5cff09417b24","ios":"levelo://app?vid=4221412a-f787-4072-97ae-5cff09417b24"},"vehicle_type_id":"4","last_reported":1726499362,"current_range_meters":8000,"station_id":"ce4bhih2rcd13ifvqfr0","pricing_plan_id":"cebpf4jnsgd1na2vs0mg"},{"bike_id":"e7c5e1c7-9f20-46f9-9371-ee3f33df5936","system_id":"levelo_inurba_marseille","lat":43.32484,"lon":5.36562,"is_reserved":false,"is_disabled":false,"rental_uris":{"android":"levelo://app?vid=e7c5e1c7-9f20-46f9-9371-ee3f33df5936","ios":"levelo://app?vid=e7c5e1c7-9f20-46f9-9371-ee3f33df5936"},"vehicle_type_id":"4","last_reported":1726499362,"current_range_meters":37600,"station_id":"ce4bhs12rcd13ifvqhvg","pricing_plan_id":"cebpf4jnsgd1na2vs0mg"},{"bike_id":"ec2daf60-8a28-41bc-a623-a340cf220bc7","system_id":"levelo_inurba_marseille","lat":43.31078,"lon":5.38349,"is_reserved":false,"is_disabled":false,"rental_uris":{"android":"levelo://app?vid=ec2daf60-8a28-41bc-a623-a340cf220bc7","ios":"levelo://app?vid=ec2daf60-8a28-41bc-a623-a340cf220bc7"},"vehicle_type_id":"4","last_reported":1726499362,"current_range_meters":36400,"station_id":"ce4bgv92rcd13ifvqcr0","pricing_plan_id":"cebpf4jnsgd1na2vs0mg"},{"bike_id":"86ed7328-6f9b-4084-a1ad-8ce95640c02e","system_id":"levelo_inurba_marseille","lat":43.239781,"lon":5.366489,"is_reserved":false,"is_disabled":false,"rental_uris":{"android":"levelo://app?vid=86ed7328-6f9b-4084-a1ad-8ce95640c02e","ios":"levelo://app?vid=86ed7328-6f9b-4084-a1ad-8ce95640c02e"},"vehicle_type_id":"4","last_reported":1726499362,"current_range_meters":11200,"station_id":"ce4bhi12rcd13ifvqfp0","pricing_plan_id":"cebpf4jnsgd1na2vs0mg"},{"bike_id":"b97a7743-2e7e-4c69-a003-9cc01c170b29","system_id":"levelo_inurba_marseille","lat":43.26518,"lon":5.40862,"is_reserved":false,"is_disabled":false,"rental_uris":{"android":"levelo://app?vid=b97a7743-2e7e-4c69-a003-9cc01c170b29","ios":"levelo://app?vid=b97a7743-2e7e-4c69-a003-9cc01c170b29"},"vehicle_type_id":"4","last_reported":1726499362,"current_range_meters":2800,"station_id":"","pricing_plan_id":"cebpf4jnsgd1na2vs0mg"},{"bike_id":"5bb1d010-0238-448f-a470-fc44e8685316","system_id":"levelo_inurba_marseille","lat":43.23202,"lon":5.35545,"is_reserved":false,"is_disabled":false,"rental_uris":{"android":"levelo://app?vid=5bb1d010-0238-448f-a470-fc44e8685316","ios":"levelo://app?vid=5bb1d010-0238-448f-a470-fc44e8685316"},"vehicle_type_id":"4","last_reported":1726499362,"current_range_meters":38800,"station_id":"ce4bhu92rcd13ifvqi70","pricing_plan_id":"cebpf4jnsgd1na2vs0mg"},{"bike_id":"8c9fa821-80a8-4a67-92d4-1848bf5926c1","system_id":"levelo_inurba_marseille","lat":43.28613,"lon":5.37059,"is_reserved":false,"is_disabled":false,"rental_uris":{"android":"levelo://app?vid=8c9fa821-80a8-4a67-92d4-1848bf5926c1","ios":"levelo://app?vid=8c9fa821-80a8-4a67-92d4-1848bf5926c1"},"vehicle_type_id":"4","last_reported":1726499362,"current_range_meters":38000,"station_id":"ce4bht12rcd13ifvqi60","pricing_plan_id":"cebpf4jnsgd1na2vs0mg"},{"bike_id":"d5cbb5a6-9f9a-4b79-be45-47e268622947","system_id":"levelo_inurba_marseille","lat":43.25109,"lon":5.4032,"is_reserved":false,"is_disabled":false,"rental_uris":{"android":"levelo://app?vid=d5cbb5a6-9f9a-4b79-be45-47e268622947","ios":"levelo://app?vid=d5cbb5a6-9f9a-4b79-be45-47e268622947"},"vehicle_type_id":"4","last_reported":1726499362,"current_range_meters":4400,"station_id":"ce4bhlh2rcd13ifvqgig","pricing_plan_id":"cebpf4jnsgd1na2vs0mg"},{"bike_id":"d647862e-39bd-4344-9f80-f008be1e329d","system_id":"levelo_inurba_marseille","lat":43.32048,"lon":5.41543,"is_reserved":false,"is_disabled":false,"rental_uris":{"android":"levelo://app?vid=d647862e-39bd-4344-9f80-f008be1e329d","ios":"levelo://app?vid=d647862e-39bd-4344-9f80-f008be1e329d"},"vehicle_type_id":"4","last_reported":1726499362,"current_range_meters":10000,"station_id":"ce4bhq92rcd13ifvqhkg","pricing_plan_id":"cebpf4jnsgd1na2vs0mg"},{"bike_id":"b0420d04-0686-49a6-baf7-07cce9d5457f","system_id":"levelo_inurba_marseille","lat":43.28411,"lon":5.34971,"is_reserved":false,"is_disabled":false,"rental_uris":{"android":"levelo://app?vid=b0420d04-0686-49a6-baf7-07cce9d5457f","ios":"levelo://app?vid=b0420d04-0686-49a6-baf7-07cce9d5457f"},"vehicle_type_id":"4","last_reported":1726499362,"current_range_meters":39200,"station_id":"ce4bhbh2rcd13ifvqepg","pricing_plan_id":"cebpf4jnsgd1na2vs0mg"},{"bike_id":"c2e5d5ee-484b-42d2-97bb-30fd992faf4b","system_id":"levelo_inurba_marseille","lat":43.23193,"lon":5.35546,"is_reserved":false,"is_disabled":false,"rental_uris":{"android":"levelo://app?vid=c2e5d5ee-484b-42d2-97bb-30fd992faf4b","ios":"levelo://app?vid=c2e5d5ee-484b-42d2-97bb-30fd992faf4b"},"vehicle_type_id":"4","last_reported":1726499362,"current_range_meters":17200,"station_id":"ce4bhu92rcd13ifvqi70","pricing_plan_id":"cebpf4jnsgd1na2vs0mg"},