{"last_updated":1689887153,"ttl":30,"version":"2.2","data":{"bikes":[{"bike_id":"ee868865-3deb-4eeb-8ec9-c434948d6b5b","system_id":"levelo_inurba_marseille","lat":43.312239,"lon":5.368562,"is_reserved":false,"is_disabled":false,"rental_uris":{"android":"levelo://app?vid=ee868865-3deb-4eeb-8ec9-c434948d6b5b","ios":"levelo://app?vid=ee868865-3deb-4eeb-8ec9-c434948d6b5b"},"vehicle_type_id":"4","last_reported":1689887154,"current_range_meters":30000,"station_id":"ce4bgl92rcd13ifvqbq0","pricing_plan_id":"free"},{"bike_id":"fc8e225d-ee91-410b-a556-ef2e81cdbebd","system_id":"levelo_inurba_marseille","lat":43.312239,"lon":5.368562,"is_reserved":false,"is_disabled":false,"rental_uris":{"android":"levelo://app?vid=fc8e225d-ee91-410b-a556-ef2e81cdbebd","ios":"levelo://app?vid=fc8e225d-ee91-410b-a556-ef2e81cdbebd"},"vehicle_type_id":"4","last_reported":1689887154,"current_range_meters":3200,"station_id":"ce4bgl92rcd13ifvqbq0","pricing_plan_id":"free"},{"bike_id":"9337eb76-faea-40cb-9f25-f8c76d1e53c7","system_id":"levelo_inurba_marseille","lat":43.312239,"lon":5.368562,"is_reserved":false,"is_disabled":false,"rental_uris":{"android":"levelo://app?vid=9337eb76-faea-40cb-9f25-f8c76d1e53c7","ios":"levelo://app?vid=9337eb76-faea-40cb-9f25-f8c76d1e53c7"},"vehicle_type_id":"4","last_reported":1689887154,"current_range_meters":0,"station_id":"ce4bgl92rcd13ifvqbq0","pricing_plan_id":"free"},{"bike_id":"474c2792-3c5a-4d02-aa82-8cc1aa13d7d2","system_id":"levelo_inurba_marseille","lat":43.309076,"lon":5.368465,"is_reserved":false,"is_disabled":false,"rental_uris":{"android":"levelo://app?vid=474c2792-3c5a-4d02-aa82-8cc1aa13d7d2","ios":"levelo://app?vid=474c2792-3c5a-4d02-aa82-8cc1aa13d7d2"},"vehicle_type_id":"4","last_reported":1689887154,"current_range_meters":30000,"station_id":"ce4bgn92rcd13ifvqbvg","pricing_plan_id":"free"},{"bike_id":"e922a4c1-98e6-46f7-9e67-e23dd51f9aba","system_id":"levelo_inurba_marseille","lat":43.314811,"lon":5.373103,"is_reserved":false,"is_disabled":false,"rental_uris":{"android":"levelo://app?vid=e922a4c1-98e6-46f7-9e67-e23dd51f9aba","ios":"levelo://app?vid=e922a4c1-98e6-46f7-9e67-e23dd51f9aba"},"vehicle_type_id":"4","last_reported":1689887154,"current_range_meters":27600,"station_id":"ce4bgt12rcd13ifvqcd0","pricing_plan_id":"free"},{"bike_id":"caf03d25-0bed-4a23-bd6e-03550056f509","system_id":"levelo_inurba_marseille","lat":43.314811,"lon":5.373104,"is_reserved":false,"is_disabled":false,"rental_uris":{"android":"levelo://app?vid=caf03d25-0bed-4a23-bd6e-03550056f509","ios":"levelo://app?vid=caf03d25-0bed-4a23-bd6e-03550056f509"},"vehicle_type_id":"4","last_reported":1689887154,"current_range_meters":30400,"station_id":"ce4bgt12rcd13ifvqcd0","pricing_plan_id":"free"},{"bike_id":"e01fe0e3-5719-4c86-b24a-9a466b3a62ae","system_id":"levelo_inurba_marseille","lat":43.309039,"lon":5.371797,"is_reserved":false,"is_disabled":false,"rental_uris":{"android":"levelo://app?vid=e01fe0e3-5719-4c86-b24a-9a466b3a62ae","ios":"levelo://app?vid=e01fe0e3-5719-4c86-b24a-9a466b3a62ae"},"vehicle_type_id":"4","last_reported":1689887154,"current_range_meters":22000,"station_id":"ce4bguh2rcd13ifvqckg","pricing_plan_id":"free"},{"bike_id":"8dab606f-2c1b-4486-94b1-66ef570c57d5","system_id":"levelo_inurba_marseille","lat":43.30894,"lon":5.37271,"is_reserved":false,"is_disabled":false,"rental_uris":{"android":"levelo://app?vid=8dab606f-2c1b-4486-94b1-66ef570c57d5","ios":"levelo://app?vid=8dab606f-2c1b-4486-94b1-66ef570c57d5"},"vehicle_type_id":"4","last_reported":1689887154,"current_range_meters":7600,"station_id":"","pricing_plan_id":"free"},{"bike_id":"d5452eac-45ec-41ca-8734-58f25f4b1789","system_id":"levelo_inurba_marseille","lat":43.31324,"lon":5.37685,"is_reserved":false,"is_disabled":false,"rental_uris":{"android":"levelo://app?vid=d5452eac-45ec-41ca-8734-58f25f4b1789","ios":"levelo://app?vid=d5452eac-45ec-41ca-8734-58f25f4b1789"},"vehicle_type_id":"4","last_reported":1689887154,"current_range_meters":21600,"station_id":"","pricing_plan_id":"free"},{"bike_id":"9ebfdadf-eebb-4934-973d-55963c25c762","system_id":"levelo_inurba_marseille","lat":43.30606,"lon":5.37224,"is_reserved":false,"is_disabled":false,"rental_uris":{"android":"levelo://app?vid=9ebfdadf-eebb-4934-973d-55963c25c762","ios":"levelo://app?vid=9ebfdadf-eebb-4934-973d-55963c25c762"},"vehicle_type_id":"4","last_reported":1689887154,"current_range_meters":31200,"station_id":"ce4bgqh2rcd13ifvqc4g","pricing_plan_id":"free"},{"bike_id":"0278d48d-b860-4e67-8f9e-724839e5f29a","system_id":"levelo_inurba_marseille","lat":43.30599,"lon":5.3721,"is_reserved":false,"is_disabled":false,"rental_uris":{"android":"levelo://app?vid=0278d48d-b860-4e67-8f9e-724839e5f29a","ios":"levelo://app?vid=0278d48d-b860-4e67-8f9e-724839e5f29a"},"vehicle_type_id":"4","last_reported":1689887154,"current_range_meters":4800,"station_id":"ce4bgqh2rcd13ifvqc4g","pricing_plan_id":"free"},{"bike_id":"a91d35ed-a6bf-4286-a04a-46742cd57327","system_id":"levelo_inurba_marseille","lat":43.30595,"lon":5.37207,"is_reserved":false,"is_disabled":false,"rental_uris":{"android":"levelo://app?vid=a91d35ed-a6bf-4286-a04a-46742cd57327","ios":"levelo://app?vid=a91d35ed-a6bf-4286-a04a-46742cd57327"},"vehicle_type_id":"4","last_reported":1689887154,"current_range_meters":12400,"station_id":"ce4bgqh2rcd13ifvqc4g","pricing_plan_id":"free"},{"bike_id":"ef4e23d0-e53d-4cc8-939b-a5042a31c202","system_id":"levelo_inurba_marseille","lat":43.30597,"lon":5.37219,"is_reserved":false,"is_disabled":false,"rental_uris":{"android":"levelo://app?vid=ef4e23d0-e53d-4cc8-939b-a5042a31c202","ios":"levelo://app?vid=ef4e23d0-e53d-4cc8-939b-a5042a31c202"},"vehicle_type_id":"4","last_reported":1689887154,"current_range_meters":8400,"station_id":"ce4bgqh2rcd13ifvqc4g","pricing_plan_id":"free"},{"bike_id":"9d9ee745-4e09-4a4b-97c4-ca8de0e0983c","system_id":"levelo_inurba_marseille","lat":43.311131,"lon":5.377651,"is_reserved":false,"is_disabled":false,"rental_uris":{"android":"levelo://app?vid=9d9ee745-4e09-4a4b-97c4-ca8de0e0983c","ios":"levelo://app?vid=9d9ee745-4e09-4a4b-97c4-ca8de0e0983c"},"vehicle_type_id":"4","last_reported":1689887154,"current_range_meters":18400,"station_id":"ce4bgt92rcd13ifvqcg0","pricing_plan_id":"free"},{"bike_id":"b53fba96-5a98-43d7-a469-593701b7dc77","system_id":"levelo_inurba_marseille","lat":43.311131,"lon":5.377651,"is_reserved":false,"is_disabled":false,"rental_uris":{"android":"levelo://app?vid=b53fba96-5a98-43d7-a469-593701b7dc77","ios":"levelo://app?vid=b53fba96-5a98-43d7-a469-593701b7dc77"},"vehicle_type_id":"4","last_reported":1689887154,"current_range_meters":22400,"station_id":"ce4bgt92rcd13ifvqcg0","pricing_plan_id":"free"},{"bike_id":"e1b54f07-18fc-4b10-a9f3-bcb5499b413c","system_id":"levelo_inurba_marseille","lat":43.31114,"lon":5.37762,"is_reserved":false,"is_disabled":false,"rental_uris":{"android":"levelo://app?vid=e1b54f07-18fc-4b10-a9f3-bcb5499b413c","ios":"levelo://app?vid=e1b54f07-18fc-4b10-a9f3-bcb5499b413c"},"vehicle_type_id":"4","last_reported":1689887154,"current_range_meters":25600,"station_id":"ce4bgt92rcd13ifvqcg0","pricing_plan_id":"free"},{"bike_id":"a2885ffa-9bea-4cbc-9c31-67a3926c597c","system_id":"levelo_inurba_marseille","lat":43.311131,"lon":5.377651,"is_reserved":false,"is_disabled":false,"rental_uris":{"android":"levelo://app?vid=a2885ffa-9bea-4cbc-9c31-67a3926c597c","ios":"levelo://app?vid=a2885ffa-9bea-4cbc-9c31-67a3926c597c"},"vehicle_type_id":"4","last_reported":1689887154,"current_range_meters":29200,"station_id":"ce4bgt92rcd13ifvqcg0","pricing_plan_id":"free"},{"bike_id":"77366868-9b0f-4f78-a634-5a63b8e7325d","system_id":"levelo_inurba_marseille","lat":43.311131,"lon":5.377651,"is_reserved":false,"is_disabled":false,"rental_uris":{"android":"levelo://app?vid=77366868-9b0f-4f78-a634-5a63b8e7325d","ios":"levelo://app?vid=77366868-9b0f-4f78-a634-5a63b8e7325d"},"vehicle_type_id":"4","last_reported":1689887154,"current_range_meters":23200,"station_id":"ce4bgt92rcd13ifvqcg0","pricing_plan_id":"free"},{"bike_id":"66aefc04-5d84-4233-852b-587f973d89b4","system_id":"levelo_inurba_marseille","lat":43.311131,"lon":5.377651,"is_reserved":false,"is_disabled":false,"rental_uris":{"android":"levelo://app?vid=66aefc04-5d84-4233-852b-587f973d89b4","ios":"levelo://app?vid=66aefc04-5d84-4233-852b-587f973d89b4"},"vehicle_type_id":"4","last_reported":1689887154,"current_range_meters":6800,"station_id":"ce4bgt92rcd13ifvqcg0","pricing_plan_id":"free"},{"bike_id":"133868eb-e4ff-4cf2-b15b-7a4986368120","system_id":"levelo_inurba_marseille","lat":43.311125,"lon":5.377624,"is_reserved":false,"is_disabled":false,"rental_uris":{"android":"levelo://app?vid=133868eb-e4ff-4cf2-b15b-7a4986368120","ios":"levelo://app?vid=133868eb-e4ff-4cf2-b15b-7a4986368120"},"vehicle_type_id":"4","last_reported":1689887154,"current_range_meters":18400,"station_id":"ce4bgt92rcd13ifvqcg0","pricing_plan_id":"free"},{"bike_id":"3fc3f963-1b3f-4e8e-9cf1-6afee6162c3c","system_id":"levelo_inurba_marseille","lat":43.311131,"lon":5.377651,"is_reserved":false,"is_disabled":false,"rental_uris":{"android":"levelo://app?vid=3fc3f963-1b3f-4e8e-9cf1-6afee6162c3c","ios":"levelo://app?vid=3fc3f963-1b3f-4e8e-9cf1-6afee6162c3c"},"vehicle_type_id":"4","last_reported":1689887154,"current_range_meters":12400,"station_id":"ce4bgt92rcd13ifvqcg0","pricing_plan_id":"free"},{"bike_id":"a7427066-35f8-40ff-bc65-b6c2edb942e9","system_id":"levelo_inurba_marseille","lat":43.311125,"lon":5.377624,"is_reserved":false,"is_disabled":false,"rental_uris":{"android":"levelo://app?vid=a7427066-35f8-40ff-bc65-b6c2edb942e9","ios":"levelo://app?vid=a7427066-35f8-40ff-bc65-b6c2edb942e9"},"vehicle_type_id":"4","last_reported":1689887154,"current_range_meters":22400,"station_id":"ce4bgt92rcd13ifvqcg0","pricing_plan_id":"free"},{"bike_id":"eec0cd8f-71e2-405c-920c-b26cce0a3505","system_id":"levelo_inurba_marseille","lat":43.307945,"lon":5.376487,"is_reserved":false,"is_disabled":false,"rental_uris":{"android":"levelo://app?vid=eec0cd8f-71e2-405c-920c-b26cce0a3505","ios":"levelo://app?vid=eec0cd8f-71e2-405c-920c-b26cce0a3505"},"vehicle_type_id":"4","last_reported":1689887154,"current_range_meters":14800,"station_id":"ce4bgv92rcd13ifvqcq0","pricing_plan_id":"free"},{"bike_id":"5a210359-7a4e-4557-a14c-3ef71252d471","system_id":"levelo_inurba_marseille","lat":43.307945,"lon":5.376487,"is_reserved":false,"is_disabled":false,"rental_uris":{"android":"levelo://app?vid=5a210359-7a4e-4557-a14c-3ef71252d471","ios":"levelo://app?vid=5a210359-7a4e-4557-a14c-3ef71252d471"},"vehicle_type_id":"4","last_reported":1689887154,"current_range_meters":10400,"station_id":"ce4bgv92rcd13ifvqcq0","pricing_plan_id":"free"},{"bike_id":"90f68d46-9808-45eb-be7a-3810acdcc848","system_id":"levelo_inurba_marseille","lat":43.317075,"lon":5.377367,"is_reserved":false,"is_disabled":false,"rental_uris":{"android":"levelo://app?vid=90f68d46-9808-45eb-be7a-3810acdcc848","ios":"levelo://app?vid=90f68d46-9808-45eb-be7a-3810acdcc848"},"vehicle_type_id":"4","last_reported":1689887154,"current_range_meters":20800,"station_id":"ce4bgth2rcd13ifvqch0","pricing_plan_id":"free"},{"bike_id":"9c48ab55-8485-48aa-b898-1271c1e21270","system_id":"levelo_inurba_marseille","lat":43.317075,"lon":5.377367,"is_reserved":false,"is_disabled":false,"rental_uris":{"android":"levelo://app?vid=9c48ab55-8485-48aa-b898-1271c1e21270","ios":"levelo://app?vid=9c48ab55-8485-48aa-b898-1271c1e21270"},"vehicle_type_id":"4","last_reported":1689887154,"current_range_meters":14400,"station_id":"ce4bgth2rcd13ifvqch0","pricing_plan_id":"free"},{"bike_id":"d2f28115-ce73-4e05-817b-c57888f17678","system_id":"levelo_inurba_marseille","lat":43.317075,"lon":5.377367,"is_reserved":false,"is_disabled":false,"rental_uris":{"android":"levelo://app?vid=d2f28115-ce73-4e05-817b-c57888f17678","ios":"levelo://app?vid=d2f28115-ce73-4e05-817b-c57888f17678"},"vehicle_type_id":"4","last_reported":1689887154,"current_range_meters":30000,"station_id":"ce4bgth2rcd13ifvqch0","pricing_plan_id":"free"},{"bike_id":"07a3d1cc-a031-4d92-af1f-19e5cc0028e2","system_id":"levelo_inurba_marseille","lat":43.317075,"lon":5.377367,"is_reserved":false,"is_disabled":false,"rental_uris":{"android":"levelo://app?vid=07a3d1cc-a031-4d92-af1f-19e5cc0028e2","ios":"levelo://app?vid=07a3d1cc-a031-4d92-af1f-19e5cc0028e2"},"vehicle_type_id":"4","last_reported":1689887154,"current_range_meters":30400,"station_id":"ce4bgth2rcd13ifvqch0","pricing_plan_id":"free"},{"bike_id":"ad6abd5f-3943-4d99-9f19-8ffdb291eacb","system_id":"levelo_inurba_marseille","lat":43.303046,"lon":5.368981,"is_reserved":false,"is_disabled":false,"rental_uris":{"android":"levelo://app?vid=ad6abd5f-3943-4d99-9f19-8ffdb291eacb","ios":"levelo://app?vid=ad6abd5f-3943-4d99-9f19-8ffdb291eacb"},"vehicle_type_id":"4","last_reported":1689887154,"current_range_meters":11200,"station_id":"ce4bgqh2rcd13ifvqc5g","pricing_plan_id":"free"},{"bike_id":"a2e136f1-c728-4018-88c2-a46aa30aa3c2","system_id":"levelo_inurba_marseille","lat":43.303046,"lon":5.368981,"is_reserved":false,"is_disabled":false,"rental_uris":{"android":"levelo://app?vid=a2e136f1-c728-4018-88c2-a46aa30aa3c2","ios":"levelo://app?vid=a2e136f1-c728-4018-88c2-a46aa30aa3c2"},"vehicle_type_id":"4","last_reported":1689887154,"current_range_meters":27600,"station_id":"ce4bgqh2rcd13ifvqc5g","pricing_plan_id":"free"},{"bike_id":"5469a797-6080-4da2-8e88-36db2a08c51f","system_id":"levelo_inurba_marseille","lat":43.315293,"lon":5.380349,"is_reserved":false,"is_disabled":false,"rental_uris":{"android":"levelo://app?vid=5469a797-6080-4da2-8e88-36db2a08c51f","ios":"levelo://app?vid=5469a797-6080-4da2-8e88-36db2a08c51f"},"vehicle_type_id":"4","last_reported":1689887154,"current_range_meters":31200,"station_id":"ce4bhsp2rcd13ifvqi50","pricing_plan_id":"free"},{"bike_id":"5e2ea3e2-8061-48b7-b65c-a6bfc91e7829","system_id":"levelo_inurba_marseille","lat":43.315293,"lon":5.380349,"is_reserved":false,"is_disabled":false,"rental_uris":{"android":"levelo://app?vid=5e2ea3e2-8061-48b7-b65c-a6bfc91e7829","ios":"levelo://app?vid=5e2ea3e2-8061-48b7-b65c-a6bfc91e7829"},"vehicle_type_id":"4","last_reported":1689887154,"current_range_meters":16400,"station_id":"ce4bhsp2rcd13ifvqi50","pricing_plan_id":"free"},{"bike_id":"42cb00a9-8a79-423f-acac-f6204a122367","system_id":"levelo_inurba_marseille","lat":43.315293,"lon":5.380349,"is_reserved":false,"is_disabled":false,"rental_uris":{"android":"levelo://app?vid=42cb00a9-8a79-423f-acac-f6204a122367","ios":"levelo://app?vid=42cb00a9-8a79-423f-acac-f6204a122367"},"vehicle_type_id":"4","last_reported":1689887154,"current_range_meters":14000,"station_id":"ce4bhsp2rcd13ifvqi50","pricing_plan_id":"free"},{"bike_id":"4436477a-d00c-4d95-8691-3d3c895c7928","system_id":"levelo_inurba_marseille","lat":43.315293,"lon":5.380349,"is_reserved":false,"is_disabled":false,"rental_uris":{"android":"levelo://app?vid=4436477a-d00c-4d95-8691-3d3c895c7928","ios":"levelo://app?vid=4436477a-d00c-4d95-8691-3d3c895c7928"},"vehicle_type_id":"4","last_reported":1689887154,"current_range_meters":9600,"station_id":"ce4bhsp2rcd13ifvqi50","pricing_plan_id":"free"},{"bike_id":"f021bcb9-e917-45c1-aedf-92f9fce5cb8a","system_id":"levelo_inurba_marseille","lat":43.315293,"lon":5.380349,"is_reserved":false,"is_disabled":false,"rental_uris":{"android":"levelo://app?vid=f021bcb9-e917-45c1-aedf-92f9fce5cb8a","ios":"levelo://app?vid=f021bcb9-e917-45c1-aedf-92f9fce5cb8a"},"vehicle_type_id":"4","last_reported":1689887154,"current_range_meters":2000,"station_id":"ce4bhsp2rcd13ifvqi50","pricing_plan_id":"free"},{"bike_id":"4a34aa67-c9fd-49b3-9546-dcc8e3fa0491","system_id":"levelo_inurba_marseille","lat":43.315293,"lon":5.380349,"is_reserved":false,"is_disabled":false,"rental_uris":{"android":"levelo://app?vid=4a34aa67-c9fd-49b3-9546-dcc8e3fa0491","ios":"levelo://app?vid=4a34aa67-c9fd-49b3-9546-dcc8e3fa0491"},"vehicle_type_id":"4","last_reported":1689887154,"current_range_meters":18400,"station_id":"ce4bhsp2rcd13ifvqi50","pricing_plan_id":"free"},{"bike_id":"a64eeb34-5157-4c1d-ad86-7d99b2dec06f","system_id":"levelo_inurba_marseille","lat":43.301939,"lon":5.366286,"is_reserved":false,"is_disabled":false,"rental_uris":{"android":"levelo://app?vid=a64eeb34-5157-4c1d-ad86-7d99b2dec06f","ios":"levelo://app?vid=a64eeb34-5157-4c1d-ad86-7d99b2dec06f"},"vehicle_type_id":"4","last_reported":1689887154,"current_range_meters":5600,"station_id":"ce4bgrh2rcd13ifvqc8g","pricing_plan_id":"free"},{"bike_id":"3ab16899-a8e5-4c4c-8a03-2700cdd1b83f","system_id":"levelo_inurba_marseille","lat":43.30812,"lon":5.38143,"is_reserved":false,"is_disabled":false,"rental_uris":{"android":"levelo://app?vid=3ab16899-a8e5-4c4c-8a03-2700cdd1b83f","ios":"levelo://app?vid=3ab16899-a8e5-4c4c-8a03-2700cdd1b83f"},"vehicle_type_id":"4","last_reported":1689887154,"current_range_meters":4800,"station_id":"ce4bgt12rcd13ifvqce0","pricing_plan_id":"free"},{"bike_id":"c942f83d-e653-4532-8bed-2ea006731308","system_id":"levelo_inurba_marseille","lat":43.30808,"lon":5.38143,"is_reserved":false,"is_disabled":false,"rental_uris":{"android":"levelo://app?vid=c942f83d-e653-4532-8bed-2ea006731308","ios":"levelo://app?vid=c942f83d-e653-4532-8bed-2ea006731308"},"vehicle_type_id":"4","last_reported":1689887154,"current_range_meters":27200,"station_id":"ce4bgt12rcd13ifvqce0","pricing_plan_id":"free"},{"bike_id":"ebfc14d0-ee11-4249-ad11-6f604236f1df","system_id":"levelo_inurba_marseille","lat":43.30806,"lon":5.38151,"is_reserved":false,"is_disabled":false,"rental_uris":{"android":"levelo://app?vid=ebfc14d0-ee11-4249-ad11-6f604236f1df","ios":"levelo://app?vid=ebfc14d0-ee11-4249-ad11-6f604236f1df"},"vehicle_type_id":"4","last_reported":1689887154,"current_range_meters":12800,"station_id":"ce4bgt12rcd13ifvqce0","pricing_plan_id":"free"},{"bike_id":"8bacdb74-a80a-48c0-9804-2b13d539c97c","system_id":"levelo_inurba_marseille","lat":43.30802,"lon":5.38152,"is_reserved":false,"is_disabled":false,"rental_uris":{"android":"levelo://app?vid=8bacdb74-a80a-48c0-9804-2b13d539c97c","ios":"levelo://app?vid=8bacdb74-a80a-48c0-9804-2b13d539c97c"},"vehicle_type_id":"4","last_reported":1689887154,"current_range_meters":11200,"station_id":"ce4bgt12rcd13ifvqce0","pricing_plan_id":"free"},{"bike_id":"ce443f93-2dd4-435c-b52d-1ca717cc8816","system_id":"levelo_inurba_marseille","lat":43.30802,"lon":5.38158,"is_reserved":false,"is_disabled":false,"rental_uris":{"android":"levelo://app?vid=ce443f93-2dd4-435c-b52d-1ca717cc8816","ios":"levelo://app?vid=ce443f93-2dd4-435c-b52d-1ca717cc8816"},"vehicle_type_id":"4","last_reported":1689887154,"current_range_meters":26800,"station_id":"ce4bgt12rcd13ifvqce0","pricing_plan_id":"free"},{"bike_id":"6af1e7f5-2650-47f5-9863-5cce96590e3a","system_id":"levelo_inurba_marseille","lat":43.304606,"lon":5.379026,"is_reserved":false,"is_disabled":false,"rental_uris":{"android":"levelo://app?vid=6af1e7f5-2650-47f5-9863-5cce96590e3a","ios":"levelo://app?vid=6af1e7f5-2650-47f5-9863-5cce96590e3a"},"vehicle_type_id":"4","last_reported":1689887154,"current_range_meters":9600,"station_id":"ce4bgup2rcd13ifvqcn0","pricing_plan_id":"free"},{"bike_id":"851441a4-e94c-406e-900e-e879c3440468","system_id":"levelo_inurba_marseille","lat":43.304606,"lon":5.379026,"is_reserved":false,"is_disabled":false,"rental_uris":{"android":"levelo://app?vid=851441a4-e94c-406e-900e-e879c3440468","ios":"levelo://app?vid=851441a4-e94c-406e-900e-e879c3440468"},"vehicle_type_id":"4","last_reported":1689887154,"current_range_meters":26800,"station_id":"ce4bgup2rcd13ifvqcn0","pricing_plan_id":"free"},{"bike_id":"822131ba-7089-4734-bdbb-b4511978e384","system_id":"levelo_inurba_marseille","lat":43.304606,"lon":5.379026,"is_reserved":false,"is_disabled":false,"rental_uris":{"android":"levelo://app?vid=822131ba-7089-4734-bdbb-b4511978e384","ios":"levelo://app?vid=822131ba-7089-4734-bdbb-b4511978e384"},"vehicle_type_id":"4","last_reported":1689887154,"current_range_meters":6400,"station_id":"ce4bgup2rcd13ifvqcn0","pricing_plan_id":"free"},{"bike_id":"fdb41edb-cbeb-4703-9c4f-993b1785d012","system_id":"levelo_inurba_marseille","lat":43.304606,"lon":5.379026,"is_reserved":false,"is_disabled":false,"rental_uris":{"android":"levelo://app?vid=fdb41edb-cbeb-4703-9c4f-993b1785d012","ios":"levelo://app?vid=fdb41edb-cbeb-4703-9c4f-993b1785d012"},"vehicle_type_id":"4","last_reported":1689887154,"current_range_meters":6800,"station_id":"ce4bgup2rcd13ifvqcn0","pricing_plan_id":"free"},{"bike_id":"d2c5edc8-95a1-4913-89b4-78b4a041b0a2","system_id":"levelo_inurba_marseille","lat":43.304606,"lon":5.379026,"is_reserved":false,"is_disabled":false,"rental_uris":{"android":"levelo://app?vid=d2c5edc8-95a1-4913-89b4-78b4a041b0a2","ios":"levelo://app?vid=d2c5edc8-95a1-4913-89b4-78b4a041b0a2"},"vehicle_type_id":"4","last_reported":1689887154,"current_range_meters":28800,"station_id":"ce4bgup2rcd13ifvqcn0","pricing_plan_id":"free"},{"bike_id":"17046530-47a1-4230-9b53-294c17b24759","system_id":"levelo_inurba_marseille","lat":43.302784,"lon":5.377158,"is_reserved":false,"is_disabled":false,"rental_uris":{"android":"levelo://app?vid=17046530-47a1-4230-9b53-294c17b24759","ios":"levelo://app?vid=17046530-47a1-4230-9b53-294c17b24759"},"vehicle_type_id":"4","last_reported":1689887154,"current_range_meters":7200,"station_id":"ce4bguh2rcd13ifvqcj0","pricing_plan_id":"free"},{"bike_id":"edc0a690-3ac9-4358-92cd-20fdddc5a5d0","system_id":"levelo_inurba_marseille","lat":43.319969,"lon":5.38167,"is_reserved":false,"is_disabled":false,"rental_uris":{"android":"levelo://app?vid=edc0a690-3ac9-4358-92cd-20fdddc5a5d0","ios":"levelo://app?vid=edc0a690-3ac9-4358-92cd-20fdddc5a5d0"},"vehicle_type_id":"4","last_reported":1689887154,"current_range_meters":14000,"station_id":"","pricing_plan_id":"free"},{"bike_id":"5862f5ae-2393-4f80-8deb-6c9c77ecbdfa","system_id":"levelo_inurba_marseille","lat":43.31368,"lon":5.38491,"is_reserved":false,"is_disabled":false,"rental_uris":{"android":"levelo://app?vid=5862f5ae-2393-4f80-8deb-6c9c77ecbdfa","ios":"levelo://app?vid=5862f5ae-2393-4f80-8deb-6c9c77ecbdfa"},"vehicle_type_id":"4","last_reported":1689887154,"current_range_meters":30800,"station_id":"ce4bgt92rcd13ifvqcf0","pricing_plan_id":"free"},{"bike_id":"f49c3620-d9cf-4816-a176-563a17f5d33f","system_id":"levelo_inurba_marseille","lat":43.31371,"lon":5.38493,"is_reserved":false,"is_disabled":false,"rental_uris":{"android":"levelo://app?vid=f49c3620-d9cf-4816-a176-563a17f5d33f","ios":"levelo://app?vid=f49c3620-d9cf-4816-a176-563a17f5d33f"},"vehicle_type_id":"4","last_reported":1689887154,"current_range_meters":24400,"station_id":"ce4bgt92rcd13ifvqcf0","pricing_plan_id":"free"},{"bike_id":"f38cfc81-1ab4-4a45-a08c-ff297532ec91","system_id":"levelo_inurba_marseille","lat":43.31372,"lon":5.3851,"is_reserved":false,"is_disabled":false,"rental_uris":{"android":"levelo://app?vid=f38cfc81-1ab4-4a45-a08c-ff297532ec91","ios":"levelo://app?vid=f38cfc81-1ab4-4a45-a08c-ff297532ec91"},"vehicle_type_id":"4","last_reported":1689887154,"current_range_meters":19200,"station_id":"ce4bgt92rcd13ifvqcf0","pricing_plan_id":"free"},{"bike_id":"abcd80e0-37ff-4442-a7b9-13e86bb2b907","system_id":"levelo_inurba_marseille","lat":43.30024,"lon":5.37664,"is_reserved":false,"is_disabled":false,"rental_uris":{"android":"levelo://app?vid=abcd80e0-37ff-4442-a7b9-13e86bb2b907","ios":"levelo://app?vid=abcd80e0-37ff-4442-a7b9-13e86bb2b907"},"vehicle_type_id":"4","last_reported":1689887154,"current_range_meters":1200,"station_id":"","pricing_plan_id":"free"},{"bike_id":"8c721848-dbde-41cf-a15e-61fa0dbb29c6","system_id":"levelo_inurba_marseille","lat":43.305364,"lon":5.384119,"is_reserved":false,"is_disabled":false,"rental_uris":{"android":"levelo://app?vid=8c721848-dbde-41cf-a15e-61fa0dbb29c6","ios":"levelo://app?vid=8c721848-dbde-41cf-a15e-61fa0dbb29c6"},"vehicle_type_id":"4","last_reported":1689887154,"current_range_meters":21200,"station_id":"ce4bgg92rcd13ifvqb30","pricing_plan_id":"free"},{"bike_id":"25ea327b-59a9-48cf-b73d-51b42c10fb9e","system_id":"levelo_inurba_marseille","lat":43.30529,"lon":5.38425,"is_reserved":false,"is_disabled":false,"rental_uris":{"android":"levelo://app?vid=25ea327b-59a9-48cf-b73d-51b42c10fb9e","ios":"levelo://app?vid=25ea327b-59a9-48cf-b73d-51b42c10fb9e"},"vehicle_type_id":"4","last_reported":1689887154,"current_range_meters":23600,"station_id":"","pricing_plan_id":"free"},{"bike_id":"adf3b637-0f88-4bb8-9413-aa1a022c281d","system_id":"levelo_inurba_marseille","lat":43.299243,"lon":5.374807,"is_reserved":false,"is_disabled":false,"rental_uris":{"android":"levelo://app?vid=adf3b637-0f88-4bb8-9413-aa1a022c281d","ios":"levelo://app?vid=adf3b637-0f88-4bb8-9413-aa1a022c281d"},"vehicle_type_id":"4","last_reported":1689887154,"current_range_meters":7600,"station_id":"ce4bgjh2rcd13ifvqbg0","pricing_plan_id":"free"},{"bike_id":"56200a3a-a04e-42c8-aaa5-6ea5b86cb697","system_id":"levelo_inurba_marseille","lat":43.311722,"lon":5.387247,"is_reserved":false,"is_disabled":false,"rental_uris":{"android":"levelo://app?vid=56200a3a-a04e-42c8-aaa5-6ea5b86cb697","ios":"levelo://app?vid=56200a3a-a04e-42c8-aaa5-6ea5b86cb697"},"vehicle_type_id":"4","last_reported":1689887154,"current_range_meters":14000,"station_id":"ce4bgv12rcd13ifvqcp0","pricing_plan_id":"free"},{"bike_id":"28a619fd-b298-4591-ad55-4207ac0ae28b","system_id":"levelo_inurba_marseille","lat":43.311722,"lon":5.387247,"is_reserved":false,"is_disabled":false,"rental_uris":{"android":"levelo://app?vid=28a619fd-b298-4591-ad55-4207ac0ae28b","ios":"levelo://app?vid=28a619fd-b298-4591-ad55-4207ac0ae28b"},"vehicle_type_id":"4","last_reported":1689887154,"current_range_meters":9600,"station_id":"ce4bgv12rcd13ifvqcp0","pricing_plan_id":"free"},{"bike_id":"04efbfbe-993f-4147-80e1-50eba15af751","system_id":"levelo_inurba_marseille","lat":43.311722,"lon":5.387247,"is_reserved":false,"is_disabled":false,"rental_uris":{"android":"levelo://app?vid=04efbfbe-993f-4147-80e1-50eba15af751","ios":"levelo://app?vid=04efbfbe-993f-4147-80e1-50eba15af751"},"vehicle_type_id":"4","last_reported":1689887154,"current_range_meters":26400,"station_id":"ce4bgv12rcd13ifvqcp0","pricing_plan_id":"free"},{"bike_id":"1180758f-b07f-4034-92b1-2276d1811f1c","system_id":"levelo_inurba_marseille","lat":43.299243,"lon":5.374807,"is_reserved":false,"is_disabled":false,"rental_uris":{"android":"levelo://app?vid=1180758f-b07f-4034-92b1-2276d1811f1c","ios":"levelo://app?vid=1180758f-b07f-4034-92b1-2276d1811f1c"},"vehicle_type_id":"4","last_reported":1689887154,"current_range_meters":21200,"station_id":"ce4bgjh2rcd13ifvqbg0","pricing_plan_id":"free"},{"bike_id":"bb1224d6-6e8d-43c5-946f-ff559988406b","system_id":"levelo_inurba_marseille","lat":43.299243,"lon":5.37481,"is_reserved":false,"is_disabled":false,"rental_uris":{"android":"levelo://app?vid=bb1224d6-6e8d-43c5-946f-ff559988406b","ios":"levelo://app?vid=bb1224d6-6e8d-43c5-946f-ff559988406b"},"vehicle_type_id":"4","last_reported":1689887154,"current_range_meters":10400,"station_id":"ce4bgjh2rcd13ifvqbg0","pricing_plan_id":"free"},{"bike_id":"8b26a719-69ee-465b-8d53-6e587fc48542","system_id":"levelo_inurba_marseille","lat":43.311722,"lon":5.387247,"is_reserved":false,"is_disabled":false,"rental_uris":{"android":"levelo://app?vid=8b26a719-69ee-465b-8d53-6e587fc48542","ios":"levelo://app?vid=8b26a719-69ee-465b-8d53-6e587fc48542"},"vehicle_type_id":"4","last_reported":1689887154,"current_range_meters":0,"station_id":"ce4bgv12rcd13ifvqcp0","pricing_plan_id":"free"},{"bike_id":"ecc4cff2-043d-4b5a-a91d-0afe63f5e738","system_id":"levelo_inurba_marseille","lat":43.299243,"lon":5.374807,"is_reserved":false,"is_disabled":false,"rental_uris":{"android":"levelo://app?vid=ecc4cff2-043d-4b5a-a91d-0afe63f5e738","ios":"levelo://app?vid=ecc4cff2-043d-4b5a-a91d-0afe63f5e738"},"vehicle_type_id":"4","last_reported":1689887154,"current_range_meters":25600,"station_id":"ce4bgjh2rcd13ifvqbg0","pricing_plan_id":"free"},{"bike_id":"ca86a78b-746b-41d0-9894-9c4e66623bee","system_id":"levelo_inurba_marseille","lat":43.299243,"lon":5.374807,"is_reserved":false,"is_disabled":false,"rental_uris":{"android":"levelo://app?vid=ca86a78b-746b-41d0-9894-9c4e66623bee","ios":"levelo://app?vid=ca86a78b-746b-41d0-9894-9c4e66623bee"},"vehicle_type_id":"4","last_reported":1689887154,"current_range_meters":16800,"station_id":"ce4bgjh2rcd13ifvqbg0","pricing_plan_id":"free"},{"bike_id":"250cbc00-f609-47c6-a6cf-ea77217b8e55","system_id":"levelo_inurba_marseille","lat":43.311722,"lon":5.387247,"is_reserved":false,"is_disabled":false,"rental_uris":{"android":"levelo://app?vid=250cbc00-f609-47c6-a6cf-ea77217b8e55","ios":"levelo://app?vid=250cbc00-f609-47c6-a6cf-ea77217b8e55"},"vehicle_type_id":"4","last_reported":1689887154,"current_range_meters":30400,"station_id":"ce4bgv12rcd13ifvqcp0","pricing_plan_id":"free"},{"bike_id":"bcbcdac6-acbc-406d-82bf-ffeaf9053b14","system_id":"levelo_inurba_marseille","lat":43.311722,"lon":5.387247,"is_reserved":false,"is_disabled":false,"rental_uris":{"android":"levelo://app?vid=bcbcdac6-acbc-406d-82bf-ffeaf9053b14","ios":"levelo://app?vid=bcbcdac6-acbc-406d-82bf-ffeaf9053b14"},"vehicle_type_id":"4","last_reported":1689887154,"current_range_meters":1200,"station_id":"ce4bgv12rcd13ifvqcp0","pricing_plan_id":"free"},{"bike_id":"1f83d0b9-7bf5-47b8-a73b-45e18cfdb1ec","system_id":"levelo_inurba_marseille","lat":43.297774,"lon":5.370875,"is_reserved":false,"is_disabled":false,"rental_uris":{"android":"levelo://app?vid=1f83d0b9-7bf5-47b8-a73b-45e18cfdb1ec","ios":"levelo://app?vid=1f83d0b9-7bf5-47b8-a73b-45e18cfdb1ec"},"vehicle_type_id":"4","last_reported":1689887154,"current_range_meters":5600,"station_id":"ce4bgop2rcd13ifvqc1g","pricing_plan_id":"free"},{"bike_id":"818a262c-8ab2-47ea-b60a-ae52f0d82709","system_id":"levelo_inurba_marseille","lat":43.322872,"lon":5.382756,"is_reserved":false,"is_disabled":false,"rental_uris":{"android":"levelo://app?vid=818a262c-8ab2-47ea-b60a-ae52f0d82709","ios":"levelo://app?vid=818a262c-8ab2-47ea-b60a-ae52f0d82709"},"vehicle_type_id":"4","last_reported":1689887154,"current_range_meters":15200,"station_id":"ce4bhr12rcd13ifvqhqg","pricing_plan_id":"free"},{"bike_id":"4fbd1f46-176b-4098-b2dd-077eee3f3151","system_id":"levelo_inurba_marseille","lat":43.297794,"lon":5.370888,"is_reserved":false,"is_disabled":false,"rental_uris":{"android":"levelo://app?vid=4fbd1f46-176b-4098-b2dd-077eee3f3151","ios":"levelo://app?vid=4fbd1f46-176b-4098-b2dd-077eee3f3151"},"vehicle_type_id":"4","last_reported":1689887154,"current_range_meters":12800,"station_id":"ce4bgop2rcd13ifvqc1g","pricing_plan_id":"free"},{"bike_id":"2ed41945-cea8-4afa-87d0-4eb6bbef9c57","system_id":"levelo_inurba_marseille","lat":43.32287,"lon":5.38263,"is_reserved":false,"is_disabled":false,"rental_uris":{"android":"levelo://app?vid=2ed41945-cea8-4afa-87d0-4eb6bbef9c57","ios":"levelo://app?vid=2ed41945-cea8-4afa-87d0-4eb6bbef9c57"},"vehicle_type_id":"4","last_reported":1689887154,"current_range_meters":17600,"station_id":"ce4bhr12rcd13ifvqhqg","pricing_plan_id":"free"},{"bike_id":"aa319697-ef5d-42e3-85fb-1ff3e58eb27e","system_id":"levelo_inurba_marseille","lat":43.322872,"lon":5.382756,"is_reserved":false,"is_disabled":false,"rental_uris":{"android":"levelo://app?vid=aa319697-ef5d-42e3-85fb-1ff3e58eb27e","ios":"levelo://app?vid=aa319697-ef5d-42e3-85fb-1ff3e58eb27e"},"vehicle_type_id":"4","last_reported":1689887154,"current_range_meters":23200,"station_id":"ce4bhr12rcd13ifvqhqg","pricing_plan_id":"free"},{"bike_id":"76e11bd8-1b05-4b0d-b406-203c10ce1696","system_id":"levelo_inurba_marseille","lat":43.322872,"lon":5.382756,"is_reserved":false,"is_disabled":false,"rental_uris":{"android":"levelo://app?vid=76e11bd8-1b05-4b0d-b406-203c10ce1696","ios":"levelo://app?vid=76e11bd8-1b05-4b0d-b406-203c10ce1696"},"vehicle_type_id":"4","last_reported":1689887154,"current_range_meters":18400,"station_id":"ce4bhr12rcd13ifvqhqg","pricing_plan_id":"free"},{"bike_id":"7c154cf1-be76-45ac-8f98-526cdbeb1a99","system_id":"levelo_inurba_marseille","lat":43.32293,"lon":5.38257,"is_reserved":false,"is_disabled":false,"rental_uris":{"android":"levelo://app?vid=7c154cf1-be76-45ac-8f98-526cdbeb1a99","ios":"levelo://app?vid=7c154cf1-be76-45ac-8f98-526cdbeb1a99"},"vehicle_type_id":"4","last_reported":1689887154,"current_range_meters":18000,"station_id":"ce4bhr12rcd13ifvqhqg","pricing_plan_id":"free"},{"bike_id":"e916ca30-98a4-4365-b6d6-d96cd71c267d","system_id":"levelo_inurba_marseille","lat":43.322872,"lon":5.382756,"is_reserved":false,"is_disabled":false,"rental_uris":{"android":"levelo://app?vid=e916ca30-98a4-4365-b6d6-d96cd71c267d","ios":"levelo://app?vid=e916ca30-98a4-4365-b6d6-d96cd71c267d"},"vehicle_type_id":"4","last_reported":1689887154,"current_range_meters":30400,"station_id":"ce4bhr12rcd13ifvqhqg","pricing_plan_id":"free"},{"bike_id":"645b798f-aef6-4c3a-9e9a-1e0bb841abf2","system_id":"levelo_inurba_marseille","lat":43.322872,"lon":5.382756,"is_reserved":false,"is_disabled":false,"rental_uris":{"android":"levelo://app?vid=645b798f-aef6-4c3a-9e9a-1e0bb841abf2","ios":"levelo://app?vid=645b798f-aef6-4c3a-9e9a-1e0bb841abf2"},"vehicle_type_id":"4","last_reported":1689887154,"current_range_meters":20000,"station_id":"ce4bhr12rcd13ifvqhqg","pricing_plan_id":"free"},{"bike_id":"e32228af-bf89-4918-9e06-96658a707ebf","system_id":"levelo_inurba_marseille","lat":43.322913,"lon":5.38272,"is_reserved":false,"is_disabled":false,"rental_uris":{"android":"levelo://app?vid=e32228af-bf89-4918-9e06-96658a707ebf","ios":"levelo://app?vid=e32228af-bf89-4918-9e06-96658a707ebf"},"vehicle_type_id":"4","last_reported":1689887154,"current_range_meters":16000,"station_id":"","pricing_plan_id":"free"},{"bike_id":"3296666b-4550-46e5-8780-de3f4f4bdb22","system_id":"levelo_inurba_marseille","lat":43.322872,"lon":5.382756,"is_reserved":false,"is_disabled":false,"rental_uris":{"android":"levelo://app?vid=3296666b-4550-46e5-8780-de3f4f4bdb22","ios":"levelo://app?vid=3296666b-4550-46e5-8780-de3f4f4bdb22"},"vehicle_type_id":"4","last_reported":1689887154,"current_range_meters":14800,"station_id":"ce4bhr12rcd13ifvqhqg","pricing_plan_id":"free"},{"bike_id":"f7235550-24ab-47d8-a30e-57a1cced1167","system_id":"levelo_inurba_marseille","lat":43.32823,"lon":5.36685,"is_reserved":false,"is_disabled":false,"rental_uris":{"android":"levelo://app?vid=f7235550-24ab-47d8-a30e-57a1cced1167","ios":"levelo://app?vid=f7235550-24ab-47d8-a30e-57a1cced1167"},"vehicle_type_id":"4","last_reported":1689887154,"current_range_meters":23200,"station_id":"ce4bhs92rcd13ifvqi0g","pricing_plan_id":"free"},{"bike_id":"68aff992-6a2f-4df7-84f1-5f129124d378","system_id":"levelo_inurba_marseille","lat":43.32824,"lon":5.36683,"is_reserved":false,"is_disabled":false,"rental_uris":{"android":"levelo://app?vid=68aff992-6a2f-4df7-84f1-5f129124d378","ios":"levelo://app?vid=68aff992-6a2f-4df7-84f1-5f129124d378"},"vehicle_type_id":"4","last_reported":1689887154,"current_range_meters":31200,"station_id":"ce4bhs92rcd13ifvqi0g","pricing_plan_id":"free"},{"bike_id":"bccd87f9-44fb-4c8c-b55e-836d1e79bd1d","system_id":"levelo_inurba_marseille","lat":43.32825,"lon":5.36683,"is_reserved":false,"is_disabled":false,"rental_uris":{"android":"levelo://app?vid=bccd87f9-44fb-4c8c-b55e-836d1e79bd1d","ios":"levelo://app?vid=bccd87f9-44fb-4c8c-b55e-836d1e79bd1d"},"vehicle_type_id":"4","last_reported":1689887154,"current_range_meters":16000,"station_id":"ce4bhs92rcd13ifvqi0g","pricing_plan_id":"free"},{"bike_id":"b302376c-6147-4444-9dd0-58db0e3f0bde","system_id":"levelo_inurba_marseille","lat":43.32826,"lon":5.36687,"is_reserved":false,"is_disabled":false,"rental_uris":{"android":"levelo://app?vid=b302376c-6147-4444-9dd0-58db0e3f0bde","ios":"levelo://app?vid=b302376c-6147-4444-9dd0-58db0e3f0bde"},"vehicle_type_id":"4","last_reported":1689887154,"current_range_meters":22800,"station_id":"ce4bhs92rcd13ifvqi0g","pricing_plan_id":"free"},{"bike_id":"c2dbc644-c7fb-4fb5-923b-703ff3d9c54f","system_id":"levelo_inurba_marseille","lat":43.32827,"lon":5.36696,"is_reserved":false,"is_disabled":false,"rental_uris":{"android":"levelo://app?vid=c2dbc644-c7fb-4fb5-923b-703ff3d9c54f","ios":"levelo://app?vid=c2dbc644-c7fb-4fb5-923b-703ff3d9c54f"},"vehicle_type_id":"4","last_reported":1689887154,"current_range_meters":23600,"station_id":"ce4bhs92rcd13ifvqi0g","pricing_plan_id":"free"},{"bike_id":"e2269176-6cb0-4f74-9aa3-00f0987eb8a7","system_id":"levelo_inurba_marseille","lat":43.32827,"lon":5.3668,"is_reserved":false,"is_disabled":false,"rental_uris":{"android":"levelo://app?vid=e2269176-6cb0-4f74-9aa3-00f0987eb8a7","ios":"levelo://app?vid=e2269176-6cb0-4f74-9aa3-00f0987eb8a7"},"vehicle_type_id":"4","last_reported":1689887154,"current_range_meters":20800,"station_id":"ce4bhs92rcd13ifvqi0g","pricing_plan_id":"free"},{"bike_id":"8301fc62-03e5-4157-b5c8-6668c5d99125","system_id":"levelo_inurba_marseille","lat":43.32828,"lon":5.36684,"is_reserved":false,"is_disabled":false,"rental_uris":{"android":"levelo://app?vid=8301fc62-03e5-4157-b5c8-6668c5d99125","ios":"levelo://app?vid=8301fc62-03e5-4157-b5c8-6668c5d99125"},"vehicle_type_id":"4","last_reported":1689887154,"current_range_meters":30800,"station_id":"ce4bhs92rcd13ifvqi0g","pricing_plan_id":"free"},{"bike_id":"06a43e71-e951-4854-82ed-2b3f203e7865","system_id":"levelo_inurba_marseille","lat":43.32828,"lon":5.36684,"is_reserved":false,"is_disabled":false,"rental_uris":{"android":"levelo://app?vid=06a43e71-e951-4854-82ed-2b3f203e7865","ios":"levelo://app?vid=06a43e71-e951-4854-82ed-2b3f203e7865"},"vehicle_type_id":"4","last_reported":1689887154,"current_range_meters":20800,"station_id":"ce4bhs92rcd13ifvqi0g","pricing_plan_id":"free"},{"bike_id":"7895fe82-4b66-4cdc-ae95-906d4386ac69","system_id":"levelo_inurba_marseille","lat":43.32829,"lon":5.36688,"is_reserved":false,"is_disabled":false,"rental_uris":{"android":"levelo://app?vid=7895fe82-4b66-4cdc-ae95-906d4386ac69","ios":"levelo://app?vid=7895fe82-4b66-4cdc-ae95-906d4386ac69"},"vehicle_type_id":"4","last_reported":1689887154,"current_range_meters":31200,"station_id":"ce4bhs92rcd13ifvqi0g","pricing_plan_id":"free"},{"bike_id":"5d691012-8358-4d79-aa40-2d49c89d0e13","system_id":"levelo_inurba_marseille","lat":43.328371,"lon":5.366909,"is_reserved":false,"is_disabled":false,"rental_uris":{"android":"levelo://app?vid=5d691012-8358-4d79-aa40-2d49c89d0e13","ios":"levelo://app?vid=5d691012-8358-4d79-aa40-2d49c89d0e13"},"vehicle_type_id":"4","last_reported":1689887154,"current_range_meters":400,"station_id":"ce4bhs92rcd13ifvqi0g","pricing_plan_id":"free"},{"bike_id":"0010f06e-2a37-479a-a415-2084ed791c94","system_id":"levelo_inurba_marseille","lat":43.32831,"lon":5.36689,"is_reserved":false,"is_disabled":false,"rental_uris":{"android":"levelo://app?vid=0010f06e-2a37-479a-a415-2084ed791c94","ios":"levelo://app?vid=0010f06e-2a37-479a-a415-2084ed791c94"},"vehicle_type_id":"4","last_reported":1689887154,"current_range_meters":30000,"station_id":"ce4bhs92rcd13ifvqi0g","pricing_plan_id":"free"},{"bike_id":"fa22a42c-19fd-4d4c-b13d-acfa470204e5","system_id":"levelo_inurba_marseille","lat":43.328371,"lon":5.366909,"is_reserved":false,"is_disabled":false,"rental_uris":{"android":"levelo://app?vid=fa22a42c-19fd-4d4c-b13d-acfa470204e5","ios":"levelo://app?vid=fa22a42c-19fd-4d4c-b13d-acfa470204e5"},"vehicle_type_id":"4","last_reported":1689887154,"current_range_meters":14000,"station_id":"ce4bhs92rcd13ifvqi0g","pricing_plan_id":"free"},{"bike_id":"13d003be-42f5-4e3b-9b1b-d7cf7e52da36","system_id":"levelo_inurba_marseille","lat":43.32836,"lon":5.36679,"is_reserved":false,"is_disabled":false,"rental_uris":{"android":"levelo://app?vid=13d003be-42f5-4e3b-9b1b-d7cf7e52da36","ios":"levelo://app?vid=13d003be-42f5-4e3b-9b1b-d7cf7e52da36"},"vehicle_type_id":"4","last_reported":1689887154,"current_range_meters":14800,"station_id":"ce4bhs92rcd13ifvqi0g","pricing_plan_id":"free"},{"bike_id":"3916e407-8c11-4a2b-8e00-1d25f7bfdca8","system_id":"levelo_inurba_marseille","lat":43.297163,"lon":5.365866,"is_reserved":false,"is_disabled":false,"rental_uris":{"android":"levelo://app?vid=3916e407-8c11-4a2b-8e00-1d25f7bfdca8","ios":"levelo://app?vid=3916e407-8c11-4a2b-8e00-1d25f7bfdca8"},"vehicle_type_id":"4","last_reported":1689887154,"current_range_meters":30800,"station_id":"ce4bgn12rcd13ifvqbt0","pricing_plan_id":"free"},{"bike_id":"304914cf-b948-457e-bcb6-1b1388dc125b","system_id":"levelo_inurba_marseille","lat":43.29732,"lon":5.35931,"is_reserved":false,"is_disabled":false,"rental_uris":{"android":"levelo://app?vid=304914cf-b948-457e-bcb6-1b1388dc125b","ios":"levelo://app?vid=304914cf-b948-457e-bcb6-1b1388dc125b"},"vehicle_type_id":"4","last_reported":1689887154,"current_range_meters":6400,"station_id":"","pricing_plan_id":"free"},{"bike_id":"44abb29a-ac73-4c95-a3cb-7771a32b7cd1","system_id":"levelo_inurba_marseille","lat":43.29611,"lon":5.36942,"is_reserved":false,"is_disabled":false,"rental_uris":{"android":"levelo://app?vid=44abb29a-ac73-4c95-a3cb-7771a32b7cd1","ios":"levelo://app?vid=44abb29a-ac73-4c95-a3cb-7771a32b7cd1"},"vehicle_type_id":"4","last_reported":1689887154,"current_range_meters":16800,"station_id":"","pricing_plan_id":"free"},{"bike_id":"2a5b4ee2-a874-4ff4-9578-baea7f5a0e6b","system_id":"levelo_inurba_marseille","lat":43.296131,"lon":5.370773,"is_reserved":false,"is_disabled":false,"rental_uris":{"android":"levelo://app?vid=2a5b4ee2-a874-4ff4-9578-baea7f5a0e6b","ios":"levelo://app?vid=2a5b4ee2-a874-4ff4-9578-baea7f5a0e6b"},"vehicle_type_id":"4","last_reported":1689887154,"current_range_meters":6400,"station_id":"ce4bgnh2rcd13ifvqc0g","pricing_plan_id":"free"},{"bike_id":"57412a6c-104b-4112-bf7f-01fa01442b12","system_id":"levelo_inurba_marseille","lat":43.299028,"lon":5.381509,"is_reserved":false,"is_disabled":false,"rental_uris":{"android":"levelo://app?vid=57412a6c-104b-4112-bf7f-01fa01442b12","ios":"levelo://app?vid=57412a6c-104b-4112-bf7f-01fa01442b12"},"vehicle_type_id":"4","last_reported":1689887154,"current_range_meters":12000,"station_id":"ce4bgj12rcd13ifvqbc0","pricing_plan_id":"free"},{"bike_id":"75a2f267-ba00-45ed-b54b-79e39bcb5a11","system_id":"levelo_inurba_marseille","lat":43.299028,"lon":5.381509,"is_reserved":false,"is_disabled":false,"rental_uris":{"android":"levelo://app?vid=75a2f267-ba00-45ed-b54b-79e39bcb5a11","ios":"levelo://app?vid=75a2f267-ba00-45ed-b54b-79e39bcb5a11"},"vehicle_type_id":"4","last_reported":1689887154,"current_range_meters":29600,"station_id":"ce4bgj12rcd13ifvqbc0","pricing_plan_id":"free"},{"bike_id":"f9d209b6-dc93-4a81-b83c-3c2bb6c98dd6","system_id":"levelo_inurba_marseille","lat":43.29617,"lon":5.36064,"is_reserved":false,"is_disabled":false,"rental_uris":{"android":"levelo://app?vid=f9d209b6-dc93-4a81-b83c-3c2bb6c98dd6","ios":"levelo://app?vid=f9d209b6-dc93-4a81-b83c-3c2bb6c98dd6"},"vehicle_type_id":"4","last_reported":1689887154,"current_range_meters":21600,"station_id":"","pricing_plan_id":"free"},{"bike_id":"5d552a50-7b21-482e-9c12-e5a7f9374359","system_id":"levelo_inurba_marseille","lat":43.299028,"lon":5.381509,"is_reserved":false,"is_disabled":false,"rental_uris":{"android":"levelo://app?vid=5d552a50-7b21-482e-9c12-e5a7f9374359","ios":"levelo://app?vid=5d552a50-7b21-482e-9c12-e5a7f9374359"},"vehicle_type_id":"4","last_reported":1689887154,"current_range_meters":14800,"station_id":"ce4bgj12rcd13ifvqbc0","pricing_plan_id":"free"},{"bike_id":"ad4f83dd-f520-41bf-9379-c12470dbda19","system_id":"levelo_inurba_marseille","lat":43.299028,"lon":5.381509,"is_reserved":false,"is_disabled":false,"rental_uris":{"android":"levelo://app?vid=ad4f83dd-f520-41bf-9379-c12470dbda19","ios":"levelo://app?vid=ad4f83dd-f520-41bf-9379-c12470dbda19"},"vehicle_type_id":"4","last_reported":1689887154,"current_range_meters":18400,"station_id":"ce4bgj12rcd13ifvqbc0","pricing_plan_id":"free"},{"bike_id":"66eb29ff-b23a-4060-bb97-6eeff835e199","system_id":"levelo_inurba_marseille","lat":43.299028,"lon":5.381509,"is_reserved":false,"is_disabled":false,"rental_uris":{"android":"levelo://app?vid=66eb29ff-b23a-4060-bb97-6eeff835e199","ios":"levelo://app?vid=66eb29ff-b23a-4060-bb97-6eeff835e199"},"vehicle_type_id":"4","last_reported":1689887154,"current_range_meters":6400,"station_id":"ce4bgj12rcd13ifvqbc0","pricing_plan_id":"free"},{"bike_id":"00cbe985-0bf9-46ff-a8fc-3cab613aaeb0","system_id":"levelo_inurba_marseille","lat":43.299028,"lon":5.381509,"is_reserved":false,"is_disabled":false,"rental_uris":{"android":"levelo://app?vid=00cbe985-0bf9-46ff-a8fc-3cab613aaeb0","ios":"levelo://app?vid=00cbe985-0bf9-46ff-a8fc-3cab613aaeb0"},"vehicle_type_id":"4","last_reported":1689887154,"current_range_meters":26000,"station_id":"ce4bgj12rcd13ifvqbc0","pricing_plan_id":"free"},{"bike_id":"6d1ae91e-20b1-49bd-abf9-d043313c1358","system_id":"levelo_inurba_marseille","lat":43.299028,"lon":5.381509,"is_reserved":false,"is_disabled":false,"rental_uris":{"android":"levelo://app?vid=6d1ae91e-20b1-49bd-abf9-d043313c1358","ios":"levelo://app?vid=6d1ae91e-20b1-49bd-abf9-d043313c1358"},"vehicle_type_id":"4","last_reported":1689887154,"current_range_meters":24400,"station_id":"ce4bgj12rcd13ifvqbc0","pricing_plan_id":"free"},{"bike_id":"d529575e-bdbd-47ae-afa7-ce60efcb4a98","system_id":"levelo_inurba_marseille","lat":43.296935,"lon":5.376544,"is_reserved":false,"is_disabled":false,"rental_uris":{"android":"levelo://app?vid=d529575e-bdbd-47ae-afa7-ce60efcb4a98","ios":"levelo://app?vid=d529575e-bdbd-47ae-afa7-ce60efcb4a98"},"vehicle_type_id":"4","last_reported":1689887154,"current_range_meters":0,"station_id":"ce4bgkh2rcd13ifvqbl0","pricing_plan_id":"free"},{"bike_id":"0dbf9335-8ae6-40cb-86e6-2e4830afa483","system_id":"levelo_inurba_marseille","lat":43.299028,"lon":5.381509,"is_reserved":false,"is_disabled":false,"rental_uris":{"android":"levelo://app?vid=0dbf9335-8ae6-40cb-86e6-2e4830afa483","ios":"levelo://app?vid=0dbf9335-8ae6-40cb-86e6-2e4830afa483"},"vehicle_type_id":"4","last_reported":1689887154,"current_range_meters":12400,"station_id":"ce4bgj12rcd13ifvqbc0","pricing_plan_id":"free"},{"bike_id":"847680df-f71a-4c93-8b2f-23dc5c9be26d","system_id":"levelo_inurba_marseille","lat":43.299028,"lon":5.381509,"is_reserved":false,"is_disabled":false,"rental_uris":{"android":"levelo://app?vid=847680df-f71a-4c93-8b2f-23dc5c9be26d","ios":"levelo://app?vid=847680df-f71a-4c93-8b2f-23dc5c9be26d"},"vehicle_type_id":"4","last_reported":1689887154,"current_range_meters":10000,"station_id":"ce4bgj12rcd13ifvqbc0","pricing_plan_id":"free"},{"bike_id":"bc0738ae-c68f-45d5-9d71-2fe2edf9ce56","system_id":"levelo_inurba_marseille","lat":43.309589,"lon":5.390258,"is_reserved":false,"is_disabled":false,"rental_uris":{"android":"levelo://app?vid=bc0738ae-c68f-45d5-9d71-2fe2edf9ce56","ios":"levelo://app?vid=bc0738ae-c68f-45d5-9d71-2fe2edf9ce56"},"vehicle_type_id":"4","last_reported":1689887154,"current_range_meters":15600,"station_id":"ce4bgup2rcd13ifvqco0","pricing_plan_id":"free"},{"bike_id":"62112e36-2066-4b48-98db-746d77dd4294","system_id":"levelo_inurba_marseille","lat":43.299028,"lon":5.381509,"is_reserved":false,"is_disabled":false,"rental_uris":{"android":"levelo://app?vid=62112e36-2066-4b48-98db-746d77dd4294","ios":"levelo://app?vid=62112e36-2066-4b48-98db-746d77dd4294"},"vehicle_type_id":"4","last_reported":1689887154,"current_range_meters":12800,"station_id":"ce4bgj12rcd13ifvqbc0","pricing_plan_id":"free"},{"bike_id":"3cb89da5-0dbc-4aed-ad5d-dfd560f50938","system_id":"levelo_inurba_marseille","lat":43.299028,"lon":5.381509,"is_reserved":false,"is_disabled":false,"rental_uris":{"android":"levelo://app?vid=3cb89da5-0dbc-4aed-ad5d-dfd560f50938","ios":"levelo://app?vid=3cb89da5-0dbc-4aed-ad5d-dfd560f50938"},"vehicle_type_id":"4","last_reported":1689887154,"current_range_meters":13200,"station_id":"ce4bgj12rcd13ifvqbc0","pricing_plan_id":"free"},{"bike_id":"e475754a-2712-4f0a-9d7d-d0d2be4eecbf","system_id":"levelo_inurba_marseille","lat":43.299028,"lon":5.381509,"is_reserved":false,"is_disabled":false,"rental_uris":{"android":"levelo://app?vid=e475754a-2712-4f0a-9d7d-d0d2be4eecbf","ios":"levelo://app?vid=e475754a-2712-4f0a-9d7d-d0d2be4eecbf"},"vehicle_type_id":"4","last_reported":1689887154,"current_range_meters":30000,"station_id":"ce4bgj12rcd13ifvqbc0","pricing_plan_id":"free"},{"bike_id":"de5977e5-b2f8-4167-a197-d3329180e405","system_id":"levelo_inurba_marseille","lat":43.296935,"lon":5.376544,"is_reserved":false,"is_disabled":false,"rental_uris":{"android":"levelo://app?vid=de5977e5-b2f8-4167-a197-d3329180e405","ios":"levelo://app?vid=de5977e5-b2f8-4167-a197-d3329180e405"},"vehicle_type_id":"4","last_reported":1689887154,"current_range_meters":30400,"station_id":"ce4bgkh2rcd13ifvqbl0","pricing_plan_id":"free"},{"bike_id":"d0cb3fe8-5610-4cac-84c6-dadf75ec66ed","system_id":"levelo_inurba_marseille","lat":43.317557,"lon":5.390173,"is_reserved":false,"is_disabled":false,"rental_uris":{"android":"levelo://app?vid=d0cb3fe8-5610-4cac-84c6-dadf75ec66ed","ios":"levelo://app?vid=d0cb3fe8-5610-4cac-84c6-dadf75ec66ed"},"vehicle_type_id":"4","last_reported":1689887154,"current_range_meters":31200,"station_id":"ce4bhqp2rcd13ifvqhng","pricing_plan_id":"free"},{"bike_id":"ae61c089-51bc-4c58-b3be-d2d0b730921f","system_id":"levelo_inurba_marseille","lat":43.317557,"lon":5.390173,"is_reserved":false,"is_disabled":false,"rental_uris":{"android":"levelo://app?vid=ae61c089-51bc-4c58-b3be-d2d0b730921f","ios":"levelo://app?vid=ae61c089-51bc-4c58-b3be-d2d0b730921f"},"vehicle_type_id":"4","last_reported":1689887154,"current_range_meters":27600,"station_id":"ce4bhqp2rcd13ifvqhng","pricing_plan_id":"free"},{"bike_id":"ed461161-f6cc-409c-bf8e-a8c69e6a0bc7","system_id":"levelo_inurba_marseille","lat":43.317557,"lon":5.390173,"is_reserved":false,"is_disabled":false,"rental_uris":{"android":"levelo://app?vid=ed461161-f6cc-409c-bf8e-a8c69e6a0bc7","ios":"levelo://app?vid=ed461161-f6cc-409c-bf8e-a8c69e6a0bc7"},"vehicle_type_id":"4","last_reported":1689887154,"current_range_meters":26000,"station_id":"ce4bhqp2rcd13ifvqhng","pricing_plan_id":"free"},{"bike_id":"069f0408-8072-4fb1-8f33-905ac2ca15e9","system_id":"levelo_inurba_marseille","lat":43.317557,"lon":5.390173,"is_reserved":false,"is_disabled":false,"rental_uris":{"android":"levelo://app?vid=069f0408-8072-4fb1-8f33-905ac2ca15e9","ios":"levelo://app?vid=069f0408-8072-4fb1-8f33-905ac2ca15e9"},"vehicle_type_id":"4","last_reported":1689887154,"current_range_meters":30000,"station_id":"ce4bhqp2rcd13ifvqhng","pricing_plan_id":"free"},{"bike_id":"ee6b386f-42d1-4037-93ae-2a6f3fab94d4","system_id":"levelo_inurba_marseille","lat":43.317557,"lon":5.390173,"is_reserved":false,"is_disabled":false,"rental_uris":{"android":"levelo://app?vid=ee6b386f-42d1-4037-93ae-2a6f3fab94d4","ios":"levelo://app?vid=ee6b386f-42d1-4037-93ae-2a6f3fab94d4"},"vehicle_type_id":"4","last_reported":1689887154,"current_range_meters":31200,"station_id":"ce4bhqp2rcd13ifvqhng","pricing_plan_id":"free"},{"bike_id":"e319cead-f0cd-4a05-afce-9e197bb45605","system_id":"levelo_inurba_marseille","lat":43.30262,"lon":5.38676,"is_reserved":false,"is_disabled":false,"rental_uris":{"android":"levelo://app?vid=e319cead-f0cd-4a05-afce-9e197bb45605","ios":"levelo://app?vid=e319cead-f0cd-4a05-afce-9e197bb45605"},"vehicle_type_id":"4","last_reported":1689887154,"current_range_meters":22400,"station_id":"","pricing_plan_id":"free"},{"bike_id":"cc77ab9b-aeb5-40b9-b6d0-f9d18a9b1ab9","system_id":"levelo_inurba_marseille","lat":43.298037,"lon":5.381066,"is_reserved":false,"is_disabled":false,"rental_uris":{"android":"levelo://app?vid=cc77ab9b-aeb5-40b9-b6d0-f9d18a9b1ab9","ios":"levelo://app?vid=cc77ab9b-aeb5-40b9-b6d0-f9d18a9b1ab9"},"vehicle_type_id":"4","last_reported":1689887154,"current_range_meters":18400,"station_id":"ce4bgip2rcd13ifvqbb0","pricing_plan_id":"free"},{"bike_id":"22c044b1-7a61-410e-9d3f-5b8e0e722d2f","system_id":"levelo_inurba_marseille","lat":43.298037,"lon":5.381066,"is_reserved":false,"is_disabled":false,"rental_uris":{"android":"levelo://app?vid=22c044b1-7a61-410e-9d3f-5b8e0e722d2f","ios":"levelo://app?vid=22c044b1-7a61-410e-9d3f-5b8e0e722d2f"},"vehicle_type_id":"4","last_reported":1689887154,"current_range_meters":31200,"station_id":"ce4bgip2rcd13ifvqbb0","pricing_plan_id":"free"},{"bike_id":"b1a2bcc7-6bb9-4d9c-bb9b-ad00ddcef36c","system_id":"levelo_inurba_marseille","lat":43.298037,"lon":5.381066,"is_reserved":false,"is_disabled":false,"rental_uris":{"android":"levelo://app?vid=b1a2bcc7-6bb9-4d9c-bb9b-ad00ddcef36c","ios":"levelo://app?vid=b1a2bcc7-6bb9-4d9c-bb9b-ad00ddcef36c"},"vehicle_type_id":"4","last_reported":1689887154,"current_range_meters":2800,"station_id":"ce4bgip2rcd13ifvqbb0","pricing_plan_id":"free"},{"bike_id":"9ea1457c-c7f7-435d-95ea-fb979345b6ea","system_id":"levelo_inurba_marseille","lat":43.295748,"lon":5.37522,"is_reserved":false,"is_disabled":false,"rental_uris":{"android":"levelo://app?vid=9ea1457c-c7f7-435d-95ea-fb979345b6ea","ios":"levelo://app?vid=9ea1457c-c7f7-435d-95ea-fb979345b6ea"},"vehicle_type_id":"4","last_reported":1689887154,"current_range_meters":23200,"station_id":"ce4bgh92rcd13ifvqb50","pricing_plan_id":"free"},{"bike_id":"ada809ae-1dbd-478a-8a92-d84d3c49a55d","system_id":"levelo_inurba_marseille","lat":43.298037,"lon":5.381066,"is_reserved":false,"is_disabled":false,"rental_uris":{"android":"levelo://app?vid=ada809ae-1dbd-478a-8a92-d84d3c49a55d","ios":"levelo://app?vid=ada809ae-1dbd-478a-8a92-d84d3c49a55d"},"vehicle_type_id":"4","last_reported":1689887154,"current_range_meters":7200,"station_id":"ce4bgip2rcd13ifvqbb0","pricing_plan_id":"free"},{"bike_id":"6bd99a0d-127a-4ba0-939b-28063cd3996d","system_id":"levelo_inurba_marseille","lat":43.30435,"lon":5.38888,"is_reserved":false,"is_disabled":false,"rental_uris":{"android":"levelo://app?vid=6bd99a0d-127a-4ba0-939b-28063cd3996d","ios":"levelo://app?vid=6bd99a0d-127a-4ba0-939b-28063cd3996d"},"vehicle_type_id":"4","last_reported":1689887154,"current_range_meters":24000,"station_id":"ce4bgk12rcd13ifvqbi0","pricing_plan_id":"free"},{"bike_id":"4a42e6ea-ba25-48df-88d2-b737abbc9ffa","system_id":"levelo_inurba_marseille","lat":43.30426,"lon":5.38883,"is_reserved":false,"is_disabled":false,"rental_uris":{"android":"levelo://app?vid=4a42e6ea-ba25-48df-88d2-b737abbc9ffa","ios":"levelo://app?vid=4a42e6ea-ba25-48df-88d2-b737abbc9ffa"},"vehicle_type_id":"4","last_reported":1689887154,"current_range_meters":0,"station_id":"ce4bgk12rcd13ifvqbi0","pricing_plan_id":"free"},{"bike_id":"2327927d-e8d6-43c9-929d-0d8cddd69562","system_id":"levelo_inurba_marseille","lat":43.296263,"lon":5.377094,"is_reserved":false,"is_disabled":false,"rental_uris":{"android":"levelo://app?vid=2327927d-e8d6-43c9-929d-0d8cddd69562","ios":"levelo://app?vid=2327927d-e8d6-43c9-929d-0d8cddd69562"},"vehicle_type_id":"4","last_reported":1689887154,"current_range_meters":15600,"station_id":"ce4bgi92rcd13ifvqb90","pricing_plan_id":"free"},{"bike_id":"e1a7be8f-7b67-4c1f-873e-a2ee94991960","system_id":"levelo_inurba_marseille","lat":43.296277,"lon":5.377108,"is_reserved":false,"is_disabled":false,"rental_uris":{"android":"levelo://app?vid=e1a7be8f-7b67-4c1f-873e-a2ee94991960","ios":"levelo://app?vid=e1a7be8f-7b67-4c1f-873e-a2ee94991960"},"vehicle_type_id":"4","last_reported":1689887154,"current_range_meters":20000,"station_id":"ce4bgi92rcd13ifvqb90","pricing_plan_id":"free"},{"bike_id":"e3a8832e-55e5-4abc-8c70-a51fe64f62fe","system_id":"levelo_inurba_marseille","lat":43.296277,"lon":5.377108,"is_reserved":false,"is_disabled":false,"rental_uris":{"android":"levelo://app?vid=e3a8832e-55e5-4abc-8c70-a51fe64f62fe","ios":"levelo://app?vid=e3a8832e-55e5-4abc-8c70-a51fe64f62fe"},"vehicle_type_id":"4","last_reported":1689887154,"current_range_meters":30400,"station_id":"ce4bgi92rcd13ifvqb90","pricing_plan_id":"free"},{"bike_id":"3ea7248b-3ec0-4b89-ae2a-b84d3a37d026","system_id":"levelo_inurba_marseille","lat":43.2961,"lon":5.37733,"is_reserved":false,"is_disabled":false,"rental_uris":{"android":"levelo://app?vid=3ea7248b-3ec0-4b89-ae2a-b84d3a37d026","ios":"levelo://app?vid=3ea7248b-3ec0-4b89-ae2a-b84d3a37d026"},"vehicle_type_id":"4","last_reported":1689887154,"current_range_meters":24000,"station_id":"ce4bgi92rcd13ifvqb90","pricing_plan_id":"free"},{"bike_id":"1e78b562-91e6-4fc4-9935-c2f92e729e49","system_id":"levelo_inurba_marseille","lat":43.29983,"lon":5.38485,"is_reserved":false,"is_disabled":false,"rental_uris":{"android":"levelo://app?vid=1e78b562-91e6-4fc4-9935-c2f92e729e49","ios":"levelo://app?vid=1e78b562-91e6-4fc4-9935-c2f92e729e49"},"vehicle_type_id":"4","last_reported":1689887154,"current_range_meters":19200,"station_id":"ce4bgj92rcd13ifvqbd0","pricing_plan_id":"free"},{"bike_id":"06be737c-0b49-4f6d-a5df-e80a58f2b2c7","system_id":"levelo_inurba_marseille","lat":43.29781,"lon":5.3816,"is_reserved":false,"is_disabled":false,"rental_uris":{"android":"levelo://app?vid=06be737c-0b49-4f6d-a5df-e80a58f2b2c7","ios":"levelo://app?vid=06be737c-0b49-4f6d-a5df-e80a58f2b2c7"},"vehicle_type_id":"4","last_reported":1689887154,"current_range_meters":2000,"station_id":"ce4bgj92rcd13ifvqbd0","pricing_plan_id":"free"},{"bike_id":"e0ac6157-977f-4ff9-b832-d9d895b066c6","system_id":"levelo_inurba_marseille","lat":43.29979,"lon":5.38483,"is_reserved":false,"is_disabled":false,"rental_uris":{"android":"levelo://app?vid=e0ac6157-977f-4ff9-b832-d9d895b066c6","ios":"levelo://app?vid=e0ac6157-977f-4ff9-b832-d9d895b066c6"},"vehicle_type_id":"4","last_reported":1689887154,"current_range_meters":22000,"station_id":"ce4bgj92rcd13ifvqbd0","pricing_plan_id":"free"},{"bike_id":"df6b2aab-442e-42a2-b079-c66480e5f9bc","system_id":"levelo_inurba_marseille","lat":43.29976,"lon":5.38485,"is_reserved":false,"is_disabled":false,"rental_uris":{"android":"levelo://app?vid=df6b2aab-442e-42a2-b079-c66480e5f9bc","ios":"levelo://app?vid=df6b2aab-442e-42a2-b079-c66480e5f9bc"},"vehicle_type_id":"4","last_reported":1689887154,"current_range_meters":18000,"station_id":"ce4bgj92rcd13ifvqbd0","pricing_plan_id":"free"},{"bike_id":"d2cb069c-5085-4fdf-af0c-752ab28e5a96","system_id":"levelo_inurba_marseille","lat":43.29977,"lon":5.38487,"is_reserved":false,"is_disabled":false,"rental_uris":{"android":"levelo://app?vid=d2cb069c-5085-4fdf-af0c-752ab28e5a96","ios":"levelo://app?vid=d2cb069c-5085-4fdf-af0c-752ab28e5a96"},"vehicle_type_id":"4","last_reported":1689887154,"current_range_meters":18400,"station_id":"ce4bgj92rcd13ifvqbd0","pricing_plan_id":"free"},{"bike_id":"c26f6218-06f5-4cb9-8f55-b9e254d8cc91","system_id":"levelo_inurba_marseille","lat":43.29977,"lon":5.38489,"is_reserved":false,"is_disabled":false,"rental_uris":{"android":"levelo://app?vid=c26f6218-06f5-4cb9-8f55-b9e254d8cc91","ios":"levelo://app?vid=c26f6218-06f5-4cb9-8f55-b9e254d8cc91"},"vehicle_type_id":"4","last_reported":1689887154,"current_range_meters":20000,"station_id":"ce4bgj92rcd13ifvqbd0","pricing_plan_id":"free"},{"bike_id":"3e653a32-38aa-4aae-bc88-8dbb6a9e5eb4","system_id":"levelo_inurba_marseille","lat":43.29974,"lon":5.38486,"is_reserved":false,"is_disabled":false,"rental_uris":{"android":"levelo://app?vid=3e653a32-38aa-4aae-bc88-8dbb6a9e5eb4","ios":"levelo://app?vid=3e653a32-38aa-4aae-bc88-8dbb6a9e5eb4"},"vehicle_type_id":"4","last_reported":1689887154,"current_range_meters":24000,"station_id":"ce4bgj92rcd13ifvqbd0","pricing_plan_id":"free"},{"bike_id":"65f18250-65f6-4477-b5d8-7e61c98822f7","system_id":"levelo_inurba_marseille","lat":43.299729,"lon":5.384866,"is_reserved":false,"is_disabled":false,"rental_uris":{"android":"levelo://app?vid=65f18250-65f6-4477-b5d8-7e61c98822f7","ios":"levelo://app?vid=65f18250-65f6-4477-b5d8-7e61c98822f7"},"vehicle_type_id":"4","last_reported":1689887154,"current_range_meters":7600,"station_id":"ce4bgj92rcd13ifvqbd0","pricing_plan_id":"free"},{"bike_id":"e34779b8-8761-4053-8e86-335e4e0c494a","system_id":"levelo_inurba_marseille","lat":43.29526,"lon":5.37504,"is_reserved":false,"is_disabled":false,"rental_uris":{"android":"levelo://app?vid=e34779b8-8761-4053-8e86-335e4e0c494a","ios":"levelo://app?vid=e34779b8-8761-4053-8e86-335e4e0c494a"},"vehicle_type_id":"4","last_reported":1689887154,"current_range_meters":22400,"station_id":"","pricing_plan_id":"free"},{"bike_id":"d3799a26-0736-4296-995d-5ca4f9f7534c","system_id":"levelo_inurba_marseille","lat":43.29968,"lon":5.38484,"is_reserved":false,"is_disabled":false,"rental_uris":{"android":"levelo://app?vid=d3799a26-0736-4296-995d-5ca4f9f7534c","ios":"levelo://app?vid=d3799a26-0736-4296-995d-5ca4f9f7534c"},"vehicle_type_id":"4","last_reported":1689887154,"current_range_meters":28400,"station_id":"ce4bgj92rcd13ifvqbd0","pricing_plan_id":"free"},{"bike_id":"2b76b0c9-b6d5-4726-bb7b-e74f8469eb7a","system_id":"levelo_inurba_marseille","lat":43.299724,"lon":5.384848,"is_reserved":false,"is_disabled":false,"rental_uris":{"android":"levelo://app?vid=2b76b0c9-b6d5-4726-bb7b-e74f8469eb7a","ios":"levelo://app?vid=2b76b0c9-b6d5-4726-bb7b-e74f8469eb7a"},"vehicle_type_id":"4","last_reported":1689887154,"current_range_meters":13200,"station_id":"ce4bgj92rcd13ifvqbd0","pricing_plan_id":"free"},{"bike_id":"38f450ff-21c2-4af0-be93-0dc345d1365d","system_id":"levelo_inurba_marseille","lat":43.29967,"lon":5.38493,"is_reserved":false,"is_disabled":false,"rental_uris":{"android":"levelo://app?vid=38f450ff-21c2-4af0-be93-0dc345d1365d","ios":"levelo://app?vid=38f450ff-21c2-4af0-be93-0dc345d1365d"},"vehicle_type_id":"4","last_reported":1689887154,"current_range_meters":10400,"station_id":"ce4bgj92rcd13ifvqbd0","pricing_plan_id":"free"},{"bike_id":"4e1d8317-6c56-4512-80c8-a71f804cf19a","system_id":"levelo_inurba_marseille","lat":43.29966,"lon":5.38492,"is_reserved":false,"is_disabled":false,"rental_uris":{"android":"levelo://app?vid=4e1d8317-6c56-4512-80c8-a71f804cf19a","ios":"levelo://app?vid=4e1d8317-6c56-4512-80c8-a71f804cf19a"},"vehicle_type_id":"4","last_reported":1689887154,"current_range_meters":2800,"station_id":"ce4bgj92rcd13ifvqbd0","pricing_plan_id":"free"},{"bike_id":"8b66bac8-47c7-4a8b-9d8f-0ff147e5bef1","system_id":"levelo_inurba_marseille","lat":43.29965,"lon":5.38491,"is_reserved":false,"is_disabled":false,"rental_uris":{"android":"levelo://app?vid=8b66bac8-47c7-4a8b-9d8f-0ff147e5bef1","ios":"levelo://app?vid=8b66bac8-47c7-4a8b-9d8f-0ff147e5bef1"},"vehicle_type_id":"4","last_reported":1689887154,"current_range_meters":18800,"station_id":"ce4bgj92rcd13ifvqbd0","pricing_plan_id":"free"},{"bike_id":"1c7150a7-15a4-4189-b6a7-1c1499e0c664","system_id":"levelo_inurba_marseille","lat":43.29964,"lon":5.38494,"is_reserved":false,"is_disabled":false,"rental_uris":{"android":"levelo://app?vid=1c7150a7-15a4-4189-b6a7-1c1499e0c664","ios":"levelo://app?vid=1c7150a7-15a4-4189-b6a7-1c1499e0c664"},"vehicle_type_id":"4","last_reported":1689887154,"current_range_meters":0,"station_id":"ce4bgj92rcd13ifvqbd0","pricing_plan_id":"free"},{"bike_id":"97effb1f-1e24-4086-97f2-a6435441e70b","system_id":"levelo_inurba_marseille","lat":43.29962,"lon":5.38495,"is_reserved":false,"is_disabled":false,"rental_uris":{"android":"levelo://app?vid=97effb1f-1e24-4086-97f2-a6435441e70b","ios":"levelo://app?vid=97effb1f-1e24-4086-97f2-a6435441e70b"},"vehicle_type_id":"4","last_reported":1689887154,"current_range_meters":14800,"station_id":"ce4bgj92rcd13ifvqbd0","pricing_plan_id":"free"},{"bike_id":"4dd4721a-6498-4827-9c00-c6928ac3fbeb","system_id":"levelo_inurba_marseille","lat":43.29962,"lon":5.38498,"is_reserved":false,"is_disabled":false,"rental_uris":{"android":"levelo://app?vid=4dd4721a-6498-4827-9c00-c6928ac3fbeb","ios":"levelo://app?vid=4dd4721a-6498-4827-9c00-c6928ac3fbeb"},"vehicle_type_id":"4","last_reported":1689887154,"current_range_meters":20000,"station_id":"ce4bgj92rcd13ifvqbd0","pricing_plan_id":"free"},{"bike_id":"cb49501d-cad2-416f-88b3-2ce69583a4ac","system_id":"levelo_inurba_marseille","lat":43.29962,"lon":5.385,"is_reserved":false,"is_disabled":false,"rental_uris":{"android":"levelo://app?vid=cb49501d-cad2-416f-88b3-2ce69583a4ac","ios":"levelo://app?vid=cb49501d-cad2-416f-88b3-2ce69583a4ac"},"vehicle_type_id":"4","last_reported":1689887154,"current_range_meters":15600,"station_id":"ce4bgj92rcd13ifvqbd0","pricing_plan_id":"free"},{"bike_id":"5e8dba3b-8c32-4ca5-beaa-f3fe17dab6a4","system_id":"levelo_inurba_marseille","lat":43.32367,"lon":5.388836,"is_reserved":false,"is_disabled":false,"rental_uris":{"android":"levelo://app?vid=5e8dba3b-8c32-4ca5-beaa-f3fe17dab6a4","ios":"levelo://app?vid=5e8dba3b-8c32-4ca5-beaa-f3fe17dab6a4"},"vehicle_type_id":"4","last_reported":1689887154,"current_range_meters":16000,"station_id":"ce4bhqp2rcd13ifvqhog","pricing_plan_id":"free"},{"bike_id":"d6be7be1-7104-45fc-8e9f-0c0f073e8cba","system_id":"levelo_inurba_marseille","lat":43.32367,"lon":5.388836,"is_reserved":false,"is_disabled":false,"rental_uris":{"android":"levelo://app?vid=d6be7be1-7104-45fc-8e9f-0c0f073e8cba","ios":"levelo://app?vid=d6be7be1-7104-45fc-8e9f-0c0f073e8cba"},"vehicle_type_id":"4","last_reported":1689887154,"current_range_meters":28400,"station_id":"ce4bhqp2rcd13ifvqhog","pricing_plan_id":"free"},{"bike_id":"c7163d50-a3ce-4c19-adb7-eb5ac470b0a9","system_id":"levelo_inurba_marseille","lat":43.32367,"lon":5.388836,"is_reserved":false,"is_disabled":false,"rental_uris":{"android":"levelo://app?vid=c7163d50-a3ce-4c19-adb7-eb5ac470b0a9","ios":"levelo://app?vid=c7163d50-a3ce-4c19-adb7-eb5ac470b0a9"},"vehicle_type_id":"4","last_reported":1689887154,"current_range_meters":22400,"station_id":"ce4bhqp2rcd13ifvqhog","pricing_plan_id":"free"},{"bike_id":"2e291da5-9d48-4cdf-bce0-89cb545dfa1a","system_id":"levelo_inurba_marseille","lat":43.32367,"lon":5.388836,"is_reserved":false,"is_disabled":false,"rental_uris":{"android":"levelo://app?vid=2e291da5-9d48-4cdf-bce0-89cb545dfa1a","ios":"levelo://app?vid=2e291da5-9d48-4cdf-bce0-89cb545dfa1a"},"vehicle_type_id":"4","last_reported":1689887154,"current_range_meters":30400,"station_id":"ce4bhqp2rcd13ifvqhog","pricing_plan_id":"free"},{"bike_id":"a99a5297-f37a-4cd1-bd26-f0eaafcdc982","system_id":"levelo_inurba_marseille","lat":43.32364,"lon":5.38883,"is_reserved":false,"is_disabled":false,"rental_uris":{"android":"levelo://app?vid=a99a5297-f37a-4cd1-bd26-f0eaafcdc982","ios":"levelo://app?vid=a99a5297-f37a-4cd1-bd26-f0eaafcdc982"},"vehicle_type_id":"4","last_reported":1689887154,"current_range_meters":0,"station_id":"ce4bhqp2rcd13ifvqhog","pricing_plan_id":"free"},{"bike_id":"4d8f9ae5-eabd-4aec-8492-732223fb5cdf","system_id":"levelo_inurba_marseille","lat":43.32366,"lon":5.38882,"is_reserved":false,"is_disabled":false,"rental_uris":{"android":"levelo://app?vid=4d8f9ae5-eabd-4aec-8492-732223fb5cdf","ios":"levelo://app?vid=4d8f9ae5-eabd-4aec-8492-732223fb5cdf"},"vehicle_type_id":"4","last_reported":1689887154,"current_range_meters":26800,"station_id":"ce4bhqp2rcd13ifvqhog","pricing_plan_id":"free"},{"bike_id":"82842938-d1ac-4826-8c39-a74b3b0809e1","system_id":"levelo_inurba_marseille","lat":43.32367,"lon":5.388836,"is_reserved":false,"is_disabled":false,"rental_uris":{"android":"levelo://app?vid=82842938-d1ac-4826-8c39-a74b3b0809e1","ios":"levelo://app?vid=82842938-d1ac-4826-8c39-a74b3b0809e1"},"vehicle_type_id":"4","last_reported":1689887154,"current_range_meters":24000,"station_id":"ce4bhqp2rcd13ifvqhog","pricing_plan_id":"free"},{"bike_id":"78ec5faa-c5aa-4495-ac0a-a28a25cd824f","system_id":"levelo_inurba_marseille","lat":43.32367,"lon":5.388836,"is_reserved":false,"is_disabled":false,"rental_uris":{"android":"levelo://app?vid=78ec5faa-c5aa-4495-ac0a-a28a25cd824f","ios":"levelo://app?vid=78ec5faa-c5aa-4495-ac0a-a28a25cd824f"},"vehicle_type_id":"4","last_reported":1689887154,"current_range_meters":21600,"station_id":"ce4bhqp2rcd13ifvqhog","pricing_plan_id":"free"},{"bike_id":"e0534b44-645a-4b54-b80d-245261e8e467","system_id":"levelo_inurba_marseille","lat":43.32367,"lon":5.388836,"is_reserved":false,"is_disabled":false,"rental_uris":{"android":"levelo://app?vid=e0534b44-645a-4b54-b80d-245261e8e467","ios":"levelo://app?vid=e0534b44-645a-4b54-b80d-245261e8e467"},"vehicle_type_id":"4","last_reported":1689887154,"current_range_meters":22400,"station_id":"ce4bhqp2rcd13ifvqhog","pricing_plan_id":"free"},{"bike_id":"4246e3bb-6985-4b46-80d7-f0d342a00470","system_id":"levelo_inurba_marseille","lat":43.29606,"lon":5.38102,"is_reserved":false,"is_disabled":false,"rental_uris":{"android":"levelo://app?vid=4246e3bb-6985-4b46-80d7-f0d342a00470","ios":"levelo://app?vid=4246e3bb-6985-4b46-80d7-f0d342a00470"},"vehicle_type_id":"4","last_reported":1689887154,"current_range_meters":9600,"station_id":"ce4bgl12rcd13ifvqbo0","pricing_plan_id":"free"},{"bike_id":"a324a4a1-def8-49d5-967b-71724bb742f1","system_id":"levelo_inurba_marseille","lat":43.29601,"lon":5.381084,"is_reserved":false,"is_disabled":false,"rental_uris":{"android":"levelo://app?vid=a324a4a1-def8-49d5-967b-71724bb742f1","ios":"levelo://app?vid=a324a4a1-def8-49d5-967b-71724bb742f1"},"vehicle_type_id":"4","last_reported":1689887154,"current_range_meters":12000,"station_id":"ce4bgl12rcd13ifvqbo0","pricing_plan_id":"free"},{"bike_id":"a0f5eb31-4178-45c6-8048-00206bcd1212","system_id":"levelo_inurba_marseille","lat":43.296,"lon":5.38092,"is_reserved":false,"is_disabled":false,"rental_uris":{"android":"levelo://app?vid=a0f5eb31-4178-45c6-8048-00206bcd1212","ios":"levelo://app?vid=a0f5eb31-4178-45c6-8048-00206bcd1212"},"vehicle_type_id":"4","last_reported":1689887154,"current_range_meters":14000,"station_id":"ce4bgl12rcd13ifvqbo0","pricing_plan_id":"free"},{"bike_id":"298e2e24-d396-48c5-bb20-e27a19301199","system_id":"levelo_inurba_marseille","lat":43.29601,"lon":5.381084,"is_reserved":false,"is_disabled":false,"rental_uris":{"android":"levelo://app?vid=298e2e24-d396-48c5-bb20-e27a19301199","ios":"levelo://app?vid=298e2e24-d396-48c5-bb20-e27a19301199"},"vehicle_type_id":"4","last_reported":1689887154,"current_range_meters":8400,"station_id":"ce4bgl12rcd13ifvqbo0","pricing_plan_id":"free"},{"bike_id":"58c8a7c7-1b5f-458d-8469-d7aa08827b04","system_id":"levelo_inurba_marseille","lat":43.29601,"lon":5.381084,"is_reserved":false,"is_disabled":false,"rental_uris":{"android":"levelo://app?vid=58c8a7c7-1b5f-458d-8469-d7aa08827b04","ios":"levelo://app?vid=58c8a7c7-1b5f-458d-8469-d7aa08827b04"},"vehicle_type_id":"4","last_reported":1689887154,"current_range_meters":21200,"station_id":"ce4bgl12rcd13ifvqbo0","pricing_plan_id":"free"},{"bike_id":"09b968cc-05f6-4d77-8e7f-10cff792ac16","system_id":"levelo_inurba_marseille","lat":43.29602,"lon":5.381084,"is_reserved":false,"is_disabled":false,"rental_uris":{"android":"levelo://app?vid=09b968cc-05f6-4d77-8e7f-10cff792ac16","ios":"levelo://app?vid=09b968cc-05f6-4d77-8e7f-10cff792ac16"},"vehicle_type_id":"4","last_reported":1689887154,"current_range_meters":31200,"station_id":"ce4bgl12rcd13ifvqbo0","pricing_plan_id":"free"},{"bike_id":"8ef6ea74-1b2d-4c74-8d70-936d4111111f","system_id":"levelo_inurba_marseille","lat":43.29597,"lon":5.38104,"is_reserved":false,"is_disabled":false,"rental_uris":{"android":"levelo://app?vid=8ef6ea74-1b2d-4c74-8d70-936d4111111f","ios":"levelo://app?vid=8ef6ea74-1b2d-4c74-8d70-936d4111111f"},"vehicle_type_id":"4","last_reported":1689887154,"current_range_meters":6400,"station_id":"ce4bgl12rcd13ifvqbo0","pricing_plan_id":"free"},{"bike_id":"487a5ddd-b28d-45b8-b9c4-c7f7d3d1a6d9","system_id":"levelo_inurba_marseille","lat":43.29602,"lon":5.381084,"is_reserved":false,"is_disabled":false,"rental_uris":{"android":"levelo://app?vid=487a5ddd-b28d-45b8-b9c4-c7f7d3d1a6d9","ios":"levelo://app?vid=487a5ddd-b28d-45b8-b9c4-c7f7d3d1a6d9"},"vehicle_type_id":"4","last_reported":1689887154,"current_range_meters":24800,"station_id":"ce4bgl12rcd13ifvqbo0","pricing_plan_id":"free"},{"bike_id":"1a0ea69c-4086-4c37-a1df-257ec329318b","system_id":"levelo_inurba_marseille","lat":43.29306,"lon":5.37156,"is_reserved":false,"is_disabled":false,"rental_uris":{"android":"levelo://app?vid=1a0ea69c-4086-4c37-a1df-257ec329318b","ios":"levelo://app?vid=1a0ea69c-4086-4c37-a1df-257ec329318b"},"vehicle_type_id":"4","last_reported":1689887154,"current_range_meters":26800,"station_id":"ce4bgh92rcd13ifvqb40","pricing_plan_id":"free"},{"bike_id":"71cc34a4-049d-4e1b-82c3-b2f56bf34142","system_id":"levelo_inurba_marseille","lat":43.292749,"lon":5.368398,"is_reserved":false,"is_disabled":false,"rental_uris":{"android":"levelo://app?vid=71cc34a4-049d-4e1b-82c3-b2f56bf34142","ios":"levelo://app?vid=71cc34a4-049d-4e1b-82c3-b2f56bf34142"},"vehicle_type_id":"4","last_reported":1689887154,"current_range_meters":12000,"station_id":"ce4bhbp2rcd13ifvqesg","pricing_plan_id":"free"},{"bike_id":"bfaadee5-47dc-4740-b47a-a8c8d9f0a26d","system_id":"levelo_inurba_marseille","lat":43.29302,"lon":5.37171,"is_reserved":false,"is_disabled":false,"rental_uris":{"android":"levelo://app?vid=bfaadee5-47dc-4740-b47a-a8c8d9f0a26d","ios":"levelo://app?vid=bfaadee5-47dc-4740-b47a-a8c8d9f0a26d"},"vehicle_type_id":"4","last_reported":1689887154,"current_range_meters":31200,"station_id":"ce4bgh92rcd13ifvqb40","pricing_plan_id":"free"},{"bike_id":"abde49de-7f38-4628-b7bb-d83c09c5c177","system_id":"levelo_inurba_marseille","lat":43.29301,"lon":5.37168,"is_reserved":false,"is_disabled":false,"rental_uris":{"android":"levelo://app?vid=abde49de-7f38-4628-b7bb-d83c09c5c177","ios":"levelo://app?vid=abde49de-7f38-4628-b7bb-d83c09c5c177"},"vehicle_type_id":"4","last_reported":1689887154,"current_range_meters":28000,"station_id":"ce4bgh92rcd13ifvqb40","pricing_plan_id":"free"},{"bike_id":"af2bb449-7034-49a3-8edd-59dfc0856af5","system_id":"levelo_inurba_marseille","lat":43.29301,"lon":5.37171,"is_reserved":false,"is_disabled":false,"rental_uris":{"android":"levelo://app?vid=af2bb449-7034-49a3-8edd-59dfc0856af5","ios":"levelo://app?vid=af2bb449-7034-49a3-8edd-59dfc0856af5"},"vehicle_type_id":"4","last_reported":1689887154,"current_range_meters":5200,"station_id":"ce4bgh92rcd13ifvqb40","pricing_plan_id":"free"},{"bike_id":"99ccd3f9-c61f-47c3-bd71-b251c241add8","system_id":"levelo_inurba_marseille","lat":43.293009,"lon":5.374584,"is_reserved":false,"is_disabled":false,"rental_uris":{"android":"levelo://app?vid=99ccd3f9-c61f-47c3-bd71-b251c241add8","ios":"levelo://app?vid=99ccd3f9-c61f-47c3-bd71-b251c241add8"},"vehicle_type_id":"4","last_reported":1689887154,"current_range_meters":0,"station_id":"ce4bgi12rcd13ifvqb70","pricing_plan_id":"free"},{"bike_id":"23bc69bf-7670-4270-b7f4-94267924f55d","system_id":"levelo_inurba_marseille","lat":43.29304,"lon":5.37453,"is_reserved":false,"is_disabled":false,"rental_uris":{"android":"levelo://app?vid=23bc69bf-7670-4270-b7f4-94267924f55d","ios":"levelo://app?vid=23bc69bf-7670-4270-b7f4-94267924f55d"},"vehicle_type_id":"4","last_reported":1689887154,"current_range_meters":4400,"station_id":"ce4bgi12rcd13ifvqb70","pricing_plan_id":"free"},{"bike_id":"cfc61a24-9fc4-43fa-8730-f39c8e468330","system_id":"levelo_inurba_marseille","lat":43.293009,"lon":5.374584,"is_reserved":false,"is_disabled":false,"rental_uris":{"android":"levelo://app?vid=cfc61a24-9fc4-43fa-8730-f39c8e468330","ios":"levelo://app?vid=cfc61a24-9fc4-43fa-8730-f39c8e468330"},"vehicle_type_id":"4","last_reported":1689887154,"current_range_meters":20800,"station_id":"ce4bgi12rcd13ifvqb70","pricing_plan_id":"free"},{"bike_id":"5038ac2c-9c39-4e30-bce0-163e3c2e7976","system_id":"levelo_inurba_marseille","lat":43.293009,"lon":5.374584,"is_reserved":false,"is_disabled":false,"rental_uris":{"android":"levelo://app?vid=5038ac2c-9c39-4e30-bce0-163e3c2e7976","ios":"levelo://app?vid=5038ac2c-9c39-4e30-bce0-163e3c2e7976"},"vehicle_type_id":"4","last_reported":1689887154,"current_range_meters":31200,"station_id":"ce4bgi12rcd13ifvqb70","pricing_plan_id":"free"},{"bike_id":"c494eb06-df10-4f43-b0c7-68045b838834","system_id":"levelo_inurba_marseille","lat":43.305994,"lon":5.393687,"is_reserved":false,"is_disabled":false,"rental_uris":{"android":"levelo://app?vid=c494eb06-df10-4f43-b0c7-68045b838834","ios":"levelo://app?vid=c494eb06-df10-4f43-b0c7-68045b838834"},"vehicle_type_id":"4","last_reported":1689887154,"current_range_meters":18400,"station_id":"ce4bh0p2rcd13ifvqd80","pricing_plan_id":"free"},{"bike_id":"f6baf168-c957-4bdd-923f-c3d85a62ab7b","system_id":"levelo_inurba_marseille","lat":43.305994,"lon":5.393687,"is_reserved":false,"is_disabled":false,"rental_uris":{"android":"levelo://app?vid=f6baf168-c957-4bdd-923f-c3d85a62ab7b","ios":"levelo://app?vid=f6baf168-c957-4bdd-923f-c3d85a62ab7b"},"vehicle_type_id":"4","last_reported":1689887154,"current_range_meters":31200,"station_id":"ce4bh0p2rcd13ifvqd80","pricing_plan_id":"free"},{"bike_id":"922f16e0-ada6-46ee-be8b-d907196f4a63","system_id":"levelo_inurba_marseille","lat":43.293009,"lon":5.374584,"is_reserved":false,"is_disabled":false,"rental_uris":{"android":"levelo://app?vid=922f16e0-ada6-46ee-be8b-d907196f4a63","ios":"levelo://app?vid=922f16e0-ada6-46ee-be8b-d907196f4a63"},"vehicle_type_id":"4","last_reported":1689887154,"current_range_meters":400,"station_id":"ce4bgi12rcd13ifvqb70","pricing_plan_id":"free"},{"bike_id":"47971e4c-1949-45af-a460-1d4e4a663fa4","system_id":"levelo_inurba_marseille","lat":43.293009,"lon":5.374584,"is_reserved":false,"is_disabled":false,"rental_uris":{"android":"levelo://app?vid=47971e4c-1949-45af-a460-1d4e4a663fa4","ios":"levelo://app?vid=47971e4c-1949-45af-a460-1d4e4a663fa4"},"vehicle_type_id":"4","last_reported":1689887154,"current_range_meters":17600,"station_id":"ce4bgi12rcd13ifvqb70","pricing_plan_id":"free"},{"bike_id":"4d1976c2-e26c-4394-bd06-93449c6bf463","system_id":"levelo_inurba_marseille","lat":43.293009,"lon":5.374584,"is_reserved":false,"is_disabled":false,"rental_uris":{"android":"levelo://app?vid=4d1976c2-e26c-4394-bd06-93449c6bf463","ios":"levelo://app?vid=4d1976c2-e26c-4394-bd06-93449c6bf463"},"vehicle_type_id":"4","last_reported":1689887154,"current_range_meters":9600,"station_id":"ce4bgi12rcd13ifvqb70","pricing_plan_id":"free"},{"bike_id":"096ce124-9e2b-45ae-b971-08e90679526f","system_id":"levelo_inurba_marseille","lat":43.305994,"lon":5.393687,"is_reserved":false,"is_disabled":false,"rental_uris":{"android":"levelo://app?vid=096ce124-9e2b-45ae-b971-08e90679526f","ios":"levelo://app?vid=096ce124-9e2b-45ae-b971-08e90679526f"},"vehicle_type_id":"4","last_reported":1689887154,"current_range_meters":14000,"station_id":"ce4bh0p2rcd13ifvqd80","pricing_plan_id":"free"},{"bike_id":"6b5f17b5-195f-4d36-8549-445a28f58ed4","system_id":"levelo_inurba_marseille","lat":43.2936,"lon":5.37835,"is_reserved":false,"is_disabled":false,"rental_uris":{"android":"levelo://app?vid=6b5f17b5-195f-4d36-8549-445a28f58ed4","ios":"levelo://app?vid=6b5f17b5-195f-4d36-8549-445a28f58ed4"},"vehicle_type_id":"4","last_reported":1689887154,"current_range_meters":14400,"station_id":"ce4bgjh2rcd13ifvqbf0","pricing_plan_id":"free"},{"bike_id":"e617c39c-f5fa-4d99-964b-7283166f7a32","system_id":"levelo_inurba_marseille","lat":43.302992,"lon":5.392136,"is_reserved":false,"is_disabled":false,"rental_uris":{"android":"levelo://app?vid=e617c39c-f5fa-4d99-964b-7283166f7a32","ios":"levelo://app?vid=e617c39c-f5fa-4d99-964b-7283166f7a32"},"vehicle_type_id":"4","last_reported":1689887154,"current_range_meters":6000,"station_id":"ce4bgkh2rcd13ifvqbk0","pricing_plan_id":"free"},{"bike_id":"25d1c4fb-d80b-4ebe-b148-081f1ff30595","system_id":"levelo_inurba_marseille","lat":43.302992,"lon":5.392136,"is_reserved":false,"is_disabled":false,"rental_uris":{"android":"levelo://app?vid=25d1c4fb-d80b-4ebe-b148-081f1ff30595","ios":"levelo://app?vid=25d1c4fb-d80b-4ebe-b148-081f1ff30595"},"vehicle_type_id":"4","last_reported":1689887154,"current_range_meters":14400,"station_id":"ce4bgkh2rcd13ifvqbk0","pricing_plan_id":"free"},{"bike_id":"d55e9d9e-020d-4d0b-80c1-d4caf963119b","system_id":"levelo_inurba_marseille","lat":43.302992,"lon":5.392136,"is_reserved":false,"is_disabled":false,"rental_uris":{"android":"levelo://app?vid=d55e9d9e-020d-4d0b-80c1-d4caf963119b","ios":"levelo://app?vid=d55e9d9e-020d-4d0b-80c1-d4caf963119b"},"vehicle_type_id":"4","last_reported":1689887154,"current_range_meters":31200,"station_id":"ce4bgkh2rcd13ifvqbk0","pricing_plan_id":"free"},{"bike_id":"72a99c3d-e5f0-4b19-a7d7-d0c736955af4","system_id":"levelo_inurba_marseille","lat":43.302992,"lon":5.392136,"is_reserved":false,"is_disabled":false,"rental_uris":{"android":"levelo://app?vid=72a99c3d-e5f0-4b19-a7d7-d0c736955af4","ios":"levelo://app?vid=72a99c3d-e5f0-4b19-a7d7-d0c736955af4"},"vehicle_type_id":"4","last_reported":1689887154,"current_range_meters":31200,"station_id":"ce4bgkh2rcd13ifvqbk0","pricing_plan_id":"free"},{"bike_id":"d43dba38-d2ae-4d55-9c1d-eb2ebaf69b98","system_id":"levelo_inurba_marseille","lat":43.29372,"lon":5.37843,"is_reserved":false,"is_disabled":false,"rental_uris":{"android":"levelo://app?vid=d43dba38-d2ae-4d55-9c1d-eb2ebaf69b98","ios":"levelo://app?vid=d43dba38-d2ae-4d55-9c1d-eb2ebaf69b98"},"vehicle_type_id":"4","last_reported":1689887154,"current_range_meters":27600,"station_id":"ce4bgjh2rcd13ifvqbf0","pricing_plan_id":"free"},{"bike_id":"49441d97-d748-4fd0-be79-4134fe2c9be9","system_id":"levelo_inurba_marseille","lat":43.302992,"lon":5.392136,"is_reserved":false,"is_disabled":false,"rental_uris":{"android":"levelo://app?vid=49441d97-d748-4fd0-be79-4134fe2c9be9","ios":"levelo://app?vid=49441d97-d748-4fd0-be79-4134fe2c9be9"},"vehicle_type_id":"4","last_reported":1689887154,"current_range_meters":9600,"station_id":"ce4bgkh2rcd13ifvqbk0","pricing_plan_id":"free"},{"bike_id":"c540fd70-de80-496e-b2e0-b5648968253a","system_id":"levelo_inurba_marseille","lat":43.29263,"lon":5.35962,"is_reserved":false,"is_disabled":false,"rental_uris":{"android":"levelo://app?vid=c540fd70-de80-496e-b2e0-b5648968253a","ios":"levelo://app?vid=c540fd70-de80-496e-b2e0-b5648968253a"},"vehicle_type_id":"4","last_reported":1689887154,"current_range_meters":29600,"station_id":"","pricing_plan_id":"free"},{"bike_id":"3a272ba6-e915-42a3-90c2-083a7e443627","system_id":"levelo_inurba_marseille","lat":43.2936,"lon":5.37835,"is_reserved":false,"is_disabled":false,"rental_uris":{"android":"levelo://app?vid=3a272ba6-e915-42a3-90c2-083a7e443627","ios":"levelo://app?vid=3a272ba6-e915-42a3-90c2-083a7e443627"},"vehicle_type_id":"4","last_reported":1689887154,"current_range_meters":24400,"station_id":"ce4bgjh2rcd13ifvqbf0","pricing_plan_id":"free"},{"bike_id":"2989cb22-93b4-4d36-a394-2e50c1669e93","system_id":"levelo_inurba_marseille","lat":43.29363,"lon":5.37843,"is_reserved":false,"is_disabled":false,"rental_uris":{"android":"levelo://app?vid=2989cb22-93b4-4d36-a394-2e50c1669e93","ios":"levelo://app?vid=2989cb22-93b4-4d36-a394-2e50c1669e93"},"vehicle_type_id":"4","last_reported":1689887154,"current_range_meters":30000,"station_id":"ce4bgjh2rcd13ifvqbf0","pricing_plan_id":"free"},{"bike_id":"e869f9be-cfd1-4b16-99a1-5d2c894ff71e","system_id":"levelo_inurba_marseille","lat":43.2936,"lon":5.37835,"is_reserved":false,"is_disabled":false,"rental_uris":{"android":"levelo://app?vid=e869f9be-cfd1-4b16-99a1-5d2c894ff71e","ios":"levelo://app?vid=e869f9be-cfd1-4b16-99a1-5d2c894ff71e"},"vehicle_type_id":"4","last_reported":1689887154,"current_range_meters":30000,"station_id":"ce4bgjh2rcd13ifvqbf0","pricing_plan_id":"free"},{"bike_id":"f7f67aa5-327a-4cbc-a4da-f6b2722c23da","system_id":"levelo_inurba_marseille","lat":43.300852,"lon":5.390859,"is_reserved":false,"is_disabled":false,"rental_uris":{"android":"levelo://app?vid=f7f67aa5-327a-4cbc-a4da-f6b2722c23da","ios":"levelo://app?vid=f7f67aa5-327a-4cbc-a4da-f6b2722c23da"},"vehicle_type_id":"4","last_reported":1689887154,"current_range_meters":30400,"station_id":"ce4bh192rcd13ifvqdb0","pricing_plan_id":"free"},{"bike_id":"a4808bb5-cbde-4a2a-a48a-5c95e7299f3a","system_id":"levelo_inurba_marseille","lat":43.298764,"lon":5.388973,"is_reserved":false,"is_disabled":false,"rental_uris":{"android":"levelo://app?vid=a4808bb5-cbde-4a2a-a48a-5c95e7299f3a","ios":"levelo://app?vid=a4808bb5-cbde-4a2a-a48a-5c95e7299f3a"},"vehicle_type_id":"4","last_reported":1689887154,"current_range_meters":29600,"station_id":"ce4bh392rcd13ifvqdl0","pricing_plan_id":"free"},{"bike_id":"6ff84fa0-95d4-4308-ab4f-70426fb76b67","system_id":"levelo_inurba_marseille","lat":43.298764,"lon":5.388973,"is_reserved":false,"is_disabled":false,"rental_uris":{"android":"levelo://app?vid=6ff84fa0-95d4-4308-ab4f-70426fb76b67","ios":"levelo://app?vid=6ff84fa0-95d4-4308-ab4f-70426fb76b67"},"vehicle_type_id":"4","last_reported":1689887154,"current_range_meters":27600,"station_id":"ce4bh392rcd13ifvqdl0","pricing_plan_id":"free"},{"bike_id":"47a35309-26b3-40bb-9d13-efe9242f4838","system_id":"levelo_inurba_marseille","lat":43.298764,"lon":5.388973,"is_reserved":false,"is_disabled":false,"rental_uris":{"android":"levelo://app?vid=47a35309-26b3-40bb-9d13-efe9242f4838","ios":"levelo://app?vid=47a35309-26b3-40bb-9d13-efe9242f4838"},"vehicle_type_id":"4","last_reported":1689887154,"current_range_meters":26400,"station_id":"ce4bh392rcd13ifvqdl0","pricing_plan_id":"free"},{"bike_id":"ce22eed9-48f5-4216-9722-2c077b0b3079","system_id":"levelo_inurba_marseille","lat":43.298764,"lon":5.388973,"is_reserved":false,"is_disabled":false,"rental_uris":{"android":"levelo://app?vid=ce22eed9-48f5-4216-9722-2c077b0b3079","ios":"levelo://app?vid=ce22eed9-48f5-4216-9722-2c077b0b3079"},"vehicle_type_id":"4","last_reported":1689887154,"current_range_meters":7600,"station_id":"ce4bh392rcd13ifvqdl0","pricing_plan_id":"free"},{"bike_id":"3d7e244c-a357-4d07-acec-34f8b58dd82a","system_id":"levelo_inurba_marseille","lat":43.292663,"lon":5.376394,"is_reserved":false,"is_disabled":false,"rental_uris":{"android":"levelo://app?vid=3d7e244c-a357-4d07-acec-34f8b58dd82a","ios":"levelo://app?vid=3d7e244c-a357-4d07-acec-34f8b58dd82a"},"vehicle_type_id":"4","last_reported":1689887154,"current_range_meters":14000,"station_id":"ce4bgi12rcd13ifvqb80","pricing_plan_id":"free"},{"bike_id":"3acb47ff-0117-4761-a838-9d0349d7b80e","system_id":"levelo_inurba_marseille","lat":43.298764,"lon":5.388973,"is_reserved":false,"is_disabled":false,"rental_uris":{"android":"levelo://app?vid=3acb47ff-0117-4761-a838-9d0349d7b80e","ios":"levelo://app?vid=3acb47ff-0117-4761-a838-9d0349d7b80e"},"vehicle_type_id":"4","last_reported":1689887154,"current_range_meters":22800,"station_id":"ce4bh392rcd13ifvqdl0","pricing_plan_id":"free"},{"bike_id":"938ac120-391b-49a2-b085-806d77f90657","system_id":"levelo_inurba_marseille","lat":43.304274,"lon":5.397513,"is_reserved":false,"is_disabled":false,"rental_uris":{"android":"levelo://app?vid=938ac120-391b-49a2-b085-806d77f90657","ios":"levelo://app?vid=938ac120-391b-49a2-b085-806d77f90657"},"vehicle_type_id":"4","last_reported":1689887154,"current_range_meters":19600,"station_id":"ce4bh092rcd13ifvqd20","pricing_plan_id":"free"},{"bike_id":"5468a665-91d6-487a-bd34-28a87a564dff","system_id":"levelo_inurba_marseille","lat":43.29875,"lon":5.38906,"is_reserved":false,"is_disabled":false,"rental_uris":{"android":"levelo://app?vid=5468a665-91d6-487a-bd34-28a87a564dff","ios":"levelo://app?vid=5468a665-91d6-487a-bd34-28a87a564dff"},"vehicle_type_id":"4","last_reported":1689887154,"current_range_meters":10800,"station_id":"ce4bh392rcd13ifvqdl0","pricing_plan_id":"free"},{"bike_id":"7e93d161-f78b-4553-b305-591cac5406bf","system_id":"levelo_inurba_marseille","lat":43.29875,"lon":5.38908,"is_reserved":false,"is_disabled":false,"rental_uris":{"android":"levelo://app?vid=7e93d161-f78b-4553-b305-591cac5406bf","ios":"levelo://app?vid=7e93d161-f78b-4553-b305-591cac5406bf"},"vehicle_type_id":"4","last_reported":1689887154,"current_range_meters":22800,"station_id":"ce4bh392rcd13ifvqdl0","pricing_plan_id":"free"},{"bike_id":"1bb4c05c-602a-4d70-bacb-491181546921","system_id":"levelo_inurba_marseille","lat":43.31326,"lon":5.39692,"is_reserved":false,"is_disabled":false,"rental_uris":{"android":"levelo://app?vid=1bb4c05c-602a-4d70-bacb-491181546921","ios":"levelo://app?vid=1bb4c05c-602a-4d70-bacb-491181546921"},"vehicle_type_id":"4","last_reported":1689887154,"current_range_meters":18800,"station_id":"ce4bgvp2rcd13ifvqcu0","pricing_plan_id":"free"},{"bike_id":"0518b126-b177-44dc-a86a-a5a193555d2b","system_id":"levelo_inurba_marseille","lat":43.313291,"lon":5.396838,"is_reserved":false,"is_disabled":false,"rental_uris":{"android":"levelo://app?vid=0518b126-b177-44dc-a86a-a5a193555d2b","ios":"levelo://app?vid=0518b126-b177-44dc-a86a-a5a193555d2b"},"vehicle_type_id":"4","last_reported":1689887154,"current_range_meters":29600,"station_id":"ce4bgvp2rcd13ifvqcu0","pricing_plan_id":"free"},{"bike_id":"42a65468-a2fb-4b20-aa31-591ba176d7e1","system_id":"levelo_inurba_marseille","lat":43.313291,"lon":5.396838,"is_reserved":false,"is_disabled":false,"rental_uris":{"android":"levelo://app?vid=42a65468-a2fb-4b20-aa31-591ba176d7e1","ios":"levelo://app?vid=42a65468-a2fb-4b20-aa31-591ba176d7e1"},"vehicle_type_id":"4","last_reported":1689887154,"current_range_meters":18000,"station_id":"ce4bgvp2rcd13ifvqcu0","pricing_plan_id":"free"},{"bike_id":"00029266-281a-4874-86e6-2d258dd6b4b2","system_id":"levelo_inurba_marseille","lat":43.31332,"lon":5.39694,"is_reserved":false,"is_disabled":false,"rental_uris":{"android":"levelo://app?vid=00029266-281a-4874-86e6-2d258dd6b4b2","ios":"levelo://app?vid=00029266-281a-4874-86e6-2d258dd6b4b2"},"vehicle_type_id":"4","last_reported":1689887154,"current_range_meters":10400,"station_id":"ce4bgvp2rcd13ifvqcu0","pricing_plan_id":"free"},{"bike_id":"b606fdac-6e4e-4ba7-9827-73e044e5343e","system_id":"levelo_inurba_marseille","lat":43.31327,"lon":5.39697,"is_reserved":false,"is_disabled":false,"rental_uris":{"android":"levelo://app?vid=b606fdac-6e4e-4ba7-9827-73e044e5343e","ios":"levelo://app?vid=b606fdac-6e4e-4ba7-9827-73e044e5343e"},"vehicle_type_id":"4","last_reported":1689887154,"current_range_meters":18800,"station_id":"ce4bgvp2rcd13ifvqcu0","pricing_plan_id":"free"},{"bike_id":"d567e6b1-9aac-4776-8fef-6af8944e19d4","system_id":"levelo_inurba_marseille","lat":43.309038,"lon":5.396546,"is_reserved":false,"is_disabled":false,"rental_uris":{"android":"levelo://app?vid=d567e6b1-9aac-4776-8fef-6af8944e19d4","ios":"levelo://app?vid=d567e6b1-9aac-4776-8fef-6af8944e19d4"},"vehicle_type_id":"4","last_reported":1689887154,"current_range_meters":7600,"station_id":"ce4bh012rcd13ifvqcv0","pricing_plan_id":"free"},{"bike_id":"d54e6558-040f-4b95-988c-5a2f4012b53a","system_id":"levelo_inurba_marseille","lat":43.29529,"lon":5.385581,"is_reserved":false,"is_disabled":false,"rental_uris":{"android":"levelo://app?vid=d54e6558-040f-4b95-988c-5a2f4012b53a","ios":"levelo://app?vid=d54e6558-040f-4b95-988c-5a2f4012b53a"},"vehicle_type_id":"4","last_reported":1689887154,"current_range_meters":16400,"station_id":"ce4bgih2rcd13ifvqba0","pricing_plan_id":"free"},{"bike_id":"d79506b5-cf41-406c-839d-77062e3d89c7","system_id":"levelo_inurba_marseille","lat":43.309038,"lon":5.396546,"is_reserved":false,"is_disabled":false,"rental_uris":{"android":"levelo://app?vid=d79506b5-cf41-406c-839d-77062e3d89c7","ios":"levelo://app?vid=d79506b5-cf41-406c-839d-77062e3d89c7"},"vehicle_type_id":"4","last_reported":1689887154,"current_range_meters":0,"station_id":"ce4bh012rcd13ifvqcv0","pricing_plan_id":"free"},{"bike_id":"a5e3779d-510b-4425-8836-cb0c223be6af","system_id":"levelo_inurba_marseille","lat":43.29529,"lon":5.385581,"is_reserved":false,"is_disabled":false,"rental_uris":{"android":"levelo://app?vid=a5e3779d-510b-4425-8836-cb0c223be6af","ios":"levelo://app?vid=a5e3779d-510b-4425-8836-cb0c223be6af"},"vehicle_type_id":"4","last_reported":1689887154,"current_range_meters":22800,"station_id":"ce4bgih2rcd13ifvqba0","pricing_plan_id":"free"},{"bike_id":"8e658f4d-1373-4b03-8e59-619ff76b6f3f","system_id":"levelo_inurba_marseille","lat":43.29529,"lon":5.385581,"is_reserved":false,"is_disabled":false,"rental_uris":{"android":"levelo://app?vid=8e658f4d-1373-4b03-8e59-619ff76b6f3f","ios":"levelo://app?vid=8e658f4d-1373-4b03-8e59-619ff76b6f3f"},"vehicle_type_id":"4","last_reported":1689887154,"current_range_meters":20800,"station_id":"ce4bgih2rcd13ifvqba0","pricing_plan_id":"free"},{"bike_id":"45466e19-f2a2-4a61-804c-ea2367c33ef1","system_id":"levelo_inurba_marseille","lat":43.30654,"lon":5.39588,"is_reserved":false,"is_disabled":false,"rental_uris":{"android":"levelo://app?vid=45466e19-f2a2-4a61-804c-ea2367c33ef1","ios":"levelo://app?vid=45466e19-f2a2-4a61-804c-ea2367c33ef1"},"vehicle_type_id":"4","last_reported":1689887154,"current_range_meters":2400,"station_id":"","pricing_plan_id":"free"},{"bike_id":"74625b59-8729-4782-bc7b-0c1d8cd6e3e4","system_id":"levelo_inurba_marseille","lat":43.29529,"lon":5.385581,"is_reserved":false,"is_disabled":false,"rental_uris":{"android":"levelo://app?vid=74625b59-8729-4782-bc7b-0c1d8cd6e3e4","ios":"levelo://app?vid=74625b59-8729-4782-bc7b-0c1d8cd6e3e4"},"vehicle_type_id":"4","last_reported":1689887154,"current_range_meters":10000,"station_id":"ce4bgih2rcd13ifvqba0","pricing_plan_id":"free"},{"bike_id":"3b4f6016-959c-4631-8ea1-8efa6dfaed9a","system_id":"levelo_inurba_marseille","lat":43.29532,"lon":5.38533,"is_reserved":false,"is_disabled":false,"rental_uris":{"android":"levelo://app?vid=3b4f6016-959c-4631-8ea1-8efa6dfaed9a","ios":"levelo://app?vid=3b4f6016-959c-4631-8ea1-8efa6dfaed9a"},"vehicle_type_id":"4","last_reported":1689887154,"current_range_meters":14800,"station_id":"ce4bgih2rcd13ifvqba0","pricing_plan_id":"free"},{"bike_id":"aeb3fa86-c777-40c9-837c-968e9a5ec7b0","system_id":"levelo_inurba_marseille","lat":43.29529,"lon":5.385581,"is_reserved":false,"is_disabled":false,"rental_uris":{"android":"levelo://app?vid=aeb3fa86-c777-40c9-837c-968e9a5ec7b0","ios":"levelo://app?vid=aeb3fa86-c777-40c9-837c-968e9a5ec7b0"},"vehicle_type_id":"4","last_reported":1689887154,"current_range_meters":25200,"station_id":"ce4bgih2rcd13ifvqba0","pricing_plan_id":"free"},{"bike_id":"f85b3652-8558-41c3-b443-596bb6e072f6","system_id":"levelo_inurba_marseille","lat":43.29529,"lon":5.385581,"is_reserved":false,"is_disabled":false,"rental_uris":{"android":"levelo://app?vid=f85b3652-8558-41c3-b443-596bb6e072f6","ios":"levelo://app?vid=f85b3652-8558-41c3-b443-596bb6e072f6"},"vehicle_type_id":"4","last_reported":1689887154,"current_range_meters":5200,"station_id":"ce4bgih2rcd13ifvqba0","pricing_plan_id":"free"},{"bike_id":"59d408b8-739a-4652-b605-7f1c3ef46436","system_id":"levelo_inurba_marseille","lat":43.29529,"lon":5.385581,"is_reserved":false,"is_disabled":false,"rental_uris":{"android":"levelo://app?vid=59d408b8-739a-4652-b605-7f1c3ef46436","ios":"levelo://app?vid=59d408b8-739a-4652-b605-7f1c3ef46436"},"vehicle_type_id":"4","last_reported":1689887154,"current_range_meters":18800,"station_id":"ce4bgih2rcd13ifvqba0","pricing_plan_id":"free"},{"bike_id":"9afb4c4e-475a-459b-a083-1187615d2e43","system_id":"levelo_inurba_marseille","lat":43.29529,"lon":5.38531,"is_reserved":false,"is_disabled":false,"rental_uris":{"android":"levelo://app?vid=9afb4c4e-475a-459b-a083-1187615d2e43","ios":"levelo://app?vid=9afb4c4e-475a-459b-a083-1187615d2e43"},"vehicle_type_id":"4","last_reported":1689887154,"current_range_meters":23200,"station_id":"ce4bgih2rcd13ifvqba0","pricing_plan_id":"free"},{"bike_id":"d5d31fd1-1973-4c69-b5a5-93556300a8c2","system_id":"levelo_inurba_marseille","lat":43.29529,"lon":5.385581,"is_reserved":false,"is_disabled":false,"rental_uris":{"android":"levelo://app?vid=d5d31fd1-1973-4c69-b5a5-93556300a8c2","ios":"levelo://app?vid=d5d31fd1-1973-4c69-b5a5-93556300a8c2"},"vehicle_type_id":"4","last_reported":1689887154,"current_range_meters":22800,"station_id":"ce4bgih2rcd13ifvqba0","pricing_plan_id":"free"},{"bike_id":"74533f7b-fe48-4654-82f9-97a31dd73858","system_id":"levelo_inurba_marseille","lat":43.29529,"lon":5.385581,"is_reserved":false,"is_disabled":false,"rental_uris":{"android":"levelo://app?vid=74533f7b-fe48-4654-82f9-97a31dd73858","ios":"levelo://app?vid=74533f7b-fe48-4654-82f9-97a31dd73858"},"vehicle_type_id":"4","last_reported":1689887154,"current_range_meters":19600,"station_id":"ce4bgih2rcd13ifvqba0","pricing_plan_id":"free"},{"bike_id":"92178c96-a46c-4a66-8d2e-bb47990fa03b","system_id":"levelo_inurba_marseille","lat":43.29529,"lon":5.38539,"is_reserved":false,"is_disabled":false,"rental_uris":{"android":"levelo://app?vid=92178c96-a46c-4a66-8d2e-bb47990fa03b","ios":"levelo://app?vid=92178c96-a46c-4a66-8d2e-bb47990fa03b"},"vehicle_type_id":"4","last_reported":1689887154,"current_range_meters":4400,"station_id":"ce4bgih2rcd13ifvqba0","pricing_plan_id":"free"},{"bike_id":"ce13798b-e2d2-4739-aac3-fe7fcf2d19d1","system_id":"levelo_inurba_marseille","lat":43.29532,"lon":5.38548,"is_reserved":false,"is_disabled":false,"rental_uris":{"android":"levelo://app?vid=ce13798b-e2d2-4739-aac3-fe7fcf2d19d1","ios":"levelo://app?vid=ce13798b-e2d2-4739-aac3-fe7fcf2d19d1"},"vehicle_type_id":"4","last_reported":1689887154,"current_range_meters":0,"station_id":"ce4bgih2rcd13ifvqba0","pricing_plan_id":"free"},{"bike_id":"677914a2-f175-4b56-8854-baea7ca410ee","system_id":"levelo_inurba_marseille","lat":43.29532,"lon":5.38552,"is_reserved":false,"is_disabled":false,"rental_uris":{"android":"levelo://app?vid=677914a2-f175-4b56-8854-baea7ca410ee","ios":"levelo://app?vid=677914a2-f175-4b56-8854-baea7ca410ee"},"vehicle_type_id":"4","last_reported":1689887154,"current_range_meters":23600,"station_id":"ce4bgih2rcd13ifvqba0","pricing_plan_id":"free"},{"bike_id":"6e4a2f42-3eee-4072-a6b7-1f4a4754cea3","system_id":"levelo_inurba_marseille","lat":43.29529,"lon":5.385581,"is_reserved":false,"is_disabled":false,"rental_uris":{"android":"levelo://app?vid=6e4a2f42-3eee-4072-a6b7-1f4a4754cea3","ios":"levelo://app?vid=6e4a2f42-3eee-4072-a6b7-1f4a4754cea3"},"vehicle_type_id":"4","last_reported":1689887154,"current_range_meters":17200,"station_id":"ce4bgih2rcd13ifvqba0","pricing_plan_id":"free"},{"bike_id":"247aadb4-a27c-4ac5-be96-0ad5565b9291","system_id":"levelo_inurba_marseille","lat":43.29527,"lon":5.38547,"is_reserved":false,"is_disabled":false,"rental_uris":{"android":"levelo://app?vid=247aadb4-a27c-4ac5-be96-0ad5565b9291","ios":"levelo://app?vid=247aadb4-a27c-4ac5-be96-0ad5565b9291"},"vehicle_type_id":"4","last_reported":1689887154,"current_range_meters":13200,"station_id":"ce4bgih2rcd13ifvqba0","pricing_plan_id":"free"},{"bike_id":"7dce8658-ee23-4746-9a8a-e7d5f694c5dc","system_id":"levelo_inurba_marseille","lat":43.29524,"lon":5.38545,"is_reserved":false,"is_disabled":false,"rental_uris":{"android":"levelo://app?vid=7dce8658-ee23-4746-9a8a-e7d5f694c5dc","ios":"levelo://app?vid=7dce8658-ee23-4746-9a8a-e7d5f694c5dc"},"vehicle_type_id":"4","last_reported":1689887154,"current_range_meters":8000,"station_id":"ce4bgih2rcd13ifvqba0","pricing_plan_id":"free"},{"bike_id":"db3c452b-f1a8-4ae3-b32d-b4d8bce63b3e","system_id":"levelo_inurba_marseille","lat":43.29522,"lon":5.38544,"is_reserved":false,"is_disabled":false,"rental_uris":{"android":"levelo://app?vid=db3c452b-f1a8-4ae3-b32d-b4d8bce63b3e","ios":"levelo://app?vid=db3c452b-f1a8-4ae3-b32d-b4d8bce63b3e"},"vehicle_type_id":"4","last_reported":1689887154,"current_range_meters":20400,"station_id":"ce4bgih2rcd13ifvqba0","pricing_plan_id":"free"},{"bike_id":"779e03f3-c9d0-4d6b-a509-41f25e72c7e2","system_id":"levelo_inurba_marseille","lat":43.290779,"lon":5.371482,"is_reserved":false,"is_disabled":false,"rental_uris":{"android":"levelo://app?vid=779e03f3-c9d0-4d6b-a509-41f25e72c7e2","ios":"levelo://app?vid=779e03f3-c9d0-4d6b-a509-41f25e72c7e2"},"vehicle_type_id":"4","last_reported":1689887154,"current_range_meters":1600,"station_id":"ce4bh5p2rcd13ifvqe4g","pricing_plan_id":"free"},{"bike_id":"8ae0ba77-dd62-414e-933b-fff1960d0527","system_id":"levelo_inurba_marseille","lat":43.290779,"lon":5.371482,"is_reserved":false,"is_disabled":false,"rental_uris":{"android":"levelo://app?vid=8ae0ba77-dd62-414e-933b-fff1960d0527","ios":"levelo://app?vid=8ae0ba77-dd62-414e-933b-fff1960d0527"},"vehicle_type_id":"4","last_reported":1689887154,"current_range_meters":13200,"station_id":"ce4bh5p2rcd13ifvqe4g","pricing_plan_id":"free"},{"bike_id":"f8031a3b-d339-4847-b4ee-e5a7456dbb4c","system_id":"levelo_inurba_marseille","lat":43.290779,"lon":5.371482,"is_reserved":false,"is_disabled":false,"rental_uris":{"android":"levelo://app?vid=f8031a3b-d339-4847-b4ee-e5a7456dbb4c","ios":"levelo://app?vid=f8031a3b-d339-4847-b4ee-e5a7456dbb4c"},