{"last_updated":1745974362,"ttl":60,"version":"2.2","data":{"bikes":[{"bike_id":"26deac1f-c435-40bc-9469-9ae0b266bb77","system_id":"levelo_inurba_marseille","lat":43.302066,"lon":5.384379,"is_reserved":false,"is_disabled":false,"rental_uris":{"android":"levelo://app?vid=26deac1f-c435-40bc-9469-9ae0b266bb77","ios":"levelo://app?vid=26deac1f-c435-40bc-9469-9ae0b266bb77"},"vehicle_type_id":"4","last_reported":1745974362,"current_range_meters":2800,"station_id":"","pricing_plan_id":"cebpf4jnsgd1na2vs0mg"},{"bike_id":"e288c1b9-de3d-40c0-ac27-e03c9556d880","system_id":"levelo_inurba_marseille","lat":43.292669,"lon":5.409084,"is_reserved":false,"is_disabled":true,"rental_uris":{"android":"levelo://app?vid=e288c1b9-de3d-40c0-ac27-e03c9556d880","ios":"levelo://app?vid=e288c1b9-de3d-40c0-ac27-e03c9556d880"},"vehicle_type_id":"4","last_reported":1745974362,"current_range_meters":3200,"station_id":"ce4bh192rcd13ifvqdc0","pricing_plan_id":"cebpf4jnsgd1na2vs0mg"},{"bike_id":"af4f0c69-e62d-4155-b1d1-a67b45271ae1","system_id":"levelo_inurba_marseille","lat":43.24772,"lon":5.41149,"is_reserved":false,"is_disabled":false,"rental_uris":{"android":"levelo://app?vid=af4f0c69-e62d-4155-b1d1-a67b45271ae1","ios":"levelo://app?vid=af4f0c69-e62d-4155-b1d1-a67b45271ae1"},"vehicle_type_id":"4","last_reported":1745974362,"current_range_meters":3600,"station_id":"","pricing_plan_id":"cebpf4jnsgd1na2vs0mg"},{"bike_id":"110d42e0-e455-49c3-ba2f-a13b1f51573a","system_id":"levelo_inurba_marseille","lat":43.296498,"lon":5.411852,"is_reserved":false,"is_disabled":false,"rental_uris":{"android":"levelo://app?vid=110d42e0-e455-49c3-ba2f-a13b1f51573a","ios":"levelo://app?vid=110d42e0-e455-49c3-ba2f-a13b1f51573a"},"vehicle_type_id":"4","last_reported":1745974362,"current_range_meters":3600,"station_id":"","pricing_plan_id":"cebpf4jnsgd1na2vs0mg"},{"bike_id":"76265f97-ca81-465f-bf4f-0f973c70a2ef","system_id":"levelo_inurba_marseille","lat":43.30202,"lon":5.3977,"is_reserved":false,"is_disabled":false,"rental_uris":{"android":"levelo://app?vid=76265f97-ca81-465f-bf4f-0f973c70a2ef","ios":"levelo://app?vid=76265f97-ca81-465f-bf4f-0f973c70a2ef"},"vehicle_type_id":"4","last_reported":1745974362,"current_range_meters":3600,"station_id":"ce4bh0h2rcd13ifvqd40","pricing_plan_id":"cebpf4jnsgd1na2vs0mg"},{"bike_id":"22c7b6e2-900d-49b2-a5fa-5c40e8e0d33b","system_id":"levelo_inurba_marseille","lat":43.28106,"lon":5.37841,"is_reserved":false,"is_disabled":false,"rental_uris":{"android":"levelo://app?vid=22c7b6e2-900d-49b2-a5fa-5c40e8e0d33b","ios":"levelo://app?vid=22c7b6e2-900d-49b2-a5fa-5c40e8e0d33b"},"vehicle_type_id":"4","last_reported":1745974362,"current_range_meters":3600,"station_id":"ce4bha12rcd13ifvqee0","pricing_plan_id":"cebpf4jnsgd1na2vs0mg"},{"bike_id":"1f739055-8148-4574-abff-98a1f2db48ac","system_id":"levelo_inurba_marseille","lat":43.291873,"lon":5.357943,"is_reserved":false,"is_disabled":true,"rental_uris":{"android":"levelo://app?vid=1f739055-8148-4574-abff-98a1f2db48ac","ios":"levelo://app?vid=1f739055-8148-4574-abff-98a1f2db48ac"},"vehicle_type_id":"4","last_reported":1745974362,"current_range_meters":3600,"station_id":"ce4bhb12rcd13ifvqel0","pricing_plan_id":"cebpf4jnsgd1na2vs0mg"},{"bike_id":"9d010305-db17-4453-8752-e7a64080a1fa","system_id":"levelo_inurba_marseille","lat":43.28384,"lon":5.395978,"is_reserved":false,"is_disabled":false,"rental_uris":{"android":"levelo://app?vid=9d010305-db17-4453-8752-e7a64080a1fa","ios":"levelo://app?vid=9d010305-db17-4453-8752-e7a64080a1fa"},"vehicle_type_id":"4","last_reported":1745974362,"current_range_meters":4400,"station_id":"","pricing_plan_id":"cebpf4jnsgd1na2vs0mg"},{"bike_id":"775481df-05c4-4f0e-8a67-b66aedbeddcf","system_id":"levelo_inurba_marseille","lat":43.24083,"lon":5.39729,"is_reserved":false,"is_disabled":false,"rental_uris":{"android":"levelo://app?vid=775481df-05c4-4f0e-8a67-b66aedbeddcf","ios":"levelo://app?vid=775481df-05c4-4f0e-8a67-b66aedbeddcf"},"vehicle_type_id":"4","last_reported":1745974362,"current_range_meters":4800,"station_id":"ce4bhn12rcd13ifvqgpg","pricing_plan_id":"cebpf4jnsgd1na2vs0mg"},{"bike_id":"e0ac88e2-1eb0-4cac-b929-78c1462f501f","system_id":"levelo_inurba_marseille","lat":43.27943,"lon":5.41031,"is_reserved":false,"is_disabled":false,"rental_uris":{"android":"levelo://app?vid=e0ac88e2-1eb0-4cac-b929-78c1462f501f","ios":"levelo://app?vid=e0ac88e2-1eb0-4cac-b929-78c1462f501f"},"vehicle_type_id":"4","last_reported":1745974362,"current_range_meters":4800,"station_id":"ce4bhnp2rcd13ifvqh0g","pricing_plan_id":"cebpf4jnsgd1na2vs0mg"},{"bike_id":"260981a5-60d4-4b38-97de-5fb58feade6c","system_id":"levelo_inurba_marseille","lat":43.24064,"lon":5.37772,"is_reserved":false,"is_disabled":false,"rental_uris":{"android":"levelo://app?vid=260981a5-60d4-4b38-97de-5fb58feade6c","ios":"levelo://app?vid=260981a5-60d4-4b38-97de-5fb58feade6c"},"vehicle_type_id":"4","last_reported":1745974362,"current_range_meters":4800,"station_id":"ce4bhnp2rcd13ifvqgvg","pricing_plan_id":"cebpf4jnsgd1na2vs0mg"},{"bike_id":"c847c66a-5d4b-43a0-b8ce-3c816716271e","system_id":"levelo_inurba_marseille","lat":43.289999,"lon":5.356283,"is_reserved":false,"is_disabled":true,"rental_uris":{"android":"levelo://app?vid=c847c66a-5d4b-43a0-b8ce-3c816716271e","ios":"levelo://app?vid=c847c66a-5d4b-43a0-b8ce-3c816716271e"},"vehicle_type_id":"4","last_reported":1745974362,"current_range_meters":4800,"station_id":"ce4bhb92rcd13ifvqen0","pricing_plan_id":"cebpf4jnsgd1na2vs0mg"},{"bike_id":"07e6541d-5aeb-4d20-8add-ef770d272d4f","system_id":"levelo_inurba_marseille","lat":43.310752,"lon":5.383481,"is_reserved":false,"is_disabled":false,"rental_uris":{"android":"levelo://app?vid=07e6541d-5aeb-4d20-8add-ef770d272d4f","ios":"levelo://app?vid=07e6541d-5aeb-4d20-8add-ef770d272d4f"},"vehicle_type_id":"4","last_reported":1745974362,"current_range_meters":4800,"station_id":"","pricing_plan_id":"cebpf4jnsgd1na2vs0mg"},{"bike_id":"b039c152-f87b-436a-9b54-3e5c0bb27b9c","system_id":"levelo_inurba_marseille","lat":43.289469,"lon":5.396204,"is_reserved":false,"is_disabled":false,"rental_uris":{"android":"levelo://app?vid=b039c152-f87b-436a-9b54-3e5c0bb27b9c","ios":"levelo://app?vid=b039c152-f87b-436a-9b54-3e5c0bb27b9c"},"vehicle_type_id":"4","last_reported":1745974362,"current_range_meters":4800,"station_id":"ce4bh3h2rcd13ifvqdn0","pricing_plan_id":"cebpf4jnsgd1na2vs0mg"},{"bike_id":"83825a2b-3736-49ed-aeea-be993f789935","system_id":"levelo_inurba_marseille","lat":43.274984,"lon":5.424542,"is_reserved":false,"is_disabled":false,"rental_uris":{"android":"levelo://app?vid=83825a2b-3736-49ed-aeea-be993f789935","ios":"levelo://app?vid=83825a2b-3736-49ed-aeea-be993f789935"},"vehicle_type_id":"4","last_reported":1745974362,"current_range_meters":5600,"station_id":"ce4bhn92rcd13ifvqgrg","pricing_plan_id":"cebpf4jnsgd1na2vs0mg"},{"bike_id":"0a5341da-d064-46c5-b0f2-ab9a467ac050","system_id":"levelo_inurba_marseille","lat":43.28933,"lon":5.36392,"is_reserved":false,"is_disabled":false,"rental_uris":{"android":"levelo://app?vid=0a5341da-d064-46c5-b0f2-ab9a467ac050","ios":"levelo://app?vid=0a5341da-d064-46c5-b0f2-ab9a467ac050"},"vehicle_type_id":"4","last_reported":1745974362,"current_range_meters":5600,"station_id":"ce4bhc92rcd13ifvqetg","pricing_plan_id":"cebpf4jnsgd1na2vs0mg"},{"bike_id":"b05dbe43-6724-4fbf-bf5d-4b320183bb28","system_id":"levelo_inurba_marseille","lat":43.281,"lon":5.378273,"is_reserved":false,"is_disabled":false,"rental_uris":{"android":"levelo://app?vid=b05dbe43-6724-4fbf-bf5d-4b320183bb28","ios":"levelo://app?vid=b05dbe43-6724-4fbf-bf5d-4b320183bb28"},"vehicle_type_id":"4","last_reported":1745974362,"current_range_meters":5600,"station_id":"ce4bha12rcd13ifvqee0","pricing_plan_id":"cebpf4jnsgd1na2vs0mg"},{"bike_id":"4e921bd6-7318-4e59-bc63-645afd4ef569","system_id":"levelo_inurba_marseille","lat":43.2416,"lon":5.36405,"is_reserved":false,"is_disabled":false,"rental_uris":{"android":"levelo://app?vid=4e921bd6-7318-4e59-bc63-645afd4ef569","ios":"levelo://app?vid=4e921bd6-7318-4e59-bc63-645afd4ef569"},"vehicle_type_id":"4","last_reported":1745974362,"current_range_meters":5600,"station_id":"cpo36qri1sfpv3e86is0","pricing_plan_id":"cebpf4jnsgd1na2vs0mg"},{"bike_id":"94b2d82a-1098-4d34-a4ba-7ea60d57272a","system_id":"levelo_inurba_marseille","lat":43.28457,"lon":5.35884,"is_reserved":false,"is_disabled":false,"rental_uris":{"android":"levelo://app?vid=94b2d82a-1098-4d34-a4ba-7ea60d57272a","ios":"levelo://app?vid=94b2d82a-1098-4d34-a4ba-7ea60d57272a"},"vehicle_type_id":"4","last_reported":1745974362,"current_range_meters":6000,"station_id":"ce4bhah2rcd13ifvqei0","pricing_plan_id":"cebpf4jnsgd1na2vs0mg"},{"bike_id":"560a5501-88b2-43b3-8ac8-4157806c6d8d","system_id":"levelo_inurba_marseille","lat":43.323433,"lon":5.406208,"is_reserved":false,"is_disabled":false,"rental_uris":{"android":"levelo://app?vid=560a5501-88b2-43b3-8ac8-4157806c6d8d","ios":"levelo://app?vid=560a5501-88b2-43b3-8ac8-4157806c6d8d"},"vehicle_type_id":"4","last_reported":1745974362,"current_range_meters":6400,"station_id":"ce4bhq92rcd13ifvqhjg","pricing_plan_id":"cebpf4jnsgd1na2vs0mg"},{"bike_id":"5e5e5b3b-13d3-4c3b-a8a8-3e15f6ffb693","system_id":"levelo_inurba_marseille","lat":43.28718,"lon":5.3739,"is_reserved":false,"is_disabled":false,"rental_uris":{"android":"levelo://app?vid=5e5e5b3b-13d3-4c3b-a8a8-3e15f6ffb693","ios":"levelo://app?vid=5e5e5b3b-13d3-4c3b-a8a8-3e15f6ffb693"},"vehicle_type_id":"4","last_reported":1745974362,"current_range_meters":6400,"station_id":"ce4bh3p2rcd13ifvqdq0","pricing_plan_id":"cebpf4jnsgd1na2vs0mg"},{"bike_id":"e5b4b90d-e268-4de2-98f4-f6d0513f8801","system_id":"levelo_inurba_marseille","lat":43.26555,"lon":5.42216,"is_reserved":false,"is_disabled":false,"rental_uris":{"android":"levelo://app?vid=e5b4b90d-e268-4de2-98f4-f6d0513f8801","ios":"levelo://app?vid=e5b4b90d-e268-4de2-98f4-f6d0513f8801"},"vehicle_type_id":"4","last_reported":1745974362,"current_range_meters":6400,"station_id":"","pricing_plan_id":"cebpf4jnsgd1na2vs0mg"},{"bike_id":"3ce2f589-6812-44f1-a5ef-73b7b7230f6d","system_id":"levelo_inurba_marseille","lat":43.291762,"lon":5.369021,"is_reserved":false,"is_disabled":false,"rental_uris":{"android":"levelo://app?vid=3ce2f589-6812-44f1-a5ef-73b7b7230f6d","ios":"levelo://app?vid=3ce2f589-6812-44f1-a5ef-73b7b7230f6d"},"vehicle_type_id":"4","last_reported":1745974362,"current_range_meters":6400,"station_id":"","pricing_plan_id":"cebpf4jnsgd1na2vs0mg"},{"bike_id":"f1e3c12a-02a3-4893-b9e1-1aacd74f3f49","system_id":"levelo_inurba_marseille","lat":43.32131,"lon":5.36771,"is_reserved":false,"is_disabled":false,"rental_uris":{"android":"levelo://app?vid=f1e3c12a-02a3-4893-b9e1-1aacd74f3f49","ios":"levelo://app?vid=f1e3c12a-02a3-4893-b9e1-1aacd74f3f49"},"vehicle_type_id":"4","last_reported":1745974362,"current_range_meters":6800,"station_id":"ce4bhrh2rcd13ifvqhug","pricing_plan_id":"cebpf4jnsgd1na2vs0mg"},{"bike_id":"79af80e6-dae8-4366-9807-e3759055ac2e","system_id":"levelo_inurba_marseille","lat":43.26592,"lon":5.39038,"is_reserved":false,"is_disabled":false,"rental_uris":{"android":"levelo://app?vid=79af80e6-dae8-4366-9807-e3759055ac2e","ios":"levelo://app?vid=79af80e6-dae8-4366-9807-e3759055ac2e"},"vehicle_type_id":"4","last_reported":1745974362,"current_range_meters":6800,"station_id":"ce4bhe12rcd13ifvqf30","pricing_plan_id":"cebpf4jnsgd1na2vs0mg"},{"bike_id":"d843dbd9-e54f-40f9-a58b-40bcd9f84677","system_id":"levelo_inurba_marseille","lat":43.23194,"lon":5.35549,"is_reserved":false,"is_disabled":false,"rental_uris":{"android":"levelo://app?vid=d843dbd9-e54f-40f9-a58b-40bcd9f84677","ios":"levelo://app?vid=d843dbd9-e54f-40f9-a58b-40bcd9f84677"},"vehicle_type_id":"4","last_reported":1745974362,"current_range_meters":6400,"station_id":"ce4bhu92rcd13ifvqi70","pricing_plan_id":"cebpf4jnsgd1na2vs0mg"},{"bike_id":"dbdacbe4-4534-4d90-9d33-96b20d3b7463","system_id":"levelo_inurba_marseille","lat":43.29228,"lon":5.40011,"is_reserved":false,"is_disabled":false,"rental_uris":{"android":"levelo://app?vid=dbdacbe4-4534-4d90-9d33-96b20d3b7463","ios":"levelo://app?vid=dbdacbe4-4534-4d90-9d33-96b20d3b7463"},"vehicle_type_id":"4","last_reported":1745974362,"current_range_meters":6800,"station_id":"","pricing_plan_id":"cebpf4jnsgd1na2vs0mg"},{"bike_id":"738568dc-408d-4c2d-88de-35ad23a92b23","system_id":"levelo_inurba_marseille","lat":43.24157,"lon":5.36397,"is_reserved":false,"is_disabled":false,"rental_uris":{"android":"levelo://app?vid=738568dc-408d-4c2d-88de-35ad23a92b23","ios":"levelo://app?vid=738568dc-408d-4c2d-88de-35ad23a92b23"},"vehicle_type_id":"4","last_reported":1745974362,"current_range_meters":6800,"station_id":"cpo36qri1sfpv3e86is0","pricing_plan_id":"cebpf4jnsgd1na2vs0mg"},{"bike_id":"c3701277-3ef8-4af1-aceb-6364bb93ea9e","system_id":"levelo_inurba_marseille","lat":43.322786,"lon":5.382467,"is_reserved":false,"is_disabled":false,"rental_uris":{"android":"levelo://app?vid=c3701277-3ef8-4af1-aceb-6364bb93ea9e","ios":"levelo://app?vid=c3701277-3ef8-4af1-aceb-6364bb93ea9e"},"vehicle_type_id":"4","last_reported":1745974362,"current_range_meters":6800,"station_id":"ce4bhr12rcd13ifvqhqg","pricing_plan_id":"cebpf4jnsgd1na2vs0mg"},{"bike_id":"6f91fbbb-182d-4f0b-90e1-9c6ae2771ac2","system_id":"levelo_inurba_marseille","lat":43.301177,"lon":5.39879,"is_reserved":false,"is_disabled":false,"rental_uris":{"android":"levelo://app?vid=6f91fbbb-182d-4f0b-90e1-9c6ae2771ac2","ios":"levelo://app?vid=6f91fbbb-182d-4f0b-90e1-9c6ae2771ac2"},"vehicle_type_id":"4","last_reported":1745974362,"current_range_meters":7200,"station_id":"ce4bh0h2rcd13ifvqd40","pricing_plan_id":"cebpf4jnsgd1na2vs0mg"},{"bike_id":"6f38b2ef-8c68-4c77-9fb6-fb95536bec70","system_id":"levelo_inurba_marseille","lat":43.26219,"lon":5.40456,"is_reserved":false,"is_disabled":false,"rental_uris":{"android":"levelo://app?vid=6f38b2ef-8c68-4c77-9fb6-fb95536bec70","ios":"levelo://app?vid=6f38b2ef-8c68-4c77-9fb6-fb95536bec70"},"vehicle_type_id":"4","last_reported":1745974362,"current_range_meters":7200,"station_id":"ce4bhmh2rcd13ifvqgmg","pricing_plan_id":"cebpf4jnsgd1na2vs0mg"},{"bike_id":"fcf39cbd-8d86-44b1-994d-edea3f417da6","system_id":"levelo_inurba_marseille","lat":43.27181,"lon":5.4101,"is_reserved":false,"is_disabled":false,"rental_uris":{"android":"levelo://app?vid=fcf39cbd-8d86-44b1-994d-edea3f417da6","ios":"levelo://app?vid=fcf39cbd-8d86-44b1-994d-edea3f417da6"},"vehicle_type_id":"4","last_reported":1745974362,"current_range_meters":7200,"station_id":"ce4bhl12rcd13ifvqgf0","pricing_plan_id":"cebpf4jnsgd1na2vs0mg"},{"bike_id":"b91f9a69-4cb5-41b7-b305-31a14f27626b","system_id":"levelo_inurba_marseille","lat":43.2842,"lon":5.3499,"is_reserved":false,"is_disabled":true,"rental_uris":{"android":"levelo://app?vid=b91f9a69-4cb5-41b7-b305-31a14f27626b","ios":"levelo://app?vid=b91f9a69-4cb5-41b7-b305-31a14f27626b"},"vehicle_type_id":"4","last_reported":1745974362,"current_range_meters":7200,"station_id":"ce4bhbh2rcd13ifvqepg","pricing_plan_id":"cebpf4jnsgd1na2vs0mg"},{"bike_id":"4495444d-abd9-4d15-ae65-abeb5470be26","system_id":"levelo_inurba_marseille","lat":43.30525,"lon":5.38456,"is_reserved":false,"is_disabled":false,"rental_uris":{"android":"levelo://app?vid=4495444d-abd9-4d15-ae65-abeb5470be26","ios":"levelo://app?vid=4495444d-abd9-4d15-ae65-abeb5470be26"},"vehicle_type_id":"4","last_reported":1745974362,"current_range_meters":7200,"station_id":"ce4bgg92rcd13ifvqb30","pricing_plan_id":"cebpf4jnsgd1na2vs0mg"},{"bike_id":"cd91fd29-aace-4479-99a0-85738b164faa","system_id":"levelo_inurba_marseille","lat":43.290343,"lon":5.386517,"is_reserved":false,"is_disabled":false,"rental_uris":{"android":"levelo://app?vid=cd91fd29-aace-4479-99a0-85738b164faa","ios":"levelo://app?vid=cd91fd29-aace-4479-99a0-85738b164faa"},"vehicle_type_id":"4","last_reported":1745974362,"current_range_meters":8000,"station_id":"ce4bh4p2rcd13ifvqe0g","pricing_plan_id":"cebpf4jnsgd1na2vs0mg"},{"bike_id":"a26fd576-61ce-4d0e-b9c9-a0739a103266","system_id":"levelo_inurba_marseille","lat":43.26941,"lon":5.40246,"is_reserved":false,"is_disabled":false,"rental_uris":{"android":"levelo://app?vid=a26fd576-61ce-4d0e-b9c9-a0739a103266","ios":"levelo://app?vid=a26fd576-61ce-4d0e-b9c9-a0739a103266"},"vehicle_type_id":"4","last_reported":1745974362,"current_range_meters":7200,"station_id":"cjm6bp8fraef2m0cb0m0","pricing_plan_id":"cebpf4jnsgd1na2vs0mg"},{"bike_id":"675f622c-7d55-4692-8fa9-36cb9fe77410","system_id":"levelo_inurba_marseille","lat":43.30332,"lon":5.40412,"is_reserved":false,"is_disabled":false,"rental_uris":{"android":"levelo://app?vid=675f622c-7d55-4692-8fa9-36cb9fe77410","ios":"levelo://app?vid=675f622c-7d55-4692-8fa9-36cb9fe77410"},"vehicle_type_id":"4","last_reported":1745974362,"current_range_meters":8000,"station_id":"ce4bh012rcd13ifvqd10","pricing_plan_id":"cebpf4jnsgd1na2vs0mg"},{"bike_id":"58d96813-51d9-4691-82e4-fd7df8625fb2","system_id":"levelo_inurba_marseille","lat":43.30377,"lon":5.42489,"is_reserved":false,"is_disabled":false,"rental_uris":{"android":"levelo://app?vid=58d96813-51d9-4691-82e4-fd7df8625fb2","ios":"levelo://app?vid=58d96813-51d9-4691-82e4-fd7df8625fb2"},"vehicle_type_id":"4","last_reported":1745974362,"current_range_meters":8000,"station_id":"ce4bhoh2rcd13ifvqh6g","pricing_plan_id":"cebpf4jnsgd1na2vs0mg"},{"bike_id":"e37d8bc7-a4ee-4711-ada3-738b74336e54","system_id":"levelo_inurba_marseille","lat":43.285579,"lon":5.394901,"is_reserved":false,"is_disabled":false,"rental_uris":{"android":"levelo://app?vid=e37d8bc7-a4ee-4711-ada3-738b74336e54","ios":"levelo://app?vid=e37d8bc7-a4ee-4711-ada3-738b74336e54"},"vehicle_type_id":"4","last_reported":1745974362,"current_range_meters":8000,"station_id":"ce4bh292rcd13ifvqdg0","pricing_plan_id":"cebpf4jnsgd1na2vs0mg"},{"bike_id":"1b301f02-2962-490e-9968-7ce15bdd5405","system_id":"levelo_inurba_marseille","lat":43.28704,"lon":5.37391,"is_reserved":false,"is_disabled":false,"rental_uris":{"android":"levelo://app?vid=1b301f02-2962-490e-9968-7ce15bdd5405","ios":"levelo://app?vid=1b301f02-2962-490e-9968-7ce15bdd5405"},"vehicle_type_id":"4","last_reported":1745974362,"current_range_meters":8000,"station_id":"ce4bh3p2rcd13ifvqdq0","pricing_plan_id":"cebpf4jnsgd1na2vs0mg"},{"bike_id":"7497e739-0c50-4aa1-9f39-dfb008e37b83","system_id":"levelo_inurba_marseille","lat":43.3096,"lon":5.37136,"is_reserved":false,"is_disabled":false,"rental_uris":{"android":"levelo://app?vid=7497e739-0c50-4aa1-9f39-dfb008e37b83","ios":"levelo://app?vid=7497e739-0c50-4aa1-9f39-dfb008e37b83"},"vehicle_type_id":"4","last_reported":1745974362,"current_range_meters":8000,"station_id":"","pricing_plan_id":"cebpf4jnsgd1na2vs0mg"},{"bike_id":"d693c143-5944-42c7-b7b1-448d4c6d229b","system_id":"levelo_inurba_marseille","lat":43.312832,"lon":5.401698,"is_reserved":false,"is_disabled":false,"rental_uris":{"android":"levelo://app?vid=d693c143-5944-42c7-b7b1-448d4c6d229b","ios":"levelo://app?vid=d693c143-5944-42c7-b7b1-448d4c6d229b"},"vehicle_type_id":"4","last_reported":1745974362,"current_range_meters":8400,"station_id":"ce4bh092rcd13ifvqd30","pricing_plan_id":"cebpf4jnsgd1na2vs0mg"},{"bike_id":"cdad098b-b6dd-4343-9d39-bb659f53ed4a","system_id":"levelo_inurba_marseille","lat":43.30783,"lon":5.37646,"is_reserved":false,"is_disabled":false,"rental_uris":{"android":"levelo://app?vid=cdad098b-b6dd-4343-9d39-bb659f53ed4a","ios":"levelo://app?vid=cdad098b-b6dd-4343-9d39-bb659f53ed4a"},"vehicle_type_id":"4","last_reported":1745974362,"current_range_meters":8400,"station_id":"ce4bgv92rcd13ifvqcq0","pricing_plan_id":"cebpf4jnsgd1na2vs0mg"},{"bike_id":"6b60bf79-15ce-44ac-ae2b-e41f2863a48b","system_id":"levelo_inurba_marseille","lat":43.3024,"lon":5.40066,"is_reserved":false,"is_disabled":true,"rental_uris":{"android":"levelo://app?vid=6b60bf79-15ce-44ac-ae2b-e41f2863a48b","ios":"levelo://app?vid=6b60bf79-15ce-44ac-ae2b-e41f2863a48b"},"vehicle_type_id":"4","last_reported":1745974362,"current_range_meters":8400,"station_id":"ce4bgvh2rcd13ifvqcs0","pricing_plan_id":"cebpf4jnsgd1na2vs0mg"},{"bike_id":"561b2f84-08e7-4121-bad8-f7a2a19f1511","system_id":"levelo_inurba_marseille","lat":43.280771,"lon":5.396371,"is_reserved":false,"is_disabled":false,"rental_uris":{"android":"levelo://app?vid=561b2f84-08e7-4121-bad8-f7a2a19f1511","ios":"levelo://app?vid=561b2f84-08e7-4121-bad8-f7a2a19f1511"},"vehicle_type_id":"4","last_reported":1745974362,"current_range_meters":8400,"station_id":"ce4bho12rcd13ifvqh2g","pricing_plan_id":"cebpf4jnsgd1na2vs0mg"},{"bike_id":"3c10f98c-2cb9-4204-927c-152300f9b3ce","system_id":"levelo_inurba_marseille","lat":43.3473,"lon":5.35188,"is_reserved":false,"is_disabled":false,"rental_uris":{"android":"levelo://app?vid=3c10f98c-2cb9-4204-927c-152300f9b3ce","ios":"levelo://app?vid=3c10f98c-2cb9-4204-927c-152300f9b3ce"},"vehicle_type_id":"4","last_reported":1745974362,"current_range_meters":8400,"station_id":"","pricing_plan_id":"cebpf4jnsgd1na2vs0mg"},{"bike_id":"5836a6ba-325a-41e2-92c0-3359d340dd3d","system_id":"levelo_inurba_marseille","lat":43.291901,"lon":5.357936,"is_reserved":false,"is_disabled":true,"rental_uris":{"android":"levelo://app?vid=5836a6ba-325a-41e2-92c0-3359d340dd3d","ios":"levelo://app?vid=5836a6ba-325a-41e2-92c0-3359d340dd3d"},"vehicle_type_id":"4","last_reported":1745974362,"current_range_meters":8400,"station_id":"ce4bhb12rcd13ifvqel0","pricing_plan_id":"cebpf4jnsgd1na2vs0mg"},{"bike_id":"4dd2a33a-343e-4b66-94a5-3ff7149ba4e3","system_id":"levelo_inurba_marseille","lat":43.29787,"lon":5.39327,"is_reserved":false,"is_disabled":false,"rental_uris":{"android":"levelo://app?vid=4dd2a33a-343e-4b66-94a5-3ff7149ba4e3","ios":"levelo://app?vid=4dd2a33a-343e-4b66-94a5-3ff7149ba4e3"},"vehicle_type_id":"4","last_reported":1745974362,"current_range_meters":8000,"station_id":"chh1huq6cuj3fo74tm60","pricing_plan_id":"cebpf4jnsgd1na2vs0mg"},{"bike_id":"b96f21bb-69d8-4cbf-b464-f36a8f53d6e0","system_id":"levelo_inurba_marseille","lat":43.26022,"lon":5.41751,"is_reserved":false,"is_disabled":false,"rental_uris":{"android":"levelo://app?vid=b96f21bb-69d8-4cbf-b464-f36a8f53d6e0","ios":"levelo://app?vid=b96f21bb-69d8-4cbf-b464-f36a8f53d6e0"},"vehicle_type_id":"4","last_reported":1745974362,"current_range_meters":8400,"station_id":"","pricing_plan_id":"cebpf4jnsgd1na2vs0mg"},{"bike_id":"3a3adc5f-c46c-4ddb-9f5b-addbfa5853df","system_id":"levelo_inurba_marseille","lat":43.30211,"lon":5.39478,"is_reserved":false,"is_disabled":false,"rental_uris":{"android":"levelo://app?vid=3a3adc5f-c46c-4ddb-9f5b-addbfa5853df","ios":"levelo://app?vid=3a3adc5f-c46c-4ddb-9f5b-addbfa5853df"},"vehicle_type_id":"4","last_reported":1745974362,"current_range_meters":8800,"station_id":"ce4bh0p2rcd13ifvqd70","pricing_plan_id":"cebpf4jnsgd1na2vs0mg"},{"bike_id":"a491bdd7-c56b-4ad9-9f1e-ed090c26045e","system_id":"levelo_inurba_marseille","lat":43.30835,"lon":5.37918,"is_reserved":false,"is_disabled":false,"rental_uris":{"android":"levelo://app?vid=a491bdd7-c56b-4ad9-9f1e-ed090c26045e","ios":"levelo://app?vid=a491bdd7-c56b-4ad9-9f1e-ed090c26045e"},"vehicle_type_id":"4","last_reported":1745974362,"current_range_meters":8800,"station_id":"","pricing_plan_id":"cebpf4jnsgd1na2vs0mg"},{"bike_id":"1862fb6f-61c4-4c09-a828-864ab246ea11","system_id":"levelo_inurba_marseille","lat":43.23534,"lon":5.403244,"is_reserved":false,"is_disabled":false,"rental_uris":{"android":"levelo://app?vid=1862fb6f-61c4-4c09-a828-864ab246ea11","ios":"levelo://app?vid=1862fb6f-61c4-4c09-a828-864ab246ea11"},"vehicle_type_id":"4","last_reported":1745974362,"current_range_meters":8800,"station_id":"","pricing_plan_id":"cebpf4jnsgd1na2vs0mg"},{"bike_id":"950539c0-c2a7-4f10-9505-afe3371972fa","system_id":"levelo_inurba_marseille","lat":43.30652,"lon":5.40047,"is_reserved":false,"is_disabled":false,"rental_uris":{"android":"levelo://app?vid=950539c0-c2a7-4f10-9505-afe3371972fa","ios":"levelo://app?vid=950539c0-c2a7-4f10-9505-afe3371972fa"},"vehicle_type_id":"4","last_reported":1745974362,"current_range_meters":9200,"station_id":"ce4bh112rcd13ifvqda0","pricing_plan_id":"cebpf4jnsgd1na2vs0mg"},{"bike_id":"c7d4ca92-020f-4c6f-815a-ddc6fdf77b1f","system_id":"levelo_inurba_marseille","lat":43.23476,"lon":5.38056,"is_reserved":false,"is_disabled":false,"rental_uris":{"android":"levelo://app?vid=c7d4ca92-020f-4c6f-815a-ddc6fdf77b1f","ios":"levelo://app?vid=c7d4ca92-020f-4c6f-815a-ddc6fdf77b1f"},"vehicle_type_id":"4","last_reported":1745974362,"current_range_meters":9200,"station_id":"","pricing_plan_id":"cebpf4jnsgd1na2vs0mg"},{"bike_id":"a588e75c-95ed-4ca0-b8c7-1d2dead0870f","system_id":"levelo_inurba_marseille","lat":43.274968,"lon":5.42449,"is_reserved":false,"is_disabled":false,"rental_uris":{"android":"levelo://app?vid=a588e75c-95ed-4ca0-b8c7-1d2dead0870f","ios":"levelo://app?vid=a588e75c-95ed-4ca0-b8c7-1d2dead0870f"},"vehicle_type_id":"4","last_reported":1745974362,"current_range_meters":9200,"station_id":"ce4bhn92rcd13ifvqgrg","pricing_plan_id":"cebpf4jnsgd1na2vs0mg"},{"bike_id":"1be6b8de-5ed4-4d8a-9cd6-aeff3b5c0661","system_id":"levelo_inurba_marseille","lat":43.289788,"lon":5.378336,"is_reserved":false,"is_disabled":true,"rental_uris":{"android":"levelo://app?vid=1be6b8de-5ed4-4d8a-9cd6-aeff3b5c0661","ios":"levelo://app?vid=1be6b8de-5ed4-4d8a-9cd6-aeff3b5c0661"},"vehicle_type_id":"4","last_reported":1745974362,"current_range_meters":9600,"station_id":"ce4bh9p2rcd13ifvqed0","pricing_plan_id":"cebpf4jnsgd1na2vs0mg"},{"bike_id":"7744fc4a-a864-4a95-995b-a7a1e63cfe78","system_id":"levelo_inurba_marseille","lat":43.317327,"lon":5.423864,"is_reserved":false,"is_disabled":false,"rental_uris":{"android":"levelo://app?vid=7744fc4a-a864-4a95-995b-a7a1e63cfe78","ios":"levelo://app?vid=7744fc4a-a864-4a95-995b-a7a1e63cfe78"},"vehicle_type_id":"4","last_reported":1745974362,"current_range_meters":9600,"station_id":"ce4bhp92rcd13ifvqhbg","pricing_plan_id":"cebpf4jnsgd1na2vs0mg"},{"bike_id":"001cc922-c08b-48c6-b124-2829e7acef22","system_id":"levelo_inurba_marseille","lat":43.28589,"lon":5.39483,"is_reserved":false,"is_disabled":false,"rental_uris":{"android":"levelo://app?vid=001cc922-c08b-48c6-b124-2829e7acef22","ios":"levelo://app?vid=001cc922-c08b-48c6-b124-2829e7acef22"},"vehicle_type_id":"4","last_reported":1745974362,"current_range_meters":9600,"station_id":"ce4bh292rcd13ifvqdg0","pricing_plan_id":"cebpf4jnsgd1na2vs0mg"},{"bike_id":"1c784351-9820-4386-9392-82ce87397468","system_id":"levelo_inurba_marseille","lat":43.306461,"lon":5.400631,"is_reserved":false,"is_disabled":false,"rental_uris":{"android":"levelo://app?vid=1c784351-9820-4386-9392-82ce87397468","ios":"levelo://app?vid=1c784351-9820-4386-9392-82ce87397468"},"vehicle_type_id":"4","last_reported":1745974362,"current_range_meters":9600,"station_id":"ce4bh112rcd13ifvqda0","pricing_plan_id":"cebpf4jnsgd1na2vs0mg"},{"bike_id":"eb225726-eb05-424f-bbfe-17acb0ca5c72","system_id":"levelo_inurba_marseille","lat":43.3153,"lon":5.38026,"is_reserved":false,"is_disabled":false,"rental_uris":{"android":"levelo://app?vid=eb225726-eb05-424f-bbfe-17acb0ca5c72","ios":"levelo://app?vid=eb225726-eb05-424f-bbfe-17acb0ca5c72"},"vehicle_type_id":"4","last_reported":1745974362,"current_range_meters":9600,"station_id":"ce4bhsp2rcd13ifvqi50","pricing_plan_id":"cebpf4jnsgd1na2vs0mg"},{"bike_id":"0fbda7cd-f00d-4938-8e1e-60366b309981","system_id":"levelo_inurba_marseille","lat":43.2803,"lon":5.36939,"is_reserved":false,"is_disabled":false,"rental_uris":{"android":"levelo://app?vid=0fbda7cd-f00d-4938-8e1e-60366b309981","ios":"levelo://app?vid=0fbda7cd-f00d-4938-8e1e-60366b309981"},"vehicle_type_id":"4","last_reported":1745974362,"current_range_meters":9600,"station_id":"ce4bha12rcd13ifvqef0","pricing_plan_id":"cebpf4jnsgd1na2vs0mg"},{"bike_id":"bcbdece9-18a4-4ced-8494-9c131639e5f6","system_id":"levelo_inurba_marseille","lat":43.26121,"lon":5.4147,"is_reserved":false,"is_disabled":false,"rental_uris":{"android":"levelo://app?vid=bcbdece9-18a4-4ced-8494-9c131639e5f6","ios":"levelo://app?vid=bcbdece9-18a4-4ced-8494-9c131639e5f6"},"vehicle_type_id":"4","last_reported":1745974362,"current_range_meters":9600,"station_id":"","pricing_plan_id":"cebpf4jnsgd1na2vs0mg"},{"bike_id":"d9d65adf-6c62-4fb9-b5a0-e8f6922a2a7d","system_id":"levelo_inurba_marseille","lat":43.28459,"lon":5.35885,"is_reserved":false,"is_disabled":false,"rental_uris":{"android":"levelo://app?vid=d9d65adf-6c62-4fb9-b5a0-e8f6922a2a7d","ios":"levelo://app?vid=d9d65adf-6c62-4fb9-b5a0-e8f6922a2a7d"},"vehicle_type_id":"4","last_reported":1745974362,"current_range_meters":9600,"station_id":"ce4bhah2rcd13ifvqei0","pricing_plan_id":"cebpf4jnsgd1na2vs0mg"},{"bike_id":"c48d791e-48aa-41fb-bd56-d8ab9c9a075d","system_id":"levelo_inurba_marseille","lat":43.28571,"lon":5.39499,"is_reserved":false,"is_disabled":false,"rental_uris":{"android":"levelo://app?vid=c48d791e-48aa-41fb-bd56-d8ab9c9a075d","ios":"levelo://app?vid=c48d791e-48aa-41fb-bd56-d8ab9c9a075d"},"vehicle_type_id":"4","last_reported":1745974362,"current_range_meters":9600,"station_id":"ce4bh292rcd13ifvqdg0","pricing_plan_id":"cebpf4jnsgd1na2vs0mg"},{"bike_id":"b59ce27f-4cb5-4d5d-b008-e4c837d90135","system_id":"levelo_inurba_marseille","lat":43.2466,"lon":5.38154,"is_reserved":false,"is_disabled":false,"rental_uris":{"android":"levelo://app?vid=b59ce27f-4cb5-4d5d-b008-e4c837d90135","ios":"levelo://app?vid=b59ce27f-4cb5-4d5d-b008-e4c837d90135"},"vehicle_type_id":"4","last_reported":1745974362,"current_range_meters":10000,"station_id":"ce4bhih2rcd13ifvqfr0","pricing_plan_id":"cebpf4jnsgd1na2vs0mg"},{"bike_id":"9dd528f1-7987-4620-9e16-782da8c3e457","system_id":"levelo_inurba_marseille","lat":43.265732,"lon":5.390012,"is_reserved":false,"is_disabled":false,"rental_uris":{"android":"levelo://app?vid=9dd528f1-7987-4620-9e16-782da8c3e457","ios":"levelo://app?vid=9dd528f1-7987-4620-9e16-782da8c3e457"},"vehicle_type_id":"4","last_reported":1745974362,"current_range_meters":10000,"station_id":"ce4bhe12rcd13ifvqf30","pricing_plan_id":"cebpf4jnsgd1na2vs0mg"},{"bike_id":"f6afadf8-e6ff-4c7a-8692-5caf68fd0b71","system_id":"levelo_inurba_marseille","lat":43.229217,"lon":5.353866,"is_reserved":false,"is_disabled":true,"rental_uris":{"android":"levelo://app?vid=f6afadf8-e6ff-4c7a-8692-5caf68fd0b71","ios":"levelo://app?vid=f6afadf8-e6ff-4c7a-8692-5caf68fd0b71"},"vehicle_type_id":"4","last_reported":1745974362,"current_range_meters":10000,"station_id":"cpo3532slgdg3j2ikp40","pricing_plan_id":"cebpf4jnsgd1na2vs0mg"},{"bike_id":"48ec7ae3-ab99-4db4-af94-1858a85ee192","system_id":"levelo_inurba_marseille","lat":43.26548,"lon":5.37283,"is_reserved":false,"is_disabled":false,"rental_uris":{"android":"levelo://app?vid=48ec7ae3-ab99-4db4-af94-1858a85ee192","ios":"levelo://app?vid=48ec7ae3-ab99-4db4-af94-1858a85ee192"},"vehicle_type_id":"4","last_reported":1745974362,"current_range_meters":10000,"station_id":"ce4bhg12rcd13ifvqf70","pricing_plan_id":"cebpf4jnsgd1na2vs0mg"},{"bike_id":"de25be97-5d3c-49d5-88bd-4801caa019d2","system_id":"levelo_inurba_marseille","lat":43.30939,"lon":5.40135,"is_reserved":false,"is_disabled":false,"rental_uris":{"android":"levelo://app?vid=de25be97-5d3c-49d5-88bd-4801caa019d2","ios":"levelo://app?vid=de25be97-5d3c-49d5-88bd-4801caa019d2"},"vehicle_type_id":"4","last_reported":1745974362,"current_range_meters":10000,"station_id":"ce4bgvp2rcd13ifvqct0","pricing_plan_id":"cebpf4jnsgd1na2vs0mg"},{"bike_id":"27e2acdd-2add-407a-a835-796f76c27c03","system_id":"levelo_inurba_marseille","lat":43.3212,"lon":5.36817,"is_reserved":false,"is_disabled":false,"rental_uris":{"android":"levelo://app?vid=27e2acdd-2add-407a-a835-796f76c27c03","ios":"levelo://app?vid=27e2acdd-2add-407a-a835-796f76c27c03"},"vehicle_type_id":"4","last_reported":1745974362,"current_range_meters":10000,"station_id":"","pricing_plan_id":"cebpf4jnsgd1na2vs0mg"},{"bike_id":"624ddcaa-e718-4c1d-bf4e-bba3a7650973","system_id":"levelo_inurba_marseille","lat":43.26529,"lon":5.37299,"is_reserved":false,"is_disabled":false,"rental_uris":{"android":"levelo://app?vid=624ddcaa-e718-4c1d-bf4e-bba3a7650973","ios":"levelo://app?vid=624ddcaa-e718-4c1d-bf4e-bba3a7650973"},"vehicle_type_id":"4","last_reported":1745974362,"current_range_meters":10000,"station_id":"ce4bhg12rcd13ifvqf70","pricing_plan_id":"cebpf4jnsgd1na2vs0mg"},{"bike_id":"06b23fcf-d155-46c0-acd2-5b59645454ea","system_id":"levelo_inurba_marseille","lat":43.284732,"lon":5.384293,"is_reserved":false,"is_disabled":true,"rental_uris":{"android":"levelo://app?vid=06b23fcf-d155-46c0-acd2-5b59645454ea","ios":"levelo://app?vid=06b23fcf-d155-46c0-acd2-5b59645454ea"},"vehicle_type_id":"4","last_reported":1745974362,"current_range_meters":10800,"station_id":"ce4bh512rcd13ifvqe3g","pricing_plan_id":"cebpf4jnsgd1na2vs0mg"},{"bike_id":"f7074da7-d5a8-40ff-b087-f6b8e470a6e1","system_id":"levelo_inurba_marseille","lat":43.31532,"lon":5.38025,"is_reserved":false,"is_disabled":false,"rental_uris":{"android":"levelo://app?vid=f7074da7-d5a8-40ff-b087-f6b8e470a6e1","ios":"levelo://app?vid=f7074da7-d5a8-40ff-b087-f6b8e470a6e1"},"vehicle_type_id":"4","last_reported":1745974362,"current_range_meters":10800,"station_id":"ce4bhsp2rcd13ifvqi50","pricing_plan_id":"cebpf4jnsgd1na2vs0mg"},{"bike_id":"77c59250-8359-4942-8c07-a9c82964e824","system_id":"levelo_inurba_marseille","lat":43.28469,"lon":5.35882,"is_reserved":false,"is_disabled":true,"rental_uris":{"android":"levelo://app?vid=77c59250-8359-4942-8c07-a9c82964e824","ios":"levelo://app?vid=77c59250-8359-4942-8c07-a9c82964e824"},"vehicle_type_id":"4","last_reported":1745974362,"current_range_meters":10800,"station_id":"ce4bhah2rcd13ifvqei0","pricing_plan_id":"cebpf4jnsgd1na2vs0mg"},{"bike_id":"9fef158f-32d9-4324-99f3-536a7be998bc","system_id":"levelo_inurba_marseille","lat":43.29263,"lon":5.37612,"is_reserved":false,"is_disabled":false,"rental_uris":{"android":"levelo://app?vid=9fef158f-32d9-4324-99f3-536a7be998bc","ios":"levelo://app?vid=9fef158f-32d9-4324-99f3-536a7be998bc"},"vehicle_type_id":"4","last_reported":1745974362,"current_range_meters":10800,"station_id":"ce4bgi12rcd13ifvqb80","pricing_plan_id":"cebpf4jnsgd1na2vs0mg"},{"bike_id":"6ff32f17-7b9c-463f-a13f-79ee01c6a7e8","system_id":"levelo_inurba_marseille","lat":43.302536,"lon":5.40073,"is_reserved":false,"is_disabled":false,"rental_uris":{"android":"levelo://app?vid=6ff32f17-7b9c-463f-a13f-79ee01c6a7e8","ios":"levelo://app?vid=6ff32f17-7b9c-463f-a13f-79ee01c6a7e8"},"vehicle_type_id":"4","last_reported":1745974362,"current_range_meters":10800,"station_id":"ce4bgvh2rcd13ifvqcs0","pricing_plan_id":"cebpf4jnsgd1na2vs0mg"},{"bike_id":"a015aa72-4883-446b-a9a9-e16d84a5a524","system_id":"levelo_inurba_marseille","lat":43.308762,"lon":5.396431,"is_reserved":false,"is_disabled":false,"rental_uris":{"android":"levelo://app?vid=a015aa72-4883-446b-a9a9-e16d84a5a524","ios":"levelo://app?vid=a015aa72-4883-446b-a9a9-e16d84a5a524"},"vehicle_type_id":"4","last_reported":1745974362,"current_range_meters":10800,"station_id":"ce4bh012rcd13ifvqcv0","pricing_plan_id":"cebpf4jnsgd1na2vs0mg"},{"bike_id":"421fd581-29e4-4138-8283-024d2e5349f4","system_id":"levelo_inurba_marseille","lat":43.31998,"lon":5.38112,"is_reserved":false,"is_disabled":false,"rental_uris":{"android":"levelo://app?vid=421fd581-29e4-4138-8283-024d2e5349f4","ios":"levelo://app?vid=421fd581-29e4-4138-8283-024d2e5349f4"},"vehicle_type_id":"4","last_reported":1745974362,"current_range_meters":10800,"station_id":"ce4bhr12rcd13ifvqhpg","pricing_plan_id":"cebpf4jnsgd1na2vs0mg"},{"bike_id":"1c6e2801-d406-4688-a913-a775da6b0f13","system_id":"levelo_inurba_marseille","lat":43.22932,"lon":5.35362,"is_reserved":false,"is_disabled":false,"rental_uris":{"android":"levelo://app?vid=1c6e2801-d406-4688-a913-a775da6b0f13","ios":"levelo://app?vid=1c6e2801-d406-4688-a913-a775da6b0f13"},"vehicle_type_id":"4","last_reported":1745974362,"current_range_meters":10800,"station_id":"cpo3532slgdg3j2ikp40","pricing_plan_id":"cebpf4jnsgd1na2vs0mg"},{"bike_id":"489415b8-9254-45c1-b00c-e7554d56755c","system_id":"levelo_inurba_marseille","lat":43.245288,"lon":5.412136,"is_reserved":false,"is_disabled":false,"rental_uris":{"android":"levelo://app?vid=489415b8-9254-45c1-b00c-e7554d56755c","ios":"levelo://app?vid=489415b8-9254-45c1-b00c-e7554d56755c"},"vehicle_type_id":"4","last_reported":1745974362,"current_range_meters":11200,"station_id":"","pricing_plan_id":"cebpf4jnsgd1na2vs0mg"},{"bike_id":"f88de0bc-ad64-4be6-9d54-5b042e02a634","system_id":"levelo_inurba_marseille","lat":43.25117,"lon":5.40315,"is_reserved":false,"is_disabled":false,"rental_uris":{"android":"levelo://app?vid=f88de0bc-ad64-4be6-9d54-5b042e02a634","ios":"levelo://app?vid=f88de0bc-ad64-4be6-9d54-5b042e02a634"},"vehicle_type_id":"4","last_reported":1745974362,"current_range_meters":11200,"station_id":"ce4bhlh2rcd13ifvqgig","pricing_plan_id":"cebpf4jnsgd1na2vs0mg"},{"bike_id":"312629db-7553-4f57-8655-a25196d01b88","system_id":"levelo_inurba_marseille","lat":43.30369,"lon":5.42484,"is_reserved":false,"is_disabled":false,"rental_uris":{"android":"levelo://app?vid=312629db-7553-4f57-8655-a25196d01b88","ios":"levelo://app?vid=312629db-7553-4f57-8655-a25196d01b88"},"vehicle_type_id":"4","last_reported":1745974362,"current_range_meters":11200,"station_id":"ce4bhoh2rcd13ifvqh6g","pricing_plan_id":"cebpf4jnsgd1na2vs0mg"},{"bike_id":"07edfd45-c3fa-4b57-b865-cf1bf9963264","system_id":"levelo_inurba_marseille","lat":43.23402,"lon":5.36422,"is_reserved":false,"is_disabled":false,"rental_uris":{"android":"levelo://app?vid=07edfd45-c3fa-4b57-b865-cf1bf9963264","ios":"levelo://app?vid=07edfd45-c3fa-4b57-b865-cf1bf9963264"},"vehicle_type_id":"4","last_reported":1745974362,"current_range_meters":11200,"station_id":"","pricing_plan_id":"cebpf4jnsgd1na2vs0mg"},{"bike_id":"071a671b-fb53-468b-ba8f-96ef79b57233","system_id":"levelo_inurba_marseille","lat":43.32351,"lon":5.36748,"is_reserved":false,"is_disabled":false,"rental_uris":{"android":"levelo://app?vid=071a671b-fb53-468b-ba8f-96ef79b57233","ios":"levelo://app?vid=071a671b-fb53-468b-ba8f-96ef79b57233"},"vehicle_type_id":"4","last_reported":1745974362,"current_range_meters":11200,"station_id":"ce4bhsh2rcd13ifvqi2g","pricing_plan_id":"cebpf4jnsgd1na2vs0mg"},{"bike_id":"8677ec73-cb78-43f6-8771-8f65730b3bed","system_id":"levelo_inurba_marseille","lat":43.31071,"lon":5.38354,"is_reserved":false,"is_disabled":false,"rental_uris":{"android":"levelo://app?vid=8677ec73-cb78-43f6-8771-8f65730b3bed","ios":"levelo://app?vid=8677ec73-cb78-43f6-8771-8f65730b3bed"},"vehicle_type_id":"4","last_reported":1745974362,"current_range_meters":11600,"station_id":"ce4bgv92rcd13ifvqcr0","pricing_plan_id":"cebpf4jnsgd1na2vs0mg"},{"bike_id":"ddf42e2f-5ba3-456f-b6b9-71a4fb220f7c","system_id":"levelo_inurba_marseille","lat":43.21747,"lon":5.34592,"is_reserved":false,"is_disabled":false,"rental_uris":{"android":"levelo://app?vid=ddf42e2f-5ba3-456f-b6b9-71a4fb220f7c","ios":"levelo://app?vid=ddf42e2f-5ba3-456f-b6b9-71a4fb220f7c"},"vehicle_type_id":"4","last_reported":1745974362,"current_range_meters":11600,"station_id":"st_cvj6r9ubvosntc0bgbag","pricing_plan_id":"cebpf4jnsgd1na2vs0mg"},{"bike_id":"3da4f807-a9a7-4e80-80cc-47afecae7882","system_id":"levelo_inurba_marseille","lat":43.280095,"lon":5.399964,"is_reserved":false,"is_disabled":false,"rental_uris":{"android":"levelo://app?vid=3da4f807-a9a7-4e80-80cc-47afecae7882","ios":"levelo://app?vid=3da4f807-a9a7-4e80-80cc-47afecae7882"},"vehicle_type_id":"4","last_reported":1745974362,"current_range_meters":11600,"station_id":"ce4bho92rcd13ifvqh4g","pricing_plan_id":"cebpf4jnsgd1na2vs0mg"},{"bike_id":"3a9bd96a-1d84-454e-b55b-a4ef583e3749","system_id":"levelo_inurba_marseille","lat":43.26704,"lon":5.38291,"is_reserved":false,"is_disabled":true,"rental_uris":{"android":"levelo://app?vid=3a9bd96a-1d84-454e-b55b-a4ef583e3749","ios":"levelo://app?vid=3a9bd96a-1d84-454e-b55b-a4ef583e3749"},"vehicle_type_id":"4","last_reported":1745974362,"current_range_meters":11600,"station_id":"ce4bhg92rcd13ifvqf90","pricing_plan_id":"cebpf4jnsgd1na2vs0mg"},{"bike_id":"9a56b234-08a9-44e3-96d8-08ff7eada60d","system_id":"levelo_inurba_marseille","lat":43.28703,"lon":5.37393,"is_reserved":false,"is_disabled":false,"rental_uris":{"android":"levelo://app?vid=9a56b234-08a9-44e3-96d8-08ff7eada60d","ios":"levelo://app?vid=9a56b234-08a9-44e3-96d8-08ff7eada60d"},"vehicle_type_id":"4","last_reported":1745974362,"current_range_meters":11600,"station_id":"ce4bh3p2rcd13ifvqdq0","pricing_plan_id":"cebpf4jnsgd1na2vs0mg"},{"bike_id":"28a604ef-98c1-4aff-ab31-a10d3a8eae96","system_id":"levelo_inurba_marseille","lat":43.29558,"lon":5.37488,"is_reserved":false,"is_disabled":true,"rental_uris":{"android":"levelo://app?vid=28a604ef-98c1-4aff-ab31-a10d3a8eae96","ios":"levelo://app?vid=28a604ef-98c1-4aff-ab31-a10d3a8eae96"},"vehicle_type_id":"4","last_reported":1745974362,"current_range_meters":11600,"station_id":"ce4bgh92rcd13ifvqb50","pricing_plan_id":"cebpf4jnsgd1na2vs0mg"},{"bike_id":"9ecf076f-7bd8-490a-8c5a-c7a759e90882","system_id":"levelo_inurba_marseille","lat":43.28448,"lon":5.35891,"is_reserved":false,"is_disabled":false,"rental_uris":{"android":"levelo://app?vid=9ecf076f-7bd8-490a-8c5a-c7a759e90882","ios":"levelo://app?vid=9ecf076f-7bd8-490a-8c5a-c7a759e90882"},"vehicle_type_id":"4","last_reported":1745974362,"current_range_meters":12000,"station_id":"ce4bhah2rcd13ifvqei0","pricing_plan_id":"cebpf4jnsgd1na2vs0mg"},{"bike_id":"40cd9c09-5d6c-4b2c-a5ec-3d25d8f86287","system_id":"levelo_inurba_marseille","lat":43.25085,"lon":5.39534,"is_reserved":false,"is_disabled":false,"rental_uris":{"android":"levelo://app?vid=40cd9c09-5d6c-4b2c-a5ec-3d25d8f86287","ios":"levelo://app?vid=40cd9c09-5d6c-4b2c-a5ec-3d25d8f86287"},"vehicle_type_id":"4","last_reported":1745974362,"current_range_meters":12000,"station_id":"ce4bhm12rcd13ifvqgkg","pricing_plan_id":"cebpf4jnsgd1na2vs0mg"},{"bike_id":"3ae641eb-772b-47f4-9c6f-a55115e8b3d3","system_id":"levelo_inurba_marseille","lat":43.29199,"lon":5.35785,"is_reserved":false,"is_disabled":true,"rental_uris":{"android":"levelo://app?vid=3ae641eb-772b-47f4-9c6f-a55115e8b3d3","ios":"levelo://app?vid=3ae641eb-772b-47f4-9c6f-a55115e8b3d3"},"vehicle_type_id":"4","last_reported":1745974362,"current_range_meters":12000,"station_id":"ce4bhb12rcd13ifvqel0","pricing_plan_id":"cebpf4jnsgd1na2vs0mg"},{"bike_id":"ba87e27a-034d-4670-93b9-80a26afd753f","system_id":"levelo_inurba_marseille","lat":43.29256,"lon":5.40916,"is_reserved":false,"is_disabled":false,"rental_uris":{"android":"levelo://app?vid=ba87e27a-034d-4670-93b9-80a26afd753f","ios":"levelo://app?vid=ba87e27a-034d-4670-93b9-80a26afd753f"},"vehicle_type_id":"4","last_reported":1745974362,"current_range_meters":12000,"station_id":"ce4bh192rcd13ifvqdc0","pricing_plan_id":"cebpf4jnsgd1na2vs0mg"},{"bike_id":"fe0c4d1a-9874-47df-b868-a5e70081d8ce","system_id":"levelo_inurba_marseille","lat":43.22939,"lon":5.35382,"is_reserved":false,"is_disabled":false,"rental_uris":{"android":"levelo://app?vid=fe0c4d1a-9874-47df-b868-a5e70081d8ce","ios":"levelo://app?vid=fe0c4d1a-9874-47df-b868-a5e70081d8ce"},"vehicle_type_id":"4","last_reported":1745974362,"current_range_meters":12000,"station_id":"cpo3532slgdg3j2ikp40","pricing_plan_id":"cebpf4jnsgd1na2vs0mg"},{"bike_id":"197839f2-0234-459c-be6d-43045265e278","system_id":"levelo_inurba_marseille","lat":43.306367,"lon":5.400658,"is_reserved":false,"is_disabled":false,"rental_uris":{"android":"levelo://app?vid=197839f2-0234-459c-be6d-43045265e278","ios":"levelo://app?vid=197839f2-0234-459c-be6d-43045265e278"},"vehicle_type_id":"4","last_reported":1745974362,"current_range_meters":12400,"station_id":"ce4bh112rcd13ifvqda0","pricing_plan_id":"cebpf4jnsgd1na2vs0mg"},{"bike_id":"07a6b65e-5383-4334-babe-4808d811c7e7","system_id":"levelo_inurba_marseille","lat":43.287,"lon":5.37391,"is_reserved":false,"is_disabled":false,"rental_uris":{"android":"levelo://app?vid=07a6b65e-5383-4334-babe-4808d811c7e7","ios":"levelo://app?vid=07a6b65e-5383-4334-babe-4808d811c7e7"},"vehicle_type_id":"4","last_reported":1745974362,"current_range_meters":12400,"station_id":"ce4bh3p2rcd13ifvqdq0","pricing_plan_id":"cebpf4jnsgd1na2vs0mg"},{"bike_id":"a94ff71c-9912-435c-847f-91e652907443","system_id":"levelo_inurba_marseille","lat":43.31076,"lon":5.38343,"is_reserved":false,"is_disabled":false,"rental_uris":{"android":"levelo://app?vid=a94ff71c-9912-435c-847f-91e652907443","ios":"levelo://app?vid=a94ff71c-9912-435c-847f-91e652907443"},"vehicle_type_id":"4","last_reported":1745974362,"current_range_meters":12400,"station_id":"ce4bgv92rcd13ifvqcr0","pricing_plan_id":"cebpf4jnsgd1na2vs0mg"},{"bike_id":"2bb0f5c4-ac25-4582-ae12-024a3a7b1ca5","system_id":"levelo_inurba_marseille","lat":43.28578,"lon":5.39485,"is_reserved":false,"is_disabled":false,"rental_uris":{"android":"levelo://app?vid=2bb0f5c4-ac25-4582-ae12-024a3a7b1ca5","ios":"levelo://app?vid=2bb0f5c4-ac25-4582-ae12-024a3a7b1ca5"},"vehicle_type_id":"4","last_reported":1745974362,"current_range_meters":12800,"station_id":"ce4bh292rcd13ifvqdg0","pricing_plan_id":"cebpf4jnsgd1na2vs0mg"},{"bike_id":"e499c783-5049-497f-8249-c1d53c1aa298","system_id":"levelo_inurba_marseille","lat":43.310737,"lon":5.383543,"is_reserved":false,"is_disabled":false,"rental_uris":{"android":"levelo://app?vid=e499c783-5049-497f-8249-c1d53c1aa298","ios":"levelo://app?vid=e499c783-5049-497f-8249-c1d53c1aa298"},"vehicle_type_id":"4","last_reported":1745974362,"current_range_meters":12800,"station_id":"ce4bgv92rcd13ifvqcr0","pricing_plan_id":"cebpf4jnsgd1na2vs0mg"},{"bike_id":"ac80e985-cfdf-4940-bf6d-bf2ebe2c2fd0","system_id":"levelo_inurba_marseille","lat":43.32071,"lon":5.36799,"is_reserved":false,"is_disabled":false,"rental_uris":{"android":"levelo://app?vid=ac80e985-cfdf-4940-bf6d-bf2ebe2c2fd0","ios":"levelo://app?vid=ac80e985-cfdf-4940-bf6d-bf2ebe2c2fd0"},"vehicle_type_id":"4","last_reported":1745974362,"current_range_meters":12800,"station_id":"ce4bhrh2rcd13ifvqhug","pricing_plan_id":"cebpf4jnsgd1na2vs0mg"},{"bike_id":"9c68c416-b63e-4646-876b-a6ce563ad522","system_id":"levelo_inurba_marseille","lat":43.30936,"lon":5.4014,"is_reserved":false,"is_disabled":false,"rental_uris":{"android":"levelo://app?vid=9c68c416-b63e-4646-876b-a6ce563ad522","ios":"levelo://app?vid=9c68c416-b63e-4646-876b-a6ce563ad522"},"vehicle_type_id":"4","last_reported":1745974362,"current_range_meters":12800,"station_id":"ce4bgvp2rcd13ifvqct0","pricing_plan_id":"cebpf4jnsgd1na2vs0mg"},{"bike_id":"1755c642-ddc3-4341-9f7b-ddbc093f05bf","system_id":"levelo_inurba_marseille","lat":43.30896,"lon":5.39644,"is_reserved":false,"is_disabled":false,"rental_uris":{"android":"levelo://app?vid=1755c642-ddc3-4341-9f7b-ddbc093f05bf","ios":"levelo://app?vid=1755c642-ddc3-4341-9f7b-ddbc093f05bf"},"vehicle_type_id":"4","last_reported":1745974362,"current_range_meters":12400,"station_id":"ce4bh012rcd13ifvqcv0","pricing_plan_id":"cebpf4jnsgd1na2vs0mg"},{"bike_id":"40a81f13-fb08-4154-bb4d-32834fddeadc","system_id":"levelo_inurba_marseille","lat":43.30124,"lon":5.37423,"is_reserved":false,"is_disabled":false,"rental_uris":{"android":"levelo://app?vid=40a81f13-fb08-4154-bb4d-32834fddeadc","ios":"levelo://app?vid=40a81f13-fb08-4154-bb4d-32834fddeadc"},"vehicle_type_id":"4","last_reported":1745974362,"current_range_meters":12800,"station_id":"ce4bgs92rcd13ifvqcc0","pricing_plan_id":"cebpf4jnsgd1na2vs0mg"},{"bike_id":"4e6db395-d222-475d-869a-c9c1300e7589","system_id":"levelo_inurba_marseille","lat":43.292545,"lon":5.408985,"is_reserved":false,"is_disabled":false,"rental_uris":{"android":"levelo://app?vid=4e6db395-d222-475d-869a-c9c1300e7589","ios":"levelo://app?vid=4e6db395-d222-475d-869a-c9c1300e7589"},"vehicle_type_id":"4","last_reported":1745974362,"current_range_meters":12800,"station_id":"ce4bh192rcd13ifvqdc0","pricing_plan_id":"cebpf4jnsgd1na2vs0mg"},{"bike_id":"6d1c5eaf-041b-4e46-be6f-e55c97ecb5cb","system_id":"levelo_inurba_marseille","lat":43.32003,"lon":5.38155,"is_reserved":false,"is_disabled":false,"rental_uris":{"android":"levelo://app?vid=6d1c5eaf-041b-4e46-be6f-e55c97ecb5cb","ios":"levelo://app?vid=6d1c5eaf-041b-4e46-be6f-e55c97ecb5cb"},"vehicle_type_id":"4","last_reported":1745974362,"current_range_meters":12800,"station_id":"ce4bhr12rcd13ifvqhpg","pricing_plan_id":"cebpf4jnsgd1na2vs0mg"},{"bike_id":"03ea244f-292f-4096-8468-3637ad73304b","system_id":"levelo_inurba_marseille","lat":43.290033,"lon":5.356314,"is_reserved":false,"is_disabled":false,"rental_uris":{"android":"levelo://app?vid=03ea244f-292f-4096-8468-3637ad73304b","ios":"levelo://app?vid=03ea244f-292f-4096-8468-3637ad73304b"},"vehicle_type_id":"4","last_reported":1745974362,"current_range_meters":12800,"station_id":"","pricing_plan_id":"cebpf4jnsgd1na2vs0mg"},{"bike_id":"d50cb595-81a6-406b-90c1-e39a8ffa9f99","system_id":"levelo_inurba_marseille","lat":43.241,"lon":5.3972,"is_reserved":false,"is_disabled":false,"rental_uris":{"android":"levelo://app?vid=d50cb595-81a6-406b-90c1-e39a8ffa9f99","ios":"levelo://app?vid=d50cb595-81a6-406b-90c1-e39a8ffa9f99"},"vehicle_type_id":"4","last_reported":1745974362,"current_range_meters":12800,"station_id":"ce4bhn12rcd13ifvqgpg","pricing_plan_id":"cebpf4jnsgd1na2vs0mg"},{"bike_id":"67946696-e1b4-48e1-9aea-70b477d4f50c","system_id":"levelo_inurba_marseille","lat":43.3066,"lon":5.40085,"is_reserved":false,"is_disabled":false,"rental_uris":{"android":"levelo://app?vid=67946696-e1b4-48e1-9aea-70b477d4f50c","ios":"levelo://app?vid=67946696-e1b4-48e1-9aea-70b477d4f50c"},"vehicle_type_id":"4","last_reported":1745974362,"current_range_meters":13600,"station_id":"ce4bh112rcd13ifvqda0","pricing_plan_id":"cebpf4jnsgd1na2vs0mg"},{"bike_id":"dcb0b990-89f9-495c-a9c1-10b17ae39667","system_id":"levelo_inurba_marseille","lat":43.234766,"lon":5.380395,"is_reserved":false,"is_disabled":false,"rental_uris":{"android":"levelo://app?vid=dcb0b990-89f9-495c-a9c1-10b17ae39667","ios":"levelo://app?vid=dcb0b990-89f9-495c-a9c1-10b17ae39667"},"vehicle_type_id":"4","last_reported":1745974362,"current_range_meters":13600,"station_id":"","pricing_plan_id":"cebpf4jnsgd1na2vs0mg"},{"bike_id":"697ced8a-2a05-4cd9-8153-69869351863a","system_id":"levelo_inurba_marseille","lat":43.29199,"lon":5.39327,"is_reserved":false,"is_disabled":false,"rental_uris":{"android":"levelo://app?vid=697ced8a-2a05-4cd9-8153-69869351863a","ios":"levelo://app?vid=697ced8a-2a05-4cd9-8153-69869351863a"},"vehicle_type_id":"4","last_reported":1745974362,"current_range_meters":13600,"station_id":"ce4bh192rcd13ifvqdd0","pricing_plan_id":"cebpf4jnsgd1na2vs0mg"},{"bike_id":"6f2a21fc-3600-4bf9-bb99-2b0dced460c4","system_id":"levelo_inurba_marseille","lat":43.31325,"lon":5.39701,"is_reserved":false,"is_disabled":false,"rental_uris":{"android":"levelo://app?vid=6f2a21fc-3600-4bf9-bb99-2b0dced460c4","ios":"levelo://app?vid=6f2a21fc-3600-4bf9-bb99-2b0dced460c4"},"vehicle_type_id":"4","last_reported":1745974362,"current_range_meters":13600,"station_id":"ce4bgvp2rcd13ifvqcu0","pricing_plan_id":"cebpf4jnsgd1na2vs0mg"},{"bike_id":"151b0301-dcdb-49f4-8a86-3a559c1d86a0","system_id":"levelo_inurba_marseille","lat":43.28721,"lon":5.36069,"is_reserved":false,"is_disabled":false,"rental_uris":{"android":"levelo://app?vid=151b0301-dcdb-49f4-8a86-3a559c1d86a0","ios":"levelo://app?vid=151b0301-dcdb-49f4-8a86-3a559c1d86a0"},"vehicle_type_id":"4","last_reported":1745974362,"current_range_meters":14000,"station_id":"cki0cbj6b192h4jlfktg","pricing_plan_id":"cebpf4jnsgd1na2vs0mg"},{"bike_id":"69dd1e9e-ed56-49df-8341-c0a3bbb97a00","system_id":"levelo_inurba_marseille","lat":43.304387,"lon":5.388878,"is_reserved":false,"is_disabled":false,"rental_uris":{"android":"levelo://app?vid=69dd1e9e-ed56-49df-8341-c0a3bbb97a00","ios":"levelo://app?vid=69dd1e9e-ed56-49df-8341-c0a3bbb97a00"},"vehicle_type_id":"4","last_reported":1745974362,"current_range_meters":14000,"station_id":"ce4bgk12rcd13ifvqbi0","pricing_plan_id":"cebpf4jnsgd1na2vs0mg"},{"bike_id":"07fd015a-c321-4747-988e-5a04d55d2eb2","system_id":"levelo_inurba_marseille","lat":43.29283,"lon":5.4012,"is_reserved":false,"is_disabled":false,"rental_uris":{"android":"levelo://app?vid=07fd015a-c321-4747-988e-5a04d55d2eb2","ios":"levelo://app?vid=07fd015a-c321-4747-988e-5a04d55d2eb2"},"vehicle_type_id":"4","last_reported":1745974362,"current_range_meters":14000,"station_id":"ce4bh312rcd13ifvqdk0","pricing_plan_id":"cebpf4jnsgd1na2vs0mg"},{"bike_id":"4d4778ed-b855-40e3-aed9-6ce2157d0719","system_id":"levelo_inurba_marseille","lat":43.31317,"lon":5.39711,"is_reserved":false,"is_disabled":false,"rental_uris":{"android":"levelo://app?vid=4d4778ed-b855-40e3-aed9-6ce2157d0719","ios":"levelo://app?vid=4d4778ed-b855-40e3-aed9-6ce2157d0719"},"vehicle_type_id":"4","last_reported":1745974362,"current_range_meters":14000,"station_id":"ce4bgvp2rcd13ifvqcu0","pricing_plan_id":"cebpf4jnsgd1na2vs0mg"},{"bike_id":"19bc52c3-74db-454f-9839-b056878a7608","system_id":"levelo_inurba_marseille","lat":43.26704,"lon":5.38275,"is_reserved":false,"is_disabled":true,"rental_uris":{"android":"levelo://app?vid=19bc52c3-74db-454f-9839-b056878a7608","ios":"levelo://app?vid=19bc52c3-74db-454f-9839-b056878a7608"},"vehicle_type_id":"4","last_reported":1745974362,"current_range_meters":14400,"station_id":"ce4bhg92rcd13ifvqf90","pricing_plan_id":"cebpf4jnsgd1na2vs0mg"},{"bike_id":"ca1a2afa-9d8f-4580-a161-b7b44fbb34f4","system_id":"levelo_inurba_marseille","lat":43.281614,"lon":5.425696,"is_reserved":false,"is_disabled":false,"rental_uris":{"android":"levelo://app?vid=ca1a2afa-9d8f-4580-a161-b7b44fbb34f4","ios":"levelo://app?vid=ca1a2afa-9d8f-4580-a161-b7b44fbb34f4"},"vehicle_type_id":"4","last_reported":1745974362,"current_range_meters":14400,"station_id":"","pricing_plan_id":"cebpf4jnsgd1na2vs0mg"},{"bike_id":"b5a2cf2e-6d0d-4e35-831e-3fc08bfe9a8e","system_id":"levelo_inurba_marseille","lat":43.30889,"lon":5.39612,"is_reserved":false,"is_disabled":false,"rental_uris":{"android":"levelo://app?vid=b5a2cf2e-6d0d-4e35-831e-3fc08bfe9a8e","ios":"levelo://app?vid=b5a2cf2e-6d0d-4e35-831e-3fc08bfe9a8e"},"vehicle_type_id":"4","last_reported":1745974362,"current_range_meters":14400,"station_id":"ce4bh012rcd13ifvqcv0","pricing_plan_id":"cebpf4jnsgd1na2vs0mg"},{"bike_id":"1db9ca2a-10b1-4b9e-aa56-164f2c2ac111","system_id":"levelo_inurba_marseille","lat":43.283747,"lon":5.418501,"is_reserved":false,"is_disabled":false,"rental_uris":{"android":"levelo://app?vid=1db9ca2a-10b1-4b9e-aa56-164f2c2ac111","ios":"levelo://app?vid=1db9ca2a-10b1-4b9e-aa56-164f2c2ac111"},"vehicle_type_id":"4","last_reported":1745974362,"current_range_meters":14400,"station_id":"","pricing_plan_id":"cebpf4jnsgd1na2vs0mg"},{"bike_id":"8c2764fc-bc1c-48fc-a755-ccde3ff80a42","system_id":"levelo_inurba_marseille","lat":43.303202,"lon":5.404423,"is_reserved":false,"is_disabled":false,"rental_uris":{"android":"levelo://app?vid=8c2764fc-bc1c-48fc-a755-ccde3ff80a42","ios":"levelo://app?vid=8c2764fc-bc1c-48fc-a755-ccde3ff80a42"},"vehicle_type_id":"4","last_reported":1745974362,"current_range_meters":15200,"station_id":"ce4bh012rcd13ifvqd10","pricing_plan_id":"cebpf4jnsgd1na2vs0mg"},{"bike_id":"0946df0c-8b25-4d89-8f93-affc2e1828f1","system_id":"levelo_inurba_marseille","lat":43.30155,"lon":5.39872,"is_reserved":false,"is_disabled":false,"rental_uris":{"android":"levelo://app?vid=0946df0c-8b25-4d89-8f93-affc2e1828f1","ios":"levelo://app?vid=0946df0c-8b25-4d89-8f93-affc2e1828f1"},"vehicle_type_id":"4","last_reported":1745974362,"current_range_meters":15200,"station_id":"ce4bh0h2rcd13ifvqd40","pricing_plan_id":"cebpf4jnsgd1na2vs0mg"},{"bike_id":"760b60e9-75ef-4049-b9d3-91877d77a86e","system_id":"levelo_inurba_marseille","lat":43.31534,"lon":5.38024,"is_reserved":false,"is_disabled":false,"rental_uris":{"android":"levelo://app?vid=760b60e9-75ef-4049-b9d3-91877d77a86e","ios":"levelo://app?vid=760b60e9-75ef-4049-b9d3-91877d77a86e"},"vehicle_type_id":"4","last_reported":1745974362,"current_range_meters":15200,"station_id":"ce4bhsp2rcd13ifvqi50","pricing_plan_id":"cebpf4jnsgd1na2vs0mg"},{"bike_id":"8e5e2c19-ba36-4f14-9873-ad98967d7a5b","system_id":"levelo_inurba_marseille","lat":43.32488,"lon":5.36573,"is_reserved":false,"is_disabled":true,"rental_uris":{"android":"levelo://app?vid=8e5e2c19-ba36-4f14-9873-ad98967d7a5b","ios":"levelo://app?vid=8e5e2c19-ba36-4f14-9873-ad98967d7a5b"},"vehicle_type_id":"4","last_reported":1745974362,"current_range_meters":15200,"station_id":"ce4bhs12rcd13ifvqhvg","pricing_plan_id":"cebpf4jnsgd1na2vs0mg"},{"bike_id":"e5e92a64-e709-4b1a-a9b1-cbffe85789ca","system_id":"levelo_inurba_marseille","lat":43.25514,"lon":5.38155,"is_reserved":false,"is_disabled":false,"rental_uris":{"android":"levelo://app?vid=e5e92a64-e709-4b1a-a9b1-cbffe85789ca","ios":"levelo://app?vid=e5e92a64-e709-4b1a-a9b1-cbffe85789ca"},"vehicle_type_id":"4","last_reported":1745974362,"current_range_meters":15200,"station_id":"","pricing_plan_id":"cebpf4jnsgd1na2vs0mg"},{"bike_id":"e5450ef0-988d-4840-bb98-9127164e687d","system_id":"levelo_inurba_marseille","lat":43.3053,"lon":5.38434,"is_reserved":false,"is_disabled":false,"rental_uris":{"android":"levelo://app?vid=e5450ef0-988d-4840-bb98-9127164e687d","ios":"levelo://app?vid=e5450ef0-988d-4840-bb98-9127164e687d"},"vehicle_type_id":"4","last_reported":1745974362,"current_range_meters":15200,"station_id":"ce4bgg92rcd13ifvqb30","pricing_plan_id":"cebpf4jnsgd1na2vs0mg"},{"bike_id":"2610bbd4-d8af-4bf9-a01b-5ebfbcbdde4b","system_id":"levelo_inurba_marseille","lat":43.31075,"lon":5.38339,"is_reserved":false,"is_disabled":false,"rental_uris":{"android":"levelo://app?vid=2610bbd4-d8af-4bf9-a01b-5ebfbcbdde4b","ios":"levelo://app?vid=2610bbd4-d8af-4bf9-a01b-5ebfbcbdde4b"},"vehicle_type_id":"4","last_reported":1745974362,"current_range_meters":16000,"station_id":"ce4bgv92rcd13ifvqcr0","pricing_plan_id":"cebpf4jnsgd1na2vs0mg"},{"bike_id":"fb0daf1a-cefa-40b9-a6f4-b2612f0cf23f","system_id":"levelo_inurba_marseille","lat":43.26233,"lon":5.40458,"is_reserved":false,"is_disabled":false,"rental_uris":{"android":"levelo://app?vid=fb0daf1a-cefa-40b9-a6f4-b2612f0cf23f","ios":"levelo://app?vid=fb0daf1a-cefa-40b9-a6f4-b2612f0cf23f"},"vehicle_type_id":"4","last_reported":1745974362,"current_range_meters":16000,"station_id":"ce4bhmh2rcd13ifvqgmg","pricing_plan_id":"cebpf4jnsgd1na2vs0mg"},{"bike_id":"2770f79b-8ec1-4e42-b212-9c086495ad9f","system_id":"levelo_inurba_marseille","lat":43.3133,"lon":5.39703,"is_reserved":false,"is_disabled":false,"rental_uris":{"android":"levelo://app?vid=2770f79b-8ec1-4e42-b212-9c086495ad9f","ios":"levelo://app?vid=2770f79b-8ec1-4e42-b212-9c086495ad9f"},"vehicle_type_id":"4","last_reported":1745974362,"current_range_meters":16000,"station_id":"ce4bgvp2rcd13ifvqcu0","pricing_plan_id":"cebpf4jnsgd1na2vs0mg"},{"bike_id":"533196cf-3fc3-41c8-bcd7-c601b53373ae","system_id":"levelo_inurba_marseille","lat":43.2768,"lon":5.3888,"is_reserved":false,"is_disabled":false,"rental_uris":{"android":"levelo://app?vid=533196cf-3fc3-41c8-bcd7-c601b53373ae","ios":"levelo://app?vid=533196cf-3fc3-41c8-bcd7-c601b53373ae"},"vehicle_type_id":"4","last_reported":1745974362,"current_range_meters":16000,"station_id":"ce4bhi12rcd13ifvqfo0","pricing_plan_id":"cebpf4jnsgd1na2vs0mg"},{"bike_id":"a083dd87-c68e-4ae0-b50d-cafd8e4610b9","system_id":"levelo_inurba_marseille","lat":43.30932,"lon":5.4013,"is_reserved":false,"is_disabled":false,"rental_uris":{"android":"levelo://app?vid=a083dd87-c68e-4ae0-b50d-cafd8e4610b9","ios":"levelo://app?vid=a083dd87-c68e-4ae0-b50d-cafd8e4610b9"},"vehicle_type_id":"4","last_reported":1745974362,"current_range_meters":16000,"station_id":"ce4bgvp2rcd13ifvqct0","pricing_plan_id":"cebpf4jnsgd1na2vs0mg"},{"bike_id":"4a887373-4acb-4f1e-adbe-6517211605ca","system_id":"levelo_inurba_marseille","lat":43.31111,"lon":5.37765,"is_reserved":false,"is_disabled":false,"rental_uris":{"android":"levelo://app?vid=4a887373-4acb-4f1e-adbe-6517211605ca","ios":"levelo://app?vid=4a887373-4acb-4f1e-adbe-6517211605ca"},"vehicle_type_id":"4","last_reported":1745974362,"current_range_meters":16400,"station_id":"ce4bgt92rcd13ifvqcg0","pricing_plan_id":"cebpf4jnsgd1na2vs0mg"},{"bike_id":"3833777e-6403-47e3-80a4-642aa08be182","system_id":"levelo_inurba_marseille","lat":43.27954,"lon":5.41038,"is_reserved":false,"is_disabled":false,"rental_uris":{"android":"levelo://app?vid=3833777e-6403-47e3-80a4-642aa08be182","ios":"levelo://app?vid=3833777e-6403-47e3-80a4-642aa08be182"},"vehicle_type_id":"4","last_reported":1745974362,"current_range_meters":16400,"station_id":"ce4bhnp2rcd13ifvqh0g","pricing_plan_id":"cebpf4jnsgd1na2vs0mg"},{"bike_id":"b01cbeff-8157-416f-a4f0-9990745aa5ff","system_id":"levelo_inurba_marseille","lat":43.28033,"lon":5.36929,"is_reserved":false,"is_disabled":false,"rental_uris":{"android":"levelo://app?vid=b01cbeff-8157-416f-a4f0-9990745aa5ff","ios":"levelo://app?vid=b01cbeff-8157-416f-a4f0-9990745aa5ff"},"vehicle_type_id":"4","last_reported":1745974362,"current_range_meters":16400,"station_id":"ce4bha12rcd13ifvqef0","pricing_plan_id":"cebpf4jnsgd1na2vs0mg"},{"bike_id":"4fda502e-8180-4eb2-97e5-6521d9824005","system_id":"levelo_inurba_marseille","lat":43.305167,"lon":5.380707,"is_reserved":false,"is_disabled":false,"rental_uris":{"android":"levelo://app?vid=4fda502e-8180-4eb2-97e5-6521d9824005","ios":"levelo://app?vid=4fda502e-8180-4eb2-97e5-6521d9824005"},"vehicle_type_id":"4","last_reported":1745974362,"current_range_meters":16400,"station_id":"","pricing_plan_id":"cebpf4jnsgd1na2vs0mg"},{"bike_id":"e5c9e410-09a2-4a8b-8618-7674c87d16f0","system_id":"levelo_inurba_marseille","lat":43.29317,"lon":5.37424,"is_reserved":false,"is_disabled":true,"rental_uris":{"android":"levelo://app?vid=e5c9e410-09a2-4a8b-8618-7674c87d16f0","ios":"levelo://app?vid=e5c9e410-09a2-4a8b-8618-7674c87d16f0"},"vehicle_type_id":"4","last_reported":1745974362,"current_range_meters":16400,"station_id":"ce4bgi12rcd13ifvqb70","pricing_plan_id":"cebpf4jnsgd1na2vs0mg"},{"bike_id":"142b21fe-e15a-4a65-b770-44381c311d71","system_id":"levelo_inurba_marseille","lat":43.313302,"lon":5.396967,"is_reserved":false,"is_disabled":false,"rental_uris":{"android":"levelo://app?vid=142b21fe-e15a-4a65-b770-44381c311d71","ios":"levelo://app?vid=142b21fe-e15a-4a65-b770-44381c311d71"},"vehicle_type_id":"4","last_reported":1745974362,"current_range_meters":16400,"station_id":"ce4bgvp2rcd13ifvqcu0","pricing_plan_id":"cebpf4jnsgd1na2vs0mg"},{"bike_id":"fce2c520-92d3-4d18-810b-8d643fc15a1a","system_id":"levelo_inurba_marseille","lat":43.23064,"lon":5.355,"is_reserved":false,"is_disabled":false,"rental_uris":{"android":"levelo://app?vid=fce2c520-92d3-4d18-810b-8d643fc15a1a","ios":"levelo://app?vid=fce2c520-92d3-4d18-810b-8d643fc15a1a"},"vehicle_type_id":"4","last_reported":1745974362,"current_range_meters":16400,"station_id":"cpo3342slgdg3j2ifvpg","pricing_plan_id":"cebpf4jnsgd1na2vs0mg"},{"bike_id":"0bf054bc-7fc3-4c86-a291-33e81796d9c0","system_id":"levelo_inurba_marseille","lat":43.30242,"lon":5.40073,"is_reserved":false,"is_disabled":false,"rental_uris":{"android":"levelo://app?vid=0bf054bc-7fc3-4c86-a291-33e81796d9c0","ios":"levelo://app?vid=0bf054bc-7fc3-4c86-a291-33e81796d9c0"},"vehicle_type_id":"4","last_reported":1745974362,"current_range_meters":16400,"station_id":"ce4bgvh2rcd13ifvqcs0","pricing_plan_id":"cebpf4jnsgd1na2vs0mg"},{"bike_id":"7c57f542-5d9b-4d47-962e-a6357ed443fa","system_id":"levelo_inurba_marseille","lat":43.25117,"lon":5.40396,"is_reserved":false,"is_disabled":false,"rental_uris":{"android":"levelo://app?vid=7c57f542-5d9b-4d47-962e-a6357ed443fa","ios":"levelo://app?vid=7c57f542-5d9b-4d47-962e-a6357ed443fa"},"vehicle_type_id":"4","last_reported":1745974362,"current_range_meters":16400,"station_id":"","pricing_plan_id":"cebpf4jnsgd1na2vs0mg"},{"bike_id":"657dd7f1-8927-48c0-9f5a-b8b60efd5be1","system_id":"levelo_inurba_marseille","lat":43.28859,"lon":5.39314,"is_reserved":false,"is_disabled":false,"rental_uris":{"android":"levelo://app?vid=657dd7f1-8927-48c0-9f5a-b8b60efd5be1","ios":"levelo://app?vid=657dd7f1-8927-48c0-9f5a-b8b60efd5be1"},"vehicle_type_id":"4","last_reported":1745974362,"current_range_meters":16400,"station_id":"ce4bh2p2rcd13ifvqdi0","pricing_plan_id":"cebpf4jnsgd1na2vs0mg"},{"bike_id":"70857dd2-f23a-44a9-9fcc-6d8a63652f2e","system_id":"levelo_inurba_marseille","lat":43.3025,"lon":5.40081,"is_reserved":false,"is_disabled":false,"rental_uris":{"android":"levelo://app?vid=70857dd2-f23a-44a9-9fcc-6d8a63652f2e","ios":"levelo://app?vid=70857dd2-f23a-44a9-9fcc-6d8a63652f2e"},"vehicle_type_id":"4","last_reported":1745974362,"current_range_meters":16800,"station_id":"ce4bgvh2rcd13ifvqcs0","pricing_plan_id":"cebpf4jnsgd1na2vs0mg"},{"bike_id":"0b954ae2-6c3b-41a8-8abb-6fa8b5f42027","system_id":"levelo_inurba_marseille","lat":43.28944,"lon":5.36391,"is_reserved":false,"is_disabled":false,"rental_uris":{"android":"levelo://app?vid=0b954ae2-6c3b-41a8-8abb-6fa8b5f42027","ios":"levelo://app?vid=0b954ae2-6c3b-41a8-8abb-6fa8b5f42027"},"vehicle_type_id":"4","last_reported":1745974362,"current_range_meters":16800,"station_id":"ce4bhc92rcd13ifvqetg","pricing_plan_id":"cebpf4jnsgd1na2vs0mg"},{"bike_id":"a56f0186-6742-4321-af55-54f04b4d7b71","system_id":"levelo_inurba_marseille","lat":43.30893,"lon":5.39636,"is_reserved":false,"is_disabled":false,"rental_uris":{"android":"levelo://app?vid=a56f0186-6742-4321-af55-54f04b4d7b71","ios":"levelo://app?vid=a56f0186-6742-4321-af55-54f04b4d7b71"},"vehicle_type_id":"4","last_reported":1745974362,"current_range_meters":16800,"station_id":"ce4bh012rcd13ifvqcv0","pricing_plan_id":"cebpf4jnsgd1na2vs0mg"},{"bike_id":"d677444c-5a0f-4c29-b839-d7d13f8af0cf","system_id":"levelo_inurba_marseille","lat":43.30125,"lon":5.39865,"is_reserved":false,"is_disabled":false,"rental_uris":{"android":"levelo://app?vid=d677444c-5a0f-4c29-b839-d7d13f8af0cf","ios":"levelo://app?vid=d677444c-5a0f-4c29-b839-d7d13f8af0cf"},"vehicle_type_id":"4","last_reported":1745974362,"current_range_meters":17200,"station_id":"ce4bh0h2rcd13ifvqd40","pricing_plan_id":"cebpf4jnsgd1na2vs0mg"},{"bike_id":"5e122a88-e9ff-4688-ab39-82005b04d2e7","system_id":"levelo_inurba_marseille","lat":43.306518,"lon":5.400822,"is_reserved":false,"is_disabled":false,"rental_uris":{"android":"levelo://app?vid=5e122a88-e9ff-4688-ab39-82005b04d2e7","ios":"levelo://app?vid=5e122a88-e9ff-4688-ab39-82005b04d2e7"},"vehicle_type_id":"4","last_reported":1745974362,"current_range_meters":17600,"station_id":"ce4bh112rcd13ifvqda0","pricing_plan_id":"cebpf4jnsgd1na2vs0mg"},{"bike_id":"c8ceb8e9-785b-4de9-9930-3fbc66d30b00","system_id":"levelo_inurba_marseille","lat":43.21765,"lon":5.34564,"is_reserved":false,"is_disabled":false,"rental_uris":{"android":"levelo://app?vid=c8ceb8e9-785b-4de9-9930-3fbc66d30b00","ios":"levelo://app?vid=c8ceb8e9-785b-4de9-9930-3fbc66d30b00"},"vehicle_type_id":"4","last_reported":1745974362,"current_range_meters":17200,"station_id":"st_cvj6r9ubvosntc0bgbag","pricing_plan_id":"cebpf4jnsgd1na2vs0mg"},{"bike_id":"234eaa74-d0a4-44ad-abfd-b486667aba20","system_id":"levelo_inurba_marseille","lat":43.23195,"lon":5.39986,"is_reserved":false,"is_disabled":false,"rental_uris":{"android":"levelo://app?vid=234eaa74-d0a4-44ad-abfd-b486667aba20","ios":"levelo://app?vid=234eaa74-d0a4-44ad-abfd-b486667aba20"},"vehicle_type_id":"4","last_reported":1745974362,"current_range_meters":17200,"station_id":"ce4bhn12rcd13ifvqgqg","pricing_plan_id":"cebpf4jnsgd1na2vs0mg"},{"bike_id":"4978a160-6490-4eee-a0b3-e1471feb0b81","system_id":"levelo_inurba_marseille","lat":43.28081,"lon":5.39674,"is_reserved":false,"is_disabled":false,"rental_uris":{"android":"levelo://app?vid=4978a160-6490-4eee-a0b3-e1471feb0b81","ios":"levelo://app?vid=4978a160-6490-4eee-a0b3-e1471feb0b81"},"vehicle_type_id":"4","last_reported":1745974362,"current_range_meters":17200,"station_id":"ce4bho12rcd13ifvqh2g","pricing_plan_id":"cebpf4jnsgd1na2vs0mg"},{"bike_id":"86c2979e-8cf6-48ed-bdb1-835ff11e3adc","system_id":"levelo_inurba_marseille","lat":43.25379,"lon":5.4184,"is_reserved":false,"is_disabled":false,"rental_uris":{"android":"levelo://app?vid=86c2979e-8cf6-48ed-bdb1-835ff11e3adc","ios":"levelo://app?vid=86c2979e-8cf6-48ed-bdb1-835ff11e3adc"},"vehicle_type_id":"4","last_reported":1745974362,"current_range_meters":17600,"station_id":"","pricing_plan_id":"cebpf4jnsgd1na2vs0mg"},{"bike_id":"9df9b88e-192f-4082-8618-a77e8c2aff16","system_id":"levelo_inurba_marseille","lat":43.287039,"lon":5.373779,"is_reserved":false,"is_disabled":false,"rental_uris":{"android":"levelo://app?vid=9df9b88e-192f-4082-8618-a77e8c2aff16","ios":"levelo://app?vid=9df9b88e-192f-4082-8618-a77e8c2aff16"},"vehicle_type_id":"4","last_reported":1745974362,"current_range_meters":17600,"station_id":"ce4bh3p2rcd13ifvqdq0","pricing_plan_id":"cebpf4jnsgd1na2vs0mg"},{"bike_id":"28b7c9a4-f8bb-49dc-8705-014ce1d938de","system_id":"levelo_inurba_marseille","lat":43.287084,"lon":5.399982,"is_reserved":false,"is_disabled":false,"rental_uris":{"android":"levelo://app?vid=28b7c9a4-f8bb-49dc-8705-014ce1d938de","ios":"levelo://app?vid=28b7c9a4-f8bb-49dc-8705-014ce1d938de"},"vehicle_type_id":"4","last_reported":1745974362,"current_range_meters":17600,"station_id":"ce4bho92rcd13ifvqh3g","pricing_plan_id":"cebpf4jnsgd1na2vs0mg"},{"bike_id":"5ee1a0ca-2a89-41eb-943a-b30f959203bc","system_id":"levelo_inurba_marseille","lat":43.27063,"lon":5.40247,"is_reserved":false,"is_disabled":false,"rental_uris":{"android":"levelo://app?vid=5ee1a0ca-2a89-41eb-943a-b30f959203bc","ios":"levelo://app?vid=5ee1a0ca-2a89-41eb-943a-b30f959203bc"},"vehicle_type_id":"4","last_reported":1745974362,"current_range_meters":18000,"station_id":"ce4bhk92rcd13ifvqgc0","pricing_plan_id":"cebpf4jnsgd1na2vs0mg"},{"bike_id":"4bc34ec6-597f-45da-a5d9-e921b15f63d0","system_id":"levelo_inurba_marseille","lat":43.29423,"lon":5.38628,"is_reserved":false,"is_disabled":false,"rental_uris":{"android":"levelo://app?vid=4bc34ec6-597f-45da-a5d9-e921b15f63d0","ios":"levelo://app?vid=4bc34ec6-597f-45da-a5d9-e921b15f63d0"},"vehicle_type_id":"4","last_reported":1745974362,"current_range_meters":18000,"station_id":"ce4bh2h2rcd13ifvqdh0","pricing_plan_id":"cebpf4jnsgd1na2vs0mg"},{"bike_id":"e1b8350f-04b1-49c7-a0fd-660b07127573","system_id":"levelo_inurba_marseille","lat":43.31185,"lon":5.38677,"is_reserved":false,"is_disabled":false,"rental_uris":{"android":"levelo://app?vid=e1b8350f-04b1-49c7-a0fd-660b07127573","ios":"levelo://app?vid=e1b8350f-04b1-49c7-a0fd-660b07127573"},"vehicle_type_id":"4","last_reported":1745974362,"current_range_meters":18000,"station_id":"ce4bgv12rcd13ifvqcp0","pricing_plan_id":"cebpf4jnsgd1na2vs0mg"},{"bike_id":"201065a5-7739-457d-b6cb-8bceaff21c7b","system_id":"levelo_inurba_marseille","lat":43.28037,"lon":5.36937,"is_reserved":false,"is_disabled":false,"rental_uris":{"android":"levelo://app?vid=201065a5-7739-457d-b6cb-8bceaff21c7b","ios":"levelo://app?vid=201065a5-7739-457d-b6cb-8bceaff21c7b"},"vehicle_type_id":"4","last_reported":1745974362,"current_range_meters":18000,"station_id":"ce4bha12rcd13ifvqef0","pricing_plan_id":"cebpf4jnsgd1na2vs0mg"},{"bike_id":"fb249f86-c0b2-4a24-b7a7-3247b66badd0","system_id":"levelo_inurba_marseille","lat":43.28846,"lon":5.35846,"is_reserved":false,"is_disabled":false,"rental_uris":{"android":"levelo://app?vid=fb249f86-c0b2-4a24-b7a7-3247b66badd0","ios":"levelo://app?vid=fb249f86-c0b2-4a24-b7a7-3247b66badd0"},"vehicle_type_id":"4","last_reported":1745974362,"current_range_meters":17600,"station_id":"ce4bhb12rcd13ifvqem0","pricing_plan_id":"cebpf4jnsgd1na2vs0mg"},{"bike_id":"529a568c-18c4-4161-87f4-156bbcdd065f","system_id":"levelo_inurba_marseille","lat":43.28568,"lon":5.39485,"is_reserved":false,"is_disabled":false,"rental_uris":{"android":"levelo://app?vid=529a568c-18c4-4161-87f4-156bbcdd065f","ios":"levelo://app?vid=529a568c-18c4-4161-87f4-156bbcdd065f"},"vehicle_type_id":"4","last_reported":1745974362,"current_range_meters":18000,"station_id":"ce4bh292rcd13ifvqdg0","pricing_plan_id":"cebpf4jnsgd1na2vs0mg"},{"bike_id":"0ef44f19-f777-4d64-87b6-b3d8f9f8eedc","system_id":"levelo_inurba_marseille","lat":43.31065,"lon":5.38342,"is_reserved":false,"is_disabled":false,"rental_uris":{"android":"levelo://app?vid=0ef44f19-f777-4d64-87b6-b3d8f9f8eedc","ios":"levelo://app?vid=0ef44f19-f777-4d64-87b6-b3d8f9f8eedc"},"vehicle_type_id":"4","last_reported":1745974362,"current_range_meters":18800,"station_id":"ce4bgv92rcd13ifvqcr0","pricing_plan_id":"cebpf4jnsgd1na2vs0mg"},{"bike_id":"958634e5-248c-4ae7-9b8f-819907b7feae","system_id":"levelo_inurba_marseille","lat":43.30542,"lon":5.38431,"is_reserved":false,"is_disabled":false,"rental_uris":{"android":"levelo://app?vid=958634e5-248c-4ae7-9b8f-819907b7feae","ios":"levelo://app?vid=958634e5-248c-4ae7-9b8f-819907b7feae"},"vehicle_type_id":"4","last_reported":1745974362,"current_range_meters":18800,"station_id":"ce4bgg92rcd13ifvqb30","pricing_plan_id":"cebpf4jnsgd1na2vs0mg"},{"bike_id":"c664bae0-5573-409b-9e67-da14d19e0c37","system_id":"levelo_inurba_marseille","lat":43.28454,"lon":5.35908,"is_reserved":false,"is_disabled":false,"rental_uris":{"android":"levelo://app?vid=c664bae0-5573-409b-9e67-da14d19e0c37","ios":"levelo://app?vid=c664bae0-5573-409b-9e67-da14d19e0c37"},"vehicle_type_id":"4","last_reported":1745974362,"current_range_meters":18800,"station_id":"ce4bhah2rcd13ifvqei0","pricing_plan_id":"cebpf4jnsgd1na2vs0mg"},{"bike_id":"80ebd813-d55d-43a7-b7dc-643c0e5fe631","system_id":"levelo_inurba_marseille","lat":43.30933,"lon":5.40155,"is_reserved":false,"is_disabled":false,"rental_uris":{"android":"levelo://app?vid=80ebd813-d55d-43a7-b7dc-643c0e5fe631","ios":"levelo://app?vid=80ebd813-d55d-43a7-b7dc-643c0e5fe631"},"vehicle_type_id":"4","last_reported":1745974362,"current_range_meters":18800,"station_id":"ce4bgvp2rcd13ifvqct0","pricing_plan_id":"cebpf4jnsgd1na2vs0mg"},{"bike_id":"473e1fa8-f870-444c-9739-223b20bd02ae","system_id":"levelo_inurba_marseille","lat":43.23191,"lon":5.39986,"is_reserved":false,"is_disabled":false,"rental_uris":{"android":"levelo://app?vid=473e1fa8-f870-444c-9739-223b20bd02ae","ios":"levelo://app?vid=473e1fa8-f870-444c-9739-223b20bd02ae"},"vehicle_type_id":"4","last_reported":1745974362,"current_range_meters":18800,"station_id":"ce4bhn12rcd13ifvqgqg","pricing_plan_id":"cebpf4jnsgd1na2vs0mg"},{"bike_id":"0c9e4d09-31d9-4325-8d9f-13a37129f6e4","system_id":"levelo_inurba_marseille","lat":43.30599,"lon":5.37219,"is_reserved":false,"is_disabled":false,"rental_uris":{"android":"levelo://app?vid=0c9e4d09-31d9-4325-8d9f-13a37129f6e4","ios":"levelo://app?vid=0c9e4d09-31d9-4325-8d9f-13a37129f6e4"},"vehicle_type_id":"4","last_reported":1745974362,"current_range_meters":18800,"station_id":"ce4bgqh2rcd13ifvqc4g","pricing_plan_id":"cebpf4jnsgd1na2vs0mg"},{"bike_id":"7940bc1b-eaa7-4f49-a435-46dc9391f6a1","system_id":"levelo_inurba_marseille","lat":43.21182,"lon":5.35067,"is_reserved":false,"is_disabled":false,"rental_uris":{"android":"levelo://app?vid=7940bc1b-eaa7-4f49-a435-46dc9391f6a1","ios":"levelo://app?vid=7940bc1b-eaa7-4f49-a435-46dc9391f6a1"},"vehicle_type_id":"4","last_reported":1745974362,"current_range_meters":18800,"station_id":"st_cvj6sg6p6f1abm77japg","pricing_plan_id":"cebpf4jnsgd1na2vs0mg"},{"bike_id":"c746d294-d77c-4a5a-a6f2-b8bd8f60008f","system_id":"levelo_inurba_marseille","lat":43.27955,"lon":5.41037,"is_reserved":false,"is_disabled":true,"rental_uris":{"android":"levelo://app?vid=c746d294-d77c-4a5a-a6f2-b8bd8f60008f","ios":"levelo://app?vid=c746d294-d77c-4a5a-a6f2-b8bd8f60008f"},"vehicle_type_id":"4","last_reported":1745974362,"current_range_meters":18800,"station_id":"ce4bhnp2rcd13ifvqh0g","pricing_plan_id":"cebpf4jnsgd1na2vs0mg"},{"bike_id":"5bb930cb-f687-4afc-a3b1-7d364bf87093","system_id":"levelo_inurba_marseille","lat":43.32373,"lon":5.38913,"is_reserved":false,"is_disabled":false,"rental_uris":{"android":"levelo://app?vid=5bb930cb-f687-4afc-a3b1-7d364bf87093","ios":"levelo://app?vid=5bb930cb-f687-4afc-a3b1-7d364bf87093"},"vehicle_type_id":"4","last_reported":1745974362,"current_range_meters":19200,"station_id":"ce4bhqp2rcd13ifvqhog","pricing_plan_id":"cebpf4jnsgd1na2vs0mg"},{"bike_id":"dd1d5a3f-d140-4e61-a85f-9fd03b0cfd3a","system_id":"levelo_inurba_marseille","lat":43.31526,"lon":5.38032,"is_reserved":false,"is_disabled":false,"rental_uris":{"android":"levelo://app?vid=dd1d5a3f-d140-4e61-a85f-9fd03b0cfd3a","ios":"levelo://app?vid=dd1d5a3f-d140-4e61-a85f-9fd03b0cfd3a"},"vehicle_type_id":"4","last_reported":1745974362,"current_range_meters":19200,"station_id":"ce4bhsp2rcd13ifvqi50","pricing_plan_id":"cebpf4jnsgd1na2vs0mg"},{"bike_id":"d819eb38-84ad-4017-8782-84963502c537","system_id":"levelo_inurba_marseille","lat":43.27991,"lon":5.38721,"is_reserved":false,"is_disabled":false,"rental_uris":{"android":"levelo://app?vid=d819eb38-84ad-4017-8782-84963502c537","ios":"levelo://app?vid=d819eb38-84ad-4017-8782-84963502c537"},"vehicle_type_id":"4","last_reported":1745974362,"current_range_meters":19200,"station_id":"ce4bhg12rcd13ifvqf80","pricing_plan_id":"cebpf4jnsgd1na2vs0mg"},{"bike_id":"ede34bd8-5ab4-4fe0-affe-a93d3c10df01","system_id":"levelo_inurba_marseille","lat":43.27495,"lon":5.42446,"is_reserved":false,"is_disabled":false,"rental_uris":{"android":"levelo://app?vid=ede34bd8-5ab4-4fe0-affe-a93d3c10df01","ios":"levelo://app?vid=ede34bd8-5ab4-4fe0-affe-a93d3c10df01"},"vehicle_type_id":"4","last_reported":1745974362,"current_range_meters":19600,"station_id":"ce4bhn92rcd13ifvqgrg","pricing_plan_id":"cebpf4jnsgd1na2vs0mg"},{"bike_id":"db18e269-7f3f-4e4b-9894-decaa7c1fa3b","system_id":"levelo_inurba_marseille","lat":43.24663,"lon":5.38157,"is_reserved":false,"is_disabled":false,"rental_uris":{"android":"levelo://app?vid=db18e269-7f3f-4e4b-9894-decaa7c1fa3b","ios":"levelo://app?vid=db18e269-7f3f-4e4b-9894-decaa7c1fa3b"},"vehicle_type_id":"4","last_reported":1745974362,"current_range_meters":19600,"station_id":"ce4bhih2rcd13ifvqfr0","pricing_plan_id":"cebpf4jnsgd1na2vs0mg"},{"bike_id":"ecbacc7d-9dbe-4fa2-b041-6ab5de3b6402","system_id":"levelo_inurba_marseille","lat":43.28864,"lon":5.39303,"is_reserved":false,"is_disabled":false,"rental_uris":{"android":"levelo://app?vid=ecbacc7d-9dbe-4fa2-b041-6ab5de3b6402","ios":"levelo://app?vid=ecbacc7d-9dbe-4fa2-b041-6ab5de3b6402"},"vehicle_type_id":"4","last_reported":1745974362,"current_range_meters":19600,"station_id":"ce4bh2p2rcd13ifvqdi0","pricing_plan_id":"cebpf4jnsgd1na2vs0mg"},{"bike_id":"bcb4a4d9-1d50-4d0e-94cb-4a3fe436984b","system_id":"levelo_inurba_marseille","lat":43.322826,"lon":5.382811,"is_reserved":false,"is_disabled":false,"rental_uris":{"android":"levelo://app?vid=bcb4a4d9-1d50-4d0e-94cb-4a3fe436984b","ios":"levelo://app?vid=bcb4a4d9-1d50-4d0e-94cb-4a3fe436984b"},"vehicle_type_id":"4","last_reported":1745974362,"current_range_meters":20000,"station_id":"ce4bhr12rcd13ifvqhqg","pricing_plan_id":"cebpf4jnsgd1na2vs0mg"},{"bike_id":"1197ea5e-c1b7-4a74-88b7-06654a658162","system_id":"levelo_inurba_marseille","lat":43.28418,"lon":5.37511,"is_reserved":false,"is_disabled":true,"rental_uris":{"android":"levelo://app?vid=1197ea5e-c1b7-4a74-88b7-06654a658162","ios":"levelo://app?vid=1197ea5e-c1b7-4a74-88b7-06654a658162"},"vehicle_type_id":"4","last_reported":1745974362,"current_range_meters":20000,"station_id":"ce4bh412rcd13ifvqds0","pricing_plan_id":"cebpf4jnsgd1na2vs0mg"},{"bike_id":"330ae0d8-2228-407b-80de-905ccac38fed","system_id":"levelo_inurba_marseille","lat":43.31485,"lon":5.37332,"is_reserved":false,"is_disabled":false,"rental_uris":{"android":"levelo://app?vid=330ae0d8-2228-407b-80de-905ccac38fed","ios":"levelo://app?vid=330ae0d8-2228-407b-80de-905ccac38fed"},"vehicle_type_id":"4","last_reported":1745974362,"current_range_meters":20000,"station_id":"ce4bgt12rcd13ifvqcd0","pricing_plan_id":"cebpf4jnsgd1na2vs0mg"},{"bike_id":"a742ba39-6d77-433c-a2d3-e8bdaef4e3db","system_id":"levelo_inurba_marseille","lat":43.30298,"lon":5.392167,"is_reserved":false,"is_disabled":false,"rental_uris":{"android":"levelo://app?vid=a742ba39-6d77-433c-a2d3-e8bdaef4e3db","ios":"levelo://app?vid=a742ba39-6d77-433c-a2d3-e8bdaef4e3db"},"vehicle_type_id":"4","last_reported":1745974362,"current_range_meters":19600,"station_id":"ce4bgkh2rcd13ifvqbk0","pricing_plan_id":"cebpf4jnsgd1na2vs0mg"},{"bike_id":"65b29515-b986-4fb4-abc3-a39496bac22e","system_id":"levelo_inurba_marseille","lat":43.278308,"lon":5.392059,"is_reserved":false,"is_disabled":false,"rental_uris":{"android":"levelo://app?vid=65b29515-b986-4fb4-abc3-a39496bac22e","ios":"levelo://app?vid=65b29515-b986-4fb4-abc3-a39496bac22e"},"vehicle_type_id":"4","last_reported":1745974362,"current_range_meters":20000,"station_id":"ce4bhjp2rcd13ifvqga0","pricing_plan_id":"cebpf4jnsgd1na2vs0mg"},{"bike_id":"b3a5d772-2205-4c8b-9b69-e745366b34c4","system_id":"levelo_inurba_marseille","lat":43.30134,"lon":5.398669,"is_reserved":false,"is_disabled":false,"rental_uris":{"android":"levelo://app?vid=b3a5d772-2205-4c8b-9b69-e745366b34c4","ios":"levelo://app?vid=b3a5d772-2205-4c8b-9b69-e745366b34c4"},"vehicle_type_id":"4","last_reported":1745974362,"current_range_meters":20000,"station_id":"ce4bh0h2rcd13ifvqd40","pricing_plan_id":"cebpf4jnsgd1na2vs0mg"},{"bike_id":"7a081fbe-2822-4a3c-9809-94ce2e701ea9","system_id":"levelo_inurba_marseille","lat":43.30935,"lon":5.40145,"is_reserved":false,"is_disabled":false,"rental_uris":{"android":"levelo://app?vid=7a081fbe-2822-4a3c-9809-94ce2e701ea9","ios":"levelo://app?vid=7a081fbe-2822-4a3c-9809-94ce2e701ea9"},"vehicle_type_id":"4","last_reported":1745974362,"current_range_meters":20000,"station_id":"ce4bgvp2rcd13ifvqct0","pricing_plan_id":"cebpf4jnsgd1na2vs0mg"},{"bike_id":"88b0e47a-d43f-44bb-bd7e-80d8fc6d69de","system_id":"levelo_inurba_marseille","lat":43.281057,"lon":5.401387,"is_reserved":false,"is_disabled":false,"rental_uris":{"android":"levelo://app?vid=88b0e47a-d43f-44bb-bd7e-80d8fc6d69de","ios":"levelo://app?vid=88b0e47a-d43f-44bb-bd7e-80d8fc6d69de"},"vehicle_type_id":"4","last_reported":1745974362,"current_range_meters":20400,"station_id":"","pricing_plan_id":"cebpf4jnsgd1na2vs0mg"},{"bike_id":"ac7467b7-fba6-486d-aa24-be591ea3cee3","system_id":"levelo_inurba_marseille","lat":43.3254,"lon":5.41438,"is_reserved":false,"is_disabled":false,"rental_uris":{"android":"levelo://app?vid=ac7467b7-fba6-486d-aa24-be591ea3cee3","ios":"levelo://app?vid=ac7467b7-fba6-486d-aa24-be591ea3cee3"},"vehicle_type_id":"4","last_reported":1745974362,"current_range_meters":20000,"station_id":"ce4bhq12rcd13ifvqhhg","pricing_plan_id":"cebpf4jnsgd1na2vs0mg"},{"bike_id":"cf832ada-1b81-4b54-a9ce-285379c5202b","system_id":"levelo_inurba_marseille","lat":43.28837,"lon":5.35855,"is_reserved":false,"is_disabled":false,"rental_uris":{"android":"levelo://app?vid=cf832ada-1b81-4b54-a9ce-285379c5202b","ios":"levelo://app?vid=cf832ada-1b81-4b54-a9ce-285379c5202b"},"vehicle_type_id":"4","last_reported":1745974362,"current_range_meters":20000,"station_id":"ce4bhb12rcd13ifvqem0","pricing_plan_id":"cebpf4jnsgd1na2vs0mg"},{"bike_id":"d29e62a1-3a78-426a-b8e4-8f27c2bce535","system_id":"levelo_inurba_marseille","lat":43.28468,"lon":5.35875,"is_reserved":false,"is_disabled":false,"rental_uris":{"android":"levelo://app?vid=d29e62a1-3a78-426a-b8e4-8f27c2bce535","ios":"levelo://app?vid=d29e62a1-3a78-426a-b8e4-8f27c2bce535"},"vehicle_type_id":"4","last_reported":1745974362,"current_range_meters":20400,"station_id":"ce4bhah2rcd13ifvqei0","pricing_plan_id":"cebpf4jnsgd1na2vs0mg"},{"bike_id":"885643d3-720e-482f-bfea-fac9634e1102","system_id":"levelo_inurba_marseille","lat":43.29445,"lon":5.39743,"is_reserved":false,"is_disabled":false,"rental_uris":{"android":"levelo://app?vid=885643d3-720e-482f-bfea-fac9634e1102","ios":"levelo://app?vid=885643d3-720e-482f-bfea-fac9634e1102"},"vehicle_type_id":"4","last_reported":1745974362,"current_range_meters":20400,"station_id":"ce4bh3h2rcd13ifvqdo0","pricing_plan_id":"cebpf4jnsgd1na2vs0mg"},{"bike_id":"1cf3d786-ac4e-4637-9f55-422b5b7f0270","system_id":"levelo_inurba_marseille","lat":43.31132,"lon":5.37748,"is_reserved":false,"is_disabled":false,"rental_uris":{"android":"levelo://app?vid=1cf3d786-ac4e-4637-9f55-422b5b7f0270","ios":"levelo://app?vid=1cf3d786-ac4e-4637-9f55-422b5b7f0270"},"vehicle_type_id":"4","last_reported":1745974362,"current_range_meters":20800,"station_id":"ce4bgt92rcd13ifvqcg0","pricing_plan_id":"cebpf4jnsgd1na2vs0mg"},{"bike_id":"9a6d1a0d-0520-4c44-b0a9-74ddbe754418","system_id":"levelo_inurba_marseille","lat":43.27092,"lon":5.40687,"is_reserved":false,"is_disabled":false,"rental_uris":{"android":"levelo://app?vid=9a6d1a0d-0520-4c44-b0a9-74ddbe754418","ios":"levelo://app?vid=9a6d1a0d-0520-4c44-b0a9-74ddbe754418"},"vehicle_type_id":"4","last_reported":1745974362,"current_range_meters":20800,"station_id":"","pricing_plan_id":"cebpf4jnsgd1na2vs0mg"},{"bike_id":"938d038f-f64c-4bc1-b1f0-b9c5cc1d5502","system_id":"levelo_inurba_marseille","lat":43.276685,"lon":5.38878,"is_reserved":false,"is_disabled":false,"rental_uris":{"android":"levelo://app?vid=938d038f-f64c-4bc1-b1f0-b9c5cc1d5502","ios":"levelo://app?vid=938d038f-f64c-4bc1-b1f0-b9c5cc1d5502"},"vehicle_type_id":"4","last_reported":1745974362,"current_range_meters":20400,"station_id":"ce4bhi12rcd13ifvqfo0","pricing_plan_id":"cebpf4jnsgd1na2vs0mg"},{"bike_id":"310d622f-a5db-4e3b-a8a9-748b6065bef9","system_id":"levelo_inurba_marseille","lat":43.28472,"lon":5.35882,"is_reserved":false,"is_disabled":false,"rental_uris":{"android":"levelo://app?vid=310d622f-a5db-4e3b-a8a9-748b6065bef9","ios":"levelo://app?vid=310d622f-a5db-4e3b-a8a9-748b6065bef9"},"vehicle_type_id":"4","last_reported":1745974362,"current_range_meters":20800,"station_id":"ce4bhah2rcd13ifvqei0","pricing_plan_id":"cebpf4jnsgd1na2vs0mg"},{"bike_id":"28ca391b-55fb-42d3-81d1-30defb9017b0","system_id":"levelo_inurba_marseille","lat":43.29905,"lon":5.39774,"is_reserved":false,"is_disabled":false,"rental_uris":{"android":"levelo://app?vid=28ca391b-55fb-42d3-81d1-30defb9017b0","ios":"levelo://app?vid=28ca391b-55fb-42d3-81d1-30defb9017b0"},"vehicle_type_id":"4","last_reported":1745974362,"current_range_meters":20800,"station_id":"","pricing_plan_id":"cebpf4jnsgd1na2vs0mg"},{"bike_id":"ddde46b0-abb5-4db4-a967-116646d2b570","system_id":"levelo_inurba_marseille","lat":43.241704,"lon":5.36399,"is_reserved":false,"is_disabled":true,"rental_uris":{"android":"levelo://app?vid=ddde46b0-abb5-4db4-a967-116646d2b570","ios":"levelo://app?vid=ddde46b0-abb5-4db4-a967-116646d2b570"},"vehicle_type_id":"4","last_reported":1745974362,"current_range_meters":21600,"station_id":"cpo36qri1sfpv3e86is0","pricing_plan_id":"cebpf4jnsgd1na2vs0mg"},{"bike_id":"ed109d56-bd00-4276-9adb-48be6f4fbfdf","system_id":"levelo_inurba_marseille","lat":43.28461,"lon":5.35898,"is_reserved":false,"is_disabled":false,"rental_uris":{"android":"levelo://app?vid=ed109d56-bd00-4276-9adb-48be6f4fbfdf","ios":"levelo://app?vid=ed109d56-bd00-4276-9adb-48be6f4fbfdf"},"vehicle_type_id":"4","last_reported":1745974362,"current_range_meters":22000,"station_id":"ce4bhah2rcd13ifvqei0","pricing_plan_id":"cebpf4jnsgd1na2vs0mg"},{"bike_id":"edaae8ad-5882-4d8d-9ea8-483bb3337260","system_id":"levelo_inurba_marseille","lat":43.287154,"lon":5.399895,"is_reserved":false,"is_disabled":false,"rental_uris":{"android":"levelo://app?vid=edaae8ad-5882-4d8d-9ea8-483bb3337260","ios":"levelo://app?vid=edaae8ad-5882-4d8d-9ea8-483bb3337260"},"vehicle_type_id":"4","last_reported":1745974362,"current_range_meters":22000,"station_id":"ce4bho92rcd13ifvqh3g","pricing_plan_id":"cebpf4jnsgd1na2vs0mg"},{"bike_id":"856b9cea-619f-4c91-8452-1e096f8abfc3","system_id":"levelo_inurba_marseille","lat":43.30893,"lon":5.39628,"is_reserved":false,"is_disabled":false,"rental_uris":{"android":"levelo://app?vid=856b9cea-619f-4c91-8452-1e096f8abfc3","ios":"levelo://app?vid=856b9cea-619f-4c91-8452-1e096f8abfc3"},"vehicle_type_id":"4","last_reported":1745974362,"current_range_meters":22000,"station_id":"ce4bh012rcd13ifvqcv0","pricing_plan_id":"cebpf4jnsgd1na2vs0mg"},{"bike_id":"24f9670e-ad78-42b7-a30f-8ec79558ce7a","system_id":"levelo_inurba_marseille","lat":43.315368,"lon":5.380259,"is_reserved":false,"is_disabled":false,"rental_uris":{"android":"levelo://app?vid=24f9670e-ad78-42b7-a30f-8ec79558ce7a","ios":"levelo://app?vid=24f9670e-ad78-42b7-a30f-8ec79558ce7a"},"vehicle_type_id":"4","last_reported":1745974362,"current_range_meters":22000,"station_id":"ce4bhsp2rcd13ifvqi50","pricing_plan_id":"cebpf4jnsgd1na2vs0mg"},{"bike_id":"93f75a02-b262-4b0e-9254-5767e1d8caf5","system_id":"levelo_inurba_marseille","lat":43.31054,"lon":5.38334,"is_reserved":false,"is_disabled":false,"rental_uris":{"android":"levelo://app?vid=93f75a02-b262-4b0e-9254-5767e1d8caf5","ios":"levelo://app?vid=93f75a02-b262-4b0e-9254-5767e1d8caf5"},"vehicle_type_id":"4","last_reported":1745974362,"current_range_meters":22000,"station_id":"ce4bgv92rcd13ifvqcr0","pricing_plan_id":"cebpf4jnsgd1na2vs0mg"},{"bike_id":"809a2870-3fd0-4e73-bfea-9c4ae9526ab9","system_id":"levelo_inurba_marseille","lat":43.23197,"lon":5.35536,"is_reserved":false,"is_disabled":false,"rental_uris":{"android":"levelo://app?vid=809a2870-3fd0-4e73-bfea-9c4ae9526ab9","ios":"levelo://app?vid=809a2870-3fd0-4e73-bfea-9c4ae9526ab9"},"vehicle_type_id":"4","last_reported":1745974362,"current_range_meters":22000,"station_id":"ce4bhu92rcd13ifvqi70","pricing_plan_id":"cebpf4jnsgd1na2vs0mg"},{"bike_id":"0a7c9828-e3f4-445b-abfa-c2797f2ae5f7","system_id":"levelo_inurba_marseille","lat":43.28706,"lon":5.3997,"is_reserved":false,"is_disabled":false,"rental_uris":{"android":"levelo://app?vid=0a7c9828-e3f4-445b-abfa-c2797f2ae5f7","ios":"levelo://app?vid=0a7c9828-e3f4-445b-abfa-c2797f2ae5f7"},"vehicle_type_id":"4","last_reported":1745974362,"current_range_meters":22400,"station_id":"ce4bho92rcd13ifvqh3g","pricing_plan_id":"cebpf4jnsgd1na2vs0mg"},{"bike_id":"35628976-4287-4b7f-93c6-58ca8dc28126","system_id":"levelo_inurba_marseille","lat":43.2594,"lon":5.40904,"is_reserved":false,"is_disabled":false,"rental_uris":{"android":"levelo://app?vid=35628976-4287-4b7f-93c6-58ca8dc28126","ios":"levelo://app?vid=35628976-4287-4b7f-93c6-58ca8dc28126"},"vehicle_type_id":"4","last_reported":1745974362,"current_range_meters":22400,"station_id":"ce4bhm92rcd13ifvqglg","pricing_plan_id":"cebpf4jnsgd1na2vs0mg"},{"bike_id":"a8192352-1d6f-4d9e-8857-3f391e63857f","system_id":"levelo_inurba_marseille","lat":43.308883,"lon":5.396514,"is_reserved":false,"is_disabled":false,"rental_uris":{"android":"levelo://app?vid=a8192352-1d6f-4d9e-8857-3f391e63857f","ios":"levelo://app?vid=a8192352-1d6f-4d9e-8857-3f391e63857f"},"vehicle_type_id":"4","last_reported":1745974362,"current_range_meters":22400,"station_id":"ce4bh012rcd13ifvqcv0","pricing_plan_id":"cebpf4jnsgd1na2vs0mg"},{"bike_id":"8a5ef15b-08e5-4866-9542-282ce1544826","system_id":"levelo_inurba_marseille","lat":43.23204,"lon":5.39957,"is_reserved":false,"is_disabled":false,"rental_uris":{"android":"levelo://app?vid=8a5ef15b-08e5-4866-9542-282ce1544826","ios":"levelo://app?vid=8a5ef15b-08e5-4866-9542-282ce1544826"},"vehicle_type_id":"4","last_reported":1745974362,"current_range_meters":22400,"station_id":"ce4bhn12rcd13ifvqgqg","pricing_plan_id":"cebpf4jnsgd1na2vs0mg"},{"bike_id":"1ed1a301-a862-4162-9fb7-6977a173f9c8","system_id":"levelo_inurba_marseille","lat":43.31332,"lon":5.39686,"is_reserved":false,"is_disabled":false,"rental_uris":{"android":"levelo://app?vid=1ed1a301-a862-4162-9fb7-6977a173f9c8","ios":"levelo://app?vid=1ed1a301-a862-4162-9fb7-6977a173f9c8"},"vehicle_type_id":"4","last_reported":1745974362,"current_range_meters":22800,"station_id":"ce4bgvp2rcd13ifvqcu0","pricing_plan_id":"cebpf4jnsgd1na2vs0mg"},{"bike_id":"b53bc3da-f2d0-4fae-930a-bace7286daae","system_id":"levelo_inurba_marseille","lat":43.30928,"lon":5.40188,"is_reserved":false,"is_disabled":false,"rental_uris":{"android":"levelo://app?vid=b53bc3da-f2d0-4fae-930a-bace7286daae","ios":"levelo://app?vid=b53bc3da-f2d0-4fae-930a-bace7286daae"},"vehicle_type_id":"4","last_reported":1745974362,"current_range_meters":22800,"station_id":"ce4bgvp2rcd13ifvqct0","pricing_plan_id":"cebpf4jnsgd1na2vs0mg"},{"bike_id":"2d90d92c-e010-4034-9c8a-92ec848e2a6f","system_id":"levelo_inurba_marseille","lat":43.30319,"lon":5.369036,"is_reserved":false,"is_disabled":true,"rental_uris":{"android":"levelo://app?vid=2d90d92c-e010-4034-9c8a-92ec848e2a6f","ios":"levelo://app?vid=2d90d92c-e010-4034-9c8a-92ec848e2a6f"},"vehicle_type_id":"4","last_reported":1745974362,"current_range_meters":22800,"station_id":"ce4bgqh2rcd13ifvqc5g","pricing_plan_id":"cebpf4jnsgd1na2vs0mg"},{"bike_id":"3a1c6b65-5f0e-4cf0-b640-52fefa98b0b8","system_id":"levelo_inurba_marseille","lat":43.32038,"lon":5.41594,"is_reserved":false,"is_disabled":false,"rental_uris":{"android":"levelo://app?vid=3a1c6b65-5f0e-4cf0-b640-52fefa98b0b8","ios":"levelo://app?vid=3a1c6b65-5f0e-4cf0-b640-52fefa98b0b8"},"vehicle_type_id":"4","last_reported":1745974362,"current_range_meters":22800,"station_id":"ce4bhq92rcd13ifvqhkg","pricing_plan_id":"cebpf4jnsgd1na2vs0mg"},{"bike_id":"6cb6bcd9-7a14-4202-8b98-076a4da742c5","system_id":"levelo_inurba_marseille","lat":43.2706,"lon":5.40256,"is_reserved":false,"is_disabled":false,"rental_uris":{"android":"levelo://app?vid=6cb6bcd9-7a14-4202-8b98-076a4da742c5","ios":"levelo://app?vid=6cb6bcd9-7a14-4202-8b98-076a4da742c5"},"vehicle_type_id":"4","last_reported":1745974362,"current_range_meters":22800,"station_id":"ce4bhk92rcd13ifvqgc0","pricing_plan_id":"cebpf4jnsgd1na2vs0mg"},{"bike_id":"714061e8-7416-4067-b274-58949cf80bd2","system_id":"levelo_inurba_marseille","lat":43.29761,"lon":5.38119,"is_reserved":false,"is_disabled":true,"rental_uris":{"android":"levelo://app?vid=714061e8-7416-4067-b274-58949cf80bd2","ios":"levelo://app?vid=714061e8-7416-4067-b274-58949cf80bd2"},"vehicle_type_id":"4","last_reported":1745974362,"current_range_meters":22800,"station_id":"ce4bgip2rcd13ifvqbb0","pricing_plan_id":"cebpf4jnsgd1na2vs0mg"},{"bike_id":"5ed0c132-4f46-4a2d-9523-eb0926fbd74c","system_id":"levelo_inurba_marseille","lat":43.30444,"lon":5.38884,"is_reserved":false,"is_disabled":false,"rental_uris":{"android":"levelo://app?vid=5ed0c132-4f46-4a2d-9523-eb0926fbd74c","ios":"levelo://app?vid=5ed0c132-4f46-4a2d-9523-eb0926fbd74c"},"vehicle_type_id":"4","last_reported":1745974362,"current_range_meters":22800,"station_id":"ce4bgk12rcd13ifvqbi0","pricing_plan_id":"cebpf4jnsgd1na2vs0mg"},{"bike_id":"d5046189-0fb2-40d3-9ca2-25c5936499aa","system_id":"levelo_inurba_marseille","lat":43.284225,"lon":5.349891,"is_reserved":false,"is_disabled":true,"rental_uris":{"android":"levelo://app?vid=d5046189-0fb2-40d3-9ca2-25c5936499aa","ios":"levelo://app?vid=d5046189-0fb2-40d3-9ca2-25c5936499aa"},"vehicle_type_id":"4","last_reported":1745974362,"current_range_meters":22800,"station_id":"ce4bhbh2rcd13ifvqepg","pricing_plan_id":"cebpf4jnsgd1na2vs0mg"},{"bike_id":"f7bf61c7-7ab8-4686-ae02-c81e90fce057","system_id":"levelo_inurba_marseille","lat":43.310746,"lon":5.383579,"is_reserved":false,"is_disabled":false,"rental_uris":{"android":"levelo://app?vid=f7bf61c7-7ab8-4686-ae02-c81e90fce057","ios":"levelo://app?vid=f7bf61c7-7ab8-4686-ae02-c81e90fce057"},"vehicle_type_id":"4","last_reported":1745974362,"current_range_meters":22800,"station_id":"ce4bgv92rcd13ifvqcr0","pricing_plan_id":"cebpf4jnsgd1na2vs0mg"},{"bike_id":"06013f40-ea31-414e-ad92-9ad0a8a4ac4f","system_id":"levelo_inurba_marseille","lat":43.28852,"lon":5.39324,"is_reserved":false,"is_disabled":false,"rental_uris":{"android":"levelo://app?vid=06013f40-ea31-414e-ad92-9ad0a8a4ac4f","ios":"levelo://app?vid=06013f40-ea31-414e-ad92-9ad0a8a4ac4f"},"vehicle_type_id":"4","last_reported":1745974362,"current_range_meters":23200,"station_id":"ce4bh2p2rcd13ifvqdi0","pricing_plan_id":"cebpf4jnsgd1na2vs0mg"},{"bike_id":"d8c1856b-cd1d-4412-9e4e-dfbccee9e410","system_id":"levelo_inurba_marseille","lat":43.30933,"lon":5.40126,"is_reserved":false,"is_disabled":false,"rental_uris":{"android":"levelo://app?vid=d8c1856b-cd1d-4412-9e4e-dfbccee9e410","ios":"levelo://app?vid=d8c1856b-cd1d-4412-9e4e-dfbccee9e410"},"vehicle_type_id":"4","last_reported":1745974362,"current_range_meters":23200,"station_id":"ce4bgvp2rcd13ifvqct0","pricing_plan_id":"cebpf4jnsgd1na2vs0mg"},{"bike_id":"9327ebfd-6314-421c-8969-8cce73fe791d","system_id":"levelo_inurba_marseille","lat":43.287,"lon":5.37908,"is_reserved":false,"is_disabled":false,"rental_uris":{"android":"levelo://app?vid=9327ebfd-6314-421c-8969-8cce73fe791d","ios":"levelo://app?vid=9327ebfd-6314-421c-8969-8cce73fe791d"},"vehicle_type_id":"4","last_reported":1745974362,"current_range_meters":23200,"station_id":"ce4bh9p2rcd13ifvqec0","pricing_plan_id":"cebpf4jnsgd1na2vs0mg"},{"bike_id":"c48272f4-5124-44d6-a1ab-307c487c929f","system_id":"levelo_inurba_marseille","lat":43.2866,"lon":5.36332,"is_reserved":false,"is_disabled":false,"rental_uris":{"android":"levelo://app?vid=c48272f4-5124-44d6-a1ab-307c487c929f","ios":"levelo://app?vid=c48272f4-5124-44d6-a1ab-307c487c929f"},"vehicle_type_id":"4","last_reported":1745974362,"current_range_meters":23200,"station_id":"ce4bhah2rcd13ifvqej0","pricing_plan_id":"cebpf4jnsgd1na2vs0mg"},{"bike_id":"fc35888b-462c-491c-bb25-6cf81e434cf0","system_id":"levelo_inurba_marseille","lat":43.29979,"lon":5.37166,"is_reserved":false,"is_disabled":true,"rental_uris":{"android":"levelo://app?vid=fc35888b-462c-491c-bb25-6cf81e434cf0","ios":"levelo://app?vid=fc35888b-462c-491c-bb25-6cf81e434cf0"},"vehicle_type_id":"4","last_reported":1745974362,"current_range_meters":23200,"station_id":"ce4bgr92rcd13ifvqc7g","pricing_plan_id":"cebpf4jnsgd1na2vs0mg"},{"bike_id":"99969f3f-0e90-47cc-aab8-4ffee35eedaf","system_id":"levelo_inurba_marseille","lat":43.30802,"lon":5.4351,"is_reserved":false,"is_disabled":false,"rental_uris":{"android":"levelo://app?vid=99969f3f-0e90-47cc-aab8-4ffee35eedaf","ios":"levelo://app?vid=99969f3f-0e90-47cc-aab8-4ffee35eedaf"},"vehicle_type_id":"4","last_reported":1745974362,"current_range_meters":23200,"station_id":"ce4bhph2rcd13ifvqheg","pricing_plan_id":"cebpf4jnsgd1na2vs0mg"},{"bike_id":"ba2f86b4-0748-4c4d-9a58-e89310a426d6","system_id":"levelo_inurba_marseille","lat":43.28704,"lon":5.39949,"is_reserved":false,"is_disabled":false,"rental_uris":{"android":"levelo://app?vid=ba2f86b4-0748-4c4d-9a58-e89310a426d6","ios":"levelo://app?vid=ba2f86b4-0748-4c4d-9a58-e89310a426d6"},"vehicle_type_id":"4","last_reported":1745974362,"current_range_meters":23200,"station_id":"ce4bho92rcd13ifvqh3g","pricing_plan_id":"cebpf4jnsgd1na2vs0mg"},{"bike_id":"4f0f5a8d-d2a8-412d-984b-40874dab4585","system_id":"levelo_inurba_marseille","lat":43.30119,"lon":5.39891,"is_reserved":false,"is_disabled":false,"rental_uris":{"android":"levelo://app?vid=4f0f5a8d-d2a8-412d-984b-40874dab4585","ios":"levelo://app?vid=4f0f5a8d-d2a8-412d-984b-40874dab4585"},"vehicle_type_id":"4","last_reported":1745974362,"current_range_meters":23200,"station_id":"ce4bh0h2rcd13ifvqd40","pricing_plan_id":"cebpf4jnsgd1na2vs0mg"},{"bike_id":"fc8ecc00-1623-4a96-b439-59197bdd0618","system_id":"levelo_inurba_marseille","lat":43.27484,"lon":5.40887,"is_reserved":false,"is_disabled":false,"rental_uris":{"android":"levelo://app?vid=fc8ecc00-1623-4a96-b439-59197bdd0618","ios":"levelo://app?vid=fc8ecc00-1623-4a96-b439-59197bdd0618"},"vehicle_type_id":"4","last_reported":1745974362,"current_range_meters":23200,"station_id":"","pricing_plan_id":"cebpf4jnsgd1na2vs0mg"},{"bike_id":"a354f2a1-5b64-4b80-b302-b5a5a884e60a","system_id":"levelo_inurba_marseille","lat":43.25121,"lon":5.40332,"is_reserved":false,"is_disabled":false,"rental_uris":{"android":"levelo://app?vid=a354f2a1-5b64-4b80-b302-b5a5a884e60a","ios":"levelo://app?vid=a354f2a1-5b64-4b80-b302-b5a5a884e60a"},"vehicle_type_id":"4","last_reported":1745974362,"current_range_meters":23200,"station_id":"ce4bhlh2rcd13ifvqgig","pricing_plan_id":"cebpf4jnsgd1na2vs0mg"},{"bike_id":"1fbec7a1-31ee-4f4e-8d52-0e13b7aa5fb9","system_id":"levelo_inurba_marseille","lat":43.286994,"lon":5.373758,"is_reserved":false,"is_disabled":false,"rental_uris":{"android":"levelo://app?vid=1fbec7a1-31ee-4f4e-8d52-0e13b7aa5fb9","ios":"levelo://app?vid=1fbec7a1-31ee-4f4e-8d52-0e13b7aa5fb9"},"vehicle_type_id":"4","last_reported":1745974362,"current_range_meters":24000,"station_id":"ce4bh3p2rcd13ifvqdq0","pricing_plan_id":"cebpf4jnsgd1na2vs0mg"},