{"last_updated":1741284781,"ttl":60,"version":"2.2","data":{"bikes":[{"bike_id":"64a63497-219f-4c32-9aa5-b69a2b62654f","system_id":"levelo_inurba_marseille","lat":43.29025,"lon":5.3865,"is_reserved":false,"is_disabled":false,"rental_uris":{"android":"levelo://app?vid=64a63497-219f-4c32-9aa5-b69a2b62654f","ios":"levelo://app?vid=64a63497-219f-4c32-9aa5-b69a2b62654f"},"vehicle_type_id":"4","last_reported":1741284781,"current_range_meters":2800,"station_id":"ce4bh4p2rcd13ifvqe0g","pricing_plan_id":"cebpf4jnsgd1na2vs0mg"},{"bike_id":"3bb4709f-5d40-42f6-ad96-bfdc9b994e88","system_id":"levelo_inurba_marseille","lat":43.31745,"lon":5.39024,"is_reserved":false,"is_disabled":false,"rental_uris":{"android":"levelo://app?vid=3bb4709f-5d40-42f6-ad96-bfdc9b994e88","ios":"levelo://app?vid=3bb4709f-5d40-42f6-ad96-bfdc9b994e88"},"vehicle_type_id":"4","last_reported":1741284781,"current_range_meters":2800,"station_id":"ce4bhqp2rcd13ifvqhng","pricing_plan_id":"cebpf4jnsgd1na2vs0mg"},{"bike_id":"9616fe01-4b27-4651-9c0f-2fd7c17437e1","system_id":"levelo_inurba_marseille","lat":43.29781,"lon":5.38091,"is_reserved":false,"is_disabled":false,"rental_uris":{"android":"levelo://app?vid=9616fe01-4b27-4651-9c0f-2fd7c17437e1","ios":"levelo://app?vid=9616fe01-4b27-4651-9c0f-2fd7c17437e1"},"vehicle_type_id":"4","last_reported":1741284781,"current_range_meters":2800,"station_id":"ce4bgip2rcd13ifvqbb0","pricing_plan_id":"cebpf4jnsgd1na2vs0mg"},{"bike_id":"f9444e15-4003-41f8-b209-0c69503ac1e9","system_id":"levelo_inurba_marseille","lat":43.29895,"lon":5.39761,"is_reserved":false,"is_disabled":false,"rental_uris":{"android":"levelo://app?vid=f9444e15-4003-41f8-b209-0c69503ac1e9","ios":"levelo://app?vid=f9444e15-4003-41f8-b209-0c69503ac1e9"},"vehicle_type_id":"4","last_reported":1741284781,"current_range_meters":2800,"station_id":"ce4bh0h2rcd13ifvqd50","pricing_plan_id":"cebpf4jnsgd1na2vs0mg"},{"bike_id":"61e59b37-553a-421d-926c-7af7a0a97c14","system_id":"levelo_inurba_marseille","lat":43.26556,"lon":5.37293,"is_reserved":false,"is_disabled":false,"rental_uris":{"android":"levelo://app?vid=61e59b37-553a-421d-926c-7af7a0a97c14","ios":"levelo://app?vid=61e59b37-553a-421d-926c-7af7a0a97c14"},"vehicle_type_id":"4","last_reported":1741284781,"current_range_meters":2800,"station_id":"ce4bhg12rcd13ifvqf70","pricing_plan_id":"cebpf4jnsgd1na2vs0mg"},{"bike_id":"be8f2f0b-bfa2-4b7d-b9be-c3ab89c4dae0","system_id":"levelo_inurba_marseille","lat":43.29897,"lon":5.43664,"is_reserved":false,"is_disabled":false,"rental_uris":{"android":"levelo://app?vid=be8f2f0b-bfa2-4b7d-b9be-c3ab89c4dae0","ios":"levelo://app?vid=be8f2f0b-bfa2-4b7d-b9be-c3ab89c4dae0"},"vehicle_type_id":"4","last_reported":1741284781,"current_range_meters":3200,"station_id":"ce4bhpp2rcd13ifvqhfg","pricing_plan_id":"cebpf4jnsgd1na2vs0mg"},{"bike_id":"5aae8b56-1929-497b-b70b-83c085ed1320","system_id":"levelo_inurba_marseille","lat":43.27055,"lon":5.40258,"is_reserved":false,"is_disabled":false,"rental_uris":{"android":"levelo://app?vid=5aae8b56-1929-497b-b70b-83c085ed1320","ios":"levelo://app?vid=5aae8b56-1929-497b-b70b-83c085ed1320"},"vehicle_type_id":"4","last_reported":1741284781,"current_range_meters":3200,"station_id":"ce4bhk92rcd13ifvqgc0","pricing_plan_id":"cebpf4jnsgd1na2vs0mg"},{"bike_id":"3c0f4df7-5769-47fe-8bc9-a2a869d97df5","system_id":"levelo_inurba_marseille","lat":43.26059,"lon":5.39397,"is_reserved":false,"is_disabled":false,"rental_uris":{"android":"levelo://app?vid=3c0f4df7-5769-47fe-8bc9-a2a869d97df5","ios":"levelo://app?vid=3c0f4df7-5769-47fe-8bc9-a2a869d97df5"},"vehicle_type_id":"4","last_reported":1741284781,"current_range_meters":3200,"station_id":"ce4bhh92rcd13ifvqfj0","pricing_plan_id":"cebpf4jnsgd1na2vs0mg"},{"bike_id":"62685cc3-4e22-41d5-a116-f0bdf7ca7003","system_id":"levelo_inurba_marseille","lat":43.25002,"lon":5.38925,"is_reserved":false,"is_disabled":false,"rental_uris":{"android":"levelo://app?vid=62685cc3-4e22-41d5-a116-f0bdf7ca7003","ios":"levelo://app?vid=62685cc3-4e22-41d5-a116-f0bdf7ca7003"},"vehicle_type_id":"4","last_reported":1741284781,"current_range_meters":3200,"station_id":"ce4bhgp2rcd13ifvqfd0","pricing_plan_id":"cebpf4jnsgd1na2vs0mg"},{"bike_id":"cc195d8c-9eec-4cf0-a336-6a4de552bd55","system_id":"levelo_inurba_marseille","lat":43.27316,"lon":5.39071,"is_reserved":false,"is_disabled":false,"rental_uris":{"android":"levelo://app?vid=cc195d8c-9eec-4cf0-a336-6a4de552bd55","ios":"levelo://app?vid=cc195d8c-9eec-4cf0-a336-6a4de552bd55"},"vehicle_type_id":"4","last_reported":1741284781,"current_range_meters":3600,"station_id":"ce4bhgp2rcd13ifvqfe0","pricing_plan_id":"cebpf4jnsgd1na2vs0mg"},{"bike_id":"e7f4f5de-11db-40e9-b047-e99f051f5611","system_id":"levelo_inurba_marseille","lat":43.28911,"lon":5.38406,"is_reserved":false,"is_disabled":false,"rental_uris":{"android":"levelo://app?vid=e7f4f5de-11db-40e9-b047-e99f051f5611","ios":"levelo://app?vid=e7f4f5de-11db-40e9-b047-e99f051f5611"},"vehicle_type_id":"4","last_reported":1741284781,"current_range_meters":3200,"station_id":"ce4bh612rcd13ifvqe6g","pricing_plan_id":"cebpf4jnsgd1na2vs0mg"},{"bike_id":"6d963bf5-438a-4f1b-877b-794bfc4bb2bc","system_id":"levelo_inurba_marseille","lat":43.27913,"lon":5.35426,"is_reserved":false,"is_disabled":false,"rental_uris":{"android":"levelo://app?vid=6d963bf5-438a-4f1b-877b-794bfc4bb2bc","ios":"levelo://app?vid=6d963bf5-438a-4f1b-877b-794bfc4bb2bc"},"vehicle_type_id":"4","last_reported":1741284781,"current_range_meters":3600,"station_id":"","pricing_plan_id":"cebpf4jnsgd1na2vs0mg"},{"bike_id":"ebf8161a-cab7-4028-b35f-3388767cbc46","system_id":"levelo_inurba_marseille","lat":43.2308,"lon":5.35488,"is_reserved":false,"is_disabled":false,"rental_uris":{"android":"levelo://app?vid=ebf8161a-cab7-4028-b35f-3388767cbc46","ios":"levelo://app?vid=ebf8161a-cab7-4028-b35f-3388767cbc46"},"vehicle_type_id":"4","last_reported":1741284781,"current_range_meters":3600,"station_id":"cpo3342slgdg3j2ifvpg","pricing_plan_id":"cebpf4jnsgd1na2vs0mg"},{"bike_id":"4f99258c-73a4-4439-a7a1-1237e5cc18ea","system_id":"levelo_inurba_marseille","lat":43.2952,"lon":5.39398,"is_reserved":false,"is_disabled":false,"rental_uris":{"android":"levelo://app?vid=4f99258c-73a4-4439-a7a1-1237e5cc18ea","ios":"levelo://app?vid=4f99258c-73a4-4439-a7a1-1237e5cc18ea"},"vehicle_type_id":"4","last_reported":1741284781,"current_range_meters":3600,"station_id":"ce4bh292rcd13ifvqdf0","pricing_plan_id":"cebpf4jnsgd1na2vs0mg"},{"bike_id":"4cb89de8-2fd8-4b38-ab7f-12630ff96670","system_id":"levelo_inurba_marseille","lat":43.29423,"lon":5.39755,"is_reserved":false,"is_disabled":false,"rental_uris":{"android":"levelo://app?vid=4cb89de8-2fd8-4b38-ab7f-12630ff96670","ios":"levelo://app?vid=4cb89de8-2fd8-4b38-ab7f-12630ff96670"},"vehicle_type_id":"4","last_reported":1741284781,"current_range_meters":3600,"station_id":"ce4bh3h2rcd13ifvqdo0","pricing_plan_id":"cebpf4jnsgd1na2vs0mg"},{"bike_id":"35d8f733-a815-420c-b2d7-50240d32c017","system_id":"levelo_inurba_marseille","lat":43.2318,"lon":5.39995,"is_reserved":false,"is_disabled":false,"rental_uris":{"android":"levelo://app?vid=35d8f733-a815-420c-b2d7-50240d32c017","ios":"levelo://app?vid=35d8f733-a815-420c-b2d7-50240d32c017"},"vehicle_type_id":"4","last_reported":1741284781,"current_range_meters":3600,"station_id":"ce4bhn12rcd13ifvqgqg","pricing_plan_id":"cebpf4jnsgd1na2vs0mg"},{"bike_id":"ee534a5e-8078-4c21-aac0-0384fd32dca7","system_id":"levelo_inurba_marseille","lat":43.29218,"lon":5.36052,"is_reserved":false,"is_disabled":false,"rental_uris":{"android":"levelo://app?vid=ee534a5e-8078-4c21-aac0-0384fd32dca7","ios":"levelo://app?vid=ee534a5e-8078-4c21-aac0-0384fd32dca7"},"vehicle_type_id":"4","last_reported":1741284781,"current_range_meters":4000,"station_id":"ce4bhbh2rcd13ifvqeqg","pricing_plan_id":"cebpf4jnsgd1na2vs0mg"},{"bike_id":"fa59b23e-59cd-46f6-a58e-dfb7010f99d4","system_id":"levelo_inurba_marseille","lat":43.27916,"lon":5.39584,"is_reserved":false,"is_disabled":false,"rental_uris":{"android":"levelo://app?vid=fa59b23e-59cd-46f6-a58e-dfb7010f99d4","ios":"levelo://app?vid=fa59b23e-59cd-46f6-a58e-dfb7010f99d4"},"vehicle_type_id":"4","last_reported":1741284781,"current_range_meters":4000,"station_id":"ce4bhf92rcd13ifvqf40","pricing_plan_id":"cebpf4jnsgd1na2vs0mg"},{"bike_id":"636af38d-533c-49de-a8d0-57968d65aaee","system_id":"levelo_inurba_marseille","lat":43.28155,"lon":5.42637,"is_reserved":false,"is_disabled":false,"rental_uris":{"android":"levelo://app?vid=636af38d-533c-49de-a8d0-57968d65aaee","ios":"levelo://app?vid=636af38d-533c-49de-a8d0-57968d65aaee"},"vehicle_type_id":"4","last_reported":1741284781,"current_range_meters":4000,"station_id":"ce4bhnh2rcd13ifvqgug","pricing_plan_id":"cebpf4jnsgd1na2vs0mg"},{"bike_id":"78e1e024-87e8-41dc-aa9e-61c4822aeb4e","system_id":"levelo_inurba_marseille","lat":43.29527,"lon":5.37503,"is_reserved":false,"is_disabled":false,"rental_uris":{"android":"levelo://app?vid=78e1e024-87e8-41dc-aa9e-61c4822aeb4e","ios":"levelo://app?vid=78e1e024-87e8-41dc-aa9e-61c4822aeb4e"},"vehicle_type_id":"4","last_reported":1741284781,"current_range_meters":4000,"station_id":"ce4bgkp2rcd13ifvqbmg","pricing_plan_id":"cebpf4jnsgd1na2vs0mg"},{"bike_id":"b2bb0bb3-afce-46ae-8146-091359f1a5f4","system_id":"levelo_inurba_marseille","lat":43.299706,"lon":5.384879,"is_reserved":false,"is_disabled":false,"rental_uris":{"android":"levelo://app?vid=b2bb0bb3-afce-46ae-8146-091359f1a5f4","ios":"levelo://app?vid=b2bb0bb3-afce-46ae-8146-091359f1a5f4"},"vehicle_type_id":"4","last_reported":1741284781,"current_range_meters":4000,"station_id":"ce4bgk12rcd13ifvqbi0","pricing_plan_id":"cebpf4jnsgd1na2vs0mg"},{"bike_id":"5335ccc2-c2fe-4324-aa16-1eec29e362db","system_id":"levelo_inurba_marseille","lat":43.29376,"lon":5.38177,"is_reserved":false,"is_disabled":false,"rental_uris":{"android":"levelo://app?vid=5335ccc2-c2fe-4324-aa16-1eec29e362db","ios":"levelo://app?vid=5335ccc2-c2fe-4324-aa16-1eec29e362db"},"vehicle_type_id":"4","last_reported":1741284781,"current_range_meters":4400,"station_id":"","pricing_plan_id":"cebpf4jnsgd1na2vs0mg"},{"bike_id":"6bf8a763-fc90-4ceb-8417-bff37918be28","system_id":"levelo_inurba_marseille","lat":43.27842,"lon":5.39219,"is_reserved":false,"is_disabled":false,"rental_uris":{"android":"levelo://app?vid=6bf8a763-fc90-4ceb-8417-bff37918be28","ios":"levelo://app?vid=6bf8a763-fc90-4ceb-8417-bff37918be28"},"vehicle_type_id":"4","last_reported":1741284781,"current_range_meters":4400,"station_id":"ce4bhjp2rcd13ifvqga0","pricing_plan_id":"cebpf4jnsgd1na2vs0mg"},{"bike_id":"9f1fadeb-86a6-44b8-bae6-b3f392cb149b","system_id":"levelo_inurba_marseille","lat":43.26569,"lon":5.39017,"is_reserved":false,"is_disabled":false,"rental_uris":{"android":"levelo://app?vid=9f1fadeb-86a6-44b8-bae6-b3f392cb149b","ios":"levelo://app?vid=9f1fadeb-86a6-44b8-bae6-b3f392cb149b"},"vehicle_type_id":"4","last_reported":1741284781,"current_range_meters":4400,"station_id":"ce4bhe12rcd13ifvqf30","pricing_plan_id":"cebpf4jnsgd1na2vs0mg"},{"bike_id":"c2abc49b-6aad-4fe9-95bc-fe25ddd54526","system_id":"levelo_inurba_marseille","lat":43.28154,"lon":5.42662,"is_reserved":false,"is_disabled":false,"rental_uris":{"android":"levelo://app?vid=c2abc49b-6aad-4fe9-95bc-fe25ddd54526","ios":"levelo://app?vid=c2abc49b-6aad-4fe9-95bc-fe25ddd54526"},"vehicle_type_id":"4","last_reported":1741284781,"current_range_meters":4400,"station_id":"ce4bhnh2rcd13ifvqgug","pricing_plan_id":"cebpf4jnsgd1na2vs0mg"},{"bike_id":"88d55705-11a3-4e8d-984b-1fcdc0cb6706","system_id":"levelo_inurba_marseille","lat":43.28935,"lon":5.36387,"is_reserved":false,"is_disabled":false,"rental_uris":{"android":"levelo://app?vid=88d55705-11a3-4e8d-984b-1fcdc0cb6706","ios":"levelo://app?vid=88d55705-11a3-4e8d-984b-1fcdc0cb6706"},"vehicle_type_id":"4","last_reported":1741284781,"current_range_meters":4400,"station_id":"ce4bhc92rcd13ifvqetg","pricing_plan_id":"cebpf4jnsgd1na2vs0mg"},{"bike_id":"84e08939-1d3c-40f9-9f06-3f4762cc7f07","system_id":"levelo_inurba_marseille","lat":43.24542,"lon":5.39518,"is_reserved":false,"is_disabled":false,"rental_uris":{"android":"levelo://app?vid=84e08939-1d3c-40f9-9f06-3f4762cc7f07","ios":"levelo://app?vid=84e08939-1d3c-40f9-9f06-3f4762cc7f07"},"vehicle_type_id":"4","last_reported":1741284781,"current_range_meters":6000,"station_id":"ce4bhlp2rcd13ifvqgjg","pricing_plan_id":"cebpf4jnsgd1na2vs0mg"},{"bike_id":"62d8440f-bd31-4d32-a8a9-9b9c71c37df3","system_id":"levelo_inurba_marseille","lat":43.297838,"lon":5.393427,"is_reserved":false,"is_disabled":false,"rental_uris":{"android":"levelo://app?vid=62d8440f-bd31-4d32-a8a9-9b9c71c37df3","ios":"levelo://app?vid=62d8440f-bd31-4d32-a8a9-9b9c71c37df3"},"vehicle_type_id":"4","last_reported":1741284781,"current_range_meters":4800,"station_id":"cki0cbj6b192h4jlfktg","pricing_plan_id":"cebpf4jnsgd1na2vs0mg"},{"bike_id":"7109743d-aea4-4505-a44c-e7aa1c524ffd","system_id":"levelo_inurba_marseille","lat":43.26022,"lon":5.37054,"is_reserved":false,"is_disabled":false,"rental_uris":{"android":"levelo://app?vid=7109743d-aea4-4505-a44c-e7aa1c524ffd","ios":"levelo://app?vid=7109743d-aea4-4505-a44c-e7aa1c524ffd"},"vehicle_type_id":"4","last_reported":1741284781,"current_range_meters":4800,"station_id":"","pricing_plan_id":"cebpf4jnsgd1na2vs0mg"},{"bike_id":"da8d3626-71cf-49db-9257-2d236e452f60","system_id":"levelo_inurba_marseille","lat":43.29767,"lon":5.37109,"is_reserved":false,"is_disabled":false,"rental_uris":{"android":"levelo://app?vid=da8d3626-71cf-49db-9257-2d236e452f60","ios":"levelo://app?vid=da8d3626-71cf-49db-9257-2d236e452f60"},"vehicle_type_id":"4","last_reported":1741284781,"current_range_meters":4800,"station_id":"ce4bgop2rcd13ifvqc1g","pricing_plan_id":"cebpf4jnsgd1na2vs0mg"},{"bike_id":"07e87cdf-5879-464a-aa0f-597fb053b60e","system_id":"levelo_inurba_marseille","lat":43.30177,"lon":5.36612,"is_reserved":false,"is_disabled":false,"rental_uris":{"android":"levelo://app?vid=07e87cdf-5879-464a-aa0f-597fb053b60e","ios":"levelo://app?vid=07e87cdf-5879-464a-aa0f-597fb053b60e"},"vehicle_type_id":"4","last_reported":1741284781,"current_range_meters":5600,"station_id":"ce4bgrh2rcd13ifvqc8g","pricing_plan_id":"cebpf4jnsgd1na2vs0mg"},{"bike_id":"62b3e5e2-db63-4a70-8eff-c66e70e68e02","system_id":"levelo_inurba_marseille","lat":43.29619,"lon":5.37151,"is_reserved":false,"is_disabled":false,"rental_uris":{"android":"levelo://app?vid=62b3e5e2-db63-4a70-8eff-c66e70e68e02","ios":"levelo://app?vid=62b3e5e2-db63-4a70-8eff-c66e70e68e02"},"vehicle_type_id":"4","last_reported":1741284781,"current_range_meters":6000,"station_id":"ce4bgnh2rcd13ifvqc0g","pricing_plan_id":"cebpf4jnsgd1na2vs0mg"},{"bike_id":"1ab78c88-c6fa-4266-b7c7-bc4a69ab8821","system_id":"levelo_inurba_marseille","lat":43.297024,"lon":5.368116,"is_reserved":false,"is_disabled":false,"rental_uris":{"android":"levelo://app?vid=1ab78c88-c6fa-4266-b7c7-bc4a69ab8821","ios":"levelo://app?vid=1ab78c88-c6fa-4266-b7c7-bc4a69ab8821"},"vehicle_type_id":"4","last_reported":1741284781,"current_range_meters":5600,"station_id":"ce4bgm92rcd13ifvqbr0","pricing_plan_id":"cebpf4jnsgd1na2vs0mg"},{"bike_id":"a7ac2891-8325-49e9-a55c-d1e156c0743e","system_id":"levelo_inurba_marseille","lat":43.29533,"lon":5.37496,"is_reserved":false,"is_disabled":false,"rental_uris":{"android":"levelo://app?vid=a7ac2891-8325-49e9-a55c-d1e156c0743e","ios":"levelo://app?vid=a7ac2891-8325-49e9-a55c-d1e156c0743e"},"vehicle_type_id":"4","last_reported":1741284781,"current_range_meters":6000,"station_id":"ce4bgkp2rcd13ifvqbmg","pricing_plan_id":"cebpf4jnsgd1na2vs0mg"},{"bike_id":"896f0bc8-2eba-4b48-a4cb-bcb44ed68b93","system_id":"levelo_inurba_marseille","lat":43.29884,"lon":5.38445,"is_reserved":false,"is_disabled":false,"rental_uris":{"android":"levelo://app?vid=896f0bc8-2eba-4b48-a4cb-bcb44ed68b93","ios":"levelo://app?vid=896f0bc8-2eba-4b48-a4cb-bcb44ed68b93"},"vehicle_type_id":"4","last_reported":1741284781,"current_range_meters":6800,"station_id":"","pricing_plan_id":"cebpf4jnsgd1na2vs0mg"},{"bike_id":"c0c0e7d1-0979-4a5e-8d52-e763072835a3","system_id":"levelo_inurba_marseille","lat":43.26809,"lon":5.4027,"is_reserved":false,"is_disabled":false,"rental_uris":{"android":"levelo://app?vid=c0c0e7d1-0979-4a5e-8d52-e763072835a3","ios":"levelo://app?vid=c0c0e7d1-0979-4a5e-8d52-e763072835a3"},"vehicle_type_id":"4","last_reported":1741284781,"current_range_meters":6000,"station_id":"ce501612rcd8frsf0b60","pricing_plan_id":"cebpf4jnsgd1na2vs0mg"},{"bike_id":"1c69e312-449b-4131-beb5-e860ea51bea6","system_id":"levelo_inurba_marseille","lat":43.30135,"lon":5.38764,"is_reserved":false,"is_disabled":false,"rental_uris":{"android":"levelo://app?vid=1c69e312-449b-4131-beb5-e860ea51bea6","ios":"levelo://app?vid=1c69e312-449b-4131-beb5-e860ea51bea6"},"vehicle_type_id":"4","last_reported":1741284781,"current_range_meters":6000,"station_id":"ce4bghh2rcd13ifvqb60","pricing_plan_id":"cebpf4jnsgd1na2vs0mg"},{"bike_id":"6055d6b6-b351-41fa-94d5-880dfc9846d8","system_id":"levelo_inurba_marseille","lat":43.231933,"lon":5.355524,"is_reserved":false,"is_disabled":false,"rental_uris":{"android":"levelo://app?vid=6055d6b6-b351-41fa-94d5-880dfc9846d8","ios":"levelo://app?vid=6055d6b6-b351-41fa-94d5-880dfc9846d8"},"vehicle_type_id":"4","last_reported":1741284781,"current_range_meters":6000,"station_id":"ce4bhu92rcd13ifvqi70","pricing_plan_id":"cebpf4jnsgd1na2vs0mg"},{"bike_id":"e7eebde5-fcc4-45e5-8030-60a1af2f3d7c","system_id":"levelo_inurba_marseille","lat":43.28479,"lon":5.35778,"is_reserved":false,"is_disabled":false,"rental_uris":{"android":"levelo://app?vid=e7eebde5-fcc4-45e5-8030-60a1af2f3d7c","ios":"levelo://app?vid=e7eebde5-fcc4-45e5-8030-60a1af2f3d7c"},"vehicle_type_id":"4","last_reported":1741284781,"current_range_meters":6000,"station_id":"","pricing_plan_id":"cebpf4jnsgd1na2vs0mg"},{"bike_id":"32d1f900-0344-4b56-aaa5-564d19ec802c","system_id":"levelo_inurba_marseille","lat":43.2794,"lon":5.41039,"is_reserved":false,"is_disabled":false,"rental_uris":{"android":"levelo://app?vid=32d1f900-0344-4b56-aaa5-564d19ec802c","ios":"levelo://app?vid=32d1f900-0344-4b56-aaa5-564d19ec802c"},"vehicle_type_id":"4","last_reported":1741284781,"current_range_meters":6000,"station_id":"ce4bhnp2rcd13ifvqh0g","pricing_plan_id":"cebpf4jnsgd1na2vs0mg"},{"bike_id":"406c5a3d-d765-46b9-9f23-21f7d6bfc853","system_id":"levelo_inurba_marseille","lat":43.30609,"lon":5.37227,"is_reserved":false,"is_disabled":false,"rental_uris":{"android":"levelo://app?vid=406c5a3d-d765-46b9-9f23-21f7d6bfc853","ios":"levelo://app?vid=406c5a3d-d765-46b9-9f23-21f7d6bfc853"},"vehicle_type_id":"4","last_reported":1741284781,"current_range_meters":6400,"station_id":"ce4bgqh2rcd13ifvqc4g","pricing_plan_id":"cebpf4jnsgd1na2vs0mg"},{"bike_id":"98f22fbe-0d1f-4db7-8826-1934539aa916","system_id":"levelo_inurba_marseille","lat":43.29231,"lon":5.36074,"is_reserved":false,"is_disabled":false,"rental_uris":{"android":"levelo://app?vid=98f22fbe-0d1f-4db7-8826-1934539aa916","ios":"levelo://app?vid=98f22fbe-0d1f-4db7-8826-1934539aa916"},"vehicle_type_id":"4","last_reported":1741284781,"current_range_meters":6800,"station_id":"ce4bhbh2rcd13ifvqeqg","pricing_plan_id":"cebpf4jnsgd1na2vs0mg"},{"bike_id":"e114ceab-4b21-42b6-9fae-4f2c1b25c044","system_id":"levelo_inurba_marseille","lat":43.28773,"lon":5.37824,"is_reserved":false,"is_disabled":false,"rental_uris":{"android":"levelo://app?vid=e114ceab-4b21-42b6-9fae-4f2c1b25c044","ios":"levelo://app?vid=e114ceab-4b21-42b6-9fae-4f2c1b25c044"},"vehicle_type_id":"4","last_reported":1741284781,"current_range_meters":6400,"station_id":"","pricing_plan_id":"cebpf4jnsgd1na2vs0mg"},{"bike_id":"ecca4a4e-4f5c-47d3-808f-7dd85c76211b","system_id":"levelo_inurba_marseille","lat":43.26013,"lon":5.37545,"is_reserved":false,"is_disabled":false,"rental_uris":{"android":"levelo://app?vid=ecca4a4e-4f5c-47d3-808f-7dd85c76211b","ios":"levelo://app?vid=ecca4a4e-4f5c-47d3-808f-7dd85c76211b"},"vehicle_type_id":"4","last_reported":1741284781,"current_range_meters":6400,"station_id":"ce4bhgh2rcd13ifvqfa0","pricing_plan_id":"cebpf4jnsgd1na2vs0mg"},{"bike_id":"740df627-5ddd-4847-9d55-a8f5b4da2f4e","system_id":"levelo_inurba_marseille","lat":43.31594,"lon":5.40545,"is_reserved":false,"is_disabled":false,"rental_uris":{"android":"levelo://app?vid=740df627-5ddd-4847-9d55-a8f5b4da2f4e","ios":"levelo://app?vid=740df627-5ddd-4847-9d55-a8f5b4da2f4e"},"vehicle_type_id":"4","last_reported":1741284781,"current_range_meters":6400,"station_id":"","pricing_plan_id":"cebpf4jnsgd1na2vs0mg"},{"bike_id":"b0b5c115-e7b0-4f98-b875-a0a9a4fec19f","system_id":"levelo_inurba_marseille","lat":43.27954,"lon":5.41043,"is_reserved":false,"is_disabled":false,"rental_uris":{"android":"levelo://app?vid=b0b5c115-e7b0-4f98-b875-a0a9a4fec19f","ios":"levelo://app?vid=b0b5c115-e7b0-4f98-b875-a0a9a4fec19f"},"vehicle_type_id":"4","last_reported":1741284781,"current_range_meters":6400,"station_id":"ce4bhnp2rcd13ifvqh0g","pricing_plan_id":"cebpf4jnsgd1na2vs0mg"},{"bike_id":"f9fc3450-00c1-46c4-a8f0-75d5054525a7","system_id":"levelo_inurba_marseille","lat":43.23957,"lon":5.36633,"is_reserved":false,"is_disabled":false,"rental_uris":{"android":"levelo://app?vid=f9fc3450-00c1-46c4-a8f0-75d5054525a7","ios":"levelo://app?vid=f9fc3450-00c1-46c4-a8f0-75d5054525a7"},"vehicle_type_id":"4","last_reported":1741284781,"current_range_meters":6800,"station_id":"ce4bhi12rcd13ifvqfp0","pricing_plan_id":"cebpf4jnsgd1na2vs0mg"},{"bike_id":"da4ad5a4-7d47-4e82-b42b-6041e54ba5e9","system_id":"levelo_inurba_marseille","lat":43.301306,"lon":5.387788,"is_reserved":false,"is_disabled":false,"rental_uris":{"android":"levelo://app?vid=da4ad5a4-7d47-4e82-b42b-6041e54ba5e9","ios":"levelo://app?vid=da4ad5a4-7d47-4e82-b42b-6041e54ba5e9"},"vehicle_type_id":"4","last_reported":1741284781,"current_range_meters":6400,"station_id":"ce4bh612rcd13ifvqe6g","pricing_plan_id":"cebpf4jnsgd1na2vs0mg"},{"bike_id":"03c3dc7c-8ee4-444d-b4cb-ba42a05873bd","system_id":"levelo_inurba_marseille","lat":43.22927,"lon":5.35373,"is_reserved":false,"is_disabled":false,"rental_uris":{"android":"levelo://app?vid=03c3dc7c-8ee4-444d-b4cb-ba42a05873bd","ios":"levelo://app?vid=03c3dc7c-8ee4-444d-b4cb-ba42a05873bd"},"vehicle_type_id":"4","last_reported":1741284781,"current_range_meters":6800,"station_id":"cpo3532slgdg3j2ikp40","pricing_plan_id":"cebpf4jnsgd1na2vs0mg"},{"bike_id":"3fffc9cd-f418-41de-9fba-0cc23722d684","system_id":"levelo_inurba_marseille","lat":43.23067,"lon":5.35493,"is_reserved":false,"is_disabled":false,"rental_uris":{"android":"levelo://app?vid=3fffc9cd-f418-41de-9fba-0cc23722d684","ios":"levelo://app?vid=3fffc9cd-f418-41de-9fba-0cc23722d684"},"vehicle_type_id":"4","last_reported":1741284781,"current_range_meters":6800,"station_id":"cpo3342slgdg3j2ifvpg","pricing_plan_id":"cebpf4jnsgd1na2vs0mg"},{"bike_id":"fadc5597-2f44-411e-bbc9-b698e9edf980","system_id":"levelo_inurba_marseille","lat":43.27939,"lon":5.41098,"is_reserved":false,"is_disabled":false,"rental_uris":{"android":"levelo://app?vid=fadc5597-2f44-411e-bbc9-b698e9edf980","ios":"levelo://app?vid=fadc5597-2f44-411e-bbc9-b698e9edf980"},"vehicle_type_id":"4","last_reported":1741284781,"current_range_meters":6800,"station_id":"ce4bhnp2rcd13ifvqh0g","pricing_plan_id":"cebpf4jnsgd1na2vs0mg"},{"bike_id":"30b8be40-3d2e-4f7d-a831-74ba3450c49d","system_id":"levelo_inurba_marseille","lat":43.25982,"lon":5.39381,"is_reserved":false,"is_disabled":false,"rental_uris":{"android":"levelo://app?vid=30b8be40-3d2e-4f7d-a831-74ba3450c49d","ios":"levelo://app?vid=30b8be40-3d2e-4f7d-a831-74ba3450c49d"},"vehicle_type_id":"4","last_reported":1741284781,"current_range_meters":6800,"station_id":"ce4bhh92rcd13ifvqfj0","pricing_plan_id":"cebpf4jnsgd1na2vs0mg"},{"bike_id":"39c38cfa-a655-4c4d-9a6b-2a3ea23dd830","system_id":"levelo_inurba_marseille","lat":43.3031,"lon":5.39211,"is_reserved":false,"is_disabled":false,"rental_uris":{"android":"levelo://app?vid=39c38cfa-a655-4c4d-9a6b-2a3ea23dd830","ios":"levelo://app?vid=39c38cfa-a655-4c4d-9a6b-2a3ea23dd830"},"vehicle_type_id":"4","last_reported":1741284781,"current_range_meters":7200,"station_id":"ce4bgkh2rcd13ifvqbk0","pricing_plan_id":"cebpf4jnsgd1na2vs0mg"},{"bike_id":"0be41468-b95a-42d1-8593-6b25ee40c333","system_id":"levelo_inurba_marseille","lat":43.29867,"lon":5.39735,"is_reserved":false,"is_disabled":false,"rental_uris":{"android":"levelo://app?vid=0be41468-b95a-42d1-8593-6b25ee40c333","ios":"levelo://app?vid=0be41468-b95a-42d1-8593-6b25ee40c333"},"vehicle_type_id":"4","last_reported":1741284781,"current_range_meters":8000,"station_id":"ce4bh0h2rcd13ifvqd50","pricing_plan_id":"cebpf4jnsgd1na2vs0mg"},{"bike_id":"77ae1912-8e6f-489b-99a2-9bc231f96cf9","system_id":"levelo_inurba_marseille","lat":43.25573,"lon":5.38235,"is_reserved":false,"is_disabled":false,"rental_uris":{"android":"levelo://app?vid=77ae1912-8e6f-489b-99a2-9bc231f96cf9","ios":"levelo://app?vid=77ae1912-8e6f-489b-99a2-9bc231f96cf9"},"vehicle_type_id":"4","last_reported":1741284781,"current_range_meters":7200,"station_id":"ce4bhih2rcd13ifvqfs0","pricing_plan_id":"cebpf4jnsgd1na2vs0mg"},{"bike_id":"e9288ad8-8f47-4a7b-a66f-0bd387564075","system_id":"levelo_inurba_marseille","lat":43.28437,"lon":5.39199,"is_reserved":false,"is_disabled":false,"rental_uris":{"android":"levelo://app?vid=e9288ad8-8f47-4a7b-a66f-0bd387564075","ios":"levelo://app?vid=e9288ad8-8f47-4a7b-a66f-0bd387564075"},"vehicle_type_id":"4","last_reported":1741284781,"current_range_meters":7200,"station_id":"ce4bhoh2rcd13ifvqh5g","pricing_plan_id":"cebpf4jnsgd1na2vs0mg"},{"bike_id":"282cc83a-d77f-459c-bf51-86dd87b108a2","system_id":"levelo_inurba_marseille","lat":43.29963,"lon":5.38496,"is_reserved":false,"is_disabled":false,"rental_uris":{"android":"levelo://app?vid=282cc83a-d77f-459c-bf51-86dd87b108a2","ios":"levelo://app?vid=282cc83a-d77f-459c-bf51-86dd87b108a2"},"vehicle_type_id":"4","last_reported":1741284781,"current_range_meters":7200,"station_id":"ce4bgj92rcd13ifvqbd0","pricing_plan_id":"cebpf4jnsgd1na2vs0mg"},{"bike_id":"3e28e9f6-3296-41c5-b8b5-d93e3f407e39","system_id":"levelo_inurba_marseille","lat":43.29699,"lon":5.36608,"is_reserved":false,"is_disabled":false,"rental_uris":{"android":"levelo://app?vid=3e28e9f6-3296-41c5-b8b5-d93e3f407e39","ios":"levelo://app?vid=3e28e9f6-3296-41c5-b8b5-d93e3f407e39"},"vehicle_type_id":"4","last_reported":1741284781,"current_range_meters":7200,"station_id":"ce4bgn12rcd13ifvqbt0","pricing_plan_id":"cebpf4jnsgd1na2vs0mg"},{"bike_id":"a05cf1bf-1511-44e5-8f36-51c70c61e626","system_id":"levelo_inurba_marseille","lat":43.29534,"lon":5.39402,"is_reserved":false,"is_disabled":false,"rental_uris":{"android":"levelo://app?vid=a05cf1bf-1511-44e5-8f36-51c70c61e626","ios":"levelo://app?vid=a05cf1bf-1511-44e5-8f36-51c70c61e626"},"vehicle_type_id":"4","last_reported":1741284781,"current_range_meters":7200,"station_id":"ce4bh292rcd13ifvqdf0","pricing_plan_id":"cebpf4jnsgd1na2vs0mg"},{"bike_id":"4d773120-aa67-48c0-b12e-add21e9d8998","system_id":"levelo_inurba_marseille","lat":43.29608,"lon":5.38103,"is_reserved":false,"is_disabled":false,"rental_uris":{"android":"levelo://app?vid=4d773120-aa67-48c0-b12e-add21e9d8998","ios":"levelo://app?vid=4d773120-aa67-48c0-b12e-add21e9d8998"},"vehicle_type_id":"4","last_reported":1741284781,"current_range_meters":7200,"station_id":"ce4bgl12rcd13ifvqbo0","pricing_plan_id":"cebpf4jnsgd1na2vs0mg"},{"bike_id":"7a57eeed-8044-4892-8eff-d8893238f4a6","system_id":"levelo_inurba_marseille","lat":43.23212,"lon":5.39997,"is_reserved":false,"is_disabled":false,"rental_uris":{"android":"levelo://app?vid=7a57eeed-8044-4892-8eff-d8893238f4a6","ios":"levelo://app?vid=7a57eeed-8044-4892-8eff-d8893238f4a6"},"vehicle_type_id":"4","last_reported":1741284781,"current_range_meters":7200,"station_id":"ce4bhn12rcd13ifvqgqg","pricing_plan_id":"cebpf4jnsgd1na2vs0mg"},{"bike_id":"c201fcaa-24e0-4800-8544-9d0c7461c8bf","system_id":"levelo_inurba_marseille","lat":43.311882,"lon":5.387113,"is_reserved":false,"is_disabled":false,"rental_uris":{"android":"levelo://app?vid=c201fcaa-24e0-4800-8544-9d0c7461c8bf","ios":"levelo://app?vid=c201fcaa-24e0-4800-8544-9d0c7461c8bf"},"vehicle_type_id":"4","last_reported":1741284781,"current_range_meters":7200,"station_id":"ce4bgv12rcd13ifvqcp0","pricing_plan_id":"cebpf4jnsgd1na2vs0mg"},{"bike_id":"daf98a46-a6cf-4115-b47b-5946565d0098","system_id":"levelo_inurba_marseille","lat":43.2893,"lon":5.38397,"is_reserved":false,"is_disabled":false,"rental_uris":{"android":"levelo://app?vid=daf98a46-a6cf-4115-b47b-5946565d0098","ios":"levelo://app?vid=daf98a46-a6cf-4115-b47b-5946565d0098"},"vehicle_type_id":"4","last_reported":1741284781,"current_range_meters":7200,"station_id":"ce4bh612rcd13ifvqe6g","pricing_plan_id":"cebpf4jnsgd1na2vs0mg"},{"bike_id":"a2c103e1-123c-4853-8b06-2a6dc7bfb6d0","system_id":"levelo_inurba_marseille","lat":43.29994,"lon":5.38515,"is_reserved":false,"is_disabled":false,"rental_uris":{"android":"levelo://app?vid=a2c103e1-123c-4853-8b06-2a6dc7bfb6d0","ios":"levelo://app?vid=a2c103e1-123c-4853-8b06-2a6dc7bfb6d0"},"vehicle_type_id":"4","last_reported":1741284781,"current_range_meters":7200,"station_id":"ce4bgj92rcd13ifvqbd0","pricing_plan_id":"cebpf4jnsgd1na2vs0mg"},{"bike_id":"7877505a-9750-4cb4-b3f0-ea17361ee221","system_id":"levelo_inurba_marseille","lat":43.27812,"lon":5.40716,"is_reserved":false,"is_disabled":false,"rental_uris":{"android":"levelo://app?vid=7877505a-9750-4cb4-b3f0-ea17361ee221","ios":"levelo://app?vid=7877505a-9750-4cb4-b3f0-ea17361ee221"},"vehicle_type_id":"4","last_reported":1741284781,"current_range_meters":7200,"station_id":"ce4bhnh2rcd13ifvqgtg","pricing_plan_id":"cebpf4jnsgd1na2vs0mg"},{"bike_id":"9bfe4e82-241b-4620-b471-d226beb88b23","system_id":"levelo_inurba_marseille","lat":43.22932,"lon":5.35386,"is_reserved":false,"is_disabled":false,"rental_uris":{"android":"levelo://app?vid=9bfe4e82-241b-4620-b471-d226beb88b23","ios":"levelo://app?vid=9bfe4e82-241b-4620-b471-d226beb88b23"},"vehicle_type_id":"4","last_reported":1741284781,"current_range_meters":7200,"station_id":"cpo3532slgdg3j2ikp40","pricing_plan_id":"cebpf4jnsgd1na2vs0mg"},{"bike_id":"7b3dc7b9-ed95-4fac-b8db-fb164e0e0a08","system_id":"levelo_inurba_marseille","lat":43.27492,"lon":5.42454,"is_reserved":false,"is_disabled":true,"rental_uris":{"android":"levelo://app?vid=7b3dc7b9-ed95-4fac-b8db-fb164e0e0a08","ios":"levelo://app?vid=7b3dc7b9-ed95-4fac-b8db-fb164e0e0a08"},"vehicle_type_id":"4","last_reported":1741284781,"current_range_meters":7200,"station_id":"ce4bhn92rcd13ifvqgrg","pricing_plan_id":"cebpf4jnsgd1na2vs0mg"},{"bike_id":"853154b5-8925-42f6-b73b-a83a6335302f","system_id":"levelo_inurba_marseille","lat":43.2873,"lon":5.3608,"is_reserved":false,"is_disabled":false,"rental_uris":{"android":"levelo://app?vid=853154b5-8925-42f6-b73b-a83a6335302f","ios":"levelo://app?vid=853154b5-8925-42f6-b73b-a83a6335302f"},"vehicle_type_id":"4","last_reported":1741284781,"current_range_meters":8000,"station_id":"cki0cbj6b192h4jlfktg","pricing_plan_id":"cebpf4jnsgd1na2vs0mg"},{"bike_id":"1febbc94-cf8a-4a7e-900e-1f2ddb4b67c0","system_id":"levelo_inurba_marseille","lat":43.32334,"lon":5.4062,"is_reserved":false,"is_disabled":false,"rental_uris":{"android":"levelo://app?vid=1febbc94-cf8a-4a7e-900e-1f2ddb4b67c0","ios":"levelo://app?vid=1febbc94-cf8a-4a7e-900e-1f2ddb4b67c0"},"vehicle_type_id":"4","last_reported":1741284781,"current_range_meters":8000,"station_id":"ce4bhq92rcd13ifvqhjg","pricing_plan_id":"cebpf4jnsgd1na2vs0mg"},{"bike_id":"d2fd960f-0af3-4bf9-bd6a-b0c4aa4544af","system_id":"levelo_inurba_marseille","lat":43.23174,"lon":5.40007,"is_reserved":false,"is_disabled":false,"rental_uris":{"android":"levelo://app?vid=d2fd960f-0af3-4bf9-bd6a-b0c4aa4544af","ios":"levelo://app?vid=d2fd960f-0af3-4bf9-bd6a-b0c4aa4544af"},"vehicle_type_id":"4","last_reported":1741284781,"current_range_meters":8000,"station_id":"ce4bhn12rcd13ifvqgqg","pricing_plan_id":"cebpf4jnsgd1na2vs0mg"},{"bike_id":"7bdf6528-cded-4e31-bdcd-05e5503236cb","system_id":"levelo_inurba_marseille","lat":43.30796,"lon":5.43522,"is_reserved":false,"is_disabled":false,"rental_uris":{"android":"levelo://app?vid=7bdf6528-cded-4e31-bdcd-05e5503236cb","ios":"levelo://app?vid=7bdf6528-cded-4e31-bdcd-05e5503236cb"},"vehicle_type_id":"4","last_reported":1741284781,"current_range_meters":8000,"station_id":"ce4bhph2rcd13ifvqheg","pricing_plan_id":"cebpf4jnsgd1na2vs0mg"},{"bike_id":"382fce30-122b-494b-b948-62b0a1f0c5e2","system_id":"levelo_inurba_marseille","lat":43.30351,"lon":5.41885,"is_reserved":false,"is_disabled":false,"rental_uris":{"android":"levelo://app?vid=382fce30-122b-494b-b948-62b0a1f0c5e2","ios":"levelo://app?vid=382fce30-122b-494b-b948-62b0a1f0c5e2"},"vehicle_type_id":"4","last_reported":1741284781,"current_range_meters":8000,"station_id":"ce4bhop2rcd13ifvqh7g","pricing_plan_id":"cebpf4jnsgd1na2vs0mg"},{"bike_id":"c02718d2-20cf-4c51-b231-08ba621c84d3","system_id":"levelo_inurba_marseille","lat":43.27803,"lon":5.40715,"is_reserved":false,"is_disabled":false,"rental_uris":{"android":"levelo://app?vid=c02718d2-20cf-4c51-b231-08ba621c84d3","ios":"levelo://app?vid=c02718d2-20cf-4c51-b231-08ba621c84d3"},"vehicle_type_id":"4","last_reported":1741284781,"current_range_meters":8000,"station_id":"ce4bhnh2rcd13ifvqgtg","pricing_plan_id":"cebpf4jnsgd1na2vs0mg"},{"bike_id":"190dd6cb-533e-4681-a747-9e41c3808569","system_id":"levelo_inurba_marseille","lat":43.28724,"lon":5.36089,"is_reserved":false,"is_disabled":false,"rental_uris":{"android":"levelo://app?vid=190dd6cb-533e-4681-a747-9e41c3808569","ios":"levelo://app?vid=190dd6cb-533e-4681-a747-9e41c3808569"},"vehicle_type_id":"4","last_reported":1741284781,"current_range_meters":8000,"station_id":"cki0cbj6b192h4jlfktg","pricing_plan_id":"cebpf4jnsgd1na2vs0mg"},{"bike_id":"e7cc143e-91dd-443f-b40d-50c4d05d4c34","system_id":"levelo_inurba_marseille","lat":43.28837,"lon":5.35908,"is_reserved":false,"is_disabled":false,"rental_uris":{"android":"levelo://app?vid=e7cc143e-91dd-443f-b40d-50c4d05d4c34","ios":"levelo://app?vid=e7cc143e-91dd-443f-b40d-50c4d05d4c34"},"vehicle_type_id":"4","last_reported":1741284781,"current_range_meters":8000,"station_id":"ce4bhb12rcd13ifvqem0","pricing_plan_id":"cebpf4jnsgd1na2vs0mg"},{"bike_id":"489afd56-bbda-4137-94bc-7d06155ceed5","system_id":"levelo_inurba_marseille","lat":43.29787,"lon":5.38105,"is_reserved":false,"is_disabled":false,"rental_uris":{"android":"levelo://app?vid=489afd56-bbda-4137-94bc-7d06155ceed5","ios":"levelo://app?vid=489afd56-bbda-4137-94bc-7d06155ceed5"},"vehicle_type_id":"4","last_reported":1741284781,"current_range_meters":8400,"station_id":"ce4bgip2rcd13ifvqbb0","pricing_plan_id":"cebpf4jnsgd1na2vs0mg"},{"bike_id":"fdde8103-1f2a-4455-bcfa-e1d74ecb0194","system_id":"levelo_inurba_marseille","lat":43.278066,"lon":5.407188,"is_reserved":false,"is_disabled":false,"rental_uris":{"android":"levelo://app?vid=fdde8103-1f2a-4455-bcfa-e1d74ecb0194","ios":"levelo://app?vid=fdde8103-1f2a-4455-bcfa-e1d74ecb0194"},"vehicle_type_id":"4","last_reported":1741284781,"current_range_meters":8400,"station_id":"ce4bhnh2rcd13ifvqgtg","pricing_plan_id":"cebpf4jnsgd1na2vs0mg"},{"bike_id":"fd9089bb-9606-4b0a-97ec-47ae66412964","system_id":"levelo_inurba_marseille","lat":43.29907,"lon":5.39743,"is_reserved":false,"is_disabled":false,"rental_uris":{"android":"levelo://app?vid=fd9089bb-9606-4b0a-97ec-47ae66412964","ios":"levelo://app?vid=fd9089bb-9606-4b0a-97ec-47ae66412964"},"vehicle_type_id":"4","last_reported":1741284781,"current_range_meters":8400,"station_id":"ce4bh0h2rcd13ifvqd50","pricing_plan_id":"cebpf4jnsgd1na2vs0mg"},{"bike_id":"19f34eeb-6c96-40c5-a037-bb869cc63367","system_id":"levelo_inurba_marseille","lat":43.29435,"lon":5.39742,"is_reserved":false,"is_disabled":false,"rental_uris":{"android":"levelo://app?vid=19f34eeb-6c96-40c5-a037-bb869cc63367","ios":"levelo://app?vid=19f34eeb-6c96-40c5-a037-bb869cc63367"},"vehicle_type_id":"4","last_reported":1741284781,"current_range_meters":8400,"station_id":"ce4bh3h2rcd13ifvqdo0","pricing_plan_id":"cebpf4jnsgd1na2vs0mg"},{"bike_id":"524470ee-5afb-4f8a-b4b1-91fa19aa2b60","system_id":"levelo_inurba_marseille","lat":43.24544,"lon":5.39517,"is_reserved":false,"is_disabled":true,"rental_uris":{"android":"levelo://app?vid=524470ee-5afb-4f8a-b4b1-91fa19aa2b60","ios":"levelo://app?vid=524470ee-5afb-4f8a-b4b1-91fa19aa2b60"},"vehicle_type_id":"4","last_reported":1741284781,"current_range_meters":8400,"station_id":"ce4bhlp2rcd13ifvqgjg","pricing_plan_id":"cebpf4jnsgd1na2vs0mg"},{"bike_id":"cd08c6f9-0506-4798-be3f-da9cffa0176b","system_id":"levelo_inurba_marseille","lat":43.32656,"lon":5.40995,"is_reserved":false,"is_disabled":false,"rental_uris":{"android":"levelo://app?vid=cd08c6f9-0506-4798-be3f-da9cffa0176b","ios":"levelo://app?vid=cd08c6f9-0506-4798-be3f-da9cffa0176b"},"vehicle_type_id":"4","last_reported":1741284781,"current_range_meters":8400,"station_id":"ce4bhpp2rcd13ifvqhgg","pricing_plan_id":"cebpf4jnsgd1na2vs0mg"},{"bike_id":"c4495b60-2d37-4f31-9128-926a0a1b2a09","system_id":"levelo_inurba_marseille","lat":43.29778,"lon":5.38101,"is_reserved":false,"is_disabled":false,"rental_uris":{"android":"levelo://app?vid=c4495b60-2d37-4f31-9128-926a0a1b2a09","ios":"levelo://app?vid=c4495b60-2d37-4f31-9128-926a0a1b2a09"},"vehicle_type_id":"4","last_reported":1741284781,"current_range_meters":8400,"station_id":"ce4bgip2rcd13ifvqbb0","pricing_plan_id":"cebpf4jnsgd1na2vs0mg"},{"bike_id":"1aab02cc-a24d-41c1-baaf-5db4ca838ec3","system_id":"levelo_inurba_marseille","lat":43.29976,"lon":5.37172,"is_reserved":false,"is_disabled":false,"rental_uris":{"android":"levelo://app?vid=1aab02cc-a24d-41c1-baaf-5db4ca838ec3","ios":"levelo://app?vid=1aab02cc-a24d-41c1-baaf-5db4ca838ec3"},"vehicle_type_id":"4","last_reported":1741284781,"current_range_meters":8800,"station_id":"ce4bgr92rcd13ifvqc7g","pricing_plan_id":"cebpf4jnsgd1na2vs0mg"},{"bike_id":"e0c0bec3-454a-410d-a60f-3aed516ec149","system_id":"levelo_inurba_marseille","lat":43.23189,"lon":5.35542,"is_reserved":false,"is_disabled":false,"rental_uris":{"android":"levelo://app?vid=e0c0bec3-454a-410d-a60f-3aed516ec149","ios":"levelo://app?vid=e0c0bec3-454a-410d-a60f-3aed516ec149"},"vehicle_type_id":"4","last_reported":1741284781,"current_range_meters":8800,"station_id":"ce4bhu92rcd13ifvqi70","pricing_plan_id":"cebpf4jnsgd1na2vs0mg"},{"bike_id":"b35b1271-68f5-4993-ad3b-cc98ac0a2592","system_id":"levelo_inurba_marseille","lat":43.30422,"lon":5.38901,"is_reserved":false,"is_disabled":false,"rental_uris":{"android":"levelo://app?vid=b35b1271-68f5-4993-ad3b-cc98ac0a2592","ios":"levelo://app?vid=b35b1271-68f5-4993-ad3b-cc98ac0a2592"},"vehicle_type_id":"4","last_reported":1741284781,"current_range_meters":8800,"station_id":"ce4bgk12rcd13ifvqbi0","pricing_plan_id":"cebpf4jnsgd1na2vs0mg"},{"bike_id":"d81b6974-68b9-4f31-8943-e1980de6b8cc","system_id":"levelo_inurba_marseille","lat":43.29568,"lon":5.39986,"is_reserved":false,"is_disabled":false,"rental_uris":{"android":"levelo://app?vid=d81b6974-68b9-4f31-8943-e1980de6b8cc","ios":"levelo://app?vid=d81b6974-68b9-4f31-8943-e1980de6b8cc"},"vehicle_type_id":"4","last_reported":1741284781,"current_range_meters":9200,"station_id":"ce4bh312rcd13ifvqdj0","pricing_plan_id":"cebpf4jnsgd1na2vs0mg"},{"bike_id":"419b257d-02d9-4b2f-ab11-9f524acbf06f","system_id":"levelo_inurba_marseille","lat":43.30901,"lon":5.36843,"is_reserved":false,"is_disabled":false,"rental_uris":{"android":"levelo://app?vid=419b257d-02d9-4b2f-ab11-9f524acbf06f","ios":"levelo://app?vid=419b257d-02d9-4b2f-ab11-9f524acbf06f"},"vehicle_type_id":"4","last_reported":1741284781,"current_range_meters":8800,"station_id":"ce4bgn92rcd13ifvqbvg","pricing_plan_id":"cebpf4jnsgd1na2vs0mg"},{"bike_id":"2c26e70c-34ac-4740-a161-faf117671fa1","system_id":"levelo_inurba_marseille","lat":43.28854,"lon":5.35859,"is_reserved":false,"is_disabled":false,"rental_uris":{"android":"levelo://app?vid=2c26e70c-34ac-4740-a161-faf117671fa1","ios":"levelo://app?vid=2c26e70c-34ac-4740-a161-faf117671fa1"},"vehicle_type_id":"4","last_reported":1741284781,"current_range_meters":8800,"station_id":"ce4bhb12rcd13ifvqem0","pricing_plan_id":"cebpf4jnsgd1na2vs0mg"},{"bike_id":"a4088eb0-3a76-445d-932c-65dbfe7ceeb9","system_id":"levelo_inurba_marseille","lat":43.28461,"lon":5.35886,"is_reserved":false,"is_disabled":false,"rental_uris":{"android":"levelo://app?vid=a4088eb0-3a76-445d-932c-65dbfe7ceeb9","ios":"levelo://app?vid=a4088eb0-3a76-445d-932c-65dbfe7ceeb9"},"vehicle_type_id":"4","last_reported":1741284781,"current_range_meters":8800,"station_id":"ce4bhah2rcd13ifvqei0","pricing_plan_id":"cebpf4jnsgd1na2vs0mg"},{"bike_id":"3c5e0350-07a6-4d3d-b526-00ffb41b6d3e","system_id":"levelo_inurba_marseille","lat":43.27946,"lon":5.41046,"is_reserved":false,"is_disabled":false,"rental_uris":{"android":"levelo://app?vid=3c5e0350-07a6-4d3d-b526-00ffb41b6d3e","ios":"levelo://app?vid=3c5e0350-07a6-4d3d-b526-00ffb41b6d3e"},"vehicle_type_id":"4","last_reported":1741284781,"current_range_meters":8800,"station_id":"ce4bhnp2rcd13ifvqh0g","pricing_plan_id":"cebpf4jnsgd1na2vs0mg"},{"bike_id":"1b01b352-f34b-4144-808a-76bfd52bc20a","system_id":"levelo_inurba_marseille","lat":43.29038,"lon":5.38663,"is_reserved":false,"is_disabled":false,"rental_uris":{"android":"levelo://app?vid=1b01b352-f34b-4144-808a-76bfd52bc20a","ios":"levelo://app?vid=1b01b352-f34b-4144-808a-76bfd52bc20a"},"vehicle_type_id":"4","last_reported":1741284781,"current_range_meters":8400,"station_id":"ce4bh4p2rcd13ifvqe0g","pricing_plan_id":"cebpf4jnsgd1na2vs0mg"},{"bike_id":"f835423c-d0a0-415b-a19a-1364a0da8083","system_id":"levelo_inurba_marseille","lat":43.26721,"lon":5.38348,"is_reserved":false,"is_disabled":false,"rental_uris":{"android":"levelo://app?vid=f835423c-d0a0-415b-a19a-1364a0da8083","ios":"levelo://app?vid=f835423c-d0a0-415b-a19a-1364a0da8083"},"vehicle_type_id":"4","last_reported":1741284781,"current_range_meters":8800,"station_id":"","pricing_plan_id":"cebpf4jnsgd1na2vs0mg"},{"bike_id":"fd570e3e-777b-4122-9306-c335bf003eb6","system_id":"levelo_inurba_marseille","lat":43.2318,"lon":5.39981,"is_reserved":false,"is_disabled":false,"rental_uris":{"android":"levelo://app?vid=fd570e3e-777b-4122-9306-c335bf003eb6","ios":"levelo://app?vid=fd570e3e-777b-4122-9306-c335bf003eb6"},"vehicle_type_id":"4","last_reported":1741284781,"current_range_meters":8800,"station_id":"ce4bhn12rcd13ifvqgqg","pricing_plan_id":"cebpf4jnsgd1na2vs0mg"},{"bike_id":"81220ab9-fb8e-4638-a084-692a6595df85","system_id":"levelo_inurba_marseille","lat":43.26185,"lon":5.42071,"is_reserved":false,"is_disabled":false,"rental_uris":{"android":"levelo://app?vid=81220ab9-fb8e-4638-a084-692a6595df85","ios":"levelo://app?vid=81220ab9-fb8e-4638-a084-692a6595df85"},"vehicle_type_id":"4","last_reported":1741284781,"current_range_meters":8800,"station_id":"","pricing_plan_id":"cebpf4jnsgd1na2vs0mg"},{"bike_id":"9035d923-f017-42ed-9d59-30f7b8e6dfec","system_id":"levelo_inurba_marseille","lat":43.29579,"lon":5.36738,"is_reserved":false,"is_disabled":false,"rental_uris":{"android":"levelo://app?vid=9035d923-f017-42ed-9d59-30f7b8e6dfec","ios":"levelo://app?vid=9035d923-f017-42ed-9d59-30f7b8e6dfec"},"vehicle_type_id":"4","last_reported":1741284781,"current_range_meters":8400,"station_id":"ce4bgph2rcd13ifvqc2g","pricing_plan_id":"cebpf4jnsgd1na2vs0mg"},{"bike_id":"a414f9d5-ead8-40e1-978f-2fb582b5b300","system_id":"levelo_inurba_marseille","lat":43.3033,"lon":5.40436,"is_reserved":false,"is_disabled":false,"rental_uris":{"android":"levelo://app?vid=a414f9d5-ead8-40e1-978f-2fb582b5b300","ios":"levelo://app?vid=a414f9d5-ead8-40e1-978f-2fb582b5b300"},"vehicle_type_id":"4","last_reported":1741284781,"current_range_meters":8800,"station_id":"ce4bh012rcd13ifvqd10","pricing_plan_id":"cebpf4jnsgd1na2vs0mg"},{"bike_id":"354ac734-68aa-4048-916a-5d6970b72179","system_id":"levelo_inurba_marseille","lat":43.29417,"lon":5.38622,"is_reserved":false,"is_disabled":false,"rental_uris":{"android":"levelo://app?vid=354ac734-68aa-4048-916a-5d6970b72179","ios":"levelo://app?vid=354ac734-68aa-4048-916a-5d6970b72179"},"vehicle_type_id":"4","last_reported":1741284781,"current_range_meters":8800,"station_id":"ce4bh2h2rcd13ifvqdh0","pricing_plan_id":"cebpf4jnsgd1na2vs0mg"},{"bike_id":"d565de62-a75e-4540-a716-2366f9ace30f","system_id":"levelo_inurba_marseille","lat":43.28153,"lon":5.42643,"is_reserved":false,"is_disabled":false,"rental_uris":{"android":"levelo://app?vid=d565de62-a75e-4540-a716-2366f9ace30f","ios":"levelo://app?vid=d565de62-a75e-4540-a716-2366f9ace30f"},"vehicle_type_id":"4","last_reported":1741284781,"current_range_meters":8800,"station_id":"ce4bhnh2rcd13ifvqgug","pricing_plan_id":"cebpf4jnsgd1na2vs0mg"},{"bike_id":"cf077957-95b0-4f0f-87e3-4e0a7f0fc16e","system_id":"levelo_inurba_marseille","lat":43.29774,"lon":5.38114,"is_reserved":false,"is_disabled":false,"rental_uris":{"android":"levelo://app?vid=cf077957-95b0-4f0f-87e3-4e0a7f0fc16e","ios":"levelo://app?vid=cf077957-95b0-4f0f-87e3-4e0a7f0fc16e"},"vehicle_type_id":"4","last_reported":1741284781,"current_range_meters":8800,"station_id":"ce4bgip2rcd13ifvqbb0","pricing_plan_id":"cebpf4jnsgd1na2vs0mg"},{"bike_id":"3fb2a9d8-d683-442a-b786-8e0e7d6f5dbf","system_id":"levelo_inurba_marseille","lat":43.29557,"lon":5.39944,"is_reserved":false,"is_disabled":false,"rental_uris":{"android":"levelo://app?vid=3fb2a9d8-d683-442a-b786-8e0e7d6f5dbf","ios":"levelo://app?vid=3fb2a9d8-d683-442a-b786-8e0e7d6f5dbf"},"vehicle_type_id":"4","last_reported":1741284781,"current_range_meters":9200,"station_id":"ce4bh312rcd13ifvqdj0","pricing_plan_id":"cebpf4jnsgd1na2vs0mg"},{"bike_id":"7f1905bf-da4d-4f13-af14-c5d46804e585","system_id":"levelo_inurba_marseille","lat":43.23189,"lon":5.35552,"is_reserved":false,"is_disabled":false,"rental_uris":{"android":"levelo://app?vid=7f1905bf-da4d-4f13-af14-c5d46804e585","ios":"levelo://app?vid=7f1905bf-da4d-4f13-af14-c5d46804e585"},"vehicle_type_id":"4","last_reported":1741284781,"current_range_meters":9200,"station_id":"ce4bhu92rcd13ifvqi70","pricing_plan_id":"cebpf4jnsgd1na2vs0mg"},{"bike_id":"c5d9a748-fb84-4751-9008-dc4467d9ed9a","system_id":"levelo_inurba_marseille","lat":43.23184,"lon":5.35546,"is_reserved":false,"is_disabled":false,"rental_uris":{"android":"levelo://app?vid=c5d9a748-fb84-4751-9008-dc4467d9ed9a","ios":"levelo://app?vid=c5d9a748-fb84-4751-9008-dc4467d9ed9a"},"vehicle_type_id":"4","last_reported":1741284781,"current_range_meters":9200,"station_id":"ce4bhu92rcd13ifvqi70","pricing_plan_id":"cebpf4jnsgd1na2vs0mg"},{"bike_id":"b2c94af5-bdff-4efc-819d-12cc6aa4c843","system_id":"levelo_inurba_marseille","lat":43.24071,"lon":5.3776,"is_reserved":false,"is_disabled":false,"rental_uris":{"android":"levelo://app?vid=b2c94af5-bdff-4efc-819d-12cc6aa4c843","ios":"levelo://app?vid=b2c94af5-bdff-4efc-819d-12cc6aa4c843"},"vehicle_type_id":"4","last_reported":1741284781,"current_range_meters":9600,"station_id":"ce4bhnp2rcd13ifvqgvg","pricing_plan_id":"cebpf4jnsgd1na2vs0mg"},{"bike_id":"c262f8cf-6400-4efd-af91-c8aabadab203","system_id":"levelo_inurba_marseille","lat":43.23184,"lon":5.39993,"is_reserved":false,"is_disabled":false,"rental_uris":{"android":"levelo://app?vid=c262f8cf-6400-4efd-af91-c8aabadab203","ios":"levelo://app?vid=c262f8cf-6400-4efd-af91-c8aabadab203"},"vehicle_type_id":"4","last_reported":1741284781,"current_range_meters":9600,"station_id":"ce4bhn12rcd13ifvqgqg","pricing_plan_id":"cebpf4jnsgd1na2vs0mg"},{"bike_id":"5e124b92-5f14-4e9a-ab24-a8d04db7cbc3","system_id":"levelo_inurba_marseille","lat":43.27892,"lon":5.38003,"is_reserved":false,"is_disabled":false,"rental_uris":{"android":"levelo://app?vid=5e124b92-5f14-4e9a-ab24-a8d04db7cbc3","ios":"levelo://app?vid=5e124b92-5f14-4e9a-ab24-a8d04db7cbc3"},"vehicle_type_id":"4","last_reported":1741284781,"current_range_meters":9200,"station_id":"ce4bhf92rcd13ifvqf50","pricing_plan_id":"cebpf4jnsgd1na2vs0mg"},{"bike_id":"8e82289d-34de-432b-b1fd-90834afb0308","system_id":"levelo_inurba_marseille","lat":43.30429,"lon":5.38878,"is_reserved":false,"is_disabled":false,"rental_uris":{"android":"levelo://app?vid=8e82289d-34de-432b-b1fd-90834afb0308","ios":"levelo://app?vid=8e82289d-34de-432b-b1fd-90834afb0308"},"vehicle_type_id":"4","last_reported":1741284781,"current_range_meters":8000,"station_id":"ce4bgk12rcd13ifvqbi0","pricing_plan_id":"cebpf4jnsgd1na2vs0mg"},{"bike_id":"5f7bf85d-6244-4650-8527-7f59a902fc40","system_id":"levelo_inurba_marseille","lat":43.29259,"lon":5.38443,"is_reserved":false,"is_disabled":false,"rental_uris":{"android":"levelo://app?vid=5f7bf85d-6244-4650-8527-7f59a902fc40","ios":"levelo://app?vid=5f7bf85d-6244-4650-8527-7f59a902fc40"},"vehicle_type_id":"4","last_reported":1741284781,"current_range_meters":9600,"station_id":"ce4bh692rcd13ifvqea0","pricing_plan_id":"cebpf4jnsgd1na2vs0mg"},{"bike_id":"7241144b-a7e3-4eae-baa2-f8cc6697a77d","system_id":"levelo_inurba_marseille","lat":43.284,"lon":5.37517,"is_reserved":false,"is_disabled":false,"rental_uris":{"android":"levelo://app?vid=7241144b-a7e3-4eae-baa2-f8cc6697a77d","ios":"levelo://app?vid=7241144b-a7e3-4eae-baa2-f8cc6697a77d"},"vehicle_type_id":"4","last_reported":1741284781,"current_range_meters":9600,"station_id":"ce4bh412rcd13ifvqds0","pricing_plan_id":"cebpf4jnsgd1na2vs0mg"},{"bike_id":"73b34e01-4f4e-4b13-9244-44a3d350d42d","system_id":"levelo_inurba_marseille","lat":43.28333,"lon":5.4324,"is_reserved":false,"is_disabled":false,"rental_uris":{"android":"levelo://app?vid=73b34e01-4f4e-4b13-9244-44a3d350d42d","ios":"levelo://app?vid=73b34e01-4f4e-4b13-9244-44a3d350d42d"},"vehicle_type_id":"4","last_reported":1741284781,"current_range_meters":9600,"station_id":"","pricing_plan_id":"cebpf4jnsgd1na2vs0mg"},{"bike_id":"cf4112fb-a23f-4f48-a15d-2adbce4860f3","system_id":"levelo_inurba_marseille","lat":43.30197,"lon":5.36613,"is_reserved":false,"is_disabled":false,"rental_uris":{"android":"levelo://app?vid=cf4112fb-a23f-4f48-a15d-2adbce4860f3","ios":"levelo://app?vid=cf4112fb-a23f-4f48-a15d-2adbce4860f3"},"vehicle_type_id":"4","last_reported":1741284781,"current_range_meters":9600,"station_id":"ce4bgrh2rcd13ifvqc8g","pricing_plan_id":"cebpf4jnsgd1na2vs0mg"},{"bike_id":"a6a152b5-8aab-4c82-b82d-e07034bbdf6f","system_id":"levelo_inurba_marseille","lat":43.29887,"lon":5.43656,"is_reserved":false,"is_disabled":false,"rental_uris":{"android":"levelo://app?vid=a6a152b5-8aab-4c82-b82d-e07034bbdf6f","ios":"levelo://app?vid=a6a152b5-8aab-4c82-b82d-e07034bbdf6f"},"vehicle_type_id":"4","last_reported":1741284781,"current_range_meters":10000,"station_id":"ce4bhpp2rcd13ifvqhfg","pricing_plan_id":"cebpf4jnsgd1na2vs0mg"},{"bike_id":"6abfa79e-f71d-4246-be80-f834f8c33b50","system_id":"levelo_inurba_marseille","lat":43.3095,"lon":5.39027,"is_reserved":false,"is_disabled":false,"rental_uris":{"android":"levelo://app?vid=6abfa79e-f71d-4246-be80-f834f8c33b50","ios":"levelo://app?vid=6abfa79e-f71d-4246-be80-f834f8c33b50"},"vehicle_type_id":"4","last_reported":1741284781,"current_range_meters":9600,"station_id":"ce4bgup2rcd13ifvqco0","pricing_plan_id":"cebpf4jnsgd1na2vs0mg"},{"bike_id":"1b34c58c-f011-43f3-baac-47c6cf7523c0","system_id":"levelo_inurba_marseille","lat":43.29899,"lon":5.43664,"is_reserved":false,"is_disabled":false,"rental_uris":{"android":"levelo://app?vid=1b34c58c-f011-43f3-baac-47c6cf7523c0","ios":"levelo://app?vid=1b34c58c-f011-43f3-baac-47c6cf7523c0"},"vehicle_type_id":"4","last_reported":1741284781,"current_range_meters":10000,"station_id":"ce4bhpp2rcd13ifvqhfg","pricing_plan_id":"cebpf4jnsgd1na2vs0mg"},{"bike_id":"e6974836-95c1-42aa-8242-455133048dfc","system_id":"levelo_inurba_marseille","lat":43.2782,"lon":5.40719,"is_reserved":false,"is_disabled":false,"rental_uris":{"android":"levelo://app?vid=e6974836-95c1-42aa-8242-455133048dfc","ios":"levelo://app?vid=e6974836-95c1-42aa-8242-455133048dfc"},"vehicle_type_id":"4","last_reported":1741284781,"current_range_meters":10000,"station_id":"ce4bhnh2rcd13ifvqgtg","pricing_plan_id":"cebpf4jnsgd1na2vs0mg"},{"bike_id":"38c88711-3c4a-4e40-ba66-0c643117f201","system_id":"levelo_inurba_marseille","lat":43.27971,"lon":5.387268,"is_reserved":false,"is_disabled":false,"rental_uris":{"android":"levelo://app?vid=38c88711-3c4a-4e40-ba66-0c643117f201","ios":"levelo://app?vid=38c88711-3c4a-4e40-ba66-0c643117f201"},"vehicle_type_id":"4","last_reported":1741284781,"current_range_meters":10000,"station_id":"ce4bhjp2rcd13ifvqga0","pricing_plan_id":"cebpf4jnsgd1na2vs0mg"},{"bike_id":"ac35eafe-694d-4f2e-8a01-27a84122fe0b","system_id":"levelo_inurba_marseille","lat":43.31491,"lon":5.39118,"is_reserved":false,"is_disabled":false,"rental_uris":{"android":"levelo://app?vid=ac35eafe-694d-4f2e-8a01-27a84122fe0b","ios":"levelo://app?vid=ac35eafe-694d-4f2e-8a01-27a84122fe0b"},"vehicle_type_id":"4","last_reported":1741284781,"current_range_meters":10000,"station_id":"","pricing_plan_id":"cebpf4jnsgd1na2vs0mg"},{"bike_id":"8380bf84-e32c-4591-a510-a56d246b11ef","system_id":"levelo_inurba_marseille","lat":43.30256,"lon":5.40081,"is_reserved":false,"is_disabled":false,"rental_uris":{"android":"levelo://app?vid=8380bf84-e32c-4591-a510-a56d246b11ef","ios":"levelo://app?vid=8380bf84-e32c-4591-a510-a56d246b11ef"},"vehicle_type_id":"4","last_reported":1741284781,"current_range_meters":10800,"station_id":"ce4bgvh2rcd13ifvqcs0","pricing_plan_id":"cebpf4jnsgd1na2vs0mg"},{"bike_id":"f927a9c8-5d84-472f-b8fd-88f2fc3bc3e6","system_id":"levelo_inurba_marseille","lat":43.29885,"lon":5.43663,"is_reserved":false,"is_disabled":false,"rental_uris":{"android":"levelo://app?vid=f927a9c8-5d84-472f-b8fd-88f2fc3bc3e6","ios":"levelo://app?vid=f927a9c8-5d84-472f-b8fd-88f2fc3bc3e6"},"vehicle_type_id":"4","last_reported":1741284781,"current_range_meters":10000,"station_id":"ce4bhpp2rcd13ifvqhfg","pricing_plan_id":"cebpf4jnsgd1na2vs0mg"},{"bike_id":"fc015b68-0e75-44d3-9c95-c4808cb32a5b","system_id":"levelo_inurba_marseille","lat":43.29554,"lon":5.42295,"is_reserved":false,"is_disabled":false,"rental_uris":{"android":"levelo://app?vid=fc015b68-0e75-44d3-9c95-c4808cb32a5b","ios":"levelo://app?vid=fc015b68-0e75-44d3-9c95-c4808cb32a5b"},"vehicle_type_id":"4","last_reported":1741284781,"current_range_meters":10000,"station_id":"ce4bhph2rcd13ifvqhdg","pricing_plan_id":"cebpf4jnsgd1na2vs0mg"},{"bike_id":"2e465f2c-1791-4f63-9cf1-d363ad936f7f","system_id":"levelo_inurba_marseille","lat":43.28621,"lon":5.3508,"is_reserved":false,"is_disabled":true,"rental_uris":{"android":"levelo://app?vid=2e465f2c-1791-4f63-9cf1-d363ad936f7f","ios":"levelo://app?vid=2e465f2c-1791-4f63-9cf1-d363ad936f7f"},"vehicle_type_id":"4","last_reported":1741284781,"current_range_meters":10000,"station_id":"ce4bhch2rcd13ifvqeug","pricing_plan_id":"cebpf4jnsgd1na2vs0mg"},{"bike_id":"0aed1368-9058-4cd7-9d7a-1842c9f2c003","system_id":"levelo_inurba_marseille","lat":43.29551,"lon":5.42292,"is_reserved":false,"is_disabled":false,"rental_uris":{"android":"levelo://app?vid=0aed1368-9058-4cd7-9d7a-1842c9f2c003","ios":"levelo://app?vid=0aed1368-9058-4cd7-9d7a-1842c9f2c003"},"vehicle_type_id":"4","last_reported":1741284781,"current_range_meters":10000,"station_id":"ce4bhph2rcd13ifvqhdg","pricing_plan_id":"cebpf4jnsgd1na2vs0mg"},{"bike_id":"6fd708a1-6fe3-42af-8b13-a41ed31d8dcd","system_id":"levelo_inurba_marseille","lat":43.29225,"lon":5.36052,"is_reserved":false,"is_disabled":false,"rental_uris":{"android":"levelo://app?vid=6fd708a1-6fe3-42af-8b13-a41ed31d8dcd","ios":"levelo://app?vid=6fd708a1-6fe3-42af-8b13-a41ed31d8dcd"},"vehicle_type_id":"4","last_reported":1741284781,"current_range_meters":10000,"station_id":"ce4bhbh2rcd13ifvqeqg","pricing_plan_id":"cebpf4jnsgd1na2vs0mg"},{"bike_id":"5dee61e6-87ab-4ef6-8093-ce183bbbb62a","system_id":"levelo_inurba_marseille","lat":43.29789,"lon":5.38105,"is_reserved":false,"is_disabled":false,"rental_uris":{"android":"levelo://app?vid=5dee61e6-87ab-4ef6-8093-ce183bbbb62a","ios":"levelo://app?vid=5dee61e6-87ab-4ef6-8093-ce183bbbb62a"},"vehicle_type_id":"4","last_reported":1741284781,"current_range_meters":10000,"station_id":"ce4bgip2rcd13ifvqbb0","pricing_plan_id":"cebpf4jnsgd1na2vs0mg"},{"bike_id":"1a55ff1f-ae3d-4e7f-81a3-e0034170e0e4","system_id":"levelo_inurba_marseille","lat":43.30418,"lon":5.41309,"is_reserved":false,"is_disabled":false,"rental_uris":{"android":"levelo://app?vid=1a55ff1f-ae3d-4e7f-81a3-e0034170e0e4","ios":"levelo://app?vid=1a55ff1f-ae3d-4e7f-81a3-e0034170e0e4"},"vehicle_type_id":"4","last_reported":1741284781,"current_range_meters":10800,"station_id":"ce4bhop2rcd13ifvqh8g","pricing_plan_id":"cebpf4jnsgd1na2vs0mg"},{"bike_id":"191181e6-cfa4-42b3-bd76-b544da62caea","system_id":"levelo_inurba_marseille","lat":43.29012,"lon":5.38626,"is_reserved":false,"is_disabled":false,"rental_uris":{"android":"levelo://app?vid=191181e6-cfa4-42b3-bd76-b544da62caea","ios":"levelo://app?vid=191181e6-cfa4-42b3-bd76-b544da62caea"},"vehicle_type_id":"4","last_reported":1741284781,"current_range_meters":10800,"station_id":"ce4bh4p2rcd13ifvqe0g","pricing_plan_id":"cebpf4jnsgd1na2vs0mg"},{"bike_id":"ff3228ef-c722-4531-aa41-dd0456ac2a39","system_id":"levelo_inurba_marseille","lat":43.23189,"lon":5.39987,"is_reserved":false,"is_disabled":false,"rental_uris":{"android":"levelo://app?vid=ff3228ef-c722-4531-aa41-dd0456ac2a39","ios":"levelo://app?vid=ff3228ef-c722-4531-aa41-dd0456ac2a39"},"vehicle_type_id":"4","last_reported":1741284781,"current_range_meters":10800,"station_id":"ce4bhn12rcd13ifvqgqg","pricing_plan_id":"cebpf4jnsgd1na2vs0mg"},{"bike_id":"a07facc4-7faa-4cf8-a7c6-168574c9607e","system_id":"levelo_inurba_marseille","lat":43.2905,"lon":5.35905,"is_reserved":false,"is_disabled":false,"rental_uris":{"android":"levelo://app?vid=a07facc4-7faa-4cf8-a7c6-168574c9607e","ios":"levelo://app?vid=a07facc4-7faa-4cf8-a7c6-168574c9607e"},"vehicle_type_id":"4","last_reported":1741284781,"current_range_meters":10800,"station_id":"ce4bha92rcd13ifvqeg0","pricing_plan_id":"cebpf4jnsgd1na2vs0mg"},{"bike_id":"d0d1b861-fc7b-4e26-bf94-3473241b8993","system_id":"levelo_inurba_marseille","lat":43.23189,"lon":5.39983,"is_reserved":false,"is_disabled":false,"rental_uris":{"android":"levelo://app?vid=d0d1b861-fc7b-4e26-bf94-3473241b8993","ios":"levelo://app?vid=d0d1b861-fc7b-4e26-bf94-3473241b8993"},"vehicle_type_id":"4","last_reported":1741284781,"current_range_meters":10800,"station_id":"ce4bhn12rcd13ifvqgqg","pricing_plan_id":"cebpf4jnsgd1na2vs0mg"},{"bike_id":"99ac3184-eb04-4868-a0df-4fdec73d57cb","system_id":"levelo_inurba_marseille","lat":43.27987,"lon":5.41662,"is_reserved":false,"is_disabled":false,"rental_uris":{"android":"levelo://app?vid=99ac3184-eb04-4868-a0df-4fdec73d57cb","ios":"levelo://app?vid=99ac3184-eb04-4868-a0df-4fdec73d57cb"},"vehicle_type_id":"4","last_reported":1741284781,"current_range_meters":10800,"station_id":"ce4bho12rcd13ifvqh1g","pricing_plan_id":"cebpf4jnsgd1na2vs0mg"},{"bike_id":"0e90f4f5-e529-4169-8fe2-0c2d000db9d7","system_id":"levelo_inurba_marseille","lat":43.25581,"lon":5.38229,"is_reserved":false,"is_disabled":false,"rental_uris":{"android":"levelo://app?vid=0e90f4f5-e529-4169-8fe2-0c2d000db9d7","ios":"levelo://app?vid=0e90f4f5-e529-4169-8fe2-0c2d000db9d7"},"vehicle_type_id":"4","last_reported":1741284781,"current_range_meters":10800,"station_id":"ce4bhih2rcd13ifvqfs0","pricing_plan_id":"cebpf4jnsgd1na2vs0mg"},{"bike_id":"cabb07a6-46a1-4c80-8c0e-246d39f3c13d","system_id":"levelo_inurba_marseille","lat":43.29269,"lon":5.384304,"is_reserved":false,"is_disabled":true,"rental_uris":{"android":"levelo://app?vid=cabb07a6-46a1-4c80-8c0e-246d39f3c13d","ios":"levelo://app?vid=cabb07a6-46a1-4c80-8c0e-246d39f3c13d"},"vehicle_type_id":"4","last_reported":1741284781,"current_range_meters":10800,"station_id":"ce4bh692rcd13ifvqea0","pricing_plan_id":"cebpf4jnsgd1na2vs0mg"},{"bike_id":"947751ec-38d4-45e5-9255-63c6a1420107","system_id":"levelo_inurba_marseille","lat":43.30632,"lon":5.40085,"is_reserved":false,"is_disabled":false,"rental_uris":{"android":"levelo://app?vid=947751ec-38d4-45e5-9255-63c6a1420107","ios":"levelo://app?vid=947751ec-38d4-45e5-9255-63c6a1420107"},"vehicle_type_id":"4","last_reported":1741284781,"current_range_meters":10800,"station_id":"ce4bh112rcd13ifvqda0","pricing_plan_id":"cebpf4jnsgd1na2vs0mg"},{"bike_id":"0236009d-b83e-4481-b97e-6a8e1f189885","system_id":"levelo_inurba_marseille","lat":43.29806,"lon":5.3813,"is_reserved":false,"is_disabled":false,"rental_uris":{"android":"levelo://app?vid=0236009d-b83e-4481-b97e-6a8e1f189885","ios":"levelo://app?vid=0236009d-b83e-4481-b97e-6a8e1f189885"},"vehicle_type_id":"4","last_reported":1741284781,"current_range_meters":11200,"station_id":"ce4bgip2rcd13ifvqbb0","pricing_plan_id":"cebpf4jnsgd1na2vs0mg"},{"bike_id":"4bb8ec19-fa9e-4bc2-9ced-8316005f4173","system_id":"levelo_inurba_marseille","lat":43.27941,"lon":5.39575,"is_reserved":false,"is_disabled":true,"rental_uris":{"android":"levelo://app?vid=4bb8ec19-fa9e-4bc2-9ced-8316005f4173","ios":"levelo://app?vid=4bb8ec19-fa9e-4bc2-9ced-8316005f4173"},"vehicle_type_id":"4","last_reported":1741284781,"current_range_meters":11200,"station_id":"ce4bhf92rcd13ifvqf40","pricing_plan_id":"cebpf4jnsgd1na2vs0mg"},{"bike_id":"35a472ec-3549-4e4c-912e-efd3d4ea7543","system_id":"levelo_inurba_marseille","lat":43.297,"lon":5.36613,"is_reserved":false,"is_disabled":false,"rental_uris":{"android":"levelo://app?vid=35a472ec-3549-4e4c-912e-efd3d4ea7543","ios":"levelo://app?vid=35a472ec-3549-4e4c-912e-efd3d4ea7543"},"vehicle_type_id":"4","last_reported":1741284781,"current_range_meters":11200,"station_id":"ce4bgn12rcd13ifvqbt0","pricing_plan_id":"cebpf4jnsgd1na2vs0mg"},{"bike_id":"645936f5-6455-48ea-aeac-af35c278b34d","system_id":"levelo_inurba_marseille","lat":43.29962,"lon":5.38497,"is_reserved":false,"is_disabled":false,"rental_uris":{"android":"levelo://app?vid=645936f5-6455-48ea-aeac-af35c278b34d","ios":"levelo://app?vid=645936f5-6455-48ea-aeac-af35c278b34d"},"vehicle_type_id":"4","last_reported":1741284781,"current_range_meters":11600,"station_id":"ce4bgj92rcd13ifvqbd0","pricing_plan_id":"cebpf4jnsgd1na2vs0mg"},{"bike_id":"357f6b0d-7429-4870-b5b1-c540923d954d","system_id":"levelo_inurba_marseille","lat":43.23068,"lon":5.354868,"is_reserved":false,"is_disabled":false,"rental_uris":{"android":"levelo://app?vid=357f6b0d-7429-4870-b5b1-c540923d954d","ios":"levelo://app?vid=357f6b0d-7429-4870-b5b1-c540923d954d"},"vehicle_type_id":"4","last_reported":1741284781,"current_range_meters":11200,"station_id":"cpo3342slgdg3j2ifvpg","pricing_plan_id":"cebpf4jnsgd1na2vs0mg"},{"bike_id":"a154972e-1b21-457e-9ce0-d42cc93d36db","system_id":"levelo_inurba_marseille","lat":43.29191,"lon":5.3931,"is_reserved":false,"is_disabled":false,"rental_uris":{"android":"levelo://app?vid=a154972e-1b21-457e-9ce0-d42cc93d36db","ios":"levelo://app?vid=a154972e-1b21-457e-9ce0-d42cc93d36db"},"vehicle_type_id":"4","last_reported":1741284781,"current_range_meters":11200,"station_id":"ce4bh192rcd13ifvqdd0","pricing_plan_id":"cebpf4jnsgd1na2vs0mg"},{"bike_id":"37c27920-b361-4f2e-ac9e-e7b92ca498bc","system_id":"levelo_inurba_marseille","lat":43.28162,"lon":5.42664,"is_reserved":false,"is_disabled":false,"rental_uris":{"android":"levelo://app?vid=37c27920-b361-4f2e-ac9e-e7b92ca498bc","ios":"levelo://app?vid=37c27920-b361-4f2e-ac9e-e7b92ca498bc"},"vehicle_type_id":"4","last_reported":1741284781,"current_range_meters":11600,"station_id":"ce4bhnh2rcd13ifvqgug","pricing_plan_id":"cebpf4jnsgd1na2vs0mg"},{"bike_id":"6da2c8ee-0cae-41f8-a538-5fddf0debf4e","system_id":"levelo_inurba_marseille","lat":43.30334,"lon":5.40434,"is_reserved":false,"is_disabled":false,"rental_uris":{"android":"levelo://app?vid=6da2c8ee-0cae-41f8-a538-5fddf0debf4e","ios":"levelo://app?vid=6da2c8ee-0cae-41f8-a538-5fddf0debf4e"},"vehicle_type_id":"4","last_reported":1741284781,"current_range_meters":11600,"station_id":"ce4bh012rcd13ifvqd10","pricing_plan_id":"cebpf4jnsgd1na2vs0mg"},{"bike_id":"5930580d-2ece-4647-afbc-b3a0aec6d1fc","system_id":"levelo_inurba_marseille","lat":43.26018,"lon":5.37556,"is_reserved":false,"is_disabled":false,"rental_uris":{"android":"levelo://app?vid=5930580d-2ece-4647-afbc-b3a0aec6d1fc","ios":"levelo://app?vid=5930580d-2ece-4647-afbc-b3a0aec6d1fc"},"vehicle_type_id":"4","last_reported":1741284781,"current_range_meters":11600,"station_id":"ce4bhgh2rcd13ifvqfa0","pricing_plan_id":"cebpf4jnsgd1na2vs0mg"},{"bike_id":"444e84ce-1a80-4eda-9803-e6d9d7d134ed","system_id":"levelo_inurba_marseille","lat":43.290314,"lon":5.399654,"is_reserved":false,"is_disabled":false,"rental_uris":{"android":"levelo://app?vid=444e84ce-1a80-4eda-9803-e6d9d7d134ed","ios":"levelo://app?vid=444e84ce-1a80-4eda-9803-e6d9d7d134ed"},"vehicle_type_id":"4","last_reported":1741284781,"current_range_meters":11600,"station_id":"ce4bh392rcd13ifvqdm0","pricing_plan_id":"cebpf4jnsgd1na2vs0mg"},{"bike_id":"2ad7bbd6-275e-4986-bdf0-1e29a687054f","system_id":"levelo_inurba_marseille","lat":43.2843,"lon":5.39197,"is_reserved":false,"is_disabled":false,"rental_uris":{"android":"levelo://app?vid=2ad7bbd6-275e-4986-bdf0-1e29a687054f","ios":"levelo://app?vid=2ad7bbd6-275e-4986-bdf0-1e29a687054f"},"vehicle_type_id":"4","last_reported":1741284781,"current_range_meters":8400,"station_id":"ce4bhoh2rcd13ifvqh5g","pricing_plan_id":"cebpf4jnsgd1na2vs0mg"},{"bike_id":"f643bbf3-f968-40f0-874f-e3a9ce3cba57","system_id":"levelo_inurba_marseille","lat":43.28724,"lon":5.36079,"is_reserved":false,"is_disabled":false,"rental_uris":{"android":"levelo://app?vid=f643bbf3-f968-40f0-874f-e3a9ce3cba57","ios":"levelo://app?vid=f643bbf3-f968-40f0-874f-e3a9ce3cba57"},"vehicle_type_id":"4","last_reported":1741284781,"current_range_meters":12000,"station_id":"cki0cbj6b192h4jlfktg","pricing_plan_id":"cebpf4jnsgd1na2vs0mg"},{"bike_id":"2bf9485e-de87-466c-a213-313681c6760e","system_id":"levelo_inurba_marseille","lat":43.28155,"lon":5.42635,"is_reserved":false,"is_disabled":false,"rental_uris":{"android":"levelo://app?vid=2bf9485e-de87-466c-a213-313681c6760e","ios":"levelo://app?vid=2bf9485e-de87-466c-a213-313681c6760e"},"vehicle_type_id":"4","last_reported":1741284781,"current_range_meters":12000,"station_id":"ce4bhnh2rcd13ifvqgug","pricing_plan_id":"cebpf4jnsgd1na2vs0mg"},{"bike_id":"6d8a91ba-2584-4902-b38f-98955dc99679","system_id":"levelo_inurba_marseille","lat":43.30426,"lon":5.38902,"is_reserved":false,"is_disabled":false,"rental_uris":{"android":"levelo://app?vid=6d8a91ba-2584-4902-b38f-98955dc99679","ios":"levelo://app?vid=6d8a91ba-2584-4902-b38f-98955dc99679"},"vehicle_type_id":"4","last_reported":1741284781,"current_range_meters":11600,"station_id":"ce4bgk12rcd13ifvqbi0","pricing_plan_id":"cebpf4jnsgd1na2vs0mg"},{"bike_id":"4de36e7a-7f98-4945-85d0-025253e247a9","system_id":"levelo_inurba_marseille","lat":43.30325,"lon":5.40445,"is_reserved":false,"is_disabled":false,"rental_uris":{"android":"levelo://app?vid=4de36e7a-7f98-4945-85d0-025253e247a9","ios":"levelo://app?vid=4de36e7a-7f98-4945-85d0-025253e247a9"},"vehicle_type_id":"4","last_reported":1741284781,"current_range_meters":12000,"station_id":"ce4bh012rcd13ifvqd10","pricing_plan_id":"cebpf4jnsgd1na2vs0mg"},{"bike_id":"d1a32532-c9f5-45de-8a3f-ebd7117f8e99","system_id":"levelo_inurba_marseille","lat":43.29877,"lon":5.38908,"is_reserved":false,"is_disabled":false,"rental_uris":{"android":"levelo://app?vid=d1a32532-c9f5-45de-8a3f-ebd7117f8e99","ios":"levelo://app?vid=d1a32532-c9f5-45de-8a3f-ebd7117f8e99"},"vehicle_type_id":"4","last_reported":1741284781,"current_range_meters":12400,"station_id":"ce4bh392rcd13ifvqdl0","pricing_plan_id":"cebpf4jnsgd1na2vs0mg"},{"bike_id":"60d92ef0-a063-4fae-9002-1dd32b156a57","system_id":"levelo_inurba_marseille","lat":43.292225,"lon":5.360617,"is_reserved":false,"is_disabled":false,"rental_uris":{"android":"levelo://app?vid=60d92ef0-a063-4fae-9002-1dd32b156a57","ios":"levelo://app?vid=60d92ef0-a063-4fae-9002-1dd32b156a57"},"vehicle_type_id":"4","last_reported":1741284781,"current_range_meters":12000,"station_id":"ce4bhbh2rcd13ifvqeqg","pricing_plan_id":"cebpf4jnsgd1na2vs0mg"},{"bike_id":"4c4f40ce-b677-4958-a34a-41f58f94190b","system_id":"levelo_inurba_marseille","lat":43.23191,"lon":5.39979,"is_reserved":false,"is_disabled":false,"rental_uris":{"android":"levelo://app?vid=4c4f40ce-b677-4958-a34a-41f58f94190b","ios":"levelo://app?vid=4c4f40ce-b677-4958-a34a-41f58f94190b"},"vehicle_type_id":"4","last_reported":1741284781,"current_range_meters":12400,"station_id":"ce4bhn12rcd13ifvqgqg","pricing_plan_id":"cebpf4jnsgd1na2vs0mg"},{"bike_id":"9f0f0224-b72b-4ee3-a38d-b5ba80204629","system_id":"levelo_inurba_marseille","lat":43.23186,"lon":5.35561,"is_reserved":false,"is_disabled":false,"rental_uris":{"android":"levelo://app?vid=9f0f0224-b72b-4ee3-a38d-b5ba80204629","ios":"levelo://app?vid=9f0f0224-b72b-4ee3-a38d-b5ba80204629"},"vehicle_type_id":"4","last_reported":1741284781,"current_range_meters":12400,"station_id":"ce4bhu92rcd13ifvqi70","pricing_plan_id":"cebpf4jnsgd1na2vs0mg"},{"bike_id":"563c9629-05cf-49ef-8ac6-4e5ef18e4f1d","system_id":"levelo_inurba_marseille","lat":43.25087,"lon":5.39518,"is_reserved":false,"is_disabled":false,"rental_uris":{"android":"levelo://app?vid=563c9629-05cf-49ef-8ac6-4e5ef18e4f1d","ios":"levelo://app?vid=563c9629-05cf-49ef-8ac6-4e5ef18e4f1d"},"vehicle_type_id":"4","last_reported":1741284781,"current_range_meters":12400,"station_id":"ce4bhm12rcd13ifvqgkg","pricing_plan_id":"cebpf4jnsgd1na2vs0mg"},{"bike_id":"ad5fb7ad-ba47-4edd-b772-4e61664aca22","system_id":"levelo_inurba_marseille","lat":43.29668,"lon":5.37354,"is_reserved":false,"is_disabled":false,"rental_uris":{"android":"levelo://app?vid=ad5fb7ad-ba47-4edd-b772-4e61664aca22","ios":"levelo://app?vid=ad5fb7ad-ba47-4edd-b772-4e61664aca22"},"vehicle_type_id":"4","last_reported":1741284781,"current_range_meters":12400,"station_id":"","pricing_plan_id":"cebpf4jnsgd1na2vs0mg"},{"bike_id":"549f0e20-712f-455b-8868-0f3f9588d3f7","system_id":"levelo_inurba_marseille","lat":43.23185,"lon":5.39989,"is_reserved":false,"is_disabled":false,"rental_uris":{"android":"levelo://app?vid=549f0e20-712f-455b-8868-0f3f9588d3f7","ios":"levelo://app?vid=549f0e20-712f-455b-8868-0f3f9588d3f7"},"vehicle_type_id":"4","last_reported":1741284781,"current_range_meters":12400,"station_id":"ce4bhn12rcd13ifvqgqg","pricing_plan_id":"cebpf4jnsgd1na2vs0mg"},{"bike_id":"d015e1e7-8b4f-4898-a841-104d62c0d9ad","system_id":"levelo_inurba_marseille","lat":43.23181,"lon":5.39987,"is_reserved":false,"is_disabled":false,"rental_uris":{"android":"levelo://app?vid=d015e1e7-8b4f-4898-a841-104d62c0d9ad","ios":"levelo://app?vid=d015e1e7-8b4f-4898-a841-104d62c0d9ad"},"vehicle_type_id":"4","last_reported":1741284781,"current_range_meters":12400,"station_id":"ce4bhn12rcd13ifvqgqg","pricing_plan_id":"cebpf4jnsgd1na2vs0mg"},{"bike_id":"53860eea-ebe9-4cda-a4ef-ef583a8fc273","system_id":"levelo_inurba_marseille","lat":43.30646,"lon":5.40076,"is_reserved":false,"is_disabled":false,"rental_uris":{"android":"levelo://app?vid=53860eea-ebe9-4cda-a4ef-ef583a8fc273","ios":"levelo://app?vid=53860eea-ebe9-4cda-a4ef-ef583a8fc273"},"vehicle_type_id":"4","last_reported":1741284781,"current_range_meters":12400,"station_id":"ce4bh112rcd13ifvqda0","pricing_plan_id":"cebpf4jnsgd1na2vs0mg"},{"bike_id":"450fec99-cedd-4c3b-a355-1b95b571f4ec","system_id":"levelo_inurba_marseille","lat":43.27938,"lon":5.41045,"is_reserved":false,"is_disabled":false,"rental_uris":{"android":"levelo://app?vid=450fec99-cedd-4c3b-a355-1b95b571f4ec","ios":"levelo://app?vid=450fec99-cedd-4c3b-a355-1b95b571f4ec"},"vehicle_type_id":"4","last_reported":1741284781,"current_range_meters":12800,"station_id":"ce4bhnp2rcd13ifvqh0g","pricing_plan_id":"cebpf4jnsgd1na2vs0mg"},{"bike_id":"c16ccb51-1ff7-4b93-8e4d-d5c1c6809677","system_id":"levelo_inurba_marseille","lat":43.30416,"lon":5.41285,"is_reserved":false,"is_disabled":false,"rental_uris":{"android":"levelo://app?vid=c16ccb51-1ff7-4b93-8e4d-d5c1c6809677","ios":"levelo://app?vid=c16ccb51-1ff7-4b93-8e4d-d5c1c6809677"},"vehicle_type_id":"4","last_reported":1741284781,"current_range_meters":12800,"station_id":"ce4bhop2rcd13ifvqh8g","pricing_plan_id":"cebpf4jnsgd1na2vs0mg"},{"bike_id":"ca9b51b4-08cc-4e0f-8aae-8e3e467a7986","system_id":"levelo_inurba_marseille","lat":43.27998,"lon":5.40009,"is_reserved":false,"is_disabled":false,"rental_uris":{"android":"levelo://app?vid=ca9b51b4-08cc-4e0f-8aae-8e3e467a7986","ios":"levelo://app?vid=ca9b51b4-08cc-4e0f-8aae-8e3e467a7986"},"vehicle_type_id":"4","last_reported":1741284781,"current_range_meters":12800,"station_id":"ce4bho92rcd13ifvqh4g","pricing_plan_id":"cebpf4jnsgd1na2vs0mg"},{"bike_id":"dc4941f8-cf6e-4611-b0d6-3f64b4d6fa84","system_id":"levelo_inurba_marseille","lat":43.277642,"lon":5.406368,"is_reserved":false,"is_disabled":false,"rental_uris":{"android":"levelo://app?vid=dc4941f8-cf6e-4611-b0d6-3f64b4d6fa84","ios":"levelo://app?vid=dc4941f8-cf6e-4611-b0d6-3f64b4d6fa84"},"vehicle_type_id":"4","last_reported":1741284781,"current_range_meters":12800,"station_id":"ce4bhnh2rcd13ifvqgtg","pricing_plan_id":"cebpf4jnsgd1na2vs0mg"},{"bike_id":"1b5475b5-42ca-48e1-8080-ba9f1d36c3ec","system_id":"levelo_inurba_marseille","lat":43.29966,"lon":5.38493,"is_reserved":false,"is_disabled":false,"rental_uris":{"android":"levelo://app?vid=1b5475b5-42ca-48e1-8080-ba9f1d36c3ec","ios":"levelo://app?vid=1b5475b5-42ca-48e1-8080-ba9f1d36c3ec"},"vehicle_type_id":"4","last_reported":1741284781,"current_range_meters":12400,"station_id":"ce4bgj92rcd13ifvqbd0","pricing_plan_id":"cebpf4jnsgd1na2vs0mg"},{"bike_id":"bbe25864-604b-428e-a7df-3e2635f42e02","system_id":"levelo_inurba_marseille","lat":43.2757,"lon":5.38425,"is_reserved":false,"is_disabled":false,"rental_uris":{"android":"levelo://app?vid=bbe25864-604b-428e-a7df-3e2635f42e02","ios":"levelo://app?vid=bbe25864-604b-428e-a7df-3e2635f42e02"},"vehicle_type_id":"4","last_reported":1741284781,"current_range_meters":12800,"station_id":"ce4bhh92rcd13ifvqfi0","pricing_plan_id":"cebpf4jnsgd1na2vs0mg"},{"bike_id":"3488755b-def4-4725-b117-af1d0306758f","system_id":"levelo_inurba_marseille","lat":43.29256,"lon":5.38435,"is_reserved":false,"is_disabled":false,"rental_uris":{"android":"levelo://app?vid=3488755b-def4-4725-b117-af1d0306758f","ios":"levelo://app?vid=3488755b-def4-4725-b117-af1d0306758f"},"vehicle_type_id":"4","last_reported":1741284781,"current_range_meters":13600,"station_id":"ce4bh692rcd13ifvqea0","pricing_plan_id":"cebpf4jnsgd1na2vs0mg"},{"bike_id":"2e110824-24c3-4263-8557-cb5a2c89b25b","system_id":"levelo_inurba_marseille","lat":43.25577,"lon":5.38237,"is_reserved":false,"is_disabled":false,"rental_uris":{"android":"levelo://app?vid=2e110824-24c3-4263-8557-cb5a2c89b25b","ios":"levelo://app?vid=2e110824-24c3-4263-8557-cb5a2c89b25b"},"vehicle_type_id":"4","last_reported":1741284781,"current_range_meters":13600,"station_id":"ce4bhih2rcd13ifvqfs0","pricing_plan_id":"cebpf4jnsgd1na2vs0mg"},{"bike_id":"3aafbe43-100b-448d-9d82-2093b4409b8c","system_id":"levelo_inurba_marseille","lat":43.26495,"lon":5.39538,"is_reserved":false,"is_disabled":false,"rental_uris":{"android":"levelo://app?vid=3aafbe43-100b-448d-9d82-2093b4409b8c","ios":"levelo://app?vid=3aafbe43-100b-448d-9d82-2093b4409b8c"},"vehicle_type_id":"4","last_reported":1741284781,"current_range_meters":13600,"station_id":"ce4bhi12rcd13ifvqfq0","pricing_plan_id":"cebpf4jnsgd1na2vs0mg"},{"bike_id":"16b01717-2ca3-4307-8047-d1c2c98a6c61","system_id":"levelo_inurba_marseille","lat":43.29424,"lon":5.38619,"is_reserved":false,"is_disabled":false,"rental_uris":{"android":"levelo://app?vid=16b01717-2ca3-4307-8047-d1c2c98a6c61","ios":"levelo://app?vid=16b01717-2ca3-4307-8047-d1c2c98a6c61"},"vehicle_type_id":"4","last_reported":1741284781,"current_range_meters":13600,"station_id":"ce4bh2h2rcd13ifvqdh0","pricing_plan_id":"cebpf4jnsgd1na2vs0mg"},{"bike_id":"e1b133e5-1e38-43f1-98ca-09441b485a5f","system_id":"levelo_inurba_marseille","lat":43.25579,"lon":5.38255,"is_reserved":false,"is_disabled":false,"rental_uris":{"android":"levelo://app?vid=e1b133e5-1e38-43f1-98ca-09441b485a5f","ios":"levelo://app?vid=e1b133e5-1e38-43f1-98ca-09441b485a5f"},"vehicle_type_id":"4","last_reported":1741284781,"current_range_meters":13600,"station_id":"ce4bhih2rcd13ifvqfs0","pricing_plan_id":"cebpf4jnsgd1na2vs0mg"},{"bike_id":"753c3868-b740-440a-b4b0-83d6a6a96476","system_id":"levelo_inurba_marseille","lat":43.29261,"lon":5.38437,"is_reserved":false,"is_disabled":false,"rental_uris":{"android":"levelo://app?vid=753c3868-b740-440a-b4b0-83d6a6a96476","ios":"levelo://app?vid=753c3868-b740-440a-b4b0-83d6a6a96476"},"vehicle_type_id":"4","last_reported":1741284781,"current_range_meters":13600,"station_id":"ce4bh692rcd13ifvqea0","pricing_plan_id":"cebpf4jnsgd1na2vs0mg"},{"bike_id":"d84210b5-e4ad-4646-831c-02e83d3abc55","system_id":"levelo_inurba_marseille","lat":43.28469,"lon":5.35898,"is_reserved":false,"is_disabled":false,"rental_uris":{"android":"levelo://app?vid=d84210b5-e4ad-4646-831c-02e83d3abc55","ios":"levelo://app?vid=d84210b5-e4ad-4646-831c-02e83d3abc55"},"vehicle_type_id":"4","last_reported":1741284781,"current_range_meters":13600,"station_id":"ce4bhah2rcd13ifvqei0","pricing_plan_id":"cebpf4jnsgd1na2vs0mg"},{"bike_id":"0e1da408-7eaf-4bd1-b289-4bc1ab5f243c","system_id":"levelo_inurba_marseille","lat":43.28617,"lon":5.35099,"is_reserved":false,"is_disabled":false,"rental_uris":{"android":"levelo://app?vid=0e1da408-7eaf-4bd1-b289-4bc1ab5f243c","ios":"levelo://app?vid=0e1da408-7eaf-4bd1-b289-4bc1ab5f243c"},"vehicle_type_id":"4","last_reported":1741284781,"current_range_meters":14000,"station_id":"ce4bhch2rcd13ifvqeug","pricing_plan_id":"cebpf4jnsgd1na2vs0mg"},{"bike_id":"2b1de8ba-6297-479a-97e0-c4ffcb43060b","system_id":"levelo_inurba_marseille","lat":43.2319,"lon":5.39977,"is_reserved":false,"is_disabled":false,"rental_uris":{"android":"levelo://app?vid=2b1de8ba-6297-479a-97e0-c4ffcb43060b","ios":"levelo://app?vid=2b1de8ba-6297-479a-97e0-c4ffcb43060b"},"vehicle_type_id":"4","last_reported":1741284781,"current_range_meters":14000,"station_id":"ce4bhn12rcd13ifvqgqg","pricing_plan_id":"cebpf4jnsgd1na2vs0mg"},{"bike_id":"764f3258-213a-4186-b4ff-850e4e5fe869","system_id":"levelo_inurba_marseille","lat":43.30414,"lon":5.41272,"is_reserved":false,"is_disabled":false,"rental_uris":{"android":"levelo://app?vid=764f3258-213a-4186-b4ff-850e4e5fe869","ios":"levelo://app?vid=764f3258-213a-4186-b4ff-850e4e5fe869"},"vehicle_type_id":"4","last_reported":1741284781,"current_range_meters":14000,"station_id":"ce4bhop2rcd13ifvqh8g","pricing_plan_id":"cebpf4jnsgd1na2vs0mg"},{"bike_id":"89ad2f68-0d7f-4d48-b165-f889c6e42afb","system_id":"levelo_inurba_marseille","lat":43.31333,"lon":5.39702,"is_reserved":false,"is_disabled":false,"rental_uris":{"android":"levelo://app?vid=89ad2f68-0d7f-4d48-b165-f889c6e42afb","ios":"levelo://app?vid=89ad2f68-0d7f-4d48-b165-f889c6e42afb"},"vehicle_type_id":"4","last_reported":1741284781,"current_range_meters":14000,"station_id":"ce4bgvp2rcd13ifvqcu0","pricing_plan_id":"cebpf4jnsgd1na2vs0mg"},{"bike_id":"a8540840-8687-40db-9521-0af09292b365","system_id":"levelo_inurba_marseille","lat":43.28154,"lon":5.4264,"is_reserved":false,"is_disabled":false,"rental_uris":{"android":"levelo://app?vid=a8540840-8687-40db-9521-0af09292b365","ios":"levelo://app?vid=a8540840-8687-40db-9521-0af09292b365"},"vehicle_type_id":"4","last_reported":1741284781,"current_range_meters":14400,"station_id":"ce4bhnh2rcd13ifvqgug","pricing_plan_id":"cebpf4jnsgd1na2vs0mg"},{"bike_id":"8bd4b128-b85d-4e21-ad3f-ceffde0e548c","system_id":"levelo_inurba_marseille","lat":43.31322,"lon":5.39742,"is_reserved":false,"is_disabled":false,"rental_uris":{"android":"levelo://app?vid=8bd4b128-b85d-4e21-ad3f-ceffde0e548c","ios":"levelo://app?vid=8bd4b128-b85d-4e21-ad3f-ceffde0e548c"},"vehicle_type_id":"4","last_reported":1741284781,"current_range_meters":14400,"station_id":"ce4bgvp2rcd13ifvqcu0","pricing_plan_id":"cebpf4jnsgd1na2vs0mg"},{"bike_id":"dd1656d4-1155-44af-98eb-e63022b2f728","system_id":"levelo_inurba_marseille","lat":43.31334,"lon":5.39689,"is_reserved":false,"is_disabled":false,"rental_uris":{"android":"levelo://app?vid=dd1656d4-1155-44af-98eb-e63022b2f728","ios":"levelo://app?vid=dd1656d4-1155-44af-98eb-e63022b2f728"},"vehicle_type_id":"4","last_reported":1741284781,"current_range_meters":14400,"station_id":"ce4bgvp2rcd13ifvqcu0","pricing_plan_id":"cebpf4jnsgd1na2vs0mg"},{"bike_id":"4604d806-4f2e-404c-bea5-e30243fad183","system_id":"levelo_inurba_marseille","lat":43.29958,"lon":5.38504,"is_reserved":false,"is_disabled":false,"rental_uris":{"android":"levelo://app?vid=4604d806-4f2e-404c-bea5-e30243fad183","ios":"levelo://app?vid=4604d806-4f2e-404c-bea5-e30243fad183"},"vehicle_type_id":"4","last_reported":1741284781,"current_range_meters":14400,"station_id":"ce4bgj92rcd13ifvqbd0","pricing_plan_id":"cebpf4jnsgd1na2vs0mg"},{"bike_id":"985324b2-53ea-4df0-8c32-5d6941d2d733","system_id":"levelo_inurba_marseille","lat":43.25586,"lon":5.38237,"is_reserved":false,"is_disabled":false,"rental_uris":{"android":"levelo://app?vid=985324b2-53ea-4df0-8c32-5d6941d2d733","ios":"levelo://app?vid=985324b2-53ea-4df0-8c32-5d6941d2d733"},"vehicle_type_id":"4","last_reported":1741284781,"current_range_meters":14400,"station_id":"ce4bhih2rcd13ifvqfs0","pricing_plan_id":"cebpf4jnsgd1na2vs0mg"},{"bike_id":"b77d7fdb-cef0-4409-a7c1-a0b55126b0b0","system_id":"levelo_inurba_marseille","lat":43.29528,"lon":5.3854,"is_reserved":false,"is_disabled":false,"rental_uris":{"android":"levelo://app?vid=b77d7fdb-cef0-4409-a7c1-a0b55126b0b0","ios":"levelo://app?vid=b77d7fdb-cef0-4409-a7c1-a0b55126b0b0"},"vehicle_type_id":"4","last_reported":1741284781,"current_range_meters":14400,"station_id":"ce4bgih2rcd13ifvqba0","pricing_plan_id":"cebpf4jnsgd1na2vs0mg"},{"bike_id":"2d31bd33-7bbc-485d-a4dd-59c0e816926e","system_id":"levelo_inurba_marseille","lat":43.25832,"lon":5.39472,"is_reserved":false,"is_disabled":false,"rental_uris":{"android":"levelo://app?vid=2d31bd33-7bbc-485d-a4dd-59c0e816926e","ios":"levelo://app?vid=2d31bd33-7bbc-485d-a4dd-59c0e816926e"},"vehicle_type_id":"4","last_reported":1741284781,"current_range_meters":15200,"station_id":"ce4bhip2rcd13ifvqft0","pricing_plan_id":"cebpf4jnsgd1na2vs0mg"},{"bike_id":"6fa00e7f-b2e6-493f-9e09-fa4265430227","system_id":"levelo_inurba_marseille","lat":43.23963,"lon":5.36625,"is_reserved":false,"is_disabled":false,"rental_uris":{"android":"levelo://app?vid=6fa00e7f-b2e6-493f-9e09-fa4265430227","ios":"levelo://app?vid=6fa00e7f-b2e6-493f-9e09-fa4265430227"},"vehicle_type_id":"4","last_reported":1741284781,"current_range_meters":14800,"station_id":"ce4bhi12rcd13ifvqfp0","pricing_plan_id":"cebpf4jnsgd1na2vs0mg"},{"bike_id":"5657d731-d688-4ca8-8429-b9c071f5f731","system_id":"levelo_inurba_marseille","lat":43.2846,"lon":5.35881,"is_reserved":false,"is_disabled":false,"rental_uris":{"android":"levelo://app?vid=5657d731-d688-4ca8-8429-b9c071f5f731","ios":"levelo://app?vid=5657d731-d688-4ca8-8429-b9c071f5f731"},"vehicle_type_id":"4","last_reported":1741284781,"current_range_meters":14800,"station_id":"ce4bhah2rcd13ifvqei0","pricing_plan_id":"cebpf4jnsgd1na2vs0mg"},{"bike_id":"25a1219e-b648-4002-8a1f-127ccfe4f8ed","system_id":"levelo_inurba_marseille","lat":43.292,"lon":5.35807,"is_reserved":false,"is_disabled":false,"rental_uris":{"android":"levelo://app?vid=25a1219e-b648-4002-8a1f-127ccfe4f8ed","ios":"levelo://app?vid=25a1219e-b648-4002-8a1f-127ccfe4f8ed"},"vehicle_type_id":"4","last_reported":1741284781,"current_range_meters":14800,"station_id":"ce4bhb12rcd13ifvqel0","pricing_plan_id":"cebpf4jnsgd1na2vs0mg"},{"bike_id":"1ee79b01-e45f-4797-9a4b-d0f97c244688","system_id":"levelo_inurba_marseille","lat":43.2693,"lon":5.4027,"is_reserved":false,"is_disabled":false,"rental_uris":{"android":"levelo://app?vid=1ee79b01-e45f-4797-9a4b-d0f97c244688","ios":"levelo://app?vid=1ee79b01-e45f-4797-9a4b-d0f97c244688"},"vehicle_type_id":"4","last_reported":1741284781,"current_range_meters":14800,"station_id":"cjm6bp8fraef2m0cb0m0","pricing_plan_id":"cebpf4jnsgd1na2vs0mg"},{"bike_id":"42f15aae-bb65-4bbe-b213-61a6d164d196","system_id":"levelo_inurba_marseille","lat":43.28719,"lon":5.37934,"is_reserved":false,"is_disabled":false,"rental_uris":{"android":"levelo://app?vid=42f15aae-bb65-4bbe-b213-61a6d164d196","ios":"levelo://app?vid=42f15aae-bb65-4bbe-b213-61a6d164d196"},"vehicle_type_id":"4","last_reported":1741284781,"current_range_meters":14400,"station_id":"ce4bh9p2rcd13ifvqec0","pricing_plan_id":"cebpf4jnsgd1na2vs0mg"},{"bike_id":"b13ccbee-f8ac-4762-a3a1-561782d8d5f5","system_id":"levelo_inurba_marseille","lat":43.27941,"lon":5.41049,"is_reserved":false,"is_disabled":false,"rental_uris":{"android":"levelo://app?vid=b13ccbee-f8ac-4762-a3a1-561782d8d5f5","ios":"levelo://app?vid=b13ccbee-f8ac-4762-a3a1-561782d8d5f5"},"vehicle_type_id":"4","last_reported":1741284781,"current_range_meters":14800,"station_id":"ce4bhnp2rcd13ifvqh0g","pricing_plan_id":"cebpf4jnsgd1na2vs0mg"},{"bike_id":"bad2eef3-bfb0-4e2e-adac-cbfac95cdb8f","system_id":"levelo_inurba_marseille","lat":43.26198,"lon":5.37921,"is_reserved":false,"is_disabled":false,"rental_uris":{"android":"levelo://app?vid=bad2eef3-bfb0-4e2e-adac-cbfac95cdb8f","ios":"levelo://app?vid=bad2eef3-bfb0-4e2e-adac-cbfac95cdb8f"},"vehicle_type_id":"4","last_reported":1741284781,"current_range_meters":14800,"station_id":"ce4bhjp2rcd13ifvqg90","pricing_plan_id":"cebpf4jnsgd1na2vs0mg"},{"bike_id":"23fd01b3-a5b9-4def-8318-003ef97cf778","system_id":"levelo_inurba_marseille","lat":43.33023,"lon":5.3904,"is_reserved":false,"is_disabled":false,"rental_uris":{"android":"levelo://app?vid=23fd01b3-a5b9-4def-8318-003ef97cf778","ios":"levelo://app?vid=23fd01b3-a5b9-4def-8318-003ef97cf778"},"vehicle_type_id":"4","last_reported":1741284781,"current_range_meters":14800,"station_id":"ce4bhr92rcd13ifvqhrg","pricing_plan_id":"cebpf4jnsgd1na2vs0mg"},{"bike_id":"0a0662eb-7568-4788-a3e8-664badeb2081","system_id":"levelo_inurba_marseille","lat":43.25498,"lon":5.37646,"is_reserved":false,"is_disabled":false,"rental_uris":{"android":"levelo://app?vid=0a0662eb-7568-4788-a3e8-664badeb2081","ios":"levelo://app?vid=0a0662eb-7568-4788-a3e8-664badeb2081"},"vehicle_type_id":"4","last_reported":1741284781,"current_range_meters":14800,"station_id":"ce4bhh12rcd13ifvqff0","pricing_plan_id":"cebpf4jnsgd1na2vs0mg"},{"bike_id":"1c1dd64c-8dbe-48e4-b3db-bb2e0c7db07b","system_id":"levelo_inurba_marseille","lat":43.32288,"lon":5.38274,"is_reserved":false,"is_disabled":false,"rental_uris":{"android":"levelo://app?vid=1c1dd64c-8dbe-48e4-b3db-bb2e0c7db07b","ios":"levelo://app?vid=1c1dd64c-8dbe-48e4-b3db-bb2e0c7db07b"},"vehicle_type_id":"4","last_reported":1741284781,"current_range_meters":14800,"station_id":"ce4bhr12rcd13ifvqhqg","pricing_plan_id":"cebpf4jnsgd1na2vs0mg"},{"bike_id":"daa48c53-c5de-46aa-94fc-655cbd710c8c","system_id":"levelo_inurba_marseille","lat":43.22944,"lon":5.35397,"is_reserved":false,"is_disabled":false,"rental_uris":{"android":"levelo://app?vid=daa48c53-c5de-46aa-94fc-655cbd710c8c","ios":"levelo://app?vid=daa48c53-c5de-46aa-94fc-655cbd710c8c"},"vehicle_type_id":"4","last_reported":1741284781,"current_range_meters":15200,"station_id":"cpo3532slgdg3j2ikp40","pricing_plan_id":"cebpf4jnsgd1na2vs0mg"},{"bike_id":"ddbe4602-194c-40ab-affc-ca84ea2cd6e3","system_id":"levelo_inurba_marseille","lat":43.29538,"lon":5.39393,"is_reserved":false,"is_disabled":false,"rental_uris":{"android":"levelo://app?vid=ddbe4602-194c-40ab-affc-ca84ea2cd6e3","ios":"levelo://app?vid=ddbe4602-194c-40ab-affc-ca84ea2cd6e3"},"vehicle_type_id":"4","last_reported":1741284781,"current_range_meters":16000,"station_id":"ce4bh292rcd13ifvqdf0","pricing_plan_id":"cebpf4jnsgd1na2vs0mg"},{"bike_id":"6a1366c1-41ed-4dda-b62f-b12cda709bc4","system_id":"levelo_inurba_marseille","lat":43.32368,"lon":5.38893,"is_reserved":false,"is_disabled":false,"rental_uris":{"android":"levelo://app?vid=6a1366c1-41ed-4dda-b62f-b12cda709bc4","ios":"levelo://app?vid=6a1366c1-41ed-4dda-b62f-b12cda709bc4"},"vehicle_type_id":"4","last_reported":1741284781,"current_range_meters":16000,"station_id":"ce4bhqp2rcd13ifvqhog","pricing_plan_id":"cebpf4jnsgd1na2vs0mg"},{"bike_id":"19e21bc2-a636-42ad-a625-6ca4e47d2c65","system_id":"levelo_inurba_marseille","lat":43.33013,"lon":5.39044,"is_reserved":false,"is_disabled":false,"rental_uris":{"android":"levelo://app?vid=19e21bc2-a636-42ad-a625-6ca4e47d2c65","ios":"levelo://app?vid=19e21bc2-a636-42ad-a625-6ca4e47d2c65"},"vehicle_type_id":"4","last_reported":1741284781,"current_range_meters":16000,"station_id":"ce4bhr92rcd13ifvqhrg","pricing_plan_id":"cebpf4jnsgd1na2vs0mg"},{"bike_id":"ed68319c-59e7-4217-bc44-723c27486efd","system_id":"levelo_inurba_marseille","lat":43.30798,"lon":5.43523,"is_reserved":false,"is_disabled":false,"rental_uris":{"android":"levelo://app?vid=ed68319c-59e7-4217-bc44-723c27486efd","ios":"levelo://app?vid=ed68319c-59e7-4217-bc44-723c27486efd"},"vehicle_type_id":"4","last_reported":1741284781,"current_range_meters":15200,"station_id":"ce4bhph2rcd13ifvqheg","pricing_plan_id":"cebpf4jnsgd1na2vs0mg"},{"bike_id":"99644652-5c73-416b-b0b7-17829ba04b60","system_id":"levelo_inurba_marseille","lat":43.29413,"lon":5.38621,"is_reserved":false,"is_disabled":false,"rental_uris":{"android":"levelo://app?vid=99644652-5c73-416b-b0b7-17829ba04b60","ios":"levelo://app?vid=99644652-5c73-416b-b0b7-17829ba04b60"},"vehicle_type_id":"4","last_reported":1741284781,"current_range_meters":16000,"station_id":"ce4bh2h2rcd13ifvqdh0","pricing_plan_id":"cebpf4jnsgd1na2vs0mg"},{"bike_id":"e2b6313c-3e5e-499f-80e3-fae1c2b54e25","system_id":"levelo_inurba_marseille","lat":43.29781,"lon":5.39344,"is_reserved":false,"is_disabled":false,"rental_uris":{"android":"levelo://app?vid=e2b6313c-3e5e-499f-80e3-fae1c2b54e25","ios":"levelo://app?vid=e2b6313c-3e5e-499f-80e3-fae1c2b54e25"},"vehicle_type_id":"4","last_reported":1741284781,"current_range_meters":16000,"station_id":"chh1huq6cuj3fo74tm60","pricing_plan_id":"cebpf4jnsgd1na2vs0mg"},{"bike_id":"6718e250-5559-4d0d-9b74-42982b59fb97","system_id":"levelo_inurba_marseille","lat":43.28843,"lon":5.35875,"is_reserved":false,"is_disabled":false,"rental_uris":{"android":"levelo://app?vid=6718e250-5559-4d0d-9b74-42982b59fb97","ios":"levelo://app?vid=6718e250-5559-4d0d-9b74-42982b59fb97"},"vehicle_type_id":"4","last_reported":1741284781,"current_range_meters":16000,"station_id":"ce4bhb12rcd13ifvqem0","pricing_plan_id":"cebpf4jnsgd1na2vs0mg"},{"bike_id":"becf5e38-2c56-4fce-862d-4abc9e5b3435","system_id":"levelo_inurba_marseille","lat":43.25113,"lon":5.40323,"is_reserved":false,"is_disabled":false,"rental_uris":{"android":"levelo://app?vid=becf5e38-2c56-4fce-862d-4abc9e5b3435","ios":"levelo://app?vid=becf5e38-2c56-4fce-862d-4abc9e5b3435"},"vehicle_type_id":"4","last_reported":1741284781,"current_range_meters":16000,"station_id":"ce4bhlh2rcd13ifvqgig","pricing_plan_id":"cebpf4jnsgd1na2vs0mg"},{"bike_id":"d0a9e0b6-7460-48af-b167-fa241d6b44c3","system_id":"levelo_inurba_marseille","lat":43.32087,"lon":5.36774,"is_reserved":false,"is_disabled":false,"rental_uris":{"android":"levelo://app?vid=d0a9e0b6-7460-48af-b167-fa241d6b44c3","ios":"levelo://app?vid=d0a9e0b6-7460-48af-b167-fa241d6b44c3"},"vehicle_type_id":"4","last_reported":1741284781,"current_range_meters":16000,"station_id":"ce4bhrh2rcd13ifvqhug","pricing_plan_id":"cebpf4jnsgd1na2vs0mg"},{"bike_id":"6d7e0450-89ad-4e81-9f4f-61db2e3e009a","system_id":"levelo_inurba_marseille","lat":43.29898,"lon":5.43625,"is_reserved":false,"is_disabled":false,"rental_uris":{"android":"levelo://app?vid=6d7e0450-89ad-4e81-9f4f-61db2e3e009a","ios":"levelo://app?vid=6d7e0450-89ad-4e81-9f4f-61db2e3e009a"},"vehicle_type_id":"4","last_reported":1741284781,"current_range_meters":16400,"station_id":"ce4bhpp2rcd13ifvqhfg","pricing_plan_id":"cebpf4jnsgd1na2vs0mg"},{"bike_id":"eaad2985-b5d2-4ecf-baaa-a4bd36656e5d","system_id":"levelo_inurba_marseille","lat":43.29417,"lon":5.38625,"is_reserved":false,"is_disabled":false,"rental_uris":{"android":"levelo://app?vid=eaad2985-b5d2-4ecf-baaa-a4bd36656e5d","ios":"levelo://app?vid=eaad2985-b5d2-4ecf-baaa-a4bd36656e5d"},"vehicle_type_id":"4","last_reported":1741284781,"current_range_meters":16400,"station_id":"ce4bh2h2rcd13ifvqdh0","pricing_plan_id":"cebpf4jnsgd1na2vs0mg"},{"bike_id":"c67d6675-0538-4597-b725-fbd5f4726d8c","system_id":"levelo_inurba_marseille","lat":43.25115,"lon":5.40316,"is_reserved":false,"is_disabled":false,"rental_uris":{"android":"levelo://app?vid=c67d6675-0538-4597-b725-fbd5f4726d8c","ios":"levelo://app?vid=c67d6675-0538-4597-b725-fbd5f4726d8c"},"vehicle_type_id":"4","last_reported":1741284781,"current_range_meters":16400,"station_id":"ce4bhlh2rcd13ifvqgig","pricing_plan_id":"cebpf4jnsgd1na2vs0mg"},{"bike_id":"0a511735-05fe-4c3b-91c6-51e6f8c4071b","system_id":"levelo_inurba_marseille","lat":43.28674,"lon":5.38681,"is_reserved":false,"is_disabled":false,"rental_uris":{"android":"levelo://app?vid=0a511735-05fe-4c3b-91c6-51e6f8c4071b","ios":"levelo://app?vid=0a511735-05fe-4c3b-91c6-51e6f8c4071b"},"vehicle_type_id":"4","last_reported":1741284781,"current_range_meters":16400,"station_id":"ce4bh492rcd13ifvqdug","pricing_plan_id":"cebpf4jnsgd1na2vs0mg"},{"bike_id":"9b57373e-3e4c-4857-9a3f-d2d1b3142955","system_id":"levelo_inurba_marseille","lat":43.30947,"lon":5.39035,"is_reserved":false,"is_disabled":false,"rental_uris":{"android":"levelo://app?vid=9b57373e-3e4c-4857-9a3f-d2d1b3142955","ios":"levelo://app?vid=9b57373e-3e4c-4857-9a3f-d2d1b3142955"},"vehicle_type_id":"4","last_reported":1741284781,"current_range_meters":16400,"station_id":"ce4bgup2rcd13ifvqco0","pricing_plan_id":"cebpf4jnsgd1na2vs0mg"},{"bike_id":"9efbff90-6380-4e58-8359-a0c4a1eca8c5","system_id":"levelo_inurba_marseille","lat":43.32359,"lon":5.38869,"is_reserved":false,"is_disabled":false,"rental_uris":{"android":"levelo://app?vid=9efbff90-6380-4e58-8359-a0c4a1eca8c5","ios":"levelo://app?vid=9efbff90-6380-4e58-8359-a0c4a1eca8c5"},"vehicle_type_id":"4","last_reported":1741284781,"current_range_meters":16400,"station_id":"ce4bhqp2rcd13ifvqhog","pricing_plan_id":"cebpf4jnsgd1na2vs0mg"},{"bike_id":"61598fb2-9b4c-4de8-8bc7-17c20d45b5ab","system_id":"levelo_inurba_marseille","lat":43.29417,"lon":5.38626,"is_reserved":false,"is_disabled":false,"rental_uris":{"android":"levelo://app?vid=61598fb2-9b4c-4de8-8bc7-17c20d45b5ab","ios":"levelo://app?vid=61598fb2-9b4c-4de8-8bc7-17c20d45b5ab"},"vehicle_type_id":"4","last_reported":1741284781,"current_range_meters":16400,"station_id":"ce4bh2h2rcd13ifvqdh0","pricing_plan_id":"cebpf4jnsgd1na2vs0mg"},{"bike_id":"5820a5de-dcd8-4a03-8c76-bc8a1dbac226","system_id":"levelo_inurba_marseille","lat":43.28405,"lon":5.37508,"is_reserved":false,"is_disabled":false,"rental_uris":{"android":"levelo://app?vid=5820a5de-dcd8-4a03-8c76-bc8a1dbac226","ios":"levelo://app?vid=5820a5de-dcd8-4a03-8c76-bc8a1dbac226"},"vehicle_type_id":"4","last_reported":1741284781,"current_range_meters":16400,"station_id":"ce4bh412rcd13ifvqds0","pricing_plan_id":"cebpf4jnsgd1na2vs0mg"},{"bike_id":"d6c64824-ce81-4e9f-b7d4-560752e19c1b","system_id":"levelo_inurba_marseille","lat":43.3211,"lon":5.36768,"is_reserved":false,"is_disabled":false,"rental_uris":{"android":"levelo://app?vid=d6c64824-ce81-4e9f-b7d4-560752e19c1b","ios":"levelo://app?vid=d6c64824-ce81-4e9f-b7d4-560752e19c1b"},"vehicle_type_id":"4","last_reported":1741284781,"current_range_meters":16400,"station_id":"ce4bhrh2rcd13ifvqhug","pricing_plan_id":"cebpf4jnsgd1na2vs0mg"},{"bike_id":"aa136062-4452-4213-b52a-863eef2234f3","system_id":"levelo_inurba_marseille","lat":43.30408,"lon":5.41289,"is_reserved":false,"is_disabled":false,"rental_uris":{"android":"levelo://app?vid=aa136062-4452-4213-b52a-863eef2234f3","ios":"levelo://app?vid=aa136062-4452-4213-b52a-863eef2234f3"},"vehicle_type_id":"4","last_reported":1741284781,"current_range_meters":16000,"station_id":"ce4bhop2rcd13ifvqh8g","pricing_plan_id":"cebpf4jnsgd1na2vs0mg"},{"bike_id":"10295b4f-3d1e-4d25-aaca-b5c2a9ad8987","system_id":"levelo_inurba_marseille","lat":43.26033,"lon":5.37551,"is_reserved":false,"is_disabled":false,"rental_uris":{"android":"levelo://app?vid=10295b4f-3d1e-4d25-aaca-b5c2a9ad8987","ios":"levelo://app?vid=10295b4f-3d1e-4d25-aaca-b5c2a9ad8987"},"vehicle_type_id":"4","last_reported":1741284781,"current_range_meters":16800,"station_id":"ce4bhgh2rcd13ifvqfa0","pricing_plan_id":"cebpf4jnsgd1na2vs0mg"},{"bike_id":"0ba1d17c-e9b0-46f4-b74c-3d942e92c89a","system_id":"levelo_inurba_marseille","lat":43.24652,"lon":5.3889,"is_reserved":false,"is_disabled":false,"rental_uris":{"android":"levelo://app?vid=0ba1d17c-e9b0-46f4-b74c-3d942e92c89a","ios":"levelo://app?vid=0ba1d17c-e9b0-46f4-b74c-3d942e92c89a"},"vehicle_type_id":"4","last_reported":1741284781,"current_range_meters":16400,"station_id":"ce4bhg12rcd13ifvqf60","pricing_plan_id":"cebpf4jnsgd1na2vs0mg"},{"bike_id":"d45e6533-8dbf-4be9-a28e-c9db04d69514","system_id":"levelo_inurba_marseille","lat":43.27622,"lon":5.36121,"is_reserved":false,"is_disabled":false,"rental_uris":{"android":"levelo://app?vid=d45e6533-8dbf-4be9-a28e-c9db04d69514","ios":"levelo://app?vid=d45e6533-8dbf-4be9-a28e-c9db04d69514"},"vehicle_type_id":"4","last_reported":1741284781,"current_range_meters":16800,"station_id":"ce4bgj92rcd13ifvqbe0","pricing_plan_id":"cebpf4jnsgd1na2vs0mg"},{"bike_id":"6e4a756b-e884-4230-b609-1d38b8a13e31","system_id":"levelo_inurba_marseille","lat":43.2961,"lon":5.38109,"is_reserved":false,"is_disabled":false,"rental_uris":{"android":"levelo://app?vid=6e4a756b-e884-4230-b609-1d38b8a13e31","ios":"levelo://app?vid=6e4a756b-e884-4230-b609-1d38b8a13e31"},"vehicle_type_id":"4","last_reported":1741284781,"current_range_meters":16800,"station_id":"ce4bgl12rcd13ifvqbo0","pricing_plan_id":"cebpf4jnsgd1na2vs0mg"},{"bike_id":"0510f9b6-6537-45a4-9d77-40cebf699f92","system_id":"levelo_inurba_marseille","lat":43.28157,"lon":5.42643,"is_reserved":false,"is_disabled":false,"rental_uris":{"android":"levelo://app?vid=0510f9b6-6537-45a4-9d77-40cebf699f92","ios":"levelo://app?vid=0510f9b6-6537-45a4-9d77-40cebf699f92"},"vehicle_type_id":"4","last_reported":1741284781,"current_range_meters":16800,"station_id":"ce4bhnh2rcd13ifvqgug","pricing_plan_id":"cebpf4jnsgd1na2vs0mg"},{"bike_id":"071b9a34-0400-4d7c-a058-216e31cd4a76","system_id":"levelo_inurba_marseille","lat":43.29909,"lon":5.37476,"is_reserved":false,"is_disabled":false,"rental_uris":{"android":"levelo://app?vid=071b9a34-0400-4d7c-a058-216e31cd4a76","ios":"levelo://app?vid=071b9a34-0400-4d7c-a058-216e31cd4a76"},"vehicle_type_id":"4","last_reported":1741284781,"current_range_meters":16400,"station_id":"ce4bgjh2rcd13ifvqbg0","pricing_plan_id":"cebpf4jnsgd1na2vs0mg"},{"bike_id":"ec817efa-0a38-47f9-8760-796375f2aa91","system_id":"levelo_inurba_marseille","lat":43.29263,"lon":5.38448,"is_reserved":false,"is_disabled":false,"rental_uris":{"android":"levelo://app?vid=ec817efa-0a38-47f9-8760-796375f2aa91","ios":"levelo://app?vid=ec817efa-0a38-47f9-8760-796375f2aa91"},"vehicle_type_id":"4","last_reported":1741284781,"current_range_meters":16800,"station_id":"ce4bh692rcd13ifvqea0","pricing_plan_id":"cebpf4jnsgd1na2vs0mg"},{"bike_id":"75997a3e-acf9-448d-8fa8-643ba3f7e57c","system_id":"levelo_inurba_marseille","lat":43.2571,"lon":5.41126,"is_reserved":false,"is_disabled":false,"rental_uris":{"android":"levelo://app?vid=75997a3e-acf9-448d-8fa8-643ba3f7e57c","ios":"levelo://app?vid=75997a3e-acf9-448d-8fa8-643ba3f7e57c"},"vehicle_type_id":"4","last_reported":1741284781,"current_range_meters":17200,"station_id":"ce4bhkp2rcd13ifvqgd0","pricing_plan_id":"cebpf4jnsgd1na2vs0mg"},{"bike_id":"29920178-f2e2-4727-b7d6-7f2f5df15acf","system_id":"levelo_inurba_marseille","lat":43.26019,"lon":5.41739,"is_reserved":false,"is_disabled":false,"rental_uris":{"android":"levelo://app?vid=29920178-f2e2-4727-b7d6-7f2f5df15acf","ios":"levelo://app?vid=29920178-f2e2-4727-b7d6-7f2f5df15acf"},"vehicle_type_id":"4","last_reported":1741284781,"current_range_meters":16800,"station_id":"","pricing_plan_id":"cebpf4jnsgd1na2vs0mg"},