{"last_updated":1712592599,"ttl":30,"version":"2.2","data":{"bikes":[{"bike_id":"12d45d60-47a3-49bc-be4e-97da0e4bc4ae","system_id":"levelo_inurba_marseille","lat":43.313612,"lon":5.367169,"is_reserved":false,"is_disabled":false,"rental_uris":{"android":"levelo://app?vid=12d45d60-47a3-49bc-be4e-97da0e4bc4ae","ios":"levelo://app?vid=12d45d60-47a3-49bc-be4e-97da0e4bc4ae"},"vehicle_type_id":"4","last_reported":1712592599,"current_range_meters":19600,"station_id":"ce4bh2h2rcd13ifvqdh0","pricing_plan_id":"cebpf4jnsgd1na2vs0mg"},{"bike_id":"99a2134b-199d-4c21-acab-0c7a07d6b892","system_id":"levelo_inurba_marseille","lat":43.31369,"lon":5.36706,"is_reserved":false,"is_disabled":false,"rental_uris":{"android":"levelo://app?vid=99a2134b-199d-4c21-acab-0c7a07d6b892","ios":"levelo://app?vid=99a2134b-199d-4c21-acab-0c7a07d6b892"},"vehicle_type_id":"4","last_reported":1712592599,"current_range_meters":0,"station_id":"ce4bgr92rcd13ifvqc6g","pricing_plan_id":"cebpf4jnsgd1na2vs0mg"},{"bike_id":"9b241f7b-9095-47b3-8827-d3ef2106269a","system_id":"levelo_inurba_marseille","lat":43.312175,"lon":5.368458,"is_reserved":false,"is_disabled":false,"rental_uris":{"android":"levelo://app?vid=9b241f7b-9095-47b3-8827-d3ef2106269a","ios":"levelo://app?vid=9b241f7b-9095-47b3-8827-d3ef2106269a"},"vehicle_type_id":"4","last_reported":1712592599,"current_range_meters":22000,"station_id":"ce4bgl92rcd13ifvqbq0","pricing_plan_id":"cebpf4jnsgd1na2vs0mg"},{"bike_id":"472833be-8150-407f-9c52-e6640ad37d52","system_id":"levelo_inurba_marseille","lat":43.312239,"lon":5.368562,"is_reserved":false,"is_disabled":false,"rental_uris":{"android":"levelo://app?vid=472833be-8150-407f-9c52-e6640ad37d52","ios":"levelo://app?vid=472833be-8150-407f-9c52-e6640ad37d52"},"vehicle_type_id":"4","last_reported":1712592599,"current_range_meters":0,"station_id":"ce4bgl92rcd13ifvqbq0","pricing_plan_id":"cebpf4jnsgd1na2vs0mg"},{"bike_id":"c2ea3017-81ac-4477-a630-22f2db633325","system_id":"levelo_inurba_marseille","lat":43.30916,"lon":5.36845,"is_reserved":false,"is_disabled":false,"rental_uris":{"android":"levelo://app?vid=c2ea3017-81ac-4477-a630-22f2db633325","ios":"levelo://app?vid=c2ea3017-81ac-4477-a630-22f2db633325"},"vehicle_type_id":"4","last_reported":1712592599,"current_range_meters":14800,"station_id":"ce4bgn92rcd13ifvqbvg","pricing_plan_id":"cebpf4jnsgd1na2vs0mg"},{"bike_id":"73706916-b3f3-4ff0-b068-cec67895e8b1","system_id":"levelo_inurba_marseille","lat":43.308445,"lon":5.367738,"is_reserved":false,"is_disabled":false,"rental_uris":{"android":"levelo://app?vid=73706916-b3f3-4ff0-b068-cec67895e8b1","ios":"levelo://app?vid=73706916-b3f3-4ff0-b068-cec67895e8b1"},"vehicle_type_id":"4","last_reported":1712592599,"current_range_meters":4000,"station_id":"","pricing_plan_id":"cebpf4jnsgd1na2vs0mg"},{"bike_id":"1fe58ad0-3c0f-45d5-9377-62df29c50779","system_id":"levelo_inurba_marseille","lat":43.314811,"lon":5.373103,"is_reserved":false,"is_disabled":false,"rental_uris":{"android":"levelo://app?vid=1fe58ad0-3c0f-45d5-9377-62df29c50779","ios":"levelo://app?vid=1fe58ad0-3c0f-45d5-9377-62df29c50779"},"vehicle_type_id":"4","last_reported":1712592599,"current_range_meters":29200,"station_id":"ce4bgt12rcd13ifvqcd0","pricing_plan_id":"cebpf4jnsgd1na2vs0mg"},{"bike_id":"278a3584-d232-426a-9cda-0841ac6d8be4","system_id":"levelo_inurba_marseille","lat":43.314811,"lon":5.373103,"is_reserved":false,"is_disabled":false,"rental_uris":{"android":"levelo://app?vid=278a3584-d232-426a-9cda-0841ac6d8be4","ios":"levelo://app?vid=278a3584-d232-426a-9cda-0841ac6d8be4"},"vehicle_type_id":"4","last_reported":1712592599,"current_range_meters":2000,"station_id":"ce4bgt12rcd13ifvqcd0","pricing_plan_id":"cebpf4jnsgd1na2vs0mg"},{"bike_id":"e9e5ff66-45f7-4e97-b790-f00f1fe3b061","system_id":"levelo_inurba_marseille","lat":43.299707,"lon":5.384859,"is_reserved":false,"is_disabled":false,"rental_uris":{"android":"levelo://app?vid=e9e5ff66-45f7-4e97-b790-f00f1fe3b061","ios":"levelo://app?vid=e9e5ff66-45f7-4e97-b790-f00f1fe3b061"},"vehicle_type_id":"4","last_reported":1712592599,"current_range_meters":2000,"station_id":"ce4bgj92rcd13ifvqbd0","pricing_plan_id":"cebpf4jnsgd1na2vs0mg"},{"bike_id":"90856673-eb06-4a03-b263-25662b3f0a6d","system_id":"levelo_inurba_marseille","lat":43.305712,"lon":5.365641,"is_reserved":false,"is_disabled":false,"rental_uris":{"android":"levelo://app?vid=90856673-eb06-4a03-b263-25662b3f0a6d","ios":"levelo://app?vid=90856673-eb06-4a03-b263-25662b3f0a6d"},"vehicle_type_id":"4","last_reported":1712592599,"current_range_meters":0,"station_id":"ce4bgs12rcd13ifvqcag","pricing_plan_id":"cebpf4jnsgd1na2vs0mg"},{"bike_id":"42a56c58-e72b-4024-b33f-1f9afaa180f1","system_id":"levelo_inurba_marseille","lat":43.317075,"lon":5.377367,"is_reserved":false,"is_disabled":false,"rental_uris":{"android":"levelo://app?vid=42a56c58-e72b-4024-b33f-1f9afaa180f1","ios":"levelo://app?vid=42a56c58-e72b-4024-b33f-1f9afaa180f1"},"vehicle_type_id":"4","last_reported":1712592599,"current_range_meters":14800,"station_id":"ce4bgth2rcd13ifvqch0","pricing_plan_id":"cebpf4jnsgd1na2vs0mg"},{"bike_id":"0f11eb1b-7a3c-42d4-9f87-3be20602bc13","system_id":"levelo_inurba_marseille","lat":43.305989,"lon":5.37225,"is_reserved":false,"is_disabled":false,"rental_uris":{"android":"levelo://app?vid=0f11eb1b-7a3c-42d4-9f87-3be20602bc13","ios":"levelo://app?vid=0f11eb1b-7a3c-42d4-9f87-3be20602bc13"},"vehicle_type_id":"4","last_reported":1712592599,"current_range_meters":2800,"station_id":"ce4bgqh2rcd13ifvqc4g","pricing_plan_id":"cebpf4jnsgd1na2vs0mg"},{"bike_id":"d4d2e2fe-0884-45aa-a5d6-9eb9985a2f24","system_id":"levelo_inurba_marseille","lat":43.301117,"lon":5.398795,"is_reserved":false,"is_disabled":false,"rental_uris":{"android":"levelo://app?vid=d4d2e2fe-0884-45aa-a5d6-9eb9985a2f24","ios":"levelo://app?vid=d4d2e2fe-0884-45aa-a5d6-9eb9985a2f24"},"vehicle_type_id":"4","last_reported":1712592599,"current_range_meters":5200,"station_id":"ce4bh0h2rcd13ifvqd40","pricing_plan_id":"cebpf4jnsgd1na2vs0mg"},{"bike_id":"c8e49174-0496-422b-9b3b-33a7c014ea96","system_id":"levelo_inurba_marseille","lat":43.305989,"lon":5.37225,"is_reserved":false,"is_disabled":false,"rental_uris":{"android":"levelo://app?vid=c8e49174-0496-422b-9b3b-33a7c014ea96","ios":"levelo://app?vid=c8e49174-0496-422b-9b3b-33a7c014ea96"},"vehicle_type_id":"4","last_reported":1712592599,"current_range_meters":23200,"station_id":"ce4bgqh2rcd13ifvqc4g","pricing_plan_id":"cebpf4jnsgd1na2vs0mg"},{"bike_id":"15152a60-6468-4e61-a172-dd6223cfe86f","system_id":"levelo_inurba_marseille","lat":43.305989,"lon":5.37225,"is_reserved":false,"is_disabled":false,"rental_uris":{"android":"levelo://app?vid=15152a60-6468-4e61-a172-dd6223cfe86f","ios":"levelo://app?vid=15152a60-6468-4e61-a172-dd6223cfe86f"},"vehicle_type_id":"4","last_reported":1712592599,"current_range_meters":8400,"station_id":"ce4bgqh2rcd13ifvqc4g","pricing_plan_id":"cebpf4jnsgd1na2vs0mg"},{"bike_id":"b365b9a7-c686-42db-af3c-21d31f83bb90","system_id":"levelo_inurba_marseille","lat":43.311131,"lon":5.377651,"is_reserved":false,"is_disabled":false,"rental_uris":{"android":"levelo://app?vid=b365b9a7-c686-42db-af3c-21d31f83bb90","ios":"levelo://app?vid=b365b9a7-c686-42db-af3c-21d31f83bb90"},"vehicle_type_id":"4","last_reported":1712592599,"current_range_meters":7600,"station_id":"ce4bgt92rcd13ifvqcg0","pricing_plan_id":"cebpf4jnsgd1na2vs0mg"},{"bike_id":"85c4b91f-e8a5-4317-bf8b-d48c89d5dc50","system_id":"levelo_inurba_marseille","lat":43.311131,"lon":5.377651,"is_reserved":false,"is_disabled":false,"rental_uris":{"android":"levelo://app?vid=85c4b91f-e8a5-4317-bf8b-d48c89d5dc50","ios":"levelo://app?vid=85c4b91f-e8a5-4317-bf8b-d48c89d5dc50"},"vehicle_type_id":"4","last_reported":1712592599,"current_range_meters":9200,"station_id":"ce4bgt92rcd13ifvqcg0","pricing_plan_id":"cebpf4jnsgd1na2vs0mg"},{"bike_id":"cfa1a869-5ae5-4c72-ab3c-ddb5b6dd3850","system_id":"levelo_inurba_marseille","lat":43.311125,"lon":5.377624,"is_reserved":false,"is_disabled":false,"rental_uris":{"android":"levelo://app?vid=cfa1a869-5ae5-4c72-ab3c-ddb5b6dd3850","ios":"levelo://app?vid=cfa1a869-5ae5-4c72-ab3c-ddb5b6dd3850"},"vehicle_type_id":"4","last_reported":1712592599,"current_range_meters":13200,"station_id":"ce4bgt92rcd13ifvqcg0","pricing_plan_id":"cebpf4jnsgd1na2vs0mg"},{"bike_id":"700e4c90-5f25-41b2-9548-ba8f0a5e80ef","system_id":"levelo_inurba_marseille","lat":43.311125,"lon":5.377624,"is_reserved":false,"is_disabled":false,"rental_uris":{"android":"levelo://app?vid=700e4c90-5f25-41b2-9548-ba8f0a5e80ef","ios":"levelo://app?vid=700e4c90-5f25-41b2-9548-ba8f0a5e80ef"},"vehicle_type_id":"4","last_reported":1712592599,"current_range_meters":18000,"station_id":"ce4bgt92rcd13ifvqcg0","pricing_plan_id":"cebpf4jnsgd1na2vs0mg"},{"bike_id":"39012c15-2837-41f1-8a50-a75476f1e7fa","system_id":"levelo_inurba_marseille","lat":43.307945,"lon":5.376487,"is_reserved":false,"is_disabled":false,"rental_uris":{"android":"levelo://app?vid=39012c15-2837-41f1-8a50-a75476f1e7fa","ios":"levelo://app?vid=39012c15-2837-41f1-8a50-a75476f1e7fa"},"vehicle_type_id":"4","last_reported":1712592599,"current_range_meters":12000,"station_id":"ce4bgv92rcd13ifvqcq0","pricing_plan_id":"cebpf4jnsgd1na2vs0mg"},{"bike_id":"ac5a5116-f224-469d-aa88-cb6a9fb3f434","system_id":"levelo_inurba_marseille","lat":43.307945,"lon":5.376487,"is_reserved":false,"is_disabled":false,"rental_uris":{"android":"levelo://app?vid=ac5a5116-f224-469d-aa88-cb6a9fb3f434","ios":"levelo://app?vid=ac5a5116-f224-469d-aa88-cb6a9fb3f434"},"vehicle_type_id":"4","last_reported":1712592599,"current_range_meters":20400,"station_id":"ce4bgv92rcd13ifvqcq0","pricing_plan_id":"cebpf4jnsgd1na2vs0mg"},{"bike_id":"a78ddb1d-7b3e-44f5-a5b1-aa75629f6127","system_id":"levelo_inurba_marseille","lat":43.307945,"lon":5.376487,"is_reserved":false,"is_disabled":false,"rental_uris":{"android":"levelo://app?vid=a78ddb1d-7b3e-44f5-a5b1-aa75629f6127","ios":"levelo://app?vid=a78ddb1d-7b3e-44f5-a5b1-aa75629f6127"},"vehicle_type_id":"4","last_reported":1712592599,"current_range_meters":25600,"station_id":"ce4bgv92rcd13ifvqcq0","pricing_plan_id":"cebpf4jnsgd1na2vs0mg"},{"bike_id":"0b652838-12b5-40bd-b62a-8506bab4f982","system_id":"levelo_inurba_marseille","lat":43.317075,"lon":5.377367,"is_reserved":false,"is_disabled":false,"rental_uris":{"android":"levelo://app?vid=0b652838-12b5-40bd-b62a-8506bab4f982","ios":"levelo://app?vid=0b652838-12b5-40bd-b62a-8506bab4f982"},"vehicle_type_id":"4","last_reported":1712592599,"current_range_meters":3600,"station_id":"ce4bgth2rcd13ifvqch0","pricing_plan_id":"cebpf4jnsgd1na2vs0mg"},{"bike_id":"fb2e6edf-c284-467d-8d26-80911a54ddcd","system_id":"levelo_inurba_marseille","lat":43.317075,"lon":5.377367,"is_reserved":false,"is_disabled":false,"rental_uris":{"android":"levelo://app?vid=fb2e6edf-c284-467d-8d26-80911a54ddcd","ios":"levelo://app?vid=fb2e6edf-c284-467d-8d26-80911a54ddcd"},"vehicle_type_id":"4","last_reported":1712592599,"current_range_meters":31200,"station_id":"ce4bgth2rcd13ifvqch0","pricing_plan_id":"cebpf4jnsgd1na2vs0mg"},{"bike_id":"75b88cd8-3f31-4f12-b2d7-5f1d648857d7","system_id":"levelo_inurba_marseille","lat":43.317075,"lon":5.377367,"is_reserved":false,"is_disabled":false,"rental_uris":{"android":"levelo://app?vid=75b88cd8-3f31-4f12-b2d7-5f1d648857d7","ios":"levelo://app?vid=75b88cd8-3f31-4f12-b2d7-5f1d648857d7"},"vehicle_type_id":"4","last_reported":1712592599,"current_range_meters":8400,"station_id":"ce4bgth2rcd13ifvqch0","pricing_plan_id":"cebpf4jnsgd1na2vs0mg"},{"bike_id":"c23a2517-1197-4f18-87e6-88bba7bbbb3f","system_id":"levelo_inurba_marseille","lat":43.317075,"lon":5.377367,"is_reserved":false,"is_disabled":false,"rental_uris":{"android":"levelo://app?vid=c23a2517-1197-4f18-87e6-88bba7bbbb3f","ios":"levelo://app?vid=c23a2517-1197-4f18-87e6-88bba7bbbb3f"},"vehicle_type_id":"4","last_reported":1712592599,"current_range_meters":14800,"station_id":"ce4bgth2rcd13ifvqch0","pricing_plan_id":"cebpf4jnsgd1na2vs0mg"},{"bike_id":"a475b751-6b26-4cee-993e-d4f2126067b7","system_id":"levelo_inurba_marseille","lat":43.303056,"lon":5.369009,"is_reserved":false,"is_disabled":false,"rental_uris":{"android":"levelo://app?vid=a475b751-6b26-4cee-993e-d4f2126067b7","ios":"levelo://app?vid=a475b751-6b26-4cee-993e-d4f2126067b7"},"vehicle_type_id":"4","last_reported":1712592599,"current_range_meters":0,"station_id":"ce4bgqh2rcd13ifvqc5g","pricing_plan_id":"cebpf4jnsgd1na2vs0mg"},{"bike_id":"06f917d4-1eff-4335-853d-42a4309aecb2","system_id":"levelo_inurba_marseille","lat":43.302978,"lon":5.368922,"is_reserved":false,"is_disabled":false,"rental_uris":{"android":"levelo://app?vid=06f917d4-1eff-4335-853d-42a4309aecb2","ios":"levelo://app?vid=06f917d4-1eff-4335-853d-42a4309aecb2"},"vehicle_type_id":"4","last_reported":1712592599,"current_range_meters":1200,"station_id":"ce4bh0h2rcd13ifvqd40","pricing_plan_id":"cebpf4jnsgd1na2vs0mg"},{"bike_id":"3ea7c4ff-a963-4711-a528-2ef5227268e0","system_id":"levelo_inurba_marseille","lat":43.30194,"lon":5.36611,"is_reserved":false,"is_disabled":false,"rental_uris":{"android":"levelo://app?vid=3ea7c4ff-a963-4711-a528-2ef5227268e0","ios":"levelo://app?vid=3ea7c4ff-a963-4711-a528-2ef5227268e0"},"vehicle_type_id":"4","last_reported":1712592599,"current_range_meters":0,"station_id":"ce4bgrh2rcd13ifvqc8g","pricing_plan_id":"cebpf4jnsgd1na2vs0mg"},{"bike_id":"140d2b0d-7213-4643-becc-aef385fe831f","system_id":"levelo_inurba_marseille","lat":43.302992,"lon":5.392136,"is_reserved":false,"is_disabled":false,"rental_uris":{"android":"levelo://app?vid=140d2b0d-7213-4643-becc-aef385fe831f","ios":"levelo://app?vid=140d2b0d-7213-4643-becc-aef385fe831f"},"vehicle_type_id":"4","last_reported":1712592599,"current_range_meters":23600,"station_id":"ce4bgkh2rcd13ifvqbk0","pricing_plan_id":"cebpf4jnsgd1na2vs0mg"},{"bike_id":"af1a24c1-55eb-4fc0-9773-c224fab83514","system_id":"levelo_inurba_marseille","lat":43.286961,"lon":5.373785,"is_reserved":false,"is_disabled":false,"rental_uris":{"android":"levelo://app?vid=af1a24c1-55eb-4fc0-9773-c224fab83514","ios":"levelo://app?vid=af1a24c1-55eb-4fc0-9773-c224fab83514"},"vehicle_type_id":"4","last_reported":1712592599,"current_range_meters":1600,"station_id":"ce4bh3p2rcd13ifvqdq0","pricing_plan_id":"cebpf4jnsgd1na2vs0mg"},{"bike_id":"d2cbee99-54b7-434c-852b-539dc59c7c58","system_id":"levelo_inurba_marseille","lat":43.324571,"lon":5.366252,"is_reserved":false,"is_disabled":false,"rental_uris":{"android":"levelo://app?vid=d2cbee99-54b7-434c-852b-539dc59c7c58","ios":"levelo://app?vid=d2cbee99-54b7-434c-852b-539dc59c7c58"},"vehicle_type_id":"4","last_reported":1712592599,"current_range_meters":18400,"station_id":"ce4bhs12rcd13ifvqhvg","pricing_plan_id":"cebpf4jnsgd1na2vs0mg"},{"bike_id":"f2f0a323-f4cf-4d69-bda0-3382b45e92bd","system_id":"levelo_inurba_marseille","lat":43.32475,"lon":5.36566,"is_reserved":false,"is_disabled":false,"rental_uris":{"android":"levelo://app?vid=f2f0a323-f4cf-4d69-bda0-3382b45e92bd","ios":"levelo://app?vid=f2f0a323-f4cf-4d69-bda0-3382b45e92bd"},"vehicle_type_id":"4","last_reported":1712592599,"current_range_meters":10400,"station_id":"ce4bhs12rcd13ifvqhvg","pricing_plan_id":"cebpf4jnsgd1na2vs0mg"},{"bike_id":"dd1eeaf3-7ce5-435e-b6c8-fd616106d621","system_id":"levelo_inurba_marseille","lat":43.324771,"lon":5.36557,"is_reserved":false,"is_disabled":false,"rental_uris":{"android":"levelo://app?vid=dd1eeaf3-7ce5-435e-b6c8-fd616106d621","ios":"levelo://app?vid=dd1eeaf3-7ce5-435e-b6c8-fd616106d621"},"vehicle_type_id":"4","last_reported":1712592599,"current_range_meters":20800,"station_id":"ce4bhs12rcd13ifvqhvg","pricing_plan_id":"cebpf4jnsgd1na2vs0mg"},{"bike_id":"09bc3728-6a2f-4fbf-ac3e-472e53d881aa","system_id":"levelo_inurba_marseille","lat":43.32476,"lon":5.36557,"is_reserved":false,"is_disabled":false,"rental_uris":{"android":"levelo://app?vid=09bc3728-6a2f-4fbf-ac3e-472e53d881aa","ios":"levelo://app?vid=09bc3728-6a2f-4fbf-ac3e-472e53d881aa"},"vehicle_type_id":"4","last_reported":1712592599,"current_range_meters":11600,"station_id":"ce4bhs12rcd13ifvqhvg","pricing_plan_id":"cebpf4jnsgd1na2vs0mg"},{"bike_id":"d3b996e9-4da1-4b89-87ff-4d5a0f28982e","system_id":"levelo_inurba_marseille","lat":43.324771,"lon":5.36557,"is_reserved":false,"is_disabled":false,"rental_uris":{"android":"levelo://app?vid=d3b996e9-4da1-4b89-87ff-4d5a0f28982e","ios":"levelo://app?vid=d3b996e9-4da1-4b89-87ff-4d5a0f28982e"},"vehicle_type_id":"4","last_reported":1712592599,"current_range_meters":16400,"station_id":"ce4bhs12rcd13ifvqhvg","pricing_plan_id":"cebpf4jnsgd1na2vs0mg"},{"bike_id":"d12e7c2e-a3f2-4647-9ec1-aad839340afa","system_id":"levelo_inurba_marseille","lat":43.324771,"lon":5.36557,"is_reserved":false,"is_disabled":false,"rental_uris":{"android":"levelo://app?vid=d12e7c2e-a3f2-4647-9ec1-aad839340afa","ios":"levelo://app?vid=d12e7c2e-a3f2-4647-9ec1-aad839340afa"},"vehicle_type_id":"4","last_reported":1712592599,"current_range_meters":15600,"station_id":"ce4bhs12rcd13ifvqhvg","pricing_plan_id":"cebpf4jnsgd1na2vs0mg"},{"bike_id":"ae9751a8-2016-4a84-aeba-1adb7b63fea8","system_id":"levelo_inurba_marseille","lat":43.32479,"lon":5.36571,"is_reserved":false,"is_disabled":false,"rental_uris":{"android":"levelo://app?vid=ae9751a8-2016-4a84-aeba-1adb7b63fea8","ios":"levelo://app?vid=ae9751a8-2016-4a84-aeba-1adb7b63fea8"},"vehicle_type_id":"4","last_reported":1712592599,"current_range_meters":18400,"station_id":"ce4bhs12rcd13ifvqhvg","pricing_plan_id":"cebpf4jnsgd1na2vs0mg"},{"bike_id":"1c4dd20d-c24f-46b2-ac1d-69815e6fdfc0","system_id":"levelo_inurba_marseille","lat":43.32479,"lon":5.36566,"is_reserved":false,"is_disabled":false,"rental_uris":{"android":"levelo://app?vid=1c4dd20d-c24f-46b2-ac1d-69815e6fdfc0","ios":"levelo://app?vid=1c4dd20d-c24f-46b2-ac1d-69815e6fdfc0"},"vehicle_type_id":"4","last_reported":1712592599,"current_range_meters":16000,"station_id":"ce4bhs12rcd13ifvqhvg","pricing_plan_id":"cebpf4jnsgd1na2vs0mg"},{"bike_id":"b7373fc7-088e-4fcb-9af9-2e8e176eee32","system_id":"levelo_inurba_marseille","lat":43.308051,"lon":5.43527,"is_reserved":false,"is_disabled":false,"rental_uris":{"android":"levelo://app?vid=b7373fc7-088e-4fcb-9af9-2e8e176eee32","ios":"levelo://app?vid=b7373fc7-088e-4fcb-9af9-2e8e176eee32"},"vehicle_type_id":"4","last_reported":1712592599,"current_range_meters":2000,"station_id":"ce4bhph2rcd13ifvqheg","pricing_plan_id":"cebpf4jnsgd1na2vs0mg"},{"bike_id":"93f39419-5cbf-400a-91d0-19b962f1e4df","system_id":"levelo_inurba_marseille","lat":43.324771,"lon":5.36557,"is_reserved":false,"is_disabled":false,"rental_uris":{"android":"levelo://app?vid=93f39419-5cbf-400a-91d0-19b962f1e4df","ios":"levelo://app?vid=93f39419-5cbf-400a-91d0-19b962f1e4df"},"vehicle_type_id":"4","last_reported":1712592599,"current_range_meters":6000,"station_id":"ce4bhs12rcd13ifvqhvg","pricing_plan_id":"cebpf4jnsgd1na2vs0mg"},{"bike_id":"01476d0a-5718-431e-b889-1d620dc26f79","system_id":"levelo_inurba_marseille","lat":43.32481,"lon":5.3656,"is_reserved":false,"is_disabled":false,"rental_uris":{"android":"levelo://app?vid=01476d0a-5718-431e-b889-1d620dc26f79","ios":"levelo://app?vid=01476d0a-5718-431e-b889-1d620dc26f79"},"vehicle_type_id":"4","last_reported":1712592599,"current_range_meters":2000,"station_id":"ce4bhs12rcd13ifvqhvg","pricing_plan_id":"cebpf4jnsgd1na2vs0mg"},{"bike_id":"5cd7436a-1c11-4873-af7d-baa07ac34cd8","system_id":"levelo_inurba_marseille","lat":43.324771,"lon":5.36557,"is_reserved":false,"is_disabled":false,"rental_uris":{"android":"levelo://app?vid=5cd7436a-1c11-4873-af7d-baa07ac34cd8","ios":"levelo://app?vid=5cd7436a-1c11-4873-af7d-baa07ac34cd8"},"vehicle_type_id":"4","last_reported":1712592599,"current_range_meters":22000,"station_id":"ce4bhs12rcd13ifvqhvg","pricing_plan_id":"cebpf4jnsgd1na2vs0mg"},{"bike_id":"28a60fa5-83d7-47ac-8e02-bbd9305ed0d8","system_id":"levelo_inurba_marseille","lat":43.324771,"lon":5.36557,"is_reserved":false,"is_disabled":false,"rental_uris":{"android":"levelo://app?vid=28a60fa5-83d7-47ac-8e02-bbd9305ed0d8","ios":"levelo://app?vid=28a60fa5-83d7-47ac-8e02-bbd9305ed0d8"},"vehicle_type_id":"4","last_reported":1712592599,"current_range_meters":14800,"station_id":"ce4bhs12rcd13ifvqhvg","pricing_plan_id":"cebpf4jnsgd1na2vs0mg"},{"bike_id":"e5f2b374-ddd8-49c3-a434-e33694a979a4","system_id":"levelo_inurba_marseille","lat":43.32482,"lon":5.3656,"is_reserved":false,"is_disabled":false,"rental_uris":{"android":"levelo://app?vid=e5f2b374-ddd8-49c3-a434-e33694a979a4","ios":"levelo://app?vid=e5f2b374-ddd8-49c3-a434-e33694a979a4"},"vehicle_type_id":"4","last_reported":1712592599,"current_range_meters":26400,"station_id":"ce4bhs12rcd13ifvqhvg","pricing_plan_id":"cebpf4jnsgd1na2vs0mg"},{"bike_id":"d453f5f1-b263-477b-864b-bf2146099cf6","system_id":"levelo_inurba_marseille","lat":43.324771,"lon":5.36557,"is_reserved":false,"is_disabled":false,"rental_uris":{"android":"levelo://app?vid=d453f5f1-b263-477b-864b-bf2146099cf6","ios":"levelo://app?vid=d453f5f1-b263-477b-864b-bf2146099cf6"},"vehicle_type_id":"4","last_reported":1712592599,"current_range_meters":20400,"station_id":"ce4bhs12rcd13ifvqhvg","pricing_plan_id":"cebpf4jnsgd1na2vs0mg"},{"bike_id":"b61f5fce-3370-4eb2-9cfe-757ef3a5f155","system_id":"levelo_inurba_marseille","lat":43.324771,"lon":5.36557,"is_reserved":false,"is_disabled":false,"rental_uris":{"android":"levelo://app?vid=b61f5fce-3370-4eb2-9cfe-757ef3a5f155","ios":"levelo://app?vid=b61f5fce-3370-4eb2-9cfe-757ef3a5f155"},"vehicle_type_id":"4","last_reported":1712592599,"current_range_meters":26400,"station_id":"ce4bhs12rcd13ifvqhvg","pricing_plan_id":"cebpf4jnsgd1na2vs0mg"},{"bike_id":"7f1175c4-0172-440d-b61d-b816cff96fbc","system_id":"levelo_inurba_marseille","lat":43.324771,"lon":5.36557,"is_reserved":false,"is_disabled":false,"rental_uris":{"android":"levelo://app?vid=7f1175c4-0172-440d-b61d-b816cff96fbc","ios":"levelo://app?vid=7f1175c4-0172-440d-b61d-b816cff96fbc"},"vehicle_type_id":"4","last_reported":1712592599,"current_range_meters":22000,"station_id":"ce4bhs12rcd13ifvqhvg","pricing_plan_id":"cebpf4jnsgd1na2vs0mg"},{"bike_id":"d321dfb5-69a1-40cc-9d0a-d1c64f627e81","system_id":"levelo_inurba_marseille","lat":43.310804,"lon":5.38359,"is_reserved":false,"is_disabled":false,"rental_uris":{"android":"levelo://app?vid=d321dfb5-69a1-40cc-9d0a-d1c64f627e81","ios":"levelo://app?vid=d321dfb5-69a1-40cc-9d0a-d1c64f627e81"},"vehicle_type_id":"4","last_reported":1712592599,"current_range_meters":14400,"station_id":"ce4bgv92rcd13ifvqcr0","pricing_plan_id":"cebpf4jnsgd1na2vs0mg"},{"bike_id":"466fa14b-daa3-4177-b540-e71b4a8e6995","system_id":"levelo_inurba_marseille","lat":43.324771,"lon":5.36557,"is_reserved":false,"is_disabled":false,"rental_uris":{"android":"levelo://app?vid=466fa14b-daa3-4177-b540-e71b4a8e6995","ios":"levelo://app?vid=466fa14b-daa3-4177-b540-e71b4a8e6995"},"vehicle_type_id":"4","last_reported":1712592599,"current_range_meters":22400,"station_id":"ce4bhs12rcd13ifvqhvg","pricing_plan_id":"cebpf4jnsgd1na2vs0mg"},{"bike_id":"de400755-41b9-4a8f-a6c3-df0424637b5e","system_id":"levelo_inurba_marseille","lat":43.310799,"lon":5.383566,"is_reserved":false,"is_disabled":false,"rental_uris":{"android":"levelo://app?vid=de400755-41b9-4a8f-a6c3-df0424637b5e","ios":"levelo://app?vid=de400755-41b9-4a8f-a6c3-df0424637b5e"},"vehicle_type_id":"4","last_reported":1712592599,"current_range_meters":6400,"station_id":"ce4bgv92rcd13ifvqcr0","pricing_plan_id":"cebpf4jnsgd1na2vs0mg"},{"bike_id":"5f98ed74-44a4-4098-bed4-1e090710646a","system_id":"levelo_inurba_marseille","lat":43.301429,"lon":5.37413,"is_reserved":false,"is_disabled":false,"rental_uris":{"android":"levelo://app?vid=5f98ed74-44a4-4098-bed4-1e090710646a","ios":"levelo://app?vid=5f98ed74-44a4-4098-bed4-1e090710646a"},"vehicle_type_id":"4","last_reported":1712592599,"current_range_meters":13600,"station_id":"ce4bgs92rcd13ifvqcc0","pricing_plan_id":"cebpf4jnsgd1na2vs0mg"},{"bike_id":"981466c0-fe7b-4335-be2d-81c20427429c","system_id":"levelo_inurba_marseille","lat":43.30143,"lon":5.37413,"is_reserved":false,"is_disabled":false,"rental_uris":{"android":"levelo://app?vid=981466c0-fe7b-4335-be2d-81c20427429c","ios":"levelo://app?vid=981466c0-fe7b-4335-be2d-81c20427429c"},"vehicle_type_id":"4","last_reported":1712592599,"current_range_meters":0,"station_id":"ce4bgs92rcd13ifvqcc0","pricing_plan_id":"cebpf4jnsgd1na2vs0mg"},{"bike_id":"9b1c0880-6626-40f0-abbf-4e212257ba9c","system_id":"levelo_inurba_marseille","lat":43.306372,"lon":5.381801,"is_reserved":false,"is_disabled":false,"rental_uris":{"android":"levelo://app?vid=9b1c0880-6626-40f0-abbf-4e212257ba9c","ios":"levelo://app?vid=9b1c0880-6626-40f0-abbf-4e212257ba9c"},"vehicle_type_id":"4","last_reported":1712592599,"current_range_meters":10800,"station_id":"","pricing_plan_id":"cebpf4jnsgd1na2vs0mg"},{"bike_id":"65738c86-c085-48fa-8631-ab50e52c5da6","system_id":"levelo_inurba_marseille","lat":43.30143,"lon":5.37413,"is_reserved":false,"is_disabled":false,"rental_uris":{"android":"levelo://app?vid=65738c86-c085-48fa-8631-ab50e52c5da6","ios":"levelo://app?vid=65738c86-c085-48fa-8631-ab50e52c5da6"},"vehicle_type_id":"4","last_reported":1712592599,"current_range_meters":10400,"station_id":"ce4bgs92rcd13ifvqcc0","pricing_plan_id":"cebpf4jnsgd1na2vs0mg"},{"bike_id":"023082b1-c744-4ce2-8bc7-71d7cc951e8c","system_id":"levelo_inurba_marseille","lat":43.313571,"lon":5.384829,"is_reserved":false,"is_disabled":false,"rental_uris":{"android":"levelo://app?vid=023082b1-c744-4ce2-8bc7-71d7cc951e8c","ios":"levelo://app?vid=023082b1-c744-4ce2-8bc7-71d7cc951e8c"},"vehicle_type_id":"4","last_reported":1712592599,"current_range_meters":7200,"station_id":"ce4bgt92rcd13ifvqcf0","pricing_plan_id":"cebpf4jnsgd1na2vs0mg"},{"bike_id":"b4ce5fc7-b900-45b9-b666-50e8d1ba9eac","system_id":"levelo_inurba_marseille","lat":43.267966,"lon":5.393976,"is_reserved":false,"is_disabled":false,"rental_uris":{"android":"levelo://app?vid=b4ce5fc7-b900-45b9-b666-50e8d1ba9eac","ios":"levelo://app?vid=b4ce5fc7-b900-45b9-b666-50e8d1ba9eac"},"vehicle_type_id":"4","last_reported":1712592599,"current_range_meters":22800,"station_id":"ce4bhh12rcd13ifvqfg0","pricing_plan_id":"cebpf4jnsgd1na2vs0mg"},{"bike_id":"9bb9bdfc-1e36-4d2c-be1e-89df718ecd78","system_id":"levelo_inurba_marseille","lat":43.299724,"lon":5.371829,"is_reserved":false,"is_disabled":false,"rental_uris":{"android":"levelo://app?vid=9bb9bdfc-1e36-4d2c-be1e-89df718ecd78","ios":"levelo://app?vid=9bb9bdfc-1e36-4d2c-be1e-89df718ecd78"},"vehicle_type_id":"4","last_reported":1712592599,"current_range_meters":20000,"station_id":"ce4bgr92rcd13ifvqc7g","pricing_plan_id":"cebpf4jnsgd1na2vs0mg"},{"bike_id":"11be1e73-e6bf-467b-868d-07da67a9295f","system_id":"levelo_inurba_marseille","lat":43.3155,"lon":5.38588,"is_reserved":false,"is_disabled":false,"rental_uris":{"android":"levelo://app?vid=11be1e73-e6bf-467b-868d-07da67a9295f","ios":"levelo://app?vid=11be1e73-e6bf-467b-868d-07da67a9295f"},"vehicle_type_id":"4","last_reported":1712592599,"current_range_meters":17600,"station_id":"","pricing_plan_id":"cebpf4jnsgd1na2vs0mg"},{"bike_id":"0847c7b5-a2dc-4858-900a-426eac9eb40c","system_id":"levelo_inurba_marseille","lat":43.305364,"lon":5.384119,"is_reserved":false,"is_disabled":false,"rental_uris":{"android":"levelo://app?vid=0847c7b5-a2dc-4858-900a-426eac9eb40c","ios":"levelo://app?vid=0847c7b5-a2dc-4858-900a-426eac9eb40c"},"vehicle_type_id":"4","last_reported":1712592599,"current_range_meters":16400,"station_id":"ce4bgg92rcd13ifvqb30","pricing_plan_id":"cebpf4jnsgd1na2vs0mg"},{"bike_id":"fa3ee71e-df68-4264-b28d-acf36fa90afb","system_id":"levelo_inurba_marseille","lat":43.311722,"lon":5.387247,"is_reserved":false,"is_disabled":false,"rental_uris":{"android":"levelo://app?vid=fa3ee71e-df68-4264-b28d-acf36fa90afb","ios":"levelo://app?vid=fa3ee71e-df68-4264-b28d-acf36fa90afb"},"vehicle_type_id":"4","last_reported":1712592599,"current_range_meters":28800,"station_id":"ce4bgv12rcd13ifvqcp0","pricing_plan_id":"cebpf4jnsgd1na2vs0mg"},{"bike_id":"2960d18a-2e15-4b56-a8c4-e9b1d6afa564","system_id":"levelo_inurba_marseille","lat":43.311722,"lon":5.387247,"is_reserved":false,"is_disabled":false,"rental_uris":{"android":"levelo://app?vid=2960d18a-2e15-4b56-a8c4-e9b1d6afa564","ios":"levelo://app?vid=2960d18a-2e15-4b56-a8c4-e9b1d6afa564"},"vehicle_type_id":"4","last_reported":1712592599,"current_range_meters":14400,"station_id":"ce4bgv12rcd13ifvqcp0","pricing_plan_id":"cebpf4jnsgd1na2vs0mg"},{"bike_id":"18e44bf7-197a-44c2-baeb-25592189a6e5","system_id":"levelo_inurba_marseille","lat":43.297774,"lon":5.370875,"is_reserved":false,"is_disabled":false,"rental_uris":{"android":"levelo://app?vid=18e44bf7-197a-44c2-baeb-25592189a6e5","ios":"levelo://app?vid=18e44bf7-197a-44c2-baeb-25592189a6e5"},"vehicle_type_id":"4","last_reported":1712592599,"current_range_meters":1200,"station_id":"ce4bgop2rcd13ifvqc1g","pricing_plan_id":"cebpf4jnsgd1na2vs0mg"},{"bike_id":"4d1c4780-ac0d-4a04-80a3-3cfb1c7b37a1","system_id":"levelo_inurba_marseille","lat":43.297794,"lon":5.370888,"is_reserved":false,"is_disabled":false,"rental_uris":{"android":"levelo://app?vid=4d1c4780-ac0d-4a04-80a3-3cfb1c7b37a1","ios":"levelo://app?vid=4d1c4780-ac0d-4a04-80a3-3cfb1c7b37a1"},"vehicle_type_id":"4","last_reported":1712592599,"current_range_meters":16000,"station_id":"ce4bgop2rcd13ifvqc1g","pricing_plan_id":"cebpf4jnsgd1na2vs0mg"},{"bike_id":"ce262d47-6adc-4310-a652-b999cfa2d70d","system_id":"levelo_inurba_marseille","lat":43.322872,"lon":5.382756,"is_reserved":false,"is_disabled":false,"rental_uris":{"android":"levelo://app?vid=ce262d47-6adc-4310-a652-b999cfa2d70d","ios":"levelo://app?vid=ce262d47-6adc-4310-a652-b999cfa2d70d"},"vehicle_type_id":"4","last_reported":1712592599,"current_range_meters":800,"station_id":"ce4bhr12rcd13ifvqhqg","pricing_plan_id":"cebpf4jnsgd1na2vs0mg"},{"bike_id":"29397e76-5613-4003-8850-c20ebf434ead","system_id":"levelo_inurba_marseille","lat":43.32292,"lon":5.38273,"is_reserved":false,"is_disabled":false,"rental_uris":{"android":"levelo://app?vid=29397e76-5613-4003-8850-c20ebf434ead","ios":"levelo://app?vid=29397e76-5613-4003-8850-c20ebf434ead"},"vehicle_type_id":"4","last_reported":1712592599,"current_range_meters":4800,"station_id":"ce4bhr12rcd13ifvqhqg","pricing_plan_id":"cebpf4jnsgd1na2vs0mg"},{"bike_id":"79a09dc1-a136-4553-b035-ca9b20a658e5","system_id":"levelo_inurba_marseille","lat":43.30181,"lon":5.3818,"is_reserved":false,"is_disabled":false,"rental_uris":{"android":"levelo://app?vid=79a09dc1-a136-4553-b035-ca9b20a658e5","ios":"levelo://app?vid=79a09dc1-a136-4553-b035-ca9b20a658e5"},"vehicle_type_id":"4","last_reported":1712592599,"current_range_meters":0,"station_id":"","pricing_plan_id":"cebpf4jnsgd1na2vs0mg"},{"bike_id":"a9ff5dfb-bed1-4984-b0be-a0654452f627","system_id":"levelo_inurba_marseille","lat":43.297163,"lon":5.365866,"is_reserved":false,"is_disabled":false,"rental_uris":{"android":"levelo://app?vid=a9ff5dfb-bed1-4984-b0be-a0654452f627","ios":"levelo://app?vid=a9ff5dfb-bed1-4984-b0be-a0654452f627"},"vehicle_type_id":"4","last_reported":1712592599,"current_range_meters":12800,"station_id":"ce4bgn12rcd13ifvqbt0","pricing_plan_id":"cebpf4jnsgd1na2vs0mg"},{"bike_id":"7e27572c-5790-457a-aa9e-c3ae463de169","system_id":"levelo_inurba_marseille","lat":43.297163,"lon":5.365866,"is_reserved":false,"is_disabled":false,"rental_uris":{"android":"levelo://app?vid=7e27572c-5790-457a-aa9e-c3ae463de169","ios":"levelo://app?vid=7e27572c-5790-457a-aa9e-c3ae463de169"},"vehicle_type_id":"4","last_reported":1712592599,"current_range_meters":30000,"station_id":"ce4bgn12rcd13ifvqbt0","pricing_plan_id":"cebpf4jnsgd1na2vs0mg"},{"bike_id":"8905cc0e-adeb-48b9-b625-ee34e45b11d0","system_id":"levelo_inurba_marseille","lat":43.297163,"lon":5.365866,"is_reserved":false,"is_disabled":false,"rental_uris":{"android":"levelo://app?vid=8905cc0e-adeb-48b9-b625-ee34e45b11d0","ios":"levelo://app?vid=8905cc0e-adeb-48b9-b625-ee34e45b11d0"},"vehicle_type_id":"4","last_reported":1712592599,"current_range_meters":31200,"station_id":"ce4bgn12rcd13ifvqbt0","pricing_plan_id":"cebpf4jnsgd1na2vs0mg"},{"bike_id":"79fee723-de81-4029-acd3-9f1040d20fe7","system_id":"levelo_inurba_marseille","lat":43.297163,"lon":5.365866,"is_reserved":false,"is_disabled":false,"rental_uris":{"android":"levelo://app?vid=79fee723-de81-4029-acd3-9f1040d20fe7","ios":"levelo://app?vid=79fee723-de81-4029-acd3-9f1040d20fe7"},"vehicle_type_id":"4","last_reported":1712592599,"current_range_meters":22800,"station_id":"ce4bgn12rcd13ifvqbt0","pricing_plan_id":"cebpf4jnsgd1na2vs0mg"},{"bike_id":"c34d51af-0a5f-451b-b821-24552f91a467","system_id":"levelo_inurba_marseille","lat":43.295748,"lon":5.37522,"is_reserved":false,"is_disabled":false,"rental_uris":{"android":"levelo://app?vid=c34d51af-0a5f-451b-b821-24552f91a467","ios":"levelo://app?vid=c34d51af-0a5f-451b-b821-24552f91a467"},"vehicle_type_id":"4","last_reported":1712592599,"current_range_meters":15600,"station_id":"ce4bgh92rcd13ifvqb50","pricing_plan_id":"cebpf4jnsgd1na2vs0mg"},{"bike_id":"7ff1eb5a-c423-4af5-ad19-30b95f6fa57d","system_id":"levelo_inurba_marseille","lat":43.298775,"lon":5.37701,"is_reserved":false,"is_disabled":false,"rental_uris":{"android":"levelo://app?vid=7ff1eb5a-c423-4af5-ad19-30b95f6fa57d","ios":"levelo://app?vid=7ff1eb5a-c423-4af5-ad19-30b95f6fa57d"},"vehicle_type_id":"4","last_reported":1712592599,"current_range_meters":6000,"station_id":"","pricing_plan_id":"cebpf4jnsgd1na2vs0mg"},{"bike_id":"fcfd3729-9f89-4d45-af57-51631321b7e7","system_id":"levelo_inurba_marseille","lat":43.2968,"lon":5.37291,"is_reserved":false,"is_disabled":false,"rental_uris":{"android":"levelo://app?vid=fcfd3729-9f89-4d45-af57-51631321b7e7","ios":"levelo://app?vid=fcfd3729-9f89-4d45-af57-51631321b7e7"},"vehicle_type_id":"4","last_reported":1712592599,"current_range_meters":13600,"station_id":"ce4bgk12rcd13ifvqbj0","pricing_plan_id":"cebpf4jnsgd1na2vs0mg"},{"bike_id":"5fd5e406-f1b6-4fa8-901b-bdb230c3c64c","system_id":"levelo_inurba_marseille","lat":43.296129,"lon":5.370777,"is_reserved":false,"is_disabled":false,"rental_uris":{"android":"levelo://app?vid=5fd5e406-f1b6-4fa8-901b-bdb230c3c64c","ios":"levelo://app?vid=5fd5e406-f1b6-4fa8-901b-bdb230c3c64c"},"vehicle_type_id":"4","last_reported":1712592599,"current_range_meters":16000,"station_id":"ce4bgnh2rcd13ifvqc0g","pricing_plan_id":"cebpf4jnsgd1na2vs0mg"},{"bike_id":"f96887d6-f205-4d46-92dd-b54b40ac8b33","system_id":"levelo_inurba_marseille","lat":43.29573,"lon":5.367355,"is_reserved":false,"is_disabled":false,"rental_uris":{"android":"levelo://app?vid=f96887d6-f205-4d46-92dd-b54b40ac8b33","ios":"levelo://app?vid=f96887d6-f205-4d46-92dd-b54b40ac8b33"},"vehicle_type_id":"4","last_reported":1712592599,"current_range_meters":24000,"station_id":"ce4bgph2rcd13ifvqc2g","pricing_plan_id":"cebpf4jnsgd1na2vs0mg"},{"bike_id":"a8538372-ce24-4a72-a208-8ea009a5b06b","system_id":"levelo_inurba_marseille","lat":43.29573,"lon":5.367355,"is_reserved":false,"is_disabled":false,"rental_uris":{"android":"levelo://app?vid=a8538372-ce24-4a72-a208-8ea009a5b06b","ios":"levelo://app?vid=a8538372-ce24-4a72-a208-8ea009a5b06b"},"vehicle_type_id":"4","last_reported":1712592599,"current_range_meters":25600,"station_id":"ce4bgph2rcd13ifvqc2g","pricing_plan_id":"cebpf4jnsgd1na2vs0mg"},{"bike_id":"6388f990-2b22-47b3-9e55-4f31f29b1c37","system_id":"levelo_inurba_marseille","lat":43.29573,"lon":5.367355,"is_reserved":false,"is_disabled":false,"rental_uris":{"android":"levelo://app?vid=6388f990-2b22-47b3-9e55-4f31f29b1c37","ios":"levelo://app?vid=6388f990-2b22-47b3-9e55-4f31f29b1c37"},"vehicle_type_id":"4","last_reported":1712592599,"current_range_meters":26400,"station_id":"ce4bgph2rcd13ifvqc2g","pricing_plan_id":"cebpf4jnsgd1na2vs0mg"},{"bike_id":"397932e4-eb0b-4f13-bb46-35d85565d0a4","system_id":"levelo_inurba_marseille","lat":43.29573,"lon":5.367355,"is_reserved":false,"is_disabled":false,"rental_uris":{"android":"levelo://app?vid=397932e4-eb0b-4f13-bb46-35d85565d0a4","ios":"levelo://app?vid=397932e4-eb0b-4f13-bb46-35d85565d0a4"},"vehicle_type_id":"4","last_reported":1712592599,"current_range_meters":26400,"station_id":"ce4bgph2rcd13ifvqc2g","pricing_plan_id":"cebpf4jnsgd1na2vs0mg"},{"bike_id":"95acabba-85c6-4ab5-93e4-7fdaeab2d4a7","system_id":"levelo_inurba_marseille","lat":43.299028,"lon":5.381509,"is_reserved":false,"is_disabled":false,"rental_uris":{"android":"levelo://app?vid=95acabba-85c6-4ab5-93e4-7fdaeab2d4a7","ios":"levelo://app?vid=95acabba-85c6-4ab5-93e4-7fdaeab2d4a7"},"vehicle_type_id":"4","last_reported":1712592599,"current_range_meters":0,"station_id":"ce4bgj12rcd13ifvqbc0","pricing_plan_id":"cebpf4jnsgd1na2vs0mg"},{"bike_id":"3233ac61-8a5f-42ce-8808-ea608caebc08","system_id":"levelo_inurba_marseille","lat":43.309589,"lon":5.390258,"is_reserved":false,"is_disabled":false,"rental_uris":{"android":"levelo://app?vid=3233ac61-8a5f-42ce-8808-ea608caebc08","ios":"levelo://app?vid=3233ac61-8a5f-42ce-8808-ea608caebc08"},"vehicle_type_id":"4","last_reported":1712592599,"current_range_meters":23200,"station_id":"ce4bgup2rcd13ifvqco0","pricing_plan_id":"cebpf4jnsgd1na2vs0mg"},{"bike_id":"074665d2-93ab-4efa-bcba-ce7699155483","system_id":"levelo_inurba_marseille","lat":43.29573,"lon":5.367355,"is_reserved":false,"is_disabled":false,"rental_uris":{"android":"levelo://app?vid=074665d2-93ab-4efa-bcba-ce7699155483","ios":"levelo://app?vid=074665d2-93ab-4efa-bcba-ce7699155483"},"vehicle_type_id":"4","last_reported":1712592599,"current_range_meters":27200,"station_id":"ce4bgph2rcd13ifvqc2g","pricing_plan_id":"cebpf4jnsgd1na2vs0mg"},{"bike_id":"32b627b2-3b34-4c5c-aa79-326b6e7d6feb","system_id":"levelo_inurba_marseille","lat":43.298764,"lon":5.388973,"is_reserved":false,"is_disabled":false,"rental_uris":{"android":"levelo://app?vid=32b627b2-3b34-4c5c-aa79-326b6e7d6feb","ios":"levelo://app?vid=32b627b2-3b34-4c5c-aa79-326b6e7d6feb"},"vehicle_type_id":"4","last_reported":1712592599,"current_range_meters":8000,"station_id":"ce4bh392rcd13ifvqdl0","pricing_plan_id":"cebpf4jnsgd1na2vs0mg"},{"bike_id":"c1714f2e-4b07-4935-ab19-b33b5bdab55b","system_id":"levelo_inurba_marseille","lat":43.304274,"lon":5.388873,"is_reserved":false,"is_disabled":false,"rental_uris":{"android":"levelo://app?vid=c1714f2e-4b07-4935-ab19-b33b5bdab55b","ios":"levelo://app?vid=c1714f2e-4b07-4935-ab19-b33b5bdab55b"},"vehicle_type_id":"4","last_reported":1712592599,"current_range_meters":8800,"station_id":"ce4bgk12rcd13ifvqbi0","pricing_plan_id":"cebpf4jnsgd1na2vs0mg"},{"bike_id":"6bf268ec-f7b1-423c-97d5-634bc95a61f6","system_id":"levelo_inurba_marseille","lat":43.296144,"lon":5.376464,"is_reserved":false,"is_disabled":false,"rental_uris":{"android":"levelo://app?vid=6bf268ec-f7b1-423c-97d5-634bc95a61f6","ios":"levelo://app?vid=6bf268ec-f7b1-423c-97d5-634bc95a61f6"},"vehicle_type_id":"4","last_reported":1712592599,"current_range_meters":0,"station_id":"","pricing_plan_id":"cebpf4jnsgd1na2vs0mg"},{"bike_id":"11e28be7-9351-4b84-a512-d1a8b2b83828","system_id":"levelo_inurba_marseille","lat":43.298037,"lon":5.381066,"is_reserved":false,"is_disabled":false,"rental_uris":{"android":"levelo://app?vid=11e28be7-9351-4b84-a512-d1a8b2b83828","ios":"levelo://app?vid=11e28be7-9351-4b84-a512-d1a8b2b83828"},"vehicle_type_id":"4","last_reported":1712592599,"current_range_meters":0,"station_id":"ce4bgip2rcd13ifvqbb0","pricing_plan_id":"cebpf4jnsgd1na2vs0mg"},{"bike_id":"e5d182ee-1300-4703-8619-1df50425c5bc","system_id":"levelo_inurba_marseille","lat":43.30436,"lon":5.38883,"is_reserved":false,"is_disabled":false,"rental_uris":{"android":"levelo://app?vid=e5d182ee-1300-4703-8619-1df50425c5bc","ios":"levelo://app?vid=e5d182ee-1300-4703-8619-1df50425c5bc"},"vehicle_type_id":"4","last_reported":1712592599,"current_range_meters":400,"station_id":"ce4bgk12rcd13ifvqbi0","pricing_plan_id":"cebpf4jnsgd1na2vs0mg"},{"bike_id":"abffd285-3246-4736-bb44-ce774412c078","system_id":"levelo_inurba_marseille","lat":43.298037,"lon":5.381066,"is_reserved":false,"is_disabled":false,"rental_uris":{"android":"levelo://app?vid=abffd285-3246-4736-bb44-ce774412c078","ios":"levelo://app?vid=abffd285-3246-4736-bb44-ce774412c078"},"vehicle_type_id":"4","last_reported":1712592599,"current_range_meters":0,"station_id":"ce4bgip2rcd13ifvqbb0","pricing_plan_id":"cebpf4jnsgd1na2vs0mg"},{"bike_id":"c1affe36-552c-43b1-b033-a10e15db8fd0","system_id":"levelo_inurba_marseille","lat":43.25102,"lon":5.403214,"is_reserved":false,"is_disabled":false,"rental_uris":{"android":"levelo://app?vid=c1affe36-552c-43b1-b033-a10e15db8fd0","ios":"levelo://app?vid=c1affe36-552c-43b1-b033-a10e15db8fd0"},"vehicle_type_id":"4","last_reported":1712592599,"current_range_meters":7200,"station_id":"ce4bhlh2rcd13ifvqgig","pricing_plan_id":"cebpf4jnsgd1na2vs0mg"},{"bike_id":"a1014b7a-ef1a-4e00-9ec6-8767210bb57b","system_id":"levelo_inurba_marseille","lat":43.30432,"lon":5.3889,"is_reserved":false,"is_disabled":false,"rental_uris":{"android":"levelo://app?vid=a1014b7a-ef1a-4e00-9ec6-8767210bb57b","ios":"levelo://app?vid=a1014b7a-ef1a-4e00-9ec6-8767210bb57b"},"vehicle_type_id":"4","last_reported":1712592599,"current_range_meters":2000,"station_id":"ce4bgk12rcd13ifvqbi0","pricing_plan_id":"cebpf4jnsgd1na2vs0mg"},{"bike_id":"d11d6f48-10df-4eba-ab79-a969135298fd","system_id":"levelo_inurba_marseille","lat":43.304274,"lon":5.388873,"is_reserved":false,"is_disabled":false,"rental_uris":{"android":"levelo://app?vid=d11d6f48-10df-4eba-ab79-a969135298fd","ios":"levelo://app?vid=d11d6f48-10df-4eba-ab79-a969135298fd"},"vehicle_type_id":"4","last_reported":1712592599,"current_range_meters":6000,"station_id":"ce4bgk12rcd13ifvqbi0","pricing_plan_id":"cebpf4jnsgd1na2vs0mg"},{"bike_id":"c96ab619-dbce-4a54-b8ef-4f6f6d70447e","system_id":"levelo_inurba_marseille","lat":43.304274,"lon":5.388873,"is_reserved":false,"is_disabled":false,"rental_uris":{"android":"levelo://app?vid=c96ab619-dbce-4a54-b8ef-4f6f6d70447e","ios":"levelo://app?vid=c96ab619-dbce-4a54-b8ef-4f6f6d70447e"},"vehicle_type_id":"4","last_reported":1712592599,"current_range_meters":2000,"station_id":"ce4bgk12rcd13ifvqbi0","pricing_plan_id":"cebpf4jnsgd1na2vs0mg"},{"bike_id":"896fedf4-3670-48c9-a983-67eff5f8a6d3","system_id":"levelo_inurba_marseille","lat":43.298037,"lon":5.381066,"is_reserved":false,"is_disabled":false,"rental_uris":{"android":"levelo://app?vid=896fedf4-3670-48c9-a983-67eff5f8a6d3","ios":"levelo://app?vid=896fedf4-3670-48c9-a983-67eff5f8a6d3"},"vehicle_type_id":"4","last_reported":1712592599,"current_range_meters":0,"station_id":"ce4bgip2rcd13ifvqbb0","pricing_plan_id":"cebpf4jnsgd1na2vs0mg"},{"bike_id":"63137920-1e69-4874-9879-ec57fd5ecd76","system_id":"levelo_inurba_marseille","lat":43.296277,"lon":5.377108,"is_reserved":false,"is_disabled":false,"rental_uris":{"android":"levelo://app?vid=63137920-1e69-4874-9879-ec57fd5ecd76","ios":"levelo://app?vid=63137920-1e69-4874-9879-ec57fd5ecd76"},"vehicle_type_id":"4","last_reported":1712592599,"current_range_meters":15200,"station_id":"ce4bgi92rcd13ifvqb90","pricing_plan_id":"cebpf4jnsgd1na2vs0mg"},{"bike_id":"3c53a734-cf8b-4b63-9a54-4a5412672edd","system_id":"levelo_inurba_marseille","lat":43.2962,"lon":5.37725,"is_reserved":false,"is_disabled":false,"rental_uris":{"android":"levelo://app?vid=3c53a734-cf8b-4b63-9a54-4a5412672edd","ios":"levelo://app?vid=3c53a734-cf8b-4b63-9a54-4a5412672edd"},"vehicle_type_id":"4","last_reported":1712592599,"current_range_meters":0,"station_id":"ce4bgi92rcd13ifvqb90","pricing_plan_id":"cebpf4jnsgd1na2vs0mg"},{"bike_id":"e9a70ff5-b9a5-4399-b74d-7a6cc81bac78","system_id":"levelo_inurba_marseille","lat":43.298037,"lon":5.381066,"is_reserved":false,"is_disabled":false,"rental_uris":{"android":"levelo://app?vid=e9a70ff5-b9a5-4399-b74d-7a6cc81bac78","ios":"levelo://app?vid=e9a70ff5-b9a5-4399-b74d-7a6cc81bac78"},"vehicle_type_id":"4","last_reported":1712592599,"current_range_meters":0,"station_id":"ce4bgip2rcd13ifvqbb0","pricing_plan_id":"cebpf4jnsgd1na2vs0mg"},{"bike_id":"d4d5d599-8490-49fa-b7eb-878cd10e73fd","system_id":"levelo_inurba_marseille","lat":43.29548,"lon":5.37501,"is_reserved":false,"is_disabled":false,"rental_uris":{"android":"levelo://app?vid=d4d5d599-8490-49fa-b7eb-878cd10e73fd","ios":"levelo://app?vid=d4d5d599-8490-49fa-b7eb-878cd10e73fd"},"vehicle_type_id":"4","last_reported":1712592599,"current_range_meters":0,"station_id":"ce4bgkp2rcd13ifvqbmg","pricing_plan_id":"cebpf4jnsgd1na2vs0mg"},{"bike_id":"dec90b39-65f2-4db1-b247-ab59f24e154c","system_id":"levelo_inurba_marseille","lat":43.29525,"lon":5.37501,"is_reserved":false,"is_disabled":false,"rental_uris":{"android":"levelo://app?vid=dec90b39-65f2-4db1-b247-ab59f24e154c","ios":"levelo://app?vid=dec90b39-65f2-4db1-b247-ab59f24e154c"},"vehicle_type_id":"4","last_reported":1712592599,"current_range_meters":9600,"station_id":"","pricing_plan_id":"cebpf4jnsgd1na2vs0mg"},{"bike_id":"174aa527-e090-43ea-9bff-3b881e889c11","system_id":"levelo_inurba_marseille","lat":43.29975,"lon":5.38497,"is_reserved":false,"is_disabled":false,"rental_uris":{"android":"levelo://app?vid=174aa527-e090-43ea-9bff-3b881e889c11","ios":"levelo://app?vid=174aa527-e090-43ea-9bff-3b881e889c11"},"vehicle_type_id":"4","last_reported":1712592599,"current_range_meters":0,"station_id":"ce4bgj92rcd13ifvqbd0","pricing_plan_id":"cebpf4jnsgd1na2vs0mg"},{"bike_id":"0d97cf6e-7116-4c4e-bffb-3cf3bf97b9c0","system_id":"levelo_inurba_marseille","lat":43.299707,"lon":5.384859,"is_reserved":false,"is_disabled":false,"rental_uris":{"android":"levelo://app?vid=0d97cf6e-7116-4c4e-bffb-3cf3bf97b9c0","ios":"levelo://app?vid=0d97cf6e-7116-4c4e-bffb-3cf3bf97b9c0"},"vehicle_type_id":"4","last_reported":1712592599,"current_range_meters":11200,"station_id":"ce4bgj92rcd13ifvqbd0","pricing_plan_id":"cebpf4jnsgd1na2vs0mg"},{"bike_id":"f7f7311e-689e-428e-95fe-b73f7cbca1e7","system_id":"levelo_inurba_marseille","lat":43.299724,"lon":5.384848,"is_reserved":false,"is_disabled":false,"rental_uris":{"android":"levelo://app?vid=f7f7311e-689e-428e-95fe-b73f7cbca1e7","ios":"levelo://app?vid=f7f7311e-689e-428e-95fe-b73f7cbca1e7"},"vehicle_type_id":"4","last_reported":1712592599,"current_range_meters":0,"station_id":"ce4bgj92rcd13ifvqbd0","pricing_plan_id":"cebpf4jnsgd1na2vs0mg"},{"bike_id":"c138c934-0abe-465f-95ed-99a5e16c9016","system_id":"levelo_inurba_marseille","lat":43.32367,"lon":5.388836,"is_reserved":false,"is_disabled":false,"rental_uris":{"android":"levelo://app?vid=c138c934-0abe-465f-95ed-99a5e16c9016","ios":"levelo://app?vid=c138c934-0abe-465f-95ed-99a5e16c9016"},"vehicle_type_id":"4","last_reported":1712592599,"current_range_meters":12800,"station_id":"ce4bhqp2rcd13ifvqhog","pricing_plan_id":"cebpf4jnsgd1na2vs0mg"},{"bike_id":"ce1c4ac7-91b6-4423-bbac-92f1a49cd0cd","system_id":"levelo_inurba_marseille","lat":43.32367,"lon":5.388836,"is_reserved":false,"is_disabled":false,"rental_uris":{"android":"levelo://app?vid=ce1c4ac7-91b6-4423-bbac-92f1a49cd0cd","ios":"levelo://app?vid=ce1c4ac7-91b6-4423-bbac-92f1a49cd0cd"},"vehicle_type_id":"4","last_reported":1712592599,"current_range_meters":1200,"station_id":"ce4bhqp2rcd13ifvqhog","pricing_plan_id":"cebpf4jnsgd1na2vs0mg"},{"bike_id":"82d23afc-2a3c-4064-a720-aaa5620e8bbc","system_id":"levelo_inurba_marseille","lat":43.32366,"lon":5.38886,"is_reserved":false,"is_disabled":false,"rental_uris":{"android":"levelo://app?vid=82d23afc-2a3c-4064-a720-aaa5620e8bbc","ios":"levelo://app?vid=82d23afc-2a3c-4064-a720-aaa5620e8bbc"},"vehicle_type_id":"4","last_reported":1712592599,"current_range_meters":0,"station_id":"ce4bhqp2rcd13ifvqhog","pricing_plan_id":"cebpf4jnsgd1na2vs0mg"},{"bike_id":"65f88907-477c-44d8-b840-fffd44f2fded","system_id":"levelo_inurba_marseille","lat":43.32367,"lon":5.388836,"is_reserved":false,"is_disabled":false,"rental_uris":{"android":"levelo://app?vid=65f88907-477c-44d8-b840-fffd44f2fded","ios":"levelo://app?vid=65f88907-477c-44d8-b840-fffd44f2fded"},"vehicle_type_id":"4","last_reported":1712592599,"current_range_meters":19600,"station_id":"ce4bhqp2rcd13ifvqhog","pricing_plan_id":"cebpf4jnsgd1na2vs0mg"},{"bike_id":"5926552e-df2d-48e5-9198-478df8c02e19","system_id":"levelo_inurba_marseille","lat":43.32367,"lon":5.388836,"is_reserved":false,"is_disabled":false,"rental_uris":{"android":"levelo://app?vid=5926552e-df2d-48e5-9198-478df8c02e19","ios":"levelo://app?vid=5926552e-df2d-48e5-9198-478df8c02e19"},"vehicle_type_id":"4","last_reported":1712592599,"current_range_meters":14400,"station_id":"ce4bhqp2rcd13ifvqhog","pricing_plan_id":"cebpf4jnsgd1na2vs0mg"},{"bike_id":"8e7a6a84-7a28-4f3f-9c20-3b61b39bfed1","system_id":"levelo_inurba_marseille","lat":43.29602,"lon":5.381084,"is_reserved":false,"is_disabled":false,"rental_uris":{"android":"levelo://app?vid=8e7a6a84-7a28-4f3f-9c20-3b61b39bfed1","ios":"levelo://app?vid=8e7a6a84-7a28-4f3f-9c20-3b61b39bfed1"},"vehicle_type_id":"4","last_reported":1712592599,"current_range_meters":23200,"station_id":"ce4bgl12rcd13ifvqbo0","pricing_plan_id":"cebpf4jnsgd1na2vs0mg"},{"bike_id":"ec95fe67-9c6b-4865-ab9c-e892e5412cff","system_id":"levelo_inurba_marseille","lat":43.29602,"lon":5.381084,"is_reserved":false,"is_disabled":false,"rental_uris":{"android":"levelo://app?vid=ec95fe67-9c6b-4865-ab9c-e892e5412cff","ios":"levelo://app?vid=ec95fe67-9c6b-4865-ab9c-e892e5412cff"},"vehicle_type_id":"4","last_reported":1712592599,"current_range_meters":2400,"station_id":"ce4bgl12rcd13ifvqbo0","pricing_plan_id":"cebpf4jnsgd1na2vs0mg"},{"bike_id":"daaa3559-254c-4355-8961-afffc10cc63e","system_id":"levelo_inurba_marseille","lat":43.29898,"lon":5.38618,"is_reserved":false,"is_disabled":false,"rental_uris":{"android":"levelo://app?vid=daaa3559-254c-4355-8961-afffc10cc63e","ios":"levelo://app?vid=daaa3559-254c-4355-8961-afffc10cc63e"},"vehicle_type_id":"4","last_reported":1712592599,"current_range_meters":0,"station_id":"","pricing_plan_id":"cebpf4jnsgd1na2vs0mg"},{"bike_id":"e0227968-a14e-43ac-b7d6-ecd922e7e186","system_id":"levelo_inurba_marseille","lat":43.31412,"lon":5.39418,"is_reserved":false,"is_disabled":false,"rental_uris":{"android":"levelo://app?vid=e0227968-a14e-43ac-b7d6-ecd922e7e186","ios":"levelo://app?vid=e0227968-a14e-43ac-b7d6-ecd922e7e186"},"vehicle_type_id":"4","last_reported":1712592599,"current_range_meters":30000,"station_id":"","pricing_plan_id":"cebpf4jnsgd1na2vs0mg"},{"bike_id":"d13387b9-2128-44d0-b26e-8dd1efc0dc02","system_id":"levelo_inurba_marseille","lat":43.293249,"lon":5.371578,"is_reserved":false,"is_disabled":false,"rental_uris":{"android":"levelo://app?vid=d13387b9-2128-44d0-b26e-8dd1efc0dc02","ios":"levelo://app?vid=d13387b9-2128-44d0-b26e-8dd1efc0dc02"},"vehicle_type_id":"4","last_reported":1712592599,"current_range_meters":23600,"station_id":"ce4bgh92rcd13ifvqb40","pricing_plan_id":"cebpf4jnsgd1na2vs0mg"},{"bike_id":"7d5efd59-de2c-4997-9d5a-80b9477e5e81","system_id":"levelo_inurba_marseille","lat":43.293259,"lon":5.371586,"is_reserved":false,"is_disabled":false,"rental_uris":{"android":"levelo://app?vid=7d5efd59-de2c-4997-9d5a-80b9477e5e81","ios":"levelo://app?vid=7d5efd59-de2c-4997-9d5a-80b9477e5e81"},"vehicle_type_id":"4","last_reported":1712592599,"current_range_meters":13600,"station_id":"ce4bgh92rcd13ifvqb40","pricing_plan_id":"cebpf4jnsgd1na2vs0mg"},{"bike_id":"873745af-07c9-475e-8946-a1a166555f09","system_id":"levelo_inurba_marseille","lat":43.29272,"lon":5.36839,"is_reserved":false,"is_disabled":false,"rental_uris":{"android":"levelo://app?vid=873745af-07c9-475e-8946-a1a166555f09","ios":"levelo://app?vid=873745af-07c9-475e-8946-a1a166555f09"},"vehicle_type_id":"4","last_reported":1712592599,"current_range_meters":22000,"station_id":"ce4bhbp2rcd13ifvqesg","pricing_plan_id":"cebpf4jnsgd1na2vs0mg"},{"bike_id":"2bd45287-9ff9-44d6-9068-b76a178f1f99","system_id":"levelo_inurba_marseille","lat":43.292749,"lon":5.368402,"is_reserved":false,"is_disabled":false,"rental_uris":{"android":"levelo://app?vid=2bd45287-9ff9-44d6-9068-b76a178f1f99","ios":"levelo://app?vid=2bd45287-9ff9-44d6-9068-b76a178f1f99"},"vehicle_type_id":"4","last_reported":1712592599,"current_range_meters":0,"station_id":"ce4bhbp2rcd13ifvqesg","pricing_plan_id":"cebpf4jnsgd1na2vs0mg"},{"bike_id":"61afa919-51e6-40dd-b2e3-61ee88382903","system_id":"levelo_inurba_marseille","lat":43.292749,"lon":5.368402,"is_reserved":false,"is_disabled":false,"rental_uris":{"android":"levelo://app?vid=61afa919-51e6-40dd-b2e3-61ee88382903","ios":"levelo://app?vid=61afa919-51e6-40dd-b2e3-61ee88382903"},"vehicle_type_id":"4","last_reported":1712592599,"current_range_meters":0,"station_id":"ce4bhbp2rcd13ifvqesg","pricing_plan_id":"cebpf4jnsgd1na2vs0mg"},{"bike_id":"fad3d7aa-34db-4522-a4a4-a8a02fda9528","system_id":"levelo_inurba_marseille","lat":43.293009,"lon":5.374584,"is_reserved":false,"is_disabled":false,"rental_uris":{"android":"levelo://app?vid=fad3d7aa-34db-4522-a4a4-a8a02fda9528","ios":"levelo://app?vid=fad3d7aa-34db-4522-a4a4-a8a02fda9528"},"vehicle_type_id":"4","last_reported":1712592599,"current_range_meters":20800,"station_id":"ce4bgi12rcd13ifvqb70","pricing_plan_id":"cebpf4jnsgd1na2vs0mg"},{"bike_id":"46272376-2526-46d0-bcc9-927cd39dd0c6","system_id":"levelo_inurba_marseille","lat":43.305761,"lon":5.393504,"is_reserved":false,"is_disabled":false,"rental_uris":{"android":"levelo://app?vid=46272376-2526-46d0-bcc9-927cd39dd0c6","ios":"levelo://app?vid=46272376-2526-46d0-bcc9-927cd39dd0c6"},"vehicle_type_id":"4","last_reported":1712592599,"current_range_meters":0,"station_id":"ce4bh0p2rcd13ifvqd80","pricing_plan_id":"cebpf4jnsgd1na2vs0mg"},{"bike_id":"bc6ac326-2b05-4867-9acb-71fa564f3718","system_id":"levelo_inurba_marseille","lat":43.293009,"lon":5.374584,"is_reserved":false,"is_disabled":false,"rental_uris":{"android":"levelo://app?vid=bc6ac326-2b05-4867-9acb-71fa564f3718","ios":"levelo://app?vid=bc6ac326-2b05-4867-9acb-71fa564f3718"},"vehicle_type_id":"4","last_reported":1712592599,"current_range_meters":800,"station_id":"ce4bgi12rcd13ifvqb70","pricing_plan_id":"cebpf4jnsgd1na2vs0mg"},{"bike_id":"638df493-2870-4a97-9d8e-254b985ff5ad","system_id":"levelo_inurba_marseille","lat":43.29041,"lon":5.399634,"is_reserved":false,"is_disabled":false,"rental_uris":{"android":"levelo://app?vid=638df493-2870-4a97-9d8e-254b985ff5ad","ios":"levelo://app?vid=638df493-2870-4a97-9d8e-254b985ff5ad"},"vehicle_type_id":"4","last_reported":1712592599,"current_range_meters":14800,"station_id":"ce4bh392rcd13ifvqdm0","pricing_plan_id":"cebpf4jnsgd1na2vs0mg"},{"bike_id":"249b1744-f414-4dd7-947c-33a925c725cc","system_id":"levelo_inurba_marseille","lat":43.302992,"lon":5.392136,"is_reserved":false,"is_disabled":false,"rental_uris":{"android":"levelo://app?vid=249b1744-f414-4dd7-947c-33a925c725cc","ios":"levelo://app?vid=249b1744-f414-4dd7-947c-33a925c725cc"},"vehicle_type_id":"4","last_reported":1712592599,"current_range_meters":18000,"station_id":"ce4bgkh2rcd13ifvqbk0","pricing_plan_id":"cebpf4jnsgd1na2vs0mg"},{"bike_id":"c4dd3635-9fd2-47cc-b973-1829029b53e8","system_id":"levelo_inurba_marseille","lat":43.2936,"lon":5.37835,"is_reserved":false,"is_disabled":false,"rental_uris":{"android":"levelo://app?vid=c4dd3635-9fd2-47cc-b973-1829029b53e8","ios":"levelo://app?vid=c4dd3635-9fd2-47cc-b973-1829029b53e8"},"vehicle_type_id":"4","last_reported":1712592599,"current_range_meters":0,"station_id":"ce4bgjh2rcd13ifvqbf0","pricing_plan_id":"cebpf4jnsgd1na2vs0mg"},{"bike_id":"635d4fc2-778e-4eb7-982d-053be8b5a269","system_id":"levelo_inurba_marseille","lat":43.303002,"lon":5.392142,"is_reserved":false,"is_disabled":false,"rental_uris":{"android":"levelo://app?vid=635d4fc2-778e-4eb7-982d-053be8b5a269","ios":"levelo://app?vid=635d4fc2-778e-4eb7-982d-053be8b5a269"},"vehicle_type_id":"4","last_reported":1712592599,"current_range_meters":0,"station_id":"ce4bgkh2rcd13ifvqbk0","pricing_plan_id":"cebpf4jnsgd1na2vs0mg"},{"bike_id":"94dd9ea2-6602-4065-ac7a-875fd5e89ca9","system_id":"levelo_inurba_marseille","lat":43.29372,"lon":5.37872,"is_reserved":false,"is_disabled":false,"rental_uris":{"android":"levelo://app?vid=94dd9ea2-6602-4065-ac7a-875fd5e89ca9","ios":"levelo://app?vid=94dd9ea2-6602-4065-ac7a-875fd5e89ca9"},"vehicle_type_id":"4","last_reported":1712592599,"current_range_meters":14400,"station_id":"ce4bgjh2rcd13ifvqbf0","pricing_plan_id":"cebpf4jnsgd1na2vs0mg"},{"bike_id":"7e42dcf7-7971-4fa7-b406-31e04f7b9520","system_id":"levelo_inurba_marseille","lat":43.29362,"lon":5.3785,"is_reserved":false,"is_disabled":false,"rental_uris":{"android":"levelo://app?vid=7e42dcf7-7971-4fa7-b406-31e04f7b9520","ios":"levelo://app?vid=7e42dcf7-7971-4fa7-b406-31e04f7b9520"},"vehicle_type_id":"4","last_reported":1712592599,"current_range_meters":18000,"station_id":"ce4bhlh2rcd13ifvqgig","pricing_plan_id":"cebpf4jnsgd1na2vs0mg"},{"bike_id":"c5001152-819e-43a6-a0e7-0e6979baa66c","system_id":"levelo_inurba_marseille","lat":43.300852,"lon":5.390859,"is_reserved":false,"is_disabled":false,"rental_uris":{"android":"levelo://app?vid=c5001152-819e-43a6-a0e7-0e6979baa66c","ios":"levelo://app?vid=c5001152-819e-43a6-a0e7-0e6979baa66c"},"vehicle_type_id":"4","last_reported":1712592599,"current_range_meters":22800,"station_id":"ce4bh192rcd13ifvqdb0","pricing_plan_id":"cebpf4jnsgd1na2vs0mg"},{"bike_id":"c1d686e1-9dd3-46bf-b000-77d11b11b8f1","system_id":"levelo_inurba_marseille","lat":43.300852,"lon":5.390859,"is_reserved":false,"is_disabled":false,"rental_uris":{"android":"levelo://app?vid=c1d686e1-9dd3-46bf-b000-77d11b11b8f1","ios":"levelo://app?vid=c1d686e1-9dd3-46bf-b000-77d11b11b8f1"},"vehicle_type_id":"4","last_reported":1712592599,"current_range_meters":9200,"station_id":"ce4bh192rcd13ifvqdb0","pricing_plan_id":"cebpf4jnsgd1na2vs0mg"},{"bike_id":"4d150c4d-008b-4ae6-a743-b76b48a7cf63","system_id":"levelo_inurba_marseille","lat":43.300913,"lon":5.390743,"is_reserved":false,"is_disabled":false,"rental_uris":{"android":"levelo://app?vid=4d150c4d-008b-4ae6-a743-b76b48a7cf63","ios":"levelo://app?vid=4d150c4d-008b-4ae6-a743-b76b48a7cf63"},"vehicle_type_id":"4","last_reported":1712592599,"current_range_meters":0,"station_id":"ce4bh192rcd13ifvqdb0","pricing_plan_id":"cebpf4jnsgd1na2vs0mg"},{"bike_id":"1b1ce26a-c1b7-4cc0-9265-3125c53aad4b","system_id":"levelo_inurba_marseille","lat":43.30085,"lon":5.390856,"is_reserved":false,"is_disabled":false,"rental_uris":{"android":"levelo://app?vid=1b1ce26a-c1b7-4cc0-9265-3125c53aad4b","ios":"levelo://app?vid=1b1ce26a-c1b7-4cc0-9265-3125c53aad4b"},"vehicle_type_id":"4","last_reported":1712592599,"current_range_meters":1200,"station_id":"ce4bh192rcd13ifvqdb0","pricing_plan_id":"cebpf4jnsgd1na2vs0mg"},{"bike_id":"db8b1620-cc9e-4a98-b708-2626610770b3","system_id":"levelo_inurba_marseille","lat":43.30085,"lon":5.390856,"is_reserved":false,"is_disabled":false,"rental_uris":{"android":"levelo://app?vid=db8b1620-cc9e-4a98-b708-2626610770b3","ios":"levelo://app?vid=db8b1620-cc9e-4a98-b708-2626610770b3"},"vehicle_type_id":"4","last_reported":1712592599,"current_range_meters":11200,"station_id":"ce4bh192rcd13ifvqdb0","pricing_plan_id":"cebpf4jnsgd1na2vs0mg"},{"bike_id":"c60f8371-5974-463f-aad3-ff39f9f8278d","system_id":"levelo_inurba_marseille","lat":43.298764,"lon":5.388973,"is_reserved":false,"is_disabled":false,"rental_uris":{"android":"levelo://app?vid=c60f8371-5974-463f-aad3-ff39f9f8278d","ios":"levelo://app?vid=c60f8371-5974-463f-aad3-ff39f9f8278d"},"vehicle_type_id":"4","last_reported":1712592599,"current_range_meters":0,"station_id":"ce4bh392rcd13ifvqdl0","pricing_plan_id":"cebpf4jnsgd1na2vs0mg"},{"bike_id":"33548597-9084-4918-b88a-beb58112b3e6","system_id":"levelo_inurba_marseille","lat":43.29889,"lon":5.38907,"is_reserved":false,"is_disabled":false,"rental_uris":{"android":"levelo://app?vid=33548597-9084-4918-b88a-beb58112b3e6","ios":"levelo://app?vid=33548597-9084-4918-b88a-beb58112b3e6"},"vehicle_type_id":"4","last_reported":1712592599,"current_range_meters":0,"station_id":"ce4bh392rcd13ifvqdl0","pricing_plan_id":"cebpf4jnsgd1na2vs0mg"},{"bike_id":"b97d5bab-4f1d-4fb8-b2df-51812d412d4a","system_id":"levelo_inurba_marseille","lat":43.298764,"lon":5.388973,"is_reserved":false,"is_disabled":false,"rental_uris":{"android":"levelo://app?vid=b97d5bab-4f1d-4fb8-b2df-51812d412d4a","ios":"levelo://app?vid=b97d5bab-4f1d-4fb8-b2df-51812d412d4a"},"vehicle_type_id":"4","last_reported":1712592599,"current_range_meters":8000,"station_id":"ce4bh392rcd13ifvqdl0","pricing_plan_id":"cebpf4jnsgd1na2vs0mg"},{"bike_id":"dd43feae-51f5-4125-9781-316c954f24cf","system_id":"levelo_inurba_marseille","lat":43.298764,"lon":5.388973,"is_reserved":false,"is_disabled":false,"rental_uris":{"android":"levelo://app?vid=dd43feae-51f5-4125-9781-316c954f24cf","ios":"levelo://app?vid=dd43feae-51f5-4125-9781-316c954f24cf"},"vehicle_type_id":"4","last_reported":1712592599,"current_range_meters":24400,"station_id":"ce4bh392rcd13ifvqdl0","pricing_plan_id":"cebpf4jnsgd1na2vs0mg"},{"bike_id":"a6735940-c749-4dc3-aab1-16b05202e78f","system_id":"levelo_inurba_marseille","lat":43.291671,"lon":5.371575,"is_reserved":false,"is_disabled":false,"rental_uris":{"android":"levelo://app?vid=a6735940-c749-4dc3-aab1-16b05202e78f","ios":"levelo://app?vid=a6735940-c749-4dc3-aab1-16b05202e78f"},"vehicle_type_id":"4","last_reported":1712592599,"current_range_meters":6000,"station_id":"ce4bha92rcd13ifvqeh0","pricing_plan_id":"cebpf4jnsgd1na2vs0mg"},{"bike_id":"3cc7acc2-1536-4e8c-b40b-c0ae07370cd3","system_id":"levelo_inurba_marseille","lat":43.29529,"lon":5.385581,"is_reserved":false,"is_disabled":false,"rental_uris":{"android":"levelo://app?vid=3cc7acc2-1536-4e8c-b40b-c0ae07370cd3","ios":"levelo://app?vid=3cc7acc2-1536-4e8c-b40b-c0ae07370cd3"},"vehicle_type_id":"4","last_reported":1712592599,"current_range_meters":11600,"station_id":"ce4bgih2rcd13ifvqba0","pricing_plan_id":"cebpf4jnsgd1na2vs0mg"},{"bike_id":"1d4bb2a6-0297-4311-8e65-a23b372657b5","system_id":"levelo_inurba_marseille","lat":43.302839,"lon":5.392897,"is_reserved":false,"is_disabled":false,"rental_uris":{"android":"levelo://app?vid=1d4bb2a6-0297-4311-8e65-a23b372657b5","ios":"levelo://app?vid=1d4bb2a6-0297-4311-8e65-a23b372657b5"},"vehicle_type_id":"4","last_reported":1712592599,"current_range_meters":28400,"station_id":"","pricing_plan_id":"cebpf4jnsgd1na2vs0mg"},{"bike_id":"80295071-4a1d-45ba-98bb-db5811f947ec","system_id":"levelo_inurba_marseille","lat":43.29869,"lon":5.38914,"is_reserved":false,"is_disabled":false,"rental_uris":{"android":"levelo://app?vid=80295071-4a1d-45ba-98bb-db5811f947ec","ios":"levelo://app?vid=80295071-4a1d-45ba-98bb-db5811f947ec"},"vehicle_type_id":"4","last_reported":1712592599,"current_range_meters":0,"station_id":"ce4bh392rcd13ifvqdl0","pricing_plan_id":"cebpf4jnsgd1na2vs0mg"},{"bike_id":"02730e92-60f1-4b05-b10e-a5a27c42b33e","system_id":"levelo_inurba_marseille","lat":43.298764,"lon":5.388973,"is_reserved":false,"is_disabled":false,"rental_uris":{"android":"levelo://app?vid=02730e92-60f1-4b05-b10e-a5a27c42b33e","ios":"levelo://app?vid=02730e92-60f1-4b05-b10e-a5a27c42b33e"},"vehicle_type_id":"4","last_reported":1712592599,"current_range_meters":0,"station_id":"ce4bh392rcd13ifvqdl0","pricing_plan_id":"cebpf4jnsgd1na2vs0mg"},{"bike_id":"77e25986-970e-4605-9dea-78a3de4ca830","system_id":"levelo_inurba_marseille","lat":43.286961,"lon":5.373785,"is_reserved":false,"is_disabled":false,"rental_uris":{"android":"levelo://app?vid=77e25986-970e-4605-9dea-78a3de4ca830","ios":"levelo://app?vid=77e25986-970e-4605-9dea-78a3de4ca830"},"vehicle_type_id":"4","last_reported":1712592599,"current_range_meters":12800,"station_id":"ce4bh3p2rcd13ifvqdq0","pricing_plan_id":"cebpf4jnsgd1na2vs0mg"},{"bike_id":"b42d9a8a-0bb3-49cb-91fc-1d7e11bedaa4","system_id":"levelo_inurba_marseille","lat":43.313291,"lon":5.396838,"is_reserved":false,"is_disabled":false,"rental_uris":{"android":"levelo://app?vid=b42d9a8a-0bb3-49cb-91fc-1d7e11bedaa4","ios":"levelo://app?vid=b42d9a8a-0bb3-49cb-91fc-1d7e11bedaa4"},"vehicle_type_id":"4","last_reported":1712592599,"current_range_meters":10800,"station_id":"ce4bgvp2rcd13ifvqcu0","pricing_plan_id":"cebpf4jnsgd1na2vs0mg"},{"bike_id":"d0fe128f-6703-4e7a-8acb-fa19cd2687a5","system_id":"levelo_inurba_marseille","lat":43.291994,"lon":5.357886,"is_reserved":false,"is_disabled":false,"rental_uris":{"android":"levelo://app?vid=d0fe128f-6703-4e7a-8acb-fa19cd2687a5","ios":"levelo://app?vid=d0fe128f-6703-4e7a-8acb-fa19cd2687a5"},"vehicle_type_id":"4","last_reported":1712592599,"current_range_meters":12800,"station_id":"ce4bhb12rcd13ifvqel0","pricing_plan_id":"cebpf4jnsgd1na2vs0mg"},{"bike_id":"3118be01-d314-4a1c-b937-b4fd183478e2","system_id":"levelo_inurba_marseille","lat":43.31324,"lon":5.39686,"is_reserved":false,"is_disabled":false,"rental_uris":{"android":"levelo://app?vid=3118be01-d314-4a1c-b937-b4fd183478e2","ios":"levelo://app?vid=3118be01-d314-4a1c-b937-b4fd183478e2"},"vehicle_type_id":"4","last_reported":1712592599,"current_range_meters":0,"station_id":"ce4bgvp2rcd13ifvqcu0","pricing_plan_id":"cebpf4jnsgd1na2vs0mg"},{"bike_id":"103d01d1-1197-4824-a621-fc9d39126b3f","system_id":"levelo_inurba_marseille","lat":43.313291,"lon":5.396838,"is_reserved":false,"is_disabled":false,"rental_uris":{"android":"levelo://app?vid=103d01d1-1197-4824-a621-fc9d39126b3f","ios":"levelo://app?vid=103d01d1-1197-4824-a621-fc9d39126b3f"},"vehicle_type_id":"4","last_reported":1712592599,"current_range_meters":17200,"station_id":"ce4bgvp2rcd13ifvqcu0","pricing_plan_id":"cebpf4jnsgd1na2vs0mg"},{"bike_id":"69eed008-5d60-4d8a-9c86-c7be1a03aab3","system_id":"levelo_inurba_marseille","lat":43.30888,"lon":5.39645,"is_reserved":false,"is_disabled":false,"rental_uris":{"android":"levelo://app?vid=69eed008-5d60-4d8a-9c86-c7be1a03aab3","ios":"levelo://app?vid=69eed008-5d60-4d8a-9c86-c7be1a03aab3"},"vehicle_type_id":"4","last_reported":1712592599,"current_range_meters":0,"station_id":"ce4bh012rcd13ifvqcv0","pricing_plan_id":"cebpf4jnsgd1na2vs0mg"},{"bike_id":"91638694-8719-4929-a73e-6e5e8ac3aa41","system_id":"levelo_inurba_marseille","lat":43.313291,"lon":5.396838,"is_reserved":false,"is_disabled":false,"rental_uris":{"android":"levelo://app?vid=91638694-8719-4929-a73e-6e5e8ac3aa41","ios":"levelo://app?vid=91638694-8719-4929-a73e-6e5e8ac3aa41"},"vehicle_type_id":"4","last_reported":1712592599,"current_range_meters":14000,"station_id":"ce4bgvp2rcd13ifvqcu0","pricing_plan_id":"cebpf4jnsgd1na2vs0mg"},{"bike_id":"d4dc3b0c-a76b-4e92-9265-e7d1a67a7257","system_id":"levelo_inurba_marseille","lat":43.313291,"lon":5.396838,"is_reserved":false,"is_disabled":false,"rental_uris":{"android":"levelo://app?vid=d4dc3b0c-a76b-4e92-9265-e7d1a67a7257","ios":"levelo://app?vid=d4dc3b0c-a76b-4e92-9265-e7d1a67a7257"},"vehicle_type_id":"4","last_reported":1712592599,"current_range_meters":4400,"station_id":"ce4bgvp2rcd13ifvqcu0","pricing_plan_id":"cebpf4jnsgd1na2vs0mg"},{"bike_id":"ed3adf09-6906-42fe-bbed-7531d0115147","system_id":"levelo_inurba_marseille","lat":43.313291,"lon":5.396838,"is_reserved":false,"is_disabled":false,"rental_uris":{"android":"levelo://app?vid=ed3adf09-6906-42fe-bbed-7531d0115147","ios":"levelo://app?vid=ed3adf09-6906-42fe-bbed-7531d0115147"},"vehicle_type_id":"4","last_reported":1712592599,"current_range_meters":2000,"station_id":"ce4bgvp2rcd13ifvqcu0","pricing_plan_id":"cebpf4jnsgd1na2vs0mg"},{"bike_id":"5a9a2289-7632-4cad-9418-3e681961e672","system_id":"levelo_inurba_marseille","lat":43.313291,"lon":5.396838,"is_reserved":false,"is_disabled":false,"rental_uris":{"android":"levelo://app?vid=5a9a2289-7632-4cad-9418-3e681961e672","ios":"levelo://app?vid=5a9a2289-7632-4cad-9418-3e681961e672"},"vehicle_type_id":"4","last_reported":1712592599,"current_range_meters":30800,"station_id":"ce4bgvp2rcd13ifvqcu0","pricing_plan_id":"cebpf4jnsgd1na2vs0mg"},{"bike_id":"ac96eb1c-d684-44a4-be12-2b460c12f5c5","system_id":"levelo_inurba_marseille","lat":43.309038,"lon":5.396546,"is_reserved":false,"is_disabled":false,"rental_uris":{"android":"levelo://app?vid=ac96eb1c-d684-44a4-be12-2b460c12f5c5","ios":"levelo://app?vid=ac96eb1c-d684-44a4-be12-2b460c12f5c5"},"vehicle_type_id":"4","last_reported":1712592599,"current_range_meters":19600,"station_id":"ce4bh012rcd13ifvqcv0","pricing_plan_id":"cebpf4jnsgd1na2vs0mg"},{"bike_id":"5293e79b-3aa2-493f-87b8-bb0bc1a86c72","system_id":"levelo_inurba_marseille","lat":43.309038,"lon":5.396546,"is_reserved":false,"is_disabled":false,"rental_uris":{"android":"levelo://app?vid=5293e79b-3aa2-493f-87b8-bb0bc1a86c72","ios":"levelo://app?vid=5293e79b-3aa2-493f-87b8-bb0bc1a86c72"},"vehicle_type_id":"4","last_reported":1712592599,"current_range_meters":21600,"station_id":"ce4bh012rcd13ifvqcv0","pricing_plan_id":"cebpf4jnsgd1na2vs0mg"},{"bike_id":"9bf19299-1738-4cbc-8ff7-5210d5fed268","system_id":"levelo_inurba_marseille","lat":43.313291,"lon":5.396838,"is_reserved":false,"is_disabled":false,"rental_uris":{"android":"levelo://app?vid=9bf19299-1738-4cbc-8ff7-5210d5fed268","ios":"levelo://app?vid=9bf19299-1738-4cbc-8ff7-5210d5fed268"},"vehicle_type_id":"4","last_reported":1712592599,"current_range_meters":27200,"station_id":"ce4bgvp2rcd13ifvqcu0","pricing_plan_id":"cebpf4jnsgd1na2vs0mg"},{"bike_id":"5633848a-14ef-4026-8e6b-df5baa139935","system_id":"levelo_inurba_marseille","lat":43.313291,"lon":5.396838,"is_reserved":false,"is_disabled":false,"rental_uris":{"android":"levelo://app?vid=5633848a-14ef-4026-8e6b-df5baa139935","ios":"levelo://app?vid=5633848a-14ef-4026-8e6b-df5baa139935"},"vehicle_type_id":"4","last_reported":1712592599,"current_range_meters":10400,"station_id":"ce4bgvp2rcd13ifvqcu0","pricing_plan_id":"cebpf4jnsgd1na2vs0mg"},{"bike_id":"9e3b51d5-32c4-489d-ad82-9615c3961e71","system_id":"levelo_inurba_marseille","lat":43.309038,"lon":5.396546,"is_reserved":false,"is_disabled":false,"rental_uris":{"android":"levelo://app?vid=9e3b51d5-32c4-489d-ad82-9615c3961e71","ios":"levelo://app?vid=9e3b51d5-32c4-489d-ad82-9615c3961e71"},"vehicle_type_id":"4","last_reported":1712592599,"current_range_meters":18000,"station_id":"ce4bh012rcd13ifvqcv0","pricing_plan_id":"cebpf4jnsgd1na2vs0mg"},{"bike_id":"9804daa0-0166-46dc-8db7-65d5fae9c417","system_id":"levelo_inurba_marseille","lat":43.29529,"lon":5.385581,"is_reserved":false,"is_disabled":false,"rental_uris":{"android":"levelo://app?vid=9804daa0-0166-46dc-8db7-65d5fae9c417","ios":"levelo://app?vid=9804daa0-0166-46dc-8db7-65d5fae9c417"},"vehicle_type_id":"4","last_reported":1712592599,"current_range_meters":15200,"station_id":"ce4bgih2rcd13ifvqba0","pricing_plan_id":"cebpf4jnsgd1na2vs0mg"},{"bike_id":"ebd37fed-784f-483a-887f-7021b79d380e","system_id":"levelo_inurba_marseille","lat":43.29529,"lon":5.385581,"is_reserved":false,"is_disabled":false,"rental_uris":{"android":"levelo://app?vid=ebd37fed-784f-483a-887f-7021b79d380e","ios":"levelo://app?vid=ebd37fed-784f-483a-887f-7021b79d380e"},"vehicle_type_id":"4","last_reported":1712592599,"current_range_meters":1600,"station_id":"ce4bgih2rcd13ifvqba0","pricing_plan_id":"cebpf4jnsgd1na2vs0mg"},{"bike_id":"ebd72948-6db6-453c-9985-afe0442d611a","system_id":"levelo_inurba_marseille","lat":43.29529,"lon":5.385581,"is_reserved":false,"is_disabled":false,"rental_uris":{"android":"levelo://app?vid=ebd72948-6db6-453c-9985-afe0442d611a","ios":"levelo://app?vid=ebd72948-6db6-453c-9985-afe0442d611a"},"vehicle_type_id":"4","last_reported":1712592599,"current_range_meters":13600,"station_id":"ce4bgih2rcd13ifvqba0","pricing_plan_id":"cebpf4jnsgd1na2vs0mg"},{"bike_id":"50574a66-8f82-4006-980f-fad82f5fe610","system_id":"levelo_inurba_marseille","lat":43.313291,"lon":5.396838,"is_reserved":false,"is_disabled":false,"rental_uris":{"android":"levelo://app?vid=50574a66-8f82-4006-980f-fad82f5fe610","ios":"levelo://app?vid=50574a66-8f82-4006-980f-fad82f5fe610"},"vehicle_type_id":"4","last_reported":1712592599,"current_range_meters":6400,"station_id":"ce4bgvp2rcd13ifvqcu0","pricing_plan_id":"cebpf4jnsgd1na2vs0mg"},{"bike_id":"a2819b03-dc88-41b1-8cbd-a5bf0f4523d7","system_id":"levelo_inurba_marseille","lat":43.29529,"lon":5.385581,"is_reserved":false,"is_disabled":false,"rental_uris":{"android":"levelo://app?vid=a2819b03-dc88-41b1-8cbd-a5bf0f4523d7","ios":"levelo://app?vid=a2819b03-dc88-41b1-8cbd-a5bf0f4523d7"},"vehicle_type_id":"4","last_reported":1712592599,"current_range_meters":20000,"station_id":"ce4bgih2rcd13ifvqba0","pricing_plan_id":"cebpf4jnsgd1na2vs0mg"},{"bike_id":"274dda10-72c3-4875-ac2f-dd717e04e6dc","system_id":"levelo_inurba_marseille","lat":43.29347,"lon":5.38227,"is_reserved":false,"is_disabled":false,"rental_uris":{"android":"levelo://app?vid=274dda10-72c3-4875-ac2f-dd717e04e6dc","ios":"levelo://app?vid=274dda10-72c3-4875-ac2f-dd717e04e6dc"},"vehicle_type_id":"4","last_reported":1712592599,"current_range_meters":21200,"station_id":"","pricing_plan_id":"cebpf4jnsgd1na2vs0mg"},{"bike_id":"84f870a6-1092-4da4-bd7a-35f81b4478c9","system_id":"levelo_inurba_marseille","lat":43.302008,"lon":5.394694,"is_reserved":false,"is_disabled":false,"rental_uris":{"android":"levelo://app?vid=84f870a6-1092-4da4-bd7a-35f81b4478c9","ios":"levelo://app?vid=84f870a6-1092-4da4-bd7a-35f81b4478c9"},"vehicle_type_id":"4","last_reported":1712592599,"current_range_meters":20000,"station_id":"ce4bh0p2rcd13ifvqd70","pricing_plan_id":"cebpf4jnsgd1na2vs0mg"},{"bike_id":"deebdb91-d496-438d-a01e-8d8ec459baee","system_id":"levelo_inurba_marseille","lat":43.290624,"lon":5.359245,"is_reserved":false,"is_disabled":false,"rental_uris":{"android":"levelo://app?vid=deebdb91-d496-438d-a01e-8d8ec459baee","ios":"levelo://app?vid=deebdb91-d496-438d-a01e-8d8ec459baee"},"vehicle_type_id":"4","last_reported":1712592599,"current_range_meters":4800,"station_id":"ce4bha92rcd13ifvqeg0","pricing_plan_id":"cebpf4jnsgd1na2vs0mg"},{"bike_id":"ae8a5f80-d94f-4748-a67c-24e20489919b","system_id":"levelo_inurba_marseille","lat":43.294412,"lon":5.386438,"is_reserved":false,"is_disabled":false,"rental_uris":{"android":"levelo://app?vid=ae8a5f80-d94f-4748-a67c-24e20489919b","ios":"levelo://app?vid=ae8a5f80-d94f-4748-a67c-24e20489919b"},"vehicle_type_id":"4","last_reported":1712592599,"current_range_meters":10400,"station_id":"","pricing_plan_id":"cebpf4jnsgd1na2vs0mg"},{"bike_id":"f5021e9d-73f7-4c32-8ced-a78f476f9261","system_id":"levelo_inurba_marseille","lat":43.289468,"lon":5.363719,"is_reserved":false,"is_disabled":false,"rental_uris":{"android":"levelo://app?vid=f5021e9d-73f7-4c32-8ced-a78f476f9261","ios":"levelo://app?vid=f5021e9d-73f7-4c32-8ced-a78f476f9261"},"vehicle_type_id":"4","last_reported":1712592599,"current_range_meters":1600,"station_id":"ce4bhc92rcd13ifvqetg","pricing_plan_id":"cebpf4jnsgd1na2vs0mg"},{"bike_id":"a7697f5f-8c3c-4d69-9c76-08a7cac63809","system_id":"levelo_inurba_marseille","lat":43.29424,"lon":5.38618,"is_reserved":false,"is_disabled":false,"rental_uris":{"android":"levelo://app?vid=a7697f5f-8c3c-4d69-9c76-08a7cac63809","ios":"levelo://app?vid=a7697f5f-8c3c-4d69-9c76-08a7cac63809"},"vehicle_type_id":"4","last_reported":1712592599,"current_range_meters":6400,"station_id":"ce4bh2h2rcd13ifvqdh0","pricing_plan_id":"cebpf4jnsgd1na2vs0mg"},{"bike_id":"65e99790-d6b1-42b2-9c88-2d75f36bacd4","system_id":"levelo_inurba_marseille","lat":43.29427,"lon":5.38631,"is_reserved":false,"is_disabled":false,"rental_uris":{"android":"levelo://app?vid=65e99790-d6b1-42b2-9c88-2d75f36bacd4","ios":"levelo://app?vid=65e99790-d6b1-42b2-9c88-2d75f36bacd4"},"vehicle_type_id":"4","last_reported":1712592599,"current_range_meters":8000,"station_id":"ce4bh2h2rcd13ifvqdh0","pricing_plan_id":"cebpf4jnsgd1na2vs0mg"},{"bike_id":"5a97f7f6-9bad-4715-a21f-73d6c4ac9f3a","system_id":"levelo_inurba_marseille","lat":43.29421,"lon":5.38625,"is_reserved":false,"is_disabled":false,"rental_uris":{"android":"levelo://app?vid=5a97f7f6-9bad-4715-a21f-73d6c4ac9f3a","ios":"levelo://app?vid=5a97f7f6-9bad-4715-a21f-73d6c4ac9f3a"},"vehicle_type_id":"4","last_reported":1712592599,"current_range_meters":27200,"station_id":"ce4bh2h2rcd13ifvqdh0","pricing_plan_id":"cebpf4jnsgd1na2vs0mg"},{"bike_id":"4912d4c2-fa55-4e8a-bc7f-30aa16fb238e","system_id":"levelo_inurba_marseille","lat":43.29419,"lon":5.38623,"is_reserved":false,"is_disabled":false,"rental_uris":{"android":"levelo://app?vid=4912d4c2-fa55-4e8a-bc7f-30aa16fb238e","ios":"levelo://app?vid=4912d4c2-fa55-4e8a-bc7f-30aa16fb238e"},"vehicle_type_id":"4","last_reported":1712592599,"current_range_meters":20000,"station_id":"ce4bh2h2rcd13ifvqdh0","pricing_plan_id":"cebpf4jnsgd1na2vs0mg"},{"bike_id":"cd752f52-0e3e-475c-94d2-fac1be4b2b9e","system_id":"levelo_inurba_marseille","lat":43.294221,"lon":5.386287,"is_reserved":false,"is_disabled":false,"rental_uris":{"android":"levelo://app?vid=cd752f52-0e3e-475c-94d2-fac1be4b2b9e","ios":"levelo://app?vid=cd752f52-0e3e-475c-94d2-fac1be4b2b9e"},"vehicle_type_id":"4","last_reported":1712592599,"current_range_meters":5200,"station_id":"ce4bh2h2rcd13ifvqdh0","pricing_plan_id":"cebpf4jnsgd1na2vs0mg"},{"bike_id":"d48afa76-84b0-4e8e-9515-5da6ce677cc3","system_id":"levelo_inurba_marseille","lat":43.294199,"lon":5.386257,"is_reserved":false,"is_disabled":false,"rental_uris":{"android":"levelo://app?vid=d48afa76-84b0-4e8e-9515-5da6ce677cc3","ios":"levelo://app?vid=d48afa76-84b0-4e8e-9515-5da6ce677cc3"},"vehicle_type_id":"4","last_reported":1712592599,"current_range_meters":11200,"station_id":"ce4bh2h2rcd13ifvqdh0","pricing_plan_id":"cebpf4jnsgd1na2vs0mg"},{"bike_id":"437f4e42-9c7f-47ed-9f04-16c42b38f872","system_id":"levelo_inurba_marseille","lat":43.29416,"lon":5.38621,"is_reserved":false,"is_disabled":false,"rental_uris":{"android":"levelo://app?vid=437f4e42-9c7f-47ed-9f04-16c42b38f872","ios":"levelo://app?vid=437f4e42-9c7f-47ed-9f04-16c42b38f872"},"vehicle_type_id":"4","last_reported":1712592599,"current_range_meters":3600,"station_id":"ce4bh2h2rcd13ifvqdh0","pricing_plan_id":"cebpf4jnsgd1na2vs0mg"},{"bike_id":"676baf4e-404a-43a5-b96e-47325c8de34f","system_id":"levelo_inurba_marseille","lat":43.29412,"lon":5.38617,"is_reserved":false,"is_disabled":false,"rental_uris":{"android":"levelo://app?vid=676baf4e-404a-43a5-b96e-47325c8de34f","ios":"levelo://app?vid=676baf4e-404a-43a5-b96e-47325c8de34f"},"vehicle_type_id":"4","last_reported":1712592599,"current_range_meters":18800,"station_id":"ce4bh2h2rcd13ifvqdh0","pricing_plan_id":"cebpf4jnsgd1na2vs0mg"},{"bike_id":"dc6a61fe-4d23-4aad-b5ed-b7199e796bed","system_id":"levelo_inurba_marseille","lat":43.294685,"lon":5.387214,"is_reserved":false,"is_disabled":false,"rental_uris":{"android":"levelo://app?vid=dc6a61fe-4d23-4aad-b5ed-b7199e796bed","ios":"levelo://app?vid=dc6a61fe-4d23-4aad-b5ed-b7199e796bed"},"vehicle_type_id":"4","last_reported":1712592599,"current_range_meters":14000,"station_id":"ce4bh2h2rcd13ifvqdh0","pricing_plan_id":"cebpf4jnsgd1na2vs0mg"},{"bike_id":"10adb646-04eb-4eb9-8ef3-35db116709aa","system_id":"levelo_inurba_marseille","lat":43.289184,"lon":5.366408,"is_reserved":false,"is_disabled":false,"rental_uris":{"android":"levelo://app?vid=10adb646-04eb-4eb9-8ef3-35db116709aa","ios":"levelo://app?vid=10adb646-04eb-4eb9-8ef3-35db116709aa"},"vehicle_type_id":"4","last_reported":1712592599,"current_range_meters":1200,"station_id":"ce4bhap2rcd13ifvqek0","pricing_plan_id":"cebpf4jnsgd1na2vs0mg"},{"bike_id":"5cc5c4cc-484b-4f74-b803-6658b9539f92","system_id":"levelo_inurba_marseille","lat":43.28939,"lon":5.36636,"is_reserved":false,"is_disabled":false,"rental_uris":{"android":"levelo://app?vid=5cc5c4cc-484b-4f74-b803-6658b9539f92","ios":"levelo://app?vid=5cc5c4cc-484b-4f74-b803-6658b9539f92"},"vehicle_type_id":"4","last_reported":1712592599,"current_range_meters":0,"station_id":"ce4bhap2rcd13ifvqek0","pricing_plan_id":"cebpf4jnsgd1na2vs0mg"},{"bike_id":"1edd995f-df4f-4c1c-a9f9-9cde13ad6fb2","system_id":"levelo_inurba_marseille","lat":43.29412,"lon":5.38631,"is_reserved":false,"is_disabled":false,"rental_uris":{"android":"levelo://app?vid=1edd995f-df4f-4c1c-a9f9-9cde13ad6fb2","ios":"levelo://app?vid=1edd995f-df4f-4c1c-a9f9-9cde13ad6fb2"},"vehicle_type_id":"4","last_reported":1712592599,"current_range_meters":4400,"station_id":"ce4bh2h2rcd13ifvqdh0","pricing_plan_id":"cebpf4jnsgd1na2vs0mg"},{"bike_id":"0a41d6b1-6af6-4a53-9fdc-c4a38f09f51e","system_id":"levelo_inurba_marseille","lat":43.29411,"lon":5.38631,"is_reserved":false,"is_disabled":false,"rental_uris":{"android":"levelo://app?vid=0a41d6b1-6af6-4a53-9fdc-c4a38f09f51e","ios":"levelo://app?vid=0a41d6b1-6af6-4a53-9fdc-c4a38f09f51e"},"vehicle_type_id":"4","last_reported":1712592599,"current_range_meters":14400,"station_id":"ce4bh2h2rcd13ifvqdh0","pricing_plan_id":"cebpf4jnsgd1na2vs0mg"},{"bike_id":"6d223baa-a3c7-4111-be45-98d94075e450","system_id":"levelo_inurba_marseille","lat":43.294129,"lon":5.38637,"is_reserved":false,"is_disabled":false,"rental_uris":{"android":"levelo://app?vid=6d223baa-a3c7-4111-be45-98d94075e450","ios":"levelo://app?vid=6d223baa-a3c7-4111-be45-98d94075e450"},"vehicle_type_id":"4","last_reported":1712592599,"current_range_meters":5600,"station_id":"ce4bh2h2rcd13ifvqdh0","pricing_plan_id":"cebpf4jnsgd1na2vs0mg"},{"bike_id":"16dca571-7412-4c40-bd16-3835831e3a26","system_id":"levelo_inurba_marseille","lat":43.28935,"lon":5.36633,"is_reserved":false,"is_disabled":false,"rental_uris":{"android":"levelo://app?vid=16dca571-7412-4c40-bd16-3835831e3a26","ios":"levelo://app?vid=16dca571-7412-4c40-bd16-3835831e3a26"},"vehicle_type_id":"4","last_reported":1712592599,"current_range_meters":0,"station_id":"ce4bhap2rcd13ifvqek0","pricing_plan_id":"cebpf4jnsgd1na2vs0mg"},{"bike_id":"76d3a2eb-5383-4feb-b47e-ae33b8487680","system_id":"levelo_inurba_marseille","lat":43.289468,"lon":5.363719,"is_reserved":false,"is_disabled":false,"rental_uris":{"android":"levelo://app?vid=76d3a2eb-5383-4feb-b47e-ae33b8487680","ios":"levelo://app?vid=76d3a2eb-5383-4feb-b47e-ae33b8487680"},"vehicle_type_id":"4","last_reported":1712592599,"current_range_meters":4800,"station_id":"ce4bhc92rcd13ifvqetg","pricing_plan_id":"cebpf4jnsgd1na2vs0mg"},{"bike_id":"2ddee15a-4259-4229-9039-feadb40bcca1","system_id":"levelo_inurba_marseille","lat":43.29391,"lon":5.38651,"is_reserved":false,"is_disabled":false,"rental_uris":{"android":"levelo://app?vid=2ddee15a-4259-4229-9039-feadb40bcca1","ios":"levelo://app?vid=2ddee15a-4259-4229-9039-feadb40bcca1"},"vehicle_type_id":"4","last_reported":1712592599,"current_range_meters":19200,"station_id":"ce4bh2h2rcd13ifvqdh0","pricing_plan_id":"cebpf4jnsgd1na2vs0mg"},{"bike_id":"f9711d88-ab9f-4edb-b0c8-9fa7fd784d7c","system_id":"levelo_inurba_marseille","lat":43.304274,"lon":5.397513,"is_reserved":false,"is_disabled":false,"rental_uris":{"android":"levelo://app?vid=f9711d88-ab9f-4edb-b0c8-9fa7fd784d7c","ios":"levelo://app?vid=f9711d88-ab9f-4edb-b0c8-9fa7fd784d7c"},"vehicle_type_id":"4","last_reported":1712592599,"current_range_meters":27600,"station_id":"ce4bh092rcd13ifvqd20","pricing_plan_id":"cebpf4jnsgd1na2vs0mg"},{"bike_id":"d5a35c0f-a1b6-4422-9ee4-f68f2c20b693","system_id":"levelo_inurba_marseille","lat":43.289741,"lon":5.378306,"is_reserved":false,"is_disabled":false,"rental_uris":{"android":"levelo://app?vid=d5a35c0f-a1b6-4422-9ee4-f68f2c20b693","ios":"levelo://app?vid=d5a35c0f-a1b6-4422-9ee4-f68f2c20b693"},"vehicle_type_id":"4","last_reported":1712592599,"current_range_meters":3600,"station_id":"ce4bh9p2rcd13ifvqed0","pricing_plan_id":"cebpf4jnsgd1na2vs0mg"},{"bike_id":"8534af78-6416-4570-baa0-af85f55db1b6","system_id":"levelo_inurba_marseille","lat":43.292642,"lon":5.384254,"is_reserved":false,"is_disabled":false,"rental_uris":{"android":"levelo://app?vid=8534af78-6416-4570-baa0-af85f55db1b6","ios":"levelo://app?vid=8534af78-6416-4570-baa0-af85f55db1b6"},"vehicle_type_id":"4","last_reported":1712592599,"current_range_meters":10400,"station_id":"ce4bh692rcd13ifvqea0","pricing_plan_id":"cebpf4jnsgd1na2vs0mg"},{"bike_id":"25f1a4fa-6db5-448b-9380-cd950fbe2665","system_id":"levelo_inurba_marseille","lat":43.292642,"lon":5.384254,"is_reserved":false,"is_disabled":false,"rental_uris":{"android":"levelo://app?vid=25f1a4fa-6db5-448b-9380-cd950fbe2665","ios":"levelo://app?vid=25f1a4fa-6db5-448b-9380-cd950fbe2665"},"vehicle_type_id":"4","last_reported":1712592599,"current_range_meters":2000,"station_id":"ce4bh692rcd13ifvqea0","pricing_plan_id":"cebpf4jnsgd1na2vs0mg"},{"bike_id":"129bd33e-2fca-4ece-882a-fd89e84d698d","system_id":"levelo_inurba_marseille","lat":43.302734,"lon":5.396496,"is_reserved":false,"is_disabled":false,"rental_uris":{"android":"levelo://app?vid=129bd33e-2fca-4ece-882a-fd89e84d698d","ios":"levelo://app?vid=129bd33e-2fca-4ece-882a-fd89e84d698d"},"vehicle_type_id":"4","last_reported":1712592599,"current_range_meters":8000,"station_id":"ce4bh0h2rcd13ifvqd40","pricing_plan_id":"cebpf4jnsgd1na2vs0mg"},{"bike_id":"68588738-4180-4a11-b12e-af6340d612b5","system_id":"levelo_inurba_marseille","lat":43.286593,"lon":5.363346,"is_reserved":false,"is_disabled":false,"rental_uris":{"android":"levelo://app?vid=68588738-4180-4a11-b12e-af6340d612b5","ios":"levelo://app?vid=68588738-4180-4a11-b12e-af6340d612b5"},"vehicle_type_id":"4","last_reported":1712592599,"current_range_meters":0,"station_id":"ce4bhah2rcd13ifvqej0","pricing_plan_id":"cebpf4jnsgd1na2vs0mg"},{"bike_id":"8576475f-5fc0-418a-82de-4e5a294eb03a","system_id":"levelo_inurba_marseille","lat":43.290104,"lon":5.356111,"is_reserved":false,"is_disabled":false,"rental_uris":{"android":"levelo://app?vid=8576475f-5fc0-418a-82de-4e5a294eb03a","ios":"levelo://app?vid=8576475f-5fc0-418a-82de-4e5a294eb03a"},"vehicle_type_id":"4","last_reported":1712592599,"current_range_meters":2800,"station_id":"ce4bhb92rcd13ifvqen0","pricing_plan_id":"cebpf4jnsgd1na2vs0mg"},{"bike_id":"cbc05921-549a-4df8-802c-971df59b64e5","system_id":"levelo_inurba_marseille","lat":43.289628,"lon":5.359288,"is_reserved":false,"is_disabled":false,"rental_uris":{"android":"levelo://app?vid=cbc05921-549a-4df8-802c-971df59b64e5","ios":"levelo://app?vid=cbc05921-549a-4df8-802c-971df59b64e5"},"vehicle_type_id":"4","last_reported":1712592599,"current_range_meters":13600,"station_id":"ce4bhb12rcd13ifvqel0","pricing_plan_id":"cebpf4jnsgd1na2vs0mg"},{"bike_id":"4d5f64ff-ea10-4231-8318-881c0a62dc2b","system_id":"levelo_inurba_marseille","lat":43.292642,"lon":5.384254,"is_reserved":false,"is_disabled":false,"rental_uris":{"android":"levelo://app?vid=4d5f64ff-ea10-4231-8318-881c0a62dc2b","ios":"levelo://app?vid=4d5f64ff-ea10-4231-8318-881c0a62dc2b"},"vehicle_type_id":"4","last_reported":1712592599,"current_range_meters":0,"station_id":"ce4bh692rcd13ifvqea0","pricing_plan_id":"cebpf4jnsgd1na2vs0mg"},{"bike_id":"97de7b66-a69c-4a89-b5e4-6150359359cd","system_id":"levelo_inurba_marseille","lat":43.26949,"lon":5.40262,"is_reserved":false,"is_disabled":false,"rental_uris":{"android":"levelo://app?vid=97de7b66-a69c-4a89-b5e4-6150359359cd","ios":"levelo://app?vid=97de7b66-a69c-4a89-b5e4-6150359359cd"},"vehicle_type_id":"4","last_reported":1712592599,"current_range_meters":1200,"station_id":"cjm6bp8fraef2m0cb0m0","pricing_plan_id":"cebpf4jnsgd1na2vs0mg"},{"bike_id":"3227bddf-38f5-43cf-9622-340f90130591","system_id":"levelo_inurba_marseille","lat":43.304274,"lon":5.397513,"is_reserved":false,"is_disabled":false,"rental_uris":{"android":"levelo://app?vid=3227bddf-38f5-43cf-9622-340f90130591","ios":"levelo://app?vid=3227bddf-38f5-43cf-9622-340f90130591"},"vehicle_type_id":"4","last_reported":1712592599,"current_range_meters":0,"station_id":"ce4bh092rcd13ifvqd20","pricing_plan_id":"cebpf4jnsgd1na2vs0mg"},{"bike_id":"bf4d224f-12e5-49d8-a4d9-771f15e9c719","system_id":"levelo_inurba_marseille","lat":43.29007,"lon":5.3561,"is_reserved":false,"is_disabled":false,"rental_uris":{"android":"levelo://app?vid=bf4d224f-12e5-49d8-a4d9-771f15e9c719","ios":"levelo://app?vid=bf4d224f-12e5-49d8-a4d9-771f15e9c719"},"vehicle_type_id":"4","last_reported":1712592599,"current_range_meters":19200,"station_id":"ce4bhgp2rcd13ifvqfc0","pricing_plan_id":"cebpf4jnsgd1na2vs0mg"},{"bike_id":"3b720ebf-f3fd-44a5-8df8-e9b90a5db63e","system_id":"levelo_inurba_marseille","lat":43.292586,"lon":5.384877,"is_reserved":false,"is_disabled":false,"rental_uris":{"android":"levelo://app?vid=3b720ebf-f3fd-44a5-8df8-e9b90a5db63e","ios":"levelo://app?vid=3b720ebf-f3fd-44a5-8df8-e9b90a5db63e"},"vehicle_type_id":"4","last_reported":1712592599,"current_range_meters":3200,"station_id":"ce4bh692rcd13ifvqea0","pricing_plan_id":"cebpf4jnsgd1na2vs0mg"},{"bike_id":"28846214-d640-4af4-9fba-b73d94edad69","system_id":"levelo_inurba_marseille","lat":43.314811,"lon":5.373103,"is_reserved":false,"is_disabled":false,"rental_uris":{"android":"levelo://app?vid=28846214-d640-4af4-9fba-b73d94edad69","ios":"levelo://app?vid=28846214-d640-4af4-9fba-b73d94edad69"},"vehicle_type_id":"4","last_reported":1712592599,"current_range_meters":0,"station_id":"ce4bgt12rcd13ifvqcd0","pricing_plan_id":"cebpf4jnsgd1na2vs0mg"},{"bike_id":"0495b153-1eb4-4d8f-9b7c-bb1f56ebf604","system_id":"levelo_inurba_marseille","lat":43.290995,"lon":5.381361,"is_reserved":false,"is_disabled":false,"rental_uris":{"android":"levelo://app?vid=0495b153-1eb4-4d8f-9b7c-bb1f56ebf604","ios":"levelo://app?vid=0495b153-1eb4-4d8f-9b7c-bb1f56ebf604"},"vehicle_type_id":"4","last_reported":1712592599,"current_range_meters":17200,"station_id":"ce4bh512rcd13ifvqe2g","pricing_plan_id":"cebpf4jnsgd1na2vs0mg"},{"bike_id":"230f52af-efbb-4954-9ec2-233f71900261","system_id":"levelo_inurba_marseille","lat":43.290995,"lon":5.381361,"is_reserved":false,"is_disabled":false,"rental_uris":{"android":"levelo://app?vid=230f52af-efbb-4954-9ec2-233f71900261","ios":"levelo://app?vid=230f52af-efbb-4954-9ec2-233f71900261"},"vehicle_type_id":"4","last_reported":1712592599,"current_range_meters":16000,"station_id":"ce4bh512rcd13ifvqe2g","pricing_plan_id":"cebpf4jnsgd1na2vs0mg"},{"bike_id":"4e6abbb4-813e-40d4-86f5-616e618951d5","system_id":"levelo_inurba_marseille","lat":43.29795,"lon":5.39349,"is_reserved":false,"is_disabled":false,"rental_uris":{"android":"levelo://app?vid=4e6abbb4-813e-40d4-86f5-616e618951d5","ios":"levelo://app?vid=4e6abbb4-813e-40d4-86f5-616e618951d5"},"vehicle_type_id":"4","last_reported":1712592599,"current_range_meters":0,"station_id":"","pricing_plan_id":"cebpf4jnsgd1na2vs0mg"},{"bike_id":"53d0d9de-7436-43e5-868c-5adbc9bd4da0","system_id":"levelo_inurba_marseille","lat":43.297815,"lon":5.393548,"is_reserved":false,"is_disabled":false,"rental_uris":{"android":"levelo://app?vid=53d0d9de-7436-43e5-868c-5adbc9bd4da0","ios":"levelo://app?vid=53d0d9de-7436-43e5-868c-5adbc9bd4da0"},"vehicle_type_id":"4","last_reported":1712592599,"current_range_meters":0,"station_id":"chh1huq6cuj3fo74tm60","pricing_plan_id":"cebpf4jnsgd1na2vs0mg"},{"bike_id":"82d5c063-5b06-44e8-b101-a1220db0361b","system_id":"levelo_inurba_marseille","lat":43.295169,"lon":5.390426,"is_reserved":false,"is_disabled":false,"rental_uris":{"android":"levelo://app?vid=82d5c063-5b06-44e8-b101-a1220db0361b","ios":"levelo://app?vid=82d5c063-5b06-44e8-b101-a1220db0361b"},"vehicle_type_id":"4","last_reported":1712592599,"current_range_meters":1200,"station_id":"ce4bh3p2rcd13ifvqdp0","pricing_plan_id":"cebpf4jnsgd1na2vs0mg"},{"bike_id":"778ab857-7ba3-4fb0-a418-d23b82ff9b6b","system_id":"levelo_inurba_marseille","lat":43.29784,"lon":5.39344,"is_reserved":false,"is_disabled":false,"rental_uris":{"android":"levelo://app?vid=778ab857-7ba3-4fb0-a418-d23b82ff9b6b","ios":"levelo://app?vid=778ab857-7ba3-4fb0-a418-d23b82ff9b6b"},"vehicle_type_id":"4","last_reported":1712592599,"current_range_meters":400,"station_id":"chh1huq6cuj3fo74tm60","pricing_plan_id":"cebpf4jnsgd1na2vs0mg"},{"bike_id":"889225b6-4915-4c05-a03c-70aa0a1f29a7","system_id":"levelo_inurba_marseille","lat":43.2978,"lon":5.3934,"is_reserved":false,"is_disabled":false,"rental_uris":{"android":"levelo://app?vid=889225b6-4915-4c05-a03c-70aa0a1f29a7","ios":"levelo://app?vid=889225b6-4915-4c05-a03c-70aa0a1f29a7"},"vehicle_type_id":"4","last_reported":1712592599,"current_range_meters":0,"station_id":"chh1huq6cuj3fo74tm60","pricing_plan_id":"cebpf4jnsgd1na2vs0mg"},{"bike_id":"c37bda29-5ea8-4c5e-83af-dd2497e174c5","system_id":"levelo_inurba_marseille","lat":43.295169,"lon":5.390426,"is_reserved":false,"is_disabled":false,"rental_uris":{"android":"levelo://app?vid=c37bda29-5ea8-4c5e-83af-dd2497e174c5","ios":"levelo://app?vid=c37bda29-5ea8-4c5e-83af-dd2497e174c5"},"vehicle_type_id":"4","last_reported":1712592599,"current_range_meters":13200,"station_id":"ce4bh3p2rcd13ifvqdp0","pricing_plan_id":"cebpf4jnsgd1na2vs0mg"},{"bike_id":"45c69e9f-1abe-43cf-9814-6cd7e31d3b3c","system_id":"levelo_inurba_marseille","lat":43.295169,"lon":5.390426,"is_reserved":false,"is_disabled":false,"rental_uris":{"android":"levelo://app?vid=45c69e9f-1abe-43cf-9814-6cd7e31d3b3c","ios":"levelo://app?vid=45c69e9f-1abe-43cf-9814-6cd7e31d3b3c"},"vehicle_type_id":"4","last_reported":1712592599,"current_range_meters":4000,"station_id":"ce4bh3p2rcd13ifvqdp0","pricing_plan_id":"cebpf4jnsgd1na2vs0mg"},{"bike_id":"2d3510e6-eb7f-41ba-b03d-9d9a671e8019","system_id":"levelo_inurba_marseille","lat":43.33022,"lon":5.39038,"is_reserved":false,"is_disabled":false,"rental_uris":{"android":"levelo://app?vid=2d3510e6-eb7f-41ba-b03d-9d9a671e8019","ios":"levelo://app?vid=2d3510e6-eb7f-41ba-b03d-9d9a671e8019"},"vehicle_type_id":"4","last_reported":1712592599,"current_range_meters":24000,"station_id":"ce4bhr92rcd13ifvqhrg","pricing_plan_id":"cebpf4jnsgd1na2vs0mg"},{"bike_id":"0ac26ae8-4b32-48ff-a3ba-79189288730a","system_id":"levelo_inurba_marseille","lat":43.29525,"lon":5.39037,"is_reserved":false,"is_disabled":false,"rental_uris":{"android":"levelo://app?vid=0ac26ae8-4b32-48ff-a3ba-79189288730a","ios":"levelo://app?vid=0ac26ae8-4b32-48ff-a3ba-79189288730a"},"vehicle_type_id":"4","last_reported":1712592599,"current_range_meters":800,"station_id":"ce4bh3p2rcd13ifvqdp0","pricing_plan_id":"cebpf4jnsgd1na2vs0mg"},{"bike_id":"947df8f3-dc66-4447-8f27-8045bb3c8b36","system_id":"levelo_inurba_marseille","lat":43.330442,"lon":5.389148,"is_reserved":false,"is_disabled":false,"rental_uris":{"android":"levelo://app?vid=947df8f3-dc66-4447-8f27-8045bb3c8b36","ios":"levelo://app?vid=947df8f3-dc66-4447-8f27-8045bb3c8b36"},"vehicle_type_id":"4","last_reported":1712592599,"current_range_meters":32000,"station_id":"ce4bhr92rcd13ifvqhrg","pricing_plan_id":"cebpf4jnsgd1na2vs0mg"},{"bike_id":"6644b7ff-a469-4d8f-b1cf-77d9f1528d46","system_id":"levelo_inurba_marseille","lat":43.33025,"lon":5.3904,"is_reserved":false,"is_disabled":false,"rental_uris":{"android":"levelo://app?vid=6644b7ff-a469-4d8f-b1cf-77d9f1528d46","ios":"levelo://app?vid=6644b7ff-a469-4d8f-b1cf-77d9f1528d46"},"vehicle_type_id":"4","last_reported":1712592599,"current_range_meters":21600,"station_id":"ce4bhr92rcd13ifvqhrg","pricing_plan_id":"cebpf4jnsgd1na2vs0mg"},{"bike_id":"87f9f66e-8dcd-4600-a2ec-f5cbc8639142","system_id":"levelo_inurba_marseille","lat":43.295169,"lon":5.390426,"is_reserved":false,"is_disabled":false,"rental_uris":{"android":"levelo://app?vid=87f9f66e-8dcd-4600-a2ec-f5cbc8639142","ios":"levelo://app?vid=87f9f66e-8dcd-4600-a2ec-f5cbc8639142"},"vehicle_type_id":"4","last_reported":1712592599,"current_range_meters":8800,"station_id":"ce4bh3p2rcd13ifvqdp0","pricing_plan_id":"cebpf4jnsgd1na2vs0mg"},{"bike_id":"e76a195f-3148-4ca1-a00e-1fd9cbac3596","system_id":"levelo_inurba_marseille","lat":43.33023,"lon":5.39046,"is_reserved":false,"is_disabled":false,"rental_uris":{"android":"levelo://app?vid=e76a195f-3148-4ca1-a00e-1fd9cbac3596","ios":"levelo://app?vid=e76a195f-3148-4ca1-a00e-1fd9cbac3596"},"vehicle_type_id":"4","last_reported":1712592599,"current_range_meters":3600,"station_id":"ce4bhr92rcd13ifvqhrg","pricing_plan_id":"cebpf4jnsgd1na2vs0mg"},{"bike_id":"9fb1e92c-27a4-45fe-8c19-f27e886df918","system_id":"levelo_inurba_marseille","lat":43.330442,"lon":5.389148,"is_reserved":false,"is_disabled":false,"rental_uris":{"android":"levelo://app?vid=9fb1e92c-27a4-45fe-8c19-f27e886df918","ios":"levelo://app?vid=9fb1e92c-27a4-45fe-8c19-f27e886df918"},"vehicle_type_id":"4","last_reported":1712592599,"current_range_meters":14400,"station_id":"ce4bhr92rcd13ifvqhrg","pricing_plan_id":"cebpf4jnsgd1na2vs0mg"},{"bike_id":"85c23eea-bef0-4806-868f-d3c0e873f155","system_id":"levelo_inurba_marseille","lat":43.33024,"lon":5.39045,"is_reserved":false,"is_disabled":false,"rental_uris":{"android":"levelo://app?vid=85c23eea-bef0-4806-868f-d3c0e873f155","ios":"levelo://app?vid=85c23eea-bef0-4806-868f-d3c0e873f155"},"vehicle_type_id":"4","last_reported":1712592599,"current_range_meters":4800,"station_id":"ce4bhr92rcd13ifvqhrg","pricing_plan_id":"cebpf4jnsgd1na2vs0mg"},{"bike_id":"9f6562ba-def4-4fa3-9075-558dd025cfed","system_id":"levelo_inurba_marseille","lat":43.330442,"lon":5.389148,"is_reserved":false,"is_disabled":false,"rental_uris":{"android":"levelo://app?vid=9f6562ba-def4-4fa3-9075-558dd025cfed","ios":"levelo://app?vid=9f6562ba-def4-4fa3-9075-558dd025cfed"},"vehicle_type_id":"4","last_reported":1712592599,"current_range_meters":10800,"station_id":"ce4bhr92rcd13ifvqhrg","pricing_plan_id":"cebpf4jnsgd1na2vs0mg"},{"bike_id":"a283d2d9-0492-48e6-8559-2b3f03e91c5e","system_id":"levelo_inurba_marseille","lat":43.330442,"lon":5.389148,"is_reserved":false,"is_disabled":false,"rental_uris":{"android":"levelo://app?vid=a283d2d9-0492-48e6-8559-2b3f03e91c5e","ios":"levelo://app?vid=a283d2d9-0492-48e6-8559-2b3f03e91c5e"},"vehicle_type_id":"4","last_reported":1712592599,"current_range_meters":4800,"station_id":"ce4bhr92rcd13ifvqhrg","pricing_plan_id":"cebpf4jnsgd1na2vs0mg"},{"bike_id":"a53e37ab-769f-4325-a22e-1e1f1786fada","system_id":"levelo_inurba_marseille","lat":43.330442,"lon":5.389148,"is_reserved":false,"is_disabled":false,"rental_uris":{"android":"levelo://app?vid=a53e37ab-769f-4325-a22e-1e1f1786fada","ios":"levelo://app?vid=a53e37ab-769f-4325-a22e-1e1f1786fada"},"vehicle_type_id":"4","last_reported":1712592599,"current_range_meters":13200,"station_id":"ce4bhr92rcd13ifvqhrg","pricing_plan_id":"cebpf4jnsgd1na2vs0mg"},{"bike_id":"2c27d14f-8afa-4ff8-9e8a-aef07e454311","system_id":"levelo_inurba_marseille","lat":43.295169,"lon":5.390426,"is_reserved":false,"is_disabled":false,"rental_uris":{"android":"levelo://app?vid=2c27d14f-8afa-4ff8-9e8a-aef07e454311","ios":"levelo://app?vid=2c27d14f-8afa-4ff8-9e8a-aef07e454311"},"vehicle_type_id":"4","last_reported":1712592599,"current_range_meters":19600,"station_id":"ce4bh3p2rcd13ifvqdp0","pricing_plan_id":"cebpf4jnsgd1na2vs0mg"},{"bike_id":"1dce9aa1-5232-4b74-8ce2-5f74a5bbde23","system_id":"levelo_inurba_marseille","lat":43.33113,"lon":5.38923,"is_reserved":false,"is_disabled":false,"rental_uris":{"android":"levelo://app?vid=1dce9aa1-5232-4b74-8ce2-5f74a5bbde23","ios":"levelo://app?vid=1dce9aa1-5232-4b74-8ce2-5f74a5bbde23"},"vehicle_type_id":"4","last_reported":1712592599,"current_range_meters":8800,"station_id":"","pricing_plan_id":"cebpf4jnsgd1na2vs0mg"},{"bike_id":"c4541802-aedf-4a1b-afef-571f7f927053","system_id":"levelo_inurba_marseille","lat":43.29516,"lon":5.39043,"is_reserved":false,"is_disabled":false,"rental_uris":{"android":"levelo://app?vid=c4541802-aedf-4a1b-afef-571f7f927053","ios":"levelo://app?vid=c4541802-aedf-4a1b-afef-571f7f927053"},"vehicle_type_id":"4","last_reported":1712592599,"current_range_meters":6000,"station_id":"ce4bh3p2rcd13ifvqdp0","pricing_plan_id":"cebpf4jnsgd1na2vs0mg"},{"bike_id":"be6a1073-5e25-4881-9827-ba83dd1fdf37","system_id":"levelo_inurba_marseille","lat":43.295169,"lon":5.390426,"is_reserved":false,"is_disabled":false,"rental_uris":{"android":"levelo://app?vid=be6a1073-5e25-4881-9827-ba83dd1fdf37","ios":"levelo://app?vid=be6a1073-5e25-4881-9827-ba83dd1fdf37"},"vehicle_type_id":"4","last_reported":1712592599,"current_range_meters":22000,"station_id":"ce4bh3p2rcd13ifvqdp0","pricing_plan_id":"cebpf4jnsgd1na2vs0mg"},{"bike_id":"84b31ea8-6d82-441c-978b-beaa729e526c","system_id":"levelo_inurba_marseille","lat":43.303002,"lon":5.392142,"is_reserved":false,"is_disabled":false,"rental_uris":{"android":"levelo://app?vid=84b31ea8-6d82-441c-978b-beaa729e526c","ios":"levelo://app?vid=84b31ea8-6d82-441c-978b-beaa729e526c"},"vehicle_type_id":"4","last_reported":1712592599,"current_range_meters":12400,"station_id":"ce4bgkh2rcd13ifvqbk0","pricing_plan_id":"cebpf4jnsgd1na2vs0mg"},