{"last_updated":1742461847,"ttl":60,"version":"2.2","data":{"bikes":[{"bike_id":"6ae6f76c-6a01-4d75-9d3f-dfa610803a78","system_id":"levelo_inurba_marseille","lat":43.23079,"lon":5.35506,"is_reserved":false,"is_disabled":false,"rental_uris":{"android":"levelo://app?vid=6ae6f76c-6a01-4d75-9d3f-dfa610803a78","ios":"levelo://app?vid=6ae6f76c-6a01-4d75-9d3f-dfa610803a78"},"vehicle_type_id":"4","last_reported":1742461847,"current_range_meters":2800,"station_id":"cpo3342slgdg3j2ifvpg","pricing_plan_id":"cebpf4jnsgd1na2vs0mg"},{"bike_id":"abb2063c-f37b-4e88-8b2d-ce760e43d6a8","system_id":"levelo_inurba_marseille","lat":43.30916,"lon":5.36847,"is_reserved":false,"is_disabled":false,"rental_uris":{"android":"levelo://app?vid=abb2063c-f37b-4e88-8b2d-ce760e43d6a8","ios":"levelo://app?vid=abb2063c-f37b-4e88-8b2d-ce760e43d6a8"},"vehicle_type_id":"4","last_reported":1742461847,"current_range_meters":2800,"station_id":"ce4bgn92rcd13ifvqbvg","pricing_plan_id":"cebpf4jnsgd1na2vs0mg"},{"bike_id":"019a5cf1-6c83-4fa0-ba0d-64e5eec62fc2","system_id":"levelo_inurba_marseille","lat":43.2319,"lon":5.35549,"is_reserved":false,"is_disabled":false,"rental_uris":{"android":"levelo://app?vid=019a5cf1-6c83-4fa0-ba0d-64e5eec62fc2","ios":"levelo://app?vid=019a5cf1-6c83-4fa0-ba0d-64e5eec62fc2"},"vehicle_type_id":"4","last_reported":1742461847,"current_range_meters":2800,"station_id":"ce4bhu92rcd13ifvqi70","pricing_plan_id":"cebpf4jnsgd1na2vs0mg"},{"bike_id":"ca1c0a28-8faf-435f-9d8b-370c3a07ff34","system_id":"levelo_inurba_marseille","lat":43.24173,"lon":5.36385,"is_reserved":false,"is_disabled":false,"rental_uris":{"android":"levelo://app?vid=ca1c0a28-8faf-435f-9d8b-370c3a07ff34","ios":"levelo://app?vid=ca1c0a28-8faf-435f-9d8b-370c3a07ff34"},"vehicle_type_id":"4","last_reported":1742461847,"current_range_meters":3200,"station_id":"cpo36qri1sfpv3e86is0","pricing_plan_id":"cebpf4jnsgd1na2vs0mg"},{"bike_id":"76aa1863-126d-4e5a-af5c-bba7896ac1f5","system_id":"levelo_inurba_marseille","lat":43.30527,"lon":5.36722,"is_reserved":false,"is_disabled":false,"rental_uris":{"android":"levelo://app?vid=76aa1863-126d-4e5a-af5c-bba7896ac1f5","ios":"levelo://app?vid=76aa1863-126d-4e5a-af5c-bba7896ac1f5"},"vehicle_type_id":"4","last_reported":1742461847,"current_range_meters":3200,"station_id":"ce4bgrp2rcd13ifvqc9g","pricing_plan_id":"cebpf4jnsgd1na2vs0mg"},{"bike_id":"3e6841f1-f4bb-4f69-baa2-69520e861a8e","system_id":"levelo_inurba_marseille","lat":43.30159,"lon":5.38106,"is_reserved":false,"is_disabled":false,"rental_uris":{"android":"levelo://app?vid=3e6841f1-f4bb-4f69-baa2-69520e861a8e","ios":"levelo://app?vid=3e6841f1-f4bb-4f69-baa2-69520e861a8e"},"vehicle_type_id":"4","last_reported":1742461847,"current_range_meters":3200,"station_id":"ce4bgjp2rcd13ifvqbh0","pricing_plan_id":"cebpf4jnsgd1na2vs0mg"},{"bike_id":"a28abf16-b269-4dd6-8a6b-7405838384a7","system_id":"levelo_inurba_marseille","lat":43.32491,"lon":5.36555,"is_reserved":false,"is_disabled":false,"rental_uris":{"android":"levelo://app?vid=a28abf16-b269-4dd6-8a6b-7405838384a7","ios":"levelo://app?vid=a28abf16-b269-4dd6-8a6b-7405838384a7"},"vehicle_type_id":"4","last_reported":1742461847,"current_range_meters":3200,"station_id":"ce4bhs12rcd13ifvqhvg","pricing_plan_id":"cebpf4jnsgd1na2vs0mg"},{"bike_id":"f63f53b1-352f-442c-9180-7663ae23f2ca","system_id":"levelo_inurba_marseille","lat":43.27496,"lon":5.42453,"is_reserved":false,"is_disabled":false,"rental_uris":{"android":"levelo://app?vid=f63f53b1-352f-442c-9180-7663ae23f2ca","ios":"levelo://app?vid=f63f53b1-352f-442c-9180-7663ae23f2ca"},"vehicle_type_id":"4","last_reported":1742461847,"current_range_meters":3200,"station_id":"ce4bhn92rcd13ifvqgrg","pricing_plan_id":"cebpf4jnsgd1na2vs0mg"},{"bike_id":"16e31de8-ac1e-4c3b-9f7b-7e5290a1f6dc","system_id":"levelo_inurba_marseille","lat":43.29261,"lon":5.3762,"is_reserved":false,"is_disabled":false,"rental_uris":{"android":"levelo://app?vid=16e31de8-ac1e-4c3b-9f7b-7e5290a1f6dc","ios":"levelo://app?vid=16e31de8-ac1e-4c3b-9f7b-7e5290a1f6dc"},"vehicle_type_id":"4","last_reported":1742461847,"current_range_meters":3600,"station_id":"ce4bgi12rcd13ifvqb80","pricing_plan_id":"cebpf4jnsgd1na2vs0mg"},{"bike_id":"67b3eb3a-bb15-4124-954a-2bead63fd9c6","system_id":"levelo_inurba_marseille","lat":43.26792,"lon":5.39418,"is_reserved":false,"is_disabled":false,"rental_uris":{"android":"levelo://app?vid=67b3eb3a-bb15-4124-954a-2bead63fd9c6","ios":"levelo://app?vid=67b3eb3a-bb15-4124-954a-2bead63fd9c6"},"vehicle_type_id":"4","last_reported":1742461847,"current_range_meters":3600,"station_id":"ce4bhh12rcd13ifvqfg0","pricing_plan_id":"cebpf4jnsgd1na2vs0mg"},{"bike_id":"71b0bcc3-aeec-4495-9a97-a56e7135cbd3","system_id":"levelo_inurba_marseille","lat":43.26031,"lon":5.37548,"is_reserved":false,"is_disabled":false,"rental_uris":{"android":"levelo://app?vid=71b0bcc3-aeec-4495-9a97-a56e7135cbd3","ios":"levelo://app?vid=71b0bcc3-aeec-4495-9a97-a56e7135cbd3"},"vehicle_type_id":"4","last_reported":1742461847,"current_range_meters":3600,"station_id":"ce4bhgh2rcd13ifvqfa0","pricing_plan_id":"cebpf4jnsgd1na2vs0mg"},{"bike_id":"9deeced6-b690-4369-9660-8a0b3a6be305","system_id":"levelo_inurba_marseille","lat":43.30956,"lon":5.39039,"is_reserved":false,"is_disabled":false,"rental_uris":{"android":"levelo://app?vid=9deeced6-b690-4369-9660-8a0b3a6be305","ios":"levelo://app?vid=9deeced6-b690-4369-9660-8a0b3a6be305"},"vehicle_type_id":"4","last_reported":1742461847,"current_range_meters":3600,"station_id":"ce4bgup2rcd13ifvqco0","pricing_plan_id":"cebpf4jnsgd1na2vs0mg"},{"bike_id":"6bbc4c3f-1239-4d54-8147-b0d72c94d37b","system_id":"levelo_inurba_marseille","lat":43.24076,"lon":5.37757,"is_reserved":false,"is_disabled":false,"rental_uris":{"android":"levelo://app?vid=6bbc4c3f-1239-4d54-8147-b0d72c94d37b","ios":"levelo://app?vid=6bbc4c3f-1239-4d54-8147-b0d72c94d37b"},"vehicle_type_id":"4","last_reported":1742461847,"current_range_meters":3600,"station_id":"ce4bhnp2rcd13ifvqgvg","pricing_plan_id":"cebpf4jnsgd1na2vs0mg"},{"bike_id":"6c1383c4-ce25-49bd-9e8f-5404db35746c","system_id":"levelo_inurba_marseille","lat":43.23638,"lon":5.39184,"is_reserved":false,"is_disabled":false,"rental_uris":{"android":"levelo://app?vid=6c1383c4-ce25-49bd-9e8f-5404db35746c","ios":"levelo://app?vid=6c1383c4-ce25-49bd-9e8f-5404db35746c"},"vehicle_type_id":"4","last_reported":1742461847,"current_range_meters":3600,"station_id":"","pricing_plan_id":"cebpf4jnsgd1na2vs0mg"},{"bike_id":"a342afa1-fe1b-4de5-8f98-f3f81167fac6","system_id":"levelo_inurba_marseille","lat":43.2293,"lon":5.35376,"is_reserved":false,"is_disabled":false,"rental_uris":{"android":"levelo://app?vid=a342afa1-fe1b-4de5-8f98-f3f81167fac6","ios":"levelo://app?vid=a342afa1-fe1b-4de5-8f98-f3f81167fac6"},"vehicle_type_id":"4","last_reported":1742461847,"current_range_meters":4000,"station_id":"cpo3532slgdg3j2ikp40","pricing_plan_id":"cebpf4jnsgd1na2vs0mg"},{"bike_id":"89ec0cd9-fb27-4a74-b399-65006010a265","system_id":"levelo_inurba_marseille","lat":43.24655,"lon":5.38897,"is_reserved":false,"is_disabled":false,"rental_uris":{"android":"levelo://app?vid=89ec0cd9-fb27-4a74-b399-65006010a265","ios":"levelo://app?vid=89ec0cd9-fb27-4a74-b399-65006010a265"},"vehicle_type_id":"4","last_reported":1742461847,"current_range_meters":4400,"station_id":"ce4bhg12rcd13ifvqf60","pricing_plan_id":"cebpf4jnsgd1na2vs0mg"},{"bike_id":"5f8c7f3b-4916-441a-987d-e6442dc61089","system_id":"levelo_inurba_marseille","lat":43.30459,"lon":5.37906,"is_reserved":false,"is_disabled":false,"rental_uris":{"android":"levelo://app?vid=5f8c7f3b-4916-441a-987d-e6442dc61089","ios":"levelo://app?vid=5f8c7f3b-4916-441a-987d-e6442dc61089"},"vehicle_type_id":"4","last_reported":1742461847,"current_range_meters":4400,"station_id":"ce4bgup2rcd13ifvqcn0","pricing_plan_id":"cebpf4jnsgd1na2vs0mg"},{"bike_id":"55725b1c-0124-4aa2-ba58-ae581bd6382a","system_id":"levelo_inurba_marseille","lat":43.29851,"lon":5.36287,"is_reserved":false,"is_disabled":false,"rental_uris":{"android":"levelo://app?vid=55725b1c-0124-4aa2-ba58-ae581bd6382a","ios":"levelo://app?vid=55725b1c-0124-4aa2-ba58-ae581bd6382a"},"vehicle_type_id":"4","last_reported":1742461847,"current_range_meters":4400,"station_id":"ce4bgpp2rcd13ifvqc3g","pricing_plan_id":"cebpf4jnsgd1na2vs0mg"},{"bike_id":"af186a9b-c351-4701-9c35-4930def9b609","system_id":"levelo_inurba_marseille","lat":43.2749,"lon":5.42455,"is_reserved":false,"is_disabled":false,"rental_uris":{"android":"levelo://app?vid=af186a9b-c351-4701-9c35-4930def9b609","ios":"levelo://app?vid=af186a9b-c351-4701-9c35-4930def9b609"},"vehicle_type_id":"4","last_reported":1742461847,"current_range_meters":4400,"station_id":"ce4bhn92rcd13ifvqgrg","pricing_plan_id":"cebpf4jnsgd1na2vs0mg"},{"bike_id":"25b108b7-1e3a-488e-837b-1a07bec27047","system_id":"levelo_inurba_marseille","lat":43.26236,"lon":5.40443,"is_reserved":false,"is_disabled":false,"rental_uris":{"android":"levelo://app?vid=25b108b7-1e3a-488e-837b-1a07bec27047","ios":"levelo://app?vid=25b108b7-1e3a-488e-837b-1a07bec27047"},"vehicle_type_id":"4","last_reported":1742461847,"current_range_meters":4400,"station_id":"ce4bhmh2rcd13ifvqgmg","pricing_plan_id":"cebpf4jnsgd1na2vs0mg"},{"bike_id":"4156866b-a0ed-4dcf-b9d2-e7765ca102e2","system_id":"levelo_inurba_marseille","lat":43.30536,"lon":5.36706,"is_reserved":false,"is_disabled":true,"rental_uris":{"android":"levelo://app?vid=4156866b-a0ed-4dcf-b9d2-e7765ca102e2","ios":"levelo://app?vid=4156866b-a0ed-4dcf-b9d2-e7765ca102e2"},"vehicle_type_id":"4","last_reported":1742461847,"current_range_meters":4400,"station_id":"ce4bgrp2rcd13ifvqc9g","pricing_plan_id":"cebpf4jnsgd1na2vs0mg"},{"bike_id":"ba4aa91e-d2fa-4290-8e2c-3d263a218945","system_id":"levelo_inurba_marseille","lat":43.23156,"lon":5.43709,"is_reserved":false,"is_disabled":false,"rental_uris":{"android":"levelo://app?vid=ba4aa91e-d2fa-4290-8e2c-3d263a218945","ios":"levelo://app?vid=ba4aa91e-d2fa-4290-8e2c-3d263a218945"},"vehicle_type_id":"4","last_reported":1742461847,"current_range_meters":4400,"station_id":"ce4bhmp2rcd13ifvqgog","pricing_plan_id":"cebpf4jnsgd1na2vs0mg"},{"bike_id":"ed32af05-a93a-40af-b3e3-3171404acc80","system_id":"levelo_inurba_marseille","lat":43.27375,"lon":5.36257,"is_reserved":false,"is_disabled":false,"rental_uris":{"android":"levelo://app?vid=ed32af05-a93a-40af-b3e3-3171404acc80","ios":"levelo://app?vid=ed32af05-a93a-40af-b3e3-3171404acc80"},"vehicle_type_id":"4","last_reported":1742461847,"current_range_meters":4800,"station_id":"ce4bhbh2rcd13ifvqeo0","pricing_plan_id":"cebpf4jnsgd1na2vs0mg"},{"bike_id":"e7f159cf-ddcc-47f4-b1d5-444d179bea2a","system_id":"levelo_inurba_marseille","lat":43.3123,"lon":5.36864,"is_reserved":false,"is_disabled":false,"rental_uris":{"android":"levelo://app?vid=e7f159cf-ddcc-47f4-b1d5-444d179bea2a","ios":"levelo://app?vid=e7f159cf-ddcc-47f4-b1d5-444d179bea2a"},"vehicle_type_id":"4","last_reported":1742461847,"current_range_meters":4800,"station_id":"ce4bgl92rcd13ifvqbq0","pricing_plan_id":"cebpf4jnsgd1na2vs0mg"},{"bike_id":"0d4678ad-d799-4c90-af99-058f6558adae","system_id":"levelo_inurba_marseille","lat":43.30144,"lon":5.37402,"is_reserved":false,"is_disabled":false,"rental_uris":{"android":"levelo://app?vid=0d4678ad-d799-4c90-af99-058f6558adae","ios":"levelo://app?vid=0d4678ad-d799-4c90-af99-058f6558adae"},"vehicle_type_id":"4","last_reported":1742461847,"current_range_meters":4800,"station_id":"ce4bgs92rcd13ifvqcc0","pricing_plan_id":"cebpf4jnsgd1na2vs0mg"},{"bike_id":"e149db91-9f61-4fdf-b875-da4f619e6fbc","system_id":"levelo_inurba_marseille","lat":43.3031,"lon":5.36906,"is_reserved":false,"is_disabled":false,"rental_uris":{"android":"levelo://app?vid=e149db91-9f61-4fdf-b875-da4f619e6fbc","ios":"levelo://app?vid=e149db91-9f61-4fdf-b875-da4f619e6fbc"},"vehicle_type_id":"4","last_reported":1742461847,"current_range_meters":4800,"station_id":"ce4bgqh2rcd13ifvqc5g","pricing_plan_id":"cebpf4jnsgd1na2vs0mg"},{"bike_id":"2b161d69-a1ba-4287-87ea-d3724599ca73","system_id":"levelo_inurba_marseille","lat":43.31172,"lon":5.38715,"is_reserved":false,"is_disabled":false,"rental_uris":{"android":"levelo://app?vid=2b161d69-a1ba-4287-87ea-d3724599ca73","ios":"levelo://app?vid=2b161d69-a1ba-4287-87ea-d3724599ca73"},"vehicle_type_id":"4","last_reported":1742461847,"current_range_meters":4800,"station_id":"ce4bgv12rcd13ifvqcp0","pricing_plan_id":"cebpf4jnsgd1na2vs0mg"},{"bike_id":"e74fce09-490e-4ae2-9de7-a533dd9876c1","system_id":"levelo_inurba_marseille","lat":43.2314,"lon":5.43702,"is_reserved":false,"is_disabled":false,"rental_uris":{"android":"levelo://app?vid=e74fce09-490e-4ae2-9de7-a533dd9876c1","ios":"levelo://app?vid=e74fce09-490e-4ae2-9de7-a533dd9876c1"},"vehicle_type_id":"4","last_reported":1742461847,"current_range_meters":5600,"station_id":"ce4bhmp2rcd13ifvqgog","pricing_plan_id":"cebpf4jnsgd1na2vs0mg"},{"bike_id":"a424f1e6-df54-41e3-8fd2-1ea1a783566f","system_id":"levelo_inurba_marseille","lat":43.30956,"lon":5.390373,"is_reserved":false,"is_disabled":false,"rental_uris":{"android":"levelo://app?vid=a424f1e6-df54-41e3-8fd2-1ea1a783566f","ios":"levelo://app?vid=a424f1e6-df54-41e3-8fd2-1ea1a783566f"},"vehicle_type_id":"4","last_reported":1742461847,"current_range_meters":5600,"station_id":"ce4bgup2rcd13ifvqco0","pricing_plan_id":"cebpf4jnsgd1na2vs0mg"},{"bike_id":"aa31ce7d-83e3-4aaf-9f4b-0962ea28257a","system_id":"levelo_inurba_marseille","lat":43.31685,"lon":5.4047,"is_reserved":false,"is_disabled":false,"rental_uris":{"android":"levelo://app?vid=aa31ce7d-83e3-4aaf-9f4b-0962ea28257a","ios":"levelo://app?vid=aa31ce7d-83e3-4aaf-9f4b-0962ea28257a"},"vehicle_type_id":"4","last_reported":1742461847,"current_range_meters":5600,"station_id":"ce4bh012rcd13ifvqd00","pricing_plan_id":"cebpf4jnsgd1na2vs0mg"},{"bike_id":"f50d147c-9734-4224-8ebf-7d836679ba51","system_id":"levelo_inurba_marseille","lat":43.26531,"lon":5.3955,"is_reserved":false,"is_disabled":false,"rental_uris":{"android":"levelo://app?vid=f50d147c-9734-4224-8ebf-7d836679ba51","ios":"levelo://app?vid=f50d147c-9734-4224-8ebf-7d836679ba51"},"vehicle_type_id":"4","last_reported":1742461847,"current_range_meters":5600,"station_id":"ce4bhi12rcd13ifvqfq0","pricing_plan_id":"cebpf4jnsgd1na2vs0mg"},{"bike_id":"52c113db-a9f4-4cef-a5d8-acc635f2ee39","system_id":"levelo_inurba_marseille","lat":43.26939,"lon":5.38634,"is_reserved":false,"is_disabled":false,"rental_uris":{"android":"levelo://app?vid=52c113db-a9f4-4cef-a5d8-acc635f2ee39","ios":"levelo://app?vid=52c113db-a9f4-4cef-a5d8-acc635f2ee39"},"vehicle_type_id":"4","last_reported":1742461847,"current_range_meters":5600,"station_id":"ce4bhh92rcd13ifvqfh0","pricing_plan_id":"cebpf4jnsgd1na2vs0mg"},{"bike_id":"a2fbad4d-f8eb-470e-bd18-0a6a6f86a53c","system_id":"levelo_inurba_marseille","lat":43.2931,"lon":5.37141,"is_reserved":false,"is_disabled":false,"rental_uris":{"android":"levelo://app?vid=a2fbad4d-f8eb-470e-bd18-0a6a6f86a53c","ios":"levelo://app?vid=a2fbad4d-f8eb-470e-bd18-0a6a6f86a53c"},"vehicle_type_id":"4","last_reported":1742461847,"current_range_meters":5600,"station_id":"ce4bgh92rcd13ifvqb40","pricing_plan_id":"cebpf4jnsgd1na2vs0mg"},{"bike_id":"3612a167-3ac6-4bc0-8750-c86f570d16d0","system_id":"levelo_inurba_marseille","lat":43.30469,"lon":5.37897,"is_reserved":false,"is_disabled":false,"rental_uris":{"android":"levelo://app?vid=3612a167-3ac6-4bc0-8750-c86f570d16d0","ios":"levelo://app?vid=3612a167-3ac6-4bc0-8750-c86f570d16d0"},"vehicle_type_id":"4","last_reported":1742461847,"current_range_meters":6000,"station_id":"ce4bgup2rcd13ifvqcn0","pricing_plan_id":"cebpf4jnsgd1na2vs0mg"},{"bike_id":"3c0f86bf-2134-4462-a7ab-79aaede557c9","system_id":"levelo_inurba_marseille","lat":43.31713,"lon":5.43709,"is_reserved":false,"is_disabled":false,"rental_uris":{"android":"levelo://app?vid=3c0f86bf-2134-4462-a7ab-79aaede557c9","ios":"levelo://app?vid=3c0f86bf-2134-4462-a7ab-79aaede557c9"},"vehicle_type_id":"4","last_reported":1742461847,"current_range_meters":6000,"station_id":"ce4bhp92rcd13ifvqhcg","pricing_plan_id":"cebpf4jnsgd1na2vs0mg"},{"bike_id":"83e16311-feea-476b-b386-6821b2c9db24","system_id":"levelo_inurba_marseille","lat":43.29868,"lon":5.36287,"is_reserved":false,"is_disabled":false,"rental_uris":{"android":"levelo://app?vid=83e16311-feea-476b-b386-6821b2c9db24","ios":"levelo://app?vid=83e16311-feea-476b-b386-6821b2c9db24"},"vehicle_type_id":"4","last_reported":1742461847,"current_range_meters":6000,"station_id":"ce4bgpp2rcd13ifvqc3g","pricing_plan_id":"cebpf4jnsgd1na2vs0mg"},{"bike_id":"14398fce-d606-45e2-baa4-99317757e1f0","system_id":"levelo_inurba_marseille","lat":43.27309,"lon":5.39095,"is_reserved":false,"is_disabled":false,"rental_uris":{"android":"levelo://app?vid=14398fce-d606-45e2-baa4-99317757e1f0","ios":"levelo://app?vid=14398fce-d606-45e2-baa4-99317757e1f0"},"vehicle_type_id":"4","last_reported":1742461847,"current_range_meters":6000,"station_id":"ce4bhgp2rcd13ifvqfe0","pricing_plan_id":"cebpf4jnsgd1na2vs0mg"},{"bike_id":"68b88cac-a742-43f0-bc60-0875bf4f281a","system_id":"levelo_inurba_marseille","lat":43.30944,"lon":5.39041,"is_reserved":false,"is_disabled":false,"rental_uris":{"android":"levelo://app?vid=68b88cac-a742-43f0-bc60-0875bf4f281a","ios":"levelo://app?vid=68b88cac-a742-43f0-bc60-0875bf4f281a"},"vehicle_type_id":"4","last_reported":1742461847,"current_range_meters":6000,"station_id":"","pricing_plan_id":"cebpf4jnsgd1na2vs0mg"},{"bike_id":"cd3f6418-d471-43bd-a8af-c4289f0429a3","system_id":"levelo_inurba_marseille","lat":43.24175,"lon":5.39715,"is_reserved":false,"is_disabled":false,"rental_uris":{"android":"levelo://app?vid=cd3f6418-d471-43bd-a8af-c4289f0429a3","ios":"levelo://app?vid=cd3f6418-d471-43bd-a8af-c4289f0429a3"},"vehicle_type_id":"4","last_reported":1742461847,"current_range_meters":6400,"station_id":"ce4bhn12rcd13ifvqgpg","pricing_plan_id":"cebpf4jnsgd1na2vs0mg"},{"bike_id":"1fe8cbb2-e61f-4748-8f3f-eff906305549","system_id":"levelo_inurba_marseille","lat":43.23086,"lon":5.35483,"is_reserved":false,"is_disabled":false,"rental_uris":{"android":"levelo://app?vid=1fe8cbb2-e61f-4748-8f3f-eff906305549","ios":"levelo://app?vid=1fe8cbb2-e61f-4748-8f3f-eff906305549"},"vehicle_type_id":"4","last_reported":1742461847,"current_range_meters":6400,"station_id":"cpo3342slgdg3j2ifvpg","pricing_plan_id":"cebpf4jnsgd1na2vs0mg"},{"bike_id":"04a5010c-3030-4932-9e58-68e5fad4a3a6","system_id":"levelo_inurba_marseille","lat":43.27487,"lon":5.42455,"is_reserved":false,"is_disabled":false,"rental_uris":{"android":"levelo://app?vid=04a5010c-3030-4932-9e58-68e5fad4a3a6","ios":"levelo://app?vid=04a5010c-3030-4932-9e58-68e5fad4a3a6"},"vehicle_type_id":"4","last_reported":1742461847,"current_range_meters":6400,"station_id":"ce4bhn92rcd13ifvqgrg","pricing_plan_id":"cebpf4jnsgd1na2vs0mg"},{"bike_id":"2325f5b6-ca51-4972-a198-1502dbbb7f0c","system_id":"levelo_inurba_marseille","lat":43.24064,"lon":5.37742,"is_reserved":false,"is_disabled":false,"rental_uris":{"android":"levelo://app?vid=2325f5b6-ca51-4972-a198-1502dbbb7f0c","ios":"levelo://app?vid=2325f5b6-ca51-4972-a198-1502dbbb7f0c"},"vehicle_type_id":"4","last_reported":1742461847,"current_range_meters":6400,"station_id":"ce4bhnp2rcd13ifvqgvg","pricing_plan_id":"cebpf4jnsgd1na2vs0mg"},{"bike_id":"2da29877-75e8-47c4-b01e-c1fc06d648ba","system_id":"levelo_inurba_marseille","lat":43.29305,"lon":5.3717,"is_reserved":false,"is_disabled":false,"rental_uris":{"android":"levelo://app?vid=2da29877-75e8-47c4-b01e-c1fc06d648ba","ios":"levelo://app?vid=2da29877-75e8-47c4-b01e-c1fc06d648ba"},"vehicle_type_id":"4","last_reported":1742461847,"current_range_meters":6400,"station_id":"ce4bgh92rcd13ifvqb40","pricing_plan_id":"cebpf4jnsgd1na2vs0mg"},{"bike_id":"64b507c0-3954-430b-a8b7-2a21bb9a0dc2","system_id":"levelo_inurba_marseille","lat":43.27207,"lon":5.3918,"is_reserved":false,"is_disabled":false,"rental_uris":{"android":"levelo://app?vid=64b507c0-3954-430b-a8b7-2a21bb9a0dc2","ios":"levelo://app?vid=64b507c0-3954-430b-a8b7-2a21bb9a0dc2"},"vehicle_type_id":"4","last_reported":1742461847,"current_range_meters":6400,"station_id":"ce4bhhp2rcd13ifvqfm0","pricing_plan_id":"cebpf4jnsgd1na2vs0mg"},{"bike_id":"e71b2300-bac2-4b87-b4da-531c39414058","system_id":"levelo_inurba_marseille","lat":43.298036,"lon":5.381007,"is_reserved":false,"is_disabled":false,"rental_uris":{"android":"levelo://app?vid=e71b2300-bac2-4b87-b4da-531c39414058","ios":"levelo://app?vid=e71b2300-bac2-4b87-b4da-531c39414058"},"vehicle_type_id":"4","last_reported":1742461847,"current_range_meters":6400,"station_id":"","pricing_plan_id":"cebpf4jnsgd1na2vs0mg"},{"bike_id":"bc99fc62-720b-4159-be6e-be2b5d7115d5","system_id":"levelo_inurba_marseille","lat":43.24169,"lon":5.39733,"is_reserved":false,"is_disabled":false,"rental_uris":{"android":"levelo://app?vid=bc99fc62-720b-4159-be6e-be2b5d7115d5","ios":"levelo://app?vid=bc99fc62-720b-4159-be6e-be2b5d7115d5"},"vehicle_type_id":"4","last_reported":1742461847,"current_range_meters":6400,"station_id":"ce4bhn12rcd13ifvqgpg","pricing_plan_id":"cebpf4jnsgd1na2vs0mg"},{"bike_id":"4c92b4eb-38db-4b14-9eee-161220d74edb","system_id":"levelo_inurba_marseille","lat":43.30141,"lon":5.37416,"is_reserved":false,"is_disabled":false,"rental_uris":{"android":"levelo://app?vid=4c92b4eb-38db-4b14-9eee-161220d74edb","ios":"levelo://app?vid=4c92b4eb-38db-4b14-9eee-161220d74edb"},"vehicle_type_id":"4","last_reported":1742461847,"current_range_meters":6400,"station_id":"ce4bgs92rcd13ifvqcc0","pricing_plan_id":"cebpf4jnsgd1na2vs0mg"},{"bike_id":"9b1ab9d1-6497-43c1-8958-d421383bc8b1","system_id":"levelo_inurba_marseille","lat":43.24067,"lon":5.37766,"is_reserved":false,"is_disabled":false,"rental_uris":{"android":"levelo://app?vid=9b1ab9d1-6497-43c1-8958-d421383bc8b1","ios":"levelo://app?vid=9b1ab9d1-6497-43c1-8958-d421383bc8b1"},"vehicle_type_id":"4","last_reported":1742461847,"current_range_meters":6400,"station_id":"ce4bhnp2rcd13ifvqgvg","pricing_plan_id":"cebpf4jnsgd1na2vs0mg"},{"bike_id":"d4c7a2f2-9f06-4b11-8e06-f914a2ac78d3","system_id":"levelo_inurba_marseille","lat":43.26686,"lon":5.38273,"is_reserved":false,"is_disabled":false,"rental_uris":{"android":"levelo://app?vid=d4c7a2f2-9f06-4b11-8e06-f914a2ac78d3","ios":"levelo://app?vid=d4c7a2f2-9f06-4b11-8e06-f914a2ac78d3"},"vehicle_type_id":"4","last_reported":1742461847,"current_range_meters":6400,"station_id":"ce4bhg92rcd13ifvqf90","pricing_plan_id":"cebpf4jnsgd1na2vs0mg"},{"bike_id":"5d62495c-1a5a-4f19-b9bb-6f00a3cd19e9","system_id":"levelo_inurba_marseille","lat":43.25693,"lon":5.41103,"is_reserved":false,"is_disabled":false,"rental_uris":{"android":"levelo://app?vid=5d62495c-1a5a-4f19-b9bb-6f00a3cd19e9","ios":"levelo://app?vid=5d62495c-1a5a-4f19-b9bb-6f00a3cd19e9"},"vehicle_type_id":"4","last_reported":1742461847,"current_range_meters":6400,"station_id":"ce4bhkp2rcd13ifvqgd0","pricing_plan_id":"cebpf4jnsgd1na2vs0mg"},{"bike_id":"2fae07c9-076f-4c39-b921-5cc913ddefb5","system_id":"levelo_inurba_marseille","lat":43.29583,"lon":5.36737,"is_reserved":false,"is_disabled":false,"rental_uris":{"android":"levelo://app?vid=2fae07c9-076f-4c39-b921-5cc913ddefb5","ios":"levelo://app?vid=2fae07c9-076f-4c39-b921-5cc913ddefb5"},"vehicle_type_id":"4","last_reported":1742461847,"current_range_meters":6800,"station_id":"ce4bgph2rcd13ifvqc2g","pricing_plan_id":"cebpf4jnsgd1na2vs0mg"},{"bike_id":"97838737-49ad-45c8-b46c-4b9959962123","system_id":"levelo_inurba_marseille","lat":43.3414,"lon":5.40905,"is_reserved":false,"is_disabled":false,"rental_uris":{"android":"levelo://app?vid=97838737-49ad-45c8-b46c-4b9959962123","ios":"levelo://app?vid=97838737-49ad-45c8-b46c-4b9959962123"},"vehicle_type_id":"4","last_reported":1742461847,"current_range_meters":6800,"station_id":"ce4bhqh2rcd13ifvqhlg","pricing_plan_id":"cebpf4jnsgd1na2vs0mg"},{"bike_id":"5da21120-765c-493a-addc-469da6f3f383","system_id":"levelo_inurba_marseille","lat":43.3084,"lon":5.37493,"is_reserved":false,"is_disabled":false,"rental_uris":{"android":"levelo://app?vid=5da21120-765c-493a-addc-469da6f3f383","ios":"levelo://app?vid=5da21120-765c-493a-addc-469da6f3f383"},"vehicle_type_id":"4","last_reported":1742461847,"current_range_meters":6800,"station_id":"","pricing_plan_id":"cebpf4jnsgd1na2vs0mg"},{"bike_id":"4e0a029e-d1b7-445c-8044-a51b6ffb8f2e","system_id":"levelo_inurba_marseille","lat":43.31374,"lon":5.36694,"is_reserved":false,"is_disabled":false,"rental_uris":{"android":"levelo://app?vid=4e0a029e-d1b7-445c-8044-a51b6ffb8f2e","ios":"levelo://app?vid=4e0a029e-d1b7-445c-8044-a51b6ffb8f2e"},"vehicle_type_id":"4","last_reported":1742461847,"current_range_meters":6800,"station_id":"ce4bgr92rcd13ifvqc6g","pricing_plan_id":"cebpf4jnsgd1na2vs0mg"},{"bike_id":"287397f1-301a-46cd-a566-760697ced275","system_id":"levelo_inurba_marseille","lat":43.28161,"lon":5.42644,"is_reserved":false,"is_disabled":false,"rental_uris":{"android":"levelo://app?vid=287397f1-301a-46cd-a566-760697ced275","ios":"levelo://app?vid=287397f1-301a-46cd-a566-760697ced275"},"vehicle_type_id":"4","last_reported":1742461847,"current_range_meters":6800,"station_id":"ce4bhnh2rcd13ifvqgug","pricing_plan_id":"cebpf4jnsgd1na2vs0mg"},{"bike_id":"c2334e02-3460-4636-b538-577d2fde3d44","system_id":"levelo_inurba_marseille","lat":43.24178,"lon":5.39724,"is_reserved":false,"is_disabled":false,"rental_uris":{"android":"levelo://app?vid=c2334e02-3460-4636-b538-577d2fde3d44","ios":"levelo://app?vid=c2334e02-3460-4636-b538-577d2fde3d44"},"vehicle_type_id":"4","last_reported":1742461847,"current_range_meters":6800,"station_id":"ce4bhn12rcd13ifvqgpg","pricing_plan_id":"cebpf4jnsgd1na2vs0mg"},{"bike_id":"827ad3da-a8d4-4d9c-97ee-552173880a95","system_id":"levelo_inurba_marseille","lat":43.30329,"lon":5.36911,"is_reserved":false,"is_disabled":false,"rental_uris":{"android":"levelo://app?vid=827ad3da-a8d4-4d9c-97ee-552173880a95","ios":"levelo://app?vid=827ad3da-a8d4-4d9c-97ee-552173880a95"},"vehicle_type_id":"4","last_reported":1742461847,"current_range_meters":6800,"station_id":"ce4bgqh2rcd13ifvqc5g","pricing_plan_id":"cebpf4jnsgd1na2vs0mg"},{"bike_id":"21a94eaa-add7-466b-9fdc-3f674594f151","system_id":"levelo_inurba_marseille","lat":43.3361,"lon":5.40971,"is_reserved":false,"is_disabled":false,"rental_uris":{"android":"levelo://app?vid=21a94eaa-add7-466b-9fdc-3f674594f151","ios":"levelo://app?vid=21a94eaa-add7-466b-9fdc-3f674594f151"},"vehicle_type_id":"4","last_reported":1742461847,"current_range_meters":6800,"station_id":"","pricing_plan_id":"cebpf4jnsgd1na2vs0mg"},{"bike_id":"dfcc8bbb-6cc0-487f-9f53-6c4f09735ec3","system_id":"levelo_inurba_marseille","lat":43.27483,"lon":5.42474,"is_reserved":false,"is_disabled":true,"rental_uris":{"android":"levelo://app?vid=dfcc8bbb-6cc0-487f-9f53-6c4f09735ec3","ios":"levelo://app?vid=dfcc8bbb-6cc0-487f-9f53-6c4f09735ec3"},"vehicle_type_id":"4","last_reported":1742461847,"current_range_meters":6800,"station_id":"ce4bhn92rcd13ifvqgrg","pricing_plan_id":"cebpf4jnsgd1na2vs0mg"},{"bike_id":"227ea19f-289e-4a92-895e-218ec5d5c552","system_id":"levelo_inurba_marseille","lat":43.2749,"lon":5.42455,"is_reserved":false,"is_disabled":false,"rental_uris":{"android":"levelo://app?vid=227ea19f-289e-4a92-895e-218ec5d5c552","ios":"levelo://app?vid=227ea19f-289e-4a92-895e-218ec5d5c552"},"vehicle_type_id":"4","last_reported":1742461847,"current_range_meters":6800,"station_id":"ce4bhn92rcd13ifvqgrg","pricing_plan_id":"cebpf4jnsgd1na2vs0mg"},{"bike_id":"05271825-90e9-4070-ba0a-4ff67fd51f00","system_id":"levelo_inurba_marseille","lat":43.309051,"lon":5.401518,"is_reserved":false,"is_disabled":false,"rental_uris":{"android":"levelo://app?vid=05271825-90e9-4070-ba0a-4ff67fd51f00","ios":"levelo://app?vid=05271825-90e9-4070-ba0a-4ff67fd51f00"},"vehicle_type_id":"4","last_reported":1742461847,"current_range_meters":7200,"station_id":"ce4bgvp2rcd13ifvqct0","pricing_plan_id":"cebpf4jnsgd1na2vs0mg"},{"bike_id":"ebd45e7b-1c45-4b94-a31a-e5fdc9535d41","system_id":"levelo_inurba_marseille","lat":43.23962,"lon":5.36639,"is_reserved":false,"is_disabled":false,"rental_uris":{"android":"levelo://app?vid=ebd45e7b-1c45-4b94-a31a-e5fdc9535d41","ios":"levelo://app?vid=ebd45e7b-1c45-4b94-a31a-e5fdc9535d41"},"vehicle_type_id":"4","last_reported":1742461847,"current_range_meters":7200,"station_id":"ce4bhi12rcd13ifvqfp0","pricing_plan_id":"cebpf4jnsgd1na2vs0mg"},{"bike_id":"034cbda5-a269-406e-ac7d-9962861bb824","system_id":"levelo_inurba_marseille","lat":43.31783,"lon":5.3902,"is_reserved":false,"is_disabled":false,"rental_uris":{"android":"levelo://app?vid=034cbda5-a269-406e-ac7d-9962861bb824","ios":"levelo://app?vid=034cbda5-a269-406e-ac7d-9962861bb824"},"vehicle_type_id":"4","last_reported":1742461847,"current_range_meters":7200,"station_id":"ce4bhqp2rcd13ifvqhng","pricing_plan_id":"cebpf4jnsgd1na2vs0mg"},{"bike_id":"3058eb37-35b9-4277-898b-f9025638e045","system_id":"levelo_inurba_marseille","lat":43.25932,"lon":5.40903,"is_reserved":false,"is_disabled":false,"rental_uris":{"android":"levelo://app?vid=3058eb37-35b9-4277-898b-f9025638e045","ios":"levelo://app?vid=3058eb37-35b9-4277-898b-f9025638e045"},"vehicle_type_id":"4","last_reported":1742461847,"current_range_meters":7200,"station_id":"ce4bhm92rcd13ifvqglg","pricing_plan_id":"cebpf4jnsgd1na2vs0mg"},{"bike_id":"4282d108-6040-4f41-aba2-80f764036a8f","system_id":"levelo_inurba_marseille","lat":43.29903,"lon":5.38141,"is_reserved":false,"is_disabled":false,"rental_uris":{"android":"levelo://app?vid=4282d108-6040-4f41-aba2-80f764036a8f","ios":"levelo://app?vid=4282d108-6040-4f41-aba2-80f764036a8f"},"vehicle_type_id":"4","last_reported":1742461847,"current_range_meters":7200,"station_id":"ce4bgj12rcd13ifvqbc0","pricing_plan_id":"cebpf4jnsgd1na2vs0mg"},{"bike_id":"d45aa902-4bcb-471b-8a0f-8cdc3416ec8c","system_id":"levelo_inurba_marseille","lat":43.27617,"lon":5.36111,"is_reserved":false,"is_disabled":false,"rental_uris":{"android":"levelo://app?vid=d45aa902-4bcb-471b-8a0f-8cdc3416ec8c","ios":"levelo://app?vid=d45aa902-4bcb-471b-8a0f-8cdc3416ec8c"},"vehicle_type_id":"4","last_reported":1742461847,"current_range_meters":7200,"station_id":"ce4bgj92rcd13ifvqbe0","pricing_plan_id":"cebpf4jnsgd1na2vs0mg"},{"bike_id":"3455258b-4135-46b9-9a26-10bf95160e40","system_id":"levelo_inurba_marseille","lat":43.23187,"lon":5.3557,"is_reserved":false,"is_disabled":false,"rental_uris":{"android":"levelo://app?vid=3455258b-4135-46b9-9a26-10bf95160e40","ios":"levelo://app?vid=3455258b-4135-46b9-9a26-10bf95160e40"},"vehicle_type_id":"4","last_reported":1742461847,"current_range_meters":7200,"station_id":"ce4bhu92rcd13ifvqi70","pricing_plan_id":"cebpf4jnsgd1na2vs0mg"},{"bike_id":"31d84bc4-fc2d-4b3e-ba31-22035b51965c","system_id":"levelo_inurba_marseille","lat":43.26698,"lon":5.38259,"is_reserved":false,"is_disabled":false,"rental_uris":{"android":"levelo://app?vid=31d84bc4-fc2d-4b3e-ba31-22035b51965c","ios":"levelo://app?vid=31d84bc4-fc2d-4b3e-ba31-22035b51965c"},"vehicle_type_id":"4","last_reported":1742461847,"current_range_meters":7200,"station_id":"ce4bhg92rcd13ifvqf90","pricing_plan_id":"cebpf4jnsgd1na2vs0mg"},{"bike_id":"86369963-ae14-43a2-a00c-692cf61710c1","system_id":"levelo_inurba_marseille","lat":43.30163,"lon":5.38096,"is_reserved":false,"is_disabled":false,"rental_uris":{"android":"levelo://app?vid=86369963-ae14-43a2-a00c-692cf61710c1","ios":"levelo://app?vid=86369963-ae14-43a2-a00c-692cf61710c1"},"vehicle_type_id":"4","last_reported":1742461847,"current_range_meters":7200,"station_id":"ce4bgjp2rcd13ifvqbh0","pricing_plan_id":"cebpf4jnsgd1na2vs0mg"},{"bike_id":"ff2e113c-48f4-4926-83e4-f03bf0925c08","system_id":"levelo_inurba_marseille","lat":43.24716,"lon":5.41185,"is_reserved":false,"is_disabled":false,"rental_uris":{"android":"levelo://app?vid=ff2e113c-48f4-4926-83e4-f03bf0925c08","ios":"levelo://app?vid=ff2e113c-48f4-4926-83e4-f03bf0925c08"},"vehicle_type_id":"4","last_reported":1742461847,"current_range_meters":7200,"station_id":"","pricing_plan_id":"cebpf4jnsgd1na2vs0mg"},{"bike_id":"0f635bde-4e1c-4f1b-b735-23eeb41e0e5e","system_id":"levelo_inurba_marseille","lat":43.23965,"lon":5.36625,"is_reserved":false,"is_disabled":false,"rental_uris":{"android":"levelo://app?vid=0f635bde-4e1c-4f1b-b735-23eeb41e0e5e","ios":"levelo://app?vid=0f635bde-4e1c-4f1b-b735-23eeb41e0e5e"},"vehicle_type_id":"4","last_reported":1742461847,"current_range_meters":7200,"station_id":"ce4bhi12rcd13ifvqfp0","pricing_plan_id":"cebpf4jnsgd1na2vs0mg"},{"bike_id":"73d6960e-5ed0-494c-9a1a-3e1f8adfe133","system_id":"levelo_inurba_marseille","lat":43.29844,"lon":5.39773,"is_reserved":false,"is_disabled":false,"rental_uris":{"android":"levelo://app?vid=73d6960e-5ed0-494c-9a1a-3e1f8adfe133","ios":"levelo://app?vid=73d6960e-5ed0-494c-9a1a-3e1f8adfe133"},"vehicle_type_id":"4","last_reported":1742461847,"current_range_meters":7200,"station_id":"ce4bh0h2rcd13ifvqd50","pricing_plan_id":"cebpf4jnsgd1na2vs0mg"},{"bike_id":"f8a815c3-87f5-43ce-90a0-b6153b8c59d1","system_id":"levelo_inurba_marseille","lat":43.30146,"lon":5.37402,"is_reserved":false,"is_disabled":false,"rental_uris":{"android":"levelo://app?vid=f8a815c3-87f5-43ce-90a0-b6153b8c59d1","ios":"levelo://app?vid=f8a815c3-87f5-43ce-90a0-b6153b8c59d1"},"vehicle_type_id":"4","last_reported":1742461847,"current_range_meters":7200,"station_id":"ce4bgs92rcd13ifvqcc0","pricing_plan_id":"cebpf4jnsgd1na2vs0mg"},{"bike_id":"69e2981b-cf61-41df-a4de-8adb4108b43d","system_id":"levelo_inurba_marseille","lat":43.31359,"lon":5.36696,"is_reserved":false,"is_disabled":false,"rental_uris":{"android":"levelo://app?vid=69e2981b-cf61-41df-a4de-8adb4108b43d","ios":"levelo://app?vid=69e2981b-cf61-41df-a4de-8adb4108b43d"},"vehicle_type_id":"4","last_reported":1742461847,"current_range_meters":7200,"station_id":"ce4bgr92rcd13ifvqc6g","pricing_plan_id":"cebpf4jnsgd1na2vs0mg"},{"bike_id":"516a14f2-e527-4a6d-99db-d5ad118faf7c","system_id":"levelo_inurba_marseille","lat":43.25942,"lon":5.40898,"is_reserved":false,"is_disabled":false,"rental_uris":{"android":"levelo://app?vid=516a14f2-e527-4a6d-99db-d5ad118faf7c","ios":"levelo://app?vid=516a14f2-e527-4a6d-99db-d5ad118faf7c"},"vehicle_type_id":"4","last_reported":1742461847,"current_range_meters":7200,"station_id":"ce4bhm92rcd13ifvqglg","pricing_plan_id":"cebpf4jnsgd1na2vs0mg"},{"bike_id":"e84d5d9a-c3c5-400c-aec9-48bb7c912e7e","system_id":"levelo_inurba_marseille","lat":43.30957,"lon":5.39042,"is_reserved":false,"is_disabled":false,"rental_uris":{"android":"levelo://app?vid=e84d5d9a-c3c5-400c-aec9-48bb7c912e7e","ios":"levelo://app?vid=e84d5d9a-c3c5-400c-aec9-48bb7c912e7e"},"vehicle_type_id":"4","last_reported":1742461847,"current_range_meters":7200,"station_id":"ce4bgup2rcd13ifvqco0","pricing_plan_id":"cebpf4jnsgd1na2vs0mg"},{"bike_id":"17917c41-c5c4-4462-9ed4-1210fc8c76da","system_id":"levelo_inurba_marseille","lat":43.29575,"lon":5.37516,"is_reserved":false,"is_disabled":false,"rental_uris":{"android":"levelo://app?vid=17917c41-c5c4-4462-9ed4-1210fc8c76da","ios":"levelo://app?vid=17917c41-c5c4-4462-9ed4-1210fc8c76da"},"vehicle_type_id":"4","last_reported":1742461847,"current_range_meters":7200,"station_id":"ce4bgh92rcd13ifvqb50","pricing_plan_id":"cebpf4jnsgd1na2vs0mg"},{"bike_id":"c76a4d35-3f4b-4728-a54f-decfdc407403","system_id":"levelo_inurba_marseille","lat":43.24667,"lon":5.38149,"is_reserved":false,"is_disabled":false,"rental_uris":{"android":"levelo://app?vid=c76a4d35-3f4b-4728-a54f-decfdc407403","ios":"levelo://app?vid=c76a4d35-3f4b-4728-a54f-decfdc407403"},"vehicle_type_id":"4","last_reported":1742461847,"current_range_meters":8000,"station_id":"ce4bhih2rcd13ifvqfr0","pricing_plan_id":"cebpf4jnsgd1na2vs0mg"},{"bike_id":"0f0379d0-9e31-4d59-aa71-1b8fef29c39c","system_id":"levelo_inurba_marseille","lat":43.25744,"lon":5.41119,"is_reserved":false,"is_disabled":false,"rental_uris":{"android":"levelo://app?vid=0f0379d0-9e31-4d59-aa71-1b8fef29c39c","ios":"levelo://app?vid=0f0379d0-9e31-4d59-aa71-1b8fef29c39c"},"vehicle_type_id":"4","last_reported":1742461847,"current_range_meters":8000,"station_id":"ce4bhkp2rcd13ifvqgd0","pricing_plan_id":"cebpf4jnsgd1na2vs0mg"},{"bike_id":"7f858f81-3f33-4d94-90a4-d64d3e608bb9","system_id":"levelo_inurba_marseille","lat":43.30946,"lon":5.39032,"is_reserved":false,"is_disabled":false,"rental_uris":{"android":"levelo://app?vid=7f858f81-3f33-4d94-90a4-d64d3e608bb9","ios":"levelo://app?vid=7f858f81-3f33-4d94-90a4-d64d3e608bb9"},"vehicle_type_id":"4","last_reported":1742461847,"current_range_meters":8000,"station_id":"ce4bgup2rcd13ifvqco0","pricing_plan_id":"cebpf4jnsgd1na2vs0mg"},{"bike_id":"f8e532d6-e317-445d-91cb-19a6e01b4151","system_id":"levelo_inurba_marseille","lat":43.25918,"lon":5.40885,"is_reserved":false,"is_disabled":false,"rental_uris":{"android":"levelo://app?vid=f8e532d6-e317-445d-91cb-19a6e01b4151","ios":"levelo://app?vid=f8e532d6-e317-445d-91cb-19a6e01b4151"},"vehicle_type_id":"4","last_reported":1742461847,"current_range_meters":8000,"station_id":"ce4bhm92rcd13ifvqglg","pricing_plan_id":"cebpf4jnsgd1na2vs0mg"},{"bike_id":"1fea0b3c-94ab-41af-b18e-d9bbaa7dda49","system_id":"levelo_inurba_marseille","lat":43.31717,"lon":5.43696,"is_reserved":false,"is_disabled":false,"rental_uris":{"android":"levelo://app?vid=1fea0b3c-94ab-41af-b18e-d9bbaa7dda49","ios":"levelo://app?vid=1fea0b3c-94ab-41af-b18e-d9bbaa7dda49"},"vehicle_type_id":"4","last_reported":1742461847,"current_range_meters":8000,"station_id":"ce4bhp92rcd13ifvqhcg","pricing_plan_id":"cebpf4jnsgd1na2vs0mg"},{"bike_id":"963a17fa-4222-4f93-b414-09c4cce8d25a","system_id":"levelo_inurba_marseille","lat":43.28412,"lon":5.38465,"is_reserved":false,"is_disabled":false,"rental_uris":{"android":"levelo://app?vid=963a17fa-4222-4f93-b414-09c4cce8d25a","ios":"levelo://app?vid=963a17fa-4222-4f93-b414-09c4cce8d25a"},"vehicle_type_id":"4","last_reported":1742461847,"current_range_meters":8000,"station_id":"","pricing_plan_id":"cebpf4jnsgd1na2vs0mg"},{"bike_id":"f418f00a-589e-4759-bd79-4b1f398046f7","system_id":"levelo_inurba_marseille","lat":43.30317,"lon":5.36865,"is_reserved":false,"is_disabled":false,"rental_uris":{"android":"levelo://app?vid=f418f00a-589e-4759-bd79-4b1f398046f7","ios":"levelo://app?vid=f418f00a-589e-4759-bd79-4b1f398046f7"},"vehicle_type_id":"4","last_reported":1742461847,"current_range_meters":8000,"station_id":"ce4bgqh2rcd13ifvqc5g","pricing_plan_id":"cebpf4jnsgd1na2vs0mg"},{"bike_id":"0a036192-d13b-4f07-8611-5ad9f4f3f6ab","system_id":"levelo_inurba_marseille","lat":43.33013,"lon":5.39257,"is_reserved":false,"is_disabled":false,"rental_uris":{"android":"levelo://app?vid=0a036192-d13b-4f07-8611-5ad9f4f3f6ab","ios":"levelo://app?vid=0a036192-d13b-4f07-8611-5ad9f4f3f6ab"},"vehicle_type_id":"4","last_reported":1742461847,"current_range_meters":8000,"station_id":"","pricing_plan_id":"cebpf4jnsgd1na2vs0mg"},{"bike_id":"99d04fdf-6660-4c0c-b8eb-c6ce4ae5ae0d","system_id":"levelo_inurba_marseille","lat":43.2987,"lon":5.39736,"is_reserved":false,"is_disabled":false,"rental_uris":{"android":"levelo://app?vid=99d04fdf-6660-4c0c-b8eb-c6ce4ae5ae0d","ios":"levelo://app?vid=99d04fdf-6660-4c0c-b8eb-c6ce4ae5ae0d"},"vehicle_type_id":"4","last_reported":1742461847,"current_range_meters":8000,"station_id":"ce4bh0h2rcd13ifvqd50","pricing_plan_id":"cebpf4jnsgd1na2vs0mg"},{"bike_id":"1c91d8df-eac4-44fb-932a-5c411d61886f","system_id":"levelo_inurba_marseille","lat":43.26682,"lon":5.38273,"is_reserved":false,"is_disabled":false,"rental_uris":{"android":"levelo://app?vid=1c91d8df-eac4-44fb-932a-5c411d61886f","ios":"levelo://app?vid=1c91d8df-eac4-44fb-932a-5c411d61886f"},"vehicle_type_id":"4","last_reported":1742461847,"current_range_meters":8000,"station_id":"ce4bhg92rcd13ifvqf90","pricing_plan_id":"cebpf4jnsgd1na2vs0mg"},{"bike_id":"58e33d66-73b1-42e5-adf0-ae2ed48c5043","system_id":"levelo_inurba_marseille","lat":43.32477,"lon":5.36571,"is_reserved":false,"is_disabled":false,"rental_uris":{"android":"levelo://app?vid=58e33d66-73b1-42e5-adf0-ae2ed48c5043","ios":"levelo://app?vid=58e33d66-73b1-42e5-adf0-ae2ed48c5043"},"vehicle_type_id":"4","last_reported":1742461847,"current_range_meters":8400,"station_id":"ce4bhs12rcd13ifvqhvg","pricing_plan_id":"cebpf4jnsgd1na2vs0mg"},{"bike_id":"a3175949-f9d6-40da-9481-3578df78d3a4","system_id":"levelo_inurba_marseille","lat":43.25028,"lon":5.38944,"is_reserved":false,"is_disabled":false,"rental_uris":{"android":"levelo://app?vid=a3175949-f9d6-40da-9481-3578df78d3a4","ios":"levelo://app?vid=a3175949-f9d6-40da-9481-3578df78d3a4"},"vehicle_type_id":"4","last_reported":1742461847,"current_range_meters":8400,"station_id":"ce4bhgp2rcd13ifvqfd0","pricing_plan_id":"cebpf4jnsgd1na2vs0mg"},{"bike_id":"be3c72c1-6df8-4160-a164-723c89156a3f","system_id":"levelo_inurba_marseille","lat":43.25708,"lon":5.41108,"is_reserved":false,"is_disabled":false,"rental_uris":{"android":"levelo://app?vid=be3c72c1-6df8-4160-a164-723c89156a3f","ios":"levelo://app?vid=be3c72c1-6df8-4160-a164-723c89156a3f"},"vehicle_type_id":"4","last_reported":1742461847,"current_range_meters":8400,"station_id":"ce4bhkp2rcd13ifvqgd0","pricing_plan_id":"cebpf4jnsgd1na2vs0mg"},{"bike_id":"c1839986-c8b6-425a-a476-7578ac0f4923","system_id":"levelo_inurba_marseille","lat":43.29315,"lon":5.37182,"is_reserved":false,"is_disabled":false,"rental_uris":{"android":"levelo://app?vid=c1839986-c8b6-425a-a476-7578ac0f4923","ios":"levelo://app?vid=c1839986-c8b6-425a-a476-7578ac0f4923"},"vehicle_type_id":"4","last_reported":1742461847,"current_range_meters":8400,"station_id":"ce4bgh92rcd13ifvqb40","pricing_plan_id":"cebpf4jnsgd1na2vs0mg"},{"bike_id":"df8fdc72-f4f0-42f3-90b7-957801e7040f","system_id":"levelo_inurba_marseille","lat":43.24077,"lon":5.37757,"is_reserved":false,"is_disabled":false,"rental_uris":{"android":"levelo://app?vid=df8fdc72-f4f0-42f3-90b7-957801e7040f","ios":"levelo://app?vid=df8fdc72-f4f0-42f3-90b7-957801e7040f"},"vehicle_type_id":"4","last_reported":1742461847,"current_range_meters":8400,"station_id":"ce4bhnp2rcd13ifvqgvg","pricing_plan_id":"cebpf4jnsgd1na2vs0mg"},{"bike_id":"a8b8dae1-87ef-4f8a-a2c8-fe9fd9bf0f77","system_id":"levelo_inurba_marseille","lat":43.23549,"lon":5.37753,"is_reserved":false,"is_disabled":false,"rental_uris":{"android":"levelo://app?vid=a8b8dae1-87ef-4f8a-a2c8-fe9fd9bf0f77","ios":"levelo://app?vid=a8b8dae1-87ef-4f8a-a2c8-fe9fd9bf0f77"},"vehicle_type_id":"4","last_reported":1742461847,"current_range_meters":8400,"station_id":"","pricing_plan_id":"cebpf4jnsgd1na2vs0mg"},{"bike_id":"bfd67b10-fd7c-4b25-bc6e-0830b23c1f4b","system_id":"levelo_inurba_marseille","lat":43.25828,"lon":5.39439,"is_reserved":false,"is_disabled":false,"rental_uris":{"android":"levelo://app?vid=bfd67b10-fd7c-4b25-bc6e-0830b23c1f4b","ios":"levelo://app?vid=bfd67b10-fd7c-4b25-bc6e-0830b23c1f4b"},"vehicle_type_id":"4","last_reported":1742461847,"current_range_meters":8400,"station_id":"ce4bhip2rcd13ifvqft0","pricing_plan_id":"cebpf4jnsgd1na2vs0mg"},{"bike_id":"fa1662a9-4eda-49e6-92dc-fad2cd424f84","system_id":"levelo_inurba_marseille","lat":43.24171,"lon":5.36393,"is_reserved":false,"is_disabled":false,"rental_uris":{"android":"levelo://app?vid=fa1662a9-4eda-49e6-92dc-fad2cd424f84","ios":"levelo://app?vid=fa1662a9-4eda-49e6-92dc-fad2cd424f84"},"vehicle_type_id":"4","last_reported":1742461847,"current_range_meters":8400,"station_id":"cpo36qri1sfpv3e86is0","pricing_plan_id":"cebpf4jnsgd1na2vs0mg"},{"bike_id":"14abe29d-ba8d-4a32-a91e-06a8633a136b","system_id":"levelo_inurba_marseille","lat":43.3095,"lon":5.39041,"is_reserved":false,"is_disabled":false,"rental_uris":{"android":"levelo://app?vid=14abe29d-ba8d-4a32-a91e-06a8633a136b","ios":"levelo://app?vid=14abe29d-ba8d-4a32-a91e-06a8633a136b"},"vehicle_type_id":"4","last_reported":1742461847,"current_range_meters":8400,"station_id":"ce4bgup2rcd13ifvqco0","pricing_plan_id":"cebpf4jnsgd1na2vs0mg"},{"bike_id":"02f43b01-3b74-45fa-a40e-2df823c84cda","system_id":"levelo_inurba_marseille","lat":43.24115,"lon":5.39583,"is_reserved":false,"is_disabled":false,"rental_uris":{"android":"levelo://app?vid=02f43b01-3b74-45fa-a40e-2df823c84cda","ios":"levelo://app?vid=02f43b01-3b74-45fa-a40e-2df823c84cda"},"vehicle_type_id":"4","last_reported":1742461847,"current_range_meters":8400,"station_id":"ce4bhn12rcd13ifvqgpg","pricing_plan_id":"cebpf4jnsgd1na2vs0mg"},{"bike_id":"bfc71d0e-e8ac-4d8d-b97a-04d933547114","system_id":"levelo_inurba_marseille","lat":43.30963,"lon":5.39049,"is_reserved":false,"is_disabled":false,"rental_uris":{"android":"levelo://app?vid=bfc71d0e-e8ac-4d8d-b97a-04d933547114","ios":"levelo://app?vid=bfc71d0e-e8ac-4d8d-b97a-04d933547114"},"vehicle_type_id":"4","last_reported":1742461847,"current_range_meters":8400,"station_id":"ce4bgup2rcd13ifvqco0","pricing_plan_id":"cebpf4jnsgd1na2vs0mg"},{"bike_id":"21b171b5-6533-4457-a9ad-50e105b3f2c4","system_id":"levelo_inurba_marseille","lat":43.29908,"lon":5.37496,"is_reserved":false,"is_disabled":false,"rental_uris":{"android":"levelo://app?vid=21b171b5-6533-4457-a9ad-50e105b3f2c4","ios":"levelo://app?vid=21b171b5-6533-4457-a9ad-50e105b3f2c4"},"vehicle_type_id":"4","last_reported":1742461847,"current_range_meters":8400,"station_id":"ce4bgjh2rcd13ifvqbg0","pricing_plan_id":"cebpf4jnsgd1na2vs0mg"},{"bike_id":"9d26c008-8ec1-4269-9cd2-f45774f03ccb","system_id":"levelo_inurba_marseille","lat":43.27934,"lon":5.37919,"is_reserved":false,"is_disabled":false,"rental_uris":{"android":"levelo://app?vid=9d26c008-8ec1-4269-9cd2-f45774f03ccb","ios":"levelo://app?vid=9d26c008-8ec1-4269-9cd2-f45774f03ccb"},"vehicle_type_id":"4","last_reported":1742461847,"current_range_meters":8400,"station_id":"","pricing_plan_id":"cebpf4jnsgd1na2vs0mg"},{"bike_id":"81f254f6-4d3b-416e-a42b-9af8628b84b6","system_id":"levelo_inurba_marseille","lat":43.29554,"lon":5.42293,"is_reserved":false,"is_disabled":false,"rental_uris":{"android":"levelo://app?vid=81f254f6-4d3b-416e-a42b-9af8628b84b6","ios":"levelo://app?vid=81f254f6-4d3b-416e-a42b-9af8628b84b6"},"vehicle_type_id":"4","last_reported":1742461847,"current_range_meters":8400,"station_id":"ce4bhph2rcd13ifvqhdg","pricing_plan_id":"cebpf4jnsgd1na2vs0mg"},{"bike_id":"3691e12e-962f-4298-9170-1cb5d85d0057","system_id":"levelo_inurba_marseille","lat":43.31338,"lon":5.36722,"is_reserved":false,"is_disabled":false,"rental_uris":{"android":"levelo://app?vid=3691e12e-962f-4298-9170-1cb5d85d0057","ios":"levelo://app?vid=3691e12e-962f-4298-9170-1cb5d85d0057"},"vehicle_type_id":"4","last_reported":1742461847,"current_range_meters":8400,"station_id":"ce4bgr92rcd13ifvqc6g","pricing_plan_id":"cebpf4jnsgd1na2vs0mg"},{"bike_id":"6eb98e18-92f8-411c-92c0-82d5569fb85c","system_id":"levelo_inurba_marseille","lat":43.32363,"lon":5.36737,"is_reserved":false,"is_disabled":false,"rental_uris":{"android":"levelo://app?vid=6eb98e18-92f8-411c-92c0-82d5569fb85c","ios":"levelo://app?vid=6eb98e18-92f8-411c-92c0-82d5569fb85c"},"vehicle_type_id":"4","last_reported":1742461847,"current_range_meters":8800,"station_id":"ce4bhsh2rcd13ifvqi2g","pricing_plan_id":"cebpf4jnsgd1na2vs0mg"},{"bike_id":"6880d901-873f-4af3-a1be-e1217fc3dad4","system_id":"levelo_inurba_marseille","lat":43.32539,"lon":5.41454,"is_reserved":false,"is_disabled":false,"rental_uris":{"android":"levelo://app?vid=6880d901-873f-4af3-a1be-e1217fc3dad4","ios":"levelo://app?vid=6880d901-873f-4af3-a1be-e1217fc3dad4"},"vehicle_type_id":"4","last_reported":1742461847,"current_range_meters":8800,"station_id":"ce4bhq12rcd13ifvqhhg","pricing_plan_id":"cebpf4jnsgd1na2vs0mg"},{"bike_id":"447501e5-187a-4602-94d5-a210c774a3da","system_id":"levelo_inurba_marseille","lat":43.33603,"lon":5.41031,"is_reserved":false,"is_disabled":false,"rental_uris":{"android":"levelo://app?vid=447501e5-187a-4602-94d5-a210c774a3da","ios":"levelo://app?vid=447501e5-187a-4602-94d5-a210c774a3da"},"vehicle_type_id":"4","last_reported":1742461847,"current_range_meters":8800,"station_id":"ce4bhqh2rcd13ifvqhmg","pricing_plan_id":"cebpf4jnsgd1na2vs0mg"},{"bike_id":"268cb14c-d7c6-4105-910d-1b918ec33301","system_id":"levelo_inurba_marseille","lat":43.29373,"lon":5.37861,"is_reserved":false,"is_disabled":false,"rental_uris":{"android":"levelo://app?vid=268cb14c-d7c6-4105-910d-1b918ec33301","ios":"levelo://app?vid=268cb14c-d7c6-4105-910d-1b918ec33301"},"vehicle_type_id":"4","last_reported":1742461847,"current_range_meters":8800,"station_id":"ce4bgjh2rcd13ifvqbf0","pricing_plan_id":"cebpf4jnsgd1na2vs0mg"},{"bike_id":"172bfbbb-c4de-44e5-aaba-f8df6d28115d","system_id":"levelo_inurba_marseille","lat":43.23147,"lon":5.43723,"is_reserved":false,"is_disabled":false,"rental_uris":{"android":"levelo://app?vid=172bfbbb-c4de-44e5-aaba-f8df6d28115d","ios":"levelo://app?vid=172bfbbb-c4de-44e5-aaba-f8df6d28115d"},"vehicle_type_id":"4","last_reported":1742461847,"current_range_meters":8800,"station_id":"ce4bhmp2rcd13ifvqgog","pricing_plan_id":"cebpf4jnsgd1na2vs0mg"},{"bike_id":"9b2a4ae1-45d2-42a7-b1d8-970226b193d0","system_id":"levelo_inurba_marseille","lat":43.24185,"lon":5.39731,"is_reserved":false,"is_disabled":false,"rental_uris":{"android":"levelo://app?vid=9b2a4ae1-45d2-42a7-b1d8-970226b193d0","ios":"levelo://app?vid=9b2a4ae1-45d2-42a7-b1d8-970226b193d0"},"vehicle_type_id":"4","last_reported":1742461847,"current_range_meters":8800,"station_id":"ce4bhn12rcd13ifvqgpg","pricing_plan_id":"cebpf4jnsgd1na2vs0mg"},{"bike_id":"ee0f687c-08bb-4e36-98a2-e3de6b954481","system_id":"levelo_inurba_marseille","lat":43.2419,"lon":5.3972,"is_reserved":false,"is_disabled":false,"rental_uris":{"android":"levelo://app?vid=ee0f687c-08bb-4e36-98a2-e3de6b954481","ios":"levelo://app?vid=ee0f687c-08bb-4e36-98a2-e3de6b954481"},"vehicle_type_id":"4","last_reported":1742461847,"current_range_meters":8800,"station_id":"ce4bhn12rcd13ifvqgpg","pricing_plan_id":"cebpf4jnsgd1na2vs0mg"},{"bike_id":"62b4a984-e68a-416d-a9f1-8057bf199c03","system_id":"levelo_inurba_marseille","lat":43.26219,"lon":5.37446,"is_reserved":false,"is_disabled":false,"rental_uris":{"android":"levelo://app?vid=62b4a984-e68a-416d-a9f1-8057bf199c03","ios":"levelo://app?vid=62b4a984-e68a-416d-a9f1-8057bf199c03"},"vehicle_type_id":"4","last_reported":1742461847,"current_range_meters":8800,"station_id":"ce4bhgp2rcd13ifvqfc0","pricing_plan_id":"cebpf4jnsgd1na2vs0mg"},{"bike_id":"b147f521-5b77-46f7-9b2e-03b6ac24a798","system_id":"levelo_inurba_marseille","lat":43.3091,"lon":5.3685,"is_reserved":false,"is_disabled":false,"rental_uris":{"android":"levelo://app?vid=b147f521-5b77-46f7-9b2e-03b6ac24a798","ios":"levelo://app?vid=b147f521-5b77-46f7-9b2e-03b6ac24a798"},"vehicle_type_id":"4","last_reported":1742461847,"current_range_meters":8800,"station_id":"ce4bgn92rcd13ifvqbvg","pricing_plan_id":"cebpf4jnsgd1na2vs0mg"},{"bike_id":"f73ea29f-f283-48fd-b3f6-955c325c870d","system_id":"levelo_inurba_marseille","lat":43.25935,"lon":5.40909,"is_reserved":false,"is_disabled":false,"rental_uris":{"android":"levelo://app?vid=f73ea29f-f283-48fd-b3f6-955c325c870d","ios":"levelo://app?vid=f73ea29f-f283-48fd-b3f6-955c325c870d"},"vehicle_type_id":"4","last_reported":1742461847,"current_range_meters":8800,"station_id":"ce4bhm92rcd13ifvqglg","pricing_plan_id":"cebpf4jnsgd1na2vs0mg"},{"bike_id":"8a23c3e3-2c50-4427-a456-769d00dddd3a","system_id":"levelo_inurba_marseille","lat":43.29915,"lon":5.3747,"is_reserved":false,"is_disabled":false,"rental_uris":{"android":"levelo://app?vid=8a23c3e3-2c50-4427-a456-769d00dddd3a","ios":"levelo://app?vid=8a23c3e3-2c50-4427-a456-769d00dddd3a"},"vehicle_type_id":"4","last_reported":1742461847,"current_range_meters":8800,"station_id":"ce4bgjh2rcd13ifvqbg0","pricing_plan_id":"cebpf4jnsgd1na2vs0mg"},{"bike_id":"e56c746f-bbbc-4ce0-b536-f255aa840643","system_id":"levelo_inurba_marseille","lat":43.29566,"lon":5.37498,"is_reserved":false,"is_disabled":false,"rental_uris":{"android":"levelo://app?vid=e56c746f-bbbc-4ce0-b536-f255aa840643","ios":"levelo://app?vid=e56c746f-bbbc-4ce0-b536-f255aa840643"},"vehicle_type_id":"4","last_reported":1742461847,"current_range_meters":8800,"station_id":"ce4bgh92rcd13ifvqb50","pricing_plan_id":"cebpf4jnsgd1na2vs0mg"},{"bike_id":"e88b70bd-069b-4562-80f8-76128176147d","system_id":"levelo_inurba_marseille","lat":43.29583,"lon":5.37537,"is_reserved":false,"is_disabled":false,"rental_uris":{"android":"levelo://app?vid=e88b70bd-069b-4562-80f8-76128176147d","ios":"levelo://app?vid=e88b70bd-069b-4562-80f8-76128176147d"},"vehicle_type_id":"4","last_reported":1742461847,"current_range_meters":9200,"station_id":"ce4bgh92rcd13ifvqb50","pricing_plan_id":"cebpf4jnsgd1na2vs0mg"},{"bike_id":"61ada6dd-d369-4b83-9c3d-cac826053ee1","system_id":"levelo_inurba_marseille","lat":43.30432,"lon":5.39752,"is_reserved":false,"is_disabled":false,"rental_uris":{"android":"levelo://app?vid=61ada6dd-d369-4b83-9c3d-cac826053ee1","ios":"levelo://app?vid=61ada6dd-d369-4b83-9c3d-cac826053ee1"},"vehicle_type_id":"4","last_reported":1742461847,"current_range_meters":9200,"station_id":"ce4bh092rcd13ifvqd20","pricing_plan_id":"cebpf4jnsgd1na2vs0mg"},{"bike_id":"1c7347e3-b5d2-4e18-a168-5a54f2f9bfaa","system_id":"levelo_inurba_marseille","lat":43.3097,"lon":5.39032,"is_reserved":false,"is_disabled":false,"rental_uris":{"android":"levelo://app?vid=1c7347e3-b5d2-4e18-a168-5a54f2f9bfaa","ios":"levelo://app?vid=1c7347e3-b5d2-4e18-a168-5a54f2f9bfaa"},"vehicle_type_id":"4","last_reported":1742461847,"current_range_meters":9200,"station_id":"ce4bgup2rcd13ifvqco0","pricing_plan_id":"cebpf4jnsgd1na2vs0mg"},{"bike_id":"f4c4bf6d-48a4-4198-942b-eda89b945e41","system_id":"levelo_inurba_marseille","lat":43.27373,"lon":5.36261,"is_reserved":false,"is_disabled":false,"rental_uris":{"android":"levelo://app?vid=f4c4bf6d-48a4-4198-942b-eda89b945e41","ios":"levelo://app?vid=f4c4bf6d-48a4-4198-942b-eda89b945e41"},"vehicle_type_id":"4","last_reported":1742461847,"current_range_meters":9200,"station_id":"ce4bhbh2rcd13ifvqeo0","pricing_plan_id":"cebpf4jnsgd1na2vs0mg"},{"bike_id":"e6c8473b-6f16-40c7-9d09-903e0bcd4e87","system_id":"levelo_inurba_marseille","lat":43.32558,"lon":5.4195,"is_reserved":false,"is_disabled":false,"rental_uris":{"android":"levelo://app?vid=e6c8473b-6f16-40c7-9d09-903e0bcd4e87","ios":"levelo://app?vid=e6c8473b-6f16-40c7-9d09-903e0bcd4e87"},"vehicle_type_id":"4","last_reported":1742461847,"current_range_meters":9200,"station_id":"","pricing_plan_id":"cebpf4jnsgd1na2vs0mg"},{"bike_id":"471b8c1a-1a85-4080-b533-fb41f3dbfd81","system_id":"levelo_inurba_marseille","lat":43.23193,"lon":5.35559,"is_reserved":false,"is_disabled":false,"rental_uris":{"android":"levelo://app?vid=471b8c1a-1a85-4080-b533-fb41f3dbfd81","ios":"levelo://app?vid=471b8c1a-1a85-4080-b533-fb41f3dbfd81"},"vehicle_type_id":"4","last_reported":1742461847,"current_range_meters":9200,"station_id":"ce4bhu92rcd13ifvqi70","pricing_plan_id":"cebpf4jnsgd1na2vs0mg"},{"bike_id":"6b82090f-1196-4b0d-b44a-1f0dbf0926cf","system_id":"levelo_inurba_marseille","lat":43.29552,"lon":5.42285,"is_reserved":false,"is_disabled":false,"rental_uris":{"android":"levelo://app?vid=6b82090f-1196-4b0d-b44a-1f0dbf0926cf","ios":"levelo://app?vid=6b82090f-1196-4b0d-b44a-1f0dbf0926cf"},"vehicle_type_id":"4","last_reported":1742461847,"current_range_meters":9200,"station_id":"ce4bhph2rcd13ifvqhdg","pricing_plan_id":"cebpf4jnsgd1na2vs0mg"},{"bike_id":"86eccc93-4fd8-4ef6-aed2-86921ac3f9c9","system_id":"levelo_inurba_marseille","lat":43.26677,"lon":5.3827,"is_reserved":false,"is_disabled":false,"rental_uris":{"android":"levelo://app?vid=86eccc93-4fd8-4ef6-aed2-86921ac3f9c9","ios":"levelo://app?vid=86eccc93-4fd8-4ef6-aed2-86921ac3f9c9"},"vehicle_type_id":"4","last_reported":1742461847,"current_range_meters":9200,"station_id":"ce4bhg92rcd13ifvqf90","pricing_plan_id":"cebpf4jnsgd1na2vs0mg"},{"bike_id":"54d80695-56c9-49e8-8d60-5539cd68968c","system_id":"levelo_inurba_marseille","lat":43.24078,"lon":5.37756,"is_reserved":false,"is_disabled":false,"rental_uris":{"android":"levelo://app?vid=54d80695-56c9-49e8-8d60-5539cd68968c","ios":"levelo://app?vid=54d80695-56c9-49e8-8d60-5539cd68968c"},"vehicle_type_id":"4","last_reported":1742461847,"current_range_meters":9200,"station_id":"ce4bhnp2rcd13ifvqgvg","pricing_plan_id":"cebpf4jnsgd1na2vs0mg"},{"bike_id":"95e28cf6-acc3-45d8-af5f-0e9969750ccf","system_id":"levelo_inurba_marseille","lat":43.25105,"lon":5.40323,"is_reserved":false,"is_disabled":false,"rental_uris":{"android":"levelo://app?vid=95e28cf6-acc3-45d8-af5f-0e9969750ccf","ios":"levelo://app?vid=95e28cf6-acc3-45d8-af5f-0e9969750ccf"},"vehicle_type_id":"4","last_reported":1742461847,"current_range_meters":8800,"station_id":"ce4bhlh2rcd13ifvqgig","pricing_plan_id":"cebpf4jnsgd1na2vs0mg"},{"bike_id":"5b877f9d-31b6-4218-abde-8d09cd571ac8","system_id":"levelo_inurba_marseille","lat":43.23964,"lon":5.36626,"is_reserved":false,"is_disabled":false,"rental_uris":{"android":"levelo://app?vid=5b877f9d-31b6-4218-abde-8d09cd571ac8","ios":"levelo://app?vid=5b877f9d-31b6-4218-abde-8d09cd571ac8"},"vehicle_type_id":"4","last_reported":1742461847,"current_range_meters":9200,"station_id":"ce4bhi12rcd13ifvqfp0","pricing_plan_id":"cebpf4jnsgd1na2vs0mg"},{"bike_id":"38ef6a60-533d-436e-9476-128c6e48a08b","system_id":"levelo_inurba_marseille","lat":43.25822,"lon":5.39422,"is_reserved":false,"is_disabled":false,"rental_uris":{"android":"levelo://app?vid=38ef6a60-533d-436e-9476-128c6e48a08b","ios":"levelo://app?vid=38ef6a60-533d-436e-9476-128c6e48a08b"},"vehicle_type_id":"4","last_reported":1742461847,"current_range_meters":9200,"station_id":"ce4bhip2rcd13ifvqft0","pricing_plan_id":"cebpf4jnsgd1na2vs0mg"},{"bike_id":"c6c8dd2d-5b6e-4c3a-8293-f6b60960b982","system_id":"levelo_inurba_marseille","lat":43.30874,"lon":5.37437,"is_reserved":false,"is_disabled":false,"rental_uris":{"android":"levelo://app?vid=c6c8dd2d-5b6e-4c3a-8293-f6b60960b982","ios":"levelo://app?vid=c6c8dd2d-5b6e-4c3a-8293-f6b60960b982"},"vehicle_type_id":"4","last_reported":1742461847,"current_range_meters":9200,"station_id":"","pricing_plan_id":"cebpf4jnsgd1na2vs0mg"},{"bike_id":"176d2e0b-da43-4b98-b92e-b45d4ab12b2f","system_id":"levelo_inurba_marseille","lat":43.30199,"lon":5.3846,"is_reserved":false,"is_disabled":false,"rental_uris":{"android":"levelo://app?vid=176d2e0b-da43-4b98-b92e-b45d4ab12b2f","ios":"levelo://app?vid=176d2e0b-da43-4b98-b92e-b45d4ab12b2f"},"vehicle_type_id":"4","last_reported":1742461847,"current_range_meters":9200,"station_id":"","pricing_plan_id":"cebpf4jnsgd1na2vs0mg"},{"bike_id":"671210b1-9e8f-4893-953f-985ab8b97e34","system_id":"levelo_inurba_marseille","lat":43.32113,"lon":5.36769,"is_reserved":false,"is_disabled":false,"rental_uris":{"android":"levelo://app?vid=671210b1-9e8f-4893-953f-985ab8b97e34","ios":"levelo://app?vid=671210b1-9e8f-4893-953f-985ab8b97e34"},"vehicle_type_id":"4","last_reported":1742461847,"current_range_meters":9600,"station_id":"ce4bhrh2rcd13ifvqhug","pricing_plan_id":"cebpf4jnsgd1na2vs0mg"},{"bike_id":"8f25cf8b-1375-49a8-b8f2-e9ba57d13d59","system_id":"levelo_inurba_marseille","lat":43.23154,"lon":5.43713,"is_reserved":false,"is_disabled":false,"rental_uris":{"android":"levelo://app?vid=8f25cf8b-1375-49a8-b8f2-e9ba57d13d59","ios":"levelo://app?vid=8f25cf8b-1375-49a8-b8f2-e9ba57d13d59"},"vehicle_type_id":"4","last_reported":1742461847,"current_range_meters":9600,"station_id":"ce4bhmp2rcd13ifvqgog","pricing_plan_id":"cebpf4jnsgd1na2vs0mg"},{"bike_id":"5b640242-5a73-49f1-91a0-a4fb23abb3cc","system_id":"levelo_inurba_marseille","lat":43.27329,"lon":5.39114,"is_reserved":false,"is_disabled":false,"rental_uris":{"android":"levelo://app?vid=5b640242-5a73-49f1-91a0-a4fb23abb3cc","ios":"levelo://app?vid=5b640242-5a73-49f1-91a0-a4fb23abb3cc"},"vehicle_type_id":"4","last_reported":1742461847,"current_range_meters":9600,"station_id":"ce4bhgp2rcd13ifvqfe0","pricing_plan_id":"cebpf4jnsgd1na2vs0mg"},{"bike_id":"2efb075a-931f-4d29-a7c5-8caf0a4fd1fe","system_id":"levelo_inurba_marseille","lat":43.30291,"lon":5.37701,"is_reserved":false,"is_disabled":false,"rental_uris":{"android":"levelo://app?vid=2efb075a-931f-4d29-a7c5-8caf0a4fd1fe","ios":"levelo://app?vid=2efb075a-931f-4d29-a7c5-8caf0a4fd1fe"},"vehicle_type_id":"4","last_reported":1742461847,"current_range_meters":9600,"station_id":"ce4bguh2rcd13ifvqcj0","pricing_plan_id":"cebpf4jnsgd1na2vs0mg"},{"bike_id":"1689fa84-13f6-46a5-be92-d2be23b25286","system_id":"levelo_inurba_marseille","lat":43.31439,"lon":5.37605,"is_reserved":false,"is_disabled":false,"rental_uris":{"android":"levelo://app?vid=1689fa84-13f6-46a5-be92-d2be23b25286","ios":"levelo://app?vid=1689fa84-13f6-46a5-be92-d2be23b25286"},"vehicle_type_id":"4","last_reported":1742461847,"current_range_meters":9600,"station_id":"","pricing_plan_id":"cebpf4jnsgd1na2vs0mg"},{"bike_id":"b1760ddc-e429-4696-afac-991a8ea2a937","system_id":"levelo_inurba_marseille","lat":43.29859,"lon":5.36266,"is_reserved":false,"is_disabled":false,"rental_uris":{"android":"levelo://app?vid=b1760ddc-e429-4696-afac-991a8ea2a937","ios":"levelo://app?vid=b1760ddc-e429-4696-afac-991a8ea2a937"},"vehicle_type_id":"4","last_reported":1742461847,"current_range_meters":9600,"station_id":"ce4bgpp2rcd13ifvqc3g","pricing_plan_id":"cebpf4jnsgd1na2vs0mg"},{"bike_id":"1983241e-dcf4-412a-b965-b9e661a9d6d5","system_id":"levelo_inurba_marseille","lat":43.29815,"lon":5.40176,"is_reserved":false,"is_disabled":false,"rental_uris":{"android":"levelo://app?vid=1983241e-dcf4-412a-b965-b9e661a9d6d5","ios":"levelo://app?vid=1983241e-dcf4-412a-b965-b9e661a9d6d5"},"vehicle_type_id":"4","last_reported":1742461847,"current_range_meters":9600,"station_id":"","pricing_plan_id":"cebpf4jnsgd1na2vs0mg"},{"bike_id":"6c7e51d2-e2f9-4032-b4ac-95afc513e72e","system_id":"levelo_inurba_marseille","lat":43.27372,"lon":5.36254,"is_reserved":false,"is_disabled":false,"rental_uris":{"android":"levelo://app?vid=6c7e51d2-e2f9-4032-b4ac-95afc513e72e","ios":"levelo://app?vid=6c7e51d2-e2f9-4032-b4ac-95afc513e72e"},"vehicle_type_id":"4","last_reported":1742461847,"current_range_meters":10000,"station_id":"ce4bhbh2rcd13ifvqeo0","pricing_plan_id":"cebpf4jnsgd1na2vs0mg"},{"bike_id":"11bd8d6d-27dc-4740-9c7d-3b5375e8c83b","system_id":"levelo_inurba_marseille","lat":43.31658,"lon":5.3955,"is_reserved":false,"is_disabled":false,"rental_uris":{"android":"levelo://app?vid=11bd8d6d-27dc-4740-9c7d-3b5375e8c83b","ios":"levelo://app?vid=11bd8d6d-27dc-4740-9c7d-3b5375e8c83b"},"vehicle_type_id":"4","last_reported":1742461847,"current_range_meters":10000,"station_id":"","pricing_plan_id":"cebpf4jnsgd1na2vs0mg"},{"bike_id":"63ae6f21-8aea-4639-af60-0a2aa764ad78","system_id":"levelo_inurba_marseille","lat":43.275,"lon":5.42458,"is_reserved":false,"is_disabled":false,"rental_uris":{"android":"levelo://app?vid=63ae6f21-8aea-4639-af60-0a2aa764ad78","ios":"levelo://app?vid=63ae6f21-8aea-4639-af60-0a2aa764ad78"},"vehicle_type_id":"4","last_reported":1742461847,"current_range_meters":10000,"station_id":"ce4bhn92rcd13ifvqgrg","pricing_plan_id":"cebpf4jnsgd1na2vs0mg"},{"bike_id":"cb6062cd-3cfa-4917-b79b-5707b99e3c03","system_id":"levelo_inurba_marseille","lat":43.321185,"lon":5.367534,"is_reserved":false,"is_disabled":false,"rental_uris":{"android":"levelo://app?vid=cb6062cd-3cfa-4917-b79b-5707b99e3c03","ios":"levelo://app?vid=cb6062cd-3cfa-4917-b79b-5707b99e3c03"},"vehicle_type_id":"4","last_reported":1742461847,"current_range_meters":10000,"station_id":"ce4bho92rcd13ifvqh3g","pricing_plan_id":"cebpf4jnsgd1na2vs0mg"},{"bike_id":"f9b545e0-d8e8-4984-b3d5-04717e8d7e35","system_id":"levelo_inurba_marseille","lat":43.27498,"lon":5.42462,"is_reserved":false,"is_disabled":true,"rental_uris":{"android":"levelo://app?vid=f9b545e0-d8e8-4984-b3d5-04717e8d7e35","ios":"levelo://app?vid=f9b545e0-d8e8-4984-b3d5-04717e8d7e35"},"vehicle_type_id":"4","last_reported":1742461847,"current_range_meters":10000,"station_id":"ce4bhn92rcd13ifvqgrg","pricing_plan_id":"cebpf4jnsgd1na2vs0mg"},{"bike_id":"bea731a9-73c5-45b6-8650-8f2781f9c477","system_id":"levelo_inurba_marseille","lat":43.29585,"lon":5.37519,"is_reserved":false,"is_disabled":false,"rental_uris":{"android":"levelo://app?vid=bea731a9-73c5-45b6-8650-8f2781f9c477","ios":"levelo://app?vid=bea731a9-73c5-45b6-8650-8f2781f9c477"},"vehicle_type_id":"4","last_reported":1742461847,"current_range_meters":10000,"station_id":"ce4bgh92rcd13ifvqb50","pricing_plan_id":"cebpf4jnsgd1na2vs0mg"},{"bike_id":"de84da4a-3571-420d-b198-b16185707696","system_id":"levelo_inurba_marseille","lat":43.25918,"lon":5.40899,"is_reserved":false,"is_disabled":false,"rental_uris":{"android":"levelo://app?vid=de84da4a-3571-420d-b198-b16185707696","ios":"levelo://app?vid=de84da4a-3571-420d-b198-b16185707696"},"vehicle_type_id":"4","last_reported":1742461847,"current_range_meters":10000,"station_id":"ce4bhm92rcd13ifvqglg","pricing_plan_id":"cebpf4jnsgd1na2vs0mg"},{"bike_id":"a2b837c5-eca2-4c90-8d8e-11fa30ad2284","system_id":"levelo_inurba_marseille","lat":43.28916,"lon":5.36598,"is_reserved":false,"is_disabled":false,"rental_uris":{"android":"levelo://app?vid=a2b837c5-eca2-4c90-8d8e-11fa30ad2284","ios":"levelo://app?vid=a2b837c5-eca2-4c90-8d8e-11fa30ad2284"},"vehicle_type_id":"4","last_reported":1742461847,"current_range_meters":10000,"station_id":"ce4bhap2rcd13ifvqek0","pricing_plan_id":"cebpf4jnsgd1na2vs0mg"},{"bike_id":"d7645557-54c5-44ed-8c44-41e433a350da","system_id":"levelo_inurba_marseille","lat":43.29484,"lon":5.35568,"is_reserved":false,"is_disabled":false,"rental_uris":{"android":"levelo://app?vid=d7645557-54c5-44ed-8c44-41e433a350da","ios":"levelo://app?vid=d7645557-54c5-44ed-8c44-41e433a350da"},"vehicle_type_id":"4","last_reported":1742461847,"current_range_meters":10000,"station_id":"","pricing_plan_id":"cebpf4jnsgd1na2vs0mg"},{"bike_id":"7cbbb3c1-2761-487f-9114-77ea7742e394","system_id":"levelo_inurba_marseille","lat":43.2974,"lon":5.37702,"is_reserved":false,"is_disabled":false,"rental_uris":{"android":"levelo://app?vid=7cbbb3c1-2761-487f-9114-77ea7742e394","ios":"levelo://app?vid=7cbbb3c1-2761-487f-9114-77ea7742e394"},"vehicle_type_id":"4","last_reported":1742461847,"current_range_meters":10000,"station_id":"ce4bgkh2rcd13ifvqbl0","pricing_plan_id":"cebpf4jnsgd1na2vs0mg"},{"bike_id":"0d95e6a4-60fa-4989-a414-058ecea80aee","system_id":"levelo_inurba_marseille","lat":43.30537,"lon":5.36543,"is_reserved":false,"is_disabled":false,"rental_uris":{"android":"levelo://app?vid=0d95e6a4-60fa-4989-a414-058ecea80aee","ios":"levelo://app?vid=0d95e6a4-60fa-4989-a414-058ecea80aee"},"vehicle_type_id":"4","last_reported":1742461847,"current_range_meters":10800,"station_id":"ce4bgs12rcd13ifvqcag","pricing_plan_id":"cebpf4jnsgd1na2vs0mg"},{"bike_id":"195c3fce-a0cb-402d-a36b-a03a870109c5","system_id":"levelo_inurba_marseille","lat":43.30958,"lon":5.39052,"is_reserved":false,"is_disabled":false,"rental_uris":{"android":"levelo://app?vid=195c3fce-a0cb-402d-a36b-a03a870109c5","ios":"levelo://app?vid=195c3fce-a0cb-402d-a36b-a03a870109c5"},"vehicle_type_id":"4","last_reported":1742461847,"current_range_meters":10800,"station_id":"ce4bgup2rcd13ifvqco0","pricing_plan_id":"cebpf4jnsgd1na2vs0mg"},{"bike_id":"efb9ed43-dd51-4c99-a034-3cda93bac910","system_id":"levelo_inurba_marseille","lat":43.29937,"lon":5.36522,"is_reserved":false,"is_disabled":false,"rental_uris":{"android":"levelo://app?vid=efb9ed43-dd51-4c99-a034-3cda93bac910","ios":"levelo://app?vid=efb9ed43-dd51-4c99-a034-3cda93bac910"},"vehicle_type_id":"4","last_reported":1742461847,"current_range_meters":10800,"station_id":"ce4bgm92rcd13ifvqbr0","pricing_plan_id":"cebpf4jnsgd1na2vs0mg"},{"bike_id":"a0deeb6c-62a7-4efb-834c-1bec837aaba6","system_id":"levelo_inurba_marseille","lat":43.33696,"lon":5.3781,"is_reserved":false,"is_disabled":false,"rental_uris":{"android":"levelo://app?vid=a0deeb6c-62a7-4efb-834c-1bec837aaba6","ios":"levelo://app?vid=a0deeb6c-62a7-4efb-834c-1bec837aaba6"},"vehicle_type_id":"4","last_reported":1742461847,"current_range_meters":10800,"station_id":"","pricing_plan_id":"cebpf4jnsgd1na2vs0mg"},{"bike_id":"e03fec9c-b67d-4584-8372-2485454a1b56","system_id":"levelo_inurba_marseille","lat":43.2957,"lon":5.37511,"is_reserved":false,"is_disabled":false,"rental_uris":{"android":"levelo://app?vid=e03fec9c-b67d-4584-8372-2485454a1b56","ios":"levelo://app?vid=e03fec9c-b67d-4584-8372-2485454a1b56"},"vehicle_type_id":"4","last_reported":1742461847,"current_range_meters":10800,"station_id":"ce4bgh92rcd13ifvqb50","pricing_plan_id":"cebpf4jnsgd1na2vs0mg"},{"bike_id":"11c5b5c4-7e0d-4f6d-8bab-07eec89ea109","system_id":"levelo_inurba_marseille","lat":43.29851,"lon":5.36277,"is_reserved":false,"is_disabled":false,"rental_uris":{"android":"levelo://app?vid=11c5b5c4-7e0d-4f6d-8bab-07eec89ea109","ios":"levelo://app?vid=11c5b5c4-7e0d-4f6d-8bab-07eec89ea109"},"vehicle_type_id":"4","last_reported":1742461847,"current_range_meters":10800,"station_id":"ce4bgpp2rcd13ifvqc3g","pricing_plan_id":"cebpf4jnsgd1na2vs0mg"},{"bike_id":"75e8bee3-0a10-4522-9d7e-72ece2846129","system_id":"levelo_inurba_marseille","lat":43.33435,"lon":5.3962,"is_reserved":false,"is_disabled":false,"rental_uris":{"android":"levelo://app?vid=75e8bee3-0a10-4522-9d7e-72ece2846129","ios":"levelo://app?vid=75e8bee3-0a10-4522-9d7e-72ece2846129"},"vehicle_type_id":"4","last_reported":1742461847,"current_range_meters":10800,"station_id":"","pricing_plan_id":"cebpf4jnsgd1na2vs0mg"},{"bike_id":"85782564-15b3-42d4-8810-12088c1abb61","system_id":"levelo_inurba_marseille","lat":43.30146,"lon":5.38078,"is_reserved":false,"is_disabled":false,"rental_uris":{"android":"levelo://app?vid=85782564-15b3-42d4-8810-12088c1abb61","ios":"levelo://app?vid=85782564-15b3-42d4-8810-12088c1abb61"},"vehicle_type_id":"4","last_reported":1742461847,"current_range_meters":10800,"station_id":"ce4bgjp2rcd13ifvqbh0","pricing_plan_id":"cebpf4jnsgd1na2vs0mg"},{"bike_id":"8f398572-6cfe-422a-b8d4-e0c356c1e657","system_id":"levelo_inurba_marseille","lat":43.27505,"lon":5.42454,"is_reserved":false,"is_disabled":false,"rental_uris":{"android":"levelo://app?vid=8f398572-6cfe-422a-b8d4-e0c356c1e657","ios":"levelo://app?vid=8f398572-6cfe-422a-b8d4-e0c356c1e657"},"vehicle_type_id":"4","last_reported":1742461847,"current_range_meters":10800,"station_id":"ce4bhn92rcd13ifvqgrg","pricing_plan_id":"cebpf4jnsgd1na2vs0mg"},{"bike_id":"c80669ac-c345-4701-b5f9-7d4bd3700c4b","system_id":"levelo_inurba_marseille","lat":43.29311,"lon":5.37162,"is_reserved":false,"is_disabled":false,"rental_uris":{"android":"levelo://app?vid=c80669ac-c345-4701-b5f9-7d4bd3700c4b","ios":"levelo://app?vid=c80669ac-c345-4701-b5f9-7d4bd3700c4b"},"vehicle_type_id":"4","last_reported":1742461847,"current_range_meters":10800,"station_id":"ce4bgh92rcd13ifvqb40","pricing_plan_id":"cebpf4jnsgd1na2vs0mg"},{"bike_id":"b4f58fb9-f8fc-49f3-b537-d6ea695f1338","system_id":"levelo_inurba_marseille","lat":43.24645,"lon":5.38181,"is_reserved":false,"is_disabled":false,"rental_uris":{"android":"levelo://app?vid=b4f58fb9-f8fc-49f3-b537-d6ea695f1338","ios":"levelo://app?vid=b4f58fb9-f8fc-49f3-b537-d6ea695f1338"},"vehicle_type_id":"4","last_reported":1742461847,"current_range_meters":10800,"station_id":"ce4bhih2rcd13ifvqfr0","pricing_plan_id":"cebpf4jnsgd1na2vs0mg"},{"bike_id":"c1b8df7b-2ef2-4d52-be47-f7e5821c9bef","system_id":"levelo_inurba_marseille","lat":43.32478,"lon":5.36575,"is_reserved":false,"is_disabled":false,"rental_uris":{"android":"levelo://app?vid=c1b8df7b-2ef2-4d52-be47-f7e5821c9bef","ios":"levelo://app?vid=c1b8df7b-2ef2-4d52-be47-f7e5821c9bef"},"vehicle_type_id":"4","last_reported":1742461847,"current_range_meters":11200,"station_id":"ce4bhs12rcd13ifvqhvg","pricing_plan_id":"cebpf4jnsgd1na2vs0mg"},{"bike_id":"72daf5d0-9523-4afc-a6eb-4890817a1534","system_id":"levelo_inurba_marseille","lat":43.29885,"lon":5.37467,"is_reserved":false,"is_disabled":false,"rental_uris":{"android":"levelo://app?vid=72daf5d0-9523-4afc-a6eb-4890817a1534","ios":"levelo://app?vid=72daf5d0-9523-4afc-a6eb-4890817a1534"},"vehicle_type_id":"4","last_reported":1742461847,"current_range_meters":11200,"station_id":"ce4bgjh2rcd13ifvqbg0","pricing_plan_id":"cebpf4jnsgd1na2vs0mg"},{"bike_id":"ffbee1c9-ab8d-45ee-b606-c546ab78c5f2","system_id":"levelo_inurba_marseille","lat":43.29744,"lon":5.37787,"is_reserved":false,"is_disabled":false,"rental_uris":{"android":"levelo://app?vid=ffbee1c9-ab8d-45ee-b606-c546ab78c5f2","ios":"levelo://app?vid=ffbee1c9-ab8d-45ee-b606-c546ab78c5f2"},"vehicle_type_id":"4","last_reported":1742461847,"current_range_meters":11200,"station_id":"","pricing_plan_id":"cebpf4jnsgd1na2vs0mg"},{"bike_id":"f68bd6fe-c8ee-4373-a28e-be698b7823c6","system_id":"levelo_inurba_marseille","lat":43.29784,"lon":5.37108,"is_reserved":false,"is_disabled":false,"rental_uris":{"android":"levelo://app?vid=f68bd6fe-c8ee-4373-a28e-be698b7823c6","ios":"levelo://app?vid=f68bd6fe-c8ee-4373-a28e-be698b7823c6"},"vehicle_type_id":"4","last_reported":1742461847,"current_range_meters":11200,"station_id":"ce4bgop2rcd13ifvqc1g","pricing_plan_id":"cebpf4jnsgd1na2vs0mg"},{"bike_id":"c5544639-2d44-4b2d-a154-7c53abb9719f","system_id":"levelo_inurba_marseille","lat":43.24081,"lon":5.37756,"is_reserved":false,"is_disabled":false,"rental_uris":{"android":"levelo://app?vid=c5544639-2d44-4b2d-a154-7c53abb9719f","ios":"levelo://app?vid=c5544639-2d44-4b2d-a154-7c53abb9719f"},"vehicle_type_id":"4","last_reported":1742461847,"current_range_meters":11200,"station_id":"ce4bhnp2rcd13ifvqgvg","pricing_plan_id":"cebpf4jnsgd1na2vs0mg"},{"bike_id":"6883c811-8746-429a-bd41-848ecf4dd19e","system_id":"levelo_inurba_marseille","lat":43.23541,"lon":5.37771,"is_reserved":false,"is_disabled":false,"rental_uris":{"android":"levelo://app?vid=6883c811-8746-429a-bd41-848ecf4dd19e","ios":"levelo://app?vid=6883c811-8746-429a-bd41-848ecf4dd19e"},"vehicle_type_id":"4","last_reported":1742461847,"current_range_meters":11200,"station_id":"","pricing_plan_id":"cebpf4jnsgd1na2vs0mg"},{"bike_id":"90813bb7-740a-47dc-84af-f93d05de1314","system_id":"levelo_inurba_marseille","lat":43.29604,"lon":5.37733,"is_reserved":false,"is_disabled":false,"rental_uris":{"android":"levelo://app?vid=90813bb7-740a-47dc-84af-f93d05de1314","ios":"levelo://app?vid=90813bb7-740a-47dc-84af-f93d05de1314"},"vehicle_type_id":"4","last_reported":1742461847,"current_range_meters":11200,"station_id":"ce4bgi92rcd13ifvqb90","pricing_plan_id":"cebpf4jnsgd1na2vs0mg"},{"bike_id":"181b1742-09ee-46ab-8712-67d8396af664","system_id":"levelo_inurba_marseille","lat":43.24184,"lon":5.39736,"is_reserved":false,"is_disabled":false,"rental_uris":{"android":"levelo://app?vid=181b1742-09ee-46ab-8712-67d8396af664","ios":"levelo://app?vid=181b1742-09ee-46ab-8712-67d8396af664"},"vehicle_type_id":"4","last_reported":1742461847,"current_range_meters":11200,"station_id":"ce4bhn12rcd13ifvqgpg","pricing_plan_id":"cebpf4jnsgd1na2vs0mg"},{"bike_id":"9e9e1ea5-8a04-4d10-a482-eb0039f65aa3","system_id":"levelo_inurba_marseille","lat":43.24159,"lon":5.39741,"is_reserved":false,"is_disabled":false,"rental_uris":{"android":"levelo://app?vid=9e9e1ea5-8a04-4d10-a482-eb0039f65aa3","ios":"levelo://app?vid=9e9e1ea5-8a04-4d10-a482-eb0039f65aa3"},"vehicle_type_id":"4","last_reported":1742461847,"current_range_meters":11600,"station_id":"ce4bhn12rcd13ifvqgpg","pricing_plan_id":"cebpf4jnsgd1na2vs0mg"},{"bike_id":"74840cc0-89b6-413b-83b8-0b71d906b04c","system_id":"levelo_inurba_marseille","lat":43.24073,"lon":5.37755,"is_reserved":false,"is_disabled":false,"rental_uris":{"android":"levelo://app?vid=74840cc0-89b6-413b-83b8-0b71d906b04c","ios":"levelo://app?vid=74840cc0-89b6-413b-83b8-0b71d906b04c"},"vehicle_type_id":"4","last_reported":1742461847,"current_range_meters":11600,"station_id":"ce4bhnp2rcd13ifvqgvg","pricing_plan_id":"cebpf4jnsgd1na2vs0mg"},{"bike_id":"b9e4bdd0-024c-4547-9a94-39d0c7923642","system_id":"levelo_inurba_marseille","lat":43.24183,"lon":5.36389,"is_reserved":false,"is_disabled":false,"rental_uris":{"android":"levelo://app?vid=b9e4bdd0-024c-4547-9a94-39d0c7923642","ios":"levelo://app?vid=b9e4bdd0-024c-4547-9a94-39d0c7923642"},"vehicle_type_id":"4","last_reported":1742461847,"current_range_meters":11600,"station_id":"cpo36qri1sfpv3e86is0","pricing_plan_id":"cebpf4jnsgd1na2vs0mg"},{"bike_id":"c5bb5dca-1dc9-450e-9a3d-9fa737cf345d","system_id":"levelo_inurba_marseille","lat":43.24645,"lon":5.38891,"is_reserved":false,"is_disabled":false,"rental_uris":{"android":"levelo://app?vid=c5bb5dca-1dc9-450e-9a3d-9fa737cf345d","ios":"levelo://app?vid=c5bb5dca-1dc9-450e-9a3d-9fa737cf345d"},"vehicle_type_id":"4","last_reported":1742461847,"current_range_meters":11600,"station_id":"ce4bhg12rcd13ifvqf60","pricing_plan_id":"cebpf4jnsgd1na2vs0mg"},{"bike_id":"0d7125f7-4ef3-4163-b501-e403ffb079c4","system_id":"levelo_inurba_marseille","lat":43.31881,"lon":5.4073,"is_reserved":false,"is_disabled":false,"rental_uris":{"android":"levelo://app?vid=0d7125f7-4ef3-4163-b501-e403ffb079c4","ios":"levelo://app?vid=0d7125f7-4ef3-4163-b501-e403ffb079c4"},"vehicle_type_id":"4","last_reported":1742461847,"current_range_meters":11600,"station_id":"ce4bhq12rcd13ifvqhig","pricing_plan_id":"cebpf4jnsgd1na2vs0mg"},{"bike_id":"e4fa4be4-c48f-4bf6-af84-7a8304cec4b3","system_id":"levelo_inurba_marseille","lat":43.24183,"lon":5.39718,"is_reserved":false,"is_disabled":false,"rental_uris":{"android":"levelo://app?vid=e4fa4be4-c48f-4bf6-af84-7a8304cec4b3","ios":"levelo://app?vid=e4fa4be4-c48f-4bf6-af84-7a8304cec4b3"},"vehicle_type_id":"4","last_reported":1742461847,"current_range_meters":12000,"station_id":"ce4bhn12rcd13ifvqgpg","pricing_plan_id":"cebpf4jnsgd1na2vs0mg"},{"bike_id":"11f41975-7f1e-47df-98d0-cd623c6c6898","system_id":"levelo_inurba_marseille","lat":43.30421,"lon":5.39746,"is_reserved":false,"is_disabled":false,"rental_uris":{"android":"levelo://app?vid=11f41975-7f1e-47df-98d0-cd623c6c6898","ios":"levelo://app?vid=11f41975-7f1e-47df-98d0-cd623c6c6898"},"vehicle_type_id":"4","last_reported":1742461847,"current_range_meters":12000,"station_id":"ce4bh092rcd13ifvqd20","pricing_plan_id":"cebpf4jnsgd1na2vs0mg"},{"bike_id":"9e416160-7c0f-441b-b3e5-6061b7c9ea3e","system_id":"levelo_inurba_marseille","lat":43.30259,"lon":5.4005,"is_reserved":false,"is_disabled":false,"rental_uris":{"android":"levelo://app?vid=9e416160-7c0f-441b-b3e5-6061b7c9ea3e","ios":"levelo://app?vid=9e416160-7c0f-441b-b3e5-6061b7c9ea3e"},"vehicle_type_id":"4","last_reported":1742461847,"current_range_meters":12000,"station_id":"ce4bgvh2rcd13ifvqcs0","pricing_plan_id":"cebpf4jnsgd1na2vs0mg"},{"bike_id":"91bbc4d7-c30f-4b98-bc8f-0b3299ccfa54","system_id":"levelo_inurba_marseille","lat":43.27384,"lon":5.3626,"is_reserved":false,"is_disabled":false,"rental_uris":{"android":"levelo://app?vid=91bbc4d7-c30f-4b98-bc8f-0b3299ccfa54","ios":"levelo://app?vid=91bbc4d7-c30f-4b98-bc8f-0b3299ccfa54"},"vehicle_type_id":"4","last_reported":1742461847,"current_range_meters":12000,"station_id":"ce4bhbh2rcd13ifvqeo0","pricing_plan_id":"cebpf4jnsgd1na2vs0mg"},{"bike_id":"7a170ee8-b4ab-4e10-af41-b7d66fb221b0","system_id":"levelo_inurba_marseille","lat":43.26672,"lon":5.38302,"is_reserved":false,"is_disabled":false,"rental_uris":{"android":"levelo://app?vid=7a170ee8-b4ab-4e10-af41-b7d66fb221b0","ios":"levelo://app?vid=7a170ee8-b4ab-4e10-af41-b7d66fb221b0"},"vehicle_type_id":"4","last_reported":1742461847,"current_range_meters":12000,"station_id":"ce4bhg92rcd13ifvqf90","pricing_plan_id":"cebpf4jnsgd1na2vs0mg"},{"bike_id":"7c6d8120-118c-419e-9a61-b050de9f67a1","system_id":"levelo_inurba_marseille","lat":43.27489,"lon":5.42475,"is_reserved":false,"is_disabled":false,"rental_uris":{"android":"levelo://app?vid=7c6d8120-118c-419e-9a61-b050de9f67a1","ios":"levelo://app?vid=7c6d8120-118c-419e-9a61-b050de9f67a1"},"vehicle_type_id":"4","last_reported":1742461847,"current_range_meters":12000,"station_id":"ce4bhn92rcd13ifvqgrg","pricing_plan_id":"cebpf4jnsgd1na2vs0mg"},{"bike_id":"04d2a356-7d5e-4949-b4ea-4404597c7bfe","system_id":"levelo_inurba_marseille","lat":43.27949,"lon":5.38722,"is_reserved":false,"is_disabled":false,"rental_uris":{"android":"levelo://app?vid=04d2a356-7d5e-4949-b4ea-4404597c7bfe","ios":"levelo://app?vid=04d2a356-7d5e-4949-b4ea-4404597c7bfe"},"vehicle_type_id":"4","last_reported":1742461847,"current_range_meters":12000,"station_id":"ce4bhg12rcd13ifvqf80","pricing_plan_id":"cebpf4jnsgd1na2vs0mg"},{"bike_id":"067fb92d-3b64-43d5-9d88-fcb8897d2567","system_id":"levelo_inurba_marseille","lat":43.2865,"lon":5.35144,"is_reserved":false,"is_disabled":false,"rental_uris":{"android":"levelo://app?vid=067fb92d-3b64-43d5-9d88-fcb8897d2567","ios":"levelo://app?vid=067fb92d-3b64-43d5-9d88-fcb8897d2567"},"vehicle_type_id":"4","last_reported":1742461847,"current_range_meters":12000,"station_id":"ce4bhch2rcd13ifvqeug","pricing_plan_id":"cebpf4jnsgd1na2vs0mg"},{"bike_id":"43c3af15-848d-4f12-9b4a-a50cd587bc61","system_id":"levelo_inurba_marseille","lat":43.240787,"lon":5.377689,"is_reserved":false,"is_disabled":false,"rental_uris":{"android":"levelo://app?vid=43c3af15-848d-4f12-9b4a-a50cd587bc61","ios":"levelo://app?vid=43c3af15-848d-4f12-9b4a-a50cd587bc61"},"vehicle_type_id":"4","last_reported":1742461847,"current_range_meters":12000,"station_id":"ce4bhnp2rcd13ifvqgvg","pricing_plan_id":"cebpf4jnsgd1na2vs0mg"},{"bike_id":"a570b2c7-ac1a-4788-8f4a-33f8c10e0e43","system_id":"levelo_inurba_marseille","lat":43.24167,"lon":5.39739,"is_reserved":false,"is_disabled":false,"rental_uris":{"android":"levelo://app?vid=a570b2c7-ac1a-4788-8f4a-33f8c10e0e43","ios":"levelo://app?vid=a570b2c7-ac1a-4788-8f4a-33f8c10e0e43"},"vehicle_type_id":"4","last_reported":1742461847,"current_range_meters":12000,"station_id":"ce4bhn12rcd13ifvqgpg","pricing_plan_id":"cebpf4jnsgd1na2vs0mg"},{"bike_id":"7ddac5fe-66e8-4a2f-b8b3-f3db394984cb","system_id":"levelo_inurba_marseille","lat":43.30949,"lon":5.3904,"is_reserved":false,"is_disabled":false,"rental_uris":{"android":"levelo://app?vid=7ddac5fe-66e8-4a2f-b8b3-f3db394984cb","ios":"levelo://app?vid=7ddac5fe-66e8-4a2f-b8b3-f3db394984cb"},"vehicle_type_id":"4","last_reported":1742461847,"current_range_meters":12000,"station_id":"ce4bgup2rcd13ifvqco0","pricing_plan_id":"cebpf4jnsgd1na2vs0mg"},{"bike_id":"77c325ba-2e1c-4b5f-812e-882a5e158ec8","system_id":"levelo_inurba_marseille","lat":43.27623,"lon":5.36108,"is_reserved":false,"is_disabled":false,"rental_uris":{"android":"levelo://app?vid=77c325ba-2e1c-4b5f-812e-882a5e158ec8","ios":"levelo://app?vid=77c325ba-2e1c-4b5f-812e-882a5e158ec8"},"vehicle_type_id":"4","last_reported":1742461847,"current_range_meters":12400,"station_id":"ce4bgj92rcd13ifvqbe0","pricing_plan_id":"cebpf4jnsgd1na2vs0mg"},{"bike_id":"0f3755d5-bfdc-4f68-961c-efadf53de4cb","system_id":"levelo_inurba_marseille","lat":43.33609,"lon":5.41038,"is_reserved":false,"is_disabled":false,"rental_uris":{"android":"levelo://app?vid=0f3755d5-bfdc-4f68-961c-efadf53de4cb","ios":"levelo://app?vid=0f3755d5-bfdc-4f68-961c-efadf53de4cb"},"vehicle_type_id":"4","last_reported":1742461847,"current_range_meters":12400,"station_id":"ce4bhqh2rcd13ifvqhmg","pricing_plan_id":"cebpf4jnsgd1na2vs0mg"},{"bike_id":"832f2e5f-31bd-465c-ab7d-cce97930558f","system_id":"levelo_inurba_marseille","lat":43.231827,"lon":5.436481,"is_reserved":false,"is_disabled":false,"rental_uris":{"android":"levelo://app?vid=832f2e5f-31bd-465c-ab7d-cce97930558f","ios":"levelo://app?vid=832f2e5f-31bd-465c-ab7d-cce97930558f"},"vehicle_type_id":"4","last_reported":1742461847,"current_range_meters":12400,"station_id":"ce4bhl92rcd13ifvqghg","pricing_plan_id":"cebpf4jnsgd1na2vs0mg"},{"bike_id":"cfcd43ac-55d6-41fe-bcae-b87609468037","system_id":"levelo_inurba_marseille","lat":43.27662,"lon":5.38903,"is_reserved":false,"is_disabled":true,"rental_uris":{"android":"levelo://app?vid=cfcd43ac-55d6-41fe-bcae-b87609468037","ios":"levelo://app?vid=cfcd43ac-55d6-41fe-bcae-b87609468037"},"vehicle_type_id":"4","last_reported":1742461847,"current_range_meters":12400,"station_id":"ce4bhi12rcd13ifvqfo0","pricing_plan_id":"cebpf4jnsgd1na2vs0mg"},{"bike_id":"6370e802-1ce7-46b3-ab38-c299ec041499","system_id":"levelo_inurba_marseille","lat":43.26688,"lon":5.38259,"is_reserved":false,"is_disabled":false,"rental_uris":{"android":"levelo://app?vid=6370e802-1ce7-46b3-ab38-c299ec041499","ios":"levelo://app?vid=6370e802-1ce7-46b3-ab38-c299ec041499"},"vehicle_type_id":"4","last_reported":1742461847,"current_range_meters":12400,"station_id":"ce4bhg92rcd13ifvqf90","pricing_plan_id":"cebpf4jnsgd1na2vs0mg"},{"bike_id":"cf4bd2ff-a55e-47e7-bd83-ebe621ff5a86","system_id":"levelo_inurba_marseille","lat":43.30888,"lon":5.37191,"is_reserved":false,"is_disabled":false,"rental_uris":{"android":"levelo://app?vid=cf4bd2ff-a55e-47e7-bd83-ebe621ff5a86","ios":"levelo://app?vid=cf4bd2ff-a55e-47e7-bd83-ebe621ff5a86"},"vehicle_type_id":"4","last_reported":1742461847,"current_range_meters":12400,"station_id":"ce4bguh2rcd13ifvqckg","pricing_plan_id":"cebpf4jnsgd1na2vs0mg"},{"bike_id":"4c44c71d-64d5-4bb1-9445-5c9bbff69c6e","system_id":"levelo_inurba_marseille","lat":43.24074,"lon":5.37766,"is_reserved":false,"is_disabled":false,"rental_uris":{"android":"levelo://app?vid=4c44c71d-64d5-4bb1-9445-5c9bbff69c6e","ios":"levelo://app?vid=4c44c71d-64d5-4bb1-9445-5c9bbff69c6e"},"vehicle_type_id":"4","last_reported":1742461847,"current_range_meters":12400,"station_id":"ce4bhnp2rcd13ifvqgvg","pricing_plan_id":"cebpf4jnsgd1na2vs0mg"},{"bike_id":"64998481-b10a-4fa2-9aa3-20137eb99f9d","system_id":"levelo_inurba_marseille","lat":43.24076,"lon":5.37762,"is_reserved":false,"is_disabled":false,"rental_uris":{"android":"levelo://app?vid=64998481-b10a-4fa2-9aa3-20137eb99f9d","ios":"levelo://app?vid=64998481-b10a-4fa2-9aa3-20137eb99f9d"},"vehicle_type_id":"4","last_reported":1742461847,"current_range_meters":12400,"station_id":"ce4bhnp2rcd13ifvqgvg","pricing_plan_id":"cebpf4jnsgd1na2vs0mg"},{"bike_id":"fad9abc0-125f-412a-ae2e-9c42b74c0c6c","system_id":"levelo_inurba_marseille","lat":43.28852,"lon":5.35858,"is_reserved":false,"is_disabled":false,"rental_uris":{"android":"levelo://app?vid=fad9abc0-125f-412a-ae2e-9c42b74c0c6c","ios":"levelo://app?vid=fad9abc0-125f-412a-ae2e-9c42b74c0c6c"},"vehicle_type_id":"4","last_reported":1742461847,"current_range_meters":12400,"station_id":"ce4bhb12rcd13ifvqem0","pricing_plan_id":"cebpf4jnsgd1na2vs0mg"},{"bike_id":"d615b40e-8eb8-413e-b34e-bea4df112d5f","system_id":"levelo_inurba_marseille","lat":43.30538,"lon":5.38434,"is_reserved":false,"is_disabled":false,"rental_uris":{"android":"levelo://app?vid=d615b40e-8eb8-413e-b34e-bea4df112d5f","ios":"levelo://app?vid=d615b40e-8eb8-413e-b34e-bea4df112d5f"},"vehicle_type_id":"4","last_reported":1742461847,"current_range_meters":12800,"station_id":"ce4bgg92rcd13ifvqb30","pricing_plan_id":"cebpf4jnsgd1na2vs0mg"},{"bike_id":"16dd521d-50df-4f0b-a335-57ba62bdd742","system_id":"levelo_inurba_marseille","lat":43.24067,"lon":5.37745,"is_reserved":false,"is_disabled":false,"rental_uris":{"android":"levelo://app?vid=16dd521d-50df-4f0b-a335-57ba62bdd742","ios":"levelo://app?vid=16dd521d-50df-4f0b-a335-57ba62bdd742"},"vehicle_type_id":"4","last_reported":1742461847,"current_range_meters":12800,"station_id":"ce4bhnp2rcd13ifvqgvg","pricing_plan_id":"cebpf4jnsgd1na2vs0mg"},{"bike_id":"12b11184-a4ce-452d-9850-fffa49f7995e","system_id":"levelo_inurba_marseille","lat":43.30912,"lon":5.36858,"is_reserved":false,"is_disabled":false,"rental_uris":{"android":"levelo://app?vid=12b11184-a4ce-452d-9850-fffa49f7995e","ios":"levelo://app?vid=12b11184-a4ce-452d-9850-fffa49f7995e"},"vehicle_type_id":"4","last_reported":1742461847,"current_range_meters":12800,"station_id":"ce4bgn92rcd13ifvqbvg","pricing_plan_id":"cebpf4jnsgd1na2vs0mg"},{"bike_id":"10086b00-bef0-477b-822c-b7856d22bf0f","system_id":"levelo_inurba_marseille","lat":43.30952,"lon":5.39044,"is_reserved":false,"is_disabled":false,"rental_uris":{"android":"levelo://app?vid=10086b00-bef0-477b-822c-b7856d22bf0f","ios":"levelo://app?vid=10086b00-bef0-477b-822c-b7856d22bf0f"},"vehicle_type_id":"4","last_reported":1742461847,"current_range_meters":12800,"station_id":"ce4bgup2rcd13ifvqco0","pricing_plan_id":"cebpf4jnsgd1na2vs0mg"},{"bike_id":"f89eaa5a-0971-4d46-84e4-896b3fdd91d8","system_id":"levelo_inurba_marseille","lat":43.30425,"lon":5.39745,"is_reserved":false,"is_disabled":false,"rental_uris":{"android":"levelo://app?vid=f89eaa5a-0971-4d46-84e4-896b3fdd91d8","ios":"levelo://app?vid=f89eaa5a-0971-4d46-84e4-896b3fdd91d8"},"vehicle_type_id":"4","last_reported":1742461847,"current_range_meters":12800,"station_id":"ce4bh092rcd13ifvqd20","pricing_plan_id":"cebpf4jnsgd1na2vs0mg"},{"bike_id":"c281afbc-f435-462e-91f6-2f68da71e4bb","system_id":"levelo_inurba_marseille","lat":43.30953,"lon":5.39042,"is_reserved":false,"is_disabled":false,"rental_uris":{"android":"levelo://app?vid=c281afbc-f435-462e-91f6-2f68da71e4bb","ios":"levelo://app?vid=c281afbc-f435-462e-91f6-2f68da71e4bb"},"vehicle_type_id":"4","last_reported":1742461847,"current_range_meters":12800,"station_id":"ce4bgup2rcd13ifvqco0","pricing_plan_id":"cebpf4jnsgd1na2vs0mg"},{"bike_id":"e913b0cd-b2a6-4678-bba9-91b2476e2c22","system_id":"levelo_inurba_marseille","lat":43.24175,"lon":5.39726,"is_reserved":false,"is_disabled":false,"rental_uris":{"android":"levelo://app?vid=e913b0cd-b2a6-4678-bba9-91b2476e2c22","ios":"levelo://app?vid=e913b0cd-b2a6-4678-bba9-91b2476e2c22"},"vehicle_type_id":"4","last_reported":1742461847,"current_range_meters":13600,"station_id":"ce4bhn12rcd13ifvqgpg","pricing_plan_id":"cebpf4jnsgd1na2vs0mg"},{"bike_id":"bf5d7bdb-65a8-4310-b955-6a76e2cbd7fe","system_id":"levelo_inurba_marseille","lat":43.3372,"lon":5.39187,"is_reserved":false,"is_disabled":false,"rental_uris":{"android":"levelo://app?vid=bf5d7bdb-65a8-4310-b955-6a76e2cbd7fe","ios":"levelo://app?vid=bf5d7bdb-65a8-4310-b955-6a76e2cbd7fe"},"vehicle_type_id":"4","last_reported":1742461847,"current_range_meters":13600,"station_id":"ce4bhr92rcd13ifvqhsg","pricing_plan_id":"cebpf4jnsgd1na2vs0mg"},{"bike_id":"cb071a3c-d92e-4dae-b62e-84914f483ff8","system_id":"levelo_inurba_marseille","lat":43.29298,"lon":5.37448,"is_reserved":false,"is_disabled":false,"rental_uris":{"android":"levelo://app?vid=cb071a3c-d92e-4dae-b62e-84914f483ff8","ios":"levelo://app?vid=cb071a3c-d92e-4dae-b62e-84914f483ff8"},"vehicle_type_id":"4","last_reported":1742461847,"current_range_meters":13600,"station_id":"ce4bgi12rcd13ifvqb70","pricing_plan_id":"cebpf4jnsgd1na2vs0mg"},{"bike_id":"45246c49-55c9-459b-b695-5608540dc693","system_id":"levelo_inurba_marseille","lat":43.30958,"lon":5.39034,"is_reserved":false,"is_disabled":false,"rental_uris":{"android":"levelo://app?vid=45246c49-55c9-459b-b695-5608540dc693","ios":"levelo://app?vid=45246c49-55c9-459b-b695-5608540dc693"},"vehicle_type_id":"4","last_reported":1742461847,"current_range_meters":13600,"station_id":"ce4bgup2rcd13ifvqco0","pricing_plan_id":"cebpf4jnsgd1na2vs0mg"},{"bike_id":"74eba055-d07c-4ec5-982d-51190b75a7f4","system_id":"levelo_inurba_marseille","lat":43.29221,"lon":5.36109,"is_reserved":false,"is_disabled":false,"rental_uris":{"android":"levelo://app?vid=74eba055-d07c-4ec5-982d-51190b75a7f4","ios":"levelo://app?vid=74eba055-d07c-4ec5-982d-51190b75a7f4"},"vehicle_type_id":"4","last_reported":1742461847,"current_range_meters":13600,"station_id":"ce4bhbh2rcd13ifvqeqg","pricing_plan_id":"cebpf4jnsgd1na2vs0mg"},{"bike_id":"1c3b5361-695c-4ccc-94f9-aca7f37b6d45","system_id":"levelo_inurba_marseille","lat":43.23193,"lon":5.3556,"is_reserved":false,"is_disabled":false,"rental_uris":{"android":"levelo://app?vid=1c3b5361-695c-4ccc-94f9-aca7f37b6d45","ios":"levelo://app?vid=1c3b5361-695c-4ccc-94f9-aca7f37b6d45"},"vehicle_type_id":"4","last_reported":1742461847,"current_range_meters":14000,"station_id":"ce4bhu92rcd13ifvqi70","pricing_plan_id":"cebpf4jnsgd1na2vs0mg"},{"bike_id":"efb0bc27-b8ec-4036-be31-f3c9e277cd92","system_id":"levelo_inurba_marseille","lat":43.23133,"lon":5.43729,"is_reserved":false,"is_disabled":false,"rental_uris":{"android":"levelo://app?vid=efb0bc27-b8ec-4036-be31-f3c9e277cd92","ios":"levelo://app?vid=efb0bc27-b8ec-4036-be31-f3c9e277cd92"},"vehicle_type_id":"4","last_reported":1742461847,"current_range_meters":14000,"station_id":"ce4bhmp2rcd13ifvqgog","pricing_plan_id":"cebpf4jnsgd1na2vs0mg"},{"bike_id":"4db19a11-2fb0-451a-8adf-52507fb3bff3","system_id":"levelo_inurba_marseille","lat":43.29775,"lon":5.37109,"is_reserved":false,"is_disabled":false,"rental_uris":{"android":"levelo://app?vid=4db19a11-2fb0-451a-8adf-52507fb3bff3","ios":"levelo://app?vid=4db19a11-2fb0-451a-8adf-52507fb3bff3"},"vehicle_type_id":"4","last_reported":1742461847,"current_range_meters":14000,"station_id":"ce4bgnh2rcd13ifvqc0g","pricing_plan_id":"cebpf4jnsgd1na2vs0mg"},{"bike_id":"33eac996-04c1-4244-862e-d262aa2b7f9f","system_id":"levelo_inurba_marseille","lat":43.29934,"lon":5.36526,"is_reserved":false,"is_disabled":false,"rental_uris":{"android":"levelo://app?vid=33eac996-04c1-4244-862e-d262aa2b7f9f","ios":"levelo://app?vid=33eac996-04c1-4244-862e-d262aa2b7f9f"},"vehicle_type_id":"4","last_reported":1742461847,"current_range_meters":14000,"station_id":"ce4bgm92rcd13ifvqbr0","pricing_plan_id":"cebpf4jnsgd1na2vs0mg"},{"bike_id":"1d30afca-95f8-47f1-9bab-62e98fe2a186","system_id":"levelo_inurba_marseille","lat":43.31388,"lon":5.36708,"is_reserved":false,"is_disabled":false,"rental_uris":{"android":"levelo://app?vid=1d30afca-95f8-47f1-9bab-62e98fe2a186","ios":"levelo://app?vid=1d30afca-95f8-47f1-9bab-62e98fe2a186"},"vehicle_type_id":"4","last_reported":1742461847,"current_range_meters":14000,"station_id":"","pricing_plan_id":"cebpf4jnsgd1na2vs0mg"},{"bike_id":"703de16c-505c-4d63-9ec2-e148a8073533","system_id":"levelo_inurba_marseille","lat":43.24389,"lon":5.37058,"is_reserved":false,"is_disabled":false,"rental_uris":{"android":"levelo://app?vid=703de16c-505c-4d63-9ec2-e148a8073533","ios":"levelo://app?vid=703de16c-505c-4d63-9ec2-e148a8073533"},"vehicle_type_id":"4","last_reported":1742461847,"current_range_meters":14400,"station_id":"ce4bhhh2rcd13ifvqfk0","pricing_plan_id":"cebpf4jnsgd1na2vs0mg"},{"bike_id":"8d2e0891-7e3d-49cd-a068-d30bf0a397c8","system_id":"levelo_inurba_marseille","lat":43.30305,"lon":5.36895,"is_reserved":false,"is_disabled":false,"rental_uris":{"android":"levelo://app?vid=8d2e0891-7e3d-49cd-a068-d30bf0a397c8","ios":"levelo://app?vid=8d2e0891-7e3d-49cd-a068-d30bf0a397c8"},"vehicle_type_id":"4","last_reported":1742461847,"current_range_meters":14400,"station_id":"ce4bgqh2rcd13ifvqc5g","pricing_plan_id":"cebpf4jnsgd1na2vs0mg"},{"bike_id":"022b2a49-36e9-435c-9aa7-4561f9cf1c2f","system_id":"levelo_inurba_marseille","lat":43.27429,"lon":5.39421,"is_reserved":false,"is_disabled":false,"rental_uris":{"android":"levelo://app?vid=022b2a49-36e9-435c-9aa7-4561f9cf1c2f","ios":"levelo://app?vid=022b2a49-36e9-435c-9aa7-4561f9cf1c2f"},"vehicle_type_id":"4","last_reported":1742461847,"current_range_meters":14400,"station_id":"ce4bhdp2rcd13ifvqf20","pricing_plan_id":"cebpf4jnsgd1na2vs0mg"},{"bike_id":"42510201-02b4-4f38-82bc-9dc134d4342c","system_id":"levelo_inurba_marseille","lat":43.22934,"lon":5.35378,"is_reserved":false,"is_disabled":false,"rental_uris":{"android":"levelo://app?vid=42510201-02b4-4f38-82bc-9dc134d4342c","ios":"levelo://app?vid=42510201-02b4-4f38-82bc-9dc134d4342c"},"vehicle_type_id":"4","last_reported":1742461847,"current_range_meters":14400,"station_id":"cpo3532slgdg3j2ikp40","pricing_plan_id":"cebpf4jnsgd1na2vs0mg"},{"bike_id":"ca4f38ad-a911-4729-9bf0-9cd10d233cd4","system_id":"levelo_inurba_marseille","lat":43.31366,"lon":5.36692,"is_reserved":false,"is_disabled":false,"rental_uris":{"android":"levelo://app?vid=ca4f38ad-a911-4729-9bf0-9cd10d233cd4","ios":"levelo://app?vid=ca4f38ad-a911-4729-9bf0-9cd10d233cd4"},"vehicle_type_id":"4","last_reported":1742461847,"current_range_meters":14400,"station_id":"ce4bgr92rcd13ifvqc6g","pricing_plan_id":"cebpf4jnsgd1na2vs0mg"},{"bike_id":"ea9c099e-cd33-406a-9fa7-4fde7c8e9bfd","system_id":"levelo_inurba_marseille","lat":43.278361,"lon":5.392013,"is_reserved":false,"is_disabled":true,"rental_uris":{"android":"levelo://app?vid=ea9c099e-cd33-406a-9fa7-4fde7c8e9bfd","ios":"levelo://app?vid=ea9c099e-cd33-406a-9fa7-4fde7c8e9bfd"},"vehicle_type_id":"4","last_reported":1742461847,"current_range_meters":14400,"station_id":"ce4bhjp2rcd13ifvqga0","pricing_plan_id":"cebpf4jnsgd1na2vs0mg"},{"bike_id":"5f70d216-c22b-4aba-8c0c-4a1deab6ce2e","system_id":"levelo_inurba_marseille","lat":43.29896,"lon":5.4367,"is_reserved":false,"is_disabled":false,"rental_uris":{"android":"levelo://app?vid=5f70d216-c22b-4aba-8c0c-4a1deab6ce2e","ios":"levelo://app?vid=5f70d216-c22b-4aba-8c0c-4a1deab6ce2e"},"vehicle_type_id":"4","last_reported":1742461847,"current_range_meters":14400,"station_id":"ce4bhpp2rcd13ifvqhfg","pricing_plan_id":"cebpf4jnsgd1na2vs0mg"},{"bike_id":"7d533c3d-be34-4b0e-b05d-d42132d55da9","system_id":"levelo_inurba_marseille","lat":43.30536,"lon":5.36532,"is_reserved":false,"is_disabled":false,"rental_uris":{"android":"levelo://app?vid=7d533c3d-be34-4b0e-b05d-d42132d55da9","ios":"levelo://app?vid=7d533c3d-be34-4b0e-b05d-d42132d55da9"},"vehicle_type_id":"4","last_reported":1742461847,"current_range_meters":14400,"station_id":"ce4bgs12rcd13ifvqcag","pricing_plan_id":"cebpf4jnsgd1na2vs0mg"},{"bike_id":"ffe97004-0ecd-4e8c-852b-393acdc2ea6d","system_id":"levelo_inurba_marseille","lat":43.25931,"lon":5.40906,"is_reserved":false,"is_disabled":false,"rental_uris":{"android":"levelo://app?vid=ffe97004-0ecd-4e8c-852b-393acdc2ea6d","ios":"levelo://app?vid=ffe97004-0ecd-4e8c-852b-393acdc2ea6d"},"vehicle_type_id":"4","last_reported":1742461847,"current_range_meters":14400,"station_id":"ce4bhm92rcd13ifvqglg","pricing_plan_id":"cebpf4jnsgd1na2vs0mg"},{"bike_id":"c5a40b4b-8475-4793-81dd-9d7d8a1b6af2","system_id":"levelo_inurba_marseille","lat":43.2621,"lon":5.3744,"is_reserved":false,"is_disabled":false,"rental_uris":{"android":"levelo://app?vid=c5a40b4b-8475-4793-81dd-9d7d8a1b6af2","ios":"levelo://app?vid=c5a40b4b-8475-4793-81dd-9d7d8a1b6af2"},"vehicle_type_id":"4","last_reported":1742461847,"current_range_meters":14400,"station_id":"ce4bhgp2rcd13ifvqfc0","pricing_plan_id":"cebpf4jnsgd1na2vs0mg"},{"bike_id":"dab5b599-564f-470d-b857-a9674d507c49","system_id":"levelo_inurba_marseille","lat":43.25935,"lon":5.40912,"is_reserved":false,"is_disabled":false,"rental_uris":{"android":"levelo://app?vid=dab5b599-564f-470d-b857-a9674d507c49","ios":"levelo://app?vid=dab5b599-564f-470d-b857-a9674d507c49"},"vehicle_type_id":"4","last_reported":1742461847,"current_range_meters":14800,"station_id":"ce4bhm92rcd13ifvqglg","pricing_plan_id":"cebpf4jnsgd1na2vs0mg"},{"bike_id":"2ad7445e-e758-4a08-b14f-f17764b0eebb","system_id":"levelo_inurba_marseille","lat":43.29574,"lon":5.37519,"is_reserved":false,"is_disabled":false,"rental_uris":{"android":"levelo://app?vid=2ad7445e-e758-4a08-b14f-f17764b0eebb","ios":"levelo://app?vid=2ad7445e-e758-4a08-b14f-f17764b0eebb"},"vehicle_type_id":"4","last_reported":1742461847,"current_range_meters":14800,"station_id":"ce4bgh92rcd13ifvqb50","pricing_plan_id":"cebpf4jnsgd1na2vs0mg"},{"bike_id":"95c34ac8-3d50-4192-bb59-32bffc4aefde","system_id":"levelo_inurba_marseille","lat":43.27958,"lon":5.38721,"is_reserved":false,"is_disabled":false,"rental_uris":{"android":"levelo://app?vid=95c34ac8-3d50-4192-bb59-32bffc4aefde","ios":"levelo://app?vid=95c34ac8-3d50-4192-bb59-32bffc4aefde"},"vehicle_type_id":"4","last_reported":1742461847,"current_range_meters":14800,"station_id":"ce4bhg12rcd13ifvqf80","pricing_plan_id":"cebpf4jnsgd1na2vs0mg"},{"bike_id":"86cf396f-3487-4568-a7fd-e6927681f734","system_id":"levelo_inurba_marseille","lat":43.30259,"lon":5.40069,"is_reserved":false,"is_disabled":false,"rental_uris":{"android":"levelo://app?vid=86cf396f-3487-4568-a7fd-e6927681f734","ios":"levelo://app?vid=86cf396f-3487-4568-a7fd-e6927681f734"},"vehicle_type_id":"4","last_reported":1742461847,"current_range_meters":14400,"station_id":"ce4bgvh2rcd13ifvqcs0","pricing_plan_id":"cebpf4jnsgd1na2vs0mg"},{"bike_id":"9046b99d-6213-41f8-bf84-1fc0e6570812","system_id":"levelo_inurba_marseille","lat":43.28153,"lon":5.42648,"is_reserved":false,"is_disabled":false,"rental_uris":{"android":"levelo://app?vid=9046b99d-6213-41f8-bf84-1fc0e6570812","ios":"levelo://app?vid=9046b99d-6213-41f8-bf84-1fc0e6570812"},"vehicle_type_id":"4","last_reported":1742461847,"current_range_meters":14800,"station_id":"ce4bhnh2rcd13ifvqgug","pricing_plan_id":"cebpf4jnsgd1na2vs0mg"},