{"last_updated":1727471269,"ttl":60,"version":"2.2","data":{"bikes":[{"bike_id":"39ddebf9-b780-4b91-8fcd-597459aff4a1","system_id":"levelo_inurba_marseille","lat":43.29999,"lon":5.3823,"is_reserved":false,"is_disabled":false,"rental_uris":{"android":"levelo://app?vid=39ddebf9-b780-4b91-8fcd-597459aff4a1","ios":"levelo://app?vid=39ddebf9-b780-4b91-8fcd-597459aff4a1"},"vehicle_type_id":"4","last_reported":1727471270,"current_range_meters":19200,"station_id":"","pricing_plan_id":"cebpf4jnsgd1na2vs0mg"},{"bike_id":"6b1edbdf-08f2-4f26-abe2-c432672dcd53","system_id":"levelo_inurba_marseille","lat":43.28853,"lon":5.3585,"is_reserved":false,"is_disabled":false,"rental_uris":{"android":"levelo://app?vid=6b1edbdf-08f2-4f26-abe2-c432672dcd53","ios":"levelo://app?vid=6b1edbdf-08f2-4f26-abe2-c432672dcd53"},"vehicle_type_id":"4","last_reported":1727471270,"current_range_meters":14800,"station_id":"ce4bhb12rcd13ifvqem0","pricing_plan_id":"cebpf4jnsgd1na2vs0mg"},{"bike_id":"c005912a-7950-45f7-800d-555b2d625fc0","system_id":"levelo_inurba_marseille","lat":43.34498,"lon":5.41623,"is_reserved":false,"is_disabled":false,"rental_uris":{"android":"levelo://app?vid=c005912a-7950-45f7-800d-555b2d625fc0","ios":"levelo://app?vid=c005912a-7950-45f7-800d-555b2d625fc0"},"vehicle_type_id":"4","last_reported":1727471270,"current_range_meters":8000,"station_id":"","pricing_plan_id":"cebpf4jnsgd1na2vs0mg"},{"bike_id":"940733d8-34df-444a-a45a-e41569e7acd0","system_id":"levelo_inurba_marseille","lat":43.29794,"lon":5.38108,"is_reserved":false,"is_disabled":false,"rental_uris":{"android":"levelo://app?vid=940733d8-34df-444a-a45a-e41569e7acd0","ios":"levelo://app?vid=940733d8-34df-444a-a45a-e41569e7acd0"},"vehicle_type_id":"4","last_reported":1727471270,"current_range_meters":38400,"station_id":"ce4bgip2rcd13ifvqbb0","pricing_plan_id":"cebpf4jnsgd1na2vs0mg"},{"bike_id":"90776deb-2ac7-4a39-8acd-1a0aab3c788f","system_id":"levelo_inurba_marseille","lat":43.295345,"lon":5.385549,"is_reserved":false,"is_disabled":false,"rental_uris":{"android":"levelo://app?vid=90776deb-2ac7-4a39-8acd-1a0aab3c788f","ios":"levelo://app?vid=90776deb-2ac7-4a39-8acd-1a0aab3c788f"},"vehicle_type_id":"4","last_reported":1727471270,"current_range_meters":26000,"station_id":"ce4bgih2rcd13ifvqba0","pricing_plan_id":"cebpf4jnsgd1na2vs0mg"},{"bike_id":"4dd2d48e-7ed9-45f7-9616-99d38c7d4684","system_id":"levelo_inurba_marseille","lat":43.32367,"lon":5.38882,"is_reserved":false,"is_disabled":false,"rental_uris":{"android":"levelo://app?vid=4dd2d48e-7ed9-45f7-9616-99d38c7d4684","ios":"levelo://app?vid=4dd2d48e-7ed9-45f7-9616-99d38c7d4684"},"vehicle_type_id":"4","last_reported":1727471270,"current_range_meters":26800,"station_id":"ce4bhqp2rcd13ifvqhog","pricing_plan_id":"cebpf4jnsgd1na2vs0mg"},{"bike_id":"a7a19a3a-9797-4b32-a0e4-f2a72c455a17","system_id":"levelo_inurba_marseille","lat":43.23184,"lon":5.39989,"is_reserved":false,"is_disabled":false,"rental_uris":{"android":"levelo://app?vid=a7a19a3a-9797-4b32-a0e4-f2a72c455a17","ios":"levelo://app?vid=a7a19a3a-9797-4b32-a0e4-f2a72c455a17"},"vehicle_type_id":"4","last_reported":1727471270,"current_range_meters":26000,"station_id":"ce4bhn12rcd13ifvqgqg","pricing_plan_id":"cebpf4jnsgd1na2vs0mg"},{"bike_id":"ef4ea61e-8d4a-41b5-ab74-7b33b2c91f38","system_id":"levelo_inurba_marseille","lat":43.28483,"lon":5.38404,"is_reserved":false,"is_disabled":false,"rental_uris":{"android":"levelo://app?vid=ef4ea61e-8d4a-41b5-ab74-7b33b2c91f38","ios":"levelo://app?vid=ef4ea61e-8d4a-41b5-ab74-7b33b2c91f38"},"vehicle_type_id":"4","last_reported":1727471270,"current_range_meters":12400,"station_id":"ce4bh512rcd13ifvqe3g","pricing_plan_id":"cebpf4jnsgd1na2vs0mg"},{"bike_id":"015cb683-4284-4057-8f54-f3a83105cea4","system_id":"levelo_inurba_marseille","lat":43.31227,"lon":5.36867,"is_reserved":false,"is_disabled":false,"rental_uris":{"android":"levelo://app?vid=015cb683-4284-4057-8f54-f3a83105cea4","ios":"levelo://app?vid=015cb683-4284-4057-8f54-f3a83105cea4"},"vehicle_type_id":"4","last_reported":1727471270,"current_range_meters":28800,"station_id":"ce4bgl92rcd13ifvqbq0","pricing_plan_id":"cebpf4jnsgd1na2vs0mg"},{"bike_id":"b168ce65-7b47-4816-ac58-4c6f4c98221c","system_id":"levelo_inurba_marseille","lat":43.33025,"lon":5.39044,"is_reserved":false,"is_disabled":false,"rental_uris":{"android":"levelo://app?vid=b168ce65-7b47-4816-ac58-4c6f4c98221c","ios":"levelo://app?vid=b168ce65-7b47-4816-ac58-4c6f4c98221c"},"vehicle_type_id":"4","last_reported":1727471270,"current_range_meters":4000,"station_id":"ce4bhr92rcd13ifvqhrg","pricing_plan_id":"cebpf4jnsgd1na2vs0mg"},{"bike_id":"536e6358-203d-45da-b0c5-34d7e8e8be62","system_id":"levelo_inurba_marseille","lat":43.28075,"lon":5.39666,"is_reserved":false,"is_disabled":false,"rental_uris":{"android":"levelo://app?vid=536e6358-203d-45da-b0c5-34d7e8e8be62","ios":"levelo://app?vid=536e6358-203d-45da-b0c5-34d7e8e8be62"},"vehicle_type_id":"4","last_reported":1727471270,"current_range_meters":39200,"station_id":"ce4bho12rcd13ifvqh2g","pricing_plan_id":"cebpf4jnsgd1na2vs0mg"},{"bike_id":"70b8bbd4-b9e7-478f-ac4d-162e85affd14","system_id":"levelo_inurba_marseille","lat":43.28029,"lon":5.36945,"is_reserved":false,"is_disabled":false,"rental_uris":{"android":"levelo://app?vid=70b8bbd4-b9e7-478f-ac4d-162e85affd14","ios":"levelo://app?vid=70b8bbd4-b9e7-478f-ac4d-162e85affd14"},"vehicle_type_id":"4","last_reported":1727471270,"current_range_meters":6000,"station_id":"ce4bha12rcd13ifvqef0","pricing_plan_id":"cebpf4jnsgd1na2vs0mg"},{"bike_id":"399212e0-3454-41d4-bcd4-464c7c545a78","system_id":"levelo_inurba_marseille","lat":43.22925,"lon":5.3538,"is_reserved":false,"is_disabled":false,"rental_uris":{"android":"levelo://app?vid=399212e0-3454-41d4-bcd4-464c7c545a78","ios":"levelo://app?vid=399212e0-3454-41d4-bcd4-464c7c545a78"},"vehicle_type_id":"4","last_reported":1727471270,"current_range_meters":38800,"station_id":"cpo3532slgdg3j2ikp40","pricing_plan_id":"cebpf4jnsgd1na2vs0mg"},{"bike_id":"ed781a40-5714-4e06-a85b-53c231450b26","system_id":"levelo_inurba_marseille","lat":43.30949,"lon":5.39033,"is_reserved":false,"is_disabled":false,"rental_uris":{"android":"levelo://app?vid=ed781a40-5714-4e06-a85b-53c231450b26","ios":"levelo://app?vid=ed781a40-5714-4e06-a85b-53c231450b26"},"vehicle_type_id":"4","last_reported":1727471270,"current_range_meters":32400,"station_id":"ce4bgup2rcd13ifvqco0","pricing_plan_id":"cebpf4jnsgd1na2vs0mg"},{"bike_id":"091b19f6-15a9-47d2-8c1c-5ad8e8097f76","system_id":"levelo_inurba_marseille","lat":43.30949,"lon":5.39035,"is_reserved":false,"is_disabled":false,"rental_uris":{"android":"levelo://app?vid=091b19f6-15a9-47d2-8c1c-5ad8e8097f76","ios":"levelo://app?vid=091b19f6-15a9-47d2-8c1c-5ad8e8097f76"},"vehicle_type_id":"4","last_reported":1727471270,"current_range_meters":20000,"station_id":"ce4bgup2rcd13ifvqco0","pricing_plan_id":"cebpf4jnsgd1na2vs0mg"},{"bike_id":"66d73b18-4c68-444d-b604-022a59e67ce2","system_id":"levelo_inurba_marseille","lat":43.29548,"lon":5.42289,"is_reserved":false,"is_disabled":false,"rental_uris":{"android":"levelo://app?vid=66d73b18-4c68-444d-b604-022a59e67ce2","ios":"levelo://app?vid=66d73b18-4c68-444d-b604-022a59e67ce2"},"vehicle_type_id":"4","last_reported":1727471270,"current_range_meters":14800,"station_id":"ce4bhph2rcd13ifvqhdg","pricing_plan_id":"cebpf4jnsgd1na2vs0mg"},{"bike_id":"a6d67719-7b4c-4779-83d6-32fb371068f2","system_id":"levelo_inurba_marseille","lat":43.28452,"lon":5.35886,"is_reserved":false,"is_disabled":false,"rental_uris":{"android":"levelo://app?vid=a6d67719-7b4c-4779-83d6-32fb371068f2","ios":"levelo://app?vid=a6d67719-7b4c-4779-83d6-32fb371068f2"},"vehicle_type_id":"4","last_reported":1727471270,"current_range_meters":30800,"station_id":"ce4bhah2rcd13ifvqei0","pricing_plan_id":"cebpf4jnsgd1na2vs0mg"},{"bike_id":"7ec1c3e8-ff45-4f43-93d9-7981d666f20f","system_id":"levelo_inurba_marseille","lat":43.308928,"lon":5.396382,"is_reserved":false,"is_disabled":false,"rental_uris":{"android":"levelo://app?vid=7ec1c3e8-ff45-4f43-93d9-7981d666f20f","ios":"levelo://app?vid=7ec1c3e8-ff45-4f43-93d9-7981d666f20f"},"vehicle_type_id":"4","last_reported":1727471270,"current_range_meters":23200,"station_id":"ce4bh012rcd13ifvqcv0","pricing_plan_id":"cebpf4jnsgd1na2vs0mg"},{"bike_id":"5ddf2d2e-8d7a-425f-866f-4acf4064e8fa","system_id":"levelo_inurba_marseille","lat":43.258361,"lon":5.394249,"is_reserved":false,"is_disabled":false,"rental_uris":{"android":"levelo://app?vid=5ddf2d2e-8d7a-425f-866f-4acf4064e8fa","ios":"levelo://app?vid=5ddf2d2e-8d7a-425f-866f-4acf4064e8fa"},"vehicle_type_id":"4","last_reported":1727471270,"current_range_meters":38800,"station_id":"ce4bhip2rcd13ifvqft0","pricing_plan_id":"cebpf4jnsgd1na2vs0mg"},{"bike_id":"2619bd3c-aafc-4790-adc9-09493075d381","system_id":"levelo_inurba_marseille","lat":43.31164,"lon":5.3872,"is_reserved":false,"is_disabled":false,"rental_uris":{"android":"levelo://app?vid=2619bd3c-aafc-4790-adc9-09493075d381","ios":"levelo://app?vid=2619bd3c-aafc-4790-adc9-09493075d381"},"vehicle_type_id":"4","last_reported":1727471270,"current_range_meters":30000,"station_id":"ce4bgv12rcd13ifvqcp0","pricing_plan_id":"cebpf4jnsgd1na2vs0mg"},{"bike_id":"cedc07a9-5694-452c-8a22-6ebdfd4f2894","system_id":"levelo_inurba_marseille","lat":43.25826,"lon":5.39432,"is_reserved":false,"is_disabled":false,"rental_uris":{"android":"levelo://app?vid=cedc07a9-5694-452c-8a22-6ebdfd4f2894","ios":"levelo://app?vid=cedc07a9-5694-452c-8a22-6ebdfd4f2894"},"vehicle_type_id":"4","last_reported":1727471270,"current_range_meters":9200,"station_id":"ce4bhip2rcd13ifvqft0","pricing_plan_id":"cebpf4jnsgd1na2vs0mg"},{"bike_id":"a2b9d2b4-51f1-4267-9f91-7857b7d24fea","system_id":"levelo_inurba_marseille","lat":43.311127,"lon":5.377672,"is_reserved":false,"is_disabled":false,"rental_uris":{"android":"levelo://app?vid=a2b9d2b4-51f1-4267-9f91-7857b7d24fea","ios":"levelo://app?vid=a2b9d2b4-51f1-4267-9f91-7857b7d24fea"},"vehicle_type_id":"4","last_reported":1727471270,"current_range_meters":15200,"station_id":"ce4bgt92rcd13ifvqcg0","pricing_plan_id":"cebpf4jnsgd1na2vs0mg"},{"bike_id":"c84bee1e-f06d-4a66-8732-0825032ed17b","system_id":"levelo_inurba_marseille","lat":43.284973,"lon":5.385494,"is_reserved":false,"is_disabled":false,"rental_uris":{"android":"levelo://app?vid=c84bee1e-f06d-4a66-8732-0825032ed17b","ios":"levelo://app?vid=c84bee1e-f06d-4a66-8732-0825032ed17b"},"vehicle_type_id":"4","last_reported":1727471270,"current_range_meters":5600,"station_id":"ce4bh8p2rcd13ifvqeb0","pricing_plan_id":"cebpf4jnsgd1na2vs0mg"},{"bike_id":"94fe8acf-f2b2-4369-9c9e-3981f2418028","system_id":"levelo_inurba_marseille","lat":43.33752,"lon":5.37361,"is_reserved":false,"is_disabled":false,"rental_uris":{"android":"levelo://app?vid=94fe8acf-f2b2-4369-9c9e-3981f2418028","ios":"levelo://app?vid=94fe8acf-f2b2-4369-9c9e-3981f2418028"},"vehicle_type_id":"4","last_reported":1727471270,"current_range_meters":25200,"station_id":"","pricing_plan_id":"cebpf4jnsgd1na2vs0mg"},{"bike_id":"ac8b5c28-327e-4fe2-8817-4e667389163d","system_id":"levelo_inurba_marseille","lat":43.31713,"lon":5.43703,"is_reserved":false,"is_disabled":false,"rental_uris":{"android":"levelo://app?vid=ac8b5c28-327e-4fe2-8817-4e667389163d","ios":"levelo://app?vid=ac8b5c28-327e-4fe2-8817-4e667389163d"},"vehicle_type_id":"4","last_reported":1727471270,"current_range_meters":24800,"station_id":"ce4bhp92rcd13ifvqhcg","pricing_plan_id":"cebpf4jnsgd1na2vs0mg"},{"bike_id":"0f703534-fd5b-4b5b-b5fa-f72466bb8302","system_id":"levelo_inurba_marseille","lat":43.24805,"lon":5.37455,"is_reserved":false,"is_disabled":false,"rental_uris":{"android":"levelo://app?vid=0f703534-fd5b-4b5b-b5fa-f72466bb8302","ios":"levelo://app?vid=0f703534-fd5b-4b5b-b5fa-f72466bb8302"},"vehicle_type_id":"4","last_reported":1727471270,"current_range_meters":8400,"station_id":"ce4bhgh2rcd13ifvqfb0","pricing_plan_id":"cebpf4jnsgd1na2vs0mg"},{"bike_id":"90444714-211b-4110-a0eb-f5d02a689f69","system_id":"levelo_inurba_marseille","lat":43.29189,"lon":5.35819,"is_reserved":false,"is_disabled":false,"rental_uris":{"android":"levelo://app?vid=90444714-211b-4110-a0eb-f5d02a689f69","ios":"levelo://app?vid=90444714-211b-4110-a0eb-f5d02a689f69"},"vehicle_type_id":"4","last_reported":1727471270,"current_range_meters":28800,"station_id":"ce4bhb12rcd13ifvqel0","pricing_plan_id":"cebpf4jnsgd1na2vs0mg"},{"bike_id":"6ab69009-f97f-4c46-9b52-37e57cc06b65","system_id":"levelo_inurba_marseille","lat":43.24387,"lon":5.37056,"is_reserved":false,"is_disabled":false,"rental_uris":{"android":"levelo://app?vid=6ab69009-f97f-4c46-9b52-37e57cc06b65","ios":"levelo://app?vid=6ab69009-f97f-4c46-9b52-37e57cc06b65"},"vehicle_type_id":"4","last_reported":1727471270,"current_range_meters":37600,"station_id":"ce4bhhh2rcd13ifvqfk0","pricing_plan_id":"cebpf4jnsgd1na2vs0mg"},{"bike_id":"9d7f27f1-59c9-407a-ab50-9301a82e6bf5","system_id":"levelo_inurba_marseille","lat":43.337444,"lon":5.374475,"is_reserved":false,"is_disabled":false,"rental_uris":{"android":"levelo://app?vid=9d7f27f1-59c9-407a-ab50-9301a82e6bf5","ios":"levelo://app?vid=9d7f27f1-59c9-407a-ab50-9301a82e6bf5"},"vehicle_type_id":"4","last_reported":1727471270,"current_range_meters":14800,"station_id":"","pricing_plan_id":"cebpf4jnsgd1na2vs0mg"},{"bike_id":"fdcf6e7a-bc2b-46b3-88f7-986831b68667","system_id":"levelo_inurba_marseille","lat":43.31076,"lon":5.38362,"is_reserved":false,"is_disabled":false,"rental_uris":{"android":"levelo://app?vid=fdcf6e7a-bc2b-46b3-88f7-986831b68667","ios":"levelo://app?vid=fdcf6e7a-bc2b-46b3-88f7-986831b68667"},"vehicle_type_id":"4","last_reported":1727471270,"current_range_meters":32000,"station_id":"ce4bgv92rcd13ifvqcr0","pricing_plan_id":"cebpf4jnsgd1na2vs0mg"},{"bike_id":"d94a1c04-23ac-4565-b6dc-04c86aed2784","system_id":"levelo_inurba_marseille","lat":43.29535,"lon":5.3854,"is_reserved":false,"is_disabled":false,"rental_uris":{"android":"levelo://app?vid=d94a1c04-23ac-4565-b6dc-04c86aed2784","ios":"levelo://app?vid=d94a1c04-23ac-4565-b6dc-04c86aed2784"},"vehicle_type_id":"4","last_reported":1727471270,"current_range_meters":27200,"station_id":"ce4bgih2rcd13ifvqba0","pricing_plan_id":"cebpf4jnsgd1na2vs0mg"},{"bike_id":"7becbd6f-e9c5-4ed2-8064-52ccad410b37","system_id":"levelo_inurba_marseille","lat":43.3121,"lon":5.36849,"is_reserved":false,"is_disabled":false,"rental_uris":{"android":"levelo://app?vid=7becbd6f-e9c5-4ed2-8064-52ccad410b37","ios":"levelo://app?vid=7becbd6f-e9c5-4ed2-8064-52ccad410b37"},"vehicle_type_id":"4","last_reported":1727471270,"current_range_meters":22800,"station_id":"ce4bgl92rcd13ifvqbq0","pricing_plan_id":"cebpf4jnsgd1na2vs0mg"},{"bike_id":"fc7165fd-80a4-4306-98f7-c18548d70317","system_id":"levelo_inurba_marseille","lat":43.31993,"lon":5.38155,"is_reserved":false,"is_disabled":false,"rental_uris":{"android":"levelo://app?vid=fc7165fd-80a4-4306-98f7-c18548d70317","ios":"levelo://app?vid=fc7165fd-80a4-4306-98f7-c18548d70317"},"vehicle_type_id":"4","last_reported":1727471270,"current_range_meters":38800,"station_id":"ce4bhr12rcd13ifvqhpg","pricing_plan_id":"cebpf4jnsgd1na2vs0mg"},{"bike_id":"b62710f6-06b9-4106-9bdc-786b6529ac60","system_id":"levelo_inurba_marseille","lat":43.29069,"lon":5.37171,"is_reserved":false,"is_disabled":false,"rental_uris":{"android":"levelo://app?vid=b62710f6-06b9-4106-9bdc-786b6529ac60","ios":"levelo://app?vid=b62710f6-06b9-4106-9bdc-786b6529ac60"},"vehicle_type_id":"4","last_reported":1727471270,"current_range_meters":37600,"station_id":"ce4bh5p2rcd13ifvqe4g","pricing_plan_id":"cebpf4jnsgd1na2vs0mg"},{"bike_id":"ae4fe272-7f81-4778-a390-9382bfec4407","system_id":"levelo_inurba_marseille","lat":43.29162,"lon":5.37156,"is_reserved":false,"is_disabled":false,"rental_uris":{"android":"levelo://app?vid=ae4fe272-7f81-4778-a390-9382bfec4407","ios":"levelo://app?vid=ae4fe272-7f81-4778-a390-9382bfec4407"},"vehicle_type_id":"4","last_reported":1727471270,"current_range_meters":11600,"station_id":"ce4bha92rcd13ifvqeh0","pricing_plan_id":"cebpf4jnsgd1na2vs0mg"},{"bike_id":"9932817c-2e79-4dd0-8725-589d669fce04","system_id":"levelo_inurba_marseille","lat":43.310699,"lon":5.383536,"is_reserved":false,"is_disabled":false,"rental_uris":{"android":"levelo://app?vid=9932817c-2e79-4dd0-8725-589d669fce04","ios":"levelo://app?vid=9932817c-2e79-4dd0-8725-589d669fce04"},"vehicle_type_id":"4","last_reported":1727471270,"current_range_meters":36000,"station_id":"ce4bgv92rcd13ifvqcr0","pricing_plan_id":"cebpf4jnsgd1na2vs0mg"},{"bike_id":"b8e17eb0-e31f-4629-b51b-60be691f3e78","system_id":"levelo_inurba_marseille","lat":43.29308,"lon":5.37174,"is_reserved":false,"is_disabled":false,"rental_uris":{"android":"levelo://app?vid=b8e17eb0-e31f-4629-b51b-60be691f3e78","ios":"levelo://app?vid=b8e17eb0-e31f-4629-b51b-60be691f3e78"},"vehicle_type_id":"4","last_reported":1727471270,"current_range_meters":12800,"station_id":"ce4bgh92rcd13ifvqb40","pricing_plan_id":"cebpf4jnsgd1na2vs0mg"},{"bike_id":"42dff045-a9d4-4b05-a53e-6d488d6d027d","system_id":"levelo_inurba_marseille","lat":43.31488,"lon":5.37313,"is_reserved":false,"is_disabled":false,"rental_uris":{"android":"levelo://app?vid=42dff045-a9d4-4b05-a53e-6d488d6d027d","ios":"levelo://app?vid=42dff045-a9d4-4b05-a53e-6d488d6d027d"},"vehicle_type_id":"4","last_reported":1727471270,"current_range_meters":28800,"station_id":"ce4bgt12rcd13ifvqcd0","pricing_plan_id":"cebpf4jnsgd1na2vs0mg"},{"bike_id":"02224f8c-d6bb-41b4-bc82-e278253b681c","system_id":"levelo_inurba_marseille","lat":43.31695,"lon":5.40475,"is_reserved":false,"is_disabled":false,"rental_uris":{"android":"levelo://app?vid=02224f8c-d6bb-41b4-bc82-e278253b681c","ios":"levelo://app?vid=02224f8c-d6bb-41b4-bc82-e278253b681c"},"vehicle_type_id":"4","last_reported":1727471270,"current_range_meters":38400,"station_id":"ce4bh012rcd13ifvqd00","pricing_plan_id":"cebpf4jnsgd1na2vs0mg"},{"bike_id":"b8bae6cc-7d26-425f-8d26-f35dbac90fff","system_id":"levelo_inurba_marseille","lat":43.23196,"lon":5.39981,"is_reserved":false,"is_disabled":false,"rental_uris":{"android":"levelo://app?vid=b8bae6cc-7d26-425f-8d26-f35dbac90fff","ios":"levelo://app?vid=b8bae6cc-7d26-425f-8d26-f35dbac90fff"},"vehicle_type_id":"4","last_reported":1727471270,"current_range_meters":24800,"station_id":"ce4bhn12rcd13ifvqgqg","pricing_plan_id":"cebpf4jnsgd1na2vs0mg"},{"bike_id":"3cb69089-2daf-46be-bd32-51ff7c39298a","system_id":"levelo_inurba_marseille","lat":43.3265,"lon":5.40976,"is_reserved":false,"is_disabled":false,"rental_uris":{"android":"levelo://app?vid=3cb69089-2daf-46be-bd32-51ff7c39298a","ios":"levelo://app?vid=3cb69089-2daf-46be-bd32-51ff7c39298a"},"vehicle_type_id":"4","last_reported":1727471270,"current_range_meters":38800,"station_id":"ce4bhpp2rcd13ifvqhgg","pricing_plan_id":"cebpf4jnsgd1na2vs0mg"},{"bike_id":"ae775227-904a-4704-946a-5e96698aef42","system_id":"levelo_inurba_marseille","lat":43.31895,"lon":5.4073,"is_reserved":false,"is_disabled":false,"rental_uris":{"android":"levelo://app?vid=ae775227-904a-4704-946a-5e96698aef42","ios":"levelo://app?vid=ae775227-904a-4704-946a-5e96698aef42"},"vehicle_type_id":"4","last_reported":1727471270,"current_range_meters":38800,"station_id":"ce4bhq12rcd13ifvqhig","pricing_plan_id":"cebpf4jnsgd1na2vs0mg"},{"bike_id":"d81964e5-3a92-4ac0-9b43-6d28c5ec2056","system_id":"levelo_inurba_marseille","lat":43.27374,"lon":5.36257,"is_reserved":false,"is_disabled":false,"rental_uris":{"android":"levelo://app?vid=d81964e5-3a92-4ac0-9b43-6d28c5ec2056","ios":"levelo://app?vid=d81964e5-3a92-4ac0-9b43-6d28c5ec2056"},"vehicle_type_id":"4","last_reported":1727471270,"current_range_meters":26000,"station_id":"ce4bhbh2rcd13ifvqeo0","pricing_plan_id":"cebpf4jnsgd1na2vs0mg"},{"bike_id":"14fe3526-07d9-4556-9ad8-583f52b87286","system_id":"levelo_inurba_marseille","lat":43.293,"lon":5.3747,"is_reserved":false,"is_disabled":false,"rental_uris":{"android":"levelo://app?vid=14fe3526-07d9-4556-9ad8-583f52b87286","ios":"levelo://app?vid=14fe3526-07d9-4556-9ad8-583f52b87286"},"vehicle_type_id":"4","last_reported":1727471270,"current_range_meters":28800,"station_id":"ce4bgi12rcd13ifvqb70","pricing_plan_id":"cebpf4jnsgd1na2vs0mg"},{"bike_id":"a5a94771-7075-4aa1-a214-5d91993d8001","system_id":"levelo_inurba_marseille","lat":43.29531,"lon":5.38541,"is_reserved":false,"is_disabled":false,"rental_uris":{"android":"levelo://app?vid=a5a94771-7075-4aa1-a214-5d91993d8001","ios":"levelo://app?vid=a5a94771-7075-4aa1-a214-5d91993d8001"},"vehicle_type_id":"4","last_reported":1727471270,"current_range_meters":21600,"station_id":"ce4bgih2rcd13ifvqba0","pricing_plan_id":"cebpf4jnsgd1na2vs0mg"},{"bike_id":"cbdd1a1b-a72f-4ef7-aca2-9fcb33cfe7f5","system_id":"levelo_inurba_marseille","lat":43.23956,"lon":5.36631,"is_reserved":false,"is_disabled":false,"rental_uris":{"android":"levelo://app?vid=cbdd1a1b-a72f-4ef7-aca2-9fcb33cfe7f5","ios":"levelo://app?vid=cbdd1a1b-a72f-4ef7-aca2-9fcb33cfe7f5"},"vehicle_type_id":"4","last_reported":1727471270,"current_range_meters":38800,"station_id":"ce4bhi12rcd13ifvqfp0","pricing_plan_id":"cebpf4jnsgd1na2vs0mg"},{"bike_id":"9f32ddf0-9a46-4a22-8915-f848ae86da18","system_id":"levelo_inurba_marseille","lat":43.304657,"lon":5.379081,"is_reserved":false,"is_disabled":false,"rental_uris":{"android":"levelo://app?vid=9f32ddf0-9a46-4a22-8915-f848ae86da18","ios":"levelo://app?vid=9f32ddf0-9a46-4a22-8915-f848ae86da18"},"vehicle_type_id":"4","last_reported":1727471270,"current_range_meters":30000,"station_id":"ce4bgup2rcd13ifvqcn0","pricing_plan_id":"cebpf4jnsgd1na2vs0mg"},{"bike_id":"e916024d-0c3b-4b92-aa97-6379b114f7e5","system_id":"levelo_inurba_marseille","lat":43.29909,"lon":5.37475,"is_reserved":false,"is_disabled":false,"rental_uris":{"android":"levelo://app?vid=e916024d-0c3b-4b92-aa97-6379b114f7e5","ios":"levelo://app?vid=e916024d-0c3b-4b92-aa97-6379b114f7e5"},"vehicle_type_id":"4","last_reported":1727471270,"current_range_meters":38800,"station_id":"ce4bgjh2rcd13ifvqbg0","pricing_plan_id":"cebpf4jnsgd1na2vs0mg"},{"bike_id":"7f69ca80-75df-48f2-bb1f-0538a5873337","system_id":"levelo_inurba_marseille","lat":43.28272,"lon":5.3508,"is_reserved":false,"is_disabled":false,"rental_uris":{"android":"levelo://app?vid=7f69ca80-75df-48f2-bb1f-0538a5873337","ios":"levelo://app?vid=7f69ca80-75df-48f2-bb1f-0538a5873337"},"vehicle_type_id":"4","last_reported":1727471270,"current_range_meters":10000,"station_id":"ce4bhbp2rcd13ifvqerg","pricing_plan_id":"cebpf4jnsgd1na2vs0mg"},{"bike_id":"9b31f7c2-4582-439a-99c5-8be874a75c71","system_id":"levelo_inurba_marseille","lat":43.30958,"lon":5.39045,"is_reserved":false,"is_disabled":false,"rental_uris":{"android":"levelo://app?vid=9b31f7c2-4582-439a-99c5-8be874a75c71","ios":"levelo://app?vid=9b31f7c2-4582-439a-99c5-8be874a75c71"},"vehicle_type_id":"4","last_reported":1727471270,"current_range_meters":36800,"station_id":"ce4bgup2rcd13ifvqco0","pricing_plan_id":"cebpf4jnsgd1na2vs0mg"},{"bike_id":"392bd197-a326-46b1-b4a8-a55f93e1327d","system_id":"levelo_inurba_marseille","lat":43.23188,"lon":5.3998,"is_reserved":false,"is_disabled":false,"rental_uris":{"android":"levelo://app?vid=392bd197-a326-46b1-b4a8-a55f93e1327d","ios":"levelo://app?vid=392bd197-a326-46b1-b4a8-a55f93e1327d"},"vehicle_type_id":"4","last_reported":1727471270,"current_range_meters":18800,"station_id":"ce4bhn12rcd13ifvqgqg","pricing_plan_id":"cebpf4jnsgd1na2vs0mg"},{"bike_id":"a15b60e8-4cb4-4798-8949-e232ce39b91f","system_id":"levelo_inurba_marseille","lat":43.23185,"lon":5.3998,"is_reserved":false,"is_disabled":false,"rental_uris":{"android":"levelo://app?vid=a15b60e8-4cb4-4798-8949-e232ce39b91f","ios":"levelo://app?vid=a15b60e8-4cb4-4798-8949-e232ce39b91f"},"vehicle_type_id":"4","last_reported":1727471270,"current_range_meters":39200,"station_id":"ce4bhn12rcd13ifvqgqg","pricing_plan_id":"cebpf4jnsgd1na2vs0mg"},{"bike_id":"4d797336-783c-447d-a64e-d392f4d09aca","system_id":"levelo_inurba_marseille","lat":43.2953,"lon":5.38544,"is_reserved":false,"is_disabled":false,"rental_uris":{"android":"levelo://app?vid=4d797336-783c-447d-a64e-d392f4d09aca","ios":"levelo://app?vid=4d797336-783c-447d-a64e-d392f4d09aca"},"vehicle_type_id":"4","last_reported":1727471270,"current_range_meters":22800,"station_id":"ce4bgih2rcd13ifvqba0","pricing_plan_id":"cebpf4jnsgd1na2vs0mg"},{"bike_id":"17291eee-f1e8-444f-897d-64236aae520c","system_id":"levelo_inurba_marseille","lat":43.27367,"lon":5.36263,"is_reserved":false,"is_disabled":false,"rental_uris":{"android":"levelo://app?vid=17291eee-f1e8-444f-897d-64236aae520c","ios":"levelo://app?vid=17291eee-f1e8-444f-897d-64236aae520c"},"vehicle_type_id":"4","last_reported":1727471270,"current_range_meters":32400,"station_id":"ce4bhbh2rcd13ifvqeo0","pricing_plan_id":"cebpf4jnsgd1na2vs0mg"},{"bike_id":"c46caf16-9c18-4371-ac6c-67d2248af867","system_id":"levelo_inurba_marseille","lat":43.28655,"lon":5.3636,"is_reserved":false,"is_disabled":false,"rental_uris":{"android":"levelo://app?vid=c46caf16-9c18-4371-ac6c-67d2248af867","ios":"levelo://app?vid=c46caf16-9c18-4371-ac6c-67d2248af867"},"vehicle_type_id":"4","last_reported":1727471270,"current_range_meters":28800,"station_id":"ce4bhah2rcd13ifvqej0","pricing_plan_id":"cebpf4jnsgd1na2vs0mg"},{"bike_id":"552f669a-f86f-412d-81f3-4e8a07f1d4c1","system_id":"levelo_inurba_marseille","lat":43.31103,"lon":5.37771,"is_reserved":false,"is_disabled":false,"rental_uris":{"android":"levelo://app?vid=552f669a-f86f-412d-81f3-4e8a07f1d4c1","ios":"levelo://app?vid=552f669a-f86f-412d-81f3-4e8a07f1d4c1"},"vehicle_type_id":"4","last_reported":1727471270,"current_range_meters":30400,"station_id":"ce4bgt92rcd13ifvqcg0","pricing_plan_id":"cebpf4jnsgd1na2vs0mg"},{"bike_id":"10c19128-3461-4adb-9688-36daa4853384","system_id":"levelo_inurba_marseille","lat":43.2999,"lon":5.38478,"is_reserved":false,"is_disabled":false,"rental_uris":{"android":"levelo://app?vid=10c19128-3461-4adb-9688-36daa4853384","ios":"levelo://app?vid=10c19128-3461-4adb-9688-36daa4853384"},"vehicle_type_id":"4","last_reported":1727471270,"current_range_meters":6400,"station_id":"ce4bgj92rcd13ifvqbd0","pricing_plan_id":"cebpf4jnsgd1na2vs0mg"},{"bike_id":"cca55aa7-3310-4736-b9da-84e54c5441c0","system_id":"levelo_inurba_marseille","lat":43.27839,"lon":5.39208,"is_reserved":false,"is_disabled":false,"rental_uris":{"android":"levelo://app?vid=cca55aa7-3310-4736-b9da-84e54c5441c0","ios":"levelo://app?vid=cca55aa7-3310-4736-b9da-84e54c5441c0"},"vehicle_type_id":"4","last_reported":1727471270,"current_range_meters":34000,"station_id":"ce4bhjp2rcd13ifvqga0","pricing_plan_id":"cebpf4jnsgd1na2vs0mg"},{"bike_id":"3c2c7e50-6d39-4bed-b33b-e8f80fbce49a","system_id":"levelo_inurba_marseille","lat":43.296059,"lon":5.376622,"is_reserved":false,"is_disabled":false,"rental_uris":{"android":"levelo://app?vid=3c2c7e50-6d39-4bed-b33b-e8f80fbce49a","ios":"levelo://app?vid=3c2c7e50-6d39-4bed-b33b-e8f80fbce49a"},"vehicle_type_id":"4","last_reported":1727471270,"current_range_meters":23200,"station_id":"ce4bgh92rcd13ifvqb50","pricing_plan_id":"cebpf4jnsgd1na2vs0mg"},{"bike_id":"c30853c8-b61a-4085-98d1-cc2786e876c2","system_id":"levelo_inurba_marseille","lat":43.31326,"lon":5.39693,"is_reserved":false,"is_disabled":false,"rental_uris":{"android":"levelo://app?vid=c30853c8-b61a-4085-98d1-cc2786e876c2","ios":"levelo://app?vid=c30853c8-b61a-4085-98d1-cc2786e876c2"},"vehicle_type_id":"4","last_reported":1727471270,"current_range_meters":39200,"station_id":"ce4bgvp2rcd13ifvqcu0","pricing_plan_id":"cebpf4jnsgd1na2vs0mg"},{"bike_id":"638c8d28-034f-42f3-a51f-cd96f91eef50","system_id":"levelo_inurba_marseille","lat":43.31186,"lon":5.38716,"is_reserved":false,"is_disabled":false,"rental_uris":{"android":"levelo://app?vid=638c8d28-034f-42f3-a51f-cd96f91eef50","ios":"levelo://app?vid=638c8d28-034f-42f3-a51f-cd96f91eef50"},"vehicle_type_id":"4","last_reported":1727471270,"current_range_meters":38800,"station_id":"ce4bgv12rcd13ifvqcp0","pricing_plan_id":"cebpf4jnsgd1na2vs0mg"},{"bike_id":"6bdba3f7-438d-4941-94ae-1fa8a6dc5dc8","system_id":"levelo_inurba_marseille","lat":43.30948,"lon":5.3903,"is_reserved":false,"is_disabled":false,"rental_uris":{"android":"levelo://app?vid=6bdba3f7-438d-4941-94ae-1fa8a6dc5dc8","ios":"levelo://app?vid=6bdba3f7-438d-4941-94ae-1fa8a6dc5dc8"},"vehicle_type_id":"4","last_reported":1727471270,"current_range_meters":18000,"station_id":"ce4bgup2rcd13ifvqco0","pricing_plan_id":"cebpf4jnsgd1na2vs0mg"},{"bike_id":"f1cff38b-7529-43da-8edf-a17851036559","system_id":"levelo_inurba_marseille","lat":43.32659,"lon":5.41003,"is_reserved":false,"is_disabled":false,"rental_uris":{"android":"levelo://app?vid=f1cff38b-7529-43da-8edf-a17851036559","ios":"levelo://app?vid=f1cff38b-7529-43da-8edf-a17851036559"},"vehicle_type_id":"4","last_reported":1727471270,"current_range_meters":14000,"station_id":"ce4bhpp2rcd13ifvqhgg","pricing_plan_id":"cebpf4jnsgd1na2vs0mg"},{"bike_id":"72542db3-4c6d-492f-876f-3d9b0294e129","system_id":"levelo_inurba_marseille","lat":43.30188,"lon":5.39385,"is_reserved":false,"is_disabled":false,"rental_uris":{"android":"levelo://app?vid=72542db3-4c6d-492f-876f-3d9b0294e129","ios":"levelo://app?vid=72542db3-4c6d-492f-876f-3d9b0294e129"},"vehicle_type_id":"4","last_reported":1727471270,"current_range_meters":23200,"station_id":"ce4bh092rcd13ifvqd20","pricing_plan_id":"cebpf4jnsgd1na2vs0mg"},{"bike_id":"0a8fe6ef-f5da-4b08-a547-2fc6dee7de76","system_id":"levelo_inurba_marseille","lat":43.33739,"lon":5.37468,"is_reserved":false,"is_disabled":false,"rental_uris":{"android":"levelo://app?vid=0a8fe6ef-f5da-4b08-a547-2fc6dee7de76","ios":"levelo://app?vid=0a8fe6ef-f5da-4b08-a547-2fc6dee7de76"},"vehicle_type_id":"4","last_reported":1727471270,"current_range_meters":28000,"station_id":"","pricing_plan_id":"cebpf4jnsgd1na2vs0mg"},{"bike_id":"dff0402b-c06a-413c-b7ed-d9c1c9760eed","system_id":"levelo_inurba_marseille","lat":43.29264,"lon":5.38482,"is_reserved":false,"is_disabled":false,"rental_uris":{"android":"levelo://app?vid=dff0402b-c06a-413c-b7ed-d9c1c9760eed","ios":"levelo://app?vid=dff0402b-c06a-413c-b7ed-d9c1c9760eed"},"vehicle_type_id":"4","last_reported":1727471270,"current_range_meters":8000,"station_id":"ce4bh0p2rcd13ifvqd70","pricing_plan_id":"cebpf4jnsgd1na2vs0mg"},{"bike_id":"aa11dc64-e890-490e-ba81-00fbd2e953c7","system_id":"levelo_inurba_marseille","lat":43.28037,"lon":5.36943,"is_reserved":false,"is_disabled":false,"rental_uris":{"android":"levelo://app?vid=aa11dc64-e890-490e-ba81-00fbd2e953c7","ios":"levelo://app?vid=aa11dc64-e890-490e-ba81-00fbd2e953c7"},"vehicle_type_id":"4","last_reported":1727471270,"current_range_meters":26800,"station_id":"ce4bha12rcd13ifvqef0","pricing_plan_id":"cebpf4jnsgd1na2vs0mg"},{"bike_id":"3cf37303-dcc0-4527-9681-da057998c025","system_id":"levelo_inurba_marseille","lat":43.29582,"lon":5.36746,"is_reserved":false,"is_disabled":false,"rental_uris":{"android":"levelo://app?vid=3cf37303-dcc0-4527-9681-da057998c025","ios":"levelo://app?vid=3cf37303-dcc0-4527-9681-da057998c025"},"vehicle_type_id":"4","last_reported":1727471270,"current_range_meters":4800,"station_id":"ce4bgph2rcd13ifvqc2g","pricing_plan_id":"cebpf4jnsgd1na2vs0mg"},{"bike_id":"ae9abc3a-92f5-4526-b792-0cf3e53de28a","system_id":"levelo_inurba_marseille","lat":43.30887,"lon":5.39633,"is_reserved":false,"is_disabled":false,"rental_uris":{"android":"levelo://app?vid=ae9abc3a-92f5-4526-b792-0cf3e53de28a","ios":"levelo://app?vid=ae9abc3a-92f5-4526-b792-0cf3e53de28a"},"vehicle_type_id":"4","last_reported":1727471270,"current_range_meters":38800,"station_id":"ce4bh012rcd13ifvqcv0","pricing_plan_id":"cebpf4jnsgd1na2vs0mg"},{"bike_id":"bd16a845-bf77-4e2a-81a7-35af2fea6e43","system_id":"levelo_inurba_marseille","lat":43.28842,"lon":5.35845,"is_reserved":false,"is_disabled":false,"rental_uris":{"android":"levelo://app?vid=bd16a845-bf77-4e2a-81a7-35af2fea6e43","ios":"levelo://app?vid=bd16a845-bf77-4e2a-81a7-35af2fea6e43"},"vehicle_type_id":"4","last_reported":1727471270,"current_range_meters":12400,"station_id":"ce4bhb12rcd13ifvqem0","pricing_plan_id":"cebpf4jnsgd1na2vs0mg"},{"bike_id":"3060ef89-a6f7-47c9-af04-12c38d1c0866","system_id":"levelo_inurba_marseille","lat":43.23182,"lon":5.39991,"is_reserved":false,"is_disabled":false,"rental_uris":{"android":"levelo://app?vid=3060ef89-a6f7-47c9-af04-12c38d1c0866","ios":"levelo://app?vid=3060ef89-a6f7-47c9-af04-12c38d1c0866"},"vehicle_type_id":"4","last_reported":1727471270,"current_range_meters":38800,"station_id":"ce4bhn12rcd13ifvqgqg","pricing_plan_id":"cebpf4jnsgd1na2vs0mg"},{"bike_id":"fdc23bf6-d5b5-40e8-bb72-2ff53bc44dc8","system_id":"levelo_inurba_marseille","lat":43.258457,"lon":5.394426,"is_reserved":false,"is_disabled":false,"rental_uris":{"android":"levelo://app?vid=fdc23bf6-d5b5-40e8-bb72-2ff53bc44dc8","ios":"levelo://app?vid=fdc23bf6-d5b5-40e8-bb72-2ff53bc44dc8"},"vehicle_type_id":"4","last_reported":1727471270,"current_range_meters":38800,"station_id":"ce4bhip2rcd13ifvqft0","pricing_plan_id":"cebpf4jnsgd1na2vs0mg"},{"bike_id":"f04e816e-e3e5-4e57-af41-f0c1c7f8e8d3","system_id":"levelo_inurba_marseille","lat":43.29556,"lon":5.42293,"is_reserved":false,"is_disabled":false,"rental_uris":{"android":"levelo://app?vid=f04e816e-e3e5-4e57-af41-f0c1c7f8e8d3","ios":"levelo://app?vid=f04e816e-e3e5-4e57-af41-f0c1c7f8e8d3"},"vehicle_type_id":"4","last_reported":1727471270,"current_range_meters":24000,"station_id":"ce4bhph2rcd13ifvqhdg","pricing_plan_id":"cebpf4jnsgd1na2vs0mg"},{"bike_id":"2518beeb-aa4d-4ae9-8b00-6699b61b3d02","system_id":"levelo_inurba_marseille","lat":43.30419,"lon":5.39757,"is_reserved":false,"is_disabled":false,"rental_uris":{"android":"levelo://app?vid=2518beeb-aa4d-4ae9-8b00-6699b61b3d02","ios":"levelo://app?vid=2518beeb-aa4d-4ae9-8b00-6699b61b3d02"},"vehicle_type_id":"4","last_reported":1727471270,"current_range_meters":29600,"station_id":"ce4bh092rcd13ifvqd20","pricing_plan_id":"cebpf4jnsgd1na2vs0mg"},{"bike_id":"9a2a74c1-9004-4e29-a710-8cfcc2d20f12","system_id":"levelo_inurba_marseille","lat":43.28462,"lon":5.35887,"is_reserved":false,"is_disabled":false,"rental_uris":{"android":"levelo://app?vid=9a2a74c1-9004-4e29-a710-8cfcc2d20f12","ios":"levelo://app?vid=9a2a74c1-9004-4e29-a710-8cfcc2d20f12"},"vehicle_type_id":"4","last_reported":1727471270,"current_range_meters":24000,"station_id":"ce4bhah2rcd13ifvqei0","pricing_plan_id":"cebpf4jnsgd1na2vs0mg"},{"bike_id":"082dd033-1d2e-4aad-abef-8710026c02a2","system_id":"levelo_inurba_marseille","lat":43.31277,"lon":5.40172,"is_reserved":false,"is_disabled":false,"rental_uris":{"android":"levelo://app?vid=082dd033-1d2e-4aad-abef-8710026c02a2","ios":"levelo://app?vid=082dd033-1d2e-4aad-abef-8710026c02a2"},"vehicle_type_id":"4","last_reported":1727471270,"current_range_meters":28000,"station_id":"ce4bh092rcd13ifvqd30","pricing_plan_id":"cebpf4jnsgd1na2vs0mg"},{"bike_id":"ca3d8056-9f8b-4403-9a39-7b427c8e2bcb","system_id":"levelo_inurba_marseille","lat":43.3361,"lon":5.4103,"is_reserved":false,"is_disabled":false,"rental_uris":{"android":"levelo://app?vid=ca3d8056-9f8b-4403-9a39-7b427c8e2bcb","ios":"levelo://app?vid=ca3d8056-9f8b-4403-9a39-7b427c8e2bcb"},"vehicle_type_id":"4","last_reported":1727471270,"current_range_meters":38800,"station_id":"ce4bhqh2rcd13ifvqhmg","pricing_plan_id":"cebpf4jnsgd1na2vs0mg"},{"bike_id":"de34854c-1434-4e41-a756-ebdc6f7ad715","system_id":"levelo_inurba_marseille","lat":43.29535,"lon":5.38542,"is_reserved":false,"is_disabled":false,"rental_uris":{"android":"levelo://app?vid=de34854c-1434-4e41-a756-ebdc6f7ad715","ios":"levelo://app?vid=de34854c-1434-4e41-a756-ebdc6f7ad715"},"vehicle_type_id":"4","last_reported":1727471270,"current_range_meters":8000,"station_id":"ce4bgih2rcd13ifvqba0","pricing_plan_id":"cebpf4jnsgd1na2vs0mg"},{"bike_id":"cf5aef97-52c0-4266-9dc2-63884b834b5b","system_id":"levelo_inurba_marseille","lat":43.30952,"lon":5.3904,"is_reserved":false,"is_disabled":false,"rental_uris":{"android":"levelo://app?vid=cf5aef97-52c0-4266-9dc2-63884b834b5b","ios":"levelo://app?vid=cf5aef97-52c0-4266-9dc2-63884b834b5b"},"vehicle_type_id":"4","last_reported":1727471270,"current_range_meters":6000,"station_id":"ce4bgup2rcd13ifvqco0","pricing_plan_id":"cebpf4jnsgd1na2vs0mg"},{"bike_id":"ab2feb23-4a73-4605-8279-f110cab2ed2c","system_id":"levelo_inurba_marseille","lat":43.3095,"lon":5.39042,"is_reserved":false,"is_disabled":false,"rental_uris":{"android":"levelo://app?vid=ab2feb23-4a73-4605-8279-f110cab2ed2c","ios":"levelo://app?vid=ab2feb23-4a73-4605-8279-f110cab2ed2c"},"vehicle_type_id":"4","last_reported":1727471270,"current_range_meters":8400,"station_id":"ce4bgup2rcd13ifvqco0","pricing_plan_id":"cebpf4jnsgd1na2vs0mg"},{"bike_id":"d8f796e3-24cd-492a-a841-9234a782c30f","system_id":"levelo_inurba_marseille","lat":43.29524,"lon":5.38537,"is_reserved":false,"is_disabled":false,"rental_uris":{"android":"levelo://app?vid=d8f796e3-24cd-492a-a841-9234a782c30f","ios":"levelo://app?vid=d8f796e3-24cd-492a-a841-9234a782c30f"},"vehicle_type_id":"4","last_reported":1727471270,"current_range_meters":20400,"station_id":"ce4bgih2rcd13ifvqba0","pricing_plan_id":"cebpf4jnsgd1na2vs0mg"},{"bike_id":"59a9c144-5024-426f-9bc5-539fed00e4e2","system_id":"levelo_inurba_marseille","lat":43.27378,"lon":5.36257,"is_reserved":false,"is_disabled":false,"rental_uris":{"android":"levelo://app?vid=59a9c144-5024-426f-9bc5-539fed00e4e2","ios":"levelo://app?vid=59a9c144-5024-426f-9bc5-539fed00e4e2"},"vehicle_type_id":"4","last_reported":1727471270,"current_range_meters":8000,"station_id":"ce4bhbh2rcd13ifvqeo0","pricing_plan_id":"cebpf4jnsgd1na2vs0mg"},{"bike_id":"c11b8486-16ac-4a3c-b98d-8fde0f4e1b4e","system_id":"levelo_inurba_marseille","lat":43.32294,"lon":5.38261,"is_reserved":false,"is_disabled":false,"rental_uris":{"android":"levelo://app?vid=c11b8486-16ac-4a3c-b98d-8fde0f4e1b4e","ios":"levelo://app?vid=c11b8486-16ac-4a3c-b98d-8fde0f4e1b4e"},"vehicle_type_id":"4","last_reported":1727471270,"current_range_meters":38800,"station_id":"ce4bhr12rcd13ifvqhqg","pricing_plan_id":"cebpf4jnsgd1na2vs0mg"},{"bike_id":"ff268b1c-bebe-498f-b18d-8af92a58eab5","system_id":"levelo_inurba_marseille","lat":43.25825,"lon":5.39436,"is_reserved":false,"is_disabled":false,"rental_uris":{"android":"levelo://app?vid=ff268b1c-bebe-498f-b18d-8af92a58eab5","ios":"levelo://app?vid=ff268b1c-bebe-498f-b18d-8af92a58eab5"},"vehicle_type_id":"4","last_reported":1727471270,"current_range_meters":38800,"station_id":"ce4bhip2rcd13ifvqft0","pricing_plan_id":"cebpf4jnsgd1na2vs0mg"},{"bike_id":"cd9d20f8-e1e6-46ff-a0df-9e27f06f3539","system_id":"levelo_inurba_marseille","lat":43.31888,"lon":5.4073,"is_reserved":false,"is_disabled":false,"rental_uris":{"android":"levelo://app?vid=cd9d20f8-e1e6-46ff-a0df-9e27f06f3539","ios":"levelo://app?vid=cd9d20f8-e1e6-46ff-a0df-9e27f06f3539"},"vehicle_type_id":"4","last_reported":1727471270,"current_range_meters":18800,"station_id":"ce4bhq12rcd13ifvqhig","pricing_plan_id":"cebpf4jnsgd1na2vs0mg"},{"bike_id":"00eade19-1a24-4683-a566-4392a012b7aa","system_id":"levelo_inurba_marseille","lat":43.31707,"lon":5.37755,"is_reserved":false,"is_disabled":false,"rental_uris":{"android":"levelo://app?vid=00eade19-1a24-4683-a566-4392a012b7aa","ios":"levelo://app?vid=00eade19-1a24-4683-a566-4392a012b7aa"},"vehicle_type_id":"4","last_reported":1727471270,"current_range_meters":10000,"station_id":"ce4bgth2rcd13ifvqch0","pricing_plan_id":"cebpf4jnsgd1na2vs0mg"},{"bike_id":"201177f7-715a-4950-b83b-63c9af4c250f","system_id":"levelo_inurba_marseille","lat":43.23183,"lon":5.39987,"is_reserved":false,"is_disabled":false,"rental_uris":{"android":"levelo://app?vid=201177f7-715a-4950-b83b-63c9af4c250f","ios":"levelo://app?vid=201177f7-715a-4950-b83b-63c9af4c250f"},"vehicle_type_id":"4","last_reported":1727471270,"current_range_meters":38400,"station_id":"ce4bhn12rcd13ifvqgqg","pricing_plan_id":"cebpf4jnsgd1na2vs0mg"},{"bike_id":"d775db31-7730-4a49-8dd7-f1f6bc7391c4","system_id":"levelo_inurba_marseille","lat":43.25114,"lon":5.40322,"is_reserved":false,"is_disabled":false,"rental_uris":{"android":"levelo://app?vid=d775db31-7730-4a49-8dd7-f1f6bc7391c4","ios":"levelo://app?vid=d775db31-7730-4a49-8dd7-f1f6bc7391c4"},"vehicle_type_id":"4","last_reported":1727471270,"current_range_meters":9600,"station_id":"ce4bhlh2rcd13ifvqgig","pricing_plan_id":"cebpf4jnsgd1na2vs0mg"},{"bike_id":"ec8fde83-0f24-4850-8976-43e98a5611e2","system_id":"levelo_inurba_marseille","lat":43.30881,"lon":5.39639,"is_reserved":false,"is_disabled":false,"rental_uris":{"android":"levelo://app?vid=ec8fde83-0f24-4850-8976-43e98a5611e2","ios":"levelo://app?vid=ec8fde83-0f24-4850-8976-43e98a5611e2"},"vehicle_type_id":"4","last_reported":1727471270,"current_range_meters":14000,"station_id":"ce4bh012rcd13ifvqcv0","pricing_plan_id":"cebpf4jnsgd1na2vs0mg"},{"bike_id":"36536e9c-3c7d-4e18-a69c-470f93d0ed90","system_id":"levelo_inurba_marseille","lat":43.30811,"lon":5.38133,"is_reserved":false,"is_disabled":false,"rental_uris":{"android":"levelo://app?vid=36536e9c-3c7d-4e18-a69c-470f93d0ed90","ios":"levelo://app?vid=36536e9c-3c7d-4e18-a69c-470f93d0ed90"},"vehicle_type_id":"4","last_reported":1727471270,"current_range_meters":35600,"station_id":"ce4bgt12rcd13ifvqce0","pricing_plan_id":"cebpf4jnsgd1na2vs0mg"},{"bike_id":"7502a70d-09ae-49aa-b77c-162194d62693","system_id":"levelo_inurba_marseille","lat":43.31685,"lon":5.40477,"is_reserved":false,"is_disabled":false,"rental_uris":{"android":"levelo://app?vid=7502a70d-09ae-49aa-b77c-162194d62693","ios":"levelo://app?vid=7502a70d-09ae-49aa-b77c-162194d62693"},"vehicle_type_id":"4","last_reported":1727471270,"current_range_meters":24000,"station_id":"ce4bh012rcd13ifvqd00","pricing_plan_id":"cebpf4jnsgd1na2vs0mg"},{"bike_id":"de24970a-506a-4fc7-98b3-d6cfa3e24e86","system_id":"levelo_inurba_marseille","lat":43.23154,"lon":5.43708,"is_reserved":false,"is_disabled":false,"rental_uris":{"android":"levelo://app?vid=de24970a-506a-4fc7-98b3-d6cfa3e24e86","ios":"levelo://app?vid=de24970a-506a-4fc7-98b3-d6cfa3e24e86"},"vehicle_type_id":"4","last_reported":1727471270,"current_range_meters":19600,"station_id":"ce4bhmp2rcd13ifvqgog","pricing_plan_id":"cebpf4jnsgd1na2vs0mg"},{"bike_id":"c919de42-000b-4418-9f54-e3e7583c9641","system_id":"levelo_inurba_marseille","lat":43.30951,"lon":5.39041,"is_reserved":false,"is_disabled":false,"rental_uris":{"android":"levelo://app?vid=c919de42-000b-4418-9f54-e3e7583c9641","ios":"levelo://app?vid=c919de42-000b-4418-9f54-e3e7583c9641"},"vehicle_type_id":"4","last_reported":1727471270,"current_range_meters":6400,"station_id":"ce4bgup2rcd13ifvqco0","pricing_plan_id":"cebpf4jnsgd1na2vs0mg"},{"bike_id":"8361c707-238b-41e9-8906-ccd16435a47e","system_id":"levelo_inurba_marseille","lat":43.29165,"lon":5.37163,"is_reserved":false,"is_disabled":false,"rental_uris":{"android":"levelo://app?vid=8361c707-238b-41e9-8906-ccd16435a47e","ios":"levelo://app?vid=8361c707-238b-41e9-8906-ccd16435a47e"},"vehicle_type_id":"4","last_reported":1727471270,"current_range_meters":36000,"station_id":"ce4bha92rcd13ifvqeh0","pricing_plan_id":"cebpf4jnsgd1na2vs0mg"},{"bike_id":"44780300-b714-479e-847f-60861740c23a","system_id":"levelo_inurba_marseille","lat":43.2952,"lon":5.38546,"is_reserved":false,"is_disabled":false,"rental_uris":{"android":"levelo://app?vid=44780300-b714-479e-847f-60861740c23a","ios":"levelo://app?vid=44780300-b714-479e-847f-60861740c23a"},"vehicle_type_id":"4","last_reported":1727471270,"current_range_meters":3600,"station_id":"ce4bgih2rcd13ifvqba0","pricing_plan_id":"cebpf4jnsgd1na2vs0mg"},{"bike_id":"f0ba53ed-5a22-41f0-a70c-9a63dc1f8750","system_id":"levelo_inurba_marseille","lat":43.29443,"lon":5.39749,"is_reserved":false,"is_disabled":false,"rental_uris":{"android":"levelo://app?vid=f0ba53ed-5a22-41f0-a70c-9a63dc1f8750","ios":"levelo://app?vid=f0ba53ed-5a22-41f0-a70c-9a63dc1f8750"},"vehicle_type_id":"4","last_reported":1727471270,"current_range_meters":16000,"station_id":"ce4bh3h2rcd13ifvqdo0","pricing_plan_id":"cebpf4jnsgd1na2vs0mg"},{"bike_id":"38cfc844-e642-4408-89bf-d0ba1f3ff0b7","system_id":"levelo_inurba_marseille","lat":43.31715,"lon":5.43708,"is_reserved":false,"is_disabled":false,"rental_uris":{"android":"levelo://app?vid=38cfc844-e642-4408-89bf-d0ba1f3ff0b7","ios":"levelo://app?vid=38cfc844-e642-4408-89bf-d0ba1f3ff0b7"},"vehicle_type_id":"4","last_reported":1727471270,"current_range_meters":8800,"station_id":"ce4bhp92rcd13ifvqhcg","pricing_plan_id":"cebpf4jnsgd1na2vs0mg"},{"bike_id":"6659aaa2-0a6b-4ea0-898c-7a312e18b29c","system_id":"levelo_inurba_marseille","lat":43.294321,"lon":5.397527,"is_reserved":false,"is_disabled":false,"rental_uris":{"android":"levelo://app?vid=6659aaa2-0a6b-4ea0-898c-7a312e18b29c","ios":"levelo://app?vid=6659aaa2-0a6b-4ea0-898c-7a312e18b29c"},"vehicle_type_id":"4","last_reported":1727471270,"current_range_meters":27600,"station_id":"ce4bh3h2rcd13ifvqdo0","pricing_plan_id":"cebpf4jnsgd1na2vs0mg"},{"bike_id":"21cd9748-3292-44f5-9949-31b4e3d04086","system_id":"levelo_inurba_marseille","lat":43.31274,"lon":5.40166,"is_reserved":false,"is_disabled":false,"rental_uris":{"android":"levelo://app?vid=21cd9748-3292-44f5-9949-31b4e3d04086","ios":"levelo://app?vid=21cd9748-3292-44f5-9949-31b4e3d04086"},"vehicle_type_id":"4","last_reported":1727471270,"current_range_meters":39200,"station_id":"ce4bh092rcd13ifvqd30","pricing_plan_id":"cebpf4jnsgd1na2vs0mg"},{"bike_id":"0deb0198-7529-4419-8cbd-c256d5c93e93","system_id":"levelo_inurba_marseille","lat":43.22928,"lon":5.3538,"is_reserved":false,"is_disabled":false,"rental_uris":{"android":"levelo://app?vid=0deb0198-7529-4419-8cbd-c256d5c93e93","ios":"levelo://app?vid=0deb0198-7529-4419-8cbd-c256d5c93e93"},"vehicle_type_id":"4","last_reported":1727471270,"current_range_meters":8400,"station_id":"cpo3532slgdg3j2ikp40","pricing_plan_id":"cebpf4jnsgd1na2vs0mg"},{"bike_id":"5d29a22e-0930-4efc-afba-d9beedccf2ca","system_id":"levelo_inurba_marseille","lat":43.28155,"lon":5.42645,"is_reserved":false,"is_disabled":false,"rental_uris":{"android":"levelo://app?vid=5d29a22e-0930-4efc-afba-d9beedccf2ca","ios":"levelo://app?vid=5d29a22e-0930-4efc-afba-d9beedccf2ca"},"vehicle_type_id":"4","last_reported":1727471270,"current_range_meters":24800,"station_id":"ce4bhnh2rcd13ifvqgug","pricing_plan_id":"cebpf4jnsgd1na2vs0mg"},{"bike_id":"05988e3e-038e-43ea-b496-4840ac2f1b6c","system_id":"levelo_inurba_marseille","lat":43.2957,"lon":5.37515,"is_reserved":false,"is_disabled":false,"rental_uris":{"android":"levelo://app?vid=05988e3e-038e-43ea-b496-4840ac2f1b6c","ios":"levelo://app?vid=05988e3e-038e-43ea-b496-4840ac2f1b6c"},"vehicle_type_id":"4","last_reported":1727471270,"current_range_meters":36400,"station_id":"ce4bgh92rcd13ifvqb50","pricing_plan_id":"cebpf4jnsgd1na2vs0mg"},{"bike_id":"be905bd4-7795-45df-9780-ccf6138e2d68","system_id":"levelo_inurba_marseille","lat":43.27836,"lon":5.39205,"is_reserved":false,"is_disabled":false,"rental_uris":{"android":"levelo://app?vid=be905bd4-7795-45df-9780-ccf6138e2d68","ios":"levelo://app?vid=be905bd4-7795-45df-9780-ccf6138e2d68"},"vehicle_type_id":"4","last_reported":1727471270,"current_range_meters":15200,"station_id":"ce4bhjp2rcd13ifvqga0","pricing_plan_id":"cebpf4jnsgd1na2vs0mg"},{"bike_id":"744a8639-95a4-41c2-ad17-a874f5318ae5","system_id":"levelo_inurba_marseille","lat":43.29787,"lon":5.39355,"is_reserved":false,"is_disabled":false,"rental_uris":{"android":"levelo://app?vid=744a8639-95a4-41c2-ad17-a874f5318ae5","ios":"levelo://app?vid=744a8639-95a4-41c2-ad17-a874f5318ae5"},"vehicle_type_id":"4","last_reported":1727471270,"current_range_meters":31200,"station_id":"chh1huq6cuj3fo74tm60","pricing_plan_id":"cebpf4jnsgd1na2vs0mg"},{"bike_id":"890e5312-5a29-46c6-899c-214d65651c7a","system_id":"levelo_inurba_marseille","lat":43.28846,"lon":5.35854,"is_reserved":false,"is_disabled":false,"rental_uris":{"android":"levelo://app?vid=890e5312-5a29-46c6-899c-214d65651c7a","ios":"levelo://app?vid=890e5312-5a29-46c6-899c-214d65651c7a"},"vehicle_type_id":"4","last_reported":1727471270,"current_range_meters":9200,"station_id":"ce4bhb12rcd13ifvqem0","pricing_plan_id":"cebpf4jnsgd1na2vs0mg"},{"bike_id":"f14223d1-5311-47c1-bd17-3706a2586972","system_id":"levelo_inurba_marseille","lat":43.31113,"lon":5.3777,"is_reserved":false,"is_disabled":false,"rental_uris":{"android":"levelo://app?vid=f14223d1-5311-47c1-bd17-3706a2586972","ios":"levelo://app?vid=f14223d1-5311-47c1-bd17-3706a2586972"},"vehicle_type_id":"4","last_reported":1727471270,"current_range_meters":38400,"station_id":"ce4bgt92rcd13ifvqcg0","pricing_plan_id":"cebpf4jnsgd1na2vs0mg"},{"bike_id":"fe24a931-4d89-4f16-8cfe-b6d09068c603","system_id":"levelo_inurba_marseille","lat":43.29524,"lon":5.38542,"is_reserved":false,"is_disabled":false,"rental_uris":{"android":"levelo://app?vid=fe24a931-4d89-4f16-8cfe-b6d09068c603","ios":"levelo://app?vid=fe24a931-4d89-4f16-8cfe-b6d09068c603"},"vehicle_type_id":"4","last_reported":1727471270,"current_range_meters":24800,"station_id":"ce4bgih2rcd13ifvqba0","pricing_plan_id":"cebpf4jnsgd1na2vs0mg"},{"bike_id":"b03b328c-4ed1-4944-aa8d-56a203ec6ba6","system_id":"levelo_inurba_marseille","lat":43.290955,"lon":5.381316,"is_reserved":false,"is_disabled":false,"rental_uris":{"android":"levelo://app?vid=b03b328c-4ed1-4944-aa8d-56a203ec6ba6","ios":"levelo://app?vid=b03b328c-4ed1-4944-aa8d-56a203ec6ba6"},"vehicle_type_id":"4","last_reported":1727471270,"current_range_meters":4000,"station_id":"ce4bh512rcd13ifvqe2g","pricing_plan_id":"cebpf4jnsgd1na2vs0mg"},{"bike_id":"bc013da5-5ae4-41c5-b63d-f7a59a7e5346","system_id":"levelo_inurba_marseille","lat":43.28837,"lon":5.35844,"is_reserved":false,"is_disabled":false,"rental_uris":{"android":"levelo://app?vid=bc013da5-5ae4-41c5-b63d-f7a59a7e5346","ios":"levelo://app?vid=bc013da5-5ae4-41c5-b63d-f7a59a7e5346"},"vehicle_type_id":"4","last_reported":1727471270,"current_range_meters":27200,"station_id":"ce4bhb12rcd13ifvqem0","pricing_plan_id":"cebpf4jnsgd1na2vs0mg"},{"bike_id":"0eaceb3e-d0ca-4ba3-95c5-7e8ff87c5c80","system_id":"levelo_inurba_marseille","lat":43.2803,"lon":5.36953,"is_reserved":false,"is_disabled":false,"rental_uris":{"android":"levelo://app?vid=0eaceb3e-d0ca-4ba3-95c5-7e8ff87c5c80","ios":"levelo://app?vid=0eaceb3e-d0ca-4ba3-95c5-7e8ff87c5c80"},"vehicle_type_id":"4","last_reported":1727471270,"current_range_meters":29600,"station_id":"ce4bha12rcd13ifvqef0","pricing_plan_id":"cebpf4jnsgd1na2vs0mg"},{"bike_id":"b69a1842-771f-4ce6-8852-9c10bd48e9ad","system_id":"levelo_inurba_marseille","lat":43.301361,"lon":5.387708,"is_reserved":false,"is_disabled":false,"rental_uris":{"android":"levelo://app?vid=b69a1842-771f-4ce6-8852-9c10bd48e9ad","ios":"levelo://app?vid=b69a1842-771f-4ce6-8852-9c10bd48e9ad"},"vehicle_type_id":"4","last_reported":1727471270,"current_range_meters":24000,"station_id":"ce4bghh2rcd13ifvqb60","pricing_plan_id":"cebpf4jnsgd1na2vs0mg"},{"bike_id":"ae811018-bf5b-4e7e-9168-9173ef4135d6","system_id":"levelo_inurba_marseille","lat":43.28383,"lon":5.37298,"is_reserved":false,"is_disabled":false,"rental_uris":{"android":"levelo://app?vid=ae811018-bf5b-4e7e-9168-9173ef4135d6","ios":"levelo://app?vid=ae811018-bf5b-4e7e-9168-9173ef4135d6"},"vehicle_type_id":"4","last_reported":1727471270,"current_range_meters":19600,"station_id":"","pricing_plan_id":"cebpf4jnsgd1na2vs0mg"},{"bike_id":"adf93a5a-50d7-4c45-b9d5-978abc2565ae","system_id":"levelo_inurba_marseille","lat":43.287247,"lon":5.360669,"is_reserved":false,"is_disabled":false,"rental_uris":{"android":"levelo://app?vid=adf93a5a-50d7-4c45-b9d5-978abc2565ae","ios":"levelo://app?vid=adf93a5a-50d7-4c45-b9d5-978abc2565ae"},"vehicle_type_id":"4","last_reported":1727471270,"current_range_meters":26800,"station_id":"cki0cbj6b192h4jlfktg","pricing_plan_id":"cebpf4jnsgd1na2vs0mg"},{"bike_id":"e270f14e-5ab2-4ca5-a099-caae890f5cd3","system_id":"levelo_inurba_marseille","lat":43.28927,"lon":5.36637,"is_reserved":false,"is_disabled":false,"rental_uris":{"android":"levelo://app?vid=e270f14e-5ab2-4ca5-a099-caae890f5cd3","ios":"levelo://app?vid=e270f14e-5ab2-4ca5-a099-caae890f5cd3"},"vehicle_type_id":"4","last_reported":1727471270,"current_range_meters":23200,"station_id":"ce4bhap2rcd13ifvqek0","pricing_plan_id":"cebpf4jnsgd1na2vs0mg"},{"bike_id":"68fc233c-8a28-4057-a1a0-e032e295ac1d","system_id":"levelo_inurba_marseille","lat":43.29557,"lon":5.42296,"is_reserved":false,"is_disabled":false,"rental_uris":{"android":"levelo://app?vid=68fc233c-8a28-4057-a1a0-e032e295ac1d","ios":"levelo://app?vid=68fc233c-8a28-4057-a1a0-e032e295ac1d"},"vehicle_type_id":"4","last_reported":1727471270,"current_range_meters":28000,"station_id":"ce4bhph2rcd13ifvqhdg","pricing_plan_id":"cebpf4jnsgd1na2vs0mg"},{"bike_id":"786d7c51-ad54-4915-a581-9ec931b004e6","system_id":"levelo_inurba_marseille","lat":43.30785,"lon":5.37657,"is_reserved":false,"is_disabled":false,"rental_uris":{"android":"levelo://app?vid=786d7c51-ad54-4915-a581-9ec931b004e6","ios":"levelo://app?vid=786d7c51-ad54-4915-a581-9ec931b004e6"},"vehicle_type_id":"4","last_reported":1727471270,"current_range_meters":7200,"station_id":"ce4bgv92rcd13ifvqcq0","pricing_plan_id":"cebpf4jnsgd1na2vs0mg"},{"bike_id":"4d1a9658-ee35-422f-a6cb-14259e928eed","system_id":"levelo_inurba_marseille","lat":43.31083,"lon":5.40132,"is_reserved":false,"is_disabled":false,"rental_uris":{"android":"levelo://app?vid=4d1a9658-ee35-422f-a6cb-14259e928eed","ios":"levelo://app?vid=4d1a9658-ee35-422f-a6cb-14259e928eed"},"vehicle_type_id":"4","last_reported":1727471270,"current_range_meters":11600,"station_id":"","pricing_plan_id":"cebpf4jnsgd1na2vs0mg"},{"bike_id":"8c95607a-d68d-4758-8e29-d746ae0f9d56","system_id":"levelo_inurba_marseille","lat":43.30908,"lon":5.36848,"is_reserved":false,"is_disabled":false,"rental_uris":{"android":"levelo://app?vid=8c95607a-d68d-4758-8e29-d746ae0f9d56","ios":"levelo://app?vid=8c95607a-d68d-4758-8e29-d746ae0f9d56"},"vehicle_type_id":"4","last_reported":1727471270,"current_range_meters":37600,"station_id":"ce4bgn92rcd13ifvqbvg","pricing_plan_id":"cebpf4jnsgd1na2vs0mg"},{"bike_id":"ab6ef7e7-468a-469b-94ca-20bcfed3b7e8","system_id":"levelo_inurba_marseille","lat":43.27951,"lon":5.41044,"is_reserved":false,"is_disabled":false,"rental_uris":{"android":"levelo://app?vid=ab6ef7e7-468a-469b-94ca-20bcfed3b7e8","ios":"levelo://app?vid=ab6ef7e7-468a-469b-94ca-20bcfed3b7e8"},"vehicle_type_id":"4","last_reported":1727471270,"current_range_meters":38000,"station_id":"ce4bhnp2rcd13ifvqh0g","pricing_plan_id":"cebpf4jnsgd1na2vs0mg"},{"bike_id":"53c6f2e0-e31f-4bd2-9188-53b83254ae09","system_id":"levelo_inurba_marseille","lat":43.31071,"lon":5.38355,"is_reserved":false,"is_disabled":false,"rental_uris":{"android":"levelo://app?vid=53c6f2e0-e31f-4bd2-9188-53b83254ae09","ios":"levelo://app?vid=53c6f2e0-e31f-4bd2-9188-53b83254ae09"},"vehicle_type_id":"4","last_reported":1727471270,"current_range_meters":6800,"station_id":"ce4bgv92rcd13ifvqcr0","pricing_plan_id":"cebpf4jnsgd1na2vs0mg"},{"bike_id":"83ef2629-081b-4f2e-aa68-4129edd6791e","system_id":"levelo_inurba_marseille","lat":43.29414,"lon":5.38628,"is_reserved":false,"is_disabled":false,"rental_uris":{"android":"levelo://app?vid=83ef2629-081b-4f2e-aa68-4129edd6791e","ios":"levelo://app?vid=83ef2629-081b-4f2e-aa68-4129edd6791e"},"vehicle_type_id":"4","last_reported":1727471270,"current_range_meters":37600,"station_id":"ce4bh2h2rcd13ifvqdh0","pricing_plan_id":"cebpf4jnsgd1na2vs0mg"},{"bike_id":"81c79a4f-3221-46d7-a845-19df991b0567","system_id":"levelo_inurba_marseille","lat":43.24071,"lon":5.37762,"is_reserved":false,"is_disabled":false,"rental_uris":{"android":"levelo://app?vid=81c79a4f-3221-46d7-a845-19df991b0567","ios":"levelo://app?vid=81c79a4f-3221-46d7-a845-19df991b0567"},"vehicle_type_id":"4","last_reported":1727471270,"current_range_meters":28400,"station_id":"ce4bhnp2rcd13ifvqgvg","pricing_plan_id":"cebpf4jnsgd1na2vs0mg"},{"bike_id":"132d8f2a-20f7-4c08-b73f-6c85a3180290","system_id":"levelo_inurba_marseille","lat":43.25827,"lon":5.39418,"is_reserved":false,"is_disabled":false,"rental_uris":{"android":"levelo://app?vid=132d8f2a-20f7-4c08-b73f-6c85a3180290","ios":"levelo://app?vid=132d8f2a-20f7-4c08-b73f-6c85a3180290"},"vehicle_type_id":"4","last_reported":1727471270,"current_range_meters":38800,"station_id":"ce4bhip2rcd13ifvqft0","pricing_plan_id":"cebpf4jnsgd1na2vs0mg"},{"bike_id":"ce13001c-eda7-4717-aac4-68b45e2406a6","system_id":"levelo_inurba_marseille","lat":43.31995,"lon":5.38159,"is_reserved":false,"is_disabled":false,"rental_uris":{"android":"levelo://app?vid=ce13001c-eda7-4717-aac4-68b45e2406a6","ios":"levelo://app?vid=ce13001c-eda7-4717-aac4-68b45e2406a6"},"vehicle_type_id":"4","last_reported":1727471270,"current_range_meters":25600,"station_id":"ce4bhr12rcd13ifvqhpg","pricing_plan_id":"cebpf4jnsgd1na2vs0mg"},{"bike_id":"24feb5ad-6e7e-4661-bebb-8818660b86da","system_id":"levelo_inurba_marseille","lat":43.30957,"lon":5.39046,"is_reserved":false,"is_disabled":false,"rental_uris":{"android":"levelo://app?vid=24feb5ad-6e7e-4661-bebb-8818660b86da","ios":"levelo://app?vid=24feb5ad-6e7e-4661-bebb-8818660b86da"},"vehicle_type_id":"4","last_reported":1727471270,"current_range_meters":25200,"station_id":"ce4bgup2rcd13ifvqco0","pricing_plan_id":"cebpf4jnsgd1na2vs0mg"},{"bike_id":"a6a8658c-f679-4e9f-b123-07188255b169","system_id":"levelo_inurba_marseille","lat":43.2899,"lon":5.37587,"is_reserved":false,"is_disabled":false,"rental_uris":{"android":"levelo://app?vid=a6a8658c-f679-4e9f-b123-07188255b169","ios":"levelo://app?vid=a6a8658c-f679-4e9f-b123-07188255b169"},"vehicle_type_id":"4","last_reported":1727471270,"current_range_meters":31200,"station_id":"ce4bh692rcd13ifvqe90","pricing_plan_id":"cebpf4jnsgd1na2vs0mg"},{"bike_id":"52629250-4c99-46f7-a2e6-b53f3954a15a","system_id":"levelo_inurba_marseille","lat":43.29525,"lon":5.375,"is_reserved":false,"is_disabled":false,"rental_uris":{"android":"levelo://app?vid=52629250-4c99-46f7-a2e6-b53f3954a15a","ios":"levelo://app?vid=52629250-4c99-46f7-a2e6-b53f3954a15a"},"vehicle_type_id":"4","last_reported":1727471270,"current_range_meters":12800,"station_id":"ce4bgkp2rcd13ifvqbmg","pricing_plan_id":"cebpf4jnsgd1na2vs0mg"},{"bike_id":"83e76a84-2383-4a7a-b9ec-95865b1f45cb","system_id":"levelo_inurba_marseille","lat":43.29851,"lon":5.36285,"is_reserved":false,"is_disabled":false,"rental_uris":{"android":"levelo://app?vid=83e76a84-2383-4a7a-b9ec-95865b1f45cb","ios":"levelo://app?vid=83e76a84-2383-4a7a-b9ec-95865b1f45cb"},"vehicle_type_id":"4","last_reported":1727471270,"current_range_meters":38800,"station_id":"ce4bgpp2rcd13ifvqc3g","pricing_plan_id":"cebpf4jnsgd1na2vs0mg"},{"bike_id":"94415f13-7547-4e2b-babc-614baa3098dc","system_id":"levelo_inurba_marseille","lat":43.30591,"lon":5.3936,"is_reserved":false,"is_disabled":false,"rental_uris":{"android":"levelo://app?vid=94415f13-7547-4e2b-babc-614baa3098dc","ios":"levelo://app?vid=94415f13-7547-4e2b-babc-614baa3098dc"},"vehicle_type_id":"4","last_reported":1727471270,"current_range_meters":24000,"station_id":"ce4bh0p2rcd13ifvqd80","pricing_plan_id":"cebpf4jnsgd1na2vs0mg"},{"bike_id":"ad478804-6648-4537-a098-eeed845c980c","system_id":"levelo_inurba_marseille","lat":43.29029,"lon":5.38647,"is_reserved":false,"is_disabled":false,"rental_uris":{"android":"levelo://app?vid=ad478804-6648-4537-a098-eeed845c980c","ios":"levelo://app?vid=ad478804-6648-4537-a098-eeed845c980c"},"vehicle_type_id":"4","last_reported":1727471270,"current_range_meters":18800,"station_id":"ce4bh4p2rcd13ifvqe0g","pricing_plan_id":"cebpf4jnsgd1na2vs0mg"},{"bike_id":"c1a3bd92-33d5-418a-ad42-5336369cbd4d","system_id":"levelo_inurba_marseille","lat":43.30787,"lon":5.37656,"is_reserved":false,"is_disabled":false,"rental_uris":{"android":"levelo://app?vid=c1a3bd92-33d5-418a-ad42-5336369cbd4d","ios":"levelo://app?vid=c1a3bd92-33d5-418a-ad42-5336369cbd4d"},"vehicle_type_id":"4","last_reported":1727471270,"current_range_meters":14000,"station_id":"ce4bgv92rcd13ifvqcq0","pricing_plan_id":"cebpf4jnsgd1na2vs0mg"},{"bike_id":"6e0121b1-3749-4153-989f-aaa7c957581a","system_id":"levelo_inurba_marseille","lat":43.30928,"lon":5.40151,"is_reserved":false,"is_disabled":false,"rental_uris":{"android":"levelo://app?vid=6e0121b1-3749-4153-989f-aaa7c957581a","ios":"levelo://app?vid=6e0121b1-3749-4153-989f-aaa7c957581a"},"vehicle_type_id":"4","last_reported":1727471270,"current_range_meters":25600,"station_id":"ce4bgvp2rcd13ifvqct0","pricing_plan_id":"cebpf4jnsgd1na2vs0mg"},{"bike_id":"b542da08-92c3-497f-b2a7-9b29fc91ccce","system_id":"levelo_inurba_marseille","lat":43.30314,"lon":5.36901,"is_reserved":false,"is_disabled":false,"rental_uris":{"android":"levelo://app?vid=b542da08-92c3-497f-b2a7-9b29fc91ccce","ios":"levelo://app?vid=b542da08-92c3-497f-b2a7-9b29fc91ccce"},"vehicle_type_id":"4","last_reported":1727471270,"current_range_meters":7200,"station_id":"ce4bgqh2rcd13ifvqc5g","pricing_plan_id":"cebpf4jnsgd1na2vs0mg"},{"bike_id":"5379eb60-93b5-496b-9719-fe385f527a88","system_id":"levelo_inurba_marseille","lat":43.2586,"lon":5.39901,"is_reserved":false,"is_disabled":false,"rental_uris":{"android":"levelo://app?vid=5379eb60-93b5-496b-9719-fe385f527a88","ios":"levelo://app?vid=5379eb60-93b5-496b-9719-fe385f527a88"},"vehicle_type_id":"4","last_reported":1727471270,"current_range_meters":8000,"station_id":"ce4bhl92rcd13ifvqghg","pricing_plan_id":"cebpf4jnsgd1na2vs0mg"},{"bike_id":"3af07893-9c1b-4f33-b224-f4310b42b9ca","system_id":"levelo_inurba_marseille","lat":43.28081,"lon":5.39663,"is_reserved":false,"is_disabled":false,"rental_uris":{"android":"levelo://app?vid=3af07893-9c1b-4f33-b224-f4310b42b9ca","ios":"levelo://app?vid=3af07893-9c1b-4f33-b224-f4310b42b9ca"},"vehicle_type_id":"4","last_reported":1727471270,"current_range_meters":36800,"station_id":"ce4bho12rcd13ifvqh2g","pricing_plan_id":"cebpf4jnsgd1na2vs0mg"},{"bike_id":"5c874cf8-80df-4d12-be22-fe2e6d6314f6","system_id":"levelo_inurba_marseille","lat":43.30423,"lon":5.38885,"is_reserved":false,"is_disabled":false,"rental_uris":{"android":"levelo://app?vid=5c874cf8-80df-4d12-be22-fe2e6d6314f6","ios":"levelo://app?vid=5c874cf8-80df-4d12-be22-fe2e6d6314f6"},"vehicle_type_id":"4","last_reported":1727471270,"current_range_meters":30000,"station_id":"ce4bgk12rcd13ifvqbi0","pricing_plan_id":"cebpf4jnsgd1na2vs0mg"},{"bike_id":"d277fab4-5d7b-4c5a-9f3d-ca3974840de6","system_id":"levelo_inurba_marseille","lat":43.31166,"lon":5.38718,"is_reserved":false,"is_disabled":false,"rental_uris":{"android":"levelo://app?vid=d277fab4-5d7b-4c5a-9f3d-ca3974840de6","ios":"levelo://app?vid=d277fab4-5d7b-4c5a-9f3d-ca3974840de6"},"vehicle_type_id":"4","last_reported":1727471270,"current_range_meters":16000,"station_id":"ce4bgv12rcd13ifvqcp0","pricing_plan_id":"cebpf4jnsgd1na2vs0mg"},{"bike_id":"a22c3c5f-aaca-4d61-8278-f1801ba75371","system_id":"levelo_inurba_marseille","lat":43.23184,"lon":5.39989,"is_reserved":false,"is_disabled":false,"rental_uris":{"android":"levelo://app?vid=a22c3c5f-aaca-4d61-8278-f1801ba75371","ios":"levelo://app?vid=a22c3c5f-aaca-4d61-8278-f1801ba75371"},"vehicle_type_id":"4","last_reported":1727471270,"current_range_meters":34800,"station_id":"ce4bhn12rcd13ifvqgqg","pricing_plan_id":"cebpf4jnsgd1na2vs0mg"},{"bike_id":"bec1c3f6-2559-4ca8-b92f-f18b3981d91c","system_id":"levelo_inurba_marseille","lat":43.29417,"lon":5.38634,"is_reserved":false,"is_disabled":false,"rental_uris":{"android":"levelo://app?vid=bec1c3f6-2559-4ca8-b92f-f18b3981d91c","ios":"levelo://app?vid=bec1c3f6-2559-4ca8-b92f-f18b3981d91c"},"vehicle_type_id":"4","last_reported":1727471270,"current_range_meters":37600,"station_id":"ce4bh2h2rcd13ifvqdh0","pricing_plan_id":"cebpf4jnsgd1na2vs0mg"},{"bike_id":"1859c045-2509-4b9f-8e39-f3c6f6ce3709","system_id":"levelo_inurba_marseille","lat":43.24183,"lon":5.39736,"is_reserved":false,"is_disabled":false,"rental_uris":{"android":"levelo://app?vid=1859c045-2509-4b9f-8e39-f3c6f6ce3709","ios":"levelo://app?vid=1859c045-2509-4b9f-8e39-f3c6f6ce3709"},"vehicle_type_id":"4","last_reported":1727471270,"current_range_meters":14400,"station_id":"ce4bhn12rcd13ifvqgpg","pricing_plan_id":"cebpf4jnsgd1na2vs0mg"},{"bike_id":"e8394f53-ad6d-4807-b679-5193e1242268","system_id":"levelo_inurba_marseille","lat":43.31757,"lon":5.39018,"is_reserved":false,"is_disabled":false,"rental_uris":{"android":"levelo://app?vid=e8394f53-ad6d-4807-b679-5193e1242268","ios":"levelo://app?vid=e8394f53-ad6d-4807-b679-5193e1242268"},"vehicle_type_id":"4","last_reported":1727471270,"current_range_meters":3200,"station_id":"ce4bhqp2rcd13ifvqhng","pricing_plan_id":"cebpf4jnsgd1na2vs0mg"},{"bike_id":"484799bf-5c68-4dcb-ab96-b192a95eea75","system_id":"levelo_inurba_marseille","lat":43.254944,"lon":5.376457,"is_reserved":false,"is_disabled":false,"rental_uris":{"android":"levelo://app?vid=484799bf-5c68-4dcb-ab96-b192a95eea75","ios":"levelo://app?vid=484799bf-5c68-4dcb-ab96-b192a95eea75"},"vehicle_type_id":"4","last_reported":1727471270,"current_range_meters":38400,"station_id":"ce4bhh12rcd13ifvqff0","pricing_plan_id":"cebpf4jnsgd1na2vs0mg"},{"bike_id":"388bb608-55ab-4f5f-995b-d90f0d479466","system_id":"levelo_inurba_marseille","lat":43.29528,"lon":5.38546,"is_reserved":false,"is_disabled":false,"rental_uris":{"android":"levelo://app?vid=388bb608-55ab-4f5f-995b-d90f0d479466","ios":"levelo://app?vid=388bb608-55ab-4f5f-995b-d90f0d479466"},"vehicle_type_id":"4","last_reported":1727471270,"current_range_meters":12800,"station_id":"ce4bgih2rcd13ifvqba0","pricing_plan_id":"cebpf4jnsgd1na2vs0mg"},{"bike_id":"3eb517fc-0d88-4bad-9a3b-66e168954fe1","system_id":"levelo_inurba_marseille","lat":43.29521,"lon":5.38547,"is_reserved":false,"is_disabled":false,"rental_uris":{"android":"levelo://app?vid=3eb517fc-0d88-4bad-9a3b-66e168954fe1","ios":"levelo://app?vid=3eb517fc-0d88-4bad-9a3b-66e168954fe1"},"vehicle_type_id":"4","last_reported":1727471270,"current_range_meters":2000,"station_id":"ce4bgih2rcd13ifvqba0","pricing_plan_id":"cebpf4jnsgd1na2vs0mg"},{"bike_id":"108521b4-d2ba-4851-86b3-ebd78c9034f0","system_id":"levelo_inurba_marseille","lat":43.30863,"lon":5.3685,"is_reserved":false,"is_disabled":false,"rental_uris":{"android":"levelo://app?vid=108521b4-d2ba-4851-86b3-ebd78c9034f0","ios":"levelo://app?vid=108521b4-d2ba-4851-86b3-ebd78c9034f0"},"vehicle_type_id":"4","last_reported":1727471270,"current_range_meters":14000,"station_id":"ce4bgn92rcd13ifvqbvg","pricing_plan_id":"cebpf4jnsgd1na2vs0mg"},{"bike_id":"6cbe58bb-edba-443b-a252-e015b5a87291","system_id":"levelo_inurba_marseille","lat":43.27373,"lon":5.4123,"is_reserved":false,"is_disabled":false,"rental_uris":{"android":"levelo://app?vid=6cbe58bb-edba-443b-a252-e015b5a87291","ios":"levelo://app?vid=6cbe58bb-edba-443b-a252-e015b5a87291"},"vehicle_type_id":"4","last_reported":1727471270,"current_range_meters":31200,"station_id":"","pricing_plan_id":"cebpf4jnsgd1na2vs0mg"},{"bike_id":"29910bcc-132d-4c64-8ac3-821343437bc6","system_id":"levelo_inurba_marseille","lat":43.31361,"lon":5.38502,"is_reserved":false,"is_disabled":false,"rental_uris":{"android":"levelo://app?vid=29910bcc-132d-4c64-8ac3-821343437bc6","ios":"levelo://app?vid=29910bcc-132d-4c64-8ac3-821343437bc6"},"vehicle_type_id":"4","last_reported":1727471270,"current_range_meters":38800,"station_id":"ce4bgt92rcd13ifvqcf0","pricing_plan_id":"cebpf4jnsgd1na2vs0mg"},{"bike_id":"34f7f495-0508-4033-88f6-426b655fc5a0","system_id":"levelo_inurba_marseille","lat":43.22933,"lon":5.35379,"is_reserved":false,"is_disabled":false,"rental_uris":{"android":"levelo://app?vid=34f7f495-0508-4033-88f6-426b655fc5a0","ios":"levelo://app?vid=34f7f495-0508-4033-88f6-426b655fc5a0"},"vehicle_type_id":"4","last_reported":1727471270,"current_range_meters":36800,"station_id":"cpo3532slgdg3j2ikp40","pricing_plan_id":"cebpf4jnsgd1na2vs0mg"},{"bike_id":"4a768945-e30f-41dd-ba92-e4afdc621a61","system_id":"levelo_inurba_marseille","lat":43.29166,"lon":5.37163,"is_reserved":false,"is_disabled":false,"rental_uris":{"android":"levelo://app?vid=4a768945-e30f-41dd-ba92-e4afdc621a61","ios":"levelo://app?vid=4a768945-e30f-41dd-ba92-e4afdc621a61"},"vehicle_type_id":"4","last_reported":1727471270,"current_range_meters":28000,"station_id":"ce4bha92rcd13ifvqeh0","pricing_plan_id":"cebpf4jnsgd1na2vs0mg"},{"bike_id":"6ae9206f-8c56-4851-b789-adc33847d262","system_id":"levelo_inurba_marseille","lat":43.323425,"lon":5.406286,"is_reserved":false,"is_disabled":false,"rental_uris":{"android":"levelo://app?vid=6ae9206f-8c56-4851-b789-adc33847d262","ios":"levelo://app?vid=6ae9206f-8c56-4851-b789-adc33847d262"},"vehicle_type_id":"4","last_reported":1727471270,"current_range_meters":28400,"station_id":"ce4bhq92rcd13ifvqhjg","pricing_plan_id":"cebpf4jnsgd1na2vs0mg"},{"bike_id":"eeae30ea-5520-4a25-81a4-4490a562ef2b","system_id":"levelo_inurba_marseille","lat":43.279449,"lon":5.410468,"is_reserved":false,"is_disabled":false,"rental_uris":{"android":"levelo://app?vid=eeae30ea-5520-4a25-81a4-4490a562ef2b","ios":"levelo://app?vid=eeae30ea-5520-4a25-81a4-4490a562ef2b"},"vehicle_type_id":"4","last_reported":1727471270,"current_range_meters":37600,"station_id":"ce4bhnp2rcd13ifvqh0g","pricing_plan_id":"cebpf4jnsgd1na2vs0mg"},{"bike_id":"d2a39683-b90b-4582-aa37-6195598132ec","system_id":"levelo_inurba_marseille","lat":43.2843,"lon":5.39191,"is_reserved":false,"is_disabled":false,"rental_uris":{"android":"levelo://app?vid=d2a39683-b90b-4582-aa37-6195598132ec","ios":"levelo://app?vid=d2a39683-b90b-4582-aa37-6195598132ec"},"vehicle_type_id":"4","last_reported":1727471270,"current_range_meters":10800,"station_id":"ce4bhoh2rcd13ifvqh5g","pricing_plan_id":"cebpf4jnsgd1na2vs0mg"},{"bike_id":"d5fe7db7-7f62-436c-8b28-ddc319482146","system_id":"levelo_inurba_marseille","lat":43.29288,"lon":5.37552,"is_reserved":false,"is_disabled":false,"rental_uris":{"android":"levelo://app?vid=d5fe7db7-7f62-436c-8b28-ddc319482146","ios":"levelo://app?vid=d5fe7db7-7f62-436c-8b28-ddc319482146"},"vehicle_type_id":"4","last_reported":1727471270,"current_range_meters":18800,"station_id":"","pricing_plan_id":"cebpf4jnsgd1na2vs0mg"},{"bike_id":"46cb4c95-37d4-45bd-a039-ccc6e7c70916","system_id":"levelo_inurba_marseille","lat":43.29532,"lon":5.3854,"is_reserved":false,"is_disabled":false,"rental_uris":{"android":"levelo://app?vid=46cb4c95-37d4-45bd-a039-ccc6e7c70916","ios":"levelo://app?vid=46cb4c95-37d4-45bd-a039-ccc6e7c70916"},"vehicle_type_id":"4","last_reported":1727471270,"current_range_meters":38000,"station_id":"ce4bgih2rcd13ifvqba0","pricing_plan_id":"cebpf4jnsgd1na2vs0mg"},{"bike_id":"862b984c-511f-4119-b143-9eebb37fe548","system_id":"levelo_inurba_marseille","lat":43.30648,"lon":5.40096,"is_reserved":false,"is_disabled":false,"rental_uris":{"android":"levelo://app?vid=862b984c-511f-4119-b143-9eebb37fe548","ios":"levelo://app?vid=862b984c-511f-4119-b143-9eebb37fe548"},"vehicle_type_id":"4","last_reported":1727471270,"current_range_meters":14400,"station_id":"ce4bh112rcd13ifvqda0","pricing_plan_id":"cebpf4jnsgd1na2vs0mg"},{"bike_id":"cc27a154-f336-45ef-a412-7e268fbf2217","system_id":"levelo_inurba_marseille","lat":43.29552,"lon":5.42281,"is_reserved":false,"is_disabled":false,"rental_uris":{"android":"levelo://app?vid=cc27a154-f336-45ef-a412-7e268fbf2217","ios":"levelo://app?vid=cc27a154-f336-45ef-a412-7e268fbf2217"},"vehicle_type_id":"4","last_reported":1727471270,"current_range_meters":15200,"station_id":"ce4bhph2rcd13ifvqhdg","pricing_plan_id":"cebpf4jnsgd1na2vs0mg"},{"bike_id":"2988b1da-e672-45a3-81d6-2ab6d67ab647","system_id":"levelo_inurba_marseille","lat":43.32296,"lon":5.38265,"is_reserved":false,"is_disabled":false,"rental_uris":{"android":"levelo://app?vid=2988b1da-e672-45a3-81d6-2ab6d67ab647","ios":"levelo://app?vid=2988b1da-e672-45a3-81d6-2ab6d67ab647"},"vehicle_type_id":"4","last_reported":1727471270,"current_range_meters":39200,"station_id":"ce4bhr12rcd13ifvqhqg","pricing_plan_id":"cebpf4jnsgd1na2vs0mg"},{"bike_id":"f0f63087-229a-4377-9273-cc91f640ff1b","system_id":"levelo_inurba_marseille","lat":43.29537,"lon":5.3855,"is_reserved":false,"is_disabled":false,"rental_uris":{"android":"levelo://app?vid=f0f63087-229a-4377-9273-cc91f640ff1b","ios":"levelo://app?vid=f0f63087-229a-4377-9273-cc91f640ff1b"},"vehicle_type_id":"4","last_reported":1727471270,"current_range_meters":28000,"station_id":"ce4bgih2rcd13ifvqba0","pricing_plan_id":"cebpf4jnsgd1na2vs0mg"},{"bike_id":"4583783e-f97f-4e5d-9f7b-121acb7769a5","system_id":"levelo_inurba_marseille","lat":43.29907,"lon":5.38147,"is_reserved":false,"is_disabled":false,"rental_uris":{"android":"levelo://app?vid=4583783e-f97f-4e5d-9f7b-121acb7769a5","ios":"levelo://app?vid=4583783e-f97f-4e5d-9f7b-121acb7769a5"},"vehicle_type_id":"4","last_reported":1727471270,"current_range_meters":6400,"station_id":"ce4bgj12rcd13ifvqbc0","pricing_plan_id":"cebpf4jnsgd1na2vs0mg"},{"bike_id":"dfc6713b-cb1a-4c7a-91b2-3e26e8b2b20c","system_id":"levelo_inurba_marseille","lat":43.31073,"lon":5.3835,"is_reserved":false,"is_disabled":false,"rental_uris":{"android":"levelo://app?vid=dfc6713b-cb1a-4c7a-91b2-3e26e8b2b20c","ios":"levelo://app?vid=dfc6713b-cb1a-4c7a-91b2-3e26e8b2b20c"},"vehicle_type_id":"4","last_reported":1727471270,"current_range_meters":15200,"station_id":"ce4bgv92rcd13ifvqcr0","pricing_plan_id":"cebpf4jnsgd1na2vs0mg"},{"bike_id":"a615c499-343a-4dd6-97e1-f07ce021aa8a","system_id":"levelo_inurba_marseille","lat":43.250988,"lon":5.395183,"is_reserved":false,"is_disabled":false,"rental_uris":{"android":"levelo://app?vid=a615c499-343a-4dd6-97e1-f07ce021aa8a","ios":"levelo://app?vid=a615c499-343a-4dd6-97e1-f07ce021aa8a"},"vehicle_type_id":"4","last_reported":1727471270,"current_range_meters":38800,"station_id":"ce4bhm12rcd13ifvqgkg","pricing_plan_id":"cebpf4jnsgd1na2vs0mg"},{"bike_id":"d6cd38a8-3c54-4353-8fe5-6a61b18b7f2d","system_id":"levelo_inurba_marseille","lat":43.30221,"lon":5.39469,"is_reserved":false,"is_disabled":false,"rental_uris":{"android":"levelo://app?vid=d6cd38a8-3c54-4353-8fe5-6a61b18b7f2d","ios":"levelo://app?vid=d6cd38a8-3c54-4353-8fe5-6a61b18b7f2d"},"vehicle_type_id":"4","last_reported":1727471270,"current_range_meters":3200,"station_id":"ce4bh0p2rcd13ifvqd70","pricing_plan_id":"cebpf4jnsgd1na2vs0mg"},{"bike_id":"dcd7646c-9731-4b4e-a7c3-ba4548734412","system_id":"levelo_inurba_marseille","lat":43.337444,"lon":5.374475,"is_reserved":false,"is_disabled":false,"rental_uris":{"android":"levelo://app?vid=dcd7646c-9731-4b4e-a7c3-ba4548734412","ios":"levelo://app?vid=dcd7646c-9731-4b4e-a7c3-ba4548734412"},"vehicle_type_id":"4","last_reported":1727471270,"current_range_meters":33600,"station_id":"","pricing_plan_id":"cebpf4jnsgd1na2vs0mg"},{"bike_id":"ebe01908-fd16-48dd-b727-aff921a35ecc","system_id":"levelo_inurba_marseille","lat":43.31224,"lon":5.36872,"is_reserved":false,"is_disabled":false,"rental_uris":{"android":"levelo://app?vid=ebe01908-fd16-48dd-b727-aff921a35ecc","ios":"levelo://app?vid=ebe01908-fd16-48dd-b727-aff921a35ecc"},"vehicle_type_id":"4","last_reported":1727471270,"current_range_meters":28800,"station_id":"ce4bgl92rcd13ifvqbq0","pricing_plan_id":"cebpf4jnsgd1na2vs0mg"},{"bike_id":"439cbd04-726d-41b3-80fd-6b5d84d56820","system_id":"levelo_inurba_marseille","lat":43.26211,"lon":5.3744,"is_reserved":false,"is_disabled":false,"rental_uris":{"android":"levelo://app?vid=439cbd04-726d-41b3-80fd-6b5d84d56820","ios":"levelo://app?vid=439cbd04-726d-41b3-80fd-6b5d84d56820"},"vehicle_type_id":"4","last_reported":1727471270,"current_range_meters":32800,"station_id":"ce4bhgp2rcd13ifvqfc0","pricing_plan_id":"cebpf4jnsgd1na2vs0mg"},{"bike_id":"cf2b5c88-ba52-4fde-a378-46c9ff72e196","system_id":"levelo_inurba_marseille","lat":43.28932,"lon":5.36634,"is_reserved":false,"is_disabled":false,"rental_uris":{"android":"levelo://app?vid=cf2b5c88-ba52-4fde-a378-46c9ff72e196","ios":"levelo://app?vid=cf2b5c88-ba52-4fde-a378-46c9ff72e196"},"vehicle_type_id":"4","last_reported":1727471270,"current_range_meters":8800,"station_id":"ce4bhap2rcd13ifvqek0","pricing_plan_id":"cebpf4jnsgd1na2vs0mg"},{"bike_id":"b14ac7d8-d2da-441b-a32c-d404cc5e7bf8","system_id":"levelo_inurba_marseille","lat":43.26027,"lon":5.37552,"is_reserved":false,"is_disabled":false,"rental_uris":{"android":"levelo://app?vid=b14ac7d8-d2da-441b-a32c-d404cc5e7bf8","ios":"levelo://app?vid=b14ac7d8-d2da-441b-a32c-d404cc5e7bf8"},"vehicle_type_id":"4","last_reported":1727471270,"current_range_meters":38400,"station_id":"ce4bhgh2rcd13ifvqfa0","pricing_plan_id":"cebpf4jnsgd1na2vs0mg"},{"bike_id":"87c81b88-ba77-452f-9194-c27651fd7d15","system_id":"levelo_inurba_marseille","lat":43.28712,"lon":5.37382,"is_reserved":false,"is_disabled":false,"rental_uris":{"android":"levelo://app?vid=87c81b88-ba77-452f-9194-c27651fd7d15","ios":"levelo://app?vid=87c81b88-ba77-452f-9194-c27651fd7d15"},"vehicle_type_id":"4","last_reported":1727471270,"current_range_meters":10000,"station_id":"ce4bh3p2rcd13ifvqdq0","pricing_plan_id":"cebpf4jnsgd1na2vs0mg"},{"bike_id":"8cdfa3c6-f7a3-40bd-95e5-72d83246a46b","system_id":"levelo_inurba_marseille","lat":43.23188,"lon":5.39981,"is_reserved":false,"is_disabled":false,"rental_uris":{"android":"levelo://app?vid=8cdfa3c6-f7a3-40bd-95e5-72d83246a46b","ios":"levelo://app?vid=8cdfa3c6-f7a3-40bd-95e5-72d83246a46b"},"vehicle_type_id":"4","last_reported":1727471270,"current_range_meters":38800,"station_id":"ce4bhn12rcd13ifvqgqg","pricing_plan_id":"cebpf4jnsgd1na2vs0mg"},{"bike_id":"3ede6a13-318d-46fd-b5f1-0b46d64e9693","system_id":"levelo_inurba_marseille","lat":43.28942,"lon":5.36636,"is_reserved":false,"is_disabled":false,"rental_uris":{"android":"levelo://app?vid=3ede6a13-318d-46fd-b5f1-0b46d64e9693","ios":"levelo://app?vid=3ede6a13-318d-46fd-b5f1-0b46d64e9693"},"vehicle_type_id":"4","last_reported":1727471270,"current_range_meters":2000,"station_id":"ce4bhap2rcd13ifvqek0","pricing_plan_id":"cebpf4jnsgd1na2vs0mg"},{"bike_id":"febafa71-0750-4e9d-a8b2-9d5aaccdff2a","system_id":"levelo_inurba_marseille","lat":43.29553,"lon":5.42294,"is_reserved":false,"is_disabled":false,"rental_uris":{"android":"levelo://app?vid=febafa71-0750-4e9d-a8b2-9d5aaccdff2a","ios":"levelo://app?vid=febafa71-0750-4e9d-a8b2-9d5aaccdff2a"},"vehicle_type_id":"4","last_reported":1727471270,"current_range_meters":22400,"station_id":"ce4bhph2rcd13ifvqhdg","pricing_plan_id":"cebpf4jnsgd1na2vs0mg"},{"bike_id":"5c0c6233-8464-4d55-a462-c9165dcba121","system_id":"levelo_inurba_marseille","lat":43.28033,"lon":5.36943,"is_reserved":false,"is_disabled":false,"rental_uris":{"android":"levelo://app?vid=5c0c6233-8464-4d55-a462-c9165dcba121","ios":"levelo://app?vid=5c0c6233-8464-4d55-a462-c9165dcba121"},"vehicle_type_id":"4","last_reported":1727471270,"current_range_meters":38000,"station_id":"ce4bha12rcd13ifvqef0","pricing_plan_id":"cebpf4jnsgd1na2vs0mg"},{"bike_id":"18f7362c-d2d6-46aa-8fe9-afa06a6ba624","system_id":"levelo_inurba_marseille","lat":43.31888,"lon":5.40741,"is_reserved":false,"is_disabled":false,"rental_uris":{"android":"levelo://app?vid=18f7362c-d2d6-46aa-8fe9-afa06a6ba624","ios":"levelo://app?vid=18f7362c-d2d6-46aa-8fe9-afa06a6ba624"},"vehicle_type_id":"4","last_reported":1727471270,"current_range_meters":25600,"station_id":"ce4bhq12rcd13ifvqhig","pricing_plan_id":"cebpf4jnsgd1na2vs0mg"},{"bike_id":"993528d0-7153-4fc1-8ab5-6eeb3da65c22","system_id":"levelo_inurba_marseille","lat":43.28657,"lon":5.36355,"is_reserved":false,"is_disabled":false,"rental_uris":{"android":"levelo://app?vid=993528d0-7153-4fc1-8ab5-6eeb3da65c22","ios":"levelo://app?vid=993528d0-7153-4fc1-8ab5-6eeb3da65c22"},"vehicle_type_id":"4","last_reported":1727471270,"current_range_meters":24000,"station_id":"ce4bhah2rcd13ifvqej0","pricing_plan_id":"cebpf4jnsgd1na2vs0mg"},{"bike_id":"eba05926-f17e-4e29-8a11-eba8ae48bf9d","system_id":"levelo_inurba_marseille","lat":43.30206,"lon":5.39468,"is_reserved":false,"is_disabled":false,"rental_uris":{"android":"levelo://app?vid=eba05926-f17e-4e29-8a11-eba8ae48bf9d","ios":"levelo://app?vid=eba05926-f17e-4e29-8a11-eba8ae48bf9d"},"vehicle_type_id":"4","last_reported":1727471270,"current_range_meters":37600,"station_id":"ce4bh0p2rcd13ifvqd70","pricing_plan_id":"cebpf4jnsgd1na2vs0mg"},{"bike_id":"fb66347b-c872-4b27-8bab-7f664da3f42a","system_id":"levelo_inurba_marseille","lat":43.26219,"lon":5.37439,"is_reserved":false,"is_disabled":false,"rental_uris":{"android":"levelo://app?vid=fb66347b-c872-4b27-8bab-7f664da3f42a","ios":"levelo://app?vid=fb66347b-c872-4b27-8bab-7f664da3f42a"},"vehicle_type_id":"4","last_reported":1727471270,"current_range_meters":30000,"station_id":"ce4bhgp2rcd13ifvqfc0","pricing_plan_id":"cebpf4jnsgd1na2vs0mg"},{"bike_id":"513a00a9-48f8-496b-8482-e16277dd2423","system_id":"levelo_inurba_marseille","lat":43.30773,"lon":5.37647,"is_reserved":false,"is_disabled":false,"rental_uris":{"android":"levelo://app?vid=513a00a9-48f8-496b-8482-e16277dd2423","ios":"levelo://app?vid=513a00a9-48f8-496b-8482-e16277dd2423"},"vehicle_type_id":"4","last_reported":1727471270,"current_range_meters":6400,"station_id":"ce4bgv92rcd13ifvqcq0","pricing_plan_id":"cebpf4jnsgd1na2vs0mg"},{"bike_id":"b48e9d8c-a9de-4e83-a716-328b083fa30e","system_id":"levelo_inurba_marseille","lat":43.30536,"lon":5.36547,"is_reserved":false,"is_disabled":false,"rental_uris":{"android":"levelo://app?vid=b48e9d8c-a9de-4e83-a716-328b083fa30e","ios":"levelo://app?vid=b48e9d8c-a9de-4e83-a716-328b083fa30e"},"vehicle_type_id":"4","last_reported":1727471270,"current_range_meters":6000,"station_id":"ce4bgs12rcd13ifvqcag","pricing_plan_id":"cebpf4jnsgd1na2vs0mg"},{"bike_id":"ae7d4c8b-66a5-4f94-bdc3-27de1acb790f","system_id":"levelo_inurba_marseille","lat":43.30089,"lon":5.39076,"is_reserved":false,"is_disabled":false,"rental_uris":{"android":"levelo://app?vid=ae7d4c8b-66a5-4f94-bdc3-27de1acb790f","ios":"levelo://app?vid=ae7d4c8b-66a5-4f94-bdc3-27de1acb790f"},"vehicle_type_id":"4","last_reported":1727471270,"current_range_meters":36800,"station_id":"ce4bh192rcd13ifvqdb0","pricing_plan_id":"cebpf4jnsgd1na2vs0mg"},{"bike_id":"983d7f66-9483-4b4a-a508-1e8548050abc","system_id":"levelo_inurba_marseille","lat":43.23189,"lon":5.39993,"is_reserved":false,"is_disabled":false,"rental_uris":{"android":"levelo://app?vid=983d7f66-9483-4b4a-a508-1e8548050abc","ios":"levelo://app?vid=983d7f66-9483-4b4a-a508-1e8548050abc"},"vehicle_type_id":"4","last_reported":1727471270,"current_range_meters":38000,"station_id":"ce4bhn12rcd13ifvqgqg","pricing_plan_id":"cebpf4jnsgd1na2vs0mg"},{"bike_id":"2a817efc-7907-480a-8bab-9daeb67efa38","system_id":"levelo_inurba_marseille","lat":43.29259,"lon":5.3844,"is_reserved":false,"is_disabled":false,"rental_uris":{"android":"levelo://app?vid=2a817efc-7907-480a-8bab-9daeb67efa38","ios":"levelo://app?vid=2a817efc-7907-480a-8bab-9daeb67efa38"},"vehicle_type_id":"4","last_reported":1727471270,"current_range_meters":20400,"station_id":"ce4bh692rcd13ifvqea0","pricing_plan_id":"cebpf4jnsgd1na2vs0mg"},{"bike_id":"6e772b00-ca24-42d1-9570-c408d82d013b","system_id":"levelo_inurba_marseille","lat":43.292,"lon":5.35808,"is_reserved":false,"is_disabled":false,"rental_uris":{"android":"levelo://app?vid=6e772b00-ca24-42d1-9570-c408d82d013b","ios":"levelo://app?vid=6e772b00-ca24-42d1-9570-c408d82d013b"},"vehicle_type_id":"4","last_reported":1727471270,"current_range_meters":28400,"station_id":"ce4bhb12rcd13ifvqel0","pricing_plan_id":"cebpf4jnsgd1na2vs0mg"},{"bike_id":"928ed2fe-8d34-4db0-9bbc-982e8807f5cd","system_id":"levelo_inurba_marseille","lat":43.305469,"lon":5.384028,"is_reserved":false,"is_disabled":false,"rental_uris":{"android":"levelo://app?vid=928ed2fe-8d34-4db0-9bbc-982e8807f5cd","ios":"levelo://app?vid=928ed2fe-8d34-4db0-9bbc-982e8807f5cd"},"vehicle_type_id":"4","last_reported":1727471270,"current_range_meters":33600,"station_id":"ce4bgg92rcd13ifvqb30","pricing_plan_id":"cebpf4jnsgd1na2vs0mg"},{"bike_id":"971f938f-51cb-4601-86c6-be6ff9e4855e","system_id":"levelo_inurba_marseille","lat":43.30956,"lon":5.39043,"is_reserved":false,"is_disabled":false,"rental_uris":{"android":"levelo://app?vid=971f938f-51cb-4601-86c6-be6ff9e4855e","ios":"levelo://app?vid=971f938f-51cb-4601-86c6-be6ff9e4855e"},"vehicle_type_id":"4","last_reported":1727471270,"current_range_meters":20000,"station_id":"ce4bgup2rcd13ifvqco0","pricing_plan_id":"cebpf4jnsgd1na2vs0mg"},{"bike_id":"1f5d0ac4-66fc-4c02-99db-a60d833f4571","system_id":"levelo_inurba_marseille","lat":43.30536,"lon":5.36703,"is_reserved":false,"is_disabled":false,"rental_uris":{"android":"levelo://app?vid=1f5d0ac4-66fc-4c02-99db-a60d833f4571","ios":"levelo://app?vid=1f5d0ac4-66fc-4c02-99db-a60d833f4571"},"vehicle_type_id":"4","last_reported":1727471270,"current_range_meters":8800,"station_id":"ce4bgrp2rcd13ifvqc9g","pricing_plan_id":"cebpf4jnsgd1na2vs0mg"},{"bike_id":"b42393c1-704b-4d87-822a-1ae581daf4c4","system_id":"levelo_inurba_marseille","lat":43.30463,"lon":5.37902,"is_reserved":false,"is_disabled":false,"rental_uris":{"android":"levelo://app?vid=b42393c1-704b-4d87-822a-1ae581daf4c4","ios":"levelo://app?vid=b42393c1-704b-4d87-822a-1ae581daf4c4"},"vehicle_type_id":"4","last_reported":1727471270,"current_range_meters":37600,"station_id":"ce4bgup2rcd13ifvqcn0","pricing_plan_id":"cebpf4jnsgd1na2vs0mg"},{"bike_id":"59ed1976-6411-45f0-888c-c6180d9e91e3","system_id":"levelo_inurba_marseille","lat":43.29622,"lon":5.40017,"is_reserved":false,"is_disabled":false,"rental_uris":{"android":"levelo://app?vid=59ed1976-6411-45f0-888c-c6180d9e91e3","ios":"levelo://app?vid=59ed1976-6411-45f0-888c-c6180d9e91e3"},"vehicle_type_id":"4","last_reported":1727471270,"current_range_meters":30000,"station_id":"","pricing_plan_id":"cebpf4jnsgd1na2vs0mg"},{"bike_id":"6bc3d31b-cd12-404f-8128-33d6db4b9461","system_id":"levelo_inurba_marseille","lat":43.2737,"lon":5.3626,"is_reserved":false,"is_disabled":false,"rental_uris":{"android":"levelo://app?vid=6bc3d31b-cd12-404f-8128-33d6db4b9461","ios":"levelo://app?vid=6bc3d31b-cd12-404f-8128-33d6db4b9461"},"vehicle_type_id":"4","last_reported":1727471270,"current_range_meters":38800,"station_id":"ce4bhbh2rcd13ifvqeo0","pricing_plan_id":"cebpf4jnsgd1na2vs0mg"},{"bike_id":"1c0b0200-b28a-4eb3-bf1a-ffd6b3250005","system_id":"levelo_inurba_marseille","lat":43.23184,"lon":5.39986,"is_reserved":false,"is_disabled":false,"rental_uris":{"android":"levelo://app?vid=1c0b0200-b28a-4eb3-bf1a-ffd6b3250005","ios":"levelo://app?vid=1c0b0200-b28a-4eb3-bf1a-ffd6b3250005"},"vehicle_type_id":"4","last_reported":1727471270,"current_range_meters":14400,"station_id":"ce4bhn12rcd13ifvqgqg","pricing_plan_id":"cebpf4jnsgd1na2vs0mg"},{"bike_id":"79d296e2-c7b8-4213-856c-4a9859dbe60f","system_id":"levelo_inurba_marseille","lat":43.25,"lon":5.38924,"is_reserved":false,"is_disabled":false,"rental_uris":{"android":"levelo://app?vid=79d296e2-c7b8-4213-856c-4a9859dbe60f","ios":"levelo://app?vid=79d296e2-c7b8-4213-856c-4a9859dbe60f"},"vehicle_type_id":"4","last_reported":1727471270,"current_range_meters":7200,"station_id":"ce4bhgp2rcd13ifvqfd0","pricing_plan_id":"cebpf4jnsgd1na2vs0mg"},{"bike_id":"b3cab539-938e-4b9a-9984-69ec9f811d29","system_id":"levelo_inurba_marseille","lat":43.23191,"lon":5.39974,"is_reserved":false,"is_disabled":false,"rental_uris":{"android":"levelo://app?vid=b3cab539-938e-4b9a-9984-69ec9f811d29","ios":"levelo://app?vid=b3cab539-938e-4b9a-9984-69ec9f811d29"},"vehicle_type_id":"4","last_reported":1727471270,"current_range_meters":38800,"station_id":"ce4bhn12rcd13ifvqgqg","pricing_plan_id":"cebpf4jnsgd1na2vs0mg"},{"bike_id":"934a7cbd-de3c-4074-bc6b-aa81397593d7","system_id":"levelo_inurba_marseille","lat":43.24669,"lon":5.3816,"is_reserved":false,"is_disabled":false,"rental_uris":{"android":"levelo://app?vid=934a7cbd-de3c-4074-bc6b-aa81397593d7","ios":"levelo://app?vid=934a7cbd-de3c-4074-bc6b-aa81397593d7"},"vehicle_type_id":"4","last_reported":1727471270,"current_range_meters":19600,"station_id":"ce4bhih2rcd13ifvqfr0","pricing_plan_id":"cebpf4jnsgd1na2vs0mg"},{"bike_id":"a4f5af3a-a846-410c-90e4-aa3ae945c557","system_id":"levelo_inurba_marseille","lat":43.26938,"lon":5.40252,"is_reserved":false,"is_disabled":false,"rental_uris":{"android":"levelo://app?vid=a4f5af3a-a846-410c-90e4-aa3ae945c557","ios":"levelo://app?vid=a4f5af3a-a846-410c-90e4-aa3ae945c557"},"vehicle_type_id":"4","last_reported":1727471270,"current_range_meters":38800,"station_id":"cjm6bp8fraef2m0cb0m0","pricing_plan_id":"cebpf4jnsgd1na2vs0mg"},{"bike_id":"4e1021b5-8d84-47b4-870d-a00df0ff045e","system_id":"levelo_inurba_marseille","lat":43.28845,"lon":5.35856,"is_reserved":false,"is_disabled":false,"rental_uris":{"android":"levelo://app?vid=4e1021b5-8d84-47b4-870d-a00df0ff045e","ios":"levelo://app?vid=4e1021b5-8d84-47b4-870d-a00df0ff045e"},"vehicle_type_id":"4","last_reported":1727471270,"current_range_meters":6800,"station_id":"ce4bhb12rcd13ifvqem0","pricing_plan_id":"cebpf4jnsgd1na2vs0mg"},{"bike_id":"88be1982-2b52-472f-8bb6-8e170d93e804","system_id":"levelo_inurba_marseille","lat":43.30644,"lon":5.40079,"is_reserved":false,"is_disabled":false,"rental_uris":{"android":"levelo://app?vid=88be1982-2b52-472f-8bb6-8e170d93e804","ios":"levelo://app?vid=88be1982-2b52-472f-8bb6-8e170d93e804"},"vehicle_type_id":"4","last_reported":1727471270,"current_range_meters":7200,"station_id":"ce4bh112rcd13ifvqda0","pricing_plan_id":"cebpf4jnsgd1na2vs0mg"},{"bike_id":"629c1db9-09b4-4e56-87fb-472b5f9d2487","system_id":"levelo_inurba_marseille","lat":43.31327,"lon":5.39696,"is_reserved":false,"is_disabled":false,"rental_uris":{"android":"levelo://app?vid=629c1db9-09b4-4e56-87fb-472b5f9d2487","ios":"levelo://app?vid=629c1db9-09b4-4e56-87fb-472b5f9d2487"},"vehicle_type_id":"4","last_reported":1727471270,"current_range_meters":38800,"station_id":"ce4bgvp2rcd13ifvqcu0","pricing_plan_id":"cebpf4jnsgd1na2vs0mg"},{"bike_id":"59ec41a8-a3bf-4414-8157-6bbc2f111dd7","system_id":"levelo_inurba_marseille","lat":43.2439,"lon":5.3706,"is_reserved":false,"is_disabled":false,"rental_uris":{"android":"levelo://app?vid=59ec41a8-a3bf-4414-8157-6bbc2f111dd7","ios":"levelo://app?vid=59ec41a8-a3bf-4414-8157-6bbc2f111dd7"},"vehicle_type_id":"4","last_reported":1727471270,"current_range_meters":18800,"station_id":"ce4bhhh2rcd13ifvqfk0","pricing_plan_id":"cebpf4jnsgd1na2vs0mg"},{"bike_id":"4279fd5c-2327-4bb1-b1c1-49ea4d62d5be","system_id":"levelo_inurba_marseille","lat":43.25819,"lon":5.39431,"is_reserved":false,"is_disabled":false,"rental_uris":{"android":"levelo://app?vid=4279fd5c-2327-4bb1-b1c1-49ea4d62d5be","ios":"levelo://app?vid=4279fd5c-2327-4bb1-b1c1-49ea4d62d5be"},"vehicle_type_id":"4","last_reported":1727471270,"current_range_meters":38800,"station_id":"ce4bhip2rcd13ifvqft0","pricing_plan_id":"cebpf4jnsgd1na2vs0mg"},{"bike_id":"17df6cb7-9806-4348-8544-4e67d396303b","system_id":"levelo_inurba_marseille","lat":43.22932,"lon":5.35382,"is_reserved":false,"is_disabled":false,"rental_uris":{"android":"levelo://app?vid=17df6cb7-9806-4348-8544-4e67d396303b","ios":"levelo://app?vid=17df6cb7-9806-4348-8544-4e67d396303b"},"vehicle_type_id":"4","last_reported":1727471270,"current_range_meters":38800,"station_id":"cpo3532slgdg3j2ikp40","pricing_plan_id":"cebpf4jnsgd1na2vs0mg"},{"bike_id":"eab9298e-4baa-4a49-a182-4f74b0b1212b","system_id":"levelo_inurba_marseille","lat":43.29244,"lon":5.40914,"is_reserved":false,"is_disabled":false,"rental_uris":{"android":"levelo://app?vid=eab9298e-4baa-4a49-a182-4f74b0b1212b","ios":"levelo://app?vid=eab9298e-4baa-4a49-a182-4f74b0b1212b"},"vehicle_type_id":"4","last_reported":1727471270,"current_range_meters":3200,"station_id":"ce4bh192rcd13ifvqdc0","pricing_plan_id":"cebpf4jnsgd1na2vs0mg"},{"bike_id":"1203d1df-317e-49d9-bc53-7c991c18be94","system_id":"levelo_inurba_marseille","lat":43.2894,"lon":5.36389,"is_reserved":false,"is_disabled":false,"rental_uris":{"android":"levelo://app?vid=1203d1df-317e-49d9-bc53-7c991c18be94","ios":"levelo://app?vid=1203d1df-317e-49d9-bc53-7c991c18be94"},"vehicle_type_id":"4","last_reported":1727471270,"current_range_meters":39200,"station_id":"ce4bhc92rcd13ifvqetg","pricing_plan_id":"cebpf4jnsgd1na2vs0mg"},{"bike_id":"581e06e4-eb8a-4e84-a1fb-fee822d8e8af","system_id":"levelo_inurba_marseille","lat":43.29171,"lon":5.37164,"is_reserved":false,"is_disabled":false,"rental_uris":{"android":"levelo://app?vid=581e06e4-eb8a-4e84-a1fb-fee822d8e8af","ios":"levelo://app?vid=581e06e4-eb8a-4e84-a1fb-fee822d8e8af"},"vehicle_type_id":"4","last_reported":1727471270,"current_range_meters":27600,"station_id":"ce4bha92rcd13ifvqeh0","pricing_plan_id":"cebpf4jnsgd1na2vs0mg"},{"bike_id":"ccc24039-9e73-403b-8f6a-7419f1fc657c","system_id":"levelo_inurba_marseille","lat":43.30882,"lon":5.39645,"is_reserved":false,"is_disabled":false,"rental_uris":{"android":"levelo://app?vid=ccc24039-9e73-403b-8f6a-7419f1fc657c","ios":"levelo://app?vid=ccc24039-9e73-403b-8f6a-7419f1fc657c"},"vehicle_type_id":"4","last_reported":1727471270,"current_range_meters":34800,"station_id":"ce4bh012rcd13ifvqcv0","pricing_plan_id":"cebpf4jnsgd1na2vs0mg"},{"bike_id":"f88c6bc9-8be9-40a8-809d-faa06b3da067","system_id":"levelo_inurba_marseille","lat":43.29583,"lon":5.36746,"is_reserved":false,"is_disabled":false,"rental_uris":{"android":"levelo://app?vid=f88c6bc9-8be9-40a8-809d-faa06b3da067","ios":"levelo://app?vid=f88c6bc9-8be9-40a8-809d-faa06b3da067"},"vehicle_type_id":"4","last_reported":1727471270,"current_range_meters":2000,"station_id":"ce4bgph2rcd13ifvqc2g","pricing_plan_id":"cebpf4jnsgd1na2vs0mg"},{"bike_id":"5037a3ab-cc8a-40fc-8925-431f3046eb1e","system_id":"levelo_inurba_marseille","lat":43.30309,"lon":5.3921,"is_reserved":false,"is_disabled":false,"rental_uris":{"android":"levelo://app?vid=5037a3ab-cc8a-40fc-8925-431f3046eb1e","ios":"levelo://app?vid=5037a3ab-cc8a-40fc-8925-431f3046eb1e"},"vehicle_type_id":"4","last_reported":1727471270,"current_range_meters":26800,"station_id":"ce4bgkh2rcd13ifvqbk0","pricing_plan_id":"cebpf4jnsgd1na2vs0mg"},{"bike_id":"745c4e55-1df6-46a1-bc40-738f3bbf3216","system_id":"levelo_inurba_marseille","lat":43.25111,"lon":5.4032,"is_reserved":false,"is_disabled":false,"rental_uris":{"android":"levelo://app?vid=745c4e55-1df6-46a1-bc40-738f3bbf3216","ios":"levelo://app?vid=745c4e55-1df6-46a1-bc40-738f3bbf3216"},"vehicle_type_id":"4","last_reported":1727471270,"current_range_meters":30000,"station_id":"ce4bhlh2rcd13ifvqgig","pricing_plan_id":"cebpf4jnsgd1na2vs0mg"},{"bike_id":"c2f6d82b-e00d-4d4b-9f53-71c05afc522f","system_id":"levelo_inurba_marseille","lat":43.31886,"lon":5.40738,"is_reserved":false,"is_disabled":false,"rental_uris":{"android":"levelo://app?vid=c2f6d82b-e00d-4d4b-9f53-71c05afc522f","ios":"levelo://app?vid=c2f6d82b-e00d-4d4b-9f53-71c05afc522f"},"vehicle_type_id":"4","last_reported":1727471270,"current_range_meters":38800,"station_id":"ce4bhq12rcd13ifvqhig","pricing_plan_id":"cebpf4jnsgd1na2vs0mg"},{"bike_id":"962b7c6e-c905-4df1-a55f-75a89b1ed0b6","system_id":"levelo_inurba_marseille","lat":43.31884,"lon":5.40744,"is_reserved":false,"is_disabled":false,"rental_uris":{"android":"levelo://app?vid=962b7c6e-c905-4df1-a55f-75a89b1ed0b6","ios":"levelo://app?vid=962b7c6e-c905-4df1-a55f-75a89b1ed0b6"},"vehicle_type_id":"4","last_reported":1727471270,"current_range_meters":24000,"station_id":"ce4bhq12rcd13ifvqhig","pricing_plan_id":"cebpf4jnsgd1na2vs0mg"},{"bike_id":"e6fa5d98-7be7-45f9-b84c-792382bbca76","system_id":"levelo_inurba_marseille","lat":43.29537,"lon":5.38545,"is_reserved":false,"is_disabled":false,"rental_uris":{"android":"levelo://app?vid=e6fa5d98-7be7-45f9-b84c-792382bbca76","ios":"levelo://app?vid=e6fa5d98-7be7-45f9-b84c-792382bbca76"},"vehicle_type_id":"4","last_reported":1727471270,"current_range_meters":30800,"station_id":"ce4bgih2rcd13ifvqba0","pricing_plan_id":"cebpf4jnsgd1na2vs0mg"},{"bike_id":"23389454-ae00-496f-b1d7-7e5f99fdf3b7","system_id":"levelo_inurba_marseille","lat":43.29004,"lon":5.35614,"is_reserved":false,"is_disabled":false,"rental_uris":{"android":"levelo://app?vid=23389454-ae00-496f-b1d7-7e5f99fdf3b7","ios":"levelo://app?vid=23389454-ae00-496f-b1d7-7e5f99fdf3b7"},"vehicle_type_id":"4","last_reported":1727471270,"current_range_meters":8400,"station_id":"ce4bhb92rcd13ifvqen0","pricing_plan_id":"cebpf4jnsgd1na2vs0mg"},{"bike_id":"bc5c93bb-1593-446e-ad3a-ae0e3b9ea65d","system_id":"levelo_inurba_marseille","lat":43.30788,"lon":5.37659,"is_reserved":false,"is_disabled":false,"rental_uris":{"android":"levelo://app?vid=bc5c93bb-1593-446e-ad3a-ae0e3b9ea65d","ios":"levelo://app?vid=bc5c93bb-1593-446e-ad3a-ae0e3b9ea65d"},"vehicle_type_id":"4","last_reported":1727471270,"current_range_meters":8800,"station_id":"ce4bgv92rcd13ifvqcq0","pricing_plan_id":"cebpf4jnsgd1na2vs0mg"},{"bike_id":"880a8b62-2a1a-4831-af12-f3e19b642311","system_id":"levelo_inurba_marseille","lat":43.305885,"lon":5.39355,"is_reserved":false,"is_disabled":false,"rental_uris":{"android":"levelo://app?vid=880a8b62-2a1a-4831-af12-f3e19b642311","ios":"levelo://app?vid=880a8b62-2a1a-4831-af12-f3e19b642311"},"vehicle_type_id":"4","last_reported":1727471270,"current_range_meters":38800,"station_id":"ce4bh0p2rcd13ifvqd80","pricing_plan_id":"cebpf4jnsgd1na2vs0mg"},{"bike_id":"9932632a-c37f-4d34-8ac0-9adf51610bd1","system_id":"levelo_inurba_marseille","lat":43.25083,"lon":5.39518,"is_reserved":false,"is_disabled":false,"rental_uris":{"android":"levelo://app?vid=9932632a-c37f-4d34-8ac0-9adf51610bd1","ios":"levelo://app?vid=9932632a-c37f-4d34-8ac0-9adf51610bd1"},"vehicle_type_id":"4","last_reported":1727471270,"current_range_meters":38800,"station_id":"ce4bhm12rcd13ifvqgkg","pricing_plan_id":"cebpf4jnsgd1na2vs0mg"},{"bike_id":"09c27873-3058-4d81-ab9f-20da31a90615","system_id":"levelo_inurba_marseille","lat":43.32111,"lon":5.3678,"is_reserved":false,"is_disabled":false,"rental_uris":{"android":"levelo://app?vid=09c27873-3058-4d81-ab9f-20da31a90615","ios":"levelo://app?vid=09c27873-3058-4d81-ab9f-20da31a90615"},"vehicle_type_id":"4","last_reported":1727471270,"current_range_meters":32400,"station_id":"ce4bhrh2rcd13ifvqhug","pricing_plan_id":"cebpf4jnsgd1na2vs0mg"},{"bike_id":"c4cd5567-df5e-4387-b892-0571fdc57add","system_id":"levelo_inurba_marseille","lat":43.32662,"lon":5.40988,"is_reserved":false,"is_disabled":false,"rental_uris":{"android":"levelo://app?vid=c4cd5567-df5e-4387-b892-0571fdc57add","ios":"levelo://app?vid=c4cd5567-df5e-4387-b892-0571fdc57add"},"vehicle_type_id":"4","last_reported":1727471270,"current_range_meters":10800,"station_id":"ce4bhpp2rcd13ifvqhgg","pricing_plan_id":"cebpf4jnsgd1na2vs0mg"},{"bike_id":"2d55bc31-f3d0-492c-9e89-8393ebb1ce80","system_id":"levelo_inurba_marseille","lat":43.24662,"lon":5.38163,"is_reserved":false,"is_disabled":false,"rental_uris":{"android":"levelo://app?vid=2d55bc31-f3d0-492c-9e89-8393ebb1ce80","ios":"levelo://app?vid=2d55bc31-f3d0-492c-9e89-8393ebb1ce80"},"vehicle_type_id":"4","last_reported":1727471270,"current_range_meters":13600,"station_id":"ce4bhih2rcd13ifvqfr0","pricing_plan_id":"cebpf4jnsgd1na2vs0mg"},{"bike_id":"9c2a20ad-e87d-4689-910e-ebf3ab8a69fe","system_id":"levelo_inurba_marseille","lat":43.30457,"lon":5.37905,"is_reserved":false,"is_disabled":false,"rental_uris":{"android":"levelo://app?vid=9c2a20ad-e87d-4689-910e-ebf3ab8a69fe","ios":"levelo://app?vid=9c2a20ad-e87d-4689-910e-ebf3ab8a69fe"},"vehicle_type_id":"4","last_reported":1727471270,"current_range_meters":38000,"station_id":"ce4bgup2rcd13ifvqcn0","pricing_plan_id":"cebpf4jnsgd1na2vs0mg"},{"bike_id":"2b301aa2-4399-4823-ad3e-0c03809dfc5d","system_id":"levelo_inurba_marseille","lat":43.26033,"lon":5.38197,"is_reserved":false,"is_disabled":false,"rental_uris":{"android":"levelo://app?vid=2b301aa2-4399-4823-ad3e-0c03809dfc5d","ios":"levelo://app?vid=2b301aa2-4399-4823-ad3e-0c03809dfc5d"},"vehicle_type_id":"4","last_reported":1727471270,"current_range_meters":31200,"station_id":"","pricing_plan_id":"cebpf4jnsgd1na2vs0mg"},{"bike_id":"d49c88b9-8274-437c-8b0a-a85d2cbdf994","system_id":"levelo_inurba_marseille","lat":43.27563,"lon":5.38432,"is_reserved":false,"is_disabled":false,"rental_uris":{"android":"levelo://app?vid=d49c88b9-8274-437c-8b0a-a85d2cbdf994","ios":"levelo://app?vid=d49c88b9-8274-437c-8b0a-a85d2cbdf994"},"vehicle_type_id":"4","last_reported":1727471270,"current_range_meters":37600,"station_id":"ce4bhh92rcd13ifvqfi0","pricing_plan_id":"cebpf4jnsgd1na2vs0mg"},