{"last_updated":1745068546,"ttl":60,"version":"2.2","data":{"bikes":[{"bike_id":"b71b0f89-195b-482f-8e23-8b839891cd67","system_id":"levelo_inurba_marseille","lat":43.27374,"lon":5.36239,"is_reserved":false,"is_disabled":false,"rental_uris":{"android":"levelo://app?vid=b71b0f89-195b-482f-8e23-8b839891cd67","ios":"levelo://app?vid=b71b0f89-195b-482f-8e23-8b839891cd67"},"vehicle_type_id":"4","last_reported":1745068546,"current_range_meters":2800,"station_id":"ce4bhbh2rcd13ifvqeo0","pricing_plan_id":"cebpf4jnsgd1na2vs0mg"},{"bike_id":"276d94a9-b91a-47b5-b4e8-19ed1fdcca68","system_id":"levelo_inurba_marseille","lat":43.29549,"lon":5.42287,"is_reserved":false,"is_disabled":true,"rental_uris":{"android":"levelo://app?vid=276d94a9-b91a-47b5-b4e8-19ed1fdcca68","ios":"levelo://app?vid=276d94a9-b91a-47b5-b4e8-19ed1fdcca68"},"vehicle_type_id":"4","last_reported":1745068546,"current_range_meters":2800,"station_id":"ce4bhph2rcd13ifvqhdg","pricing_plan_id":"cebpf4jnsgd1na2vs0mg"},{"bike_id":"b40cc585-c4c8-42ac-9a26-08c3637f96f5","system_id":"levelo_inurba_marseille","lat":43.28273,"lon":5.35055,"is_reserved":false,"is_disabled":false,"rental_uris":{"android":"levelo://app?vid=b40cc585-c4c8-42ac-9a26-08c3637f96f5","ios":"levelo://app?vid=b40cc585-c4c8-42ac-9a26-08c3637f96f5"},"vehicle_type_id":"4","last_reported":1745068546,"current_range_meters":3200,"station_id":"ce4bhbp2rcd13ifvqerg","pricing_plan_id":"cebpf4jnsgd1na2vs0mg"},{"bike_id":"972b7909-de9b-4a24-ad6c-b24b1500c628","system_id":"levelo_inurba_marseille","lat":43.301418,"lon":5.374218,"is_reserved":false,"is_disabled":false,"rental_uris":{"android":"levelo://app?vid=972b7909-de9b-4a24-ad6c-b24b1500c628","ios":"levelo://app?vid=972b7909-de9b-4a24-ad6c-b24b1500c628"},"vehicle_type_id":"4","last_reported":1745068546,"current_range_meters":2800,"station_id":"ce4bh412rcd13ifvqdr0","pricing_plan_id":"cebpf4jnsgd1na2vs0mg"},{"bike_id":"da6d4f7b-e77a-41ff-9aa6-8a31196c143d","system_id":"levelo_inurba_marseille","lat":43.29883,"lon":5.39727,"is_reserved":false,"is_disabled":false,"rental_uris":{"android":"levelo://app?vid=da6d4f7b-e77a-41ff-9aa6-8a31196c143d","ios":"levelo://app?vid=da6d4f7b-e77a-41ff-9aa6-8a31196c143d"},"vehicle_type_id":"4","last_reported":1745068546,"current_range_meters":3600,"station_id":"ce4bh0h2rcd13ifvqd50","pricing_plan_id":"cebpf4jnsgd1na2vs0mg"},{"bike_id":"eedb2d4e-0700-477f-af7a-b6924752e0d1","system_id":"levelo_inurba_marseille","lat":43.27912,"lon":5.39577,"is_reserved":false,"is_disabled":false,"rental_uris":{"android":"levelo://app?vid=eedb2d4e-0700-477f-af7a-b6924752e0d1","ios":"levelo://app?vid=eedb2d4e-0700-477f-af7a-b6924752e0d1"},"vehicle_type_id":"4","last_reported":1745068546,"current_range_meters":3600,"station_id":"ce4bhf92rcd13ifvqf40","pricing_plan_id":"cebpf4jnsgd1na2vs0mg"},{"bike_id":"cf37ac8f-588d-449f-9e37-509ecd45b1d5","system_id":"levelo_inurba_marseille","lat":43.25493,"lon":5.37648,"is_reserved":false,"is_disabled":false,"rental_uris":{"android":"levelo://app?vid=cf37ac8f-588d-449f-9e37-509ecd45b1d5","ios":"levelo://app?vid=cf37ac8f-588d-449f-9e37-509ecd45b1d5"},"vehicle_type_id":"4","last_reported":1745068546,"current_range_meters":4000,"station_id":"ce4bhh12rcd13ifvqff0","pricing_plan_id":"cebpf4jnsgd1na2vs0mg"},{"bike_id":"d4c0c169-afc3-48a7-a1cc-e6e57b3f78a2","system_id":"levelo_inurba_marseille","lat":43.28691,"lon":5.3866,"is_reserved":false,"is_disabled":false,"rental_uris":{"android":"levelo://app?vid=d4c0c169-afc3-48a7-a1cc-e6e57b3f78a2","ios":"levelo://app?vid=d4c0c169-afc3-48a7-a1cc-e6e57b3f78a2"},"vehicle_type_id":"4","last_reported":1745068546,"current_range_meters":4000,"station_id":"ce4bh492rcd13ifvqdug","pricing_plan_id":"cebpf4jnsgd1na2vs0mg"},{"bike_id":"c66bf4ad-07c5-4a49-9d03-35e1d25797da","system_id":"levelo_inurba_marseille","lat":43.23963,"lon":5.36632,"is_reserved":false,"is_disabled":false,"rental_uris":{"android":"levelo://app?vid=c66bf4ad-07c5-4a49-9d03-35e1d25797da","ios":"levelo://app?vid=c66bf4ad-07c5-4a49-9d03-35e1d25797da"},"vehicle_type_id":"4","last_reported":1745068546,"current_range_meters":4000,"station_id":"ce4bhi12rcd13ifvqfp0","pricing_plan_id":"cebpf4jnsgd1na2vs0mg"},{"bike_id":"e369021b-0d8f-4f35-ac98-ece8d4434798","system_id":"levelo_inurba_marseille","lat":43.28268,"lon":5.35053,"is_reserved":false,"is_disabled":false,"rental_uris":{"android":"levelo://app?vid=e369021b-0d8f-4f35-ac98-ece8d4434798","ios":"levelo://app?vid=e369021b-0d8f-4f35-ac98-ece8d4434798"},"vehicle_type_id":"4","last_reported":1745068546,"current_range_meters":4000,"station_id":"ce4bhbp2rcd13ifvqerg","pricing_plan_id":"cebpf4jnsgd1na2vs0mg"},{"bike_id":"f681940d-a7a2-4c55-95c1-650a8db09e2f","system_id":"levelo_inurba_marseille","lat":43.286163,"lon":5.351063,"is_reserved":false,"is_disabled":false,"rental_uris":{"android":"levelo://app?vid=f681940d-a7a2-4c55-95c1-650a8db09e2f","ios":"levelo://app?vid=f681940d-a7a2-4c55-95c1-650a8db09e2f"},"vehicle_type_id":"4","last_reported":1745068546,"current_range_meters":4000,"station_id":"","pricing_plan_id":"cebpf4jnsgd1na2vs0mg"},{"bike_id":"fcf610cb-aa87-4c44-8fec-cb3af108cccc","system_id":"levelo_inurba_marseille","lat":43.225037,"lon":5.347824,"is_reserved":false,"is_disabled":false,"rental_uris":{"android":"levelo://app?vid=fcf610cb-aa87-4c44-8fec-cb3af108cccc","ios":"levelo://app?vid=fcf610cb-aa87-4c44-8fec-cb3af108cccc"},"vehicle_type_id":"4","last_reported":1745068546,"current_range_meters":4000,"station_id":"ce4bhh12rcd13ifvqff0","pricing_plan_id":"cebpf4jnsgd1na2vs0mg"},{"bike_id":"e2694bc7-c97e-446e-9c13-0379d0565813","system_id":"levelo_inurba_marseille","lat":43.28922,"lon":5.384,"is_reserved":false,"is_disabled":false,"rental_uris":{"android":"levelo://app?vid=e2694bc7-c97e-446e-9c13-0379d0565813","ios":"levelo://app?vid=e2694bc7-c97e-446e-9c13-0379d0565813"},"vehicle_type_id":"4","last_reported":1745068546,"current_range_meters":4000,"station_id":"ce4bh612rcd13ifvqe6g","pricing_plan_id":"cebpf4jnsgd1na2vs0mg"},{"bike_id":"abd70e71-c44f-4ef5-962a-28e629079420","system_id":"levelo_inurba_marseille","lat":43.26681,"lon":5.38266,"is_reserved":false,"is_disabled":false,"rental_uris":{"android":"levelo://app?vid=abd70e71-c44f-4ef5-962a-28e629079420","ios":"levelo://app?vid=abd70e71-c44f-4ef5-962a-28e629079420"},"vehicle_type_id":"4","last_reported":1745068546,"current_range_meters":4400,"station_id":"ce4bhg92rcd13ifvqf90","pricing_plan_id":"cebpf4jnsgd1na2vs0mg"},{"bike_id":"95c151aa-843b-4661-8506-11d41698cb76","system_id":"levelo_inurba_marseille","lat":43.2307,"lon":5.35496,"is_reserved":false,"is_disabled":false,"rental_uris":{"android":"levelo://app?vid=95c151aa-843b-4661-8506-11d41698cb76","ios":"levelo://app?vid=95c151aa-843b-4661-8506-11d41698cb76"},"vehicle_type_id":"4","last_reported":1745068546,"current_range_meters":4400,"station_id":"cpo3342slgdg3j2ifvpg","pricing_plan_id":"cebpf4jnsgd1na2vs0mg"},{"bike_id":"9cd614cc-9040-4860-9a5f-5b21ae142bf0","system_id":"levelo_inurba_marseille","lat":43.29512,"lon":5.39395,"is_reserved":false,"is_disabled":false,"rental_uris":{"android":"levelo://app?vid=9cd614cc-9040-4860-9a5f-5b21ae142bf0","ios":"levelo://app?vid=9cd614cc-9040-4860-9a5f-5b21ae142bf0"},"vehicle_type_id":"4","last_reported":1745068546,"current_range_meters":4400,"station_id":"ce4bh292rcd13ifvqdf0","pricing_plan_id":"cebpf4jnsgd1na2vs0mg"},{"bike_id":"3823c38e-1136-4122-84ac-c482fcb68d48","system_id":"levelo_inurba_marseille","lat":43.30206,"lon":5.39466,"is_reserved":false,"is_disabled":false,"rental_uris":{"android":"levelo://app?vid=3823c38e-1136-4122-84ac-c482fcb68d48","ios":"levelo://app?vid=3823c38e-1136-4122-84ac-c482fcb68d48"},"vehicle_type_id":"4","last_reported":1745068546,"current_range_meters":4400,"station_id":"ce4bh0p2rcd13ifvqd70","pricing_plan_id":"cebpf4jnsgd1na2vs0mg"},{"bike_id":"6040efaf-6760-446f-9c27-3d136ee226b0","system_id":"levelo_inurba_marseille","lat":43.28477,"lon":5.3843,"is_reserved":false,"is_disabled":false,"rental_uris":{"android":"levelo://app?vid=6040efaf-6760-446f-9c27-3d136ee226b0","ios":"levelo://app?vid=6040efaf-6760-446f-9c27-3d136ee226b0"},"vehicle_type_id":"4","last_reported":1745068546,"current_range_meters":4800,"station_id":"ce4bh512rcd13ifvqe3g","pricing_plan_id":"cebpf4jnsgd1na2vs0mg"},{"bike_id":"53e42e02-f19e-4a06-82ed-806c23b9f2f8","system_id":"levelo_inurba_marseille","lat":43.28624,"lon":5.35095,"is_reserved":false,"is_disabled":false,"rental_uris":{"android":"levelo://app?vid=53e42e02-f19e-4a06-82ed-806c23b9f2f8","ios":"levelo://app?vid=53e42e02-f19e-4a06-82ed-806c23b9f2f8"},"vehicle_type_id":"4","last_reported":1745068546,"current_range_meters":4800,"station_id":"ce4bhch2rcd13ifvqeug","pricing_plan_id":"cebpf4jnsgd1na2vs0mg"},{"bike_id":"96d65e58-f769-4817-ab2d-2131c187efb8","system_id":"levelo_inurba_marseille","lat":43.28622,"lon":5.35094,"is_reserved":false,"is_disabled":false,"rental_uris":{"android":"levelo://app?vid=96d65e58-f769-4817-ab2d-2131c187efb8","ios":"levelo://app?vid=96d65e58-f769-4817-ab2d-2131c187efb8"},"vehicle_type_id":"4","last_reported":1745068546,"current_range_meters":4800,"station_id":"ce4bhch2rcd13ifvqeug","pricing_plan_id":"cebpf4jnsgd1na2vs0mg"},{"bike_id":"6987c513-b50c-45b1-80e3-356055d982d5","system_id":"levelo_inurba_marseille","lat":43.29958,"lon":5.37753,"is_reserved":false,"is_disabled":true,"rental_uris":{"android":"levelo://app?vid=6987c513-b50c-45b1-80e3-356055d982d5","ios":"levelo://app?vid=6987c513-b50c-45b1-80e3-356055d982d5"},"vehicle_type_id":"4","last_reported":1745068546,"current_range_meters":5600,"station_id":"","pricing_plan_id":"cebpf4jnsgd1na2vs0mg"},{"bike_id":"40cf7771-7bb3-48d5-838e-856dd72c19fd","system_id":"levelo_inurba_marseille","lat":43.21749,"lon":5.34593,"is_reserved":false,"is_disabled":false,"rental_uris":{"android":"levelo://app?vid=40cf7771-7bb3-48d5-838e-856dd72c19fd","ios":"levelo://app?vid=40cf7771-7bb3-48d5-838e-856dd72c19fd"},"vehicle_type_id":"4","last_reported":1745068546,"current_range_meters":5600,"station_id":"","pricing_plan_id":"cebpf4jnsgd1na2vs0mg"},{"bike_id":"867ba3e6-02f0-4d30-94f2-472679496adc","system_id":"levelo_inurba_marseille","lat":43.241561,"lon":5.390342,"is_reserved":false,"is_disabled":false,"rental_uris":{"android":"levelo://app?vid=867ba3e6-02f0-4d30-94f2-472679496adc","ios":"levelo://app?vid=867ba3e6-02f0-4d30-94f2-472679496adc"},"vehicle_type_id":"4","last_reported":1745068546,"current_range_meters":6000,"station_id":"ce4bhh12rcd13ifvqff0","pricing_plan_id":"cebpf4jnsgd1na2vs0mg"},{"bike_id":"f80edf55-75b7-48f1-8770-a2827fd79913","system_id":"levelo_inurba_marseille","lat":43.28072,"lon":5.39651,"is_reserved":false,"is_disabled":false,"rental_uris":{"android":"levelo://app?vid=f80edf55-75b7-48f1-8770-a2827fd79913","ios":"levelo://app?vid=f80edf55-75b7-48f1-8770-a2827fd79913"},"vehicle_type_id":"4","last_reported":1745068546,"current_range_meters":6000,"station_id":"ce4bho12rcd13ifvqh2g","pricing_plan_id":"cebpf4jnsgd1na2vs0mg"},{"bike_id":"a968bc14-c848-422a-b8e8-61f50cb7032f","system_id":"levelo_inurba_marseille","lat":43.30804,"lon":5.43515,"is_reserved":false,"is_disabled":false,"rental_uris":{"android":"levelo://app?vid=a968bc14-c848-422a-b8e8-61f50cb7032f","ios":"levelo://app?vid=a968bc14-c848-422a-b8e8-61f50cb7032f"},"vehicle_type_id":"4","last_reported":1745068546,"current_range_meters":6000,"station_id":"ce4bhph2rcd13ifvqheg","pricing_plan_id":"cebpf4jnsgd1na2vs0mg"},{"bike_id":"d755de93-ece1-4920-93b6-fb47bf95621e","system_id":"levelo_inurba_marseille","lat":43.23963,"lon":5.36631,"is_reserved":false,"is_disabled":false,"rental_uris":{"android":"levelo://app?vid=d755de93-ece1-4920-93b6-fb47bf95621e","ios":"levelo://app?vid=d755de93-ece1-4920-93b6-fb47bf95621e"},"vehicle_type_id":"4","last_reported":1745068546,"current_range_meters":6000,"station_id":"ce4bhi12rcd13ifvqfp0","pricing_plan_id":"cebpf4jnsgd1na2vs0mg"},{"bike_id":"fc442d84-3d89-4c7d-bb42-734099f1ede1","system_id":"levelo_inurba_marseille","lat":43.292713,"lon":5.368522,"is_reserved":false,"is_disabled":false,"rental_uris":{"android":"levelo://app?vid=fc442d84-3d89-4c7d-bb42-734099f1ede1","ios":"levelo://app?vid=fc442d84-3d89-4c7d-bb42-734099f1ede1"},"vehicle_type_id":"4","last_reported":1745068546,"current_range_meters":6000,"station_id":"ce4bhbp2rcd13ifvqesg","pricing_plan_id":"cebpf4jnsgd1na2vs0mg"},{"bike_id":"d4d9b665-d4f4-49cf-9dcd-00e920a45b50","system_id":"levelo_inurba_marseille","lat":43.25832,"lon":5.39417,"is_reserved":false,"is_disabled":false,"rental_uris":{"android":"levelo://app?vid=d4d9b665-d4f4-49cf-9dcd-00e920a45b50","ios":"levelo://app?vid=d4d9b665-d4f4-49cf-9dcd-00e920a45b50"},"vehicle_type_id":"4","last_reported":1745068546,"current_range_meters":6000,"station_id":"ce4bhip2rcd13ifvqft0","pricing_plan_id":"cebpf4jnsgd1na2vs0mg"},{"bike_id":"310b6699-38ad-4ec1-8a16-2c0c109b0bf0","system_id":"levelo_inurba_marseille","lat":43.2174,"lon":5.34606,"is_reserved":false,"is_disabled":false,"rental_uris":{"android":"levelo://app?vid=310b6699-38ad-4ec1-8a16-2c0c109b0bf0","ios":"levelo://app?vid=310b6699-38ad-4ec1-8a16-2c0c109b0bf0"},"vehicle_type_id":"4","last_reported":1745068546,"current_range_meters":6000,"station_id":"st_cvj6r9ubvosntc0bgbag","pricing_plan_id":"cebpf4jnsgd1na2vs0mg"},{"bike_id":"a4ee9808-c56f-429a-bd9e-2837e81985cb","system_id":"levelo_inurba_marseille","lat":43.27983,"lon":5.41675,"is_reserved":false,"is_disabled":true,"rental_uris":{"android":"levelo://app?vid=a4ee9808-c56f-429a-bd9e-2837e81985cb","ios":"levelo://app?vid=a4ee9808-c56f-429a-bd9e-2837e81985cb"},"vehicle_type_id":"4","last_reported":1745068546,"current_range_meters":6400,"station_id":"ce4bho12rcd13ifvqh1g","pricing_plan_id":"cebpf4jnsgd1na2vs0mg"},{"bike_id":"3668fcd9-f884-47db-a407-25397bdf4a06","system_id":"levelo_inurba_marseille","lat":43.28417,"lon":5.37504,"is_reserved":false,"is_disabled":false,"rental_uris":{"android":"levelo://app?vid=3668fcd9-f884-47db-a407-25397bdf4a06","ios":"levelo://app?vid=3668fcd9-f884-47db-a407-25397bdf4a06"},"vehicle_type_id":"4","last_reported":1745068546,"current_range_meters":6400,"station_id":"ce4bh412rcd13ifvqds0","pricing_plan_id":"cebpf4jnsgd1na2vs0mg"},{"bike_id":"ab764483-a02d-4049-a5ff-724b453ef4fb","system_id":"levelo_inurba_marseille","lat":43.28651,"lon":5.36352,"is_reserved":false,"is_disabled":false,"rental_uris":{"android":"levelo://app?vid=ab764483-a02d-4049-a5ff-724b453ef4fb","ios":"levelo://app?vid=ab764483-a02d-4049-a5ff-724b453ef4fb"},"vehicle_type_id":"4","last_reported":1745068546,"current_range_meters":6400,"station_id":"ce4bhah2rcd13ifvqej0","pricing_plan_id":"cebpf4jnsgd1na2vs0mg"},{"bike_id":"678d1aa7-dc7f-4ee1-a950-5a4f554ad695","system_id":"levelo_inurba_marseille","lat":43.297849,"lon":5.39361,"is_reserved":false,"is_disabled":true,"rental_uris":{"android":"levelo://app?vid=678d1aa7-dc7f-4ee1-a950-5a4f554ad695","ios":"levelo://app?vid=678d1aa7-dc7f-4ee1-a950-5a4f554ad695"},"vehicle_type_id":"4","last_reported":1745068546,"current_range_meters":6400,"station_id":"chh1huq6cuj3fo74tm60","pricing_plan_id":"cebpf4jnsgd1na2vs0mg"},{"bike_id":"1210dc72-37b8-49f7-b249-6faa54daba28","system_id":"levelo_inurba_marseille","lat":43.323597,"lon":5.367559,"is_reserved":false,"is_disabled":false,"rental_uris":{"android":"levelo://app?vid=1210dc72-37b8-49f7-b249-6faa54daba28","ios":"levelo://app?vid=1210dc72-37b8-49f7-b249-6faa54daba28"},"vehicle_type_id":"4","last_reported":1745068546,"current_range_meters":6800,"station_id":"ce4bhsh2rcd13ifvqi2g","pricing_plan_id":"cebpf4jnsgd1na2vs0mg"},{"bike_id":"b66f1ee8-17a9-4e81-a3e5-fa3b397097b1","system_id":"levelo_inurba_marseille","lat":43.275701,"lon":5.384219,"is_reserved":false,"is_disabled":false,"rental_uris":{"android":"levelo://app?vid=b66f1ee8-17a9-4e81-a3e5-fa3b397097b1","ios":"levelo://app?vid=b66f1ee8-17a9-4e81-a3e5-fa3b397097b1"},"vehicle_type_id":"4","last_reported":1745068546,"current_range_meters":6800,"station_id":"ce4bha92rcd13ifvqeh0","pricing_plan_id":"cebpf4jnsgd1na2vs0mg"},{"bike_id":"1b2fbc27-2bb6-45fc-9836-1b24b2218ed9","system_id":"levelo_inurba_marseille","lat":43.26179,"lon":5.3747,"is_reserved":false,"is_disabled":false,"rental_uris":{"android":"levelo://app?vid=1b2fbc27-2bb6-45fc-9836-1b24b2218ed9","ios":"levelo://app?vid=1b2fbc27-2bb6-45fc-9836-1b24b2218ed9"},"vehicle_type_id":"4","last_reported":1745068546,"current_range_meters":6800,"station_id":"ce4bhgp2rcd13ifvqfc0","pricing_plan_id":"cebpf4jnsgd1na2vs0mg"},{"bike_id":"38d71541-39fa-44bc-b9fa-dad7cbdc7434","system_id":"levelo_inurba_marseille","lat":43.28758,"lon":5.38662,"is_reserved":false,"is_disabled":false,"rental_uris":{"android":"levelo://app?vid=38d71541-39fa-44bc-b9fa-dad7cbdc7434","ios":"levelo://app?vid=38d71541-39fa-44bc-b9fa-dad7cbdc7434"},"vehicle_type_id":"4","last_reported":1745068546,"current_range_meters":6800,"station_id":"","pricing_plan_id":"cebpf4jnsgd1na2vs0mg"},{"bike_id":"38c7efc4-9358-4799-9194-c9e5b5909297","system_id":"levelo_inurba_marseille","lat":43.273133,"lon":5.390844,"is_reserved":false,"is_disabled":false,"rental_uris":{"android":"levelo://app?vid=38c7efc4-9358-4799-9194-c9e5b5909297","ios":"levelo://app?vid=38c7efc4-9358-4799-9194-c9e5b5909297"},"vehicle_type_id":"4","last_reported":1745068546,"current_range_meters":6800,"station_id":"ce4bhgp2rcd13ifvqfe0","pricing_plan_id":"cebpf4jnsgd1na2vs0mg"},{"bike_id":"8eb04380-c923-40ca-96f6-f75662afe34b","system_id":"levelo_inurba_marseille","lat":43.31495,"lon":5.37291,"is_reserved":false,"is_disabled":false,"rental_uris":{"android":"levelo://app?vid=8eb04380-c923-40ca-96f6-f75662afe34b","ios":"levelo://app?vid=8eb04380-c923-40ca-96f6-f75662afe34b"},"vehicle_type_id":"4","last_reported":1745068546,"current_range_meters":7200,"station_id":"ce4bgt12rcd13ifvqcd0","pricing_plan_id":"cebpf4jnsgd1na2vs0mg"},{"bike_id":"5ad8dd6b-ee8a-4f3f-924e-6d10a631b0b3","system_id":"levelo_inurba_marseille","lat":43.26196,"lon":5.37918,"is_reserved":false,"is_disabled":true,"rental_uris":{"android":"levelo://app?vid=5ad8dd6b-ee8a-4f3f-924e-6d10a631b0b3","ios":"levelo://app?vid=5ad8dd6b-ee8a-4f3f-924e-6d10a631b0b3"},"vehicle_type_id":"4","last_reported":1745068546,"current_range_meters":7200,"station_id":"ce4bhjp2rcd13ifvqg90","pricing_plan_id":"cebpf4jnsgd1na2vs0mg"},{"bike_id":"bf3a0596-bc70-4afa-ac6c-3c8e00df2eff","system_id":"levelo_inurba_marseille","lat":43.28064,"lon":5.39643,"is_reserved":false,"is_disabled":false,"rental_uris":{"android":"levelo://app?vid=bf3a0596-bc70-4afa-ac6c-3c8e00df2eff","ios":"levelo://app?vid=bf3a0596-bc70-4afa-ac6c-3c8e00df2eff"},"vehicle_type_id":"4","last_reported":1745068546,"current_range_meters":7200,"station_id":"ce4bho12rcd13ifvqh2g","pricing_plan_id":"cebpf4jnsgd1na2vs0mg"},{"bike_id":"eb789697-8952-47b7-a2df-d37b78a3ee47","system_id":"levelo_inurba_marseille","lat":43.270757,"lon":5.364933,"is_reserved":false,"is_disabled":false,"rental_uris":{"android":"levelo://app?vid=eb789697-8952-47b7-a2df-d37b78a3ee47","ios":"levelo://app?vid=eb789697-8952-47b7-a2df-d37b78a3ee47"},"vehicle_type_id":"4","last_reported":1745068546,"current_range_meters":8000,"station_id":"ce4bhg12rcd13ifvqf70","pricing_plan_id":"cebpf4jnsgd1na2vs0mg"},{"bike_id":"ceccb53e-f407-4874-bbec-f56a430aea7c","system_id":"levelo_inurba_marseille","lat":43.24806,"lon":5.37453,"is_reserved":false,"is_disabled":true,"rental_uris":{"android":"levelo://app?vid=ceccb53e-f407-4874-bbec-f56a430aea7c","ios":"levelo://app?vid=ceccb53e-f407-4874-bbec-f56a430aea7c"},"vehicle_type_id":"4","last_reported":1745068546,"current_range_meters":8000,"station_id":"ce4bhgh2rcd13ifvqfb0","pricing_plan_id":"cebpf4jnsgd1na2vs0mg"},{"bike_id":"46f313f0-e7e5-474d-a6dc-dee6f2772c4b","system_id":"levelo_inurba_marseille","lat":43.29257,"lon":5.38444,"is_reserved":false,"is_disabled":false,"rental_uris":{"android":"levelo://app?vid=46f313f0-e7e5-474d-a6dc-dee6f2772c4b","ios":"levelo://app?vid=46f313f0-e7e5-474d-a6dc-dee6f2772c4b"},"vehicle_type_id":"4","last_reported":1745068546,"current_range_meters":8400,"station_id":"ce4bh692rcd13ifvqea0","pricing_plan_id":"cebpf4jnsgd1na2vs0mg"},{"bike_id":"4698b1c7-022b-419c-a579-2f0a5cb8fb85","system_id":"levelo_inurba_marseille","lat":43.26208,"lon":5.37439,"is_reserved":false,"is_disabled":false,"rental_uris":{"android":"levelo://app?vid=4698b1c7-022b-419c-a579-2f0a5cb8fb85","ios":"levelo://app?vid=4698b1c7-022b-419c-a579-2f0a5cb8fb85"},"vehicle_type_id":"4","last_reported":1745068546,"current_range_meters":8400,"station_id":"ce4bhgp2rcd13ifvqfc0","pricing_plan_id":"cebpf4jnsgd1na2vs0mg"},{"bike_id":"3abcd8a1-bc4b-4780-96f7-c41259227a65","system_id":"levelo_inurba_marseille","lat":43.29887,"lon":5.38438,"is_reserved":false,"is_disabled":false,"rental_uris":{"android":"levelo://app?vid=3abcd8a1-bc4b-4780-96f7-c41259227a65","ios":"levelo://app?vid=3abcd8a1-bc4b-4780-96f7-c41259227a65"},"vehicle_type_id":"4","last_reported":1745068546,"current_range_meters":8400,"station_id":"","pricing_plan_id":"cebpf4jnsgd1na2vs0mg"},{"bike_id":"c42c97dc-851b-476d-ba23-67d0582febc0","system_id":"levelo_inurba_marseille","lat":43.30327,"lon":5.4042,"is_reserved":false,"is_disabled":true,"rental_uris":{"android":"levelo://app?vid=c42c97dc-851b-476d-ba23-67d0582febc0","ios":"levelo://app?vid=c42c97dc-851b-476d-ba23-67d0582febc0"},"vehicle_type_id":"4","last_reported":1745068546,"current_range_meters":8400,"station_id":"ce4bh012rcd13ifvqd10","pricing_plan_id":"cebpf4jnsgd1na2vs0mg"},{"bike_id":"4a86d0f8-ff65-4446-9521-1002867a3da0","system_id":"levelo_inurba_marseille","lat":43.24547,"lon":5.395168,"is_reserved":false,"is_disabled":true,"rental_uris":{"android":"levelo://app?vid=4a86d0f8-ff65-4446-9521-1002867a3da0","ios":"levelo://app?vid=4a86d0f8-ff65-4446-9521-1002867a3da0"},"vehicle_type_id":"4","last_reported":1745068546,"current_range_meters":8400,"station_id":"ce4bhlp2rcd13ifvqgjg","pricing_plan_id":"cebpf4jnsgd1na2vs0mg"},{"bike_id":"123f3ba5-4cc8-4f64-aa99-844ff6581e68","system_id":"levelo_inurba_marseille","lat":43.26555,"lon":5.37283,"is_reserved":false,"is_disabled":false,"rental_uris":{"android":"levelo://app?vid=123f3ba5-4cc8-4f64-aa99-844ff6581e68","ios":"levelo://app?vid=123f3ba5-4cc8-4f64-aa99-844ff6581e68"},"vehicle_type_id":"4","last_reported":1745068546,"current_range_meters":8400,"station_id":"ce4bhg12rcd13ifvqf70","pricing_plan_id":"cebpf4jnsgd1na2vs0mg"},{"bike_id":"934a8fc0-98f8-4aaf-a145-d485dee937c7","system_id":"levelo_inurba_marseille","lat":43.3236,"lon":5.36755,"is_reserved":false,"is_disabled":false,"rental_uris":{"android":"levelo://app?vid=934a8fc0-98f8-4aaf-a145-d485dee937c7","ios":"levelo://app?vid=934a8fc0-98f8-4aaf-a145-d485dee937c7"},"vehicle_type_id":"4","last_reported":1745068546,"current_range_meters":8400,"station_id":"ce4bhsh2rcd13ifvqi2g","pricing_plan_id":"cebpf4jnsgd1na2vs0mg"},{"bike_id":"a0ddb0a5-f7f0-4281-aa27-9e82747cc573","system_id":"levelo_inurba_marseille","lat":43.33754,"lon":5.37491,"is_reserved":false,"is_disabled":false,"rental_uris":{"android":"levelo://app?vid=a0ddb0a5-f7f0-4281-aa27-9e82747cc573","ios":"levelo://app?vid=a0ddb0a5-f7f0-4281-aa27-9e82747cc573"},"vehicle_type_id":"4","last_reported":1745068546,"current_range_meters":8400,"station_id":"","pricing_plan_id":"cebpf4jnsgd1na2vs0mg"},{"bike_id":"96ba4b05-8832-45c2-be0e-9fc6f33efe71","system_id":"levelo_inurba_marseille","lat":43.284112,"lon":5.375089,"is_reserved":false,"is_disabled":false,"rental_uris":{"android":"levelo://app?vid=96ba4b05-8832-45c2-be0e-9fc6f33efe71","ios":"levelo://app?vid=96ba4b05-8832-45c2-be0e-9fc6f33efe71"},"vehicle_type_id":"4","last_reported":1745068546,"current_range_meters":8800,"station_id":"","pricing_plan_id":"cebpf4jnsgd1na2vs0mg"},{"bike_id":"74b8a8e7-32b2-4075-9dae-f084269e56fc","system_id":"levelo_inurba_marseille","lat":43.230612,"lon":5.354899,"is_reserved":false,"is_disabled":false,"rental_uris":{"android":"levelo://app?vid=74b8a8e7-32b2-4075-9dae-f084269e56fc","ios":"levelo://app?vid=74b8a8e7-32b2-4075-9dae-f084269e56fc"},"vehicle_type_id":"4","last_reported":1745068546,"current_range_meters":8800,"station_id":"cpo3342slgdg3j2ifvpg","pricing_plan_id":"cebpf4jnsgd1na2vs0mg"},{"bike_id":"8d174f5e-51c2-42e7-a327-8417815d6a64","system_id":"levelo_inurba_marseille","lat":43.28274,"lon":5.35059,"is_reserved":false,"is_disabled":false,"rental_uris":{"android":"levelo://app?vid=8d174f5e-51c2-42e7-a327-8417815d6a64","ios":"levelo://app?vid=8d174f5e-51c2-42e7-a327-8417815d6a64"},"vehicle_type_id":"4","last_reported":1745068546,"current_range_meters":8800,"station_id":"ce4bhbp2rcd13ifvqerg","pricing_plan_id":"cebpf4jnsgd1na2vs0mg"},{"bike_id":"9e953f7b-332d-495d-bcba-a165d2caf030","system_id":"levelo_inurba_marseille","lat":43.27906,"lon":5.38005,"is_reserved":false,"is_disabled":false,"rental_uris":{"android":"levelo://app?vid=9e953f7b-332d-495d-bcba-a165d2caf030","ios":"levelo://app?vid=9e953f7b-332d-495d-bcba-a165d2caf030"},"vehicle_type_id":"4","last_reported":1745068546,"current_range_meters":8400,"station_id":"ce4bhf92rcd13ifvqf50","pricing_plan_id":"cebpf4jnsgd1na2vs0mg"},{"bike_id":"cd7f355f-fc1f-4144-80d1-f8e95eafd676","system_id":"levelo_inurba_marseille","lat":43.29303,"lon":5.37167,"is_reserved":false,"is_disabled":false,"rental_uris":{"android":"levelo://app?vid=cd7f355f-fc1f-4144-80d1-f8e95eafd676","ios":"levelo://app?vid=cd7f355f-fc1f-4144-80d1-f8e95eafd676"},"vehicle_type_id":"4","last_reported":1745068546,"current_range_meters":9200,"station_id":"ce4bgh92rcd13ifvqb40","pricing_plan_id":"cebpf4jnsgd1na2vs0mg"},{"bike_id":"5c59b433-c60a-4d6c-ad2e-c8315bc3bc3d","system_id":"levelo_inurba_marseille","lat":43.30949,"lon":5.39041,"is_reserved":false,"is_disabled":false,"rental_uris":{"android":"levelo://app?vid=5c59b433-c60a-4d6c-ad2e-c8315bc3bc3d","ios":"levelo://app?vid=5c59b433-c60a-4d6c-ad2e-c8315bc3bc3d"},"vehicle_type_id":"4","last_reported":1745068546,"current_range_meters":9200,"station_id":"ce4bgup2rcd13ifvqco0","pricing_plan_id":"cebpf4jnsgd1na2vs0mg"},{"bike_id":"ab7e2dff-a696-456e-a93a-c392c723761e","system_id":"levelo_inurba_marseille","lat":43.26059,"lon":5.39398,"is_reserved":false,"is_disabled":false,"rental_uris":{"android":"levelo://app?vid=ab7e2dff-a696-456e-a93a-c392c723761e","ios":"levelo://app?vid=ab7e2dff-a696-456e-a93a-c392c723761e"},"vehicle_type_id":"4","last_reported":1745068546,"current_range_meters":8800,"station_id":"ce4bhh92rcd13ifvqfj0","pricing_plan_id":"cebpf4jnsgd1na2vs0mg"},{"bike_id":"490b27d3-47d9-494d-9fa9-6854184235c2","system_id":"levelo_inurba_marseille","lat":43.279498,"lon":5.410594,"is_reserved":false,"is_disabled":false,"rental_uris":{"android":"levelo://app?vid=490b27d3-47d9-494d-9fa9-6854184235c2","ios":"levelo://app?vid=490b27d3-47d9-494d-9fa9-6854184235c2"},"vehicle_type_id":"4","last_reported":1745068546,"current_range_meters":9200,"station_id":"","pricing_plan_id":"cebpf4jnsgd1na2vs0mg"},{"bike_id":"4e4a61ac-e03c-47e8-b40a-334ea1322be5","system_id":"levelo_inurba_marseille","lat":43.23196,"lon":5.35547,"is_reserved":false,"is_disabled":false,"rental_uris":{"android":"levelo://app?vid=4e4a61ac-e03c-47e8-b40a-334ea1322be5","ios":"levelo://app?vid=4e4a61ac-e03c-47e8-b40a-334ea1322be5"},"vehicle_type_id":"4","last_reported":1745068546,"current_range_meters":9200,"station_id":"ce4bhu92rcd13ifvqi70","pricing_plan_id":"cebpf4jnsgd1na2vs0mg"},{"bike_id":"5970d52f-f2f1-4092-8c1e-c3c727377bf1","system_id":"levelo_inurba_marseille","lat":43.29957,"lon":5.41316,"is_reserved":false,"is_disabled":false,"rental_uris":{"android":"levelo://app?vid=5970d52f-f2f1-4092-8c1e-c3c727377bf1","ios":"levelo://app?vid=5970d52f-f2f1-4092-8c1e-c3c727377bf1"},"vehicle_type_id":"4","last_reported":1745068546,"current_range_meters":9200,"station_id":"ce4bhp12rcd13ifvqh9g","pricing_plan_id":"cebpf4jnsgd1na2vs0mg"},{"bike_id":"b1cc1d2f-0c0e-47ef-b716-1310e9b309e9","system_id":"levelo_inurba_marseille","lat":43.25581,"lon":5.38233,"is_reserved":false,"is_disabled":false,"rental_uris":{"android":"levelo://app?vid=b1cc1d2f-0c0e-47ef-b716-1310e9b309e9","ios":"levelo://app?vid=b1cc1d2f-0c0e-47ef-b716-1310e9b309e9"},"vehicle_type_id":"4","last_reported":1745068546,"current_range_meters":9600,"station_id":"ce4bhih2rcd13ifvqfs0","pricing_plan_id":"cebpf4jnsgd1na2vs0mg"},{"bike_id":"e66edd6c-be96-4372-a248-34d922cec8ce","system_id":"levelo_inurba_marseille","lat":43.29552,"lon":5.42281,"is_reserved":false,"is_disabled":false,"rental_uris":{"android":"levelo://app?vid=e66edd6c-be96-4372-a248-34d922cec8ce","ios":"levelo://app?vid=e66edd6c-be96-4372-a248-34d922cec8ce"},"vehicle_type_id":"4","last_reported":1745068546,"current_range_meters":9600,"station_id":"ce4bhph2rcd13ifvqhdg","pricing_plan_id":"cebpf4jnsgd1na2vs0mg"},{"bike_id":"e55e0df2-e512-4ac4-aabc-fceec20feb29","system_id":"levelo_inurba_marseille","lat":43.29284,"lon":5.40115,"is_reserved":false,"is_disabled":false,"rental_uris":{"android":"levelo://app?vid=e55e0df2-e512-4ac4-aabc-fceec20feb29","ios":"levelo://app?vid=e55e0df2-e512-4ac4-aabc-fceec20feb29"},"vehicle_type_id":"4","last_reported":1745068546,"current_range_meters":9600,"station_id":"ce4bh312rcd13ifvqdk0","pricing_plan_id":"cebpf4jnsgd1na2vs0mg"},{"bike_id":"1b84ac14-4ad1-4bf0-94be-9bcfcc7f287a","system_id":"levelo_inurba_marseille","lat":43.24077,"lon":5.37748,"is_reserved":false,"is_disabled":false,"rental_uris":{"android":"levelo://app?vid=1b84ac14-4ad1-4bf0-94be-9bcfcc7f287a","ios":"levelo://app?vid=1b84ac14-4ad1-4bf0-94be-9bcfcc7f287a"},"vehicle_type_id":"4","last_reported":1745068546,"current_range_meters":9600,"station_id":"ce4bhnp2rcd13ifvqgvg","pricing_plan_id":"cebpf4jnsgd1na2vs0mg"},{"bike_id":"47f61380-525c-4579-bd6a-f53078658c39","system_id":"levelo_inurba_marseille","lat":43.265598,"lon":5.372878,"is_reserved":false,"is_disabled":false,"rental_uris":{"android":"levelo://app?vid=47f61380-525c-4579-bd6a-f53078658c39","ios":"levelo://app?vid=47f61380-525c-4579-bd6a-f53078658c39"},"vehicle_type_id":"4","last_reported":1745068546,"current_range_meters":10000,"station_id":"ce4bhg12rcd13ifvqf70","pricing_plan_id":"cebpf4jnsgd1na2vs0mg"},{"bike_id":"4cacebaa-6147-4fce-8606-c6fe27d9bae3","system_id":"levelo_inurba_marseille","lat":43.26561,"lon":5.37289,"is_reserved":false,"is_disabled":false,"rental_uris":{"android":"levelo://app?vid=4cacebaa-6147-4fce-8606-c6fe27d9bae3","ios":"levelo://app?vid=4cacebaa-6147-4fce-8606-c6fe27d9bae3"},"vehicle_type_id":"4","last_reported":1745068546,"current_range_meters":10000,"station_id":"ce4bhg12rcd13ifvqf70","pricing_plan_id":"cebpf4jnsgd1na2vs0mg"},{"bike_id":"37e774e2-ab0c-4955-867d-f3e8cc3b1e4e","system_id":"levelo_inurba_marseille","lat":43.282715,"lon":5.350622,"is_reserved":false,"is_disabled":false,"rental_uris":{"android":"levelo://app?vid=37e774e2-ab0c-4955-867d-f3e8cc3b1e4e","ios":"levelo://app?vid=37e774e2-ab0c-4955-867d-f3e8cc3b1e4e"},"vehicle_type_id":"4","last_reported":1745068546,"current_range_meters":10000,"station_id":"ce4bhbp2rcd13ifvqerg","pricing_plan_id":"cebpf4jnsgd1na2vs0mg"},{"bike_id":"1eaca8f5-0017-418a-9bfc-52185bf67513","system_id":"levelo_inurba_marseille","lat":43.33726,"lon":5.39205,"is_reserved":false,"is_disabled":false,"rental_uris":{"android":"levelo://app?vid=1eaca8f5-0017-418a-9bfc-52185bf67513","ios":"levelo://app?vid=1eaca8f5-0017-418a-9bfc-52185bf67513"},"vehicle_type_id":"4","last_reported":1745068546,"current_range_meters":10000,"station_id":"ce4bhr92rcd13ifvqhsg","pricing_plan_id":"cebpf4jnsgd1na2vs0mg"},{"bike_id":"9f1e2194-c12e-4421-af8a-85492cf0b2d7","system_id":"levelo_inurba_marseille","lat":43.28358,"lon":5.381,"is_reserved":false,"is_disabled":false,"rental_uris":{"android":"levelo://app?vid=9f1e2194-c12e-4421-af8a-85492cf0b2d7","ios":"levelo://app?vid=9f1e2194-c12e-4421-af8a-85492cf0b2d7"},"vehicle_type_id":"4","last_reported":1745068546,"current_range_meters":10000,"station_id":"ce4bh412rcd13ifvqdr0","pricing_plan_id":"cebpf4jnsgd1na2vs0mg"},{"bike_id":"de08492d-ffa5-4976-a30b-573408cffcfb","system_id":"levelo_inurba_marseille","lat":43.26197,"lon":5.37465,"is_reserved":false,"is_disabled":false,"rental_uris":{"android":"levelo://app?vid=de08492d-ffa5-4976-a30b-573408cffcfb","ios":"levelo://app?vid=de08492d-ffa5-4976-a30b-573408cffcfb"},"vehicle_type_id":"4","last_reported":1745068546,"current_range_meters":10000,"station_id":"ce4bhgp2rcd13ifvqfc0","pricing_plan_id":"cebpf4jnsgd1na2vs0mg"},{"bike_id":"bd252512-7aef-49a5-b319-c1c41d41e1eb","system_id":"levelo_inurba_marseille","lat":43.27496,"lon":5.42459,"is_reserved":false,"is_disabled":false,"rental_uris":{"android":"levelo://app?vid=bd252512-7aef-49a5-b319-c1c41d41e1eb","ios":"levelo://app?vid=bd252512-7aef-49a5-b319-c1c41d41e1eb"},"vehicle_type_id":"4","last_reported":1745068546,"current_range_meters":10800,"station_id":"ce4bhn92rcd13ifvqgrg","pricing_plan_id":"cebpf4jnsgd1na2vs0mg"},{"bike_id":"71f8aa03-30d9-4cb7-80e5-76de047bedbe","system_id":"levelo_inurba_marseille","lat":43.29519,"lon":5.39399,"is_reserved":false,"is_disabled":false,"rental_uris":{"android":"levelo://app?vid=71f8aa03-30d9-4cb7-80e5-76de047bedbe","ios":"levelo://app?vid=71f8aa03-30d9-4cb7-80e5-76de047bedbe"},"vehicle_type_id":"4","last_reported":1745068546,"current_range_meters":10800,"station_id":"ce4bh292rcd13ifvqdf0","pricing_plan_id":"cebpf4jnsgd1na2vs0mg"},{"bike_id":"7eb8853e-3665-40f5-8308-1299f0674652","system_id":"levelo_inurba_marseille","lat":43.30351,"lon":5.42505,"is_reserved":false,"is_disabled":false,"rental_uris":{"android":"levelo://app?vid=7eb8853e-3665-40f5-8308-1299f0674652","ios":"levelo://app?vid=7eb8853e-3665-40f5-8308-1299f0674652"},"vehicle_type_id":"4","last_reported":1745068546,"current_range_meters":10800,"station_id":"","pricing_plan_id":"cebpf4jnsgd1na2vs0mg"},{"bike_id":"186380b9-3dab-457b-b648-71d123fa0368","system_id":"levelo_inurba_marseille","lat":43.25111,"lon":5.40337,"is_reserved":false,"is_disabled":true,"rental_uris":{"android":"levelo://app?vid=186380b9-3dab-457b-b648-71d123fa0368","ios":"levelo://app?vid=186380b9-3dab-457b-b648-71d123fa0368"},"vehicle_type_id":"4","last_reported":1745068546,"current_range_meters":10800,"station_id":"ce4bhlh2rcd13ifvqgig","pricing_plan_id":"cebpf4jnsgd1na2vs0mg"},{"bike_id":"fe17390a-a6bc-4e12-b003-ff9ff8c3d29a","system_id":"levelo_inurba_marseille","lat":43.29571,"lon":5.39984,"is_reserved":false,"is_disabled":false,"rental_uris":{"android":"levelo://app?vid=fe17390a-a6bc-4e12-b003-ff9ff8c3d29a","ios":"levelo://app?vid=fe17390a-a6bc-4e12-b003-ff9ff8c3d29a"},"vehicle_type_id":"4","last_reported":1745068546,"current_range_meters":11200,"station_id":"ce4bh312rcd13ifvqdj0","pricing_plan_id":"cebpf4jnsgd1na2vs0mg"},{"bike_id":"22583896-a653-48d4-8b37-6cfca0e7be93","system_id":"levelo_inurba_marseille","lat":43.21196,"lon":5.35073,"is_reserved":false,"is_disabled":false,"rental_uris":{"android":"levelo://app?vid=22583896-a653-48d4-8b37-6cfca0e7be93","ios":"levelo://app?vid=22583896-a653-48d4-8b37-6cfca0e7be93"},"vehicle_type_id":"4","last_reported":1745068546,"current_range_meters":11200,"station_id":"st_cvj6sg6p6f1abm77japg","pricing_plan_id":"cebpf4jnsgd1na2vs0mg"},{"bike_id":"904fb01d-7241-46ce-a67c-332bfceba3ad","system_id":"levelo_inurba_marseille","lat":43.28415,"lon":5.34984,"is_reserved":false,"is_disabled":false,"rental_uris":{"android":"levelo://app?vid=904fb01d-7241-46ce-a67c-332bfceba3ad","ios":"levelo://app?vid=904fb01d-7241-46ce-a67c-332bfceba3ad"},"vehicle_type_id":"4","last_reported":1745068546,"current_range_meters":11600,"station_id":"ce4bhbh2rcd13ifvqepg","pricing_plan_id":"cebpf4jnsgd1na2vs0mg"},{"bike_id":"b7974e0c-2fc7-4c70-b248-039a4c339752","system_id":"levelo_inurba_marseille","lat":43.24178,"lon":5.39717,"is_reserved":false,"is_disabled":false,"rental_uris":{"android":"levelo://app?vid=b7974e0c-2fc7-4c70-b248-039a4c339752","ios":"levelo://app?vid=b7974e0c-2fc7-4c70-b248-039a4c339752"},"vehicle_type_id":"4","last_reported":1745068546,"current_range_meters":11600,"station_id":"ce4bhn12rcd13ifvqgpg","pricing_plan_id":"cebpf4jnsgd1na2vs0mg"},{"bike_id":"a157379c-3bc6-461c-a324-b367363f5264","system_id":"levelo_inurba_marseille","lat":43.29714,"lon":5.37696,"is_reserved":false,"is_disabled":false,"rental_uris":{"android":"levelo://app?vid=a157379c-3bc6-461c-a324-b367363f5264","ios":"levelo://app?vid=a157379c-3bc6-461c-a324-b367363f5264"},"vehicle_type_id":"4","last_reported":1745068546,"current_range_meters":11600,"station_id":"ce4bgkh2rcd13ifvqbl0","pricing_plan_id":"cebpf4jnsgd1na2vs0mg"},{"bike_id":"1bc3325c-f771-4329-86b4-a70e236f7403","system_id":"levelo_inurba_marseille","lat":43.29938,"lon":5.365638,"is_reserved":false,"is_disabled":false,"rental_uris":{"android":"levelo://app?vid=1bc3325c-f771-4329-86b4-a70e236f7403","ios":"levelo://app?vid=1bc3325c-f771-4329-86b4-a70e236f7403"},"vehicle_type_id":"4","last_reported":1745068546,"current_range_meters":11600,"station_id":"ce4bgm92rcd13ifvqbr0","pricing_plan_id":"cebpf4jnsgd1na2vs0mg"},{"bike_id":"44f4e6d6-4ed1-43c3-9d9f-6b537e09c66b","system_id":"levelo_inurba_marseille","lat":43.28355,"lon":5.38102,"is_reserved":false,"is_disabled":false,"rental_uris":{"android":"levelo://app?vid=44f4e6d6-4ed1-43c3-9d9f-6b537e09c66b","ios":"levelo://app?vid=44f4e6d6-4ed1-43c3-9d9f-6b537e09c66b"},"vehicle_type_id":"4","last_reported":1745068546,"current_range_meters":11200,"station_id":"ce4bh412rcd13ifvqdr0","pricing_plan_id":"cebpf4jnsgd1na2vs0mg"},{"bike_id":"97e50bb0-9a70-481b-b370-e509345e710a","system_id":"levelo_inurba_marseille","lat":43.280375,"lon":5.369411,"is_reserved":false,"is_disabled":true,"rental_uris":{"android":"levelo://app?vid=97e50bb0-9a70-481b-b370-e509345e710a","ios":"levelo://app?vid=97e50bb0-9a70-481b-b370-e509345e710a"},"vehicle_type_id":"4","last_reported":1745068546,"current_range_meters":12000,"station_id":"ce4bha12rcd13ifvqef0","pricing_plan_id":"cebpf4jnsgd1na2vs0mg"},{"bike_id":"92c5eb1b-d7a7-4b62-b559-dc0da515bb09","system_id":"levelo_inurba_marseille","lat":43.22933,"lon":5.35374,"is_reserved":false,"is_disabled":false,"rental_uris":{"android":"levelo://app?vid=92c5eb1b-d7a7-4b62-b559-dc0da515bb09","ios":"levelo://app?vid=92c5eb1b-d7a7-4b62-b559-dc0da515bb09"},"vehicle_type_id":"4","last_reported":1745068546,"current_range_meters":12000,"station_id":"cpo3532slgdg3j2ikp40","pricing_plan_id":"cebpf4jnsgd1na2vs0mg"},{"bike_id":"17c191dc-578d-4747-91ec-37dadd6c9456","system_id":"levelo_inurba_marseille","lat":43.21746,"lon":5.34599,"is_reserved":false,"is_disabled":false,"rental_uris":{"android":"levelo://app?vid=17c191dc-578d-4747-91ec-37dadd6c9456","ios":"levelo://app?vid=17c191dc-578d-4747-91ec-37dadd6c9456"},"vehicle_type_id":"4","last_reported":1745068546,"current_range_meters":12000,"station_id":"st_cvj6r9ubvosntc0bgbag","pricing_plan_id":"cebpf4jnsgd1na2vs0mg"},{"bike_id":"2cc218a9-59e5-4b6f-925d-a765ad883dcb","system_id":"levelo_inurba_marseille","lat":43.27315,"lon":5.39087,"is_reserved":false,"is_disabled":false,"rental_uris":{"android":"levelo://app?vid=2cc218a9-59e5-4b6f-925d-a765ad883dcb","ios":"levelo://app?vid=2cc218a9-59e5-4b6f-925d-a765ad883dcb"},"vehicle_type_id":"4","last_reported":1745068546,"current_range_meters":12000,"station_id":"ce4bhgp2rcd13ifvqfe0","pricing_plan_id":"cebpf4jnsgd1na2vs0mg"},{"bike_id":"11b7f384-13b1-4483-b9a8-b00250ee2cd8","system_id":"levelo_inurba_marseille","lat":43.29216,"lon":5.40892,"is_reserved":false,"is_disabled":false,"rental_uris":{"android":"levelo://app?vid=11b7f384-13b1-4483-b9a8-b00250ee2cd8","ios":"levelo://app?vid=11b7f384-13b1-4483-b9a8-b00250ee2cd8"},"vehicle_type_id":"4","last_reported":1745068546,"current_range_meters":12800,"station_id":"","pricing_plan_id":"cebpf4jnsgd1na2vs0mg"},{"bike_id":"7c6d1591-4a0b-47b5-a6d0-55585d4d6e47","system_id":"levelo_inurba_marseille","lat":43.23964,"lon":5.36621,"is_reserved":false,"is_disabled":false,"rental_uris":{"android":"levelo://app?vid=7c6d1591-4a0b-47b5-a6d0-55585d4d6e47","ios":"levelo://app?vid=7c6d1591-4a0b-47b5-a6d0-55585d4d6e47"},"vehicle_type_id":"4","last_reported":1745068546,"current_range_meters":12400,"station_id":"ce4bhi12rcd13ifvqfp0","pricing_plan_id":"cebpf4jnsgd1na2vs0mg"},{"bike_id":"3380ed0a-91f8-4430-98d5-1b26cda6cc90","system_id":"levelo_inurba_marseille","lat":43.25506,"lon":5.37653,"is_reserved":false,"is_disabled":false,"rental_uris":{"android":"levelo://app?vid=3380ed0a-91f8-4430-98d5-1b26cda6cc90","ios":"levelo://app?vid=3380ed0a-91f8-4430-98d5-1b26cda6cc90"},"vehicle_type_id":"4","last_reported":1745068546,"current_range_meters":12400,"station_id":"ce4bhh12rcd13ifvqff0","pricing_plan_id":"cebpf4jnsgd1na2vs0mg"},{"bike_id":"0c51f5bc-4337-476d-bef3-0fe05c28f62f","system_id":"levelo_inurba_marseille","lat":43.29599,"lon":5.375898,"is_reserved":false,"is_disabled":false,"rental_uris":{"android":"levelo://app?vid=0c51f5bc-4337-476d-bef3-0fe05c28f62f","ios":"levelo://app?vid=0c51f5bc-4337-476d-bef3-0fe05c28f62f"},"vehicle_type_id":"4","last_reported":1745068546,"current_range_meters":12000,"station_id":"ce4bh092rcd13ifvqd30","pricing_plan_id":"cebpf4jnsgd1na2vs0mg"},{"bike_id":"87587ab0-3c45-4ab3-ae59-f6f299078252","system_id":"levelo_inurba_marseille","lat":43.23064,"lon":5.35484,"is_reserved":false,"is_disabled":false,"rental_uris":{"android":"levelo://app?vid=87587ab0-3c45-4ab3-ae59-f6f299078252","ios":"levelo://app?vid=87587ab0-3c45-4ab3-ae59-f6f299078252"},"vehicle_type_id":"4","last_reported":1745068546,"current_range_meters":12400,"station_id":"cpo3342slgdg3j2ifvpg","pricing_plan_id":"cebpf4jnsgd1na2vs0mg"},{"bike_id":"f9ab0da8-4598-48e3-8c66-e3b4628fad62","system_id":"levelo_inurba_marseille","lat":43.26555,"lon":5.37284,"is_reserved":false,"is_disabled":false,"rental_uris":{"android":"levelo://app?vid=f9ab0da8-4598-48e3-8c66-e3b4628fad62","ios":"levelo://app?vid=f9ab0da8-4598-48e3-8c66-e3b4628fad62"},"vehicle_type_id":"4","last_reported":1745068546,"current_range_meters":12800,"station_id":"ce4bhg12rcd13ifvqf70","pricing_plan_id":"cebpf4jnsgd1na2vs0mg"},{"bike_id":"370f306b-a241-49be-b5a3-3adcda131769","system_id":"levelo_inurba_marseille","lat":43.29263,"lon":5.38452,"is_reserved":false,"is_disabled":false,"rental_uris":{"android":"levelo://app?vid=370f306b-a241-49be-b5a3-3adcda131769","ios":"levelo://app?vid=370f306b-a241-49be-b5a3-3adcda131769"},"vehicle_type_id":"4","last_reported":1745068546,"current_range_meters":12800,"station_id":"ce4bh692rcd13ifvqea0","pricing_plan_id":"cebpf4jnsgd1na2vs0mg"},{"bike_id":"ffc23a55-3c3f-4179-bc94-84e1d4ad80d6","system_id":"levelo_inurba_marseille","lat":43.22907,"lon":5.35416,"is_reserved":false,"is_disabled":false,"rental_uris":{"android":"levelo://app?vid=ffc23a55-3c3f-4179-bc94-84e1d4ad80d6","ios":"levelo://app?vid=ffc23a55-3c3f-4179-bc94-84e1d4ad80d6"},"vehicle_type_id":"4","last_reported":1745068546,"current_range_meters":12800,"station_id":"cpo3532slgdg3j2ikp40","pricing_plan_id":"cebpf4jnsgd1na2vs0mg"},{"bike_id":"a827af81-901c-418e-9cc3-237c30e51e4b","system_id":"levelo_inurba_marseille","lat":43.23964,"lon":5.36647,"is_reserved":false,"is_disabled":false,"rental_uris":{"android":"levelo://app?vid=a827af81-901c-418e-9cc3-237c30e51e4b","ios":"levelo://app?vid=a827af81-901c-418e-9cc3-237c30e51e4b"},"vehicle_type_id":"4","last_reported":1745068546,"current_range_meters":13600,"station_id":"ce4bhi12rcd13ifvqfp0","pricing_plan_id":"cebpf4jnsgd1na2vs0mg"},{"bike_id":"87deb183-34f0-4f14-9dd8-7233bc5bf66c","system_id":"levelo_inurba_marseille","lat":43.30612,"lon":5.37219,"is_reserved":false,"is_disabled":false,"rental_uris":{"android":"levelo://app?vid=87deb183-34f0-4f14-9dd8-7233bc5bf66c","ios":"levelo://app?vid=87deb183-34f0-4f14-9dd8-7233bc5bf66c"},"vehicle_type_id":"4","last_reported":1745068546,"current_range_meters":13600,"station_id":"ce4bgqh2rcd13ifvqc4g","pricing_plan_id":"cebpf4jnsgd1na2vs0mg"},{"bike_id":"065fc88e-cfae-4515-bd47-25b3709ad825","system_id":"levelo_inurba_marseille","lat":43.2762,"lon":5.36108,"is_reserved":false,"is_disabled":false,"rental_uris":{"android":"levelo://app?vid=065fc88e-cfae-4515-bd47-25b3709ad825","ios":"levelo://app?vid=065fc88e-cfae-4515-bd47-25b3709ad825"},"vehicle_type_id":"4","last_reported":1745068546,"current_range_meters":14000,"station_id":"ce4bgj92rcd13ifvqbe0","pricing_plan_id":"cebpf4jnsgd1na2vs0mg"},{"bike_id":"1aad7cc3-c652-44bc-95cb-1e555e1c4ba8","system_id":"levelo_inurba_marseille","lat":43.25113,"lon":5.40321,"is_reserved":false,"is_disabled":false,"rental_uris":{"android":"levelo://app?vid=1aad7cc3-c652-44bc-95cb-1e555e1c4ba8","ios":"levelo://app?vid=1aad7cc3-c652-44bc-95cb-1e555e1c4ba8"},"vehicle_type_id":"4","last_reported":1745068546,"current_range_meters":14000,"station_id":"ce4bhlh2rcd13ifvqgig","pricing_plan_id":"cebpf4jnsgd1na2vs0mg"},{"bike_id":"24213b37-b766-4d9c-a174-f6bf34920497","system_id":"levelo_inurba_marseille","lat":43.28469,"lon":5.384178,"is_reserved":false,"is_disabled":false,"rental_uris":{"android":"levelo://app?vid=24213b37-b766-4d9c-a174-f6bf34920497","ios":"levelo://app?vid=24213b37-b766-4d9c-a174-f6bf34920497"},"vehicle_type_id":"4","last_reported":1745068546,"current_range_meters":14000,"station_id":"ce4bh512rcd13ifvqe3g","pricing_plan_id":"cebpf4jnsgd1na2vs0mg"},{"bike_id":"4e6892ef-dbe3-43e4-bc69-b2da5d802c90","system_id":"levelo_inurba_marseille","lat":43.27369,"lon":5.36244,"is_reserved":false,"is_disabled":true,"rental_uris":{"android":"levelo://app?vid=4e6892ef-dbe3-43e4-bc69-b2da5d802c90","ios":"levelo://app?vid=4e6892ef-dbe3-43e4-bc69-b2da5d802c90"},"vehicle_type_id":"4","last_reported":1745068546,"current_range_meters":14400,"station_id":"ce4bhbh2rcd13ifvqeo0","pricing_plan_id":"cebpf4jnsgd1na2vs0mg"},{"bike_id":"6affe129-897f-4d56-81b1-155cca0b618c","system_id":"levelo_inurba_marseille","lat":43.24156,"lon":5.39684,"is_reserved":false,"is_disabled":false,"rental_uris":{"android":"levelo://app?vid=6affe129-897f-4d56-81b1-155cca0b618c","ios":"levelo://app?vid=6affe129-897f-4d56-81b1-155cca0b618c"},"vehicle_type_id":"4","last_reported":1745068546,"current_range_meters":14400,"station_id":"ce4bhn12rcd13ifvqgpg","pricing_plan_id":"cebpf4jnsgd1na2vs0mg"},{"bike_id":"3760752e-2509-474d-b460-22b46b7f0504","system_id":"levelo_inurba_marseille","lat":43.29201,"lon":5.358,"is_reserved":false,"is_disabled":false,"rental_uris":{"android":"levelo://app?vid=3760752e-2509-474d-b460-22b46b7f0504","ios":"levelo://app?vid=3760752e-2509-474d-b460-22b46b7f0504"},"vehicle_type_id":"4","last_reported":1745068546,"current_range_meters":14400,"station_id":"ce4bhb12rcd13ifvqel0","pricing_plan_id":"cebpf4jnsgd1na2vs0mg"},{"bike_id":"e81baa36-0771-4586-809c-985f1f53d7cb","system_id":"levelo_inurba_marseille","lat":43.2894,"lon":5.36635,"is_reserved":false,"is_disabled":false,"rental_uris":{"android":"levelo://app?vid=e81baa36-0771-4586-809c-985f1f53d7cb","ios":"levelo://app?vid=e81baa36-0771-4586-809c-985f1f53d7cb"},"vehicle_type_id":"4","last_reported":1745068546,"current_range_meters":14400,"station_id":"ce4bhap2rcd13ifvqek0","pricing_plan_id":"cebpf4jnsgd1na2vs0mg"},{"bike_id":"392ea08b-dd8d-43f0-b574-f117fe13b81a","system_id":"levelo_inurba_marseille","lat":43.23576,"lon":5.4363,"is_reserved":false,"is_disabled":false,"rental_uris":{"android":"levelo://app?vid=392ea08b-dd8d-43f0-b574-f117fe13b81a","ios":"levelo://app?vid=392ea08b-dd8d-43f0-b574-f117fe13b81a"},"vehicle_type_id":"4","last_reported":1745068546,"current_range_meters":14400,"station_id":"ce4bhmp2rcd13ifvqgog","pricing_plan_id":"cebpf4jnsgd1na2vs0mg"},{"bike_id":"40b8da9a-962a-4cfd-9c79-c6121ec122f0","system_id":"levelo_inurba_marseille","lat":43.28674,"lon":5.38668,"is_reserved":false,"is_disabled":false,"rental_uris":{"android":"levelo://app?vid=40b8da9a-962a-4cfd-9c79-c6121ec122f0","ios":"levelo://app?vid=40b8da9a-962a-4cfd-9c79-c6121ec122f0"},"vehicle_type_id":"4","last_reported":1745068546,"current_range_meters":14800,"station_id":"ce4bh492rcd13ifvqdug","pricing_plan_id":"cebpf4jnsgd1na2vs0mg"},{"bike_id":"86438d01-5e76-48dc-9a6a-e4ffd4a72fae","system_id":"levelo_inurba_marseille","lat":43.24652,"lon":5.38888,"is_reserved":false,"is_disabled":false,"rental_uris":{"android":"levelo://app?vid=86438d01-5e76-48dc-9a6a-e4ffd4a72fae","ios":"levelo://app?vid=86438d01-5e76-48dc-9a6a-e4ffd4a72fae"},"vehicle_type_id":"4","last_reported":1745068546,"current_range_meters":14800,"station_id":"ce4bhg12rcd13ifvqf60","pricing_plan_id":"cebpf4jnsgd1na2vs0mg"},{"bike_id":"3bb521f2-b608-4f06-8825-5c752ee9eccd","system_id":"levelo_inurba_marseille","lat":43.25496,"lon":5.37652,"is_reserved":false,"is_disabled":false,"rental_uris":{"android":"levelo://app?vid=3bb521f2-b608-4f06-8825-5c752ee9eccd","ios":"levelo://app?vid=3bb521f2-b608-4f06-8825-5c752ee9eccd"},"vehicle_type_id":"4","last_reported":1745068546,"current_range_meters":14800,"station_id":"ce4bhh12rcd13ifvqff0","pricing_plan_id":"cebpf4jnsgd1na2vs0mg"},{"bike_id":"597236d8-ee38-4d6f-b6ab-d41b8c4bd7ed","system_id":"levelo_inurba_marseille","lat":43.289788,"lon":5.355886,"is_reserved":false,"is_disabled":false,"rental_uris":{"android":"levelo://app?vid=597236d8-ee38-4d6f-b6ab-d41b8c4bd7ed","ios":"levelo://app?vid=597236d8-ee38-4d6f-b6ab-d41b8c4bd7ed"},"vehicle_type_id":"4","last_reported":1745068546,"current_range_meters":14800,"station_id":"ce4bhb92rcd13ifvqen0","pricing_plan_id":"cebpf4jnsgd1na2vs0mg"},{"bike_id":"527fac75-0783-4b2c-bd4e-07f2f2fee902","system_id":"levelo_inurba_marseille","lat":43.311245,"lon":5.377852,"is_reserved":false,"is_disabled":true,"rental_uris":{"android":"levelo://app?vid=527fac75-0783-4b2c-bd4e-07f2f2fee902","ios":"levelo://app?vid=527fac75-0783-4b2c-bd4e-07f2f2fee902"},"vehicle_type_id":"4","last_reported":1745068546,"current_range_meters":15200,"station_id":"ce4bgt92rcd13ifvqcg0","pricing_plan_id":"cebpf4jnsgd1na2vs0mg"},{"bike_id":"49a1d797-b941-4171-af94-57eb3416bda4","system_id":"levelo_inurba_marseille","lat":43.307983,"lon":5.435254,"is_reserved":false,"is_disabled":false,"rental_uris":{"android":"levelo://app?vid=49a1d797-b941-4171-af94-57eb3416bda4","ios":"levelo://app?vid=49a1d797-b941-4171-af94-57eb3416bda4"},"vehicle_type_id":"4","last_reported":1745068546,"current_range_meters":15200,"station_id":"ce4bhph2rcd13ifvqheg","pricing_plan_id":"cebpf4jnsgd1na2vs0mg"},{"bike_id":"44c2515b-ff63-4bac-a0f9-f4fef656ac10","system_id":"levelo_inurba_marseille","lat":43.28419,"lon":5.34983,"is_reserved":false,"is_disabled":false,"rental_uris":{"android":"levelo://app?vid=44c2515b-ff63-4bac-a0f9-f4fef656ac10","ios":"levelo://app?vid=44c2515b-ff63-4bac-a0f9-f4fef656ac10"},"vehicle_type_id":"4","last_reported":1745068546,"current_range_meters":15200,"station_id":"ce4bhbh2rcd13ifvqepg","pricing_plan_id":"cebpf4jnsgd1na2vs0mg"},{"bike_id":"84202690-2628-4f6a-a66a-03448e82c44d","system_id":"levelo_inurba_marseille","lat":43.30147,"lon":5.38083,"is_reserved":false,"is_disabled":false,"rental_uris":{"android":"levelo://app?vid=84202690-2628-4f6a-a66a-03448e82c44d","ios":"levelo://app?vid=84202690-2628-4f6a-a66a-03448e82c44d"},"vehicle_type_id":"4","last_reported":1745068546,"current_range_meters":15200,"station_id":"ce4bgjp2rcd13ifvqbh0","pricing_plan_id":"cebpf4jnsgd1na2vs0mg"},{"bike_id":"15572984-94dd-404c-b34b-0eba775da91a","system_id":"levelo_inurba_marseille","lat":43.25008,"lon":5.3891,"is_reserved":false,"is_disabled":false,"rental_uris":{"android":"levelo://app?vid=15572984-94dd-404c-b34b-0eba775da91a","ios":"levelo://app?vid=15572984-94dd-404c-b34b-0eba775da91a"},"vehicle_type_id":"4","last_reported":1745068546,"current_range_meters":16000,"station_id":"ce4bhgp2rcd13ifvqfd0","pricing_plan_id":"cebpf4jnsgd1na2vs0mg"},{"bike_id":"8b386a13-d7ce-4797-850b-d66b405de4c3","system_id":"levelo_inurba_marseille","lat":43.2955,"lon":5.37489,"is_reserved":false,"is_disabled":false,"rental_uris":{"android":"levelo://app?vid=8b386a13-d7ce-4797-850b-d66b405de4c3","ios":"levelo://app?vid=8b386a13-d7ce-4797-850b-d66b405de4c3"},"vehicle_type_id":"4","last_reported":1745068546,"current_range_meters":16000,"station_id":"ce4bgkp2rcd13ifvqbmg","pricing_plan_id":"cebpf4jnsgd1na2vs0mg"},{"bike_id":"33399c5a-7b71-4ae2-a964-55b2f2e618d0","system_id":"levelo_inurba_marseille","lat":43.30215,"lon":5.36557,"is_reserved":false,"is_disabled":true,"rental_uris":{"android":"levelo://app?vid=33399c5a-7b71-4ae2-a964-55b2f2e618d0","ios":"levelo://app?vid=33399c5a-7b71-4ae2-a964-55b2f2e618d0"},"vehicle_type_id":"4","last_reported":1745068546,"current_range_meters":16000,"station_id":"","pricing_plan_id":"cebpf4jnsgd1na2vs0mg"},{"bike_id":"1c46e1ef-ecc2-40e9-bb84-3560d46edbc0","system_id":"levelo_inurba_marseille","lat":43.22923,"lon":5.35374,"is_reserved":false,"is_disabled":false,"rental_uris":{"android":"levelo://app?vid=1c46e1ef-ecc2-40e9-bb84-3560d46edbc0","ios":"levelo://app?vid=1c46e1ef-ecc2-40e9-bb84-3560d46edbc0"},"vehicle_type_id":"4","last_reported":1745068546,"current_range_meters":16000,"station_id":"cpo3532slgdg3j2ikp40","pricing_plan_id":"cebpf4jnsgd1na2vs0mg"},{"bike_id":"585dc1bf-e962-4c0c-94d3-bda040b0293a","system_id":"levelo_inurba_marseille","lat":43.28442,"lon":5.34993,"is_reserved":false,"is_disabled":false,"rental_uris":{"android":"levelo://app?vid=585dc1bf-e962-4c0c-94d3-bda040b0293a","ios":"levelo://app?vid=585dc1bf-e962-4c0c-94d3-bda040b0293a"},"vehicle_type_id":"4","last_reported":1745068546,"current_range_meters":16000,"station_id":"ce4bhbh2rcd13ifvqepg","pricing_plan_id":"cebpf4jnsgd1na2vs0mg"},{"bike_id":"5e7e83d6-8284-48e9-9372-797b9c44861d","system_id":"levelo_inurba_marseille","lat":43.262035,"lon":5.379264,"is_reserved":false,"is_disabled":false,"rental_uris":{"android":"levelo://app?vid=5e7e83d6-8284-48e9-9372-797b9c44861d","ios":"levelo://app?vid=5e7e83d6-8284-48e9-9372-797b9c44861d"},"vehicle_type_id":"4","last_reported":1745068546,"current_range_meters":16000,"station_id":"ce4bhjp2rcd13ifvqg90","pricing_plan_id":"cebpf4jnsgd1na2vs0mg"},{"bike_id":"00879c1d-a962-4133-ba5d-8de0f524e6f5","system_id":"levelo_inurba_marseille","lat":43.27478,"lon":5.42434,"is_reserved":false,"is_disabled":false,"rental_uris":{"android":"levelo://app?vid=00879c1d-a962-4133-ba5d-8de0f524e6f5","ios":"levelo://app?vid=00879c1d-a962-4133-ba5d-8de0f524e6f5"},"vehicle_type_id":"4","last_reported":1745068546,"current_range_meters":16000,"station_id":"ce4bhn92rcd13ifvqgrg","pricing_plan_id":"cebpf4jnsgd1na2vs0mg"},{"bike_id":"ef465ed9-d1ab-416d-9d79-3b7cdc25fc2a","system_id":"levelo_inurba_marseille","lat":43.28477,"lon":5.38415,"is_reserved":false,"is_disabled":false,"rental_uris":{"android":"levelo://app?vid=ef465ed9-d1ab-416d-9d79-3b7cdc25fc2a","ios":"levelo://app?vid=ef465ed9-d1ab-416d-9d79-3b7cdc25fc2a"},"vehicle_type_id":"4","last_reported":1745068546,"current_range_meters":16000,"station_id":"ce4bh512rcd13ifvqe3g","pricing_plan_id":"cebpf4jnsgd1na2vs0mg"},{"bike_id":"0fabe441-18a7-4ca5-b3d6-02a723f7cf99","system_id":"levelo_inurba_marseille","lat":43.22933,"lon":5.35376,"is_reserved":false,"is_disabled":false,"rental_uris":{"android":"levelo://app?vid=0fabe441-18a7-4ca5-b3d6-02a723f7cf99","ios":"levelo://app?vid=0fabe441-18a7-4ca5-b3d6-02a723f7cf99"},"vehicle_type_id":"4","last_reported":1745068546,"current_range_meters":16000,"station_id":"cpo3532slgdg3j2ikp40","pricing_plan_id":"cebpf4jnsgd1na2vs0mg"},{"bike_id":"5bf28be5-a67f-4dc7-9c68-d23fc9d14415","system_id":"levelo_inurba_marseille","lat":43.28611,"lon":5.35103,"is_reserved":false,"is_disabled":false,"rental_uris":{"android":"levelo://app?vid=5bf28be5-a67f-4dc7-9c68-d23fc9d14415","ios":"levelo://app?vid=5bf28be5-a67f-4dc7-9c68-d23fc9d14415"},"vehicle_type_id":"4","last_reported":1745068546,"current_range_meters":16400,"station_id":"ce4bhch2rcd13ifvqeug","pricing_plan_id":"cebpf4jnsgd1na2vs0mg"},{"bike_id":"04774b32-6ed5-4eb4-8e68-3fe3792eaf1a","system_id":"levelo_inurba_marseille","lat":43.23967,"lon":5.36629,"is_reserved":false,"is_disabled":false,"rental_uris":{"android":"levelo://app?vid=04774b32-6ed5-4eb4-8e68-3fe3792eaf1a","ios":"levelo://app?vid=04774b32-6ed5-4eb4-8e68-3fe3792eaf1a"},"vehicle_type_id":"4","last_reported":1745068546,"current_range_meters":16400,"station_id":"ce4bhi12rcd13ifvqfp0","pricing_plan_id":"cebpf4jnsgd1na2vs0mg"},{"bike_id":"37661906-a775-4299-84e8-e9ad23212fe3","system_id":"levelo_inurba_marseille","lat":43.27995,"lon":5.40027,"is_reserved":false,"is_disabled":false,"rental_uris":{"android":"levelo://app?vid=37661906-a775-4299-84e8-e9ad23212fe3","ios":"levelo://app?vid=37661906-a775-4299-84e8-e9ad23212fe3"},"vehicle_type_id":"4","last_reported":1745068546,"current_range_meters":16000,"station_id":"ce4bho92rcd13ifvqh4g","pricing_plan_id":"cebpf4jnsgd1na2vs0mg"},{"bike_id":"a37effcc-6b86-495a-b242-bc6effe90213","system_id":"levelo_inurba_marseille","lat":43.29557,"lon":5.422986,"is_reserved":false,"is_disabled":false,"rental_uris":{"android":"levelo://app?vid=a37effcc-6b86-495a-b242-bc6effe90213","ios":"levelo://app?vid=a37effcc-6b86-495a-b242-bc6effe90213"},"vehicle_type_id":"4","last_reported":1745068546,"current_range_meters":16400,"station_id":"ce4bhph2rcd13ifvqhdg","pricing_plan_id":"cebpf4jnsgd1na2vs0mg"},{"bike_id":"eabd3f2e-ebd3-4315-b5ba-a432d6916d46","system_id":"levelo_inurba_marseille","lat":43.29987,"lon":5.37218,"is_reserved":false,"is_disabled":false,"rental_uris":{"android":"levelo://app?vid=eabd3f2e-ebd3-4315-b5ba-a432d6916d46","ios":"levelo://app?vid=eabd3f2e-ebd3-4315-b5ba-a432d6916d46"},"vehicle_type_id":"4","last_reported":1745068546,"current_range_meters":16400,"station_id":"ce4bgr92rcd13ifvqc7g","pricing_plan_id":"cebpf4jnsgd1na2vs0mg"},{"bike_id":"b2a54860-7554-4b60-9c56-9232c0fac621","system_id":"levelo_inurba_marseille","lat":43.29301,"lon":5.37454,"is_reserved":false,"is_disabled":false,"rental_uris":{"android":"levelo://app?vid=b2a54860-7554-4b60-9c56-9232c0fac621","ios":"levelo://app?vid=b2a54860-7554-4b60-9c56-9232c0fac621"},"vehicle_type_id":"4","last_reported":1745068546,"current_range_meters":16800,"station_id":"ce4bgi12rcd13ifvqb70","pricing_plan_id":"cebpf4jnsgd1na2vs0mg"},{"bike_id":"fb22016a-70e5-416f-849e-736db4014d92","system_id":"levelo_inurba_marseille","lat":43.281163,"lon":5.378205,"is_reserved":false,"is_disabled":false,"rental_uris":{"android":"levelo://app?vid=fb22016a-70e5-416f-849e-736db4014d92","ios":"levelo://app?vid=fb22016a-70e5-416f-849e-736db4014d92"},"vehicle_type_id":"4","last_reported":1745068546,"current_range_meters":17200,"station_id":"ce4bha12rcd13ifvqee0","pricing_plan_id":"cebpf4jnsgd1na2vs0mg"},{"bike_id":"11d4d34d-597c-427f-9431-106b5e64b136","system_id":"levelo_inurba_marseille","lat":43.22934,"lon":5.35375,"is_reserved":false,"is_disabled":false,"rental_uris":{"android":"levelo://app?vid=11d4d34d-597c-427f-9431-106b5e64b136","ios":"levelo://app?vid=11d4d34d-597c-427f-9431-106b5e64b136"},"vehicle_type_id":"4","last_reported":1745068546,"current_range_meters":17200,"station_id":"cpo3532slgdg3j2ikp40","pricing_plan_id":"cebpf4jnsgd1na2vs0mg"},{"bike_id":"04922e9f-ed80-46a4-bf1a-a7fe2683b15e","system_id":"levelo_inurba_marseille","lat":43.31506,"lon":5.37294,"is_reserved":false,"is_disabled":false,"rental_uris":{"android":"levelo://app?vid=04922e9f-ed80-46a4-bf1a-a7fe2683b15e","ios":"levelo://app?vid=04922e9f-ed80-46a4-bf1a-a7fe2683b15e"},"vehicle_type_id":"4","last_reported":1745068546,"current_range_meters":17200,"station_id":"ce4bgt12rcd13ifvqcd0","pricing_plan_id":"cebpf4jnsgd1na2vs0mg"},{"bike_id":"b8adf5ba-9520-4b92-8108-37f9b7c240aa","system_id":"levelo_inurba_marseille","lat":43.23055,"lon":5.35494,"is_reserved":false,"is_disabled":false,"rental_uris":{"android":"levelo://app?vid=b8adf5ba-9520-4b92-8108-37f9b7c240aa","ios":"levelo://app?vid=b8adf5ba-9520-4b92-8108-37f9b7c240aa"},"vehicle_type_id":"4","last_reported":1745068546,"current_range_meters":17200,"station_id":"cpo3342slgdg3j2ifvpg","pricing_plan_id":"cebpf4jnsgd1na2vs0mg"},{"bike_id":"2777c37e-52c6-47da-8e85-f3f8f07fc695","system_id":"levelo_inurba_marseille","lat":43.27375,"lon":5.36251,"is_reserved":false,"is_disabled":false,"rental_uris":{"android":"levelo://app?vid=2777c37e-52c6-47da-8e85-f3f8f07fc695","ios":"levelo://app?vid=2777c37e-52c6-47da-8e85-f3f8f07fc695"},"vehicle_type_id":"4","last_reported":1745068546,"current_range_meters":17200,"station_id":"ce4bhbh2rcd13ifvqeo0","pricing_plan_id":"cebpf4jnsgd1na2vs0mg"},{"bike_id":"17838dcc-f3d4-409a-a81d-5606207b2e48","system_id":"levelo_inurba_marseille","lat":43.26208,"lon":5.37426,"is_reserved":false,"is_disabled":false,"rental_uris":{"android":"levelo://app?vid=17838dcc-f3d4-409a-a81d-5606207b2e48","ios":"levelo://app?vid=17838dcc-f3d4-409a-a81d-5606207b2e48"},"vehicle_type_id":"4","last_reported":1745068546,"current_range_meters":17200,"station_id":"ce4bhgp2rcd13ifvqfc0","pricing_plan_id":"cebpf4jnsgd1na2vs0mg"},{"bike_id":"003a498a-184d-454d-941c-50bcf81e15c4","system_id":"levelo_inurba_marseille","lat":43.28415,"lon":5.35,"is_reserved":false,"is_disabled":false,"rental_uris":{"android":"levelo://app?vid=003a498a-184d-454d-941c-50bcf81e15c4","ios":"levelo://app?vid=003a498a-184d-454d-941c-50bcf81e15c4"},"vehicle_type_id":"4","last_reported":1745068546,"current_range_meters":17200,"station_id":"ce4bhbh2rcd13ifvqepg","pricing_plan_id":"cebpf4jnsgd1na2vs0mg"},{"bike_id":"3ce33f55-eaea-4767-9178-711f59e9f83b","system_id":"levelo_inurba_marseille","lat":43.21758,"lon":5.34584,"is_reserved":false,"is_disabled":false,"rental_uris":{"android":"levelo://app?vid=3ce33f55-eaea-4767-9178-711f59e9f83b","ios":"levelo://app?vid=3ce33f55-eaea-4767-9178-711f59e9f83b"},"vehicle_type_id":"4","last_reported":1745068546,"current_range_meters":17200,"station_id":"st_cvj6r9ubvosntc0bgbag","pricing_plan_id":"cebpf4jnsgd1na2vs0mg"},{"bike_id":"a8b48c45-a3ab-48d0-a95b-7f2bb5afc66f","system_id":"levelo_inurba_marseille","lat":43.26485,"lon":5.39543,"is_reserved":false,"is_disabled":false,"rental_uris":{"android":"levelo://app?vid=a8b48c45-a3ab-48d0-a95b-7f2bb5afc66f","ios":"levelo://app?vid=a8b48c45-a3ab-48d0-a95b-7f2bb5afc66f"},"vehicle_type_id":"4","last_reported":1745068546,"current_range_meters":17600,"station_id":"ce4bhi12rcd13ifvqfq0","pricing_plan_id":"cebpf4jnsgd1na2vs0mg"},{"bike_id":"aefaaa7f-740f-47a2-82fb-9911d9cd28d0","system_id":"levelo_inurba_marseille","lat":43.29786,"lon":5.39362,"is_reserved":false,"is_disabled":false,"rental_uris":{"android":"levelo://app?vid=aefaaa7f-740f-47a2-82fb-9911d9cd28d0","ios":"levelo://app?vid=aefaaa7f-740f-47a2-82fb-9911d9cd28d0"},"vehicle_type_id":"4","last_reported":1745068546,"current_range_meters":17600,"station_id":"chh1huq6cuj3fo74tm60","pricing_plan_id":"cebpf4jnsgd1na2vs0mg"},{"bike_id":"b094cf77-8e51-49cf-bd9d-7b99ba53fe05","system_id":"levelo_inurba_marseille","lat":43.291973,"lon":5.358044,"is_reserved":false,"is_disabled":false,"rental_uris":{"android":"levelo://app?vid=b094cf77-8e51-49cf-bd9d-7b99ba53fe05","ios":"levelo://app?vid=b094cf77-8e51-49cf-bd9d-7b99ba53fe05"},"vehicle_type_id":"4","last_reported":1745068546,"current_range_meters":17600,"station_id":"ce4bh2h2rcd13ifvqdh0","pricing_plan_id":"cebpf4jnsgd1na2vs0mg"},{"bike_id":"61c19874-3e66-446b-9461-be09cac8be18","system_id":"levelo_inurba_marseille","lat":43.26218,"lon":5.40475,"is_reserved":false,"is_disabled":false,"rental_uris":{"android":"levelo://app?vid=61c19874-3e66-446b-9461-be09cac8be18","ios":"levelo://app?vid=61c19874-3e66-446b-9461-be09cac8be18"},"vehicle_type_id":"4","last_reported":1745068546,"current_range_meters":17600,"station_id":"ce4bhmh2rcd13ifvqgmg","pricing_plan_id":"cebpf4jnsgd1na2vs0mg"},{"bike_id":"d35d0f85-f00c-4a65-b550-2fb004a0ef99","system_id":"levelo_inurba_marseille","lat":43.23971,"lon":5.36623,"is_reserved":false,"is_disabled":false,"rental_uris":{"android":"levelo://app?vid=d35d0f85-f00c-4a65-b550-2fb004a0ef99","ios":"levelo://app?vid=d35d0f85-f00c-4a65-b550-2fb004a0ef99"},"vehicle_type_id":"4","last_reported":1745068546,"current_range_meters":17600,"station_id":"ce4bhi12rcd13ifvqfp0","pricing_plan_id":"cebpf4jnsgd1na2vs0mg"},{"bike_id":"d88e54a1-4c31-4a83-8666-6d2b2ab30378","system_id":"levelo_inurba_marseille","lat":43.29199,"lon":5.3579,"is_reserved":false,"is_disabled":false,"rental_uris":{"android":"levelo://app?vid=d88e54a1-4c31-4a83-8666-6d2b2ab30378","ios":"levelo://app?vid=d88e54a1-4c31-4a83-8666-6d2b2ab30378"},"vehicle_type_id":"4","last_reported":1745068546,"current_range_meters":18000,"station_id":"ce4bhb12rcd13ifvqel0","pricing_plan_id":"cebpf4jnsgd1na2vs0mg"},{"bike_id":"bc13e988-5248-4aa1-83de-ba0e22e6793d","system_id":"levelo_inurba_marseille","lat":43.27499,"lon":5.42463,"is_reserved":false,"is_disabled":false,"rental_uris":{"android":"levelo://app?vid=bc13e988-5248-4aa1-83de-ba0e22e6793d","ios":"levelo://app?vid=bc13e988-5248-4aa1-83de-ba0e22e6793d"},"vehicle_type_id":"4","last_reported":1745068546,"current_range_meters":18000,"station_id":"ce4bhn92rcd13ifvqgrg","pricing_plan_id":"cebpf4jnsgd1na2vs0mg"},{"bike_id":"c01403ba-d049-4447-8c7e-cff4e7010bd8","system_id":"levelo_inurba_marseille","lat":43.29423,"lon":5.3862,"is_reserved":false,"is_disabled":false,"rental_uris":{"android":"levelo://app?vid=c01403ba-d049-4447-8c7e-cff4e7010bd8","ios":"levelo://app?vid=c01403ba-d049-4447-8c7e-cff4e7010bd8"},"vehicle_type_id":"4","last_reported":1745068546,"current_range_meters":18000,"station_id":"ce4bh2h2rcd13ifvqdh0","pricing_plan_id":"cebpf4jnsgd1na2vs0mg"},{"bike_id":"7d103eae-9e70-4501-91e7-d306f0a10125","system_id":"levelo_inurba_marseille","lat":43.28669,"lon":5.38676,"is_reserved":false,"is_disabled":false,"rental_uris":{"android":"levelo://app?vid=7d103eae-9e70-4501-91e7-d306f0a10125","ios":"levelo://app?vid=7d103eae-9e70-4501-91e7-d306f0a10125"},"vehicle_type_id":"4","last_reported":1745068546,"current_range_meters":18000,"station_id":"ce4bh492rcd13ifvqdug","pricing_plan_id":"cebpf4jnsgd1na2vs0mg"},{"bike_id":"fbc66640-b2ea-43d2-a5dc-e128030bc5d7","system_id":"levelo_inurba_marseille","lat":43.27612,"lon":5.36106,"is_reserved":false,"is_disabled":false,"rental_uris":{"android":"levelo://app?vid=fbc66640-b2ea-43d2-a5dc-e128030bc5d7","ios":"levelo://app?vid=fbc66640-b2ea-43d2-a5dc-e128030bc5d7"},"vehicle_type_id":"4","last_reported":1745068546,"current_range_meters":17600,"station_id":"ce4bgj92rcd13ifvqbe0","pricing_plan_id":"cebpf4jnsgd1na2vs0mg"},{"bike_id":"fe0d906c-18a4-47fa-96e1-6c88b9eb5396","system_id":"levelo_inurba_marseille","lat":43.24177,"lon":5.39727,"is_reserved":false,"is_disabled":false,"rental_uris":{"android":"levelo://app?vid=fe0d906c-18a4-47fa-96e1-6c88b9eb5396","ios":"levelo://app?vid=fe0d906c-18a4-47fa-96e1-6c88b9eb5396"},"vehicle_type_id":"4","last_reported":1745068546,"current_range_meters":18000,"station_id":"ce4bhn12rcd13ifvqgpg","pricing_plan_id":"cebpf4jnsgd1na2vs0mg"},{"bike_id":"c954a386-c510-42e9-932e-deb5aad8f1fb","system_id":"levelo_inurba_marseille","lat":43.325216,"lon":5.413758,"is_reserved":false,"is_disabled":false,"rental_uris":{"android":"levelo://app?vid=c954a386-c510-42e9-932e-deb5aad8f1fb","ios":"levelo://app?vid=c954a386-c510-42e9-932e-deb5aad8f1fb"},"vehicle_type_id":"4","last_reported":1745068546,"current_range_meters":18000,"station_id":"ce4bhq12rcd13ifvqhhg","pricing_plan_id":"cebpf4jnsgd1na2vs0mg"},{"bike_id":"6019390b-7088-4c04-b80b-2acf1cb29041","system_id":"levelo_inurba_marseille","lat":43.29388,"lon":5.41239,"is_reserved":false,"is_disabled":false,"rental_uris":{"android":"levelo://app?vid=6019390b-7088-4c04-b80b-2acf1cb29041","ios":"levelo://app?vid=6019390b-7088-4c04-b80b-2acf1cb29041"},"vehicle_type_id":"4","last_reported":1745068546,"current_range_meters":18800,"station_id":"","pricing_plan_id":"cebpf4jnsgd1na2vs0mg"},{"bike_id":"eaaac747-afee-414f-bc8d-238492c44b0d","system_id":"levelo_inurba_marseille","lat":43.2928,"lon":5.4011,"is_reserved":false,"is_disabled":false,"rental_uris":{"android":"levelo://app?vid=eaaac747-afee-414f-bc8d-238492c44b0d","ios":"levelo://app?vid=eaaac747-afee-414f-bc8d-238492c44b0d"},"vehicle_type_id":"4","last_reported":1745068546,"current_range_meters":18800,"station_id":"ce4bh312rcd13ifvqdk0","pricing_plan_id":"cebpf4jnsgd1na2vs0mg"},{"bike_id":"f96cca1c-4e16-4641-baf8-26559b52afae","system_id":"levelo_inurba_marseille","lat":43.21755,"lon":5.34587,"is_reserved":false,"is_disabled":false,"rental_uris":{"android":"levelo://app?vid=f96cca1c-4e16-4641-baf8-26559b52afae","ios":"levelo://app?vid=f96cca1c-4e16-4641-baf8-26559b52afae"},"vehicle_type_id":"4","last_reported":1745068546,"current_range_meters":18800,"station_id":"st_cvj6r9ubvosntc0bgbag","pricing_plan_id":"cebpf4jnsgd1na2vs0mg"},{"bike_id":"d5bf3e51-83b4-419b-b784-58ab0f4a9ad2","system_id":"levelo_inurba_marseille","lat":43.21192,"lon":5.35075,"is_reserved":false,"is_disabled":false,"rental_uris":{"android":"levelo://app?vid=d5bf3e51-83b4-419b-b784-58ab0f4a9ad2","ios":"levelo://app?vid=d5bf3e51-83b4-419b-b784-58ab0f4a9ad2"},"vehicle_type_id":"4","last_reported":1745068546,"current_range_meters":18800,"station_id":"st_cvj6sg6p6f1abm77japg","pricing_plan_id":"cebpf4jnsgd1na2vs0mg"},{"bike_id":"8199e302-7b4f-49e5-a95f-f097de738c0e","system_id":"levelo_inurba_marseille","lat":43.21753,"lon":5.34596,"is_reserved":false,"is_disabled":false,"rental_uris":{"android":"levelo://app?vid=8199e302-7b4f-49e5-a95f-f097de738c0e","ios":"levelo://app?vid=8199e302-7b4f-49e5-a95f-f097de738c0e"},"vehicle_type_id":"4","last_reported":1745068546,"current_range_meters":18800,"station_id":"st_cvj6r9ubvosntc0bgbag","pricing_plan_id":"cebpf4jnsgd1na2vs0mg"},{"bike_id":"d95ea266-5daa-4bef-9a92-a3f12ea4cd0b","system_id":"levelo_inurba_marseille","lat":43.31074,"lon":5.38355,"is_reserved":false,"is_disabled":false,"rental_uris":{"android":"levelo://app?vid=d95ea266-5daa-4bef-9a92-a3f12ea4cd0b","ios":"levelo://app?vid=d95ea266-5daa-4bef-9a92-a3f12ea4cd0b"},"vehicle_type_id":"4","last_reported":1745068546,"current_range_meters":18800,"station_id":"ce4bgv92rcd13ifvqcr0","pricing_plan_id":"cebpf4jnsgd1na2vs0mg"},{"bike_id":"20e1c3b0-02eb-4fb1-95f0-a9b273b7cd01","system_id":"levelo_inurba_marseille","lat":43.21751,"lon":5.346,"is_reserved":false,"is_disabled":false,"rental_uris":{"android":"levelo://app?vid=20e1c3b0-02eb-4fb1-95f0-a9b273b7cd01","ios":"levelo://app?vid=20e1c3b0-02eb-4fb1-95f0-a9b273b7cd01"},"vehicle_type_id":"4","last_reported":1745068546,"current_range_meters":18800,"station_id":"st_cvj6r9ubvosntc0bgbag","pricing_plan_id":"cebpf4jnsgd1na2vs0mg"},{"bike_id":"97268952-33df-4dcd-9dd9-cdc467b65fdd","system_id":"levelo_inurba_marseille","lat":43.284267,"lon":5.375002,"is_reserved":false,"is_disabled":false,"rental_uris":{"android":"levelo://app?vid=97268952-33df-4dcd-9dd9-cdc467b65fdd","ios":"levelo://app?vid=97268952-33df-4dcd-9dd9-cdc467b65fdd"},"vehicle_type_id":"4","last_reported":1745068546,"current_range_meters":18800,"station_id":"ce4bh412rcd13ifvqds0","pricing_plan_id":"cebpf4jnsgd1na2vs0mg"},{"bike_id":"c18778a1-76a4-44f3-ba2a-f9d3b7b6ae3b","system_id":"levelo_inurba_marseille","lat":43.33736,"lon":5.39172,"is_reserved":false,"is_disabled":false,"rental_uris":{"android":"levelo://app?vid=c18778a1-76a4-44f3-ba2a-f9d3b7b6ae3b","ios":"levelo://app?vid=c18778a1-76a4-44f3-ba2a-f9d3b7b6ae3b"},"vehicle_type_id":"4","last_reported":1745068546,"current_range_meters":19200,"station_id":"ce4bhr92rcd13ifvqhsg","pricing_plan_id":"cebpf4jnsgd1na2vs0mg"},{"bike_id":"2c1a231e-dfc3-44f0-b7e2-48f27b39d477","system_id":"levelo_inurba_marseille","lat":43.29907,"lon":5.38125,"is_reserved":false,"is_disabled":false,"rental_uris":{"android":"levelo://app?vid=2c1a231e-dfc3-44f0-b7e2-48f27b39d477","ios":"levelo://app?vid=2c1a231e-dfc3-44f0-b7e2-48f27b39d477"},"vehicle_type_id":"4","last_reported":1745068546,"current_range_meters":19200,"station_id":"ce4bgj12rcd13ifvqbc0","pricing_plan_id":"cebpf4jnsgd1na2vs0mg"},{"bike_id":"dd539c7e-bf93-4ae8-99c8-55d8baf09c6f","system_id":"levelo_inurba_marseille","lat":43.27424,"lon":5.39413,"is_reserved":false,"is_disabled":false,"rental_uris":{"android":"levelo://app?vid=dd539c7e-bf93-4ae8-99c8-55d8baf09c6f","ios":"levelo://app?vid=dd539c7e-bf93-4ae8-99c8-55d8baf09c6f"},"vehicle_type_id":"4","last_reported":1745068546,"current_range_meters":19200,"station_id":"ce4bhdp2rcd13ifvqf20","pricing_plan_id":"cebpf4jnsgd1na2vs0mg"},{"bike_id":"f7027e6a-48d2-4cae-b50c-97b01f670552","system_id":"levelo_inurba_marseille","lat":43.23953,"lon":5.36654,"is_reserved":false,"is_disabled":false,"rental_uris":{"android":"levelo://app?vid=f7027e6a-48d2-4cae-b50c-97b01f670552","ios":"levelo://app?vid=f7027e6a-48d2-4cae-b50c-97b01f670552"},"vehicle_type_id":"4","last_reported":1745068546,"current_range_meters":19200,"station_id":"ce4bhi12rcd13ifvqfp0","pricing_plan_id":"cebpf4jnsgd1na2vs0mg"},{"bike_id":"804546a0-61bd-475b-87f7-3b189213ea1a","system_id":"levelo_inurba_marseille","lat":43.29046,"lon":5.3758,"is_reserved":false,"is_disabled":false,"rental_uris":{"android":"levelo://app?vid=804546a0-61bd-475b-87f7-3b189213ea1a","ios":"levelo://app?vid=804546a0-61bd-475b-87f7-3b189213ea1a"},"vehicle_type_id":"4","last_reported":1745068546,"current_range_meters":18800,"station_id":"ce4bh692rcd13ifvqe90","pricing_plan_id":"cebpf4jnsgd1na2vs0mg"},{"bike_id":"7d28bf23-bfe0-45d0-a2d7-4f2ce3bcb384","system_id":"levelo_inurba_marseille","lat":43.28274,"lon":5.35061,"is_reserved":false,"is_disabled":false,"rental_uris":{"android":"levelo://app?vid=7d28bf23-bfe0-45d0-a2d7-4f2ce3bcb384","ios":"levelo://app?vid=7d28bf23-bfe0-45d0-a2d7-4f2ce3bcb384"},"vehicle_type_id":"4","last_reported":1745068546,"current_range_meters":19200,"station_id":"ce4bhbp2rcd13ifvqerg","pricing_plan_id":"cebpf4jnsgd1na2vs0mg"},{"bike_id":"50ab4b13-ab44-42fa-a09e-76457455814d","system_id":"levelo_inurba_marseille","lat":43.29705,"lon":5.36604,"is_reserved":false,"is_disabled":false,"rental_uris":{"android":"levelo://app?vid=50ab4b13-ab44-42fa-a09e-76457455814d","ios":"levelo://app?vid=50ab4b13-ab44-42fa-a09e-76457455814d"},"vehicle_type_id":"4","last_reported":1745068546,"current_range_meters":19200,"station_id":"ce4bgn12rcd13ifvqbt0","pricing_plan_id":"cebpf4jnsgd1na2vs0mg"},{"bike_id":"a2f4899b-1165-471f-bf63-b0b2248f3715","system_id":"levelo_inurba_marseille","lat":43.28938,"lon":5.36644,"is_reserved":false,"is_disabled":false,"rental_uris":{"android":"levelo://app?vid=a2f4899b-1165-471f-bf63-b0b2248f3715","ios":"levelo://app?vid=a2f4899b-1165-471f-bf63-b0b2248f3715"},"vehicle_type_id":"4","last_reported":1745068546,"current_range_meters":19600,"station_id":"ce4bhap2rcd13ifvqek0","pricing_plan_id":"cebpf4jnsgd1na2vs0mg"},{"bike_id":"f5f5c005-2744-4bcc-ab9e-864f72d71795","system_id":"levelo_inurba_marseille","lat":43.29002,"lon":5.35602,"is_reserved":false,"is_disabled":false,"rental_uris":{"android":"levelo://app?vid=f5f5c005-2744-4bcc-ab9e-864f72d71795","ios":"levelo://app?vid=f5f5c005-2744-4bcc-ab9e-864f72d71795"},"vehicle_type_id":"4","last_reported":1745068546,"current_range_meters":19600,"station_id":"ce4bhb92rcd13ifvqen0","pricing_plan_id":"cebpf4jnsgd1na2vs0mg"},{"bike_id":"d53e964c-f934-484c-a259-3e8f23cdd819","system_id":"levelo_inurba_marseille","lat":43.33728,"lon":5.3918,"is_reserved":false,"is_disabled":false,"rental_uris":{"android":"levelo://app?vid=d53e964c-f934-484c-a259-3e8f23cdd819","ios":"levelo://app?vid=d53e964c-f934-484c-a259-3e8f23cdd819"},"vehicle_type_id":"4","last_reported":1745068546,"current_range_meters":19600,"station_id":"ce4bhr92rcd13ifvqhsg","pricing_plan_id":"cebpf4jnsgd1na2vs0mg"},{"bike_id":"41770de6-8b35-44c6-8c39-b1f33bbcfb40","system_id":"levelo_inurba_marseille","lat":43.26682,"lon":5.38259,"is_reserved":false,"is_disabled":false,"rental_uris":{"android":"levelo://app?vid=41770de6-8b35-44c6-8c39-b1f33bbcfb40","ios":"levelo://app?vid=41770de6-8b35-44c6-8c39-b1f33bbcfb40"},"vehicle_type_id":"4","last_reported":1745068546,"current_range_meters":19600,"station_id":"ce4bhg92rcd13ifvqf90","pricing_plan_id":"cebpf4jnsgd1na2vs0mg"},{"bike_id":"97fa9987-6127-4f58-933b-3fe593229053","system_id":"levelo_inurba_marseille","lat":43.28853,"lon":5.3584,"is_reserved":false,"is_disabled":false,"rental_uris":{"android":"levelo://app?vid=97fa9987-6127-4f58-933b-3fe593229053","ios":"levelo://app?vid=97fa9987-6127-4f58-933b-3fe593229053"},"vehicle_type_id":"4","last_reported":1745068546,"current_range_meters":19600,"station_id":"ce4bhb12rcd13ifvqem0","pricing_plan_id":"cebpf4jnsgd1na2vs0mg"},{"bike_id":"7d29063e-cc47-43de-9fe3-33b900004d65","system_id":"levelo_inurba_marseille","lat":43.21195,"lon":5.35072,"is_reserved":false,"is_disabled":false,"rental_uris":{"android":"levelo://app?vid=7d29063e-cc47-43de-9fe3-33b900004d65","ios":"levelo://app?vid=7d29063e-cc47-43de-9fe3-33b900004d65"},"vehicle_type_id":"4","last_reported":1745068546,"current_range_meters":19600,"station_id":"st_cvj6sg6p6f1abm77japg","pricing_plan_id":"cebpf4jnsgd1na2vs0mg"},{"bike_id":"412aac99-cea2-4959-b730-08397f9d3e0c","system_id":"levelo_inurba_marseille","lat":43.27313,"lon":5.390723,"is_reserved":false,"is_disabled":false,"rental_uris":{"android":"levelo://app?vid=412aac99-cea2-4959-b730-08397f9d3e0c","ios":"levelo://app?vid=412aac99-cea2-4959-b730-08397f9d3e0c"},"vehicle_type_id":"4","last_reported":1745068546,"current_range_meters":19600,"station_id":"ce4bhgp2rcd13ifvqfe0","pricing_plan_id":"cebpf4jnsgd1na2vs0mg"},{"bike_id":"3a46846b-23db-4659-b61c-72cbcea07e9c","system_id":"levelo_inurba_marseille","lat":43.28938,"lon":5.36638,"is_reserved":false,"is_disabled":false,"rental_uris":{"android":"levelo://app?vid=3a46846b-23db-4659-b61c-72cbcea07e9c","ios":"levelo://app?vid=3a46846b-23db-4659-b61c-72cbcea07e9c"},"vehicle_type_id":"4","last_reported":1745068546,"current_range_meters":20000,"station_id":"ce4bhap2rcd13ifvqek0","pricing_plan_id":"cebpf4jnsgd1na2vs0mg"},{"bike_id":"38fc1422-f5c4-4960-bbc5-2838bc94313d","system_id":"levelo_inurba_marseille","lat":43.28604,"lon":5.35124,"is_reserved":false,"is_disabled":false,"rental_uris":{"android":"levelo://app?vid=38fc1422-f5c4-4960-bbc5-2838bc94313d","ios":"levelo://app?vid=38fc1422-f5c4-4960-bbc5-2838bc94313d"},"vehicle_type_id":"4","last_reported":1745068546,"current_range_meters":20000,"station_id":"ce4bhch2rcd13ifvqeug","pricing_plan_id":"cebpf4jnsgd1na2vs0mg"},{"bike_id":"f187a741-29ec-4cdb-8bf9-0c04448b7a86","system_id":"levelo_inurba_marseille","lat":43.24177,"lon":5.39723,"is_reserved":false,"is_disabled":false,"rental_uris":{"android":"levelo://app?vid=f187a741-29ec-4cdb-8bf9-0c04448b7a86","ios":"levelo://app?vid=f187a741-29ec-4cdb-8bf9-0c04448b7a86"},"vehicle_type_id":"4","last_reported":1745068546,"current_range_meters":20000,"station_id":"ce4bhn12rcd13ifvqgpg","pricing_plan_id":"cebpf4jnsgd1na2vs0mg"},{"bike_id":"b8808bd5-b66c-42b1-8122-616501d1d082","system_id":"levelo_inurba_marseille","lat":43.21758,"lon":5.34591,"is_reserved":false,"is_disabled":false,"rental_uris":{"android":"levelo://app?vid=b8808bd5-b66c-42b1-8122-616501d1d082","ios":"levelo://app?vid=b8808bd5-b66c-42b1-8122-616501d1d082"},"vehicle_type_id":"4","last_reported":1745068546,"current_range_meters":20000,"station_id":"st_cvj6r9ubvosntc0bgbag","pricing_plan_id":"cebpf4jnsgd1na2vs0mg"},{"bike_id":"05d675b3-9f02-4a64-ac92-6f4109d9f482","system_id":"levelo_inurba_marseille","lat":43.22504,"lon":5.34779,"is_reserved":false,"is_disabled":false,"rental_uris":{"android":"levelo://app?vid=05d675b3-9f02-4a64-ac92-6f4109d9f482","ios":"levelo://app?vid=05d675b3-9f02-4a64-ac92-6f4109d9f482"},"vehicle_type_id":"4","last_reported":1745068546,"current_range_meters":20000,"station_id":"st_cvj5dfep6f1abm77gieg","pricing_plan_id":"cebpf4jnsgd1na2vs0mg"},{"bike_id":"210d3669-e710-4cfb-bac4-2059f4fa7eea","system_id":"levelo_inurba_marseille","lat":43.30377,"lon":5.39706,"is_reserved":false,"is_disabled":false,"rental_uris":{"android":"levelo://app?vid=210d3669-e710-4cfb-bac4-2059f4fa7eea","ios":"levelo://app?vid=210d3669-e710-4cfb-bac4-2059f4fa7eea"},"vehicle_type_id":"4","last_reported":1745068546,"current_range_meters":20000,"station_id":"ce4bh2h2rcd13ifvqdh0","pricing_plan_id":"cebpf4jnsgd1na2vs0mg"},{"bike_id":"d56342d1-42a9-4a0d-8d32-7746fb6ef985","system_id":"levelo_inurba_marseille","lat":43.30109,"lon":5.38109,"is_reserved":false,"is_disabled":false,"rental_uris":{"android":"levelo://app?vid=d56342d1-42a9-4a0d-8d32-7746fb6ef985","ios":"levelo://app?vid=d56342d1-42a9-4a0d-8d32-7746fb6ef985"},"vehicle_type_id":"4","last_reported":1745068546,"current_range_meters":20400,"station_id":"ce4bgjp2rcd13ifvqbh0","pricing_plan_id":"cebpf4jnsgd1na2vs0mg"},{"bike_id":"6a918590-f4d3-4b57-92dc-c9ccb37552b6","system_id":"levelo_inurba_marseille","lat":43.23057,"lon":5.35486,"is_reserved":false,"is_disabled":false,"rental_uris":{"android":"levelo://app?vid=6a918590-f4d3-4b57-92dc-c9ccb37552b6","ios":"levelo://app?vid=6a918590-f4d3-4b57-92dc-c9ccb37552b6"},"vehicle_type_id":"4","last_reported":1745068546,"current_range_meters":20400,"station_id":"cpo3342slgdg3j2ifvpg","pricing_plan_id":"cebpf4jnsgd1na2vs0mg"},{"bike_id":"ce98f9ed-57b3-49be-88aa-3bcd8853be8c","system_id":"levelo_inurba_marseille","lat":43.21752,"lon":5.346,"is_reserved":false,"is_disabled":false,"rental_uris":{"android":"levelo://app?vid=ce98f9ed-57b3-49be-88aa-3bcd8853be8c","ios":"levelo://app?vid=ce98f9ed-57b3-49be-88aa-3bcd8853be8c"},"vehicle_type_id":"4","last_reported":1745068546,"current_range_meters":20400,"station_id":"st_cvj6r9ubvosntc0bgbag","pricing_plan_id":"cebpf4jnsgd1na2vs0mg"},{"bike_id":"a772fbdd-2b48-4e7b-ad57-c384bc42010a","system_id":"levelo_inurba_marseille","lat":43.29679,"lon":5.37288,"is_reserved":false,"is_disabled":false,"rental_uris":{"android":"levelo://app?vid=a772fbdd-2b48-4e7b-ad57-c384bc42010a","ios":"levelo://app?vid=a772fbdd-2b48-4e7b-ad57-c384bc42010a"},"vehicle_type_id":"4","last_reported":1745068546,"current_range_meters":20000,"station_id":"ce4bgk12rcd13ifvqbj0","pricing_plan_id":"cebpf4jnsgd1na2vs0mg"},{"bike_id":"20825b25-5827-4ad0-91b1-b7a46642db5f","system_id":"levelo_inurba_marseille","lat":43.22504,"lon":5.34778,"is_reserved":false,"is_disabled":false,"rental_uris":{"android":"levelo://app?vid=20825b25-5827-4ad0-91b1-b7a46642db5f","ios":"levelo://app?vid=20825b25-5827-4ad0-91b1-b7a46642db5f"},"vehicle_type_id":"4","last_reported":1745068546,"current_range_meters":20400,"station_id":"st_cvj5dfep6f1abm77gieg","pricing_plan_id":"cebpf4jnsgd1na2vs0mg"},{"bike_id":"cbc6e808-31d7-4e05-b58b-bbda05fdc490","system_id":"levelo_inurba_marseille","lat":43.30267,"lon":5.37704,"is_reserved":false,"is_disabled":false,"rental_uris":{"android":"levelo://app?vid=cbc6e808-31d7-4e05-b58b-bbda05fdc490","ios":"levelo://app?vid=cbc6e808-31d7-4e05-b58b-bbda05fdc490"},"vehicle_type_id":"4","last_reported":1745068546,"current_range_meters":20000,"station_id":"ce4bguh2rcd13ifvqcj0","pricing_plan_id":"cebpf4jnsgd1na2vs0mg"},{"bike_id":"236fad88-7be3-4155-b0f6-55c0666d910e","system_id":"levelo_inurba_marseille","lat":43.239624,"lon":5.366376,"is_reserved":false,"is_disabled":false,"rental_uris":{"android":"levelo://app?vid=236fad88-7be3-4155-b0f6-55c0666d910e","ios":"levelo://app?vid=236fad88-7be3-4155-b0f6-55c0666d910e"},"vehicle_type_id":"4","last_reported":1745068546,"current_range_meters":20000,"station_id":"ce4bh9p2rcd13ifvqec0","pricing_plan_id":"cebpf4jnsgd1na2vs0mg"},{"bike_id":"4658232a-77b6-4679-b12b-266752ae56a6","system_id":"levelo_inurba_marseille","lat":43.21193,"lon":5.35075,"is_reserved":false,"is_disabled":false,"rental_uris":{"android":"levelo://app?vid=4658232a-77b6-4679-b12b-266752ae56a6","ios":"levelo://app?vid=4658232a-77b6-4679-b12b-266752ae56a6"},"vehicle_type_id":"4","last_reported":1745068546,"current_range_meters":20400,"station_id":"st_cvj6sg6p6f1abm77japg","pricing_plan_id":"cebpf4jnsgd1na2vs0mg"},{"bike_id":"138c8eef-0928-4f6d-9505-c8780b63f244","system_id":"levelo_inurba_marseille","lat":43.23194,"lon":5.35556,"is_reserved":false,"is_disabled":false,"rental_uris":{"android":"levelo://app?vid=138c8eef-0928-4f6d-9505-c8780b63f244","ios":"levelo://app?vid=138c8eef-0928-4f6d-9505-c8780b63f244"},"vehicle_type_id":"4","last_reported":1745068546,"current_range_meters":20400,"station_id":"ce4bhu92rcd13ifvqi70","pricing_plan_id":"cebpf4jnsgd1na2vs0mg"},{"bike_id":"61e7a4fc-6f7c-4102-a5cd-a78a0decbd3a","system_id":"levelo_inurba_marseille","lat":43.23135,"lon":5.43715,"is_reserved":false,"is_disabled":false,"rental_uris":{"android":"levelo://app?vid=61e7a4fc-6f7c-4102-a5cd-a78a0decbd3a","ios":"levelo://app?vid=61e7a4fc-6f7c-4102-a5cd-a78a0decbd3a"},"vehicle_type_id":"4","last_reported":1745068546,"current_range_meters":20400,"station_id":"ce4bhmp2rcd13ifvqgog","pricing_plan_id":"cebpf4jnsgd1na2vs0mg"},{"bike_id":"4683e631-4a33-49b4-936e-fb2024af8a44","system_id":"levelo_inurba_marseille","lat":43.27061,"lon":5.40255,"is_reserved":false,"is_disabled":false,"rental_uris":{"android":"levelo://app?vid=4683e631-4a33-49b4-936e-fb2024af8a44","ios":"levelo://app?vid=4683e631-4a33-49b4-936e-fb2024af8a44"},"vehicle_type_id":"4","last_reported":1745068546,"current_range_meters":20400,"station_id":"ce4bhk92rcd13ifvqgc0","pricing_plan_id":"cebpf4jnsgd1na2vs0mg"},{"bike_id":"fc9e4a0b-cef4-449a-b7db-636c773d6309","system_id":"levelo_inurba_marseille","lat":43.27396,"lon":5.39822,"is_reserved":false,"is_disabled":false,"rental_uris":{"android":"levelo://app?vid=fc9e4a0b-cef4-449a-b7db-636c773d6309","ios":"levelo://app?vid=fc9e4a0b-cef4-449a-b7db-636c773d6309"},"vehicle_type_id":"4","last_reported":1745068546,"current_range_meters":20800,"station_id":"","pricing_plan_id":"cebpf4jnsgd1na2vs0mg"},{"bike_id":"8a03b371-61f3-4777-a2ae-86d5ff81b881","system_id":"levelo_inurba_marseille","lat":43.28417,"lon":5.3499,"is_reserved":false,"is_disabled":false,"rental_uris":{"android":"levelo://app?vid=8a03b371-61f3-4777-a2ae-86d5ff81b881","ios":"levelo://app?vid=8a03b371-61f3-4777-a2ae-86d5ff81b881"},"vehicle_type_id":"4","last_reported":1745068546,"current_range_meters":20800,"station_id":"ce4bhbh2rcd13ifvqepg","pricing_plan_id":"cebpf4jnsgd1na2vs0mg"},{"bike_id":"0530205d-b9aa-4be0-bc12-02dc3fc874e6","system_id":"levelo_inurba_marseille","lat":43.23966,"lon":5.36626,"is_reserved":false,"is_disabled":false,"rental_uris":{"android":"levelo://app?vid=0530205d-b9aa-4be0-bc12-02dc3fc874e6","ios":"levelo://app?vid=0530205d-b9aa-4be0-bc12-02dc3fc874e6"},"vehicle_type_id":"4","last_reported":1745068546,"current_range_meters":20800,"station_id":"ce4bhi12rcd13ifvqfp0","pricing_plan_id":"cebpf4jnsgd1na2vs0mg"},{"bike_id":"9cd66f20-0974-44a3-a00c-3af08e74ebf2","system_id":"levelo_inurba_marseille","lat":43.26015,"lon":5.41756,"is_reserved":false,"is_disabled":false,"rental_uris":{"android":"levelo://app?vid=9cd66f20-0974-44a3-a00c-3af08e74ebf2","ios":"levelo://app?vid=9cd66f20-0974-44a3-a00c-3af08e74ebf2"},"vehicle_type_id":"4","last_reported":1745068546,"current_range_meters":20800,"station_id":"","pricing_plan_id":"cebpf4jnsgd1na2vs0mg"},{"bike_id":"67464218-61ab-4523-9190-d4dee7ea9e66","system_id":"levelo_inurba_marseille","lat":43.31116,"lon":5.37776,"is_reserved":false,"is_disabled":false,"rental_uris":{"android":"levelo://app?vid=67464218-61ab-4523-9190-d4dee7ea9e66","ios":"levelo://app?vid=67464218-61ab-4523-9190-d4dee7ea9e66"},"vehicle_type_id":"4","last_reported":1745068546,"current_range_meters":20400,"station_id":"ce4bgt92rcd13ifvqcg0","pricing_plan_id":"cebpf4jnsgd1na2vs0mg"},{"bike_id":"c33c5356-9ac8-4eae-a3ea-bb23f6c0f850","system_id":"levelo_inurba_marseille","lat":43.27503,"lon":5.42453,"is_reserved":false,"is_disabled":false,"rental_uris":{"android":"levelo://app?vid=c33c5356-9ac8-4eae-a3ea-bb23f6c0f850","ios":"levelo://app?vid=c33c5356-9ac8-4eae-a3ea-bb23f6c0f850"},"vehicle_type_id":"4","last_reported":1745068546,"current_range_meters":20800,"station_id":"ce4bhn92rcd13ifvqgrg","pricing_plan_id":"cebpf4jnsgd1na2vs0mg"},{"bike_id":"a61b9f43-6155-44e2-8037-65f66664fe0a","system_id":"levelo_inurba_marseille","lat":43.3014,"lon":5.38071,"is_reserved":false,"is_disabled":false,"rental_uris":{"android":"levelo://app?vid=a61b9f43-6155-44e2-8037-65f66664fe0a","ios":"levelo://app?vid=a61b9f43-6155-44e2-8037-65f66664fe0a"},"vehicle_type_id":"4","last_reported":1745068546,"current_range_meters":20400,"station_id":"ce4bgjp2rcd13ifvqbh0","pricing_plan_id":"cebpf4jnsgd1na2vs0mg"},{"bike_id":"6d10d7a7-6c32-4e1e-8e59-bb1ff89e5fa7","system_id":"levelo_inurba_marseille","lat":43.32345,"lon":5.3672,"is_reserved":false,"is_disabled":false,"rental_uris":{"android":"levelo://app?vid=6d10d7a7-6c32-4e1e-8e59-bb1ff89e5fa7","ios":"levelo://app?vid=6d10d7a7-6c32-4e1e-8e59-bb1ff89e5fa7"},"vehicle_type_id":"4","last_reported":1745068546,"current_range_meters":20800,"station_id":"ce4bhsh2rcd13ifvqi2g","pricing_plan_id":"cebpf4jnsgd1na2vs0mg"},{"bike_id":"ed9a5c7c-1c96-4916-bf1c-918d8fe8f0ca","system_id":"levelo_inurba_marseille","lat":43.29307,"lon":5.37176,"is_reserved":false,"is_disabled":false,"rental_uris":{"android":"levelo://app?vid=ed9a5c7c-1c96-4916-bf1c-918d8fe8f0ca","ios":"levelo://app?vid=ed9a5c7c-1c96-4916-bf1c-918d8fe8f0ca"},"vehicle_type_id":"4","last_reported":1745068546,"current_range_meters":20800,"station_id":"ce4bgh92rcd13ifvqb40","pricing_plan_id":"cebpf4jnsgd1na2vs0mg"},{"bike_id":"194fc8bb-f378-4000-ad6d-8f7629a7c483","system_id":"levelo_inurba_marseille","lat":43.324782,"lon":5.36536,"is_reserved":false,"is_disabled":false,"rental_uris":{"android":"levelo://app?vid=194fc8bb-f378-4000-ad6d-8f7629a7c483","ios":"levelo://app?vid=194fc8bb-f378-4000-ad6d-8f7629a7c483"},"vehicle_type_id":"4","last_reported":1745068546,"current_range_meters":21600,"station_id":"ce4bhs12rcd13ifvqhvg","pricing_plan_id":"cebpf4jnsgd1na2vs0mg"},{"bike_id":"43d16f90-36ad-4f55-8765-f7d472e03959","system_id":"levelo_inurba_marseille","lat":43.323631,"lon":5.367403,"is_reserved":false,"is_disabled":false,"rental_uris":{"android":"levelo://app?vid=43d16f90-36ad-4f55-8765-f7d472e03959","ios":"levelo://app?vid=43d16f90-36ad-4f55-8765-f7d472e03959"},"vehicle_type_id":"4","last_reported":1745068546,"current_range_meters":21600,"station_id":"ce4bhsh2rcd13ifvqi2g","pricing_plan_id":"cebpf4jnsgd1na2vs0mg"},{"bike_id":"8e5893aa-9a98-4876-abe8-42f617fdf6d9","system_id":"levelo_inurba_marseille","lat":43.29859,"lon":5.36243,"is_reserved":false,"is_disabled":false,"rental_uris":{"android":"levelo://app?vid=8e5893aa-9a98-4876-abe8-42f617fdf6d9","ios":"levelo://app?vid=8e5893aa-9a98-4876-abe8-42f617fdf6d9"},"vehicle_type_id":"4","last_reported":1745068546,"current_range_meters":21600,"station_id":"ce4bgpp2rcd13ifvqc3g","pricing_plan_id":"cebpf4jnsgd1na2vs0mg"},{"bike_id":"5dc18881-9eb6-4809-b32c-dc3f29b47e81","system_id":"levelo_inurba_marseille","lat":43.293641,"lon":5.371951,"is_reserved":false,"is_disabled":false,"rental_uris":{"android":"levelo://app?vid=5dc18881-9eb6-4809-b32c-dc3f29b47e81","ios":"levelo://app?vid=5dc18881-9eb6-4809-b32c-dc3f29b47e81"},"vehicle_type_id":"4","last_reported":1745068546,"current_range_meters":22000,"station_id":"ce4bhb92rcd13ifvqen0","pricing_plan_id":"cebpf4jnsgd1na2vs0mg"},{"bike_id":"ae93066b-153e-42c6-8559-e22488f2a547","system_id":"levelo_inurba_marseille","lat":43.28848,"lon":5.35864,"is_reserved":false,"is_disabled":false,"rental_uris":{"android":"levelo://app?vid=ae93066b-153e-42c6-8559-e22488f2a547","ios":"levelo://app?vid=ae93066b-153e-42c6-8559-e22488f2a547"},"vehicle_type_id":"4","last_reported":1745068546,"current_range_meters":22000,"station_id":"ce4bhb12rcd13ifvqem0","pricing_plan_id":"cebpf4jnsgd1na2vs0mg"},{"bike_id":"7d031c34-7c40-4ab8-adb4-1673500c29a8","system_id":"levelo_inurba_marseille","lat":43.29222,"lon":5.36055,"is_reserved":false,"is_disabled":false,"rental_uris":{"android":"levelo://app?vid=7d031c34-7c40-4ab8-adb4-1673500c29a8","ios":"levelo://app?vid=7d031c34-7c40-4ab8-adb4-1673500c29a8"},"vehicle_type_id":"4","last_reported":1745068546,"current_range_meters":22000,"station_id":"ce4bhbh2rcd13ifvqeqg","pricing_plan_id":"cebpf4jnsgd1na2vs0mg"},{"bike_id":"6b756a6a-3e2a-4904-8a4d-c16a5babc7ae","system_id":"levelo_inurba_marseille","lat":43.32339,"lon":5.36733,"is_reserved":false,"is_disabled":false,"rental_uris":{"android":"levelo://app?vid=6b756a6a-3e2a-4904-8a4d-c16a5babc7ae","ios":"levelo://app?vid=6b756a6a-3e2a-4904-8a4d-c16a5babc7ae"},"vehicle_type_id":"4","last_reported":1745068546,"current_range_meters":22000,"station_id":"ce4bhsh2rcd13ifvqi2g","pricing_plan_id":"cebpf4jnsgd1na2vs0mg"},{"bike_id":"daf836f6-9102-4675-8349-57b7466f21ba","system_id":"levelo_inurba_marseille","lat":43.26209,"lon":5.3744,"is_reserved":false,"is_disabled":false,"rental_uris":{"android":"levelo://app?vid=daf836f6-9102-4675-8349-57b7466f21ba","ios":"levelo://app?vid=daf836f6-9102-4675-8349-57b7466f21ba"},"vehicle_type_id":"4","last_reported":1745068546,"current_range_meters":22000,"station_id":"ce4bhgp2rcd13ifvqfc0","pricing_plan_id":"cebpf4jnsgd1na2vs0mg"},{"bike_id":"840ad418-65a0-4123-9e59-170083a5b5de","system_id":"levelo_inurba_marseille","lat":43.28275,"lon":5.35053,"is_reserved":false,"is_disabled":false,"rental_uris":{"android":"levelo://app?vid=840ad418-65a0-4123-9e59-170083a5b5de","ios":"levelo://app?vid=840ad418-65a0-4123-9e59-170083a5b5de"},"vehicle_type_id":"4","last_reported":1745068546,"current_range_meters":22000,"station_id":"ce4bhbp2rcd13ifvqerg","pricing_plan_id":"cebpf4jnsgd1na2vs0mg"},{"bike_id":"dc3522a1-cf9e-4a36-9e27-cbd133861bc0","system_id":"levelo_inurba_marseille","lat":43.29842,"lon":5.36264,"is_reserved":false,"is_disabled":false,"rental_uris":{"android":"levelo://app?vid=dc3522a1-cf9e-4a36-9e27-cbd133861bc0","ios":"levelo://app?vid=dc3522a1-cf9e-4a36-9e27-cbd133861bc0"},"vehicle_type_id":"4","last_reported":1745068546,"current_range_meters":22400,"station_id":"ce4bgpp2rcd13ifvqc3g","pricing_plan_id":"cebpf4jnsgd1na2vs0mg"},{"bike_id":"c48c070d-02c3-4695-bb5b-426eb0cb3d7f","system_id":"levelo_inurba_marseille","lat":43.30159,"lon":5.38084,"is_reserved":false,"is_disabled":false,"rental_uris":{"android":"levelo://app?vid=c48c070d-02c3-4695-bb5b-426eb0cb3d7f","ios":"levelo://app?vid=c48c070d-02c3-4695-bb5b-426eb0cb3d7f"},"vehicle_type_id":"4","last_reported":1745068546,"current_range_meters":22000,"station_id":"ce4bgjp2rcd13ifvqbh0","pricing_plan_id":"cebpf4jnsgd1na2vs0mg"},{"bike_id":"51bc3827-b153-4b7e-bc38-aa2d18b38c07","system_id":"levelo_inurba_marseille","lat":43.23972,"lon":5.36625,"is_reserved":false,"is_disabled":false,"rental_uris":{"android":"levelo://app?vid=51bc3827-b153-4b7e-bc38-aa2d18b38c07","ios":"levelo://app?vid=51bc3827-b153-4b7e-bc38-aa2d18b38c07"},"vehicle_type_id":"4","last_reported":1745068546,"current_range_meters":22400,"station_id":"ce4bhi12rcd13ifvqfp0","pricing_plan_id":"cebpf4jnsgd1na2vs0mg"},{"bike_id":"a7f58520-b077-40ce-b097-25cacbc73b32","system_id":"levelo_inurba_marseille","lat":43.31172,"lon":5.38718,"is_reserved":false,"is_disabled":false,"rental_uris":{"android":"levelo://app?vid=a7f58520-b077-40ce-b097-25cacbc73b32","ios":"levelo://app?vid=a7f58520-b077-40ce-b097-25cacbc73b32"},"vehicle_type_id":"4","last_reported":1745068546,"current_range_meters":22400,"station_id":"ce4bgv12rcd13ifvqcp0","pricing_plan_id":"cebpf4jnsgd1na2vs0mg"},{"bike_id":"c0e0ba24-a93e-4d8f-ae3a-85a5a9197456","system_id":"levelo_inurba_marseille","lat":43.23962,"lon":5.36608,"is_reserved":false,"is_disabled":false,"rental_uris":{"android":"levelo://app?vid=c0e0ba24-a93e-4d8f-ae3a-85a5a9197456","ios":"levelo://app?vid=c0e0ba24-a93e-4d8f-ae3a-85a5a9197456"},"vehicle_type_id":"4","last_reported":1745068546,"current_range_meters":22400,"station_id":"ce4bhi12rcd13ifvqfp0","pricing_plan_id":"cebpf4jnsgd1na2vs0mg"},{"bike_id":"95b5d66e-4c72-40bd-ae2b-53b5367fc7dc","system_id":"levelo_inurba_marseille","lat":43.30801,"lon":5.38147,"is_reserved":false,"is_disabled":false,"rental_uris":{"android":"levelo://app?vid=95b5d66e-4c72-40bd-ae2b-53b5367fc7dc","ios":"levelo://app?vid=95b5d66e-4c72-40bd-ae2b-53b5367fc7dc"},"vehicle_type_id":"4","last_reported":1745068546,"current_range_meters":22400,"station_id":"ce4bgt12rcd13ifvqce0","pricing_plan_id":"cebpf4jnsgd1na2vs0mg"},{"bike_id":"d6278412-4daf-4d2c-8cb4-54cee649ed68","system_id":"levelo_inurba_marseille","lat":43.28988,"lon":5.37838,"is_reserved":false,"is_disabled":false,"rental_uris":{"android":"levelo://app?vid=d6278412-4daf-4d2c-8cb4-54cee649ed68","ios":"levelo://app?vid=d6278412-4daf-4d2c-8cb4-54cee649ed68"},"vehicle_type_id":"4","last_reported":1745068546,"current_range_meters":22800,"station_id":"ce4bh9p2rcd13ifvqed0","pricing_plan_id":"cebpf4jnsgd1na2vs0mg"},{"bike_id":"3e3c8c50-0433-4468-9b5f-71ae2ad7c709","system_id":"levelo_inurba_marseille","lat":43.32354,"lon":5.36737,"is_reserved":false,"is_disabled":false,"rental_uris":{"android":"levelo://app?vid=3e3c8c50-0433-4468-9b5f-71ae2ad7c709","ios":"levelo://app?vid=3e3c8c50-0433-4468-9b5f-71ae2ad7c709"},"vehicle_type_id":"4","last_reported":1745068546,"current_range_meters":22800,"station_id":"ce4bhsh2rcd13ifvqi2g","pricing_plan_id":"cebpf4jnsgd1na2vs0mg"},{"bike_id":"459fab34-29c3-45f7-a7b1-bdf4f6a3fbd7","system_id":"levelo_inurba_marseille","lat":43.25492,"lon":5.37646,"is_reserved":false,"is_disabled":false,"rental_uris":{"android":"levelo://app?vid=459fab34-29c3-45f7-a7b1-bdf4f6a3fbd7","ios":"levelo://app?vid=459fab34-29c3-45f7-a7b1-bdf4f6a3fbd7"},"vehicle_type_id":"4","last_reported":1745068546,"current_range_meters":22800,"station_id":"ce4bhh12rcd13ifvqff0","pricing_plan_id":"cebpf4jnsgd1na2vs0mg"},{"bike_id":"06172e70-0cbd-405d-86c8-6ec998258388","system_id":"levelo_inurba_marseille","lat":43.23966,"lon":5.36625,"is_reserved":false,"is_disabled":false,"rental_uris":{"android":"levelo://app?vid=06172e70-0cbd-405d-86c8-6ec998258388","ios":"levelo://app?vid=06172e70-0cbd-405d-86c8-6ec998258388"},"vehicle_type_id":"4","last_reported":1745068546,"current_range_meters":22800,"station_id":"ce4bhi12rcd13ifvqfp0","pricing_plan_id":"cebpf4jnsgd1na2vs0mg"},{"bike_id":"48005c46-eabc-4ea8-b4de-e287d98d22b5","system_id":"levelo_inurba_marseille","lat":43.23189,"lon":5.35541,"is_reserved":false,"is_disabled":false,"rental_uris":{"android":"levelo://app?vid=48005c46-eabc-4ea8-b4de-e287d98d22b5","ios":"levelo://app?vid=48005c46-eabc-4ea8-b4de-e287d98d22b5"},"vehicle_type_id":"4","last_reported":1745068546,"current_range_meters":22800,"station_id":"ce4bhu92rcd13ifvqi70","pricing_plan_id":"cebpf4jnsgd1na2vs0mg"},{"bike_id":"e3091e42-dec3-4141-bb21-ef5e22039905","system_id":"levelo_inurba_marseille","lat":43.273744,"lon":5.362628,"is_reserved":false,"is_disabled":false,"rental_uris":{"android":"levelo://app?vid=e3091e42-dec3-4141-bb21-ef5e22039905","ios":"levelo://app?vid=e3091e42-dec3-4141-bb21-ef5e22039905"},"vehicle_type_id":"4","last_reported":1745068546,"current_range_meters":22800,"station_id":"ce4bhbh2rcd13ifvqeo0","pricing_plan_id":"cebpf4jnsgd1na2vs0mg"},{"bike_id":"7c1ba647-aba4-45e2-bdd4-d2ed542c7f97","system_id":"levelo_inurba_marseille","lat":43.27497,"lon":5.42446,"is_reserved":false,"is_disabled":false,"rental_uris":{"android":"levelo://app?vid=7c1ba647-aba4-45e2-bdd4-d2ed542c7f97","ios":"levelo://app?vid=7c1ba647-aba4-45e2-bdd4-d2ed542c7f97"},"vehicle_type_id":"4","last_reported":1745068546,"current_range_meters":23200,"station_id":"ce4bhn92rcd13ifvqgrg","pricing_plan_id":"cebpf4jnsgd1na2vs0mg"},{"bike_id":"52bbd10a-5bee-4cd8-92df-f8b9f54b6602","system_id":"levelo_inurba_marseille","lat":43.21748,"lon":5.34607,"is_reserved":false,"is_disabled":false,"rental_uris":{"android":"levelo://app?vid=52bbd10a-5bee-4cd8-92df-f8b9f54b6602","ios":"levelo://app?vid=52bbd10a-5bee-4cd8-92df-f8b9f54b6602"},"vehicle_type_id":"4","last_reported":1745068546,"current_range_meters":23200,"station_id":"st_cvj6r9ubvosntc0bgbag","pricing_plan_id":"cebpf4jnsgd1na2vs0mg"},{"bike_id":"facc8aa7-ceef-420d-98c4-0d7f9d1f826b","system_id":"levelo_inurba_marseille","lat":43.315103,"lon":5.372412,"is_reserved":false,"is_disabled":false,"rental_uris":{"android":"levelo://app?vid=facc8aa7-ceef-420d-98c4-0d7f9d1f826b","ios":"levelo://app?vid=facc8aa7-ceef-420d-98c4-0d7f9d1f826b"},"vehicle_type_id":"4","last_reported":1745068546,"current_range_meters":23200,"station_id":"","pricing_plan_id":"cebpf4jnsgd1na2vs0mg"},