{"last_updated":1746130242,"ttl":60,"version":"2.2","data":{"bikes":[{"bike_id":"a35c3ffc-4e10-4f38-94fb-c7be8d2fb030","system_id":"levelo_inurba_marseille","lat":43.31659,"lon":5.39583,"is_reserved":false,"is_disabled":false,"rental_uris":{"android":"levelo://app?vid=a35c3ffc-4e10-4f38-94fb-c7be8d2fb030","ios":"levelo://app?vid=a35c3ffc-4e10-4f38-94fb-c7be8d2fb030"},"vehicle_type_id":"4","last_reported":1746130242,"current_range_meters":2800,"station_id":"","pricing_plan_id":"cebpf4jnsgd1na2vs0mg"},{"bike_id":"4d01ed3c-b5ca-4468-9018-85c23d91a18d","system_id":"levelo_inurba_marseille","lat":43.300911,"lon":5.390687,"is_reserved":false,"is_disabled":false,"rental_uris":{"android":"levelo://app?vid=4d01ed3c-b5ca-4468-9018-85c23d91a18d","ios":"levelo://app?vid=4d01ed3c-b5ca-4468-9018-85c23d91a18d"},"vehicle_type_id":"4","last_reported":1746130242,"current_range_meters":2800,"station_id":"ce4bh192rcd13ifvqdb0","pricing_plan_id":"cebpf4jnsgd1na2vs0mg"},{"bike_id":"5bddfbee-e6a9-4925-b3af-b6965915e588","system_id":"levelo_inurba_marseille","lat":43.29035,"lon":5.37559,"is_reserved":false,"is_disabled":false,"rental_uris":{"android":"levelo://app?vid=5bddfbee-e6a9-4925-b3af-b6965915e588","ios":"levelo://app?vid=5bddfbee-e6a9-4925-b3af-b6965915e588"},"vehicle_type_id":"4","last_reported":1746130242,"current_range_meters":2000,"station_id":"ce4bh692rcd13ifvqe90","pricing_plan_id":"cebpf4jnsgd1na2vs0mg"},{"bike_id":"6b773e02-e91e-4cc8-a1c3-9dc08312ab75","system_id":"levelo_inurba_marseille","lat":43.26502,"lon":5.39535,"is_reserved":false,"is_disabled":false,"rental_uris":{"android":"levelo://app?vid=6b773e02-e91e-4cc8-a1c3-9dc08312ab75","ios":"levelo://app?vid=6b773e02-e91e-4cc8-a1c3-9dc08312ab75"},"vehicle_type_id":"4","last_reported":1746130242,"current_range_meters":2800,"station_id":"ce4bhi12rcd13ifvqfq0","pricing_plan_id":"cebpf4jnsgd1na2vs0mg"},{"bike_id":"1270f54f-8f87-4029-bf85-445e4b004e1a","system_id":"levelo_inurba_marseille","lat":43.29367,"lon":5.378415,"is_reserved":false,"is_disabled":false,"rental_uris":{"android":"levelo://app?vid=1270f54f-8f87-4029-bf85-445e4b004e1a","ios":"levelo://app?vid=1270f54f-8f87-4029-bf85-445e4b004e1a"},"vehicle_type_id":"4","last_reported":1746130242,"current_range_meters":2800,"station_id":"ce4bgjh2rcd13ifvqbf0","pricing_plan_id":"cebpf4jnsgd1na2vs0mg"},{"bike_id":"7a4389b6-f972-4775-8175-33c15adc054c","system_id":"levelo_inurba_marseille","lat":43.29901,"lon":5.38503,"is_reserved":false,"is_disabled":false,"rental_uris":{"android":"levelo://app?vid=7a4389b6-f972-4775-8175-33c15adc054c","ios":"levelo://app?vid=7a4389b6-f972-4775-8175-33c15adc054c"},"vehicle_type_id":"4","last_reported":1746130242,"current_range_meters":3200,"station_id":"","pricing_plan_id":"cebpf4jnsgd1na2vs0mg"},{"bike_id":"98e592b3-5fa3-4a83-b8d7-4600d55d353f","system_id":"levelo_inurba_marseille","lat":43.24632,"lon":5.43646,"is_reserved":false,"is_disabled":false,"rental_uris":{"android":"levelo://app?vid=98e592b3-5fa3-4a83-b8d7-4600d55d353f","ios":"levelo://app?vid=98e592b3-5fa3-4a83-b8d7-4600d55d353f"},"vehicle_type_id":"4","last_reported":1746130242,"current_range_meters":3200,"station_id":"","pricing_plan_id":"cebpf4jnsgd1na2vs0mg"},{"bike_id":"1a8e1431-7bf7-4b89-9160-7e7d99833679","system_id":"levelo_inurba_marseille","lat":43.243835,"lon":5.370731,"is_reserved":false,"is_disabled":false,"rental_uris":{"android":"levelo://app?vid=1a8e1431-7bf7-4b89-9160-7e7d99833679","ios":"levelo://app?vid=1a8e1431-7bf7-4b89-9160-7e7d99833679"},"vehicle_type_id":"4","last_reported":1746130242,"current_range_meters":3200,"station_id":"ce4bhhh2rcd13ifvqfk0","pricing_plan_id":"cebpf4jnsgd1na2vs0mg"},{"bike_id":"037b6870-ccaf-4880-826c-877870104825","system_id":"levelo_inurba_marseille","lat":43.30944,"lon":5.39035,"is_reserved":false,"is_disabled":false,"rental_uris":{"android":"levelo://app?vid=037b6870-ccaf-4880-826c-877870104825","ios":"levelo://app?vid=037b6870-ccaf-4880-826c-877870104825"},"vehicle_type_id":"4","last_reported":1746130242,"current_range_meters":2800,"station_id":"ce4bgup2rcd13ifvqco0","pricing_plan_id":"cebpf4jnsgd1na2vs0mg"},{"bike_id":"339db582-4961-421a-bf19-08faa895f9ad","system_id":"levelo_inurba_marseille","lat":43.28409,"lon":5.37551,"is_reserved":false,"is_disabled":false,"rental_uris":{"android":"levelo://app?vid=339db582-4961-421a-bf19-08faa895f9ad","ios":"levelo://app?vid=339db582-4961-421a-bf19-08faa895f9ad"},"vehicle_type_id":"4","last_reported":1746130242,"current_range_meters":3200,"station_id":"ce4bh412rcd13ifvqds0","pricing_plan_id":"cebpf4jnsgd1na2vs0mg"},{"bike_id":"28717be6-c725-4d30-94ce-e4d59b94deb7","system_id":"levelo_inurba_marseille","lat":43.29634,"lon":5.40597,"is_reserved":false,"is_disabled":false,"rental_uris":{"android":"levelo://app?vid=28717be6-c725-4d30-94ce-e4d59b94deb7","ios":"levelo://app?vid=28717be6-c725-4d30-94ce-e4d59b94deb7"},"vehicle_type_id":"4","last_reported":1746130242,"current_range_meters":3200,"station_id":"ce4bh0h2rcd13ifvqd60","pricing_plan_id":"cebpf4jnsgd1na2vs0mg"},{"bike_id":"bda62136-fc8e-4f2c-b39b-516646f7005e","system_id":"levelo_inurba_marseille","lat":43.294159,"lon":5.386239,"is_reserved":false,"is_disabled":false,"rental_uris":{"android":"levelo://app?vid=bda62136-fc8e-4f2c-b39b-516646f7005e","ios":"levelo://app?vid=bda62136-fc8e-4f2c-b39b-516646f7005e"},"vehicle_type_id":"4","last_reported":1746130242,"current_range_meters":3600,"station_id":"","pricing_plan_id":"cebpf4jnsgd1na2vs0mg"},{"bike_id":"76933a18-cd3c-4ff0-bf8e-44c0c3be9aef","system_id":"levelo_inurba_marseille","lat":43.30129,"lon":5.38752,"is_reserved":false,"is_disabled":false,"rental_uris":{"android":"levelo://app?vid=76933a18-cd3c-4ff0-bf8e-44c0c3be9aef","ios":"levelo://app?vid=76933a18-cd3c-4ff0-bf8e-44c0c3be9aef"},"vehicle_type_id":"4","last_reported":1746130242,"current_range_meters":3600,"station_id":"ce4bghh2rcd13ifvqb60","pricing_plan_id":"cebpf4jnsgd1na2vs0mg"},{"bike_id":"73003c65-723b-41b5-8175-f1a022103ca8","system_id":"levelo_inurba_marseille","lat":43.30461,"lon":5.3789,"is_reserved":false,"is_disabled":false,"rental_uris":{"android":"levelo://app?vid=73003c65-723b-41b5-8175-f1a022103ca8","ios":"levelo://app?vid=73003c65-723b-41b5-8175-f1a022103ca8"},"vehicle_type_id":"4","last_reported":1746130242,"current_range_meters":3600,"station_id":"ce4bgup2rcd13ifvqcn0","pricing_plan_id":"cebpf4jnsgd1na2vs0mg"},{"bike_id":"8d39770a-26af-4ff3-90c7-dcbb3bdeb5bf","system_id":"levelo_inurba_marseille","lat":43.29588,"lon":5.36734,"is_reserved":false,"is_disabled":false,"rental_uris":{"android":"levelo://app?vid=8d39770a-26af-4ff3-90c7-dcbb3bdeb5bf","ios":"levelo://app?vid=8d39770a-26af-4ff3-90c7-dcbb3bdeb5bf"},"vehicle_type_id":"4","last_reported":1746130242,"current_range_meters":4000,"station_id":"ce4bgph2rcd13ifvqc2g","pricing_plan_id":"cebpf4jnsgd1na2vs0mg"},{"bike_id":"75708ece-d584-448e-9f9c-fa19c69ca95b","system_id":"levelo_inurba_marseille","lat":43.25117,"lon":5.403149,"is_reserved":false,"is_disabled":false,"rental_uris":{"android":"levelo://app?vid=75708ece-d584-448e-9f9c-fa19c69ca95b","ios":"levelo://app?vid=75708ece-d584-448e-9f9c-fa19c69ca95b"},"vehicle_type_id":"4","last_reported":1746130242,"current_range_meters":3600,"station_id":"ce4bhlh2rcd13ifvqgig","pricing_plan_id":"cebpf4jnsgd1na2vs0mg"},{"bike_id":"080fea3a-f03b-4b78-b4ff-0c14bc158b80","system_id":"levelo_inurba_marseille","lat":43.28344,"lon":5.38113,"is_reserved":false,"is_disabled":false,"rental_uris":{"android":"levelo://app?vid=080fea3a-f03b-4b78-b4ff-0c14bc158b80","ios":"levelo://app?vid=080fea3a-f03b-4b78-b4ff-0c14bc158b80"},"vehicle_type_id":"4","last_reported":1746130242,"current_range_meters":4000,"station_id":"ce4bh412rcd13ifvqdr0","pricing_plan_id":"cebpf4jnsgd1na2vs0mg"},{"bike_id":"98780e34-23d3-4e8e-bf5a-dcc2fb80a7bf","system_id":"levelo_inurba_marseille","lat":43.29258,"lon":5.38432,"is_reserved":false,"is_disabled":false,"rental_uris":{"android":"levelo://app?vid=98780e34-23d3-4e8e-bf5a-dcc2fb80a7bf","ios":"levelo://app?vid=98780e34-23d3-4e8e-bf5a-dcc2fb80a7bf"},"vehicle_type_id":"4","last_reported":1746130242,"current_range_meters":4000,"station_id":"ce4bh692rcd13ifvqea0","pricing_plan_id":"cebpf4jnsgd1na2vs0mg"},{"bike_id":"db14c02c-d417-4046-8002-d5262dd73f78","system_id":"levelo_inurba_marseille","lat":43.31451,"lon":5.40188,"is_reserved":false,"is_disabled":false,"rental_uris":{"android":"levelo://app?vid=db14c02c-d417-4046-8002-d5262dd73f78","ios":"levelo://app?vid=db14c02c-d417-4046-8002-d5262dd73f78"},"vehicle_type_id":"4","last_reported":1746130242,"current_range_meters":5600,"station_id":"ce4bhqp2rcd13ifvqhng","pricing_plan_id":"cebpf4jnsgd1na2vs0mg"},{"bike_id":"0683d66b-a209-4c9a-8a6e-884c4cd4abfa","system_id":"levelo_inurba_marseille","lat":43.29898,"lon":5.39715,"is_reserved":false,"is_disabled":false,"rental_uris":{"android":"levelo://app?vid=0683d66b-a209-4c9a-8a6e-884c4cd4abfa","ios":"levelo://app?vid=0683d66b-a209-4c9a-8a6e-884c4cd4abfa"},"vehicle_type_id":"4","last_reported":1746130242,"current_range_meters":4400,"station_id":"ce4bh0h2rcd13ifvqd50","pricing_plan_id":"cebpf4jnsgd1na2vs0mg"},{"bike_id":"d1202e26-4f79-4215-a635-28f1cbb05994","system_id":"levelo_inurba_marseille","lat":43.30144,"lon":5.37412,"is_reserved":false,"is_disabled":false,"rental_uris":{"android":"levelo://app?vid=d1202e26-4f79-4215-a635-28f1cbb05994","ios":"levelo://app?vid=d1202e26-4f79-4215-a635-28f1cbb05994"},"vehicle_type_id":"4","last_reported":1746130242,"current_range_meters":4400,"station_id":"ce4bgs92rcd13ifvqcc0","pricing_plan_id":"cebpf4jnsgd1na2vs0mg"},{"bike_id":"7a06ba37-67a9-42ec-9eb0-fb322bafa3a3","system_id":"levelo_inurba_marseille","lat":43.29029,"lon":5.38135,"is_reserved":false,"is_disabled":false,"rental_uris":{"android":"levelo://app?vid=7a06ba37-67a9-42ec-9eb0-fb322bafa3a3","ios":"levelo://app?vid=7a06ba37-67a9-42ec-9eb0-fb322bafa3a3"},"vehicle_type_id":"4","last_reported":1746130242,"current_range_meters":4400,"station_id":"ce4bh4p2rcd13ifvqe1g","pricing_plan_id":"cebpf4jnsgd1na2vs0mg"},{"bike_id":"342622fe-c786-4197-855e-939f6c6764a3","system_id":"levelo_inurba_marseille","lat":43.28709,"lon":5.39976,"is_reserved":false,"is_disabled":false,"rental_uris":{"android":"levelo://app?vid=342622fe-c786-4197-855e-939f6c6764a3","ios":"levelo://app?vid=342622fe-c786-4197-855e-939f6c6764a3"},"vehicle_type_id":"4","last_reported":1746130242,"current_range_meters":4400,"station_id":"ce4bho92rcd13ifvqh3g","pricing_plan_id":"cebpf4jnsgd1na2vs0mg"},{"bike_id":"0e93a132-a02d-4e17-9309-40bcce9e8343","system_id":"levelo_inurba_marseille","lat":43.31189,"lon":5.38706,"is_reserved":false,"is_disabled":false,"rental_uris":{"android":"levelo://app?vid=0e93a132-a02d-4e17-9309-40bcce9e8343","ios":"levelo://app?vid=0e93a132-a02d-4e17-9309-40bcce9e8343"},"vehicle_type_id":"4","last_reported":1746130242,"current_range_meters":4800,"station_id":"ce4bgv12rcd13ifvqcp0","pricing_plan_id":"cebpf4jnsgd1na2vs0mg"},{"bike_id":"2e5e7fab-f1e0-4b30-bf97-3890895a344d","system_id":"levelo_inurba_marseille","lat":43.2986,"lon":5.39741,"is_reserved":false,"is_disabled":false,"rental_uris":{"android":"levelo://app?vid=2e5e7fab-f1e0-4b30-bf97-3890895a344d","ios":"levelo://app?vid=2e5e7fab-f1e0-4b30-bf97-3890895a344d"},"vehicle_type_id":"4","last_reported":1746130242,"current_range_meters":4800,"station_id":"ce4bh0h2rcd13ifvqd50","pricing_plan_id":"cebpf4jnsgd1na2vs0mg"},{"bike_id":"5929c210-eb80-47f6-b67f-7d276e7fb810","system_id":"levelo_inurba_marseille","lat":43.29879,"lon":5.39734,"is_reserved":false,"is_disabled":false,"rental_uris":{"android":"levelo://app?vid=5929c210-eb80-47f6-b67f-7d276e7fb810","ios":"levelo://app?vid=5929c210-eb80-47f6-b67f-7d276e7fb810"},"vehicle_type_id":"4","last_reported":1746130242,"current_range_meters":4800,"station_id":"ce4bh0h2rcd13ifvqd50","pricing_plan_id":"cebpf4jnsgd1na2vs0mg"},{"bike_id":"39ccc3a0-baae-41ad-bd60-2cf8edcfd4fa","system_id":"levelo_inurba_marseille","lat":43.260238,"lon":5.375553,"is_reserved":false,"is_disabled":true,"rental_uris":{"android":"levelo://app?vid=39ccc3a0-baae-41ad-bd60-2cf8edcfd4fa","ios":"levelo://app?vid=39ccc3a0-baae-41ad-bd60-2cf8edcfd4fa"},"vehicle_type_id":"4","last_reported":1746130242,"current_range_meters":5600,"station_id":"ce4bhgh2rcd13ifvqfa0","pricing_plan_id":"cebpf4jnsgd1na2vs0mg"},{"bike_id":"1cf21b55-67f2-480c-a2e8-555000bb4d9e","system_id":"levelo_inurba_marseille","lat":43.30429,"lon":5.3889,"is_reserved":false,"is_disabled":false,"rental_uris":{"android":"levelo://app?vid=1cf21b55-67f2-480c-a2e8-555000bb4d9e","ios":"levelo://app?vid=1cf21b55-67f2-480c-a2e8-555000bb4d9e"},"vehicle_type_id":"4","last_reported":1746130242,"current_range_meters":5600,"station_id":"ce4bgk12rcd13ifvqbi0","pricing_plan_id":"cebpf4jnsgd1na2vs0mg"},{"bike_id":"862019a3-04ae-4c20-a93b-4825eba0cce6","system_id":"levelo_inurba_marseille","lat":43.3094,"lon":5.4014,"is_reserved":false,"is_disabled":false,"rental_uris":{"android":"levelo://app?vid=862019a3-04ae-4c20-a93b-4825eba0cce6","ios":"levelo://app?vid=862019a3-04ae-4c20-a93b-4825eba0cce6"},"vehicle_type_id":"4","last_reported":1746130242,"current_range_meters":5600,"station_id":"ce4bgvp2rcd13ifvqct0","pricing_plan_id":"cebpf4jnsgd1na2vs0mg"},{"bike_id":"b5765d28-71e5-41e2-8bc3-9e09cd722934","system_id":"levelo_inurba_marseille","lat":43.267832,"lon":5.39414,"is_reserved":false,"is_disabled":false,"rental_uris":{"android":"levelo://app?vid=b5765d28-71e5-41e2-8bc3-9e09cd722934","ios":"levelo://app?vid=b5765d28-71e5-41e2-8bc3-9e09cd722934"},"vehicle_type_id":"4","last_reported":1746130242,"current_range_meters":5600,"station_id":"ce4bhh12rcd13ifvqfg0","pricing_plan_id":"cebpf4jnsgd1na2vs0mg"},{"bike_id":"5a46a972-f412-47bc-918e-2491313c9726","system_id":"levelo_inurba_marseille","lat":43.29099,"lon":5.4005,"is_reserved":false,"is_disabled":false,"rental_uris":{"android":"levelo://app?vid=5a46a972-f412-47bc-918e-2491313c9726","ios":"levelo://app?vid=5a46a972-f412-47bc-918e-2491313c9726"},"vehicle_type_id":"4","last_reported":1746130242,"current_range_meters":5600,"station_id":"","pricing_plan_id":"cebpf4jnsgd1na2vs0mg"},{"bike_id":"9993632a-4b57-4af1-b3f7-ae52baf8c31d","system_id":"levelo_inurba_marseille","lat":43.29415,"lon":5.3861,"is_reserved":false,"is_disabled":true,"rental_uris":{"android":"levelo://app?vid=9993632a-4b57-4af1-b3f7-ae52baf8c31d","ios":"levelo://app?vid=9993632a-4b57-4af1-b3f7-ae52baf8c31d"},"vehicle_type_id":"4","last_reported":1746130242,"current_range_meters":5600,"station_id":"ce4bh2h2rcd13ifvqdh0","pricing_plan_id":"cebpf4jnsgd1na2vs0mg"},{"bike_id":"b20fb376-59ad-4923-beb1-bd3cc854d289","system_id":"levelo_inurba_marseille","lat":43.308948,"lon":5.396154,"is_reserved":false,"is_disabled":false,"rental_uris":{"android":"levelo://app?vid=b20fb376-59ad-4923-beb1-bd3cc854d289","ios":"levelo://app?vid=b20fb376-59ad-4923-beb1-bd3cc854d289"},"vehicle_type_id":"4","last_reported":1746130242,"current_range_meters":6000,"station_id":"ce4bh012rcd13ifvqcv0","pricing_plan_id":"cebpf4jnsgd1na2vs0mg"},{"bike_id":"3f94809f-b792-4d50-bfdb-f96478013bf9","system_id":"levelo_inurba_marseille","lat":43.29417,"lon":5.38619,"is_reserved":false,"is_disabled":false,"rental_uris":{"android":"levelo://app?vid=3f94809f-b792-4d50-bfdb-f96478013bf9","ios":"levelo://app?vid=3f94809f-b792-4d50-bfdb-f96478013bf9"},"vehicle_type_id":"4","last_reported":1746130242,"current_range_meters":6000,"station_id":"ce4bh2h2rcd13ifvqdh0","pricing_plan_id":"cebpf4jnsgd1na2vs0mg"},{"bike_id":"a28912c3-cbfc-4450-83c0-fff7b2edd8a5","system_id":"levelo_inurba_marseille","lat":43.31712,"lon":5.43702,"is_reserved":false,"is_disabled":false,"rental_uris":{"android":"levelo://app?vid=a28912c3-cbfc-4450-83c0-fff7b2edd8a5","ios":"levelo://app?vid=a28912c3-cbfc-4450-83c0-fff7b2edd8a5"},"vehicle_type_id":"4","last_reported":1746130242,"current_range_meters":6000,"station_id":"ce4bhp92rcd13ifvqhcg","pricing_plan_id":"cebpf4jnsgd1na2vs0mg"},{"bike_id":"a81055f7-1eff-48ba-88d3-ed4ea2495466","system_id":"levelo_inurba_marseille","lat":43.29869,"lon":5.39733,"is_reserved":false,"is_disabled":false,"rental_uris":{"android":"levelo://app?vid=a81055f7-1eff-48ba-88d3-ed4ea2495466","ios":"levelo://app?vid=a81055f7-1eff-48ba-88d3-ed4ea2495466"},"vehicle_type_id":"4","last_reported":1746130242,"current_range_meters":6000,"station_id":"ce4bh0h2rcd13ifvqd50","pricing_plan_id":"cebpf4jnsgd1na2vs0mg"},{"bike_id":"456facf6-3993-41aa-b74d-ccd7cbe867a9","system_id":"levelo_inurba_marseille","lat":43.29798,"lon":5.40394,"is_reserved":false,"is_disabled":false,"rental_uris":{"android":"levelo://app?vid=456facf6-3993-41aa-b74d-ccd7cbe867a9","ios":"levelo://app?vid=456facf6-3993-41aa-b74d-ccd7cbe867a9"},"vehicle_type_id":"4","last_reported":1746130242,"current_range_meters":6000,"station_id":"ce4bh112rcd13ifvqd90","pricing_plan_id":"cebpf4jnsgd1na2vs0mg"},{"bike_id":"074b1fe1-0369-406a-b3fd-aff117360eba","system_id":"levelo_inurba_marseille","lat":43.24071,"lon":5.37764,"is_reserved":false,"is_disabled":false,"rental_uris":{"android":"levelo://app?vid=074b1fe1-0369-406a-b3fd-aff117360eba","ios":"levelo://app?vid=074b1fe1-0369-406a-b3fd-aff117360eba"},"vehicle_type_id":"4","last_reported":1746130242,"current_range_meters":6000,"station_id":"ce4bhnp2rcd13ifvqgvg","pricing_plan_id":"cebpf4jnsgd1na2vs0mg"},{"bike_id":"cf78712d-2e22-4109-90f6-fb6d0be3e4b2","system_id":"levelo_inurba_marseille","lat":43.29033,"lon":5.39974,"is_reserved":false,"is_disabled":false,"rental_uris":{"android":"levelo://app?vid=cf78712d-2e22-4109-90f6-fb6d0be3e4b2","ios":"levelo://app?vid=cf78712d-2e22-4109-90f6-fb6d0be3e4b2"},"vehicle_type_id":"4","last_reported":1746130242,"current_range_meters":6000,"station_id":"ce4bh392rcd13ifvqdm0","pricing_plan_id":"cebpf4jnsgd1na2vs0mg"},{"bike_id":"2785f816-66b8-4b6f-bb79-42f49ec74d85","system_id":"levelo_inurba_marseille","lat":43.30417,"lon":5.39751,"is_reserved":false,"is_disabled":false,"rental_uris":{"android":"levelo://app?vid=2785f816-66b8-4b6f-bb79-42f49ec74d85","ios":"levelo://app?vid=2785f816-66b8-4b6f-bb79-42f49ec74d85"},"vehicle_type_id":"4","last_reported":1746130242,"current_range_meters":6000,"station_id":"","pricing_plan_id":"cebpf4jnsgd1na2vs0mg"},{"bike_id":"5d3b05a5-2bb8-4020-b7ec-e6c9888f170c","system_id":"levelo_inurba_marseille","lat":43.29698,"lon":5.394635,"is_reserved":false,"is_disabled":false,"rental_uris":{"android":"levelo://app?vid=5d3b05a5-2bb8-4020-b7ec-e6c9888f170c","ios":"levelo://app?vid=5d3b05a5-2bb8-4020-b7ec-e6c9888f170c"},"vehicle_type_id":"4","last_reported":1746130242,"current_range_meters":6400,"station_id":"","pricing_plan_id":"cebpf4jnsgd1na2vs0mg"},{"bike_id":"a9c243d0-02f4-49a0-85d6-9e32713170f4","system_id":"levelo_inurba_marseille","lat":43.30314,"lon":5.40435,"is_reserved":false,"is_disabled":false,"rental_uris":{"android":"levelo://app?vid=a9c243d0-02f4-49a0-85d6-9e32713170f4","ios":"levelo://app?vid=a9c243d0-02f4-49a0-85d6-9e32713170f4"},"vehicle_type_id":"4","last_reported":1746130242,"current_range_meters":6400,"station_id":"ce4bh012rcd13ifvqd10","pricing_plan_id":"cebpf4jnsgd1na2vs0mg"},{"bike_id":"6cd32f46-1600-43b4-9124-4dee582e9444","system_id":"levelo_inurba_marseille","lat":43.29907,"lon":5.3813,"is_reserved":false,"is_disabled":false,"rental_uris":{"android":"levelo://app?vid=6cd32f46-1600-43b4-9124-4dee582e9444","ios":"levelo://app?vid=6cd32f46-1600-43b4-9124-4dee582e9444"},"vehicle_type_id":"4","last_reported":1746130242,"current_range_meters":6400,"station_id":"ce4bgj12rcd13ifvqbc0","pricing_plan_id":"cebpf4jnsgd1na2vs0mg"},{"bike_id":"23dc9770-4798-4188-b718-cdda54613200","system_id":"levelo_inurba_marseille","lat":43.2988,"lon":5.38906,"is_reserved":false,"is_disabled":false,"rental_uris":{"android":"levelo://app?vid=23dc9770-4798-4188-b718-cdda54613200","ios":"levelo://app?vid=23dc9770-4798-4188-b718-cdda54613200"},"vehicle_type_id":"4","last_reported":1746130242,"current_range_meters":6400,"station_id":"ce4bh392rcd13ifvqdl0","pricing_plan_id":"cebpf4jnsgd1na2vs0mg"},{"bike_id":"fd9a4832-7310-4a2d-b55c-eb7e681369f4","system_id":"levelo_inurba_marseille","lat":43.27993,"lon":5.44218,"is_reserved":false,"is_disabled":false,"rental_uris":{"android":"levelo://app?vid=fd9a4832-7310-4a2d-b55c-eb7e681369f4","ios":"levelo://app?vid=fd9a4832-7310-4a2d-b55c-eb7e681369f4"},"vehicle_type_id":"4","last_reported":1746130242,"current_range_meters":6400,"station_id":"","pricing_plan_id":"cebpf4jnsgd1na2vs0mg"},{"bike_id":"c6026018-3d85-461c-b279-4c7f6b237701","system_id":"levelo_inurba_marseille","lat":43.29195,"lon":5.39314,"is_reserved":false,"is_disabled":false,"rental_uris":{"android":"levelo://app?vid=c6026018-3d85-461c-b279-4c7f6b237701","ios":"levelo://app?vid=c6026018-3d85-461c-b279-4c7f6b237701"},"vehicle_type_id":"4","last_reported":1746130242,"current_range_meters":6400,"station_id":"ce4bh192rcd13ifvqdd0","pricing_plan_id":"cebpf4jnsgd1na2vs0mg"},{"bike_id":"6a9e38bb-ba29-40da-84e8-7af92be06f26","system_id":"levelo_inurba_marseille","lat":43.24659,"lon":5.38161,"is_reserved":false,"is_disabled":false,"rental_uris":{"android":"levelo://app?vid=6a9e38bb-ba29-40da-84e8-7af92be06f26","ios":"levelo://app?vid=6a9e38bb-ba29-40da-84e8-7af92be06f26"},"vehicle_type_id":"4","last_reported":1746130242,"current_range_meters":6400,"station_id":"ce4bhih2rcd13ifvqfr0","pricing_plan_id":"cebpf4jnsgd1na2vs0mg"},{"bike_id":"ab72a3ef-15b5-4afd-ab48-654490904372","system_id":"levelo_inurba_marseille","lat":43.29536,"lon":5.38527,"is_reserved":false,"is_disabled":false,"rental_uris":{"android":"levelo://app?vid=ab72a3ef-15b5-4afd-ab48-654490904372","ios":"levelo://app?vid=ab72a3ef-15b5-4afd-ab48-654490904372"},"vehicle_type_id":"4","last_reported":1746130242,"current_range_meters":6400,"station_id":"ce4bgih2rcd13ifvqba0","pricing_plan_id":"cebpf4jnsgd1na2vs0mg"},{"bike_id":"bab024a5-2800-4e39-91c6-db60d0ea329e","system_id":"levelo_inurba_marseille","lat":43.28711,"lon":5.37933,"is_reserved":false,"is_disabled":false,"rental_uris":{"android":"levelo://app?vid=bab024a5-2800-4e39-91c6-db60d0ea329e","ios":"levelo://app?vid=bab024a5-2800-4e39-91c6-db60d0ea329e"},"vehicle_type_id":"4","last_reported":1746130242,"current_range_meters":6400,"station_id":"ce4bh9p2rcd13ifvqec0","pricing_plan_id":"cebpf4jnsgd1na2vs0mg"},{"bike_id":"7f770ba9-2e48-47c9-8bb4-942855273bad","system_id":"levelo_inurba_marseille","lat":43.253445,"lon":5.424148,"is_reserved":false,"is_disabled":false,"rental_uris":{"android":"levelo://app?vid=7f770ba9-2e48-47c9-8bb4-942855273bad","ios":"levelo://app?vid=7f770ba9-2e48-47c9-8bb4-942855273bad"},"vehicle_type_id":"4","last_reported":1746130242,"current_range_meters":6400,"station_id":"","pricing_plan_id":"cebpf4jnsgd1na2vs0mg"},{"bike_id":"15cd8f7b-da78-4cf8-ac56-588a141dc3f4","system_id":"levelo_inurba_marseille","lat":43.30314,"lon":5.36898,"is_reserved":false,"is_disabled":false,"rental_uris":{"android":"levelo://app?vid=15cd8f7b-da78-4cf8-ac56-588a141dc3f4","ios":"levelo://app?vid=15cd8f7b-da78-4cf8-ac56-588a141dc3f4"},"vehicle_type_id":"4","last_reported":1746130242,"current_range_meters":6400,"station_id":"ce4bgqh2rcd13ifvqc5g","pricing_plan_id":"cebpf4jnsgd1na2vs0mg"},{"bike_id":"ea8ba857-5154-48f0-8786-19d79d48dbe7","system_id":"levelo_inurba_marseille","lat":43.28707,"lon":5.3999,"is_reserved":false,"is_disabled":false,"rental_uris":{"android":"levelo://app?vid=ea8ba857-5154-48f0-8786-19d79d48dbe7","ios":"levelo://app?vid=ea8ba857-5154-48f0-8786-19d79d48dbe7"},"vehicle_type_id":"4","last_reported":1746130242,"current_range_meters":6400,"station_id":"ce4bho92rcd13ifvqh3g","pricing_plan_id":"cebpf4jnsgd1na2vs0mg"},{"bike_id":"d4820b76-c1e6-4d5b-90ad-0e3fd73d276c","system_id":"levelo_inurba_marseille","lat":43.29913,"lon":5.38081,"is_reserved":false,"is_disabled":false,"rental_uris":{"android":"levelo://app?vid=d4820b76-c1e6-4d5b-90ad-0e3fd73d276c","ios":"levelo://app?vid=d4820b76-c1e6-4d5b-90ad-0e3fd73d276c"},"vehicle_type_id":"4","last_reported":1746130242,"current_range_meters":6800,"station_id":"","pricing_plan_id":"cebpf4jnsgd1na2vs0mg"},{"bike_id":"5d775275-e05a-4a66-bce2-cf8511869a1c","system_id":"levelo_inurba_marseille","lat":43.303689,"lon":5.418835,"is_reserved":false,"is_disabled":false,"rental_uris":{"android":"levelo://app?vid=5d775275-e05a-4a66-bce2-cf8511869a1c","ios":"levelo://app?vid=5d775275-e05a-4a66-bce2-cf8511869a1c"},"vehicle_type_id":"4","last_reported":1746130242,"current_range_meters":6800,"station_id":"ce4bhop2rcd13ifvqh7g","pricing_plan_id":"cebpf4jnsgd1na2vs0mg"},{"bike_id":"993993a4-ded2-4764-967d-7bb33e67fd38","system_id":"levelo_inurba_marseille","lat":43.2792,"lon":5.39567,"is_reserved":false,"is_disabled":false,"rental_uris":{"android":"levelo://app?vid=993993a4-ded2-4764-967d-7bb33e67fd38","ios":"levelo://app?vid=993993a4-ded2-4764-967d-7bb33e67fd38"},"vehicle_type_id":"4","last_reported":1746130242,"current_range_meters":6800,"station_id":"ce4bhf92rcd13ifvqf40","pricing_plan_id":"cebpf4jnsgd1na2vs0mg"},{"bike_id":"e8fcaf79-d1bc-4aae-bf4c-bb3f381de247","system_id":"levelo_inurba_marseille","lat":43.298973,"lon":5.436756,"is_reserved":false,"is_disabled":false,"rental_uris":{"android":"levelo://app?vid=e8fcaf79-d1bc-4aae-bf4c-bb3f381de247","ios":"levelo://app?vid=e8fcaf79-d1bc-4aae-bf4c-bb3f381de247"},"vehicle_type_id":"4","last_reported":1746130242,"current_range_meters":6800,"station_id":"ce4bhpp2rcd13ifvqhfg","pricing_plan_id":"cebpf4jnsgd1na2vs0mg"},{"bike_id":"cdb5c586-f81c-4772-a04f-234da526a0f6","system_id":"levelo_inurba_marseille","lat":43.28105,"lon":5.3784,"is_reserved":false,"is_disabled":false,"rental_uris":{"android":"levelo://app?vid=cdb5c586-f81c-4772-a04f-234da526a0f6","ios":"levelo://app?vid=cdb5c586-f81c-4772-a04f-234da526a0f6"},"vehicle_type_id":"4","last_reported":1746130242,"current_range_meters":6800,"station_id":"ce4bha12rcd13ifvqee0","pricing_plan_id":"cebpf4jnsgd1na2vs0mg"},{"bike_id":"727a9e79-9eef-4d0d-8364-8cc93b121718","system_id":"levelo_inurba_marseille","lat":43.2551,"lon":5.37636,"is_reserved":false,"is_disabled":true,"rental_uris":{"android":"levelo://app?vid=727a9e79-9eef-4d0d-8364-8cc93b121718","ios":"levelo://app?vid=727a9e79-9eef-4d0d-8364-8cc93b121718"},"vehicle_type_id":"4","last_reported":1746130242,"current_range_meters":6800,"station_id":"ce4bhh12rcd13ifvqff0","pricing_plan_id":"cebpf4jnsgd1na2vs0mg"},{"bike_id":"c7da9ef9-1744-4e5e-a809-ff041badbe27","system_id":"levelo_inurba_marseille","lat":43.29145,"lon":5.40035,"is_reserved":false,"is_disabled":false,"rental_uris":{"android":"levelo://app?vid=c7da9ef9-1744-4e5e-a809-ff041badbe27","ios":"levelo://app?vid=c7da9ef9-1744-4e5e-a809-ff041badbe27"},"vehicle_type_id":"4","last_reported":1746130242,"current_range_meters":7200,"station_id":"","pricing_plan_id":"cebpf4jnsgd1na2vs0mg"},{"bike_id":"d901647f-aef6-4e5f-b7ba-7cb0dfd0a264","system_id":"levelo_inurba_marseille","lat":43.30808,"lon":5.37593,"is_reserved":false,"is_disabled":true,"rental_uris":{"android":"levelo://app?vid=d901647f-aef6-4e5f-b7ba-7cb0dfd0a264","ios":"levelo://app?vid=d901647f-aef6-4e5f-b7ba-7cb0dfd0a264"},"vehicle_type_id":"4","last_reported":1746130242,"current_range_meters":7200,"station_id":"ce4bgv92rcd13ifvqcq0","pricing_plan_id":"cebpf4jnsgd1na2vs0mg"},{"bike_id":"91dce1f4-a2bb-4048-b139-941296ef63d6","system_id":"levelo_inurba_marseille","lat":43.305427,"lon":5.367376,"is_reserved":false,"is_disabled":false,"rental_uris":{"android":"levelo://app?vid=91dce1f4-a2bb-4048-b139-941296ef63d6","ios":"levelo://app?vid=91dce1f4-a2bb-4048-b139-941296ef63d6"},"vehicle_type_id":"4","last_reported":1746130242,"current_range_meters":7200,"station_id":"","pricing_plan_id":"cebpf4jnsgd1na2vs0mg"},{"bike_id":"215bdf6f-59e9-4581-ab6a-3306c221d929","system_id":"levelo_inurba_marseille","lat":43.2459,"lon":5.39843,"is_reserved":false,"is_disabled":false,"rental_uris":{"android":"levelo://app?vid=215bdf6f-59e9-4581-ab6a-3306c221d929","ios":"levelo://app?vid=215bdf6f-59e9-4581-ab6a-3306c221d929"},"vehicle_type_id":"4","last_reported":1746130242,"current_range_meters":7200,"station_id":"","pricing_plan_id":"cebpf4jnsgd1na2vs0mg"},{"bike_id":"3feaa426-1b63-49b9-8277-2dd1cca318cf","system_id":"levelo_inurba_marseille","lat":43.300458,"lon":5.400746,"is_reserved":false,"is_disabled":false,"rental_uris":{"android":"levelo://app?vid=3feaa426-1b63-49b9-8277-2dd1cca318cf","ios":"levelo://app?vid=3feaa426-1b63-49b9-8277-2dd1cca318cf"},"vehicle_type_id":"4","last_reported":1746130242,"current_range_meters":7200,"station_id":"","pricing_plan_id":"cebpf4jnsgd1na2vs0mg"},{"bike_id":"1d19858c-634c-4254-b6af-4bd7cdc58139","system_id":"levelo_inurba_marseille","lat":43.30326,"lon":5.40432,"is_reserved":false,"is_disabled":false,"rental_uris":{"android":"levelo://app?vid=1d19858c-634c-4254-b6af-4bd7cdc58139","ios":"levelo://app?vid=1d19858c-634c-4254-b6af-4bd7cdc58139"},"vehicle_type_id":"4","last_reported":1746130242,"current_range_meters":7200,"station_id":"ce4bh012rcd13ifvqd10","pricing_plan_id":"cebpf4jnsgd1na2vs0mg"},{"bike_id":"4319c982-9efc-4d68-a879-f875232aaea1","system_id":"levelo_inurba_marseille","lat":43.26919,"lon":5.38928,"is_reserved":false,"is_disabled":false,"rental_uris":{"android":"levelo://app?vid=4319c982-9efc-4d68-a879-f875232aaea1","ios":"levelo://app?vid=4319c982-9efc-4d68-a879-f875232aaea1"},"vehicle_type_id":"4","last_reported":1746130242,"current_range_meters":7200,"station_id":"ce4bhhh2rcd13ifvqfl0","pricing_plan_id":"cebpf4jnsgd1na2vs0mg"},{"bike_id":"9ac20fc1-c260-4e59-a1b0-09d27546b99e","system_id":"levelo_inurba_marseille","lat":43.30422,"lon":5.39742,"is_reserved":false,"is_disabled":false,"rental_uris":{"android":"levelo://app?vid=9ac20fc1-c260-4e59-a1b0-09d27546b99e","ios":"levelo://app?vid=9ac20fc1-c260-4e59-a1b0-09d27546b99e"},"vehicle_type_id":"4","last_reported":1746130242,"current_range_meters":8000,"station_id":"ce4bh092rcd13ifvqd20","pricing_plan_id":"cebpf4jnsgd1na2vs0mg"},{"bike_id":"47de6562-ba72-42e5-ace3-2d5a54c7c0d3","system_id":"levelo_inurba_marseille","lat":43.27947,"lon":5.41041,"is_reserved":false,"is_disabled":true,"rental_uris":{"android":"levelo://app?vid=47de6562-ba72-42e5-ace3-2d5a54c7c0d3","ios":"levelo://app?vid=47de6562-ba72-42e5-ace3-2d5a54c7c0d3"},"vehicle_type_id":"4","last_reported":1746130242,"current_range_meters":8000,"station_id":"ce4bhnp2rcd13ifvqh0g","pricing_plan_id":"cebpf4jnsgd1na2vs0mg"},{"bike_id":"0840f843-3a67-4e05-a048-29d3d9d53dba","system_id":"levelo_inurba_marseille","lat":43.25721,"lon":5.41117,"is_reserved":false,"is_disabled":false,"rental_uris":{"android":"levelo://app?vid=0840f843-3a67-4e05-a048-29d3d9d53dba","ios":"levelo://app?vid=0840f843-3a67-4e05-a048-29d3d9d53dba"},"vehicle_type_id":"4","last_reported":1746130242,"current_range_meters":8000,"station_id":"ce4bhkp2rcd13ifvqgd0","pricing_plan_id":"cebpf4jnsgd1na2vs0mg"},{"bike_id":"e19eb4d2-abff-4cb2-b89f-515b18628e10","system_id":"levelo_inurba_marseille","lat":43.31152,"lon":5.39602,"is_reserved":false,"is_disabled":false,"rental_uris":{"android":"levelo://app?vid=e19eb4d2-abff-4cb2-b89f-515b18628e10","ios":"levelo://app?vid=e19eb4d2-abff-4cb2-b89f-515b18628e10"},"vehicle_type_id":"4","last_reported":1746130242,"current_range_meters":8000,"station_id":"ce4bgvp2rcd13ifvqcu0","pricing_plan_id":"cebpf4jnsgd1na2vs0mg"},{"bike_id":"a1bc46e8-b2c8-46e7-9cb3-5bb1d945c416","system_id":"levelo_inurba_marseille","lat":43.30653,"lon":5.40075,"is_reserved":false,"is_disabled":false,"rental_uris":{"android":"levelo://app?vid=a1bc46e8-b2c8-46e7-9cb3-5bb1d945c416","ios":"levelo://app?vid=a1bc46e8-b2c8-46e7-9cb3-5bb1d945c416"},"vehicle_type_id":"4","last_reported":1746130242,"current_range_meters":7200,"station_id":"ce4bh112rcd13ifvqda0","pricing_plan_id":"cebpf4jnsgd1na2vs0mg"},{"bike_id":"d201819f-6bb8-4d60-b057-760573cba02b","system_id":"levelo_inurba_marseille","lat":43.323417,"lon":5.40619,"is_reserved":false,"is_disabled":false,"rental_uris":{"android":"levelo://app?vid=d201819f-6bb8-4d60-b057-760573cba02b","ios":"levelo://app?vid=d201819f-6bb8-4d60-b057-760573cba02b"},"vehicle_type_id":"4","last_reported":1746130242,"current_range_meters":8000,"station_id":"ce4bhq92rcd13ifvqhjg","pricing_plan_id":"cebpf4jnsgd1na2vs0mg"},{"bike_id":"e0c69642-153a-4cdf-94dd-e50d7657b75d","system_id":"levelo_inurba_marseille","lat":43.31682,"lon":5.40467,"is_reserved":false,"is_disabled":false,"rental_uris":{"android":"levelo://app?vid=e0c69642-153a-4cdf-94dd-e50d7657b75d","ios":"levelo://app?vid=e0c69642-153a-4cdf-94dd-e50d7657b75d"},"vehicle_type_id":"4","last_reported":1746130242,"current_range_meters":8000,"station_id":"ce4bh012rcd13ifvqd00","pricing_plan_id":"cebpf4jnsgd1na2vs0mg"},{"bike_id":"fee7396b-8d6a-4ad5-8af7-947693171efd","system_id":"levelo_inurba_marseille","lat":43.27096,"lon":5.42295,"is_reserved":false,"is_disabled":false,"rental_uris":{"android":"levelo://app?vid=fee7396b-8d6a-4ad5-8af7-947693171efd","ios":"levelo://app?vid=fee7396b-8d6a-4ad5-8af7-947693171efd"},"vehicle_type_id":"4","last_reported":1746130242,"current_range_meters":8000,"station_id":"ce4bhk92rcd13ifvqgb0","pricing_plan_id":"cebpf4jnsgd1na2vs0mg"},{"bike_id":"45a897a0-8804-4925-8a62-c0e8fec569a8","system_id":"levelo_inurba_marseille","lat":43.23962,"lon":5.3663,"is_reserved":false,"is_disabled":true,"rental_uris":{"android":"levelo://app?vid=45a897a0-8804-4925-8a62-c0e8fec569a8","ios":"levelo://app?vid=45a897a0-8804-4925-8a62-c0e8fec569a8"},"vehicle_type_id":"4","last_reported":1746130242,"current_range_meters":8000,"station_id":"ce4bhi12rcd13ifvqfp0","pricing_plan_id":"cebpf4jnsgd1na2vs0mg"},{"bike_id":"46155dd9-4dd9-482c-9088-3d71aadf112b","system_id":"levelo_inurba_marseille","lat":43.30123,"lon":5.39851,"is_reserved":false,"is_disabled":false,"rental_uris":{"android":"levelo://app?vid=46155dd9-4dd9-482c-9088-3d71aadf112b","ios":"levelo://app?vid=46155dd9-4dd9-482c-9088-3d71aadf112b"},"vehicle_type_id":"4","last_reported":1746130242,"current_range_meters":8000,"station_id":"ce4bh0h2rcd13ifvqd40","pricing_plan_id":"cebpf4jnsgd1na2vs0mg"},{"bike_id":"bf6be9d4-7099-469d-8e47-aa865ae7fbea","system_id":"levelo_inurba_marseille","lat":43.30141,"lon":5.39829,"is_reserved":false,"is_disabled":false,"rental_uris":{"android":"levelo://app?vid=bf6be9d4-7099-469d-8e47-aa865ae7fbea","ios":"levelo://app?vid=bf6be9d4-7099-469d-8e47-aa865ae7fbea"},"vehicle_type_id":"4","last_reported":1746130242,"current_range_meters":8000,"station_id":"ce4bh0h2rcd13ifvqd40","pricing_plan_id":"cebpf4jnsgd1na2vs0mg"},{"bike_id":"af49b98b-bf4d-4197-81e1-db0a8aab9d67","system_id":"levelo_inurba_marseille","lat":43.30264,"lon":5.40075,"is_reserved":false,"is_disabled":false,"rental_uris":{"android":"levelo://app?vid=af49b98b-bf4d-4197-81e1-db0a8aab9d67","ios":"levelo://app?vid=af49b98b-bf4d-4197-81e1-db0a8aab9d67"},"vehicle_type_id":"4","last_reported":1746130242,"current_range_meters":7200,"station_id":"ce4bgvh2rcd13ifvqcs0","pricing_plan_id":"cebpf4jnsgd1na2vs0mg"},{"bike_id":"aff1c3a2-397f-44e4-8805-18e223309aab","system_id":"levelo_inurba_marseille","lat":43.29416,"lon":5.38618,"is_reserved":false,"is_disabled":false,"rental_uris":{"android":"levelo://app?vid=aff1c3a2-397f-44e4-8805-18e223309aab","ios":"levelo://app?vid=aff1c3a2-397f-44e4-8805-18e223309aab"},"vehicle_type_id":"4","last_reported":1746130242,"current_range_meters":8000,"station_id":"ce4bh2h2rcd13ifvqdh0","pricing_plan_id":"cebpf4jnsgd1na2vs0mg"},{"bike_id":"6ec79724-695f-4466-b4f4-7a3dea399050","system_id":"levelo_inurba_marseille","lat":43.270712,"lon":5.422777,"is_reserved":false,"is_disabled":false,"rental_uris":{"android":"levelo://app?vid=6ec79724-695f-4466-b4f4-7a3dea399050","ios":"levelo://app?vid=6ec79724-695f-4466-b4f4-7a3dea399050"},"vehicle_type_id":"4","last_reported":1746130242,"current_range_meters":8000,"station_id":"ce4bhk92rcd13ifvqgb0","pricing_plan_id":"cebpf4jnsgd1na2vs0mg"},{"bike_id":"d338296c-9155-4bd9-8930-1dac11dad461","system_id":"levelo_inurba_marseille","lat":43.283386,"lon":5.381051,"is_reserved":false,"is_disabled":false,"rental_uris":{"android":"levelo://app?vid=d338296c-9155-4bd9-8930-1dac11dad461","ios":"levelo://app?vid=d338296c-9155-4bd9-8930-1dac11dad461"},"vehicle_type_id":"4","last_reported":1746130242,"current_range_meters":8000,"station_id":"ce4bh412rcd13ifvqdr0","pricing_plan_id":"cebpf4jnsgd1na2vs0mg"},{"bike_id":"5623ce53-e2a2-46bf-a01a-81bacce51dab","system_id":"levelo_inurba_marseille","lat":43.28454,"lon":5.39187,"is_reserved":false,"is_disabled":false,"rental_uris":{"android":"levelo://app?vid=5623ce53-e2a2-46bf-a01a-81bacce51dab","ios":"levelo://app?vid=5623ce53-e2a2-46bf-a01a-81bacce51dab"},"vehicle_type_id":"4","last_reported":1746130242,"current_range_meters":8400,"station_id":"ce4bhoh2rcd13ifvqh5g","pricing_plan_id":"cebpf4jnsgd1na2vs0mg"},{"bike_id":"4e06d3e6-2b20-4e7b-aea6-0ad1ac5e1edf","system_id":"levelo_inurba_marseille","lat":43.32548,"lon":5.41449,"is_reserved":false,"is_disabled":false,"rental_uris":{"android":"levelo://app?vid=4e06d3e6-2b20-4e7b-aea6-0ad1ac5e1edf","ios":"levelo://app?vid=4e06d3e6-2b20-4e7b-aea6-0ad1ac5e1edf"},"vehicle_type_id":"4","last_reported":1746130242,"current_range_meters":8400,"station_id":"ce4bhq12rcd13ifvqhhg","pricing_plan_id":"cebpf4jnsgd1na2vs0mg"},{"bike_id":"579f3ff0-5a5b-45cb-baa0-e568c1cd8ec3","system_id":"levelo_inurba_marseille","lat":43.2926,"lon":5.40905,"is_reserved":false,"is_disabled":false,"rental_uris":{"android":"levelo://app?vid=579f3ff0-5a5b-45cb-baa0-e568c1cd8ec3","ios":"levelo://app?vid=579f3ff0-5a5b-45cb-baa0-e568c1cd8ec3"},"vehicle_type_id":"4","last_reported":1746130242,"current_range_meters":8400,"station_id":"ce4bh192rcd13ifvqdc0","pricing_plan_id":"cebpf4jnsgd1na2vs0mg"},{"bike_id":"fb970dc0-2974-4aad-b2a9-f4298230f16a","system_id":"levelo_inurba_marseille","lat":43.23144,"lon":5.43693,"is_reserved":false,"is_disabled":false,"rental_uris":{"android":"levelo://app?vid=fb970dc0-2974-4aad-b2a9-f4298230f16a","ios":"levelo://app?vid=fb970dc0-2974-4aad-b2a9-f4298230f16a"},"vehicle_type_id":"4","last_reported":1746130242,"current_range_meters":8400,"station_id":"ce4bhmp2rcd13ifvqgog","pricing_plan_id":"cebpf4jnsgd1na2vs0mg"},{"bike_id":"a6614777-10e5-4977-8ac0-1a2f78a1021c","system_id":"levelo_inurba_marseille","lat":43.27614,"lon":5.36105,"is_reserved":false,"is_disabled":false,"rental_uris":{"android":"levelo://app?vid=a6614777-10e5-4977-8ac0-1a2f78a1021c","ios":"levelo://app?vid=a6614777-10e5-4977-8ac0-1a2f78a1021c"},"vehicle_type_id":"4","last_reported":1746130242,"current_range_meters":8400,"station_id":"ce4bgj92rcd13ifvqbe0","pricing_plan_id":"cebpf4jnsgd1na2vs0mg"},{"bike_id":"afa620f3-88c4-428c-b660-7ec36711eb62","system_id":"levelo_inurba_marseille","lat":43.27977,"lon":5.38715,"is_reserved":false,"is_disabled":false,"rental_uris":{"android":"levelo://app?vid=afa620f3-88c4-428c-b660-7ec36711eb62","ios":"levelo://app?vid=afa620f3-88c4-428c-b660-7ec36711eb62"},"vehicle_type_id":"4","last_reported":1746130242,"current_range_meters":8400,"station_id":"ce4bhg12rcd13ifvqf80","pricing_plan_id":"cebpf4jnsgd1na2vs0mg"},{"bike_id":"1227da73-2286-4c40-bdfe-5202b72e04b8","system_id":"levelo_inurba_marseille","lat":43.29263,"lon":5.38437,"is_reserved":false,"is_disabled":false,"rental_uris":{"android":"levelo://app?vid=1227da73-2286-4c40-bdfe-5202b72e04b8","ios":"levelo://app?vid=1227da73-2286-4c40-bdfe-5202b72e04b8"},"vehicle_type_id":"4","last_reported":1746130242,"current_range_meters":8400,"station_id":"ce4bh692rcd13ifvqea0","pricing_plan_id":"cebpf4jnsgd1na2vs0mg"},{"bike_id":"ae5847ff-4182-40a5-b5cb-d739d71c9ac5","system_id":"levelo_inurba_marseille","lat":43.29633,"lon":5.40598,"is_reserved":false,"is_disabled":false,"rental_uris":{"android":"levelo://app?vid=ae5847ff-4182-40a5-b5cb-d739d71c9ac5","ios":"levelo://app?vid=ae5847ff-4182-40a5-b5cb-d739d71c9ac5"},"vehicle_type_id":"4","last_reported":1746130242,"current_range_meters":8400,"station_id":"ce4bh0h2rcd13ifvqd60","pricing_plan_id":"cebpf4jnsgd1na2vs0mg"},{"bike_id":"0f066e60-e6a5-47c5-99d4-4e0e31d1724f","system_id":"levelo_inurba_marseille","lat":43.30783,"lon":5.37637,"is_reserved":false,"is_disabled":false,"rental_uris":{"android":"levelo://app?vid=0f066e60-e6a5-47c5-99d4-4e0e31d1724f","ios":"levelo://app?vid=0f066e60-e6a5-47c5-99d4-4e0e31d1724f"},"vehicle_type_id":"4","last_reported":1746130242,"current_range_meters":8000,"station_id":"ce4bgv92rcd13ifvqcq0","pricing_plan_id":"cebpf4jnsgd1na2vs0mg"},{"bike_id":"ca9c5b59-4137-4509-9134-94a9f71b6a1d","system_id":"levelo_inurba_marseille","lat":43.279654,"lon":5.410187,"is_reserved":false,"is_disabled":false,"rental_uris":{"android":"levelo://app?vid=ca9c5b59-4137-4509-9134-94a9f71b6a1d","ios":"levelo://app?vid=ca9c5b59-4137-4509-9134-94a9f71b6a1d"},"vehicle_type_id":"4","last_reported":1746130242,"current_range_meters":8400,"station_id":"ce4bhnp2rcd13ifvqh0g","pricing_plan_id":"cebpf4jnsgd1na2vs0mg"},{"bike_id":"65a92264-a32d-4911-ad5e-307139719f38","system_id":"levelo_inurba_marseille","lat":43.3093,"lon":5.40143,"is_reserved":false,"is_disabled":false,"rental_uris":{"android":"levelo://app?vid=65a92264-a32d-4911-ad5e-307139719f38","ios":"levelo://app?vid=65a92264-a32d-4911-ad5e-307139719f38"},"vehicle_type_id":"4","last_reported":1746130242,"current_range_meters":8800,"station_id":"ce4bgvp2rcd13ifvqct0","pricing_plan_id":"cebpf4jnsgd1na2vs0mg"},{"bike_id":"74528bab-13a3-4e83-afaf-fd0bdc05f01b","system_id":"levelo_inurba_marseille","lat":43.29873,"lon":5.39727,"is_reserved":false,"is_disabled":false,"rental_uris":{"android":"levelo://app?vid=74528bab-13a3-4e83-afaf-fd0bdc05f01b","ios":"levelo://app?vid=74528bab-13a3-4e83-afaf-fd0bdc05f01b"},"vehicle_type_id":"4","last_reported":1746130242,"current_range_meters":8800,"station_id":"ce4bh0h2rcd13ifvqd50","pricing_plan_id":"cebpf4jnsgd1na2vs0mg"},{"bike_id":"4d37e356-308c-4cfc-b9e0-af146fb3b8e6","system_id":"levelo_inurba_marseille","lat":43.28927,"lon":5.38409,"is_reserved":false,"is_disabled":false,"rental_uris":{"android":"levelo://app?vid=4d37e356-308c-4cfc-b9e0-af146fb3b8e6","ios":"levelo://app?vid=4d37e356-308c-4cfc-b9e0-af146fb3b8e6"},"vehicle_type_id":"4","last_reported":1746130242,"current_range_meters":8800,"station_id":"ce4bh612rcd13ifvqe6g","pricing_plan_id":"cebpf4jnsgd1na2vs0mg"},{"bike_id":"64dd7ce2-f2ff-4bb1-aada-0de57adaad96","system_id":"levelo_inurba_marseille","lat":43.27905,"lon":5.38008,"is_reserved":false,"is_disabled":false,"rental_uris":{"android":"levelo://app?vid=64dd7ce2-f2ff-4bb1-aada-0de57adaad96","ios":"levelo://app?vid=64dd7ce2-f2ff-4bb1-aada-0de57adaad96"},"vehicle_type_id":"4","last_reported":1746130242,"current_range_meters":8800,"station_id":"ce4bhf92rcd13ifvqf50","pricing_plan_id":"cebpf4jnsgd1na2vs0mg"},{"bike_id":"08ae6229-5a47-4c4c-99ac-4ba6243e9cfe","system_id":"levelo_inurba_marseille","lat":43.23067,"lon":5.3552,"is_reserved":false,"is_disabled":true,"rental_uris":{"android":"levelo://app?vid=08ae6229-5a47-4c4c-99ac-4ba6243e9cfe","ios":"levelo://app?vid=08ae6229-5a47-4c4c-99ac-4ba6243e9cfe"},"vehicle_type_id":"4","last_reported":1746130242,"current_range_meters":8800,"station_id":"cpo3342slgdg3j2ifvpg","pricing_plan_id":"cebpf4jnsgd1na2vs0mg"},{"bike_id":"567896ee-4f18-489d-953c-966cedf10cab","system_id":"levelo_inurba_marseille","lat":43.3173,"lon":5.4239,"is_reserved":false,"is_disabled":false,"rental_uris":{"android":"levelo://app?vid=567896ee-4f18-489d-953c-966cedf10cab","ios":"levelo://app?vid=567896ee-4f18-489d-953c-966cedf10cab"},"vehicle_type_id":"4","last_reported":1746130242,"current_range_meters":9200,"station_id":"ce4bhp92rcd13ifvqhbg","pricing_plan_id":"cebpf4jnsgd1na2vs0mg"},{"bike_id":"7ad6e8e8-4d18-486c-a162-b3a23d49866e","system_id":"levelo_inurba_marseille","lat":43.28937,"lon":5.39631,"is_reserved":false,"is_disabled":false,"rental_uris":{"android":"levelo://app?vid=7ad6e8e8-4d18-486c-a162-b3a23d49866e","ios":"levelo://app?vid=7ad6e8e8-4d18-486c-a162-b3a23d49866e"},"vehicle_type_id":"4","last_reported":1746130242,"current_range_meters":9200,"station_id":"ce4bh3h2rcd13ifvqdn0","pricing_plan_id":"cebpf4jnsgd1na2vs0mg"},{"bike_id":"abeb8a4e-cce6-4a5f-97e5-3bb27eacf18a","system_id":"levelo_inurba_marseille","lat":43.29281,"lon":5.4012,"is_reserved":false,"is_disabled":false,"rental_uris":{"android":"levelo://app?vid=abeb8a4e-cce6-4a5f-97e5-3bb27eacf18a","ios":"levelo://app?vid=abeb8a4e-cce6-4a5f-97e5-3bb27eacf18a"},"vehicle_type_id":"4","last_reported":1746130242,"current_range_meters":9200,"station_id":"ce4bh312rcd13ifvqdk0","pricing_plan_id":"cebpf4jnsgd1na2vs0mg"},{"bike_id":"92c9c34a-2661-40c7-b42b-42a1687057dd","system_id":"levelo_inurba_marseille","lat":43.211997,"lon":5.350763,"is_reserved":false,"is_disabled":true,"rental_uris":{"android":"levelo://app?vid=92c9c34a-2661-40c7-b42b-42a1687057dd","ios":"levelo://app?vid=92c9c34a-2661-40c7-b42b-42a1687057dd"},"vehicle_type_id":"4","last_reported":1746130242,"current_range_meters":9200,"station_id":"st_cvj6sg6p6f1abm77japg","pricing_plan_id":"cebpf4jnsgd1na2vs0mg"},{"bike_id":"f3d36354-fb65-4d90-83eb-303e5363ade6","system_id":"levelo_inurba_marseille","lat":43.31269,"lon":5.40168,"is_reserved":false,"is_disabled":false,"rental_uris":{"android":"levelo://app?vid=f3d36354-fb65-4d90-83eb-303e5363ade6","ios":"levelo://app?vid=f3d36354-fb65-4d90-83eb-303e5363ade6"},"vehicle_type_id":"4","last_reported":1746130242,"current_range_meters":9200,"station_id":"ce4bh092rcd13ifvqd30","pricing_plan_id":"cebpf4jnsgd1na2vs0mg"},{"bike_id":"33cd3df6-c292-4bb5-8406-7bcf65451520","system_id":"levelo_inurba_marseille","lat":43.29624,"lon":5.40623,"is_reserved":false,"is_disabled":false,"rental_uris":{"android":"levelo://app?vid=33cd3df6-c292-4bb5-8406-7bcf65451520","ios":"levelo://app?vid=33cd3df6-c292-4bb5-8406-7bcf65451520"},"vehicle_type_id":"4","last_reported":1746130242,"current_range_meters":9200,"station_id":"ce4bh0h2rcd13ifvqd60","pricing_plan_id":"cebpf4jnsgd1na2vs0mg"},{"bike_id":"b0edaeb2-98b8-4be2-be06-ac7af641a3c8","system_id":"levelo_inurba_marseille","lat":43.30597,"lon":5.37218,"is_reserved":false,"is_disabled":false,"rental_uris":{"android":"levelo://app?vid=b0edaeb2-98b8-4be2-be06-ac7af641a3c8","ios":"levelo://app?vid=b0edaeb2-98b8-4be2-be06-ac7af641a3c8"},"vehicle_type_id":"4","last_reported":1746130242,"current_range_meters":8800,"station_id":"ce4bgqh2rcd13ifvqc4g","pricing_plan_id":"cebpf4jnsgd1na2vs0mg"},{"bike_id":"51ef9827-05d4-4f72-abc3-c6fec8c5a095","system_id":"levelo_inurba_marseille","lat":43.23152,"lon":5.43712,"is_reserved":false,"is_disabled":false,"rental_uris":{"android":"levelo://app?vid=51ef9827-05d4-4f72-abc3-c6fec8c5a095","ios":"levelo://app?vid=51ef9827-05d4-4f72-abc3-c6fec8c5a095"},"vehicle_type_id":"4","last_reported":1746130242,"current_range_meters":9200,"station_id":"ce4bhmp2rcd13ifvqgog","pricing_plan_id":"cebpf4jnsgd1na2vs0mg"},{"bike_id":"863b0fbc-ada4-43e6-9a6a-08ea11ec2295","system_id":"levelo_inurba_marseille","lat":43.3235,"lon":5.40604,"is_reserved":false,"is_disabled":false,"rental_uris":{"android":"levelo://app?vid=863b0fbc-ada4-43e6-9a6a-08ea11ec2295","ios":"levelo://app?vid=863b0fbc-ada4-43e6-9a6a-08ea11ec2295"},"vehicle_type_id":"4","last_reported":1746130242,"current_range_meters":9200,"station_id":"ce4bhq92rcd13ifvqhjg","pricing_plan_id":"cebpf4jnsgd1na2vs0mg"},{"bike_id":"d90a9f6a-dcc7-4188-90fd-9982aa485cbb","system_id":"levelo_inurba_marseille","lat":43.24407,"lon":5.37062,"is_reserved":false,"is_disabled":true,"rental_uris":{"android":"levelo://app?vid=d90a9f6a-dcc7-4188-90fd-9982aa485cbb","ios":"levelo://app?vid=d90a9f6a-dcc7-4188-90fd-9982aa485cbb"},"vehicle_type_id":"4","last_reported":1746130242,"current_range_meters":9200,"station_id":"ce4bhhh2rcd13ifvqfk0","pricing_plan_id":"cebpf4jnsgd1na2vs0mg"},{"bike_id":"66fcc9bc-752e-4d9f-a6c3-df8f7ede4827","system_id":"levelo_inurba_marseille","lat":43.30289,"lon":5.37721,"is_reserved":false,"is_disabled":false,"rental_uris":{"android":"levelo://app?vid=66fcc9bc-752e-4d9f-a6c3-df8f7ede4827","ios":"levelo://app?vid=66fcc9bc-752e-4d9f-a6c3-df8f7ede4827"},"vehicle_type_id":"4","last_reported":1746130242,"current_range_meters":9200,"station_id":"ce4bguh2rcd13ifvqcj0","pricing_plan_id":"cebpf4jnsgd1na2vs0mg"},{"bike_id":"93d289ea-53ab-4021-98bf-9e6ca2063079","system_id":"levelo_inurba_marseille","lat":43.30422,"lon":5.39746,"is_reserved":false,"is_disabled":false,"rental_uris":{"android":"levelo://app?vid=93d289ea-53ab-4021-98bf-9e6ca2063079","ios":"levelo://app?vid=93d289ea-53ab-4021-98bf-9e6ca2063079"},"vehicle_type_id":"4","last_reported":1746130242,"current_range_meters":9200,"station_id":"ce4bh092rcd13ifvqd20","pricing_plan_id":"cebpf4jnsgd1na2vs0mg"},{"bike_id":"9bbf5bcc-404f-4e1d-b8b4-876b884824e1","system_id":"levelo_inurba_marseille","lat":43.30321,"lon":5.40425,"is_reserved":false,"is_disabled":false,"rental_uris":{"android":"levelo://app?vid=9bbf5bcc-404f-4e1d-b8b4-876b884824e1","ios":"levelo://app?vid=9bbf5bcc-404f-4e1d-b8b4-876b884824e1"},"vehicle_type_id":"4","last_reported":1746130242,"current_range_meters":9200,"station_id":"ce4bh012rcd13ifvqd10","pricing_plan_id":"cebpf4jnsgd1na2vs0mg"},{"bike_id":"93dad334-9f21-4a50-99cb-c86648baef08","system_id":"levelo_inurba_marseille","lat":43.31345,"lon":5.39674,"is_reserved":false,"is_disabled":false,"rental_uris":{"android":"levelo://app?vid=93dad334-9f21-4a50-99cb-c86648baef08","ios":"levelo://app?vid=93dad334-9f21-4a50-99cb-c86648baef08"},"vehicle_type_id":"4","last_reported":1746130242,"current_range_meters":9600,"station_id":"ce4bgvp2rcd13ifvqcu0","pricing_plan_id":"cebpf4jnsgd1na2vs0mg"},{"bike_id":"5ce5a92f-2072-4e8c-8483-5f453ebe476a","system_id":"levelo_inurba_marseille","lat":43.23147,"lon":5.43699,"is_reserved":false,"is_disabled":false,"rental_uris":{"android":"levelo://app?vid=5ce5a92f-2072-4e8c-8483-5f453ebe476a","ios":"levelo://app?vid=5ce5a92f-2072-4e8c-8483-5f453ebe476a"},"vehicle_type_id":"4","last_reported":1746130242,"current_range_meters":9600,"station_id":"ce4bhmp2rcd13ifvqgog","pricing_plan_id":"cebpf4jnsgd1na2vs0mg"},{"bike_id":"9ec970ff-6af0-4292-9f82-92592b9e4471","system_id":"levelo_inurba_marseille","lat":43.28397,"lon":5.37514,"is_reserved":false,"is_disabled":false,"rental_uris":{"android":"levelo://app?vid=9ec970ff-6af0-4292-9f82-92592b9e4471","ios":"levelo://app?vid=9ec970ff-6af0-4292-9f82-92592b9e4471"},"vehicle_type_id":"4","last_reported":1746130242,"current_range_meters":9600,"station_id":"ce4bh412rcd13ifvqds0","pricing_plan_id":"cebpf4jnsgd1na2vs0mg"},{"bike_id":"8c14a9dd-9596-4c54-9b10-cae5d57b4d1b","system_id":"levelo_inurba_marseille","lat":43.32406,"lon":5.39036,"is_reserved":false,"is_disabled":true,"rental_uris":{"android":"levelo://app?vid=8c14a9dd-9596-4c54-9b10-cae5d57b4d1b","ios":"levelo://app?vid=8c14a9dd-9596-4c54-9b10-cae5d57b4d1b"},"vehicle_type_id":"4","last_reported":1746130242,"current_range_meters":9600,"station_id":"","pricing_plan_id":"cebpf4jnsgd1na2vs0mg"},{"bike_id":"4b8d1574-1216-46cc-a1a2-398d353393a5","system_id":"levelo_inurba_marseille","lat":43.25122,"lon":5.40316,"is_reserved":false,"is_disabled":false,"rental_uris":{"android":"levelo://app?vid=4b8d1574-1216-46cc-a1a2-398d353393a5","ios":"levelo://app?vid=4b8d1574-1216-46cc-a1a2-398d353393a5"},"vehicle_type_id":"4","last_reported":1746130242,"current_range_meters":9600,"station_id":"ce4bhlh2rcd13ifvqgig","pricing_plan_id":"cebpf4jnsgd1na2vs0mg"},{"bike_id":"357c1479-2f60-4df6-bddb-dd85cdb947d8","system_id":"levelo_inurba_marseille","lat":43.26065,"lon":5.39396,"is_reserved":false,"is_disabled":false,"rental_uris":{"android":"levelo://app?vid=357c1479-2f60-4df6-bddb-dd85cdb947d8","ios":"levelo://app?vid=357c1479-2f60-4df6-bddb-dd85cdb947d8"},"vehicle_type_id":"4","last_reported":1746130242,"current_range_meters":9200,"station_id":"ce4bhh92rcd13ifvqfj0","pricing_plan_id":"cebpf4jnsgd1na2vs0mg"},{"bike_id":"7971fe93-5f1d-4a59-8508-b415e64fcb18","system_id":"levelo_inurba_marseille","lat":43.30902,"lon":5.37424,"is_reserved":false,"is_disabled":false,"rental_uris":{"android":"levelo://app?vid=7971fe93-5f1d-4a59-8508-b415e64fcb18","ios":"levelo://app?vid=7971fe93-5f1d-4a59-8508-b415e64fcb18"},"vehicle_type_id":"4","last_reported":1746130242,"current_range_meters":9600,"station_id":"","pricing_plan_id":"cebpf4jnsgd1na2vs0mg"},{"bike_id":"1a0e9be5-bd4f-4026-be47-4bf333aa540c","system_id":"levelo_inurba_marseille","lat":43.2844,"lon":5.39182,"is_reserved":false,"is_disabled":true,"rental_uris":{"android":"levelo://app?vid=1a0e9be5-bd4f-4026-be47-4bf333aa540c","ios":"levelo://app?vid=1a0e9be5-bd4f-4026-be47-4bf333aa540c"},"vehicle_type_id":"4","last_reported":1746130242,"current_range_meters":9600,"station_id":"ce4bhoh2rcd13ifvqh5g","pricing_plan_id":"cebpf4jnsgd1na2vs0mg"},{"bike_id":"be456527-6b15-4d45-9584-9f70290eb771","system_id":"levelo_inurba_marseille","lat":43.30927,"lon":5.40166,"is_reserved":false,"is_disabled":false,"rental_uris":{"android":"levelo://app?vid=be456527-6b15-4d45-9584-9f70290eb771","ios":"levelo://app?vid=be456527-6b15-4d45-9584-9f70290eb771"},"vehicle_type_id":"4","last_reported":1746130242,"current_range_meters":10000,"station_id":"ce4bgvp2rcd13ifvqct0","pricing_plan_id":"cebpf4jnsgd1na2vs0mg"},{"bike_id":"1c94f752-ee7f-428e-bea8-26ff579422e0","system_id":"levelo_inurba_marseille","lat":43.28705,"lon":5.39985,"is_reserved":false,"is_disabled":false,"rental_uris":{"android":"levelo://app?vid=1c94f752-ee7f-428e-bea8-26ff579422e0","ios":"levelo://app?vid=1c94f752-ee7f-428e-bea8-26ff579422e0"},"vehicle_type_id":"4","last_reported":1746130242,"current_range_meters":10000,"station_id":"ce4bho92rcd13ifvqh3g","pricing_plan_id":"cebpf4jnsgd1na2vs0mg"},{"bike_id":"1ffc4ae6-8de5-48bf-be49-ce858081bb1b","system_id":"levelo_inurba_marseille","lat":43.311707,"lon":5.387167,"is_reserved":false,"is_disabled":false,"rental_uris":{"android":"levelo://app?vid=1ffc4ae6-8de5-48bf-be49-ce858081bb1b","ios":"levelo://app?vid=1ffc4ae6-8de5-48bf-be49-ce858081bb1b"},"vehicle_type_id":"4","last_reported":1746130242,"current_range_meters":8000,"station_id":"ce4bgv12rcd13ifvqcp0","pricing_plan_id":"cebpf4jnsgd1na2vs0mg"},{"bike_id":"2df3c7e7-6f24-4b35-8876-4ea421331109","system_id":"levelo_inurba_marseille","lat":43.251107,"lon":5.403227,"is_reserved":false,"is_disabled":true,"rental_uris":{"android":"levelo://app?vid=2df3c7e7-6f24-4b35-8876-4ea421331109","ios":"levelo://app?vid=2df3c7e7-6f24-4b35-8876-4ea421331109"},"vehicle_type_id":"4","last_reported":1746130242,"current_range_meters":10000,"station_id":"ce4bhlh2rcd13ifvqgig","pricing_plan_id":"cebpf4jnsgd1na2vs0mg"},{"bike_id":"994d6038-758d-4548-b237-2ac5c219e8fd","system_id":"levelo_inurba_marseille","lat":43.320633,"lon":5.415317,"is_reserved":false,"is_disabled":false,"rental_uris":{"android":"levelo://app?vid=994d6038-758d-4548-b237-2ac5c219e8fd","ios":"levelo://app?vid=994d6038-758d-4548-b237-2ac5c219e8fd"},"vehicle_type_id":"4","last_reported":1746130242,"current_range_meters":10000,"station_id":"ce4bhq92rcd13ifvqhkg","pricing_plan_id":"cebpf4jnsgd1na2vs0mg"},{"bike_id":"0275921f-ce6e-42c6-b9cc-724455ffabca","system_id":"levelo_inurba_marseille","lat":43.25718,"lon":5.41108,"is_reserved":false,"is_disabled":false,"rental_uris":{"android":"levelo://app?vid=0275921f-ce6e-42c6-b9cc-724455ffabca","ios":"levelo://app?vid=0275921f-ce6e-42c6-b9cc-724455ffabca"},"vehicle_type_id":"4","last_reported":1746130242,"current_range_meters":10000,"station_id":"ce4bhkp2rcd13ifvqgd0","pricing_plan_id":"cebpf4jnsgd1na2vs0mg"},{"bike_id":"d2fd2180-e73e-4220-869a-026232ab3e8c","system_id":"levelo_inurba_marseille","lat":43.292877,"lon":5.401098,"is_reserved":false,"is_disabled":false,"rental_uris":{"android":"levelo://app?vid=d2fd2180-e73e-4220-869a-026232ab3e8c","ios":"levelo://app?vid=d2fd2180-e73e-4220-869a-026232ab3e8c"},"vehicle_type_id":"4","last_reported":1746130242,"current_range_meters":10800,"station_id":"ce4bh312rcd13ifvqdk0","pricing_plan_id":"cebpf4jnsgd1na2vs0mg"},{"bike_id":"957643e7-b01c-4e51-84b7-46530e2a5186","system_id":"levelo_inurba_marseille","lat":43.29884,"lon":5.38888,"is_reserved":false,"is_disabled":false,"rental_uris":{"android":"levelo://app?vid=957643e7-b01c-4e51-84b7-46530e2a5186","ios":"levelo://app?vid=957643e7-b01c-4e51-84b7-46530e2a5186"},"vehicle_type_id":"4","last_reported":1746130242,"current_range_meters":10800,"station_id":"ce4bh392rcd13ifvqdl0","pricing_plan_id":"cebpf4jnsgd1na2vs0mg"},{"bike_id":"9172b077-bddf-4265-8e87-52771799b8a7","system_id":"levelo_inurba_marseille","lat":43.32047,"lon":5.41545,"is_reserved":false,"is_disabled":false,"rental_uris":{"android":"levelo://app?vid=9172b077-bddf-4265-8e87-52771799b8a7","ios":"levelo://app?vid=9172b077-bddf-4265-8e87-52771799b8a7"},"vehicle_type_id":"4","last_reported":1746130242,"current_range_meters":10800,"station_id":"ce4bhq92rcd13ifvqhkg","pricing_plan_id":"cebpf4jnsgd1na2vs0mg"},{"bike_id":"6c5a82b1-d8fb-4884-908f-31a2369ec978","system_id":"levelo_inurba_marseille","lat":43.28415,"lon":5.37514,"is_reserved":false,"is_disabled":false,"rental_uris":{"android":"levelo://app?vid=6c5a82b1-d8fb-4884-908f-31a2369ec978","ios":"levelo://app?vid=6c5a82b1-d8fb-4884-908f-31a2369ec978"},"vehicle_type_id":"4","last_reported":1746130242,"current_range_meters":10800,"station_id":"ce4bh412rcd13ifvqds0","pricing_plan_id":"cebpf4jnsgd1na2vs0mg"},{"bike_id":"a1ce6e90-3120-4925-944b-5572cfa932e6","system_id":"levelo_inurba_marseille","lat":43.27989,"lon":5.41658,"is_reserved":false,"is_disabled":false,"rental_uris":{"android":"levelo://app?vid=a1ce6e90-3120-4925-944b-5572cfa932e6","ios":"levelo://app?vid=a1ce6e90-3120-4925-944b-5572cfa932e6"},"vehicle_type_id":"4","last_reported":1746130242,"current_range_meters":10800,"station_id":"ce4bho12rcd13ifvqh1g","pricing_plan_id":"cebpf4jnsgd1na2vs0mg"},{"bike_id":"f2a7db34-17db-48f4-be96-24401d4c3cd5","system_id":"levelo_inurba_marseille","lat":43.30912,"lon":5.36836,"is_reserved":false,"is_disabled":false,"rental_uris":{"android":"levelo://app?vid=f2a7db34-17db-48f4-be96-24401d4c3cd5","ios":"levelo://app?vid=f2a7db34-17db-48f4-be96-24401d4c3cd5"},"vehicle_type_id":"4","last_reported":1746130242,"current_range_meters":10800,"station_id":"ce4bgn92rcd13ifvqbvg","pricing_plan_id":"cebpf4jnsgd1na2vs0mg"},{"bike_id":"43dc7a00-6911-4c61-abf8-2286bbb6f1ca","system_id":"levelo_inurba_marseille","lat":43.31218,"lon":5.36847,"is_reserved":false,"is_disabled":false,"rental_uris":{"android":"levelo://app?vid=43dc7a00-6911-4c61-abf8-2286bbb6f1ca","ios":"levelo://app?vid=43dc7a00-6911-4c61-abf8-2286bbb6f1ca"},"vehicle_type_id":"4","last_reported":1746130242,"current_range_meters":10800,"station_id":"ce4bgl92rcd13ifvqbq0","pricing_plan_id":"cebpf4jnsgd1na2vs0mg"},{"bike_id":"0dea5c4c-fb2e-450b-b1e0-27711a86b41f","system_id":"levelo_inurba_marseille","lat":43.23181,"lon":5.39994,"is_reserved":false,"is_disabled":false,"rental_uris":{"android":"levelo://app?vid=0dea5c4c-fb2e-450b-b1e0-27711a86b41f","ios":"levelo://app?vid=0dea5c4c-fb2e-450b-b1e0-27711a86b41f"},"vehicle_type_id":"4","last_reported":1746130242,"current_range_meters":10800,"station_id":"ce4bhn12rcd13ifvqgqg","pricing_plan_id":"cebpf4jnsgd1na2vs0mg"},{"bike_id":"98ced23b-f786-4d0d-93ca-f14eb1816318","system_id":"levelo_inurba_marseille","lat":43.29935,"lon":5.36546,"is_reserved":false,"is_disabled":false,"rental_uris":{"android":"levelo://app?vid=98ced23b-f786-4d0d-93ca-f14eb1816318","ios":"levelo://app?vid=98ced23b-f786-4d0d-93ca-f14eb1816318"},"vehicle_type_id":"4","last_reported":1746130242,"current_range_meters":11200,"station_id":"","pricing_plan_id":"cebpf4jnsgd1na2vs0mg"},{"bike_id":"c0a5ee56-6f43-441c-97c4-100fe7548229","system_id":"levelo_inurba_marseille","lat":43.31376,"lon":5.38493,"is_reserved":false,"is_disabled":true,"rental_uris":{"android":"levelo://app?vid=c0a5ee56-6f43-441c-97c4-100fe7548229","ios":"levelo://app?vid=c0a5ee56-6f43-441c-97c4-100fe7548229"},"vehicle_type_id":"4","last_reported":1746130242,"current_range_meters":11200,"station_id":"ce4bgt92rcd13ifvqcf0","pricing_plan_id":"cebpf4jnsgd1na2vs0mg"},{"bike_id":"04da8dc1-90fc-46b0-9a98-1e980290e55b","system_id":"levelo_inurba_marseille","lat":43.309303,"lon":5.401433,"is_reserved":false,"is_disabled":false,"rental_uris":{"android":"levelo://app?vid=04da8dc1-90fc-46b0-9a98-1e980290e55b","ios":"levelo://app?vid=04da8dc1-90fc-46b0-9a98-1e980290e55b"},"vehicle_type_id":"4","last_reported":1746130242,"current_range_meters":11200,"station_id":"ce4bgvp2rcd13ifvqct0","pricing_plan_id":"cebpf4jnsgd1na2vs0mg"},{"bike_id":"558496c9-1eb8-4d0b-8e5d-9b72960a1b53","system_id":"levelo_inurba_marseille","lat":43.2871,"lon":5.39996,"is_reserved":false,"is_disabled":false,"rental_uris":{"android":"levelo://app?vid=558496c9-1eb8-4d0b-8e5d-9b72960a1b53","ios":"levelo://app?vid=558496c9-1eb8-4d0b-8e5d-9b72960a1b53"},"vehicle_type_id":"4","last_reported":1746130242,"current_range_meters":11200,"station_id":"ce4bho92rcd13ifvqh3g","pricing_plan_id":"cebpf4jnsgd1na2vs0mg"},{"bike_id":"6c320932-0109-4c33-a7df-df18d068c365","system_id":"levelo_inurba_marseille","lat":43.29261,"lon":5.40896,"is_reserved":false,"is_disabled":false,"rental_uris":{"android":"levelo://app?vid=6c320932-0109-4c33-a7df-df18d068c365","ios":"levelo://app?vid=6c320932-0109-4c33-a7df-df18d068c365"},"vehicle_type_id":"4","last_reported":1746130242,"current_range_meters":11200,"station_id":"ce4bh192rcd13ifvqdc0","pricing_plan_id":"cebpf4jnsgd1na2vs0mg"},{"bike_id":"41b15ddf-1454-4d83-8188-53d37f91586a","system_id":"levelo_inurba_marseille","lat":43.30322,"lon":5.40436,"is_reserved":false,"is_disabled":false,"rental_uris":{"android":"levelo://app?vid=41b15ddf-1454-4d83-8188-53d37f91586a","ios":"levelo://app?vid=41b15ddf-1454-4d83-8188-53d37f91586a"},"vehicle_type_id":"4","last_reported":1746130242,"current_range_meters":11600,"station_id":"ce4bh012rcd13ifvqd10","pricing_plan_id":"cebpf4jnsgd1na2vs0mg"},{"bike_id":"3b441d2f-9a7c-49f4-bb30-9a2b5a95aeba","system_id":"levelo_inurba_marseille","lat":43.27556,"lon":5.38418,"is_reserved":false,"is_disabled":false,"rental_uris":{"android":"levelo://app?vid=3b441d2f-9a7c-49f4-bb30-9a2b5a95aeba","ios":"levelo://app?vid=3b441d2f-9a7c-49f4-bb30-9a2b5a95aeba"},"vehicle_type_id":"4","last_reported":1746130242,"current_range_meters":11600,"station_id":"ce4bhh92rcd13ifvqfi0","pricing_plan_id":"cebpf4jnsgd1na2vs0mg"},{"bike_id":"73de5af1-bf79-433a-a20c-6899488a09e7","system_id":"levelo_inurba_marseille","lat":43.29304,"lon":5.37168,"is_reserved":false,"is_disabled":true,"rental_uris":{"android":"levelo://app?vid=73de5af1-bf79-433a-a20c-6899488a09e7","ios":"levelo://app?vid=73de5af1-bf79-433a-a20c-6899488a09e7"},"vehicle_type_id":"4","last_reported":1746130242,"current_range_meters":11600,"station_id":"ce4bgh92rcd13ifvqb40","pricing_plan_id":"cebpf4jnsgd1na2vs0mg"},{"bike_id":"b1afbe21-dd98-4ef2-bcf6-48e169972233","system_id":"levelo_inurba_marseille","lat":43.30117,"lon":5.39838,"is_reserved":false,"is_disabled":false,"rental_uris":{"android":"levelo://app?vid=b1afbe21-dd98-4ef2-bcf6-48e169972233","ios":"levelo://app?vid=b1afbe21-dd98-4ef2-bcf6-48e169972233"},"vehicle_type_id":"4","last_reported":1746130242,"current_range_meters":11600,"station_id":"ce4bh0h2rcd13ifvqd40","pricing_plan_id":"cebpf4jnsgd1na2vs0mg"},{"bike_id":"ff01703c-ca30-4293-9918-2da9f7ba5234","system_id":"levelo_inurba_marseille","lat":43.30596,"lon":5.39357,"is_reserved":false,"is_disabled":false,"rental_uris":{"android":"levelo://app?vid=ff01703c-ca30-4293-9918-2da9f7ba5234","ios":"levelo://app?vid=ff01703c-ca30-4293-9918-2da9f7ba5234"},"vehicle_type_id":"4","last_reported":1746130242,"current_range_meters":11600,"station_id":"ce4bh0p2rcd13ifvqd80","pricing_plan_id":"cebpf4jnsgd1na2vs0mg"},{"bike_id":"56f543c3-cb38-4272-a4e5-cab053dcc3e0","system_id":"levelo_inurba_marseille","lat":43.291966,"lon":5.392961,"is_reserved":false,"is_disabled":true,"rental_uris":{"android":"levelo://app?vid=56f543c3-cb38-4272-a4e5-cab053dcc3e0","ios":"levelo://app?vid=56f543c3-cb38-4272-a4e5-cab053dcc3e0"},"vehicle_type_id":"4","last_reported":1746130242,"current_range_meters":12000,"station_id":"ce4bhbh2rcd13ifvqeo0","pricing_plan_id":"cebpf4jnsgd1na2vs0mg"},{"bike_id":"ac393702-4005-4f66-a2f9-8c269a958dbe","system_id":"levelo_inurba_marseille","lat":43.27173,"lon":5.40994,"is_reserved":false,"is_disabled":false,"rental_uris":{"android":"levelo://app?vid=ac393702-4005-4f66-a2f9-8c269a958dbe","ios":"levelo://app?vid=ac393702-4005-4f66-a2f9-8c269a958dbe"},"vehicle_type_id":"4","last_reported":1746130242,"current_range_meters":12000,"station_id":"ce4bhl12rcd13ifvqgf0","pricing_plan_id":"cebpf4jnsgd1na2vs0mg"},{"bike_id":"a48c5349-755d-4c22-9c09-6264dfa1fa96","system_id":"levelo_inurba_marseille","lat":43.31117,"lon":5.37765,"is_reserved":false,"is_disabled":false,"rental_uris":{"android":"levelo://app?vid=a48c5349-755d-4c22-9c09-6264dfa1fa96","ios":"levelo://app?vid=a48c5349-755d-4c22-9c09-6264dfa1fa96"},"vehicle_type_id":"4","last_reported":1746130242,"current_range_meters":12000,"station_id":"ce4bgt92rcd13ifvqcg0","pricing_plan_id":"cebpf4jnsgd1na2vs0mg"},{"bike_id":"c1654a35-e7cb-4a9a-9e49-fd57e66545f6","system_id":"levelo_inurba_marseille","lat":43.30128,"lon":5.37417,"is_reserved":false,"is_disabled":false,"rental_uris":{"android":"levelo://app?vid=c1654a35-e7cb-4a9a-9e49-fd57e66545f6","ios":"levelo://app?vid=c1654a35-e7cb-4a9a-9e49-fd57e66545f6"},"vehicle_type_id":"4","last_reported":1746130242,"current_range_meters":12000,"station_id":"ce4bgs92rcd13ifvqcc0","pricing_plan_id":"cebpf4jnsgd1na2vs0mg"},{"bike_id":"5a38d2c4-e68a-4852-b059-1f6faca1973b","system_id":"levelo_inurba_marseille","lat":43.30308,"lon":5.39208,"is_reserved":false,"is_disabled":false,"rental_uris":{"android":"levelo://app?vid=5a38d2c4-e68a-4852-b059-1f6faca1973b","ios":"levelo://app?vid=5a38d2c4-e68a-4852-b059-1f6faca1973b"},"vehicle_type_id":"4","last_reported":1746130242,"current_range_meters":12000,"station_id":"ce4bgkh2rcd13ifvqbk0","pricing_plan_id":"cebpf4jnsgd1na2vs0mg"},{"bike_id":"507367e4-fafd-49b6-96b3-965bcce056f6","system_id":"levelo_inurba_marseille","lat":43.29906,"lon":5.38127,"is_reserved":false,"is_disabled":false,"rental_uris":{"android":"levelo://app?vid=507367e4-fafd-49b6-96b3-965bcce056f6","ios":"levelo://app?vid=507367e4-fafd-49b6-96b3-965bcce056f6"},"vehicle_type_id":"4","last_reported":1746130242,"current_range_meters":12400,"station_id":"ce4bgj12rcd13ifvqbc0","pricing_plan_id":"cebpf4jnsgd1na2vs0mg"},{"bike_id":"5e783dca-e9bd-4f97-a67f-f3c52ee23fb9","system_id":"levelo_inurba_marseille","lat":43.296214,"lon":5.377067,"is_reserved":false,"is_disabled":true,"rental_uris":{"android":"levelo://app?vid=5e783dca-e9bd-4f97-a67f-f3c52ee23fb9","ios":"levelo://app?vid=5e783dca-e9bd-4f97-a67f-f3c52ee23fb9"},"vehicle_type_id":"4","last_reported":1746130242,"current_range_meters":12400,"station_id":"","pricing_plan_id":"cebpf4jnsgd1na2vs0mg"},{"bike_id":"3f8bea75-f1b7-42a9-9ff5-4986c0552272","system_id":"levelo_inurba_marseille","lat":43.217496,"lon":5.346046,"is_reserved":false,"is_disabled":true,"rental_uris":{"android":"levelo://app?vid=3f8bea75-f1b7-42a9-9ff5-4986c0552272","ios":"levelo://app?vid=3f8bea75-f1b7-42a9-9ff5-4986c0552272"},"vehicle_type_id":"4","last_reported":1746130242,"current_range_meters":12400,"station_id":"st_cvj6r9ubvosntc0bgbag","pricing_plan_id":"cebpf4jnsgd1na2vs0mg"},{"bike_id":"7441c0e9-54e9-46e0-b002-9fe971e33832","system_id":"levelo_inurba_marseille","lat":43.29791,"lon":5.38083,"is_reserved":false,"is_disabled":false,"rental_uris":{"android":"levelo://app?vid=7441c0e9-54e9-46e0-b002-9fe971e33832","ios":"levelo://app?vid=7441c0e9-54e9-46e0-b002-9fe971e33832"},"vehicle_type_id":"4","last_reported":1746130242,"current_range_meters":12400,"station_id":"ce4bgip2rcd13ifvqbb0","pricing_plan_id":"cebpf4jnsgd1na2vs0mg"},{"bike_id":"3e43c125-5323-4099-ab30-27ea243fe9db","system_id":"levelo_inurba_marseille","lat":43.31059,"lon":5.3834,"is_reserved":false,"is_disabled":false,"rental_uris":{"android":"levelo://app?vid=3e43c125-5323-4099-ab30-27ea243fe9db","ios":"levelo://app?vid=3e43c125-5323-4099-ab30-27ea243fe9db"},"vehicle_type_id":"4","last_reported":1746130242,"current_range_meters":12400,"station_id":"ce4bgv92rcd13ifvqcr0","pricing_plan_id":"cebpf4jnsgd1na2vs0mg"},{"bike_id":"b4144bae-ad44-48e7-b9bc-cac9c3f6611c","system_id":"levelo_inurba_marseille","lat":43.29413,"lon":5.38629,"is_reserved":false,"is_disabled":false,"rental_uris":{"android":"levelo://app?vid=b4144bae-ad44-48e7-b9bc-cac9c3f6611c","ios":"levelo://app?vid=b4144bae-ad44-48e7-b9bc-cac9c3f6611c"},"vehicle_type_id":"4","last_reported":1746130242,"current_range_meters":12400,"station_id":"ce4bh2h2rcd13ifvqdh0","pricing_plan_id":"cebpf4jnsgd1na2vs0mg"},{"bike_id":"c7c7a92b-c148-41bb-b985-b3d124e5c071","system_id":"levelo_inurba_marseille","lat":43.24812,"lon":5.37461,"is_reserved":false,"is_disabled":true,"rental_uris":{"android":"levelo://app?vid=c7c7a92b-c148-41bb-b985-b3d124e5c071","ios":"levelo://app?vid=c7c7a92b-c148-41bb-b985-b3d124e5c071"},"vehicle_type_id":"4","last_reported":1746130242,"current_range_meters":12800,"station_id":"ce4bhgh2rcd13ifvqfb0","pricing_plan_id":"cebpf4jnsgd1na2vs0mg"},{"bike_id":"38e8752d-de9b-4e93-9ad2-33ac8989ab79","system_id":"levelo_inurba_marseille","lat":43.29917,"lon":5.37449,"is_reserved":false,"is_disabled":false,"rental_uris":{"android":"levelo://app?vid=38e8752d-de9b-4e93-9ad2-33ac8989ab79","ios":"levelo://app?vid=38e8752d-de9b-4e93-9ad2-33ac8989ab79"},"vehicle_type_id":"4","last_reported":1746130242,"current_range_meters":12800,"station_id":"ce4bgjh2rcd13ifvqbg0","pricing_plan_id":"cebpf4jnsgd1na2vs0mg"},{"bike_id":"129a2080-f5bf-4c11-aa62-cae26c45ae7e","system_id":"levelo_inurba_marseille","lat":43.30275,"lon":5.37713,"is_reserved":false,"is_disabled":false,"rental_uris":{"android":"levelo://app?vid=129a2080-f5bf-4c11-aa62-cae26c45ae7e","ios":"levelo://app?vid=129a2080-f5bf-4c11-aa62-cae26c45ae7e"},"vehicle_type_id":"4","last_reported":1746130242,"current_range_meters":12800,"station_id":"ce4bguh2rcd13ifvqcj0","pricing_plan_id":"cebpf4jnsgd1na2vs0mg"},{"bike_id":"045b2767-67d3-41b7-8618-6d27646a5585","system_id":"levelo_inurba_marseille","lat":43.31327,"lon":5.39692,"is_reserved":false,"is_disabled":false,"rental_uris":{"android":"levelo://app?vid=045b2767-67d3-41b7-8618-6d27646a5585","ios":"levelo://app?vid=045b2767-67d3-41b7-8618-6d27646a5585"},"vehicle_type_id":"4","last_reported":1746130242,"current_range_meters":12800,"station_id":"ce4bgvp2rcd13ifvqcu0","pricing_plan_id":"cebpf4jnsgd1na2vs0mg"},{"bike_id":"55234d1d-3f52-4d37-9dcb-8332b44142ac","system_id":"levelo_inurba_marseille","lat":43.28849,"lon":5.35858,"is_reserved":false,"is_disabled":false,"rental_uris":{"android":"levelo://app?vid=55234d1d-3f52-4d37-9dcb-8332b44142ac","ios":"levelo://app?vid=55234d1d-3f52-4d37-9dcb-8332b44142ac"},"vehicle_type_id":"4","last_reported":1746130242,"current_range_meters":12800,"station_id":"ce4bhb12rcd13ifvqem0","pricing_plan_id":"cebpf4jnsgd1na2vs0mg"},{"bike_id":"54fa433c-f8a1-4e4e-8a8b-65538204794c","system_id":"levelo_inurba_marseille","lat":43.32478,"lon":5.36563,"is_reserved":false,"is_disabled":false,"rental_uris":{"android":"levelo://app?vid=54fa433c-f8a1-4e4e-8a8b-65538204794c","ios":"levelo://app?vid=54fa433c-f8a1-4e4e-8a8b-65538204794c"},"vehicle_type_id":"4","last_reported":1746130242,"current_range_meters":12800,"station_id":"ce4bhs12rcd13ifvqhvg","pricing_plan_id":"cebpf4jnsgd1na2vs0mg"},{"bike_id":"27af1986-c75b-4d08-b960-d4807e940267","system_id":"levelo_inurba_marseille","lat":43.27968,"lon":5.38708,"is_reserved":false,"is_disabled":false,"rental_uris":{"android":"levelo://app?vid=27af1986-c75b-4d08-b960-d4807e940267","ios":"levelo://app?vid=27af1986-c75b-4d08-b960-d4807e940267"},"vehicle_type_id":"4","last_reported":1746130242,"current_range_meters":13600,"station_id":"ce4bhg12rcd13ifvqf80","pricing_plan_id":"cebpf4jnsgd1na2vs0mg"},{"bike_id":"b2540b97-8914-4bf5-a869-7b4d45ef762c","system_id":"levelo_inurba_marseille","lat":43.23152,"lon":5.43708,"is_reserved":false,"is_disabled":false,"rental_uris":{"android":"levelo://app?vid=b2540b97-8914-4bf5-a869-7b4d45ef762c","ios":"levelo://app?vid=b2540b97-8914-4bf5-a869-7b4d45ef762c"},"vehicle_type_id":"4","last_reported":1746130242,"current_range_meters":12800,"station_id":"ce4bhmp2rcd13ifvqgog","pricing_plan_id":"cebpf4jnsgd1na2vs0mg"},{"bike_id":"2a70f651-31f9-4341-9601-b357fc207ecd","system_id":"levelo_inurba_marseille","lat":43.29631,"lon":5.40593,"is_reserved":false,"is_disabled":false,"rental_uris":{"android":"levelo://app?vid=2a70f651-31f9-4341-9601-b357fc207ecd","ios":"levelo://app?vid=2a70f651-31f9-4341-9601-b357fc207ecd"},"vehicle_type_id":"4","last_reported":1746130242,"current_range_meters":13600,"station_id":"ce4bh0h2rcd13ifvqd60","pricing_plan_id":"cebpf4jnsgd1na2vs0mg"},{"bike_id":"1083a310-00e9-41d8-b4b1-3f2fd41ff33e","system_id":"levelo_inurba_marseille","lat":43.29906,"lon":5.38154,"is_reserved":false,"is_disabled":false,"rental_uris":{"android":"levelo://app?vid=1083a310-00e9-41d8-b4b1-3f2fd41ff33e","ios":"levelo://app?vid=1083a310-00e9-41d8-b4b1-3f2fd41ff33e"},"vehicle_type_id":"4","last_reported":1746130242,"current_range_meters":13600,"station_id":"ce4bgj12rcd13ifvqbc0","pricing_plan_id":"cebpf4jnsgd1na2vs0mg"},{"bike_id":"d53b7b6f-4c93-42d8-871c-d3ac3d6c368b","system_id":"levelo_inurba_marseille","lat":43.30597,"lon":5.37221,"is_reserved":false,"is_disabled":false,"rental_uris":{"android":"levelo://app?vid=d53b7b6f-4c93-42d8-871c-d3ac3d6c368b","ios":"levelo://app?vid=d53b7b6f-4c93-42d8-871c-d3ac3d6c368b"},"vehicle_type_id":"4","last_reported":1746130242,"current_range_meters":13600,"station_id":"ce4bgqh2rcd13ifvqc4g","pricing_plan_id":"cebpf4jnsgd1na2vs0mg"},{"bike_id":"0b9ac188-19a7-4ad4-8279-34f1318ce56d","system_id":"levelo_inurba_marseille","lat":43.31292,"lon":5.37752,"is_reserved":false,"is_disabled":false,"rental_uris":{"android":"levelo://app?vid=0b9ac188-19a7-4ad4-8279-34f1318ce56d","ios":"levelo://app?vid=0b9ac188-19a7-4ad4-8279-34f1318ce56d"},"vehicle_type_id":"4","last_reported":1746130242,"current_range_meters":13600,"station_id":"","pricing_plan_id":"cebpf4jnsgd1na2vs0mg"},{"bike_id":"00d6a094-b9ec-4a25-83cb-da5dc9bd3245","system_id":"levelo_inurba_marseille","lat":43.30139,"lon":5.39855,"is_reserved":false,"is_disabled":false,"rental_uris":{"android":"levelo://app?vid=00d6a094-b9ec-4a25-83cb-da5dc9bd3245","ios":"levelo://app?vid=00d6a094-b9ec-4a25-83cb-da5dc9bd3245"},"vehicle_type_id":"4","last_reported":1746130242,"current_range_meters":12800,"station_id":"ce4bh0h2rcd13ifvqd40","pricing_plan_id":"cebpf4jnsgd1na2vs0mg"},{"bike_id":"8d366eaa-d322-4cc5-a57c-81faff286fbc","system_id":"levelo_inurba_marseille","lat":43.28855,"lon":5.39316,"is_reserved":false,"is_disabled":false,"rental_uris":{"android":"levelo://app?vid=8d366eaa-d322-4cc5-a57c-81faff286fbc","ios":"levelo://app?vid=8d366eaa-d322-4cc5-a57c-81faff286fbc"},"vehicle_type_id":"4","last_reported":1746130242,"current_range_meters":13600,"station_id":"ce4bh2p2rcd13ifvqdi0","pricing_plan_id":"cebpf4jnsgd1na2vs0mg"},{"bike_id":"9027c4bb-e81d-4b51-97a2-213b9926b1fd","system_id":"levelo_inurba_marseille","lat":43.30638,"lon":5.40074,"is_reserved":false,"is_disabled":false,"rental_uris":{"android":"levelo://app?vid=9027c4bb-e81d-4b51-97a2-213b9926b1fd","ios":"levelo://app?vid=9027c4bb-e81d-4b51-97a2-213b9926b1fd"},"vehicle_type_id":"4","last_reported":1746130242,"current_range_meters":14000,"station_id":"ce4bh112rcd13ifvqda0","pricing_plan_id":"cebpf4jnsgd1na2vs0mg"},{"bike_id":"e36de7d7-1681-468f-bdf4-b7773b40d88e","system_id":"levelo_inurba_marseille","lat":43.23147,"lon":5.43721,"is_reserved":false,"is_disabled":false,"rental_uris":{"android":"levelo://app?vid=e36de7d7-1681-468f-bdf4-b7773b40d88e","ios":"levelo://app?vid=e36de7d7-1681-468f-bdf4-b7773b40d88e"},"vehicle_type_id":"4","last_reported":1746130242,"current_range_meters":13600,"station_id":"ce4bhmp2rcd13ifvqgog","pricing_plan_id":"cebpf4jnsgd1na2vs0mg"},{"bike_id":"2ae39ac1-aa30-4096-aaf7-7bc2d7533749","system_id":"levelo_inurba_marseille","lat":43.32373,"lon":5.36759,"is_reserved":false,"is_disabled":false,"rental_uris":{"android":"levelo://app?vid=2ae39ac1-aa30-4096-aaf7-7bc2d7533749","ios":"levelo://app?vid=2ae39ac1-aa30-4096-aaf7-7bc2d7533749"},"vehicle_type_id":"4","last_reported":1746130242,"current_range_meters":14000,"station_id":"ce4bhsh2rcd13ifvqi2g","pricing_plan_id":"cebpf4jnsgd1na2vs0mg"},{"bike_id":"2c0d2d55-8748-49d0-b1c7-5de8ba3ead5f","system_id":"levelo_inurba_marseille","lat":43.272632,"lon":5.408451,"is_reserved":false,"is_disabled":false,"rental_uris":{"android":"levelo://app?vid=2c0d2d55-8748-49d0-b1c7-5de8ba3ead5f","ios":"levelo://app?vid=2c0d2d55-8748-49d0-b1c7-5de8ba3ead5f"},"vehicle_type_id":"4","last_reported":1746130242,"current_range_meters":14000,"station_id":"ce4bhl12rcd13ifvqgf0","pricing_plan_id":"cebpf4jnsgd1na2vs0mg"},{"bike_id":"6c2c9e09-b87a-4f64-92bd-88552dd67d3d","system_id":"levelo_inurba_marseille","lat":43.29261,"lon":5.38437,"is_reserved":false,"is_disabled":false,"rental_uris":{"android":"levelo://app?vid=6c2c9e09-b87a-4f64-92bd-88552dd67d3d","ios":"levelo://app?vid=6c2c9e09-b87a-4f64-92bd-88552dd67d3d"},"vehicle_type_id":"4","last_reported":1746130242,"current_range_meters":14000,"station_id":"ce4bh692rcd13ifvqea0","pricing_plan_id":"cebpf4jnsgd1na2vs0mg"},{"bike_id":"78e3a516-3b43-4a65-88ee-19e41444cd3f","system_id":"levelo_inurba_marseille","lat":43.26561,"lon":5.39024,"is_reserved":false,"is_disabled":false,"rental_uris":{"android":"levelo://app?vid=78e3a516-3b43-4a65-88ee-19e41444cd3f","ios":"levelo://app?vid=78e3a516-3b43-4a65-88ee-19e41444cd3f"},"vehicle_type_id":"4","last_reported":1746130242,"current_range_meters":14000,"station_id":"ce4bhe12rcd13ifvqf30","pricing_plan_id":"cebpf4jnsgd1na2vs0mg"},{"bike_id":"36f6e60b-668e-4fcc-bf30-fc63748cb8ae","system_id":"levelo_inurba_marseille","lat":43.31111,"lon":5.37777,"is_reserved":false,"is_disabled":false,"rental_uris":{"android":"levelo://app?vid=36f6e60b-668e-4fcc-bf30-fc63748cb8ae","ios":"levelo://app?vid=36f6e60b-668e-4fcc-bf30-fc63748cb8ae"},"vehicle_type_id":"4","last_reported":1746130242,"current_range_meters":14400,"station_id":"ce4bgt92rcd13ifvqcg0","pricing_plan_id":"cebpf4jnsgd1na2vs0mg"},{"bike_id":"2033c1c4-40c4-48b4-8076-35891725f3ad","system_id":"levelo_inurba_marseille","lat":43.29799,"lon":5.40389,"is_reserved":false,"is_disabled":false,"rental_uris":{"android":"levelo://app?vid=2033c1c4-40c4-48b4-8076-35891725f3ad","ios":"levelo://app?vid=2033c1c4-40c4-48b4-8076-35891725f3ad"},"vehicle_type_id":"4","last_reported":1746130242,"current_range_meters":14400,"station_id":"ce4bh112rcd13ifvqd90","pricing_plan_id":"cebpf4jnsgd1na2vs0mg"},{"bike_id":"fe7ad426-26f7-4f14-93b4-466132377608","system_id":"levelo_inurba_marseille","lat":43.32062,"lon":5.41557,"is_reserved":false,"is_disabled":false,"rental_uris":{"android":"levelo://app?vid=fe7ad426-26f7-4f14-93b4-466132377608","ios":"levelo://app?vid=fe7ad426-26f7-4f14-93b4-466132377608"},"vehicle_type_id":"4","last_reported":1746130242,"current_range_meters":14400,"station_id":"ce4bhq92rcd13ifvqhkg","pricing_plan_id":"cebpf4jnsgd1na2vs0mg"},{"bike_id":"d2917865-c7ed-418c-8e76-6cf228a7e046","system_id":"levelo_inurba_marseille","lat":43.30264,"lon":5.40073,"is_reserved":false,"is_disabled":false,"rental_uris":{"android":"levelo://app?vid=d2917865-c7ed-418c-8e76-6cf228a7e046","ios":"levelo://app?vid=d2917865-c7ed-418c-8e76-6cf228a7e046"},"vehicle_type_id":"4","last_reported":1746130242,"current_range_meters":14400,"station_id":"ce4bgvh2rcd13ifvqcs0","pricing_plan_id":"cebpf4jnsgd1na2vs0mg"},{"bike_id":"df869c6e-30aa-4a10-bddb-7cd36ccc4eae","system_id":"levelo_inurba_marseille","lat":43.29898,"lon":5.43648,"is_reserved":false,"is_disabled":false,"rental_uris":{"android":"levelo://app?vid=df869c6e-30aa-4a10-bddb-7cd36ccc4eae","ios":"levelo://app?vid=df869c6e-30aa-4a10-bddb-7cd36ccc4eae"},"vehicle_type_id":"4","last_reported":1746130242,"current_range_meters":14400,"station_id":"ce4bhpp2rcd13ifvqhfg","pricing_plan_id":"cebpf4jnsgd1na2vs0mg"},{"bike_id":"6188cc85-b581-476b-9543-b025d4a7b265","system_id":"levelo_inurba_marseille","lat":43.30536,"lon":5.36717,"is_reserved":false,"is_disabled":false,"rental_uris":{"android":"levelo://app?vid=6188cc85-b581-476b-9543-b025d4a7b265","ios":"levelo://app?vid=6188cc85-b581-476b-9543-b025d4a7b265"},"vehicle_type_id":"4","last_reported":1746130242,"current_range_meters":14400,"station_id":"ce4bgrp2rcd13ifvqc9g","pricing_plan_id":"cebpf4jnsgd1na2vs0mg"},{"bike_id":"7932fbde-01b6-4073-8915-6e596b849cb2","system_id":"levelo_inurba_marseille","lat":43.286583,"lon":5.386252,"is_reserved":false,"is_disabled":false,"rental_uris":{"android":"levelo://app?vid=7932fbde-01b6-4073-8915-6e596b849cb2","ios":"levelo://app?vid=7932fbde-01b6-4073-8915-6e596b849cb2"},"vehicle_type_id":"4","last_reported":1746130242,"current_range_meters":14400,"station_id":"ce4bh492rcd13ifvqdug","pricing_plan_id":"cebpf4jnsgd1na2vs0mg"},{"bike_id":"51c95771-a2d7-48dc-8a12-9ea2338fec3a","system_id":"levelo_inurba_marseille","lat":43.2928,"lon":5.40127,"is_reserved":false,"is_disabled":false,"rental_uris":{"android":"levelo://app?vid=51c95771-a2d7-48dc-8a12-9ea2338fec3a","ios":"levelo://app?vid=51c95771-a2d7-48dc-8a12-9ea2338fec3a"},"vehicle_type_id":"4","last_reported":1746130242,"current_range_meters":14400,"station_id":"ce4bh312rcd13ifvqdk0","pricing_plan_id":"cebpf4jnsgd1na2vs0mg"},{"bike_id":"dd7aedfd-e3d8-4f73-8265-cc39385aff60","system_id":"levelo_inurba_marseille","lat":43.27953,"lon":5.41035,"is_reserved":false,"is_disabled":false,"rental_uris":{"android":"levelo://app?vid=dd7aedfd-e3d8-4f73-8265-cc39385aff60","ios":"levelo://app?vid=dd7aedfd-e3d8-4f73-8265-cc39385aff60"},"vehicle_type_id":"4","last_reported":1746130242,"current_range_meters":14400,"station_id":"ce4bhnp2rcd13ifvqh0g","pricing_plan_id":"cebpf4jnsgd1na2vs0mg"},{"bike_id":"fca546f4-3e19-4a40-bd15-ff0bbfec11fd","system_id":"levelo_inurba_marseille","lat":43.29266,"lon":5.40872,"is_reserved":false,"is_disabled":false,"rental_uris":{"android":"levelo://app?vid=fca546f4-3e19-4a40-bd15-ff0bbfec11fd","ios":"levelo://app?vid=fca546f4-3e19-4a40-bd15-ff0bbfec11fd"},"vehicle_type_id":"4","last_reported":1746130242,"current_range_meters":14400,"station_id":"ce4bh192rcd13ifvqdc0","pricing_plan_id":"cebpf4jnsgd1na2vs0mg"},{"bike_id":"c0f33340-9a32-4958-84ea-bbdc5c800383","system_id":"levelo_inurba_marseille","lat":43.29625,"lon":5.37153,"is_reserved":false,"is_disabled":false,"rental_uris":{"android":"levelo://app?vid=c0f33340-9a32-4958-84ea-bbdc5c800383","ios":"levelo://app?vid=c0f33340-9a32-4958-84ea-bbdc5c800383"},"vehicle_type_id":"4","last_reported":1746130242,"current_range_meters":14400,"station_id":"ce4bgnh2rcd13ifvqc0g","pricing_plan_id":"cebpf4jnsgd1na2vs0mg"},{"bike_id":"93c56b1e-f86e-4a89-9ed1-78867616011b","system_id":"levelo_inurba_marseille","lat":43.30322,"lon":5.40421,"is_reserved":false,"is_disabled":false,"rental_uris":{"android":"levelo://app?vid=93c56b1e-f86e-4a89-9ed1-78867616011b","ios":"levelo://app?vid=93c56b1e-f86e-4a89-9ed1-78867616011b"},"vehicle_type_id":"4","last_reported":1746130242,"current_range_meters":14400,"station_id":"ce4bh012rcd13ifvqd10","pricing_plan_id":"cebpf4jnsgd1na2vs0mg"},{"bike_id":"f649bbcf-f1ec-41ae-9810-4157e3752ba7","system_id":"levelo_inurba_marseille","lat":43.30761,"lon":5.37368,"is_reserved":false,"is_disabled":false,"rental_uris":{"android":"levelo://app?vid=f649bbcf-f1ec-41ae-9810-4157e3752ba7","ios":"levelo://app?vid=f649bbcf-f1ec-41ae-9810-4157e3752ba7"},"vehicle_type_id":"4","last_reported":1746130242,"current_range_meters":14800,"station_id":"","pricing_plan_id":"cebpf4jnsgd1na2vs0mg"},{"bike_id":"5acec749-70ca-4f30-8705-2f62cb380d8c","system_id":"levelo_inurba_marseille","lat":43.30646,"lon":5.4008,"is_reserved":false,"is_disabled":false,"rental_uris":{"android":"levelo://app?vid=5acec749-70ca-4f30-8705-2f62cb380d8c","ios":"levelo://app?vid=5acec749-70ca-4f30-8705-2f62cb380d8c"},"vehicle_type_id":"4","last_reported":1746130242,"current_range_meters":14800,"station_id":"ce4bh112rcd13ifvqda0","pricing_plan_id":"cebpf4jnsgd1na2vs0mg"},{"bike_id":"bcf1312b-0c71-4ffe-93d8-2d00051725fc","system_id":"levelo_inurba_marseille","lat":43.27171,"lon":5.40991,"is_reserved":false,"is_disabled":false,"rental_uris":{"android":"levelo://app?vid=bcf1312b-0c71-4ffe-93d8-2d00051725fc","ios":"levelo://app?vid=bcf1312b-0c71-4ffe-93d8-2d00051725fc"},"vehicle_type_id":"4","last_reported":1746130242,"current_range_meters":14400,"station_id":"ce4bhl12rcd13ifvqgf0","pricing_plan_id":"cebpf4jnsgd1na2vs0mg"},{"bike_id":"dfe3d01c-effb-48a7-bb52-1b05d3d365e6","system_id":"levelo_inurba_marseille","lat":43.28447,"lon":5.39175,"is_reserved":false,"is_disabled":false,"rental_uris":{"android":"levelo://app?vid=dfe3d01c-effb-48a7-bb52-1b05d3d365e6","ios":"levelo://app?vid=dfe3d01c-effb-48a7-bb52-1b05d3d365e6"},"vehicle_type_id":"4","last_reported":1746130242,"current_range_meters":14800,"station_id":"ce4bhoh2rcd13ifvqh5g","pricing_plan_id":"cebpf4jnsgd1na2vs0mg"},{"bike_id":"64f1d64e-9463-4924-bf20-66250d909c2f","system_id":"levelo_inurba_marseille","lat":43.287051,"lon":5.399766,"is_reserved":false,"is_disabled":false,"rental_uris":{"android":"levelo://app?vid=64f1d64e-9463-4924-bf20-66250d909c2f","ios":"levelo://app?vid=64f1d64e-9463-4924-bf20-66250d909c2f"},"vehicle_type_id":"4","last_reported":1746130242,"current_range_meters":14800,"station_id":"ce4bho92rcd13ifvqh3g","pricing_plan_id":"cebpf4jnsgd1na2vs0mg"},{"bike_id":"0319ef4b-fae3-41b7-960d-6e7a9d759aa5","system_id":"levelo_inurba_marseille","lat":43.32541,"lon":5.41485,"is_reserved":false,"is_disabled":false,"rental_uris":{"android":"levelo://app?vid=0319ef4b-fae3-41b7-960d-6e7a9d759aa5","ios":"levelo://app?vid=0319ef4b-fae3-41b7-960d-6e7a9d759aa5"},"vehicle_type_id":"4","last_reported":1746130242,"current_range_meters":15200,"station_id":"ce4bhq12rcd13ifvqhhg","pricing_plan_id":"cebpf4jnsgd1na2vs0mg"},{"bike_id":"0c9a8767-a71f-4ef0-b390-c3b7e9c632a8","system_id":"levelo_inurba_marseille","lat":43.21188,"lon":5.35041,"is_reserved":false,"is_disabled":true,"rental_uris":{"android":"levelo://app?vid=0c9a8767-a71f-4ef0-b390-c3b7e9c632a8","ios":"levelo://app?vid=0c9a8767-a71f-4ef0-b390-c3b7e9c632a8"},"vehicle_type_id":"4","last_reported":1746130242,"current_range_meters":15200,"station_id":"st_cvj6sg6p6f1abm77japg","pricing_plan_id":"cebpf4jnsgd1na2vs0mg"},{"bike_id":"4cc2b011-81f2-4910-af9d-0052ec928815","system_id":"levelo_inurba_marseille","lat":43.30377,"lon":5.42486,"is_reserved":false,"is_disabled":false,"rental_uris":{"android":"levelo://app?vid=4cc2b011-81f2-4910-af9d-0052ec928815","ios":"levelo://app?vid=4cc2b011-81f2-4910-af9d-0052ec928815"},"vehicle_type_id":"4","last_reported":1746130242,"current_range_meters":15200,"station_id":"ce4bhoh2rcd13ifvqh6g","pricing_plan_id":"cebpf4jnsgd1na2vs0mg"},{"bike_id":"eb60ebeb-19e9-43bd-8d8a-276b6b709b53","system_id":"levelo_inurba_marseille","lat":43.31892,"lon":5.40731,"is_reserved":false,"is_disabled":false,"rental_uris":{"android":"levelo://app?vid=eb60ebeb-19e9-43bd-8d8a-276b6b709b53","ios":"levelo://app?vid=eb60ebeb-19e9-43bd-8d8a-276b6b709b53"},"vehicle_type_id":"4","last_reported":1746130242,"current_range_meters":15200,"station_id":"ce4bhq12rcd13ifvqhig","pricing_plan_id":"cebpf4jnsgd1na2vs0mg"},{"bike_id":"a5c3fc58-5cab-4350-9ae5-93da237bcd37","system_id":"levelo_inurba_marseille","lat":43.29626,"lon":5.40595,"is_reserved":false,"is_disabled":false,"rental_uris":{"android":"levelo://app?vid=a5c3fc58-5cab-4350-9ae5-93da237bcd37","ios":"levelo://app?vid=a5c3fc58-5cab-4350-9ae5-93da237bcd37"},"vehicle_type_id":"4","last_reported":1746130242,"current_range_meters":15200,"station_id":"ce4bh0h2rcd13ifvqd60","pricing_plan_id":"cebpf4jnsgd1na2vs0mg"},{"bike_id":"78efaac4-f47f-4813-be17-52b2daddb84b","system_id":"levelo_inurba_marseille","lat":43.25118,"lon":5.40319,"is_reserved":false,"is_disabled":false,"rental_uris":{"android":"levelo://app?vid=78efaac4-f47f-4813-be17-52b2daddb84b","ios":"levelo://app?vid=78efaac4-f47f-4813-be17-52b2daddb84b"},"vehicle_type_id":"4","last_reported":1746130242,"current_range_meters":15200,"station_id":"ce4bhlh2rcd13ifvqgig","pricing_plan_id":"cebpf4jnsgd1na2vs0mg"},{"bike_id":"569129b7-d1d1-4b0f-bb83-61f78652a2b4","system_id":"levelo_inurba_marseille","lat":43.3036,"lon":5.41871,"is_reserved":false,"is_disabled":false,"rental_uris":{"android":"levelo://app?vid=569129b7-d1d1-4b0f-bb83-61f78652a2b4","ios":"levelo://app?vid=569129b7-d1d1-4b0f-bb83-61f78652a2b4"},"vehicle_type_id":"4","last_reported":1746130242,"current_range_meters":16000,"station_id":"ce4bhop2rcd13ifvqh7g","pricing_plan_id":"cebpf4jnsgd1na2vs0mg"},{"bike_id":"03f5b910-d1d5-49c8-a7a4-67a333daaa2e","system_id":"levelo_inurba_marseille","lat":43.32537,"lon":5.41426,"is_reserved":false,"is_disabled":false,"rental_uris":{"android":"levelo://app?vid=03f5b910-d1d5-49c8-a7a4-67a333daaa2e","ios":"levelo://app?vid=03f5b910-d1d5-49c8-a7a4-67a333daaa2e"},"vehicle_type_id":"4","last_reported":1746130242,"current_range_meters":16000,"station_id":"ce4bhq12rcd13ifvqhhg","pricing_plan_id":"cebpf4jnsgd1na2vs0mg"},{"bike_id":"86010c21-7e7b-4164-b2d8-b482ffa7bf26","system_id":"levelo_inurba_marseille","lat":43.28471,"lon":5.39143,"is_reserved":false,"is_disabled":false,"rental_uris":{"android":"levelo://app?vid=86010c21-7e7b-4164-b2d8-b482ffa7bf26","ios":"levelo://app?vid=86010c21-7e7b-4164-b2d8-b482ffa7bf26"},"vehicle_type_id":"4","last_reported":1746130242,"current_range_meters":16000,"station_id":"ce4bhoh2rcd13ifvqh5g","pricing_plan_id":"cebpf4jnsgd1na2vs0mg"},{"bike_id":"51999319-32fc-4771-9086-0645302ddf3d","system_id":"levelo_inurba_marseille","lat":43.29423,"lon":5.38614,"is_reserved":false,"is_disabled":false,"rental_uris":{"android":"levelo://app?vid=51999319-32fc-4771-9086-0645302ddf3d","ios":"levelo://app?vid=51999319-32fc-4771-9086-0645302ddf3d"},"vehicle_type_id":"4","last_reported":1746130242,"current_range_meters":16000,"station_id":"ce4bh2h2rcd13ifvqdh0","pricing_plan_id":"cebpf4jnsgd1na2vs0mg"},{"bike_id":"b9ee0279-c99f-488a-9c57-6a9052c3eb73","system_id":"levelo_inurba_marseille","lat":43.29103,"lon":5.38147,"is_reserved":false,"is_disabled":false,"rental_uris":{"android":"levelo://app?vid=b9ee0279-c99f-488a-9c57-6a9052c3eb73","ios":"levelo://app?vid=b9ee0279-c99f-488a-9c57-6a9052c3eb73"},"vehicle_type_id":"4","last_reported":1746130242,"current_range_meters":16000,"station_id":"ce4bh512rcd13ifvqe2g","pricing_plan_id":"cebpf4jnsgd1na2vs0mg"},{"bike_id":"20ae6f82-a361-4c6e-9e60-548069d966dd","system_id":"levelo_inurba_marseille","lat":43.28488,"lon":5.385578,"is_reserved":false,"is_disabled":false,"rental_uris":{"android":"levelo://app?vid=20ae6f82-a361-4c6e-9e60-548069d966dd","ios":"levelo://app?vid=20ae6f82-a361-4c6e-9e60-548069d966dd"},"vehicle_type_id":"4","last_reported":1746130242,"current_range_meters":15200,"station_id":"ce4bh8p2rcd13ifvqeb0","pricing_plan_id":"cebpf4jnsgd1na2vs0mg"},{"bike_id":"41d1fa4f-21c8-458a-9ef4-19b4f56ea0e7","system_id":"levelo_inurba_marseille","lat":43.3122,"lon":5.3686,"is_reserved":false,"is_disabled":false,"rental_uris":{"android":"levelo://app?vid=41d1fa4f-21c8-458a-9ef4-19b4f56ea0e7","ios":"levelo://app?vid=41d1fa4f-21c8-458a-9ef4-19b4f56ea0e7"},"vehicle_type_id":"4","last_reported":1746130242,"current_range_meters":16000,"station_id":"ce4bgl92rcd13ifvqbq0","pricing_plan_id":"cebpf4jnsgd1na2vs0mg"},{"bike_id":"bc7e2df7-f36c-4c85-ab6a-47c28b125579","system_id":"levelo_inurba_marseille","lat":43.32342,"lon":5.40625,"is_reserved":false,"is_disabled":false,"rental_uris":{"android":"levelo://app?vid=bc7e2df7-f36c-4c85-ab6a-47c28b125579","ios":"levelo://app?vid=bc7e2df7-f36c-4c85-ab6a-47c28b125579"},"vehicle_type_id":"4","last_reported":1746130242,"current_range_meters":16000,"station_id":"ce4bhq92rcd13ifvqhjg","pricing_plan_id":"cebpf4jnsgd1na2vs0mg"},{"bike_id":"b70d6dd7-db26-425e-af7f-d24732bf1da0","system_id":"levelo_inurba_marseille","lat":43.30651,"lon":5.40079,"is_reserved":false,"is_disabled":false,"rental_uris":{"android":"levelo://app?vid=b70d6dd7-db26-425e-af7f-d24732bf1da0","ios":"levelo://app?vid=b70d6dd7-db26-425e-af7f-d24732bf1da0"},"vehicle_type_id":"4","last_reported":1746130242,"current_range_meters":16000,"station_id":"ce4bh112rcd13ifvqda0","pricing_plan_id":"cebpf4jnsgd1na2vs0mg"},{"bike_id":"345fc0d0-a273-41a8-861f-f7d933ff6d16","system_id":"levelo_inurba_marseille","lat":43.28028,"lon":5.36935,"is_reserved":false,"is_disabled":false,"rental_uris":{"android":"levelo://app?vid=345fc0d0-a273-41a8-861f-f7d933ff6d16","ios":"levelo://app?vid=345fc0d0-a273-41a8-861f-f7d933ff6d16"},"vehicle_type_id":"4","last_reported":1746130242,"current_range_meters":16400,"station_id":"ce4bha12rcd13ifvqef0","pricing_plan_id":"cebpf4jnsgd1na2vs0mg"},{"bike_id":"8a0058ae-d47a-4696-afcc-53a66a14ba3f","system_id":"levelo_inurba_marseille","lat":43.298907,"lon":5.436717,"is_reserved":false,"is_disabled":false,"rental_uris":{"android":"levelo://app?vid=8a0058ae-d47a-4696-afcc-53a66a14ba3f","ios":"levelo://app?vid=8a0058ae-d47a-4696-afcc-53a66a14ba3f"},"vehicle_type_id":"4","last_reported":1746130242,"current_range_meters":16400,"station_id":"ce4bhpp2rcd13ifvqhfg","pricing_plan_id":"cebpf4jnsgd1na2vs0mg"},{"bike_id":"8a53bf42-acb8-4be5-ad1b-38650f6ba791","system_id":"levelo_inurba_marseille","lat":43.29948,"lon":5.36549,"is_reserved":false,"is_disabled":true,"rental_uris":{"android":"levelo://app?vid=8a53bf42-acb8-4be5-ad1b-38650f6ba791","ios":"levelo://app?vid=8a53bf42-acb8-4be5-ad1b-38650f6ba791"},"vehicle_type_id":"4","last_reported":1746130242,"current_range_meters":16400,"station_id":"ce4bgm92rcd13ifvqbr0","pricing_plan_id":"cebpf4jnsgd1na2vs0mg"},{"bike_id":"e70e6937-93f0-4736-a2bd-2815ca5c0c90","system_id":"levelo_inurba_marseille","lat":43.293086,"lon":5.371694,"is_reserved":false,"is_disabled":true,"rental_uris":{"android":"levelo://app?vid=e70e6937-93f0-4736-a2bd-2815ca5c0c90","ios":"levelo://app?vid=e70e6937-93f0-4736-a2bd-2815ca5c0c90"},"vehicle_type_id":"4","last_reported":1746130242,"current_range_meters":16400,"station_id":"ce4bgh92rcd13ifvqb40","pricing_plan_id":"cebpf4jnsgd1na2vs0mg"},{"bike_id":"4c355f31-bbab-40c6-a093-ac50f3e75f95","system_id":"levelo_inurba_marseille","lat":43.26225,"lon":5.40461,"is_reserved":false,"is_disabled":false,"rental_uris":{"android":"levelo://app?vid=4c355f31-bbab-40c6-a093-ac50f3e75f95","ios":"levelo://app?vid=4c355f31-bbab-40c6-a093-ac50f3e75f95"},"vehicle_type_id":"4","last_reported":1746130242,"current_range_meters":16400,"station_id":"ce4bhmh2rcd13ifvqgmg","pricing_plan_id":"cebpf4jnsgd1na2vs0mg"},{"bike_id":"5d418bc5-e6cb-43b2-af1b-3c07c0a667ff","system_id":"levelo_inurba_marseille","lat":43.28108,"lon":5.37851,"is_reserved":false,"is_disabled":false,"rental_uris":{"android":"levelo://app?vid=5d418bc5-e6cb-43b2-af1b-3c07c0a667ff","ios":"levelo://app?vid=5d418bc5-e6cb-43b2-af1b-3c07c0a667ff"},"vehicle_type_id":"4","last_reported":1746130242,"current_range_meters":16400,"station_id":"ce4bha12rcd13ifvqee0","pricing_plan_id":"cebpf4jnsgd1na2vs0mg"},{"bike_id":"3f847de2-f660-4c56-82ec-308668420fba","system_id":"levelo_inurba_marseille","lat":43.30886,"lon":5.39654,"is_reserved":false,"is_disabled":false,"rental_uris":{"android":"levelo://app?vid=3f847de2-f660-4c56-82ec-308668420fba","ios":"levelo://app?vid=3f847de2-f660-4c56-82ec-308668420fba"},"vehicle_type_id":"4","last_reported":1746130242,"current_range_meters":16400,"station_id":"ce4bh012rcd13ifvqcv0","pricing_plan_id":"cebpf4jnsgd1na2vs0mg"},{"bike_id":"782687e8-9b31-404e-9337-cdb8f2235d2b","system_id":"levelo_inurba_marseille","lat":43.28661,"lon":5.38667,"is_reserved":false,"is_disabled":false,"rental_uris":{"android":"levelo://app?vid=782687e8-9b31-404e-9337-cdb8f2235d2b","ios":"levelo://app?vid=782687e8-9b31-404e-9337-cdb8f2235d2b"},"vehicle_type_id":"4","last_reported":1746130242,"current_range_meters":16400,"station_id":"ce4bh492rcd13ifvqdug","pricing_plan_id":"cebpf4jnsgd1na2vs0mg"},{"bike_id":"866288a7-3f9d-4035-90db-bd172723c606","system_id":"levelo_inurba_marseille","lat":43.295572,"lon":5.422792,"is_reserved":false,"is_disabled":false,"rental_uris":{"android":"levelo://app?vid=866288a7-3f9d-4035-90db-bd172723c606","ios":"levelo://app?vid=866288a7-3f9d-4035-90db-bd172723c606"},"vehicle_type_id":"4","last_reported":1746130242,"current_range_meters":16400,"station_id":"ce4bhph2rcd13ifvqhdg","pricing_plan_id":"cebpf4jnsgd1na2vs0mg"},{"bike_id":"f78e6e2a-8107-47fb-b969-25345ac001d6","system_id":"levelo_inurba_marseille","lat":43.2994,"lon":5.36535,"is_reserved":false,"is_disabled":false,"rental_uris":{"android":"levelo://app?vid=f78e6e2a-8107-47fb-b969-25345ac001d6","ios":"levelo://app?vid=f78e6e2a-8107-47fb-b969-25345ac001d6"},"vehicle_type_id":"4","last_reported":1746130242,"current_range_meters":16400,"station_id":"","pricing_plan_id":"cebpf4jnsgd1na2vs0mg"},{"bike_id":"8a98d962-578d-444b-a5bb-91a62b69d98d","system_id":"levelo_inurba_marseille","lat":43.21191,"lon":5.35078,"is_reserved":false,"is_disabled":true,"rental_uris":{"android":"levelo://app?vid=8a98d962-578d-444b-a5bb-91a62b69d98d","ios":"levelo://app?vid=8a98d962-578d-444b-a5bb-91a62b69d98d"},"vehicle_type_id":"4","last_reported":1746130242,"current_range_meters":16800,"station_id":"st_cvj6sg6p6f1abm77japg","pricing_plan_id":"cebpf4jnsgd1na2vs0mg"},{"bike_id":"42d5f795-35b6-4143-b9ab-e4d7a577a2be","system_id":"levelo_inurba_marseille","lat":43.27814,"lon":5.40707,"is_reserved":false,"is_disabled":false,"rental_uris":{"android":"levelo://app?vid=42d5f795-35b6-4143-b9ab-e4d7a577a2be","ios":"levelo://app?vid=42d5f795-35b6-4143-b9ab-e4d7a577a2be"},"vehicle_type_id":"4","last_reported":1746130242,"current_range_meters":16800,"station_id":"ce4bhnh2rcd13ifvqgtg","pricing_plan_id":"cebpf4jnsgd1na2vs0mg"},{"bike_id":"a7afc6ac-c033-483f-a1bc-0bbaaac90a8b","system_id":"levelo_inurba_marseille","lat":43.28156,"lon":5.42643,"is_reserved":false,"is_disabled":false,"rental_uris":{"android":"levelo://app?vid=a7afc6ac-c033-483f-a1bc-0bbaaac90a8b","ios":"levelo://app?vid=a7afc6ac-c033-483f-a1bc-0bbaaac90a8b"},"vehicle_type_id":"4","last_reported":1746130242,"current_range_meters":16800,"station_id":"ce4bhnh2rcd13ifvqgug","pricing_plan_id":"cebpf4jnsgd1na2vs0mg"},{"bike_id":"7fd80a67-7a4b-4131-aa61-22a40255ad15","system_id":"levelo_inurba_marseille","lat":43.31706,"lon":5.377521,"is_reserved":false,"is_disabled":true,"rental_uris":{"android":"levelo://app?vid=7fd80a67-7a4b-4131-aa61-22a40255ad15","ios":"levelo://app?vid=7fd80a67-7a4b-4131-aa61-22a40255ad15"},"vehicle_type_id":"4","last_reported":1746130242,"current_range_meters":16800,"station_id":"ce4bgth2rcd13ifvqch0","pricing_plan_id":"cebpf4jnsgd1na2vs0mg"},{"bike_id":"f4716ee1-d36c-4a19-bb0b-168b8e8f2c9f","system_id":"levelo_inurba_marseille","lat":43.284709,"lon":5.384194,"is_reserved":false,"is_disabled":false,"rental_uris":{"android":"levelo://app?vid=f4716ee1-d36c-4a19-bb0b-168b8e8f2c9f","ios":"levelo://app?vid=f4716ee1-d36c-4a19-bb0b-168b8e8f2c9f"},"vehicle_type_id":"4","last_reported":1746130242,"current_range_meters":16400,"station_id":"ce4bh512rcd13ifvqe3g","pricing_plan_id":"cebpf4jnsgd1na2vs0mg"},{"bike_id":"6623491d-b23e-494a-b8f5-05f0c8a0d399","system_id":"levelo_inurba_marseille","lat":43.30322,"lon":5.40435,"is_reserved":false,"is_disabled":false,"rental_uris":{"android":"levelo://app?vid=6623491d-b23e-494a-b8f5-05f0c8a0d399","ios":"levelo://app?vid=6623491d-b23e-494a-b8f5-05f0c8a0d399"},"vehicle_type_id":"4","last_reported":1746130242,"current_range_meters":16800,"station_id":"ce4bh012rcd13ifvqd10","pricing_plan_id":"cebpf4jnsgd1na2vs0mg"},{"bike_id":"d1379c8a-7083-4a37-9c43-486265fda839","system_id":"levelo_inurba_marseille","lat":43.27487,"lon":5.42473,"is_reserved":false,"is_disabled":false,"rental_uris":{"android":"levelo://app?vid=d1379c8a-7083-4a37-9c43-486265fda839","ios":"levelo://app?vid=d1379c8a-7083-4a37-9c43-486265fda839"},