{"last_updated":1740046199,"ttl":60,"version":"2.2","data":{"bikes":[{"bike_id":"20165ac7-8b0d-4e2e-af34-f4833cd047e1","system_id":"levelo_inurba_marseille","lat":43.29102,"lon":5.38131,"is_reserved":false,"is_disabled":false,"rental_uris":{"android":"levelo://app?vid=20165ac7-8b0d-4e2e-af34-f4833cd047e1","ios":"levelo://app?vid=20165ac7-8b0d-4e2e-af34-f4833cd047e1"},"vehicle_type_id":"4","last_reported":1740046200,"current_range_meters":2800,"station_id":"ce4bh512rcd13ifvqe2g","pricing_plan_id":"cebpf4jnsgd1na2vs0mg"},{"bike_id":"d1bd2e48-baa9-4ab1-abf8-a195443c6799","system_id":"levelo_inurba_marseille","lat":43.28692,"lon":5.4001,"is_reserved":false,"is_disabled":false,"rental_uris":{"android":"levelo://app?vid=d1bd2e48-baa9-4ab1-abf8-a195443c6799","ios":"levelo://app?vid=d1bd2e48-baa9-4ab1-abf8-a195443c6799"},"vehicle_type_id":"4","last_reported":1740046200,"current_range_meters":2800,"station_id":"","pricing_plan_id":"cebpf4jnsgd1na2vs0mg"},{"bike_id":"62fe02ff-a032-4e5d-9ece-d1a852bf63f0","system_id":"levelo_inurba_marseille","lat":43.29781,"lon":5.37715,"is_reserved":false,"is_disabled":false,"rental_uris":{"android":"levelo://app?vid=62fe02ff-a032-4e5d-9ece-d1a852bf63f0","ios":"levelo://app?vid=62fe02ff-a032-4e5d-9ece-d1a852bf63f0"},"vehicle_type_id":"4","last_reported":1740046200,"current_range_meters":3200,"station_id":"","pricing_plan_id":"cebpf4jnsgd1na2vs0mg"},{"bike_id":"8c012646-3a81-48c6-b458-12b81fa897b4","system_id":"levelo_inurba_marseille","lat":43.32098,"lon":5.36788,"is_reserved":false,"is_disabled":false,"rental_uris":{"android":"levelo://app?vid=8c012646-3a81-48c6-b458-12b81fa897b4","ios":"levelo://app?vid=8c012646-3a81-48c6-b458-12b81fa897b4"},"vehicle_type_id":"4","last_reported":1740046200,"current_range_meters":3200,"station_id":"ce4bhrh2rcd13ifvqhug","pricing_plan_id":"cebpf4jnsgd1na2vs0mg"},{"bike_id":"aa469b65-18f7-4328-a0f9-a99657c031cb","system_id":"levelo_inurba_marseille","lat":43.28142,"lon":5.42666,"is_reserved":false,"is_disabled":false,"rental_uris":{"android":"levelo://app?vid=aa469b65-18f7-4328-a0f9-a99657c031cb","ios":"levelo://app?vid=aa469b65-18f7-4328-a0f9-a99657c031cb"},"vehicle_type_id":"4","last_reported":1740046200,"current_range_meters":3200,"station_id":"ce4bhnh2rcd13ifvqgug","pricing_plan_id":"cebpf4jnsgd1na2vs0mg"},{"bike_id":"f4ddd197-36ba-4043-8194-49775bf5f485","system_id":"levelo_inurba_marseille","lat":43.29633,"lon":5.406,"is_reserved":false,"is_disabled":false,"rental_uris":{"android":"levelo://app?vid=f4ddd197-36ba-4043-8194-49775bf5f485","ios":"levelo://app?vid=f4ddd197-36ba-4043-8194-49775bf5f485"},"vehicle_type_id":"4","last_reported":1740046200,"current_range_meters":3600,"station_id":"ce4bh0h2rcd13ifvqd60","pricing_plan_id":"cebpf4jnsgd1na2vs0mg"},{"bike_id":"d5173bbe-86f4-4afc-a8e0-76d62e3a8b83","system_id":"levelo_inurba_marseille","lat":43.23964,"lon":5.36631,"is_reserved":false,"is_disabled":false,"rental_uris":{"android":"levelo://app?vid=d5173bbe-86f4-4afc-a8e0-76d62e3a8b83","ios":"levelo://app?vid=d5173bbe-86f4-4afc-a8e0-76d62e3a8b83"},"vehicle_type_id":"4","last_reported":1740046200,"current_range_meters":4400,"station_id":"ce4bhi12rcd13ifvqfp0","pricing_plan_id":"cebpf4jnsgd1na2vs0mg"},{"bike_id":"adb3d6df-7149-4295-84c9-8f4cb47f9c0e","system_id":"levelo_inurba_marseille","lat":43.27246,"lon":5.40688,"is_reserved":false,"is_disabled":true,"rental_uris":{"android":"levelo://app?vid=adb3d6df-7149-4295-84c9-8f4cb47f9c0e","ios":"levelo://app?vid=adb3d6df-7149-4295-84c9-8f4cb47f9c0e"},"vehicle_type_id":"4","last_reported":1740046200,"current_range_meters":4400,"station_id":"","pricing_plan_id":"cebpf4jnsgd1na2vs0mg"},{"bike_id":"f65fac4e-5380-40db-967f-d5ab8fdd901f","system_id":"levelo_inurba_marseille","lat":43.30592,"lon":5.39357,"is_reserved":false,"is_disabled":false,"rental_uris":{"android":"levelo://app?vid=f65fac4e-5380-40db-967f-d5ab8fdd901f","ios":"levelo://app?vid=f65fac4e-5380-40db-967f-d5ab8fdd901f"},"vehicle_type_id":"4","last_reported":1740046200,"current_range_meters":4800,"station_id":"ce4bh0p2rcd13ifvqd80","pricing_plan_id":"cebpf4jnsgd1na2vs0mg"},{"bike_id":"cf64b7cd-4626-4d79-afac-2611db88ce28","system_id":"levelo_inurba_marseille","lat":43.2797,"lon":5.41651,"is_reserved":false,"is_disabled":false,"rental_uris":{"android":"levelo://app?vid=cf64b7cd-4626-4d79-afac-2611db88ce28","ios":"levelo://app?vid=cf64b7cd-4626-4d79-afac-2611db88ce28"},"vehicle_type_id":"4","last_reported":1740046200,"current_range_meters":4800,"station_id":"ce4bho12rcd13ifvqh1g","pricing_plan_id":"cebpf4jnsgd1na2vs0mg"},{"bike_id":"2dbc71c4-caa4-43c9-be0f-62f3ed4d514f","system_id":"levelo_inurba_marseille","lat":43.23967,"lon":5.36642,"is_reserved":false,"is_disabled":false,"rental_uris":{"android":"levelo://app?vid=2dbc71c4-caa4-43c9-be0f-62f3ed4d514f","ios":"levelo://app?vid=2dbc71c4-caa4-43c9-be0f-62f3ed4d514f"},"vehicle_type_id":"4","last_reported":1740046200,"current_range_meters":5600,"station_id":"ce4bhi12rcd13ifvqfp0","pricing_plan_id":"cebpf4jnsgd1na2vs0mg"},{"bike_id":"9c3503a8-bf6e-4934-a0b0-ccb21abc8fa0","system_id":"levelo_inurba_marseille","lat":43.29584,"lon":5.37527,"is_reserved":false,"is_disabled":false,"rental_uris":{"android":"levelo://app?vid=9c3503a8-bf6e-4934-a0b0-ccb21abc8fa0","ios":"levelo://app?vid=9c3503a8-bf6e-4934-a0b0-ccb21abc8fa0"},"vehicle_type_id":"4","last_reported":1740046200,"current_range_meters":5600,"station_id":"ce4bgh92rcd13ifvqb50","pricing_plan_id":"cebpf4jnsgd1na2vs0mg"},{"bike_id":"ed356dd8-0353-427c-9cf0-284ca7b500d9","system_id":"levelo_inurba_marseille","lat":43.25074,"lon":5.39528,"is_reserved":false,"is_disabled":false,"rental_uris":{"android":"levelo://app?vid=ed356dd8-0353-427c-9cf0-284ca7b500d9","ios":"levelo://app?vid=ed356dd8-0353-427c-9cf0-284ca7b500d9"},"vehicle_type_id":"4","last_reported":1740046200,"current_range_meters":5600,"station_id":"ce4bhm12rcd13ifvqgkg","pricing_plan_id":"cebpf4jnsgd1na2vs0mg"},{"bike_id":"18fe3d06-df15-4747-b0a1-d25df88e009c","system_id":"levelo_inurba_marseille","lat":43.28154,"lon":5.42679,"is_reserved":false,"is_disabled":false,"rental_uris":{"android":"levelo://app?vid=18fe3d06-df15-4747-b0a1-d25df88e009c","ios":"levelo://app?vid=18fe3d06-df15-4747-b0a1-d25df88e009c"},"vehicle_type_id":"4","last_reported":1740046200,"current_range_meters":5600,"station_id":"ce4bhnh2rcd13ifvqgug","pricing_plan_id":"cebpf4jnsgd1na2vs0mg"},{"bike_id":"4089f1a0-cd12-42d3-a6c3-01d445970a86","system_id":"levelo_inurba_marseille","lat":43.3108,"lon":5.36768,"is_reserved":false,"is_disabled":false,"rental_uris":{"android":"levelo://app?vid=4089f1a0-cd12-42d3-a6c3-01d445970a86","ios":"levelo://app?vid=4089f1a0-cd12-42d3-a6c3-01d445970a86"},"vehicle_type_id":"4","last_reported":1740046200,"current_range_meters":6000,"station_id":"","pricing_plan_id":"cebpf4jnsgd1na2vs0mg"},{"bike_id":"157ca109-91ef-4ace-87c0-3c984c3cc38a","system_id":"levelo_inurba_marseille","lat":43.29047,"lon":5.3757,"is_reserved":false,"is_disabled":false,"rental_uris":{"android":"levelo://app?vid=157ca109-91ef-4ace-87c0-3c984c3cc38a","ios":"levelo://app?vid=157ca109-91ef-4ace-87c0-3c984c3cc38a"},"vehicle_type_id":"4","last_reported":1740046200,"current_range_meters":5600,"station_id":"ce4bh692rcd13ifvqe90","pricing_plan_id":"cebpf4jnsgd1na2vs0mg"},{"bike_id":"9198c6ef-bd5b-45d9-bd7b-e058d791d44b","system_id":"levelo_inurba_marseille","lat":43.24811,"lon":5.37464,"is_reserved":false,"is_disabled":false,"rental_uris":{"android":"levelo://app?vid=9198c6ef-bd5b-45d9-bd7b-e058d791d44b","ios":"levelo://app?vid=9198c6ef-bd5b-45d9-bd7b-e058d791d44b"},"vehicle_type_id":"4","last_reported":1740046200,"current_range_meters":6000,"station_id":"ce4bhgh2rcd13ifvqfb0","pricing_plan_id":"cebpf4jnsgd1na2vs0mg"},{"bike_id":"5975640d-f824-4ebd-93b7-a5bc98775718","system_id":"levelo_inurba_marseille","lat":43.26556,"lon":5.37274,"is_reserved":false,"is_disabled":false,"rental_uris":{"android":"levelo://app?vid=5975640d-f824-4ebd-93b7-a5bc98775718","ios":"levelo://app?vid=5975640d-f824-4ebd-93b7-a5bc98775718"},"vehicle_type_id":"4","last_reported":1740046200,"current_range_meters":6400,"station_id":"ce4bhg12rcd13ifvqf70","pricing_plan_id":"cebpf4jnsgd1na2vs0mg"},{"bike_id":"6ac389c0-3554-41cc-8d32-a77830c64924","system_id":"levelo_inurba_marseille","lat":43.30642,"lon":5.40092,"is_reserved":false,"is_disabled":false,"rental_uris":{"android":"levelo://app?vid=6ac389c0-3554-41cc-8d32-a77830c64924","ios":"levelo://app?vid=6ac389c0-3554-41cc-8d32-a77830c64924"},"vehicle_type_id":"4","last_reported":1740046200,"current_range_meters":6400,"station_id":"ce4bh112rcd13ifvqda0","pricing_plan_id":"cebpf4jnsgd1na2vs0mg"},{"bike_id":"21af5f97-1b39-4d35-8beb-e99b39c140a8","system_id":"levelo_inurba_marseille","lat":43.25934,"lon":5.40983,"is_reserved":false,"is_disabled":false,"rental_uris":{"android":"levelo://app?vid=21af5f97-1b39-4d35-8beb-e99b39c140a8","ios":"levelo://app?vid=21af5f97-1b39-4d35-8beb-e99b39c140a8"},"vehicle_type_id":"4","last_reported":1740046200,"current_range_meters":6400,"station_id":"ce4bhm92rcd13ifvqglg","pricing_plan_id":"cebpf4jnsgd1na2vs0mg"},{"bike_id":"c2896a85-bd03-44af-9ec9-88cf4b2c2bef","system_id":"levelo_inurba_marseille","lat":43.27372,"lon":5.36257,"is_reserved":false,"is_disabled":false,"rental_uris":{"android":"levelo://app?vid=c2896a85-bd03-44af-9ec9-88cf4b2c2bef","ios":"levelo://app?vid=c2896a85-bd03-44af-9ec9-88cf4b2c2bef"},"vehicle_type_id":"4","last_reported":1740046200,"current_range_meters":6400,"station_id":"","pricing_plan_id":"cebpf4jnsgd1na2vs0mg"},{"bike_id":"ec2a2a80-692c-4e61-b758-ee418e5968e4","system_id":"levelo_inurba_marseille","lat":43.23968,"lon":5.36626,"is_reserved":false,"is_disabled":false,"rental_uris":{"android":"levelo://app?vid=ec2a2a80-692c-4e61-b758-ee418e5968e4","ios":"levelo://app?vid=ec2a2a80-692c-4e61-b758-ee418e5968e4"},"vehicle_type_id":"4","last_reported":1740046200,"current_range_meters":6400,"station_id":"ce4bhi12rcd13ifvqfp0","pricing_plan_id":"cebpf4jnsgd1na2vs0mg"},{"bike_id":"0b1a3b32-459a-4ff9-a388-d16482304482","system_id":"levelo_inurba_marseille","lat":43.27996,"lon":5.40024,"is_reserved":false,"is_disabled":false,"rental_uris":{"android":"levelo://app?vid=0b1a3b32-459a-4ff9-a388-d16482304482","ios":"levelo://app?vid=0b1a3b32-459a-4ff9-a388-d16482304482"},"vehicle_type_id":"4","last_reported":1740046200,"current_range_meters":6800,"station_id":"","pricing_plan_id":"cebpf4jnsgd1na2vs0mg"},{"bike_id":"698aaa2b-08a8-4cef-ae7d-66edb1d27d16","system_id":"levelo_inurba_marseille","lat":43.27069,"lon":5.40279,"is_reserved":false,"is_disabled":false,"rental_uris":{"android":"levelo://app?vid=698aaa2b-08a8-4cef-ae7d-66edb1d27d16","ios":"levelo://app?vid=698aaa2b-08a8-4cef-ae7d-66edb1d27d16"},"vehicle_type_id":"4","last_reported":1740046200,"current_range_meters":6800,"station_id":"ce4bhk92rcd13ifvqgc0","pricing_plan_id":"cebpf4jnsgd1na2vs0mg"},{"bike_id":"7c7dad2e-c6d4-43a7-946f-1af746b83aa3","system_id":"levelo_inurba_marseille","lat":43.30531,"lon":5.36713,"is_reserved":false,"is_disabled":false,"rental_uris":{"android":"levelo://app?vid=7c7dad2e-c6d4-43a7-946f-1af746b83aa3","ios":"levelo://app?vid=7c7dad2e-c6d4-43a7-946f-1af746b83aa3"},"vehicle_type_id":"4","last_reported":1740046200,"current_range_meters":6800,"station_id":"ce4bgrp2rcd13ifvqc9g","pricing_plan_id":"cebpf4jnsgd1na2vs0mg"},{"bike_id":"3d9f0dbe-46dc-4a66-853c-f5d91b39a3c3","system_id":"levelo_inurba_marseille","lat":43.30411,"lon":5.39746,"is_reserved":false,"is_disabled":false,"rental_uris":{"android":"levelo://app?vid=3d9f0dbe-46dc-4a66-853c-f5d91b39a3c3","ios":"levelo://app?vid=3d9f0dbe-46dc-4a66-853c-f5d91b39a3c3"},"vehicle_type_id":"4","last_reported":1740046200,"current_range_meters":6800,"station_id":"ce4bh092rcd13ifvqd20","pricing_plan_id":"cebpf4jnsgd1na2vs0mg"},{"bike_id":"7f2b235d-b54a-4ba7-9884-b541f6dd74e7","system_id":"levelo_inurba_marseille","lat":43.271786,"lon":5.409869,"is_reserved":false,"is_disabled":false,"rental_uris":{"android":"levelo://app?vid=7f2b235d-b54a-4ba7-9884-b541f6dd74e7","ios":"levelo://app?vid=7f2b235d-b54a-4ba7-9884-b541f6dd74e7"},"vehicle_type_id":"4","last_reported":1740046200,"current_range_meters":6800,"station_id":"","pricing_plan_id":"cebpf4jnsgd1na2vs0mg"},{"bike_id":"bf6fc205-dc2d-4448-bc77-e4675b6a7dd1","system_id":"levelo_inurba_marseille","lat":43.32659,"lon":5.40995,"is_reserved":false,"is_disabled":false,"rental_uris":{"android":"levelo://app?vid=bf6fc205-dc2d-4448-bc77-e4675b6a7dd1","ios":"levelo://app?vid=bf6fc205-dc2d-4448-bc77-e4675b6a7dd1"},"vehicle_type_id":"4","last_reported":1740046200,"current_range_meters":6400,"station_id":"ce4bhpp2rcd13ifvqhgg","pricing_plan_id":"cebpf4jnsgd1na2vs0mg"},{"bike_id":"d00fceac-60b2-44a2-9253-af262166ceb5","system_id":"levelo_inurba_marseille","lat":43.29039,"lon":5.3995,"is_reserved":false,"is_disabled":false,"rental_uris":{"android":"levelo://app?vid=d00fceac-60b2-44a2-9253-af262166ceb5","ios":"levelo://app?vid=d00fceac-60b2-44a2-9253-af262166ceb5"},"vehicle_type_id":"4","last_reported":1740046200,"current_range_meters":7200,"station_id":"","pricing_plan_id":"cebpf4jnsgd1na2vs0mg"},{"bike_id":"07750a48-0a12-4e33-89cd-d0f50529fa8e","system_id":"levelo_inurba_marseille","lat":43.279476,"lon":5.410554,"is_reserved":false,"is_disabled":false,"rental_uris":{"android":"levelo://app?vid=07750a48-0a12-4e33-89cd-d0f50529fa8e","ios":"levelo://app?vid=07750a48-0a12-4e33-89cd-d0f50529fa8e"},"vehicle_type_id":"4","last_reported":1740046200,"current_range_meters":7200,"station_id":"ce4bhnp2rcd13ifvqh0g","pricing_plan_id":"cebpf4jnsgd1na2vs0mg"},{"bike_id":"90de8971-db22-4d27-8c08-4575a12860f9","system_id":"levelo_inurba_marseille","lat":43.27178,"lon":5.40999,"is_reserved":false,"is_disabled":false,"rental_uris":{"android":"levelo://app?vid=90de8971-db22-4d27-8c08-4575a12860f9","ios":"levelo://app?vid=90de8971-db22-4d27-8c08-4575a12860f9"},"vehicle_type_id":"4","last_reported":1740046200,"current_range_meters":7200,"station_id":"ce4bhl12rcd13ifvqgf0","pricing_plan_id":"cebpf4jnsgd1na2vs0mg"},{"bike_id":"115a7adc-4ed6-4677-8751-fe0936112217","system_id":"levelo_inurba_marseille","lat":43.25576,"lon":5.38231,"is_reserved":false,"is_disabled":false,"rental_uris":{"android":"levelo://app?vid=115a7adc-4ed6-4677-8751-fe0936112217","ios":"levelo://app?vid=115a7adc-4ed6-4677-8751-fe0936112217"},"vehicle_type_id":"4","last_reported":1740046200,"current_range_meters":8000,"station_id":"","pricing_plan_id":"cebpf4jnsgd1na2vs0mg"},{"bike_id":"014ac0f4-2b78-4339-a1f5-523244f974fa","system_id":"levelo_inurba_marseille","lat":43.30464,"lon":5.37917,"is_reserved":false,"is_disabled":false,"rental_uris":{"android":"levelo://app?vid=014ac0f4-2b78-4339-a1f5-523244f974fa","ios":"levelo://app?vid=014ac0f4-2b78-4339-a1f5-523244f974fa"},"vehicle_type_id":"4","last_reported":1740046200,"current_range_meters":8000,"station_id":"","pricing_plan_id":"cebpf4jnsgd1na2vs0mg"},{"bike_id":"ba0a4dbe-d370-492e-a789-44c6ef69c02b","system_id":"levelo_inurba_marseille","lat":43.2863,"lon":5.35128,"is_reserved":false,"is_disabled":true,"rental_uris":{"android":"levelo://app?vid=ba0a4dbe-d370-492e-a789-44c6ef69c02b","ios":"levelo://app?vid=ba0a4dbe-d370-492e-a789-44c6ef69c02b"},"vehicle_type_id":"4","last_reported":1740046200,"current_range_meters":8000,"station_id":"ce4bhch2rcd13ifvqeug","pricing_plan_id":"cebpf4jnsgd1na2vs0mg"},{"bike_id":"0f665ce8-0c8f-440c-85e8-380ef8e594f9","system_id":"levelo_inurba_marseille","lat":43.31227,"lon":5.36891,"is_reserved":false,"is_disabled":false,"rental_uris":{"android":"levelo://app?vid=0f665ce8-0c8f-440c-85e8-380ef8e594f9","ios":"levelo://app?vid=0f665ce8-0c8f-440c-85e8-380ef8e594f9"},"vehicle_type_id":"4","last_reported":1740046200,"current_range_meters":8000,"station_id":"ce4bgl92rcd13ifvqbq0","pricing_plan_id":"cebpf4jnsgd1na2vs0mg"},{"bike_id":"f8a1eefe-5190-4327-95c3-8138f343fe57","system_id":"levelo_inurba_marseille","lat":43.31193,"lon":5.39386,"is_reserved":false,"is_disabled":false,"rental_uris":{"android":"levelo://app?vid=f8a1eefe-5190-4327-95c3-8138f343fe57","ios":"levelo://app?vid=f8a1eefe-5190-4327-95c3-8138f343fe57"},"vehicle_type_id":"4","last_reported":1740046200,"current_range_meters":8000,"station_id":"ce4bgqh2rcd13ifvqc4g","pricing_plan_id":"cebpf4jnsgd1na2vs0mg"},{"bike_id":"94099caa-7322-4a38-a1f2-6122fab4b416","system_id":"levelo_inurba_marseille","lat":43.31239,"lon":5.36858,"is_reserved":false,"is_disabled":false,"rental_uris":{"android":"levelo://app?vid=94099caa-7322-4a38-a1f2-6122fab4b416","ios":"levelo://app?vid=94099caa-7322-4a38-a1f2-6122fab4b416"},"vehicle_type_id":"4","last_reported":1740046200,"current_range_meters":8400,"station_id":"ce4bgl92rcd13ifvqbq0","pricing_plan_id":"cebpf4jnsgd1na2vs0mg"},{"bike_id":"406cb1a7-d127-4071-a696-204924f6ff95","system_id":"levelo_inurba_marseille","lat":43.24997,"lon":5.38942,"is_reserved":false,"is_disabled":false,"rental_uris":{"android":"levelo://app?vid=406cb1a7-d127-4071-a696-204924f6ff95","ios":"levelo://app?vid=406cb1a7-d127-4071-a696-204924f6ff95"},"vehicle_type_id":"4","last_reported":1740046200,"current_range_meters":8400,"station_id":"","pricing_plan_id":"cebpf4jnsgd1na2vs0mg"},{"bike_id":"0caa86c9-275f-45b3-9a12-c32b83479c40","system_id":"levelo_inurba_marseille","lat":43.29049,"lon":5.39965,"is_reserved":false,"is_disabled":true,"rental_uris":{"android":"levelo://app?vid=0caa86c9-275f-45b3-9a12-c32b83479c40","ios":"levelo://app?vid=0caa86c9-275f-45b3-9a12-c32b83479c40"},"vehicle_type_id":"4","last_reported":1740046200,"current_range_meters":8400,"station_id":"","pricing_plan_id":"cebpf4jnsgd1na2vs0mg"},{"bike_id":"093d36c4-f304-46a9-8792-5d9e19e468fc","system_id":"levelo_inurba_marseille","lat":43.29891,"lon":5.43664,"is_reserved":false,"is_disabled":false,"rental_uris":{"android":"levelo://app?vid=093d36c4-f304-46a9-8792-5d9e19e468fc","ios":"levelo://app?vid=093d36c4-f304-46a9-8792-5d9e19e468fc"},"vehicle_type_id":"4","last_reported":1740046200,"current_range_meters":8400,"station_id":"ce4bhpp2rcd13ifvqhfg","pricing_plan_id":"cebpf4jnsgd1na2vs0mg"},{"bike_id":"758343c5-e330-4490-93ef-42368ec851ac","system_id":"levelo_inurba_marseille","lat":43.23157,"lon":5.43702,"is_reserved":false,"is_disabled":false,"rental_uris":{"android":"levelo://app?vid=758343c5-e330-4490-93ef-42368ec851ac","ios":"levelo://app?vid=758343c5-e330-4490-93ef-42368ec851ac"},"vehicle_type_id":"4","last_reported":1740046200,"current_range_meters":8400,"station_id":"ce4bhmp2rcd13ifvqgog","pricing_plan_id":"cebpf4jnsgd1na2vs0mg"},{"bike_id":"c67fb496-8441-458a-af2d-8f07c087bdd0","system_id":"levelo_inurba_marseille","lat":43.24179,"lon":5.3641,"is_reserved":false,"is_disabled":true,"rental_uris":{"android":"levelo://app?vid=c67fb496-8441-458a-af2d-8f07c087bdd0","ios":"levelo://app?vid=c67fb496-8441-458a-af2d-8f07c087bdd0"},"vehicle_type_id":"4","last_reported":1740046200,"current_range_meters":8400,"station_id":"cpo36qri1sfpv3e86is0","pricing_plan_id":"cebpf4jnsgd1na2vs0mg"},{"bike_id":"f027fe38-3f5d-42fa-b16a-68ca60104c09","system_id":"levelo_inurba_marseille","lat":43.24164,"lon":5.36409,"is_reserved":false,"is_disabled":false,"rental_uris":{"android":"levelo://app?vid=f027fe38-3f5d-42fa-b16a-68ca60104c09","ios":"levelo://app?vid=f027fe38-3f5d-42fa-b16a-68ca60104c09"},"vehicle_type_id":"4","last_reported":1740046200,"current_range_meters":8400,"station_id":"","pricing_plan_id":"cebpf4jnsgd1na2vs0mg"},{"bike_id":"cd8bea7d-b4f9-400d-9cce-4690c4f2bf30","system_id":"levelo_inurba_marseille","lat":43.33737,"lon":5.39188,"is_reserved":false,"is_disabled":false,"rental_uris":{"android":"levelo://app?vid=cd8bea7d-b4f9-400d-9cce-4690c4f2bf30","ios":"levelo://app?vid=cd8bea7d-b4f9-400d-9cce-4690c4f2bf30"},"vehicle_type_id":"4","last_reported":1740046200,"current_range_meters":8400,"station_id":"ce4bhr92rcd13ifvqhsg","pricing_plan_id":"cebpf4jnsgd1na2vs0mg"},{"bike_id":"4e2b468f-8f4a-4d73-8517-62fa28d3fb4c","system_id":"levelo_inurba_marseille","lat":43.24811,"lon":5.3746,"is_reserved":false,"is_disabled":false,"rental_uris":{"android":"levelo://app?vid=4e2b468f-8f4a-4d73-8517-62fa28d3fb4c","ios":"levelo://app?vid=4e2b468f-8f4a-4d73-8517-62fa28d3fb4c"},"vehicle_type_id":"4","last_reported":1740046200,"current_range_meters":8800,"station_id":"ce4bhgh2rcd13ifvqfb0","pricing_plan_id":"cebpf4jnsgd1na2vs0mg"},{"bike_id":"3fa131c8-d3bf-4fb9-b400-1daf371dcaa7","system_id":"levelo_inurba_marseille","lat":43.27163,"lon":5.40966,"is_reserved":false,"is_disabled":false,"rental_uris":{"android":"levelo://app?vid=3fa131c8-d3bf-4fb9-b400-1daf371dcaa7","ios":"levelo://app?vid=3fa131c8-d3bf-4fb9-b400-1daf371dcaa7"},"vehicle_type_id":"4","last_reported":1740046200,"current_range_meters":8800,"station_id":"ce4bhl12rcd13ifvqgf0","pricing_plan_id":"cebpf4jnsgd1na2vs0mg"},{"bike_id":"63c4cf47-dbff-4d5e-a88a-080b99df99de","system_id":"levelo_inurba_marseille","lat":43.29513,"lon":5.38903,"is_reserved":false,"is_disabled":true,"rental_uris":{"android":"levelo://app?vid=63c4cf47-dbff-4d5e-a88a-080b99df99de","ios":"levelo://app?vid=63c4cf47-dbff-4d5e-a88a-080b99df99de"},"vehicle_type_id":"4","last_reported":1740046200,"current_range_meters":8800,"station_id":"","pricing_plan_id":"cebpf4jnsgd1na2vs0mg"},{"bike_id":"34d14ec0-9a1d-4d07-8158-52ff5d0c0371","system_id":"levelo_inurba_marseille","lat":43.29437,"lon":5.38042,"is_reserved":false,"is_disabled":false,"rental_uris":{"android":"levelo://app?vid=34d14ec0-9a1d-4d07-8158-52ff5d0c0371","ios":"levelo://app?vid=34d14ec0-9a1d-4d07-8158-52ff5d0c0371"},"vehicle_type_id":"4","last_reported":1740046200,"current_range_meters":8800,"station_id":"","pricing_plan_id":"cebpf4jnsgd1na2vs0mg"},{"bike_id":"1d63a175-89ef-49ff-9ead-dfe9ed6c22cf","system_id":"levelo_inurba_marseille","lat":43.24677,"lon":5.3944,"is_reserved":false,"is_disabled":false,"rental_uris":{"android":"levelo://app?vid=1d63a175-89ef-49ff-9ead-dfe9ed6c22cf","ios":"levelo://app?vid=1d63a175-89ef-49ff-9ead-dfe9ed6c22cf"},"vehicle_type_id":"4","last_reported":1740046200,"current_range_meters":8800,"station_id":"","pricing_plan_id":"cebpf4jnsgd1na2vs0mg"},{"bike_id":"24dd12c1-4d8a-40c0-b521-a98d2d462c41","system_id":"levelo_inurba_marseille","lat":43.24167,"lon":5.36402,"is_reserved":false,"is_disabled":false,"rental_uris":{"android":"levelo://app?vid=24dd12c1-4d8a-40c0-b521-a98d2d462c41","ios":"levelo://app?vid=24dd12c1-4d8a-40c0-b521-a98d2d462c41"},"vehicle_type_id":"4","last_reported":1740046200,"current_range_meters":8800,"station_id":"","pricing_plan_id":"cebpf4jnsgd1na2vs0mg"},{"bike_id":"ac964e7d-9745-416a-ad27-2f9e3502422e","system_id":"levelo_inurba_marseille","lat":43.28274,"lon":5.35075,"is_reserved":false,"is_disabled":false,"rental_uris":{"android":"levelo://app?vid=ac964e7d-9745-416a-ad27-2f9e3502422e","ios":"levelo://app?vid=ac964e7d-9745-416a-ad27-2f9e3502422e"},"vehicle_type_id":"4","last_reported":1740046200,"current_range_meters":8800,"station_id":"ce4bhbp2rcd13ifvqerg","pricing_plan_id":"cebpf4jnsgd1na2vs0mg"},{"bike_id":"b64778c2-2434-4409-b125-e965a1fd469a","system_id":"levelo_inurba_marseille","lat":43.30344,"lon":5.36705,"is_reserved":false,"is_disabled":false,"rental_uris":{"android":"levelo://app?vid=b64778c2-2434-4409-b125-e965a1fd469a","ios":"levelo://app?vid=b64778c2-2434-4409-b125-e965a1fd469a"},"vehicle_type_id":"4","last_reported":1740046200,"current_range_meters":8800,"station_id":"ce4bgs12rcd13ifvqcag","pricing_plan_id":"cebpf4jnsgd1na2vs0mg"},{"bike_id":"10afcda3-df49-4d6f-93d8-fc41b94484e4","system_id":"levelo_inurba_marseille","lat":43.29307,"lon":5.37451,"is_reserved":false,"is_disabled":false,"rental_uris":{"android":"levelo://app?vid=10afcda3-df49-4d6f-93d8-fc41b94484e4","ios":"levelo://app?vid=10afcda3-df49-4d6f-93d8-fc41b94484e4"},"vehicle_type_id":"4","last_reported":1740046200,"current_range_meters":9200,"station_id":"ce4bgi12rcd13ifvqb70","pricing_plan_id":"cebpf4jnsgd1na2vs0mg"},{"bike_id":"c323e2ff-640f-47b0-bbfe-fac4271a621c","system_id":"levelo_inurba_marseille","lat":43.28426,"lon":5.34979,"is_reserved":false,"is_disabled":true,"rental_uris":{"android":"levelo://app?vid=c323e2ff-640f-47b0-bbfe-fac4271a621c","ios":"levelo://app?vid=c323e2ff-640f-47b0-bbfe-fac4271a621c"},"vehicle_type_id":"4","last_reported":1740046200,"current_range_meters":9200,"station_id":"ce4bhbh2rcd13ifvqepg","pricing_plan_id":"cebpf4jnsgd1na2vs0mg"},{"bike_id":"a122b5e2-4273-4e35-ac0e-e74db87cc621","system_id":"levelo_inurba_marseille","lat":43.26947,"lon":5.38638,"is_reserved":false,"is_disabled":false,"rental_uris":{"android":"levelo://app?vid=a122b5e2-4273-4e35-ac0e-e74db87cc621","ios":"levelo://app?vid=a122b5e2-4273-4e35-ac0e-e74db87cc621"},"vehicle_type_id":"4","last_reported":1740046200,"current_range_meters":9200,"station_id":"ce4bhh92rcd13ifvqfh0","pricing_plan_id":"cebpf4jnsgd1na2vs0mg"},{"bike_id":"a00fb5cd-e0d2-4f96-befb-5275c0df0c87","system_id":"levelo_inurba_marseille","lat":43.27994,"lon":5.41671,"is_reserved":false,"is_disabled":false,"rental_uris":{"android":"levelo://app?vid=a00fb5cd-e0d2-4f96-befb-5275c0df0c87","ios":"levelo://app?vid=a00fb5cd-e0d2-4f96-befb-5275c0df0c87"},"vehicle_type_id":"4","last_reported":1740046200,"current_range_meters":9200,"station_id":"ce4bho12rcd13ifvqh1g","pricing_plan_id":"cebpf4jnsgd1na2vs0mg"},{"bike_id":"3ac33557-5c04-4150-8108-716332961fa7","system_id":"levelo_inurba_marseille","lat":43.29634,"lon":5.40601,"is_reserved":false,"is_disabled":false,"rental_uris":{"android":"levelo://app?vid=3ac33557-5c04-4150-8108-716332961fa7","ios":"levelo://app?vid=3ac33557-5c04-4150-8108-716332961fa7"},"vehicle_type_id":"4","last_reported":1740046200,"current_range_meters":9200,"station_id":"","pricing_plan_id":"cebpf4jnsgd1na2vs0mg"},{"bike_id":"e1635589-a58b-4a69-a272-7bcd776fbb53","system_id":"levelo_inurba_marseille","lat":43.25933,"lon":5.40869,"is_reserved":false,"is_disabled":false,"rental_uris":{"android":"levelo://app?vid=e1635589-a58b-4a69-a272-7bcd776fbb53","ios":"levelo://app?vid=e1635589-a58b-4a69-a272-7bcd776fbb53"},"vehicle_type_id":"4","last_reported":1740046200,"current_range_meters":9200,"station_id":"ce4bhm92rcd13ifvqglg","pricing_plan_id":"cebpf4jnsgd1na2vs0mg"},{"bike_id":"fc971b16-bef3-4b6d-813c-ffc8ffa48842","system_id":"levelo_inurba_marseille","lat":43.2841,"lon":5.34986,"is_reserved":false,"is_disabled":true,"rental_uris":{"android":"levelo://app?vid=fc971b16-bef3-4b6d-813c-ffc8ffa48842","ios":"levelo://app?vid=fc971b16-bef3-4b6d-813c-ffc8ffa48842"},"vehicle_type_id":"4","last_reported":1740046200,"current_range_meters":9200,"station_id":"","pricing_plan_id":"cebpf4jnsgd1na2vs0mg"},{"bike_id":"3629dd72-60a0-492c-b6d9-2f018585778b","system_id":"levelo_inurba_marseille","lat":43.30919,"lon":5.36841,"is_reserved":false,"is_disabled":false,"rental_uris":{"android":"levelo://app?vid=3629dd72-60a0-492c-b6d9-2f018585778b","ios":"levelo://app?vid=3629dd72-60a0-492c-b6d9-2f018585778b"},"vehicle_type_id":"4","last_reported":1740046200,"current_range_meters":9200,"station_id":"ce4bgn92rcd13ifvqbvg","pricing_plan_id":"cebpf4jnsgd1na2vs0mg"},{"bike_id":"104b15c6-bf74-407c-9a34-de8a1be58e4f","system_id":"levelo_inurba_marseille","lat":43.29203,"lon":5.37306,"is_reserved":false,"is_disabled":false,"rental_uris":{"android":"levelo://app?vid=104b15c6-bf74-407c-9a34-de8a1be58e4f","ios":"levelo://app?vid=104b15c6-bf74-407c-9a34-de8a1be58e4f"},"vehicle_type_id":"4","last_reported":1740046200,"current_range_meters":9200,"station_id":"","pricing_plan_id":"cebpf4jnsgd1na2vs0mg"},{"bike_id":"cb6443a8-2a47-4173-ad88-a2a7deea94f2","system_id":"levelo_inurba_marseille","lat":43.30951,"lon":5.39033,"is_reserved":false,"is_disabled":false,"rental_uris":{"android":"levelo://app?vid=cb6443a8-2a47-4173-ad88-a2a7deea94f2","ios":"levelo://app?vid=cb6443a8-2a47-4173-ad88-a2a7deea94f2"},"vehicle_type_id":"4","last_reported":1740046200,"current_range_meters":9200,"station_id":"ce4bgup2rcd13ifvqco0","pricing_plan_id":"cebpf4jnsgd1na2vs0mg"},{"bike_id":"a28176b8-1339-451e-af85-58c9a25aef29","system_id":"levelo_inurba_marseille","lat":43.23157,"lon":5.43709,"is_reserved":false,"is_disabled":false,"rental_uris":{"android":"levelo://app?vid=a28176b8-1339-451e-af85-58c9a25aef29","ios":"levelo://app?vid=a28176b8-1339-451e-af85-58c9a25aef29"},"vehicle_type_id":"4","last_reported":1740046200,"current_range_meters":9200,"station_id":"ce4bhmp2rcd13ifvqgog","pricing_plan_id":"cebpf4jnsgd1na2vs0mg"},{"bike_id":"5180f318-4948-4085-aaf1-5f3160b57dbe","system_id":"levelo_inurba_marseille","lat":43.27605,"lon":5.36124,"is_reserved":false,"is_disabled":true,"rental_uris":{"android":"levelo://app?vid=5180f318-4948-4085-aaf1-5f3160b57dbe","ios":"levelo://app?vid=5180f318-4948-4085-aaf1-5f3160b57dbe"},"vehicle_type_id":"4","last_reported":1740046200,"current_range_meters":9200,"station_id":"","pricing_plan_id":"cebpf4jnsgd1na2vs0mg"},{"bike_id":"26779595-c177-40e8-a988-d5570ab1009d","system_id":"levelo_inurba_marseille","lat":43.292,"lon":5.39787,"is_reserved":false,"is_disabled":false,"rental_uris":{"android":"levelo://app?vid=26779595-c177-40e8-a988-d5570ab1009d","ios":"levelo://app?vid=26779595-c177-40e8-a988-d5570ab1009d"},"vehicle_type_id":"4","last_reported":1740046200,"current_range_meters":9600,"station_id":"","pricing_plan_id":"cebpf4jnsgd1na2vs0mg"},{"bike_id":"ce79c29d-03d0-463f-91e0-bab6f041e5d3","system_id":"levelo_inurba_marseille","lat":43.30131,"lon":5.39867,"is_reserved":false,"is_disabled":false,"rental_uris":{"android":"levelo://app?vid=ce79c29d-03d0-463f-91e0-bab6f041e5d3","ios":"levelo://app?vid=ce79c29d-03d0-463f-91e0-bab6f041e5d3"},"vehicle_type_id":"4","last_reported":1740046200,"current_range_meters":9600,"station_id":"ce4bh0h2rcd13ifvqd40","pricing_plan_id":"cebpf4jnsgd1na2vs0mg"},{"bike_id":"d893b6ba-f71e-4882-855e-69bef51ee901","system_id":"levelo_inurba_marseille","lat":43.31235,"lon":5.36876,"is_reserved":false,"is_disabled":false,"rental_uris":{"android":"levelo://app?vid=d893b6ba-f71e-4882-855e-69bef51ee901","ios":"levelo://app?vid=d893b6ba-f71e-4882-855e-69bef51ee901"},"vehicle_type_id":"4","last_reported":1740046200,"current_range_meters":9600,"station_id":"ce4bgl92rcd13ifvqbq0","pricing_plan_id":"cebpf4jnsgd1na2vs0mg"},{"bike_id":"5108bbca-35db-4b4d-ac9d-18ce49b4cc20","system_id":"levelo_inurba_marseille","lat":43.3096,"lon":5.3903,"is_reserved":false,"is_disabled":false,"rental_uris":{"android":"levelo://app?vid=5108bbca-35db-4b4d-ac9d-18ce49b4cc20","ios":"levelo://app?vid=5108bbca-35db-4b4d-ac9d-18ce49b4cc20"},"vehicle_type_id":"4","last_reported":1740046200,"current_range_meters":10000,"station_id":"ce4bgup2rcd13ifvqco0","pricing_plan_id":"cebpf4jnsgd1na2vs0mg"},{"bike_id":"9a2c3145-a983-4aeb-b589-cb5be4b8f13e","system_id":"levelo_inurba_marseille","lat":43.29633,"lon":5.406,"is_reserved":false,"is_disabled":false,"rental_uris":{"android":"levelo://app?vid=9a2c3145-a983-4aeb-b589-cb5be4b8f13e","ios":"levelo://app?vid=9a2c3145-a983-4aeb-b589-cb5be4b8f13e"},"vehicle_type_id":"4","last_reported":1740046200,"current_range_meters":10000,"station_id":"ce4bh0h2rcd13ifvqd60","pricing_plan_id":"cebpf4jnsgd1na2vs0mg"},{"bike_id":"0686e433-82b6-4ced-b364-39b66b6a0983","system_id":"levelo_inurba_marseille","lat":43.255799,"lon":5.382359,"is_reserved":false,"is_disabled":false,"rental_uris":{"android":"levelo://app?vid=0686e433-82b6-4ced-b364-39b66b6a0983","ios":"levelo://app?vid=0686e433-82b6-4ced-b364-39b66b6a0983"},"vehicle_type_id":"4","last_reported":1740046200,"current_range_meters":10000,"station_id":"ce4bhih2rcd13ifvqfs0","pricing_plan_id":"cebpf4jnsgd1na2vs0mg"},{"bike_id":"413d26c4-5810-4491-89d1-4b1bc7d56d99","system_id":"levelo_inurba_marseille","lat":43.23181,"lon":5.39986,"is_reserved":false,"is_disabled":false,"rental_uris":{"android":"levelo://app?vid=413d26c4-5810-4491-89d1-4b1bc7d56d99","ios":"levelo://app?vid=413d26c4-5810-4491-89d1-4b1bc7d56d99"},"vehicle_type_id":"4","last_reported":1740046200,"current_range_meters":10000,"station_id":"ce4bhn12rcd13ifvqgqg","pricing_plan_id":"cebpf4jnsgd1na2vs0mg"},{"bike_id":"b6586213-ba47-4e69-b693-a95a3434404c","system_id":"levelo_inurba_marseille","lat":43.29279,"lon":5.40132,"is_reserved":false,"is_disabled":false,"rental_uris":{"android":"levelo://app?vid=b6586213-ba47-4e69-b693-a95a3434404c","ios":"levelo://app?vid=b6586213-ba47-4e69-b693-a95a3434404c"},"vehicle_type_id":"4","last_reported":1740046200,"current_range_meters":10000,"station_id":"ce4bh312rcd13ifvqdk0","pricing_plan_id":"cebpf4jnsgd1na2vs0mg"},{"bike_id":"46e9f51e-b9ef-4a2b-b954-42af97c9998e","system_id":"levelo_inurba_marseille","lat":43.31702,"lon":5.43698,"is_reserved":false,"is_disabled":false,"rental_uris":{"android":"levelo://app?vid=46e9f51e-b9ef-4a2b-b954-42af97c9998e","ios":"levelo://app?vid=46e9f51e-b9ef-4a2b-b954-42af97c9998e"},"vehicle_type_id":"4","last_reported":1740046200,"current_range_meters":10000,"station_id":"","pricing_plan_id":"cebpf4jnsgd1na2vs0mg"},{"bike_id":"14a19a82-5fbd-4903-98ba-5500288ba98b","system_id":"levelo_inurba_marseille","lat":43.29041,"lon":5.39967,"is_reserved":false,"is_disabled":false,"rental_uris":{"android":"levelo://app?vid=14a19a82-5fbd-4903-98ba-5500288ba98b","ios":"levelo://app?vid=14a19a82-5fbd-4903-98ba-5500288ba98b"},"vehicle_type_id":"4","last_reported":1740046200,"current_range_meters":10000,"station_id":"ce4bh392rcd13ifvqdm0","pricing_plan_id":"cebpf4jnsgd1na2vs0mg"},{"bike_id":"eba50720-a671-4088-b031-90623f6fb726","system_id":"levelo_inurba_marseille","lat":43.31685,"lon":5.40475,"is_reserved":false,"is_disabled":false,"rental_uris":{"android":"levelo://app?vid=eba50720-a671-4088-b031-90623f6fb726","ios":"levelo://app?vid=eba50720-a671-4088-b031-90623f6fb726"},"vehicle_type_id":"4","last_reported":1740046200,"current_range_meters":10000,"station_id":"ce4bh012rcd13ifvqd00","pricing_plan_id":"cebpf4jnsgd1na2vs0mg"},{"bike_id":"ad5bfadb-7e42-4df3-87c9-982f252de69f","system_id":"levelo_inurba_marseille","lat":43.31368,"lon":5.36724,"is_reserved":false,"is_disabled":false,"rental_uris":{"android":"levelo://app?vid=ad5bfadb-7e42-4df3-87c9-982f252de69f","ios":"levelo://app?vid=ad5bfadb-7e42-4df3-87c9-982f252de69f"},"vehicle_type_id":"4","last_reported":1740046200,"current_range_meters":10000,"station_id":"","pricing_plan_id":"cebpf4jnsgd1na2vs0mg"},{"bike_id":"058213af-b61b-486b-8e0a-0a8fd78595de","system_id":"levelo_inurba_marseille","lat":43.25063,"lon":5.3949,"is_reserved":false,"is_disabled":false,"rental_uris":{"android":"levelo://app?vid=058213af-b61b-486b-8e0a-0a8fd78595de","ios":"levelo://app?vid=058213af-b61b-486b-8e0a-0a8fd78595de"},"vehicle_type_id":"4","last_reported":1740046200,"current_range_meters":10000,"station_id":"ce4bhm12rcd13ifvqgkg","pricing_plan_id":"cebpf4jnsgd1na2vs0mg"},{"bike_id":"5428c4a6-2268-45c5-aff9-a5f8e308d92b","system_id":"levelo_inurba_marseille","lat":43.30933,"lon":5.37312,"is_reserved":false,"is_disabled":false,"rental_uris":{"android":"levelo://app?vid=5428c4a6-2268-45c5-aff9-a5f8e308d92b","ios":"levelo://app?vid=5428c4a6-2268-45c5-aff9-a5f8e308d92b"},"vehicle_type_id":"4","last_reported":1740046200,"current_range_meters":10800,"station_id":"ce4bguh2rcd13ifvqckg","pricing_plan_id":"cebpf4jnsgd1na2vs0mg"},{"bike_id":"5f9ede52-c720-4107-a864-980fb2608395","system_id":"levelo_inurba_marseille","lat":43.24087,"lon":5.3866,"is_reserved":false,"is_disabled":false,"rental_uris":{"android":"levelo://app?vid=5f9ede52-c720-4107-a864-980fb2608395","ios":"levelo://app?vid=5f9ede52-c720-4107-a864-980fb2608395"},"vehicle_type_id":"4","last_reported":1740046200,"current_range_meters":10800,"station_id":"ce4bhb92rcd13ifvqen0","pricing_plan_id":"cebpf4jnsgd1na2vs0mg"},{"bike_id":"358f76ea-f584-4219-958b-460c0bb32bf7","system_id":"levelo_inurba_marseille","lat":43.31351,"lon":5.38503,"is_reserved":false,"is_disabled":false,"rental_uris":{"android":"levelo://app?vid=358f76ea-f584-4219-958b-460c0bb32bf7","ios":"levelo://app?vid=358f76ea-f584-4219-958b-460c0bb32bf7"},"vehicle_type_id":"4","last_reported":1740046200,"current_range_meters":10800,"station_id":"ce4bgt92rcd13ifvqcf0","pricing_plan_id":"cebpf4jnsgd1na2vs0mg"},{"bike_id":"4da6cc22-4d46-4a7c-8914-7b17d72dd95a","system_id":"levelo_inurba_marseille","lat":43.27175,"lon":5.4099,"is_reserved":false,"is_disabled":false,"rental_uris":{"android":"levelo://app?vid=4da6cc22-4d46-4a7c-8914-7b17d72dd95a","ios":"levelo://app?vid=4da6cc22-4d46-4a7c-8914-7b17d72dd95a"},"vehicle_type_id":"4","last_reported":1740046200,"current_range_meters":11200,"station_id":"ce4bhl12rcd13ifvqgf0","pricing_plan_id":"cebpf4jnsgd1na2vs0mg"},{"bike_id":"ba379239-9216-4e46-a96c-a73988d910ff","system_id":"levelo_inurba_marseille","lat":43.26491,"lon":5.37152,"is_reserved":false,"is_disabled":false,"rental_uris":{"android":"levelo://app?vid=ba379239-9216-4e46-a96c-a73988d910ff","ios":"levelo://app?vid=ba379239-9216-4e46-a96c-a73988d910ff"},"vehicle_type_id":"4","last_reported":1740046200,"current_range_meters":11600,"station_id":"","pricing_plan_id":"cebpf4jnsgd1na2vs0mg"},{"bike_id":"6a7343ae-6f4c-427b-a7a9-6e5fc8dfa867","system_id":"levelo_inurba_marseille","lat":43.285,"lon":5.38418,"is_reserved":false,"is_disabled":false,"rental_uris":{"android":"levelo://app?vid=6a7343ae-6f4c-427b-a7a9-6e5fc8dfa867","ios":"levelo://app?vid=6a7343ae-6f4c-427b-a7a9-6e5fc8dfa867"},"vehicle_type_id":"4","last_reported":1740046200,"current_range_meters":11600,"station_id":"ce4bh512rcd13ifvqe3g","pricing_plan_id":"cebpf4jnsgd1na2vs0mg"},{"bike_id":"7b19744e-f24f-4b7d-94e9-2a8fd4a78d0d","system_id":"levelo_inurba_marseille","lat":43.232,"lon":5.35579,"is_reserved":false,"is_disabled":false,"rental_uris":{"android":"levelo://app?vid=7b19744e-f24f-4b7d-94e9-2a8fd4a78d0d","ios":"levelo://app?vid=7b19744e-f24f-4b7d-94e9-2a8fd4a78d0d"},"vehicle_type_id":"4","last_reported":1740046200,"current_range_meters":11600,"station_id":"","pricing_plan_id":"cebpf4jnsgd1na2vs0mg"},{"bike_id":"bd607a26-c29e-4a86-825e-6db9b6184332","system_id":"levelo_inurba_marseille","lat":43.30131,"lon":5.39867,"is_reserved":false,"is_disabled":false,"rental_uris":{"android":"levelo://app?vid=bd607a26-c29e-4a86-825e-6db9b6184332","ios":"levelo://app?vid=bd607a26-c29e-4a86-825e-6db9b6184332"},"vehicle_type_id":"4","last_reported":1740046200,"current_range_meters":11600,"station_id":"ce4bh0h2rcd13ifvqd40","pricing_plan_id":"cebpf4jnsgd1na2vs0mg"},{"bike_id":"4424e023-eb2a-4b42-9333-d5977c05c931","system_id":"levelo_inurba_marseille","lat":43.29055,"lon":5.39966,"is_reserved":false,"is_disabled":false,"rental_uris":{"android":"levelo://app?vid=4424e023-eb2a-4b42-9333-d5977c05c931","ios":"levelo://app?vid=4424e023-eb2a-4b42-9333-d5977c05c931"},"vehicle_type_id":"4","last_reported":1740046200,"current_range_meters":12000,"station_id":"","pricing_plan_id":"cebpf4jnsgd1na2vs0mg"},{"bike_id":"098b43f8-436c-42a4-bdc1-a472edc8e1f2","system_id":"levelo_inurba_marseille","lat":43.268,"lon":5.40266,"is_reserved":false,"is_disabled":false,"rental_uris":{"android":"levelo://app?vid=098b43f8-436c-42a4-bdc1-a472edc8e1f2","ios":"levelo://app?vid=098b43f8-436c-42a4-bdc1-a472edc8e1f2"},"vehicle_type_id":"4","last_reported":1740046200,"current_range_meters":12000,"station_id":"ce501612rcd8frsf0b60","pricing_plan_id":"cebpf4jnsgd1na2vs0mg"},{"bike_id":"6917f2f6-d38e-47f7-9e8c-2e259c5b5906","system_id":"levelo_inurba_marseille","lat":43.29696,"lon":5.36577,"is_reserved":false,"is_disabled":false,"rental_uris":{"android":"levelo://app?vid=6917f2f6-d38e-47f7-9e8c-2e259c5b5906","ios":"levelo://app?vid=6917f2f6-d38e-47f7-9e8c-2e259c5b5906"},"vehicle_type_id":"4","last_reported":1740046200,"current_range_meters":11600,"station_id":"ce4bgn12rcd13ifvqbt0","pricing_plan_id":"cebpf4jnsgd1na2vs0mg"},{"bike_id":"3904da9c-2370-4925-9477-a21507c064ce","system_id":"levelo_inurba_marseille","lat":43.23964,"lon":5.36639,"is_reserved":false,"is_disabled":false,"rental_uris":{"android":"levelo://app?vid=3904da9c-2370-4925-9477-a21507c064ce","ios":"levelo://app?vid=3904da9c-2370-4925-9477-a21507c064ce"},"vehicle_type_id":"4","last_reported":1740046200,"current_range_meters":12000,"station_id":"ce4bhi12rcd13ifvqfp0","pricing_plan_id":"cebpf4jnsgd1na2vs0mg"},{"bike_id":"6daef2fe-f46b-43eb-8762-6b7b80d381dc","system_id":"levelo_inurba_marseille","lat":43.29056,"lon":5.39961,"is_reserved":false,"is_disabled":false,"rental_uris":{"android":"levelo://app?vid=6daef2fe-f46b-43eb-8762-6b7b80d381dc","ios":"levelo://app?vid=6daef2fe-f46b-43eb-8762-6b7b80d381dc"},"vehicle_type_id":"4","last_reported":1740046200,"current_range_meters":12000,"station_id":"","pricing_plan_id":"cebpf4jnsgd1na2vs0mg"},{"bike_id":"442907d6-e72d-4497-b8ca-78edad228531","system_id":"levelo_inurba_marseille","lat":43.28364,"lon":5.38631,"is_reserved":false,"is_disabled":false,"rental_uris":{"android":"levelo://app?vid=442907d6-e72d-4497-b8ca-78edad228531","ios":"levelo://app?vid=442907d6-e72d-4497-b8ca-78edad228531"},"vehicle_type_id":"4","last_reported":1740046200,"current_range_meters":12000,"station_id":"ce4bh492rcd13ifvqdvg","pricing_plan_id":"cebpf4jnsgd1na2vs0mg"},{"bike_id":"aa2ab2ac-9b04-4dec-819d-c81f4e3ecf31","system_id":"levelo_inurba_marseille","lat":43.29271,"lon":5.36856,"is_reserved":false,"is_disabled":false,"rental_uris":{"android":"levelo://app?vid=aa2ab2ac-9b04-4dec-819d-c81f4e3ecf31","ios":"levelo://app?vid=aa2ab2ac-9b04-4dec-819d-c81f4e3ecf31"},"vehicle_type_id":"4","last_reported":1740046200,"current_range_meters":12400,"station_id":"ce4bhbp2rcd13ifvqesg","pricing_plan_id":"cebpf4jnsgd1na2vs0mg"},{"bike_id":"960dd452-f279-4afe-bf1f-d99ebaf5879b","system_id":"levelo_inurba_marseille","lat":43.28,"lon":5.40014,"is_reserved":false,"is_disabled":false,"rental_uris":{"android":"levelo://app?vid=960dd452-f279-4afe-bf1f-d99ebaf5879b","ios":"levelo://app?vid=960dd452-f279-4afe-bf1f-d99ebaf5879b"},"vehicle_type_id":"4","last_reported":1740046200,"current_range_meters":12000,"station_id":"ce4bho92rcd13ifvqh4g","pricing_plan_id":"cebpf4jnsgd1na2vs0mg"},{"bike_id":"6736d919-6b94-4636-9dc7-6414ff53170d","system_id":"levelo_inurba_marseille","lat":43.29841,"lon":5.36268,"is_reserved":false,"is_disabled":false,"rental_uris":{"android":"levelo://app?vid=6736d919-6b94-4636-9dc7-6414ff53170d","ios":"levelo://app?vid=6736d919-6b94-4636-9dc7-6414ff53170d"},"vehicle_type_id":"4","last_reported":1740046200,"current_range_meters":12400,"station_id":"ce4bgpp2rcd13ifvqc3g","pricing_plan_id":"cebpf4jnsgd1na2vs0mg"},{"bike_id":"7bda0a6f-124d-4f3c-a904-08570f493cd4","system_id":"levelo_inurba_marseille","lat":43.30173,"lon":5.37417,"is_reserved":false,"is_disabled":false,"rental_uris":{"android":"levelo://app?vid=7bda0a6f-124d-4f3c-a904-08570f493cd4","ios":"levelo://app?vid=7bda0a6f-124d-4f3c-a904-08570f493cd4"},"vehicle_type_id":"4","last_reported":1740046200,"current_range_meters":12400,"station_id":"ce4bgs92rcd13ifvqcc0","pricing_plan_id":"cebpf4jnsgd1na2vs0mg"},{"bike_id":"3ebc1cd9-4c66-4f45-b886-8b491b059d05","system_id":"levelo_inurba_marseille","lat":43.2985,"lon":5.38359,"is_reserved":false,"is_disabled":false,"rental_uris":{"android":"levelo://app?vid=3ebc1cd9-4c66-4f45-b886-8b491b059d05","ios":"levelo://app?vid=3ebc1cd9-4c66-4f45-b886-8b491b059d05"},"vehicle_type_id":"4","last_reported":1740046200,"current_range_meters":12800,"station_id":"","pricing_plan_id":"cebpf4jnsgd1na2vs0mg"},{"bike_id":"713aa691-dcfa-4d18-86e5-ba295c6d53b5","system_id":"levelo_inurba_marseille","lat":43.31189,"lon":5.36837,"is_reserved":false,"is_disabled":false,"rental_uris":{"android":"levelo://app?vid=713aa691-dcfa-4d18-86e5-ba295c6d53b5","ios":"levelo://app?vid=713aa691-dcfa-4d18-86e5-ba295c6d53b5"},"vehicle_type_id":"4","last_reported":1740046200,"current_range_meters":12800,"station_id":"ce4bgl92rcd13ifvqbq0","pricing_plan_id":"cebpf4jnsgd1na2vs0mg"},{"bike_id":"02294ecb-63f1-466c-86e6-f94378485dff","system_id":"levelo_inurba_marseille","lat":43.2816,"lon":5.42648,"is_reserved":false,"is_disabled":true,"rental_uris":{"android":"levelo://app?vid=02294ecb-63f1-466c-86e6-f94378485dff","ios":"levelo://app?vid=02294ecb-63f1-466c-86e6-f94378485dff"},"vehicle_type_id":"4","last_reported":1740046200,"current_range_meters":12800,"station_id":"ce4bhnh2rcd13ifvqgug","pricing_plan_id":"cebpf4jnsgd1na2vs0mg"},{"bike_id":"987de0c2-b9bd-4bef-ba52-5ce350e4cb1b","system_id":"levelo_inurba_marseille","lat":43.27979,"lon":5.41646,"is_reserved":false,"is_disabled":false,"rental_uris":{"android":"levelo://app?vid=987de0c2-b9bd-4bef-ba52-5ce350e4cb1b","ios":"levelo://app?vid=987de0c2-b9bd-4bef-ba52-5ce350e4cb1b"},"vehicle_type_id":"4","last_reported":1740046200,"current_range_meters":12800,"station_id":"ce4bho12rcd13ifvqh1g","pricing_plan_id":"cebpf4jnsgd1na2vs0mg"},{"bike_id":"635050f9-a2c9-4910-8267-ff5a32e2982d","system_id":"levelo_inurba_marseille","lat":43.24827,"lon":5.37467,"is_reserved":false,"is_disabled":false,"rental_uris":{"android":"levelo://app?vid=635050f9-a2c9-4910-8267-ff5a32e2982d","ios":"levelo://app?vid=635050f9-a2c9-4910-8267-ff5a32e2982d"},"vehicle_type_id":"4","last_reported":1740046200,"current_range_meters":12800,"station_id":"ce4bhgh2rcd13ifvqfb0","pricing_plan_id":"cebpf4jnsgd1na2vs0mg"},{"bike_id":"fc18ab60-c9b0-46c3-b6ec-88f5f1d4cc4f","system_id":"levelo_inurba_marseille","lat":43.2718,"lon":5.40986,"is_reserved":false,"is_disabled":false,"rental_uris":{"android":"levelo://app?vid=fc18ab60-c9b0-46c3-b6ec-88f5f1d4cc4f","ios":"levelo://app?vid=fc18ab60-c9b0-46c3-b6ec-88f5f1d4cc4f"},"vehicle_type_id":"4","last_reported":1740046200,"current_range_meters":13600,"station_id":"ce4bhl12rcd13ifvqgf0","pricing_plan_id":"cebpf4jnsgd1na2vs0mg"},{"bike_id":"bfa1afdd-6221-4a91-82bd-d18819a67e02","system_id":"levelo_inurba_marseille","lat":43.244238,"lon":5.370237,"is_reserved":false,"is_disabled":false,"rental_uris":{"android":"levelo://app?vid=bfa1afdd-6221-4a91-82bd-d18819a67e02","ios":"levelo://app?vid=bfa1afdd-6221-4a91-82bd-d18819a67e02"},"vehicle_type_id":"4","last_reported":1740046200,"current_range_meters":13600,"station_id":"ce4bhnp2rcd13ifvqgvg","pricing_plan_id":"cebpf4jnsgd1na2vs0mg"},{"bike_id":"2b04ec38-6ab8-43ab-83bd-32f35e879348","system_id":"levelo_inurba_marseille","lat":43.25928,"lon":5.40889,"is_reserved":false,"is_disabled":false,"rental_uris":{"android":"levelo://app?vid=2b04ec38-6ab8-43ab-83bd-32f35e879348","ios":"levelo://app?vid=2b04ec38-6ab8-43ab-83bd-32f35e879348"},"vehicle_type_id":"4","last_reported":1740046200,"current_range_meters":13600,"station_id":"ce4bhm92rcd13ifvqglg","pricing_plan_id":"cebpf4jnsgd1na2vs0mg"},{"bike_id":"7d688d73-eadc-4a34-9ee6-b50914b525ad","system_id":"levelo_inurba_marseille","lat":43.27501,"lon":5.42454,"is_reserved":false,"is_disabled":false,"rental_uris":{"android":"levelo://app?vid=7d688d73-eadc-4a34-9ee6-b50914b525ad","ios":"levelo://app?vid=7d688d73-eadc-4a34-9ee6-b50914b525ad"},"vehicle_type_id":"4","last_reported":1740046200,"current_range_meters":13600,"station_id":"","pricing_plan_id":"cebpf4jnsgd1na2vs0mg"},{"bike_id":"ad47c7e9-f91e-4c76-a821-e7d2287689bf","system_id":"levelo_inurba_marseille","lat":43.27954,"lon":5.41046,"is_reserved":false,"is_disabled":false,"rental_uris":{"android":"levelo://app?vid=ad47c7e9-f91e-4c76-a821-e7d2287689bf","ios":"levelo://app?vid=ad47c7e9-f91e-4c76-a821-e7d2287689bf"},"vehicle_type_id":"4","last_reported":1740046200,"current_range_meters":13600,"station_id":"ce4bhnp2rcd13ifvqh0g","pricing_plan_id":"cebpf4jnsgd1na2vs0mg"},{"bike_id":"a1a2b460-b478-43af-913b-5e3f11e44138","system_id":"levelo_inurba_marseille","lat":43.27182,"lon":5.38285,"is_reserved":false,"is_disabled":false,"rental_uris":{"android":"levelo://app?vid=a1a2b460-b478-43af-913b-5e3f11e44138","ios":"levelo://app?vid=a1a2b460-b478-43af-913b-5e3f11e44138"},"vehicle_type_id":"4","last_reported":1740046200,"current_range_meters":13600,"station_id":"","pricing_plan_id":"cebpf4jnsgd1na2vs0mg"},{"bike_id":"a70af82e-abb1-4052-a908-3f6d7385acd1","system_id":"levelo_inurba_marseille","lat":43.28613,"lon":5.3707,"is_reserved":false,"is_disabled":false,"rental_uris":{"android":"levelo://app?vid=a70af82e-abb1-4052-a908-3f6d7385acd1","ios":"levelo://app?vid=a70af82e-abb1-4052-a908-3f6d7385acd1"},"vehicle_type_id":"4","last_reported":1740046200,"current_range_meters":13600,"station_id":"ce4bht12rcd13ifvqi60","pricing_plan_id":"cebpf4jnsgd1na2vs0mg"},{"bike_id":"d9102e21-6294-472e-8da2-16dfb746ec2b","system_id":"levelo_inurba_marseille","lat":43.28145,"lon":5.44579,"is_reserved":false,"is_disabled":false,"rental_uris":{"android":"levelo://app?vid=d9102e21-6294-472e-8da2-16dfb746ec2b","ios":"levelo://app?vid=d9102e21-6294-472e-8da2-16dfb746ec2b"},"vehicle_type_id":"4","last_reported":1740046200,"current_range_meters":13600,"station_id":"ce4bhnh2rcd13ifvqgtg","pricing_plan_id":"cebpf4jnsgd1na2vs0mg"},{"bike_id":"8becd64c-893d-4a08-8876-b1598e031c70","system_id":"levelo_inurba_marseille","lat":43.27963,"lon":5.38691,"is_reserved":false,"is_disabled":true,"rental_uris":{"android":"levelo://app?vid=8becd64c-893d-4a08-8876-b1598e031c70","ios":"levelo://app?vid=8becd64c-893d-4a08-8876-b1598e031c70"},"vehicle_type_id":"4","last_reported":1740046200,"current_range_meters":14000,"station_id":"","pricing_plan_id":"cebpf4jnsgd1na2vs0mg"},{"bike_id":"023ec72c-d164-42e6-a357-cee71b5b9a17","system_id":"levelo_inurba_marseille","lat":43.30307,"lon":5.36911,"is_reserved":false,"is_disabled":false,"rental_uris":{"android":"levelo://app?vid=023ec72c-d164-42e6-a357-cee71b5b9a17","ios":"levelo://app?vid=023ec72c-d164-42e6-a357-cee71b5b9a17"},"vehicle_type_id":"4","last_reported":1740046200,"current_range_meters":14000,"station_id":"ce4bgqh2rcd13ifvqc5g","pricing_plan_id":"cebpf4jnsgd1na2vs0mg"},{"bike_id":"b926ed70-f850-439a-bf5a-c2674c9063d1","system_id":"levelo_inurba_marseille","lat":43.29715,"lon":5.36609,"is_reserved":false,"is_disabled":false,"rental_uris":{"android":"levelo://app?vid=b926ed70-f850-439a-bf5a-c2674c9063d1","ios":"levelo://app?vid=b926ed70-f850-439a-bf5a-c2674c9063d1"},"vehicle_type_id":"4","last_reported":1740046200,"current_range_meters":14000,"station_id":"ce4bgn12rcd13ifvqbt0","pricing_plan_id":"cebpf4jnsgd1na2vs0mg"},{"bike_id":"c78ac6f3-5b0a-4e30-aeae-3d56a961b3f3","system_id":"levelo_inurba_marseille","lat":43.23197,"lon":5.3999,"is_reserved":false,"is_disabled":false,"rental_uris":{"android":"levelo://app?vid=c78ac6f3-5b0a-4e30-aeae-3d56a961b3f3","ios":"levelo://app?vid=c78ac6f3-5b0a-4e30-aeae-3d56a961b3f3"},"vehicle_type_id":"4","last_reported":1740046200,"current_range_meters":14000,"station_id":"ce4bhi12rcd13ifvqfo0","pricing_plan_id":"cebpf4jnsgd1na2vs0mg"},{"bike_id":"53324156-0b5f-4ee4-beb8-65d71f0308f4","system_id":"levelo_inurba_marseille","lat":43.26548,"lon":5.3901,"is_reserved":false,"is_disabled":false,"rental_uris":{"android":"levelo://app?vid=53324156-0b5f-4ee4-beb8-65d71f0308f4","ios":"levelo://app?vid=53324156-0b5f-4ee4-beb8-65d71f0308f4"},"vehicle_type_id":"4","last_reported":1740046200,"current_range_meters":14000,"station_id":"ce4bhe12rcd13ifvqf30","pricing_plan_id":"cebpf4jnsgd1na2vs0mg"},{"bike_id":"2b54095a-2cba-4bb2-8fcd-ddab9b372c19","system_id":"levelo_inurba_marseille","lat":43.30309,"lon":5.36907,"is_reserved":false,"is_disabled":false,"rental_uris":{"android":"levelo://app?vid=2b54095a-2cba-4bb2-8fcd-ddab9b372c19","ios":"levelo://app?vid=2b54095a-2cba-4bb2-8fcd-ddab9b372c19"},"vehicle_type_id":"4","last_reported":1740046200,"current_range_meters":14000,"station_id":"ce4bgqh2rcd13ifvqc5g","pricing_plan_id":"cebpf4jnsgd1na2vs0mg"},{"bike_id":"3bad0b07-fa7a-4cc7-9650-b1214bfaef19","system_id":"levelo_inurba_marseille","lat":43.28152,"lon":5.4264,"is_reserved":false,"is_disabled":false,"rental_uris":{"android":"levelo://app?vid=3bad0b07-fa7a-4cc7-9650-b1214bfaef19","ios":"levelo://app?vid=3bad0b07-fa7a-4cc7-9650-b1214bfaef19"},"vehicle_type_id":"4","last_reported":1740046200,"current_range_meters":14400,"station_id":"ce4bhnh2rcd13ifvqgug","pricing_plan_id":"cebpf4jnsgd1na2vs0mg"},{"bike_id":"875e4f18-60bc-4426-847f-49cea5ab5023","system_id":"levelo_inurba_marseille","lat":43.31155,"lon":5.38715,"is_reserved":false,"is_disabled":false,"rental_uris":{"android":"levelo://app?vid=875e4f18-60bc-4426-847f-49cea5ab5023","ios":"levelo://app?vid=875e4f18-60bc-4426-847f-49cea5ab5023"},"vehicle_type_id":"4","last_reported":1740046200,"current_range_meters":14400,"station_id":"ce4bgv12rcd13ifvqcp0","pricing_plan_id":"cebpf4jnsgd1na2vs0mg"},{"bike_id":"867e49ca-1fcf-4c4a-b641-c20eee771353","system_id":"levelo_inurba_marseille","lat":43.28155,"lon":5.42663,"is_reserved":false,"is_disabled":false,"rental_uris":{"android":"levelo://app?vid=867e49ca-1fcf-4c4a-b641-c20eee771353","ios":"levelo://app?vid=867e49ca-1fcf-4c4a-b641-c20eee771353"},"vehicle_type_id":"4","last_reported":1740046200,"current_range_meters":14400,"station_id":"","pricing_plan_id":"cebpf4jnsgd1na2vs0mg"},{"bike_id":"8c72fe47-fee2-4bfe-b59c-a15075913847","system_id":"levelo_inurba_marseille","lat":43.31686,"lon":5.40474,"is_reserved":false,"is_disabled":false,"rental_uris":{"android":"levelo://app?vid=8c72fe47-fee2-4bfe-b59c-a15075913847","ios":"levelo://app?vid=8c72fe47-fee2-4bfe-b59c-a15075913847"},"vehicle_type_id":"4","last_reported":1740046200,"current_range_meters":14400,"station_id":"ce4bh012rcd13ifvqd00","pricing_plan_id":"cebpf4jnsgd1na2vs0mg"},{"bike_id":"b56c254e-2e32-4982-9d5b-519268af0e8b","system_id":"levelo_inurba_marseille","lat":43.2971,"lon":5.36611,"is_reserved":false,"is_disabled":false,"rental_uris":{"android":"levelo://app?vid=b56c254e-2e32-4982-9d5b-519268af0e8b","ios":"levelo://app?vid=b56c254e-2e32-4982-9d5b-519268af0e8b"},"vehicle_type_id":"4","last_reported":1740046200,"current_range_meters":14400,"station_id":"ce4bgn12rcd13ifvqbt0","pricing_plan_id":"cebpf4jnsgd1na2vs0mg"},{"bike_id":"4be223db-6d37-41cb-a4f6-bc1db137e77a","system_id":"levelo_inurba_marseille","lat":43.29416,"lon":5.38613,"is_reserved":false,"is_disabled":true,"rental_uris":{"android":"levelo://app?vid=4be223db-6d37-41cb-a4f6-bc1db137e77a","ios":"levelo://app?vid=4be223db-6d37-41cb-a4f6-bc1db137e77a"},"vehicle_type_id":"4","last_reported":1740046200,"current_range_meters":14400,"station_id":"ce4bh2h2rcd13ifvqdh0","pricing_plan_id":"cebpf4jnsgd1na2vs0mg"},{"bike_id":"0f119bb9-42f5-484d-a273-90a601312646","system_id":"levelo_inurba_marseille","lat":43.27072,"lon":5.42302,"is_reserved":false,"is_disabled":false,"rental_uris":{"android":"levelo://app?vid=0f119bb9-42f5-484d-a273-90a601312646","ios":"levelo://app?vid=0f119bb9-42f5-484d-a273-90a601312646"},"vehicle_type_id":"4","last_reported":1740046200,"current_range_meters":14400,"station_id":"ce4bhk92rcd13ifvqgb0","pricing_plan_id":"cebpf4jnsgd1na2vs0mg"},{"bike_id":"35cdc792-a7d5-4315-be5b-8aec986c50f8","system_id":"levelo_inurba_marseille","lat":43.29572,"lon":5.3997,"is_reserved":false,"is_disabled":true,"rental_uris":{"android":"levelo://app?vid=35cdc792-a7d5-4315-be5b-8aec986c50f8","ios":"levelo://app?vid=35cdc792-a7d5-4315-be5b-8aec986c50f8"},"vehicle_type_id":"4","last_reported":1740046200,"current_range_meters":14800,"station_id":"ce4bh312rcd13ifvqdj0","pricing_plan_id":"cebpf4jnsgd1na2vs0mg"},{"bike_id":"378a21a7-b1ec-4051-850d-b470f3510d96","system_id":"levelo_inurba_marseille","lat":43.2681,"lon":5.40278,"is_reserved":false,"is_disabled":true,"rental_uris":{"android":"levelo://app?vid=378a21a7-b1ec-4051-850d-b470f3510d96","ios":"levelo://app?vid=378a21a7-b1ec-4051-850d-b470f3510d96"},"vehicle_type_id":"4","last_reported":1740046200,"current_range_meters":14800,"station_id":"","pricing_plan_id":"cebpf4jnsgd1na2vs0mg"},{"bike_id":"67ea0e18-feb9-4fc9-a5a2-d2b4008f796c","system_id":"levelo_inurba_marseille","lat":43.33611,"lon":5.40967,"is_reserved":false,"is_disabled":false,"rental_uris":{"android":"levelo://app?vid=67ea0e18-feb9-4fc9-a5a2-d2b4008f796c","ios":"levelo://app?vid=67ea0e18-feb9-4fc9-a5a2-d2b4008f796c"},"vehicle_type_id":"4","last_reported":1740046200,"current_range_meters":14800,"station_id":"ce4bhqh2rcd13ifvqhmg","pricing_plan_id":"cebpf4jnsgd1na2vs0mg"},{"bike_id":"3addd8d2-327f-4e60-8639-267e28d7c956","system_id":"levelo_inurba_marseille","lat":43.28664,"lon":5.38663,"is_reserved":false,"is_disabled":true,"rental_uris":{"android":"levelo://app?vid=3addd8d2-327f-4e60-8639-267e28d7c956","ios":"levelo://app?vid=3addd8d2-327f-4e60-8639-267e28d7c956"},"vehicle_type_id":"4","last_reported":1740046200,"current_range_meters":14800,"station_id":"","pricing_plan_id":"cebpf4jnsgd1na2vs0mg"},{"bike_id":"81192873-4d38-4061-82a0-70521ec3ade0","system_id":"levelo_inurba_marseille","lat":43.29413,"lon":5.38606,"is_reserved":false,"is_disabled":true,"rental_uris":{"android":"levelo://app?vid=81192873-4d38-4061-82a0-70521ec3ade0","ios":"levelo://app?vid=81192873-4d38-4061-82a0-70521ec3ade0"},"vehicle_type_id":"4","last_reported":1740046200,"current_range_meters":14800,"station_id":"","pricing_plan_id":"cebpf4jnsgd1na2vs0mg"},{"bike_id":"a510c1f8-0468-46de-bcdc-632a585330f0","system_id":"levelo_inurba_marseille","lat":43.30578,"lon":5.36661,"is_reserved":false,"is_disabled":false,"rental_uris":{"android":"levelo://app?vid=a510c1f8-0468-46de-bcdc-632a585330f0","ios":"levelo://app?vid=a510c1f8-0468-46de-bcdc-632a585330f0"},"vehicle_type_id":"4","last_reported":1740046200,"current_range_meters":15200,"station_id":"ce4bgrp2rcd13ifvqc9g","pricing_plan_id":"cebpf4jnsgd1na2vs0mg"},{"bike_id":"880db035-d816-4f09-bba2-d18cca2041cd","system_id":"levelo_inurba_marseille","lat":43.29543,"lon":5.37495,"is_reserved":false,"is_disabled":false,"rental_uris":{"android":"levelo://app?vid=880db035-d816-4f09-bba2-d18cca2041cd","ios":"levelo://app?vid=880db035-d816-4f09-bba2-d18cca2041cd"},"vehicle_type_id":"4","last_reported":1740046200,"current_range_meters":15200,"station_id":"ce4bgkp2rcd13ifvqbmg","pricing_plan_id":"cebpf4jnsgd1na2vs0mg"},{"bike_id":"dccea38a-2b0d-4e5a-bb39-bb2125673742","system_id":"levelo_inurba_marseille","lat":43.30099,"lon":5.39093,"is_reserved":false,"is_disabled":false,"rental_uris":{"android":"levelo://app?vid=dccea38a-2b0d-4e5a-bb39-bb2125673742","ios":"levelo://app?vid=dccea38a-2b0d-4e5a-bb39-bb2125673742"},"vehicle_type_id":"4","last_reported":1740046200,"current_range_meters":15200,"station_id":"","pricing_plan_id":"cebpf4jnsgd1na2vs0mg"},{"bike_id":"88a74b3e-f281-4fad-bc82-7b79a0f3b3ec","system_id":"levelo_inurba_marseille","lat":43.29031,"lon":5.38132,"is_reserved":false,"is_disabled":false,"rental_uris":{"android":"levelo://app?vid=88a74b3e-f281-4fad-bc82-7b79a0f3b3ec","ios":"levelo://app?vid=88a74b3e-f281-4fad-bc82-7b79a0f3b3ec"},"vehicle_type_id":"4","last_reported":1740046200,"current_range_meters":16000,"station_id":"ce4bh4p2rcd13ifvqe1g","pricing_plan_id":"cebpf4jnsgd1na2vs0mg"},{"bike_id":"fe85977b-a22e-4193-a152-c3144029e068","system_id":"levelo_inurba_marseille","lat":43.2396,"lon":5.36642,"is_reserved":false,"is_disabled":false,"rental_uris":{"android":"levelo://app?vid=fe85977b-a22e-4193-a152-c3144029e068","ios":"levelo://app?vid=fe85977b-a22e-4193-a152-c3144029e068"},"vehicle_type_id":"4","last_reported":1740046200,"current_range_meters":16000,"station_id":"ce4bhi12rcd13ifvqfp0","pricing_plan_id":"cebpf4jnsgd1na2vs0mg"},{"bike_id":"f5b4d1ee-d614-44d8-8c18-e4488c7555fa","system_id":"levelo_inurba_marseille","lat":43.24668,"lon":5.38162,"is_reserved":false,"is_disabled":false,"rental_uris":{"android":"levelo://app?vid=f5b4d1ee-d614-44d8-8c18-e4488c7555fa","ios":"levelo://app?vid=f5b4d1ee-d614-44d8-8c18-e4488c7555fa"},"vehicle_type_id":"4","last_reported":1740046200,"current_range_meters":16000,"station_id":"ce4bhih2rcd13ifvqfr0","pricing_plan_id":"cebpf4jnsgd1na2vs0mg"},{"bike_id":"2248a686-da6b-4ef8-880e-8db6a1c23aab","system_id":"levelo_inurba_marseille","lat":43.27381,"lon":5.36271,"is_reserved":false,"is_disabled":false,"rental_uris":{"android":"levelo://app?vid=2248a686-da6b-4ef8-880e-8db6a1c23aab","ios":"levelo://app?vid=2248a686-da6b-4ef8-880e-8db6a1c23aab"},"vehicle_type_id":"4","last_reported":1740046200,"current_range_meters":16000,"station_id":"","pricing_plan_id":"cebpf4jnsgd1na2vs0mg"},{"bike_id":"fe3ef0b3-d355-4619-97b7-652e880c3011","system_id":"levelo_inurba_marseille","lat":43.29305,"lon":5.37464,"is_reserved":false,"is_disabled":false,"rental_uris":{"android":"levelo://app?vid=fe3ef0b3-d355-4619-97b7-652e880c3011","ios":"levelo://app?vid=fe3ef0b3-d355-4619-97b7-652e880c3011"},"vehicle_type_id":"4","last_reported":1740046200,"current_range_meters":16000,"station_id":"ce4bgi12rcd13ifvqb70","pricing_plan_id":"cebpf4jnsgd1na2vs0mg"},{"bike_id":"e53b91c8-67fd-4f40-acea-7f7adf31cf25","system_id":"levelo_inurba_marseille","lat":43.29786,"lon":5.38113,"is_reserved":false,"is_disabled":false,"rental_uris":{"android":"levelo://app?vid=e53b91c8-67fd-4f40-acea-7f7adf31cf25","ios":"levelo://app?vid=e53b91c8-67fd-4f40-acea-7f7adf31cf25"},"vehicle_type_id":"4","last_reported":1740046200,"current_range_meters":16000,"station_id":"","pricing_plan_id":"cebpf4jnsgd1na2vs0mg"},{"bike_id":"ec9b79b6-b712-4a75-b45c-0b550587adf7","system_id":"levelo_inurba_marseille","lat":43.24655,"lon":5.38195,"is_reserved":false,"is_disabled":false,"rental_uris":{"android":"levelo://app?vid=ec9b79b6-b712-4a75-b45c-0b550587adf7","ios":"levelo://app?vid=ec9b79b6-b712-4a75-b45c-0b550587adf7"},"vehicle_type_id":"4","last_reported":1740046200,"current_range_meters":16000,"station_id":"","pricing_plan_id":"cebpf4jnsgd1na2vs0mg"},{"bike_id":"264f76d8-5221-4f90-8fd0-e3b407a67a5b","system_id":"levelo_inurba_marseille","lat":43.28271,"lon":5.35084,"is_reserved":false,"is_disabled":false,"rental_uris":{"android":"levelo://app?vid=264f76d8-5221-4f90-8fd0-e3b407a67a5b","ios":"levelo://app?vid=264f76d8-5221-4f90-8fd0-e3b407a67a5b"},"vehicle_type_id":"4","last_reported":1740046200,"current_range_meters":16400,"station_id":"ce4bhbp2rcd13ifvqerg","pricing_plan_id":"cebpf4jnsgd1na2vs0mg"},{"bike_id":"ce0caea6-6d1c-48ef-b0eb-fae6199eb4e1","system_id":"levelo_inurba_marseille","lat":43.23066,"lon":5.35508,"is_reserved":false,"is_disabled":false,"rental_uris":{"android":"levelo://app?vid=ce0caea6-6d1c-48ef-b0eb-fae6199eb4e1","ios":"levelo://app?vid=ce0caea6-6d1c-48ef-b0eb-fae6199eb4e1"},"vehicle_type_id":"4","last_reported":1740046200,"current_range_meters":16400,"station_id":"cpo3342slgdg3j2ifvpg","pricing_plan_id":"cebpf4jnsgd1na2vs0mg"},{"bike_id":"ea745138-460b-4e17-a859-b1506abe4ed3","system_id":"levelo_inurba_marseille","lat":43.30115,"lon":5.37416,"is_reserved":false,"is_disabled":false,"rental_uris":{"android":"levelo://app?vid=ea745138-460b-4e17-a859-b1506abe4ed3","ios":"levelo://app?vid=ea745138-460b-4e17-a859-b1506abe4ed3"},"vehicle_type_id":"4","last_reported":1740046200,"current_range_meters":16400,"station_id":"ce4bgs92rcd13ifvqcc0","pricing_plan_id":"cebpf4jnsgd1na2vs0mg"},{"bike_id":"03fc2b17-3715-4f1b-9bb0-576c4f7f726a","system_id":"levelo_inurba_marseille","lat":43.29054,"lon":5.39944,"is_reserved":false,"is_disabled":false,"rental_uris":{"android":"levelo://app?vid=03fc2b17-3715-4f1b-9bb0-576c4f7f726a","ios":"levelo://app?vid=03fc2b17-3715-4f1b-9bb0-576c4f7f726a"},"vehicle_type_id":"4","last_reported":1740046200,"current_range_meters":16400,"station_id":"","pricing_plan_id":"cebpf4jnsgd1na2vs0mg"},{"bike_id":"5a001ab7-5813-41f4-b1cb-bc211d4e2327","system_id":"levelo_inurba_marseille","lat":43.27998,"lon":5.40005,"is_reserved":false,"is_disabled":false,"rental_uris":{"android":"levelo://app?vid=5a001ab7-5813-41f4-b1cb-bc211d4e2327","ios":"levelo://app?vid=5a001ab7-5813-41f4-b1cb-bc211d4e2327"},"vehicle_type_id":"4","last_reported":1740046200,"current_range_meters":16400,"station_id":"ce4bho92rcd13ifvqh4g","pricing_plan_id":"cebpf4jnsgd1na2vs0mg"},{"bike_id":"848d49fb-2633-4838-b109-cf2840f0b843","system_id":"levelo_inurba_marseille","lat":43.290769,"lon":5.371513,"is_reserved":false,"is_disabled":false,"rental_uris":{"android":"levelo://app?vid=848d49fb-2633-4838-b109-cf2840f0b843","ios":"levelo://app?vid=848d49fb-2633-4838-b109-cf2840f0b843"},"vehicle_type_id":"4","last_reported":1740046200,"current_range_meters":16800,"station_id":"ce4bgr92rcd13ifvqc7g","pricing_plan_id":"cebpf4jnsgd1na2vs0mg"},{"bike_id":"2c410a23-5fc5-4040-b8b7-30814a2e0df0","system_id":"levelo_inurba_marseille","lat":43.3014,"lon":5.387806,"is_reserved":false,"is_disabled":false,"rental_uris":{"android":"levelo://app?vid=2c410a23-5fc5-4040-b8b7-30814a2e0df0","ios":"levelo://app?vid=2c410a23-5fc5-4040-b8b7-30814a2e0df0"},"vehicle_type_id":"4","last_reported":1740046200,"current_range_meters":16800,"station_id":"ce4bhoh2rcd13ifvqh6g","pricing_plan_id":"cebpf4jnsgd1na2vs0mg"},{"bike_id":"cefa9701-eeb4-49ec-a466-27d28e8d85ab","system_id":"levelo_inurba_marseille","lat":43.3079,"lon":5.3765,"is_reserved":false,"is_disabled":false,"rental_uris":{"android":"levelo://app?vid=cefa9701-eeb4-49ec-a466-27d28e8d85ab","ios":"levelo://app?vid=cefa9701-eeb4-49ec-a466-27d28e8d85ab"},"vehicle_type_id":"4","last_reported":1740046200,"current_range_meters":16400,"station_id":"ce4bgv92rcd13ifvqcq0","pricing_plan_id":"cebpf4jnsgd1na2vs0mg"},{"bike_id":"6106393f-3645-48aa-b132-3d2def6b4674","system_id":"levelo_inurba_marseille","lat":43.30449,"lon":5.3807,"is_reserved":false,"is_disabled":false,"rental_uris":{"android":"levelo://app?vid=6106393f-3645-48aa-b132-3d2def6b4674","ios":"levelo://app?vid=6106393f-3645-48aa-b132-3d2def6b4674"},"vehicle_type_id":"4","last_reported":1740046200,"current_range_meters":16800,"station_id":"ce4bgv92rcd13ifvqcq0","pricing_plan_id":"cebpf4jnsgd1na2vs0mg"},{"bike_id":"a09c6f41-ac63-4d7b-b531-090ecd408bf6","system_id":"levelo_inurba_marseille","lat":43.30893,"lon":5.36832,"is_reserved":false,"is_disabled":true,"rental_uris":{"android":"levelo://app?vid=a09c6f41-ac63-4d7b-b531-090ecd408bf6","ios":"levelo://app?vid=a09c6f41-ac63-4d7b-b531-090ecd408bf6"},"vehicle_type_id":"4","last_reported":1740046200,"current_range_meters":16800,"station_id":"ce4bgn92rcd13ifvqbvg","pricing_plan_id":"cebpf4jnsgd1na2vs0mg"},{"bike_id":"0c6dfc2a-5d46-4b56-a56c-62302e24179b","system_id":"levelo_inurba_marseille","lat":43.297082,"lon":5.376848,"is_reserved":false,"is_disabled":false,"rental_uris":{"android":"levelo://app?vid=0c6dfc2a-5d46-4b56-a56c-62302e24179b","ios":"levelo://app?vid=0c6dfc2a-5d46-4b56-a56c-62302e24179b"},"vehicle_type_id":"4","last_reported":1740046200,"current_range_meters":17200,"station_id":"ce4bgpp2rcd13ifvqc3g","pricing_plan_id":"cebpf4jnsgd1na2vs0mg"},{"bike_id":"b02d7f8e-9bf2-4203-bdc8-c6ce1c1079e7","system_id":"levelo_inurba_marseille","lat":43.23182,"lon":5.3999,"is_reserved":false,"is_disabled":false,"rental_uris":{"android":"levelo://app?vid=b02d7f8e-9bf2-4203-bdc8-c6ce1c1079e7","ios":"levelo://app?vid=b02d7f8e-9bf2-4203-bdc8-c6ce1c1079e7"},"vehicle_type_id":"4","last_reported":1740046200,"current_range_meters":17200,"station_id":"","pricing_plan_id":"cebpf4jnsgd1na2vs0mg"},{"bike_id":"0acb53c6-517f-4b0b-81a6-4e247c67e378","system_id":"levelo_inurba_marseille","lat":43.24162,"lon":5.3972,"is_reserved":false,"is_disabled":false,"rental_uris":{"android":"levelo://app?vid=0acb53c6-517f-4b0b-81a6-4e247c67e378","ios":"levelo://app?vid=0acb53c6-517f-4b0b-81a6-4e247c67e378"},"vehicle_type_id":"4","last_reported":1740046200,"current_range_meters":17200,"station_id":"ce4bhn12rcd13ifvqgpg","pricing_plan_id":"cebpf4jnsgd1na2vs0mg"},{"bike_id":"0e65fbfb-6cda-4515-bf1d-9a37562354fd","system_id":"levelo_inurba_marseille","lat":43.30146,"lon":5.37422,"is_reserved":false,"is_disabled":false,"rental_uris":{"android":"levelo://app?vid=0e65fbfb-6cda-4515-bf1d-9a37562354fd","ios":"levelo://app?vid=0e65fbfb-6cda-4515-bf1d-9a37562354fd"},"vehicle_type_id":"4","last_reported":1740046200,"current_range_meters":17200,"station_id":"ce4bgs92rcd13ifvqcc0","pricing_plan_id":"cebpf4jnsgd1na2vs0mg"},{"bike_id":"b253065d-1074-4a51-bc2b-4e15dba86004","system_id":"levelo_inurba_marseille","lat":43.23046,"lon":5.35503,"is_reserved":false,"is_disabled":false,"rental_uris":{"android":"levelo://app?vid=b253065d-1074-4a51-bc2b-4e15dba86004","ios":"levelo://app?vid=b253065d-1074-4a51-bc2b-4e15dba86004"},"vehicle_type_id":"4","last_reported":1740046200,"current_range_meters":17200,"station_id":"cpo3342slgdg3j2ifvpg","pricing_plan_id":"cebpf4jnsgd1na2vs0mg"},{"bike_id":"95bf57d2-9d5e-46e9-955d-d16e9478a33d","system_id":"levelo_inurba_marseille","lat":43.25,"lon":5.38925,"is_reserved":false,"is_disabled":false,"rental_uris":{"android":"levelo://app?vid=95bf57d2-9d5e-46e9-955d-d16e9478a33d","ios":"levelo://app?vid=95bf57d2-9d5e-46e9-955d-d16e9478a33d"},"vehicle_type_id":"4","last_reported":1740046200,"current_range_meters":17600,"station_id":"","pricing_plan_id":"cebpf4jnsgd1na2vs0mg"},{"bike_id":"16c8adca-6ecc-4443-be88-0827c330f036","system_id":"levelo_inurba_marseille","lat":43.27306,"lon":5.39075,"is_reserved":false,"is_disabled":false,"rental_uris":{"android":"levelo://app?vid=16c8adca-6ecc-4443-be88-0827c330f036","ios":"levelo://app?vid=16c8adca-6ecc-4443-be88-0827c330f036"},"vehicle_type_id":"4","last_reported":1740046200,"current_range_meters":17600,"station_id":"ce4bhgp2rcd13ifvqfe0","pricing_plan_id":"cebpf4jnsgd1na2vs0mg"},{"bike_id":"56834599-2949-4368-8c7c-ea0cffd718b2","system_id":"levelo_inurba_marseille","lat":43.2707,"lon":5.4228,"is_reserved":false,"is_disabled":false,"rental_uris":{"android":"levelo://app?vid=56834599-2949-4368-8c7c-ea0cffd718b2","ios":"levelo://app?vid=56834599-2949-4368-8c7c-ea0cffd718b2"},"vehicle_type_id":"4","last_reported":1740046200,"current_range_meters":17600,"station_id":"ce4bhk92rcd13ifvqgb0","pricing_plan_id":"cebpf4jnsgd1na2vs0mg"},{"bike_id":"1736bdf7-065e-458a-8be8-137efe82e48a","system_id":"levelo_inurba_marseille","lat":43.33097,"lon":5.39055,"is_reserved":false,"is_disabled":false,"rental_uris":{"android":"levelo://app?vid=1736bdf7-065e-458a-8be8-137efe82e48a","ios":"levelo://app?vid=1736bdf7-065e-458a-8be8-137efe82e48a"},"vehicle_type_id":"4","last_reported":1740046200,"current_range_meters":17600,"station_id":"ce4bhqp2rcd13ifvqhog","pricing_plan_id":"cebpf4jnsgd1na2vs0mg"},{"bike_id":"790b0ff7-55c5-4c35-9f2a-78c4076d7d17","system_id":"levelo_inurba_marseille","lat":43.27947,"lon":5.3849,"is_reserved":false,"is_disabled":false,"rental_uris":{"android":"levelo://app?vid=790b0ff7-55c5-4c35-9f2a-78c4076d7d17","ios":"levelo://app?vid=790b0ff7-55c5-4c35-9f2a-78c4076d7d17"},"vehicle_type_id":"4","last_reported":1740046200,"current_range_meters":17600,"station_id":"","pricing_plan_id":"cebpf4jnsgd1na2vs0mg"},{"bike_id":"d645558f-07c5-4f0e-8d7c-d59afaa55228","system_id":"levelo_inurba_marseille","lat":43.33602,"lon":5.41019,"is_reserved":false,"is_disabled":false,"rental_uris":{"android":"levelo://app?vid=d645558f-07c5-4f0e-8d7c-d59afaa55228","ios":"levelo://app?vid=d645558f-07c5-4f0e-8d7c-d59afaa55228"},"vehicle_type_id":"4","last_reported":1740046200,"current_range_meters":17600,"station_id":"ce4bhqh2rcd13ifvqhmg","pricing_plan_id":"cebpf4jnsgd1na2vs0mg"},{"bike_id":"7e3f88c5-42b3-4a97-a595-dd5341153924","system_id":"levelo_inurba_marseille","lat":43.29632,"lon":5.37743,"is_reserved":false,"is_disabled":false,"rental_uris":{"android":"levelo://app?vid=7e3f88c5-42b3-4a97-a595-dd5341153924","ios":"levelo://app?vid=7e3f88c5-42b3-4a97-a595-dd5341153924"},"vehicle_type_id":"4","last_reported":1740046200,"current_range_meters":17600,"station_id":"ce4bgi92rcd13ifvqb90","pricing_plan_id":"cebpf4jnsgd1na2vs0mg"},{"bike_id":"c0486c75-89b9-488f-b80c-d2e227f92d44","system_id":"levelo_inurba_marseille","lat":43.2972,"lon":5.37688,"is_reserved":false,"is_disabled":false,"rental_uris":{"android":"levelo://app?vid=c0486c75-89b9-488f-b80c-d2e227f92d44","ios":"levelo://app?vid=c0486c75-89b9-488f-b80c-d2e227f92d44"},"vehicle_type_id":"4","last_reported":1740046200,"current_range_meters":17600,"station_id":"","pricing_plan_id":"cebpf4jnsgd1na2vs0mg"},{"bike_id":"24315b7d-449e-4c2e-ac98-b17bdf96db65","system_id":"levelo_inurba_marseille","lat":43.29541,"lon":5.37504,"is_reserved":false,"is_disabled":false,"rental_uris":{"android":"levelo://app?vid=24315b7d-449e-4c2e-ac98-b17bdf96db65","ios":"levelo://app?vid=24315b7d-449e-4c2e-ac98-b17bdf96db65"},"vehicle_type_id":"4","last_reported":1740046200,"current_range_meters":17600,"station_id":"ce4bgkp2rcd13ifvqbmg","pricing_plan_id":"cebpf4jnsgd1na2vs0mg"},{"bike_id":"4e11b30d-0226-4b04-813f-4404772688cd","system_id":"levelo_inurba_marseille","lat":43.28997,"lon":5.37175,"is_reserved":false,"is_disabled":false,"rental_uris":{"android":"levelo://app?vid=4e11b30d-0226-4b04-813f-4404772688cd","ios":"levelo://app?vid=4e11b30d-0226-4b04-813f-4404772688cd"},"vehicle_type_id":"4","last_reported":1740046200,"current_range_meters":17600,"station_id":"","pricing_plan_id":"cebpf4jnsgd1na2vs0mg"},{"bike_id":"7f77d183-c231-456a-93e4-32a63d975eb6","system_id":"levelo_inurba_marseille","lat":43.25075,"lon":5.39508,"is_reserved":false,"is_disabled":false,"rental_uris":{"android":"levelo://app?vid=7f77d183-c231-456a-93e4-32a63d975eb6","ios":"levelo://app?vid=7f77d183-c231-456a-93e4-32a63d975eb6"},"vehicle_type_id":"4","last_reported":1740046200,"current_range_meters":18000,"station_id":"ce4bhn12rcd13ifvqgqg","pricing_plan_id":"cebpf4jnsgd1na2vs0mg"},{"bike_id":"125b03d2-1473-43a3-813f-8e811e8e6604","system_id":"levelo_inurba_marseille","lat":43.337444,"lon":5.374475,"is_reserved":false,"is_disabled":false,"rental_uris":{"android":"levelo://app?vid=125b03d2-1473-43a3-813f-8e811e8e6604","ios":"levelo://app?vid=125b03d2-1473-43a3-813f-8e811e8e6604"},"vehicle_type_id":"4","last_reported":1740046200,"current_range_meters":18000,"station_id":"ce4bh0h2rcd13ifvqd40","pricing_plan_id":"cebpf4jnsgd1na2vs0mg"},{"bike_id":"8ed836cf-8914-484d-a3f5-1f7c9ea6f331","system_id":"levelo_inurba_marseille","lat":43.30314,"lon":5.369,"is_reserved":false,"is_disabled":false,"rental_uris":{"android":"levelo://app?vid=8ed836cf-8914-484d-a3f5-1f7c9ea6f331","ios":"levelo://app?vid=8ed836cf-8914-484d-a3f5-1f7c9ea6f331"},"vehicle_type_id":"4","last_reported":1740046200,"current_range_meters":18000,"station_id":"ce4bgqh2rcd13ifvqc5g","pricing_plan_id":"cebpf4jnsgd1na2vs0mg"},{"bike_id":"4347ac42-d6bd-4898-bb54-db9da5fa21c6","system_id":"levelo_inurba_marseille","lat":43.2682,"lon":5.40253,"is_reserved":false,"is_disabled":false,"rental_uris":{"android":"levelo://app?vid=4347ac42-d6bd-4898-bb54-db9da5fa21c6","ios":"levelo://app?vid=4347ac42-d6bd-4898-bb54-db9da5fa21c6"},"vehicle_type_id":"4","last_reported":1740046200,"current_range_meters":18000,"station_id":"ce501612rcd8frsf0b60","pricing_plan_id":"cebpf4jnsgd1na2vs0mg"},{"bike_id":"970d71e7-e450-420e-8062-02057dda3beb","system_id":"levelo_inurba_marseille","lat":43.33594,"lon":5.40984,"is_reserved":false,"is_disabled":false,"rental_uris":{"android":"levelo://app?vid=970d71e7-e450-420e-8062-02057dda3beb","ios":"levelo://app?vid=970d71e7-e450-420e-8062-02057dda3beb"},"vehicle_type_id":"4","last_reported":1740046200,"current_range_meters":18000,"station_id":"ce4bhqh2rcd13ifvqhmg","pricing_plan_id":"cebpf4jnsgd1na2vs0mg"},{"bike_id":"6ac01c27-4e57-4962-954d-04b7361441dd","system_id":"levelo_inurba_marseille","lat":43.308,"lon":5.37312,"is_reserved":false,"is_disabled":false,"rental_uris":{"android":"levelo://app?vid=6ac01c27-4e57-4962-954d-04b7361441dd","ios":"levelo://app?vid=6ac01c27-4e57-4962-954d-04b7361441dd"},"vehicle_type_id":"4","last_reported":1740046200,"current_range_meters":18000,"station_id":"ce4bgt92rcd13ifvqcg0","pricing_plan_id":"cebpf4jnsgd1na2vs0mg"},{"bike_id":"f5652f69-7acb-4975-97e4-87a813f1a21c","system_id":"levelo_inurba_marseille","lat":43.27946,"lon":5.41051,"is_reserved":false,"is_disabled":false,"rental_uris":{"android":"levelo://app?vid=f5652f69-7acb-4975-97e4-87a813f1a21c","ios":"levelo://app?vid=f5652f69-7acb-4975-97e4-87a813f1a21c"},"vehicle_type_id":"4","last_reported":1740046200,"current_range_meters":18000,"station_id":"ce4bhnp2rcd13ifvqh0g","pricing_plan_id":"cebpf4jnsgd1na2vs0mg"},{"bike_id":"f800bf4a-a88e-43ea-b4b8-11875d2f53c7","system_id":"levelo_inurba_marseille","lat":43.24825,"lon":5.3747,"is_reserved":false,"is_disabled":false,"rental_uris":{"android":"levelo://app?vid=f800bf4a-a88e-43ea-b4b8-11875d2f53c7","ios":"levelo://app?vid=f800bf4a-a88e-43ea-b4b8-11875d2f53c7"},"vehicle_type_id":"4","last_reported":1740046200,"current_range_meters":18800,"station_id":"ce4bhgh2rcd13ifvqfb0","pricing_plan_id":"cebpf4jnsgd1na2vs0mg"},{"bike_id":"3a18a060-43b3-487c-bb23-8493264d5ba4","system_id":"levelo_inurba_marseille","lat":43.2418,"lon":5.36407,"is_reserved":false,"is_disabled":true,"rental_uris":{"android":"levelo://app?vid=3a18a060-43b3-487c-bb23-8493264d5ba4","ios":"levelo://app?vid=3a18a060-43b3-487c-bb23-8493264d5ba4"},"vehicle_type_id":"4","last_reported":1740046200,"current_range_meters":18800,"station_id":"","pricing_plan_id":"cebpf4jnsgd1na2vs0mg"},{"bike_id":"8fe75b45-7596-4e35-9155-e1d74ff64fcf","system_id":"levelo_inurba_marseille","lat":43.30135,"lon":5.37416,"is_reserved":false,"is_disabled":false,"rental_uris":{"android":"levelo://app?vid=8fe75b45-7596-4e35-9155-e1d74ff64fcf","ios":"levelo://app?vid=8fe75b45-7596-4e35-9155-e1d74ff64fcf"},"vehicle_type_id":"4","last_reported":1740046200,"current_range_meters":19200,"station_id":"ce4bgs92rcd13ifvqcc0","pricing_plan_id":"cebpf4jnsgd1na2vs0mg"},{"bike_id":"44e45a0d-80e4-4777-b789-c9ff84761c0c","system_id":"levelo_inurba_marseille","lat":43.29287,"lon":5.3944,"is_reserved":false,"is_disabled":false,"rental_uris":{"android":"levelo://app?vid=44e45a0d-80e4-4777-b789-c9ff84761c0c","ios":"levelo://app?vid=44e45a0d-80e4-4777-b789-c9ff84761c0c"},"vehicle_type_id":"4","last_reported":1740046200,"current_range_meters":18800,"station_id":"","pricing_plan_id":"cebpf4jnsgd1na2vs0mg"},{"bike_id":"e6bd1c62-ca1b-47bb-b95c-d3a87dc972eb","system_id":"levelo_inurba_marseille","lat":43.30305,"lon":5.36884,"is_reserved":false,"is_disabled":false,"rental_uris":{"android":"levelo://app?vid=e6bd1c62-ca1b-47bb-b95c-d3a87dc972eb","ios":"levelo://app?vid=e6bd1c62-ca1b-47bb-b95c-d3a87dc972eb"},"vehicle_type_id":"4","last_reported":1740046200,"current_range_meters":19200,"station_id":"ce4bgqh2rcd13ifvqc5g","pricing_plan_id":"cebpf4jnsgd1na2vs0mg"},{"bike_id":"dfa66656-cae3-47a2-b229-5c7d7d7c4204","system_id":"levelo_inurba_marseille","lat":43.31361,"lon":5.36726,"is_reserved":false,"is_disabled":false,"rental_uris":{"android":"levelo://app?vid=dfa66656-cae3-47a2-b229-5c7d7d7c4204","ios":"levelo://app?vid=dfa66656-cae3-47a2-b229-5c7d7d7c4204"},"vehicle_type_id":"4","last_reported":1740046200,"current_range_meters":19200,"station_id":"","pricing_plan_id":"cebpf4jnsgd1na2vs0mg"},{"bike_id":"da0d8a57-dc35-4cad-a584-68768284fc4a","system_id":"levelo_inurba_marseille","lat":43.29564,"lon":5.37515,"is_reserved":false,"is_disabled":false,"rental_uris":{"android":"levelo://app?vid=da0d8a57-dc35-4cad-a584-68768284fc4a","ios":"levelo://app?vid=da0d8a57-dc35-4cad-a584-68768284fc4a"},"vehicle_type_id":"4","last_reported":1740046200,"current_range_meters":19200,"station_id":"","pricing_plan_id":"cebpf4jnsgd1na2vs0mg"},{"bike_id":"198ce9d5-ada6-4b89-bcc1-5d7191cc35c0","system_id":"levelo_inurba_marseille","lat":43.28452,"lon":5.3919,"is_reserved":false,"is_disabled":false,"rental_uris":{"android":"levelo://app?vid=198ce9d5-ada6-4b89-bcc1-5d7191cc35c0","ios":"levelo://app?vid=198ce9d5-ada6-4b89-bcc1-5d7191cc35c0"},"vehicle_type_id":"4","last_reported":1740046200,"current_range_meters":19200,"station_id":"ce4bhg92rcd13ifvqf90","pricing_plan_id":"cebpf4jnsgd1na2vs0mg"},{"bike_id":"12542afe-268c-4529-8e36-b82c3afa3ae5","system_id":"levelo_inurba_marseille","lat":43.30201,"lon":5.36617,"is_reserved":false,"is_disabled":false,"rental_uris":{"android":"levelo://app?vid=12542afe-268c-4529-8e36-b82c3afa3ae5","ios":"levelo://app?vid=12542afe-268c-4529-8e36-b82c3afa3ae5"},"vehicle_type_id":"4","last_reported":1740046200,"current_range_meters":19200,"station_id":"ce4bgrh2rcd13ifvqc8g","pricing_plan_id":"cebpf4jnsgd1na2vs0mg"},{"bike_id":"1ba57687-9558-4c6c-90e3-8743042e80d7","system_id":"levelo_inurba_marseille","lat":43.29843,"lon":5.36268,"is_reserved":false,"is_disabled":false,"rental_uris":{"android":"levelo://app?vid=1ba57687-9558-4c6c-90e3-8743042e80d7","ios":"levelo://app?vid=1ba57687-9558-4c6c-90e3-8743042e80d7"},"vehicle_type_id":"4","last_reported":1740046200,"current_range_meters":19200,"station_id":"ce4bgpp2rcd13ifvqc3g","pricing_plan_id":"cebpf4jnsgd1na2vs0mg"},{"bike_id":"c469a282-3bcd-48bc-82ae-43d7f09c7e5e","system_id":"levelo_inurba_marseille","lat":43.29943,"lon":5.3655,"is_reserved":false,"is_disabled":false,"rental_uris":{"android":"levelo://app?vid=c469a282-3bcd-48bc-82ae-43d7f09c7e5e","ios":"levelo://app?vid=c469a282-3bcd-48bc-82ae-43d7f09c7e5e"},"vehicle_type_id":"4","last_reported":1740046200,"current_range_meters":19200,"station_id":"ce4bgm92rcd13ifvqbr0","pricing_plan_id":"cebpf4jnsgd1na2vs0mg"},{"bike_id":"4425d015-adec-4c1e-bd9b-0894e4035698","system_id":"levelo_inurba_marseille","lat":43.25021,"lon":5.38915,"is_reserved":false,"is_disabled":false,"rental_uris":{"android":"levelo://app?vid=4425d015-adec-4c1e-bd9b-0894e4035698","ios":"levelo://app?vid=4425d015-adec-4c1e-bd9b-0894e4035698"},"vehicle_type_id":"4","last_reported":1740046200,"current_range_meters":19600,"station_id":"ce4bhgp2rcd13ifvqfd0","pricing_plan_id":"cebpf4jnsgd1na2vs0mg"},{"bike_id":"cff7e479-9e10-47df-b1cb-df926e2a5d1f","system_id":"levelo_inurba_marseille","lat":43.27193,"lon":5.40991,"is_reserved":false,"is_disabled":false,"rental_uris":{"android":"levelo://app?vid=cff7e479-9e10-47df-b1cb-df926e2a5d1f","ios":"levelo://app?vid=cff7e479-9e10-47df-b1cb-df926e2a5d1f"},"vehicle_type_id":"4","last_reported":1740046200,"current_range_meters":19600,"station_id":"ce4bhl12rcd13ifvqgf0","pricing_plan_id":"cebpf4jnsgd1na2vs0mg"},{"bike_id":"f42c2ddf-548b-4e8e-8215-f1cf93b13b11","system_id":"levelo_inurba_marseille","lat":43.28699,"lon":5.39989,"is_reserved":false,"is_disabled":false,"rental_uris":{"android":"levelo://app?vid=f42c2ddf-548b-4e8e-8215-f1cf93b13b11","ios":"levelo://app?vid=f42c2ddf-548b-4e8e-8215-f1cf93b13b11"},"vehicle_type_id":"4","last_reported":1740046200,"current_range_meters":19600,"station_id":"ce4bho92rcd13ifvqh3g","pricing_plan_id":"cebpf4jnsgd1na2vs0mg"},{"bike_id":"ef254eb1-de6b-4268-9d75-fff6f65979ea","system_id":"levelo_inurba_marseille","lat":43.23195,"lon":5.40005,"is_reserved":false,"is_disabled":false,"rental_uris":{"android":"levelo://app?vid=ef254eb1-de6b-4268-9d75-fff6f65979ea","ios":"levelo://app?vid=ef254eb1-de6b-4268-9d75-fff6f65979ea"},"vehicle_type_id":"4","last_reported":1740046200,"current_range_meters":19600,"station_id":"ce4bhn12rcd13ifvqgqg","pricing_plan_id":"cebpf4jnsgd1na2vs0mg"},{"bike_id":"ed853263-6142-4e69-8396-096abe91f77e","system_id":"levelo_inurba_marseille","lat":43.2653,"lon":5.3902,"is_reserved":false,"is_disabled":false,"rental_uris":{"android":"levelo://app?vid=ed853263-6142-4e69-8396-096abe91f77e","ios":"levelo://app?vid=ed853263-6142-4e69-8396-096abe91f77e"},"vehicle_type_id":"4","last_reported":1740046200,"current_range_meters":20000,"station_id":"ce4bhe12rcd13ifvqf30","pricing_plan_id":"cebpf4jnsgd1na2vs0mg"},{"bike_id":"7c588ef5-7be2-4fac-8754-75d5ba08f996","system_id":"levelo_inurba_marseille","lat":43.30589,"lon":5.37233,"is_reserved":false,"is_disabled":false,"rental_uris":{"android":"levelo://app?vid=7c588ef5-7be2-4fac-8754-75d5ba08f996","ios":"levelo://app?vid=7c588ef5-7be2-4fac-8754-75d5ba08f996"},"vehicle_type_id":"4","last_reported":1740046200,"current_range_meters":20000,"station_id":"ce4bgqh2rcd13ifvqc4g","pricing_plan_id":"cebpf4jnsgd1na2vs0mg"},{"bike_id":"c21c3312-2f44-43b1-ae7b-35cea6d1aafb","system_id":"levelo_inurba_marseille","lat":43.26953,"lon":5.38645,"is_reserved":false,"is_disabled":false,"rental_uris":{"android":"levelo://app?vid=c21c3312-2f44-43b1-ae7b-35cea6d1aafb","ios":"levelo://app?vid=c21c3312-2f44-43b1-ae7b-35cea6d1aafb"},"vehicle_type_id":"4","last_reported":1740046200,"current_range_meters":20000,"station_id":"","pricing_plan_id":"cebpf4jnsgd1na2vs0mg"},{"bike_id":"02ec7b3a-05c2-4da3-a07d-c333c6c6a666","system_id":"levelo_inurba_marseille","lat":43.26563,"lon":5.39011,"is_reserved":false,"is_disabled":false,"rental_uris":{"android":"levelo://app?vid=02ec7b3a-05c2-4da3-a07d-c333c6c6a666","ios":"levelo://app?vid=02ec7b3a-05c2-4da3-a07d-c333c6c6a666"},"vehicle_type_id":"4","last_reported":1740046200,"current_range_meters":20000,"station_id":"ce4bhe12rcd13ifvqf30","pricing_plan_id":"cebpf4jnsgd1na2vs0mg"},{"bike_id":"8c659c14-b958-4e7d-8a21-e615cb42a1da","system_id":"levelo_inurba_marseille","lat":43.25021,"lon":5.3894,"is_reserved":false,"is_disabled":false,"rental_uris":{"android":"levelo://app?vid=8c659c14-b958-4e7d-8a21-e615cb42a1da","ios":"levelo://app?vid=8c659c14-b958-4e7d-8a21-e615cb42a1da"},"vehicle_type_id":"4","last_reported":1740046200,"current_range_meters":20400,"station_id":"ce4bhgp2rcd13ifvqfd0","pricing_plan_id":"cebpf4jnsgd1na2vs0mg"},{"bike_id":"e64e4082-00c8-4907-b18e-527a82463f75","system_id":"levelo_inurba_marseille","lat":43.28404,"lon":5.34956,"is_reserved":false,"is_disabled":true,"rental_uris":{"android":"levelo://app?vid=e64e4082-00c8-4907-b18e-527a82463f75","ios":"levelo://app?vid=e64e4082-00c8-4907-b18e-527a82463f75"},"vehicle_type_id":"4","last_reported":1740046200,"current_range_meters":20400,"station_id":"ce4bhbh2rcd13ifvqepg","pricing_plan_id":"cebpf4jnsgd1na2vs0mg"},{"bike_id":"ebe8f273-5739-4753-ba61-e13e57e5e3ea","system_id":"levelo_inurba_marseille","lat":43.265747,"lon":5.390208,"is_reserved":false,"is_disabled":true,"rental_uris":{"android":"levelo://app?vid=ebe8f273-5739-4753-ba61-e13e57e5e3ea","ios":"levelo://app?vid=ebe8f273-5739-4753-ba61-e13e57e5e3ea"},"vehicle_type_id":"4","last_reported":1740046200,"current_range_meters":20400,"station_id":"","pricing_plan_id":"cebpf4jnsgd1na2vs0mg"},{"bike_id":"5d81c9c4-d76b-4a54-b913-1c1f6abf7e3c","system_id":"levelo_inurba_marseille","lat":43.28473,"lon":5.38436,"is_reserved":false,"is_disabled":true,"rental_uris":{"android":"levelo://app?vid=5d81c9c4-d76b-4a54-b913-1c1f6abf7e3c","ios":"levelo://app?vid=5d81c9c4-d76b-4a54-b913-1c1f6abf7e3c"},"vehicle_type_id":"4","last_reported":1740046200,"current_range_meters":20400,"station_id":"ce4bh512rcd13ifvqe3g","pricing_plan_id":"cebpf4jnsgd1na2vs0mg"},{"bike_id":"cf95633d-7ae3-4174-afec-7606a81a9904","system_id":"levelo_inurba_marseille","lat":43.32693,"lon":5.39206,"is_reserved":false,"is_disabled":false,"rental_uris":{"android":"levelo://app?vid=cf95633d-7ae3-4174-afec-7606a81a9904","ios":"levelo://app?vid=cf95633d-7ae3-4174-afec-7606a81a9904"},"vehicle_type_id":"4","last_reported":1740046200,"current_range_meters":20400,"station_id":"ce4bhr92rcd13ifvqhrg","pricing_plan_id":"cebpf4jnsgd1na2vs0mg"},{"bike_id":"2f528f47-64e0-4db2-badb-32005bb319d3","system_id":"levelo_inurba_marseille","lat":43.3372,"lon":5.39183,"is_reserved":false,"is_disabled":false,"rental_uris":{"android":"levelo://app?vid=2f528f47-64e0-4db2-badb-32005bb319d3","ios":"levelo://app?vid=2f528f47-64e0-4db2-badb-32005bb319d3"},"vehicle_type_id":"4","last_reported":1740046200,"current_range_meters":20400,"station_id":"ce4bhr92rcd13ifvqhsg","pricing_plan_id":"cebpf4jnsgd1na2vs0mg"},{"bike_id":"7f32cafd-5558-42cf-a64b-674df5a94812","system_id":"levelo_inurba_marseille","lat":43.30277,"lon":5.37713,"is_reserved":false,"is_disabled":false,"rental_uris":{"android":"levelo://app?vid=7f32cafd-5558-42cf-a64b-674df5a94812","ios":"levelo://app?vid=7f32cafd-5558-42cf-a64b-674df5a94812"},"vehicle_type_id":"4","last_reported":1740046200,"current_range_meters":20400,"station_id":"ce4bguh2rcd13ifvqcj0","pricing_plan_id":"cebpf4jnsgd1na2vs0mg"},{"bike_id":"b94de59a-1c92-47de-b07e-25c6044dbbca","system_id":"levelo_inurba_marseille","lat":43.231628,"lon":5.436632,"is_reserved":false,"is_disabled":false,"rental_uris":{"android":"levelo://app?vid=b94de59a-1c92-47de-b07e-25c6044dbbca","ios":"levelo://app?vid=b94de59a-1c92-47de-b07e-25c6044dbbca"},"vehicle_type_id":"4","last_reported":1740046200,"current_range_meters":20400,"station_id":"ce4bhmp2rcd13ifvqgog","pricing_plan_id":"cebpf4jnsgd1na2vs0mg"},{"bike_id":"5153efbd-55eb-44b7-8f8a-6c63cc29b03d","system_id":"levelo_inurba_marseille","lat":43.25949,"lon":5.40905,"is_reserved":false,"is_disabled":false,"rental_uris":{"android":"levelo://app?vid=5153efbd-55eb-44b7-8f8a-6c63cc29b03d","ios":"levelo://app?vid=5153efbd-55eb-44b7-8f8a-6c63cc29b03d"},"vehicle_type_id":"4","last_reported":1740046200,"current_range_meters":20400,"station_id":"ce4bhm92rcd13ifvqglg","pricing_plan_id":"cebpf4jnsgd1na2vs0mg"},{"bike_id":"7c9cf0df-f4ab-4fb9-ba4d-6c802db49a48","system_id":"levelo_inurba_marseille","lat":43.30477,"lon":5.37918,"is_reserved":false,"is_disabled":false,"rental_uris":{"android":"levelo://app?vid=7c9cf0df-f4ab-4fb9-ba4d-6c802db49a48","ios":"levelo://app?vid=7c9cf0df-f4ab-4fb9-ba4d-6c802db49a48"},"vehicle_type_id":"4","last_reported":1740046200,"current_range_meters":20800,"station_id":"ce4bgup2rcd13ifvqcn0","pricing_plan_id":"cebpf4jnsgd1na2vs0mg"},{"bike_id":"1159c315-e7a8-4635-8b44-c360a9f3375d","system_id":"levelo_inurba_marseille","lat":43.27906,"lon":5.3802,"is_reserved":false,"is_disabled":false,"rental_uris":{"android":"levelo://app?vid=1159c315-e7a8-4635-8b44-c360a9f3375d","ios":"levelo://app?vid=1159c315-e7a8-4635-8b44-c360a9f3375d"},"vehicle_type_id":"4","last_reported":1740046200,"current_range_meters":20400,"station_id":"ce4bhf92rcd13ifvqf50","pricing_plan_id":"cebpf4jnsgd1na2vs0mg"},{"bike_id":"f489d4fc-09c9-404a-965d-a60b7da1a1d8","system_id":"levelo_inurba_marseille","lat":43.28432,"lon":5.34988,"is_reserved":false,"is_disabled":false,"rental_uris":{"android":"levelo://app?vid=f489d4fc-09c9-404a-965d-a60b7da1a1d8","ios":"levelo://app?vid=f489d4fc-09c9-404a-965d-a60b7da1a1d8"},"vehicle_type_id":"4","last_reported":1740046200,"current_range_meters":20800,"station_id":"ce4bhbh2rcd13ifvqepg","pricing_plan_id":"cebpf4jnsgd1na2vs0mg"},{"bike_id":"255db421-0ca7-4e35-b22f-dab1964774eb","system_id":"levelo_inurba_marseille","lat":43.23971,"lon":5.36632,"is_reserved":false,"is_disabled":false,"rental_uris":{"android":"levelo://app?vid=255db421-0ca7-4e35-b22f-dab1964774eb","ios":"levelo://app?vid=255db421-0ca7-4e35-b22f-dab1964774eb"},"vehicle_type_id":"4","last_reported":1740046200,"current_range_meters":20800,"station_id":"ce4bhi12rcd13ifvqfp0","pricing_plan_id":"cebpf4jnsgd1na2vs0mg"},{"bike_id":"da35e427-426d-41ca-859b-7c63f22da96e","system_id":"levelo_inurba_marseille","lat":43.27988,"lon":5.41658,"is_reserved":false,"is_disabled":false,"rental_uris":{"android":"levelo://app?vid=da35e427-426d-41ca-859b-7c63f22da96e","ios":"levelo://app?vid=da35e427-426d-41ca-859b-7c63f22da96e"},"vehicle_type_id":"4","last_reported":1740046200,"current_range_meters":20800,"station_id":"ce4bho12rcd13ifvqh1g","pricing_plan_id":"cebpf4jnsgd1na2vs0mg"},{"bike_id":"f8610c46-ea99-4a2b-b024-d2fbaacc454d","system_id":"levelo_inurba_marseille","lat":43.295197,"lon":5.394058,"is_reserved":false,"is_disabled":false,"rental_uris":{"android":"levelo://app?vid=f8610c46-ea99-4a2b-b024-d2fbaacc454d","ios":"levelo://app?vid=f8610c46-ea99-4a2b-b024-d2fbaacc454d"},"vehicle_type_id":"4","last_reported":1740046200,"current_range_meters":20800,"station_id":"ce4bh292rcd13ifvqdf0","pricing_plan_id":"cebpf4jnsgd1na2vs0mg"},{"bike_id":"85c12943-8bf9-4cf9-8a37-8c77f5d3bf40","system_id":"levelo_inurba_marseille","lat":43.29262,"lon":5.4012,"is_reserved":false,"is_disabled":true,"rental_uris":{"android":"levelo://app?vid=85c12943-8bf9-4cf9-8a37-8c77f5d3bf40","ios":"levelo://app?vid=85c12943-8bf9-4cf9-8a37-8c77f5d3bf40"},"vehicle_type_id":"4","last_reported":1740046200,"current_range_meters":21600,"station_id":"ce4bh312rcd13ifvqdk0","pricing_plan_id":"cebpf4jnsgd1na2vs0mg"},{"bike_id":"75ea1554-b3e5-45ab-b7fc-14c8bb0801a5","system_id":"levelo_inurba_marseille","lat":43.25925,"lon":5.40908,"is_reserved":false,"is_disabled":false,"rental_uris":{"android":"levelo://app?vid=75ea1554-b3e5-45ab-b7fc-14c8bb0801a5","ios":"levelo://app?vid=75ea1554-b3e5-45ab-b7fc-14c8bb0801a5"},"vehicle_type_id":"4","last_reported":1740046200,"current_range_meters":21600,"station_id":"","pricing_plan_id":"cebpf4jnsgd1na2vs0mg"},{"bike_id":"4156c3f4-1c00-4687-a78e-ff2dbdb866e0","system_id":"levelo_inurba_marseille","lat":43.27393,"lon":5.3624,"is_reserved":false,"is_disabled":false,"rental_uris":{"android":"levelo://app?vid=4156c3f4-1c00-4687-a78e-ff2dbdb866e0","ios":"levelo://app?vid=4156c3f4-1c00-4687-a78e-ff2dbdb866e0"},"vehicle_type_id":"4","last_reported":1740046200,"current_range_meters":21600,"station_id":"","pricing_plan_id":"cebpf4jnsgd1na2vs0mg"},{"bike_id":"fbaea280-58d1-483f-a26d-c689f30c49fb","system_id":"levelo_inurba_marseille","lat":43.33721,"lon":5.39174,"is_reserved":false,"is_disabled":false,"rental_uris":{"android":"levelo://app?vid=fbaea280-58d1-483f-a26d-c689f30c49fb","ios":"levelo://app?vid=fbaea280-58d1-483f-a26d-c689f30c49fb"},"vehicle_type_id":"4","last_reported":1740046200,"current_range_meters":21600,"station_id":"ce4bhr92rcd13ifvqhsg","pricing_plan_id":"cebpf4jnsgd1na2vs0mg"},{"bike_id":"2e97d27d-0412-483f-92eb-08d43ad674db","system_id":"levelo_inurba_marseille","lat":43.30485,"lon":5.37911,"is_reserved":false,"is_disabled":false,"rental_uris":{"android":"levelo://app?vid=2e97d27d-0412-483f-92eb-08d43ad674db","ios":"levelo://app?vid=2e97d27d-0412-483f-92eb-08d43ad674db"},"vehicle_type_id":"4","last_reported":1740046200,"current_range_meters":21600,"station_id":"ce4bgup2rcd13ifvqcn0","pricing_plan_id":"cebpf4jnsgd1na2vs0mg"},{"bike_id":"ee8fd500-bb76-4c2c-9206-026696164b8f","system_id":"levelo_inurba_marseille","lat":43.28023,"lon":5.40934,"is_reserved":false,"is_disabled":false,"rental_uris":{"android":"levelo://app?vid=ee8fd500-bb76-4c2c-9206-026696164b8f","ios":"levelo://app?vid=ee8fd500-bb76-4c2c-9206-026696164b8f"},"vehicle_type_id":"4","last_reported":1740046200,"current_range_meters":21600,"station_id":"","pricing_plan_id":"cebpf4jnsgd1na2vs0mg"},{"bike_id":"4463c32e-f383-418d-927a-9377e2c88f8f","system_id":"levelo_inurba_marseille","lat":43.23199,"lon":5.39987,"is_reserved":false,"is_disabled":false,"rental_uris":{"android":"levelo://app?vid=4463c32e-f383-418d-927a-9377e2c88f8f","ios":"levelo://app?vid=4463c32e-f383-418d-927a-9377e2c88f8f"},"vehicle_type_id":"4","last_reported":1740046200,"current_range_meters":21600,"station_id":"ce4bhn12rcd13ifvqgqg","pricing_plan_id":"cebpf4jnsgd1na2vs0mg"},{"bike_id":"f274f312-68ca-45d0-8230-632bc1110b1a","system_id":"levelo_inurba_marseille","lat":43.29246,"lon":5.38234,"is_reserved":false,"is_disabled":false,"rental_uris":{"android":"levelo://app?vid=f274f312-68ca-45d0-8230-632bc1110b1a","ios":"levelo://app?vid=f274f312-68ca-45d0-8230-632bc1110b1a"},"vehicle_type_id":"4","last_reported":1740046200,"current_range_meters":22000,"station_id":"","pricing_plan_id":"cebpf4jnsgd1na2vs0mg"},{"bike_id":"76161de1-8bd6-424a-9d38-33d20d4422aa","system_id":"levelo_inurba_marseille","lat":43.33062,"lon":5.39054,"is_reserved":false,"is_disabled":false,"rental_uris":{"android":"levelo://app?vid=76161de1-8bd6-424a-9d38-33d20d4422aa","ios":"levelo://app?vid=76161de1-8bd6-424a-9d38-33d20d4422aa"},"vehicle_type_id":"4","last_reported":1740046200,"current_range_meters":22000,"station_id":"ce4bhr92rcd13ifvqhrg","pricing_plan_id":"cebpf4jnsgd1na2vs0mg"},{"bike_id":"17d49994-81fd-4ba3-903c-e4c7abd2aea3","system_id":"levelo_inurba_marseille","lat":43.27079,"lon":5.42277,"is_reserved":false,"is_disabled":false,"rental_uris":{"android":"levelo://app?vid=17d49994-81fd-4ba3-903c-e4c7abd2aea3","ios":"levelo://app?vid=17d49994-81fd-4ba3-903c-e4c7abd2aea3"},"vehicle_type_id":"4","last_reported":1740046200,"current_range_meters":22000,"station_id":"ce4bhk92rcd13ifvqgb0","pricing_plan_id":"cebpf4jnsgd1na2vs0mg"},{"bike_id":"becbe786-0e32-4425-bd2d-d2909daae65f","system_id":"levelo_inurba_marseille","lat":43.30888,"lon":5.36869,"is_reserved":false,"is_disabled":false,"rental_uris":{"android":"levelo://app?vid=becbe786-0e32-4425-bd2d-d2909daae65f","ios":"levelo://app?vid=becbe786-0e32-4425-bd2d-d2909daae65f"},"vehicle_type_id":"4","last_reported":1740046200,"current_range_meters":22000,"station_id":"","pricing_plan_id":"cebpf4jnsgd1na2vs0mg"},{"bike_id":"594faca2-9926-4075-a97a-a5b73ed7af06","system_id":"levelo_inurba_marseille","lat":43.242222,"lon":5.393496,"is_reserved":false,"is_disabled":false,"rental_uris":{"android":"levelo://app?vid=594faca2-9926-4075-a97a-a5b73ed7af06","ios":"levelo://app?vid=594faca2-9926-4075-a97a-a5b73ed7af06"},"vehicle_type_id":"4","last_reported":1740046200,"current_range_meters":22000,"station_id":"ce4bhn12rcd13ifvqgpg","pricing_plan_id":"cebpf4jnsgd1na2vs0mg"},{"bike_id":"c7993c43-bdb5-41ce-ab4c-cf895b799fdc","system_id":"levelo_inurba_marseille","lat":43.29894,"lon":5.38139,"is_reserved":false,"is_disabled":false,"rental_uris":{"android":"levelo://app?vid=c7993c43-bdb5-41ce-ab4c-cf895b799fdc","ios":"levelo://app?vid=c7993c43-bdb5-41ce-ab4c-cf895b799fdc"},"vehicle_type_id":"4","last_reported":1740046200,"current_range_meters":22000,"station_id":"","pricing_plan_id":"cebpf4jnsgd1na2vs0mg"},{"bike_id":"d9a65716-32bf-413d-82eb-1e213a4dc4bb","system_id":"levelo_inurba_marseille","lat":43.30102,"lon":5.37799,"is_reserved":false,"is_disabled":false,"rental_uris":{"android":"levelo://app?vid=d9a65716-32bf-413d-82eb-1e213a4dc4bb","ios":"levelo://app?vid=d9a65716-32bf-413d-82eb-1e213a4dc4bb"},"vehicle_type_id":"4","last_reported":1740046200,"current_range_meters":22000,"station_id":"","pricing_plan_id":"cebpf4jnsgd1na2vs0mg"},{"bike_id":"034d1d87-cd30-416b-9e9a-c7a7070bc3ee","system_id":"levelo_inurba_marseille","lat":43.29032,"lon":5.39997,"is_reserved":false,"is_disabled":false,"rental_uris":{"android":"levelo://app?vid=034d1d87-cd30-416b-9e9a-c7a7070bc3ee","ios":"levelo://app?vid=034d1d87-cd30-416b-9e9a-c7a7070bc3ee"},"vehicle_type_id":"4","last_reported":1740046200,"current_range_meters":22000,"station_id":"ce4bh392rcd13ifvqdm0","pricing_plan_id":"cebpf4jnsgd1na2vs0mg"},{"bike_id":"2d629d50-c6c8-4d3f-be38-273bcb9dcad2","system_id":"levelo_inurba_marseille","lat":43.3237,"lon":5.38879,"is_reserved":false,"is_disabled":false,"rental_uris":{"android":"levelo://app?vid=2d629d50-c6c8-4d3f-be38-273bcb9dcad2","ios":"levelo://app?vid=2d629d50-c6c8-4d3f-be38-273bcb9dcad2"},"vehicle_type_id":"4","last_reported":1740046200,"current_range_meters":22000,"station_id":"ce4bhqp2rcd13ifvqhog","pricing_plan_id":"cebpf4jnsgd1na2vs0mg"},{"bike_id":"385b1916-a599-4df5-82e9-34d0cf56b978","system_id":"levelo_inurba_marseille","lat":43.30541,"lon":5.36534,"is_reserved":false,"is_disabled":false,"rental_uris":{"android":"levelo://app?vid=385b1916-a599-4df5-82e9-34d0cf56b978","ios":"levelo://app?vid=385b1916-a599-4df5-82e9-34d0cf56b978"},"vehicle_type_id":"4","last_reported":1740046200,"current_range_meters":22400,"station_id":"ce4bgs12rcd13ifvqcag","pricing_plan_id":"cebpf4jnsgd1na2vs0mg"},{"bike_id":"b56f5188-409c-42c3-8184-474f660e733f","system_id":"levelo_inurba_marseille","lat":43.27916,"lon":5.3959,"is_reserved":false,"is_disabled":false,"rental_uris":{"android":"levelo://app?vid=b56f5188-409c-42c3-8184-474f660e733f","ios":"levelo://app?vid=b56f5188-409c-42c3-8184-474f660e733f"},"vehicle_type_id":"4","last_reported":1740046200,"current_range_meters":22400,"station_id":"ce4bhf92rcd13ifvqf40","pricing_plan_id":"cebpf4jnsgd1na2vs0mg"},{"bike_id":"1d79d3b7-dd3b-420e-802b-65c335a71b71","system_id":"levelo_inurba_marseille","lat":43.2902,"lon":5.38641,"is_reserved":false,"is_disabled":false,"rental_uris":{"android":"levelo://app?vid=1d79d3b7-dd3b-420e-802b-65c335a71b71","ios":"levelo://app?vid=1d79d3b7-dd3b-420e-802b-65c335a71b71"},"vehicle_type_id":"4","last_reported":1740046200,"current_range_meters":22000,"station_id":"ce4bh4p2rcd13ifvqe0g","pricing_plan_id":"cebpf4jnsgd1na2vs0mg"},