{"last_updated":1727525699,"ttl":60,"version":"2.2","data":{"bikes":[{"bike_id":"2440f09e-6fed-4bfe-829e-385945716d8c","system_id":"levelo_inurba_marseille","lat":43.29793,"lon":5.38119,"is_reserved":false,"is_disabled":false,"rental_uris":{"android":"levelo://app?vid=2440f09e-6fed-4bfe-829e-385945716d8c","ios":"levelo://app?vid=2440f09e-6fed-4bfe-829e-385945716d8c"},"vehicle_type_id":"4","last_reported":1727525699,"current_range_meters":36000,"station_id":"ce4bgip2rcd13ifvqbb0","pricing_plan_id":"cebpf4jnsgd1na2vs0mg"},{"bike_id":"25fecc49-b9fc-4057-98e0-e6ea456c0a8a","system_id":"levelo_inurba_marseille","lat":43.27919,"lon":5.39573,"is_reserved":false,"is_disabled":false,"rental_uris":{"android":"levelo://app?vid=25fecc49-b9fc-4057-98e0-e6ea456c0a8a","ios":"levelo://app?vid=25fecc49-b9fc-4057-98e0-e6ea456c0a8a"},"vehicle_type_id":"4","last_reported":1727525699,"current_range_meters":18000,"station_id":"ce4bhf92rcd13ifvqf40","pricing_plan_id":"cebpf4jnsgd1na2vs0mg"},{"bike_id":"e7081ef8-8a32-46a8-a293-c48ce527862e","system_id":"levelo_inurba_marseille","lat":43.34498,"lon":5.41641,"is_reserved":false,"is_disabled":false,"rental_uris":{"android":"levelo://app?vid=e7081ef8-8a32-46a8-a293-c48ce527862e","ios":"levelo://app?vid=e7081ef8-8a32-46a8-a293-c48ce527862e"},"vehicle_type_id":"4","last_reported":1727525699,"current_range_meters":4800,"station_id":"","pricing_plan_id":"cebpf4jnsgd1na2vs0mg"},{"bike_id":"57ceb664-8dd7-4949-a64f-0e233f7849a7","system_id":"levelo_inurba_marseille","lat":43.29806,"lon":5.38097,"is_reserved":false,"is_disabled":false,"rental_uris":{"android":"levelo://app?vid=57ceb664-8dd7-4949-a64f-0e233f7849a7","ios":"levelo://app?vid=57ceb664-8dd7-4949-a64f-0e233f7849a7"},"vehicle_type_id":"4","last_reported":1727525699,"current_range_meters":30400,"station_id":"ce4bgip2rcd13ifvqbb0","pricing_plan_id":"cebpf4jnsgd1na2vs0mg"},{"bike_id":"47a74a51-65c8-46c9-b9b4-3431d38005d8","system_id":"levelo_inurba_marseille","lat":43.33754,"lon":5.37448,"is_reserved":false,"is_disabled":false,"rental_uris":{"android":"levelo://app?vid=47a74a51-65c8-46c9-b9b4-3431d38005d8","ios":"levelo://app?vid=47a74a51-65c8-46c9-b9b4-3431d38005d8"},"vehicle_type_id":"4","last_reported":1727525699,"current_range_meters":38000,"station_id":"","pricing_plan_id":"cebpf4jnsgd1na2vs0mg"},{"bike_id":"85a9da50-10b6-48b4-87ee-c0257e3ddd0c","system_id":"levelo_inurba_marseille","lat":43.29969,"lon":5.37165,"is_reserved":false,"is_disabled":false,"rental_uris":{"android":"levelo://app?vid=85a9da50-10b6-48b4-87ee-c0257e3ddd0c","ios":"levelo://app?vid=85a9da50-10b6-48b4-87ee-c0257e3ddd0c"},"vehicle_type_id":"4","last_reported":1727525699,"current_range_meters":32000,"station_id":"ce4bgr92rcd13ifvqc7g","pricing_plan_id":"cebpf4jnsgd1na2vs0mg"},{"bike_id":"9da33d96-f5c4-4b7a-ad5c-cfa19d1893b2","system_id":"levelo_inurba_marseille","lat":43.27171,"lon":5.40987,"is_reserved":false,"is_disabled":false,"rental_uris":{"android":"levelo://app?vid=9da33d96-f5c4-4b7a-ad5c-cfa19d1893b2","ios":"levelo://app?vid=9da33d96-f5c4-4b7a-ad5c-cfa19d1893b2"},"vehicle_type_id":"4","last_reported":1727525699,"current_range_meters":38800,"station_id":"ce4bhl12rcd13ifvqgf0","pricing_plan_id":"cebpf4jnsgd1na2vs0mg"},{"bike_id":"6a075038-c656-49e8-9c46-cccebd9f59ce","system_id":"levelo_inurba_marseille","lat":43.27495,"lon":5.42444,"is_reserved":false,"is_disabled":false,"rental_uris":{"android":"levelo://app?vid=6a075038-c656-49e8-9c46-cccebd9f59ce","ios":"levelo://app?vid=6a075038-c656-49e8-9c46-cccebd9f59ce"},"vehicle_type_id":"4","last_reported":1727525699,"current_range_meters":36400,"station_id":"ce4bhn92rcd13ifvqgrg","pricing_plan_id":"cebpf4jnsgd1na2vs0mg"},{"bike_id":"c769a224-4f7b-4825-b58a-c89e0254950f","system_id":"levelo_inurba_marseille","lat":43.30154,"lon":5.38089,"is_reserved":false,"is_disabled":false,"rental_uris":{"android":"levelo://app?vid=c769a224-4f7b-4825-b58a-c89e0254950f","ios":"levelo://app?vid=c769a224-4f7b-4825-b58a-c89e0254950f"},"vehicle_type_id":"4","last_reported":1727525699,"current_range_meters":27600,"station_id":"","pricing_plan_id":"cebpf4jnsgd1na2vs0mg"},{"bike_id":"765249a1-b4bd-4788-ba12-3d9f91005156","system_id":"levelo_inurba_marseille","lat":43.29902,"lon":5.43665,"is_reserved":false,"is_disabled":false,"rental_uris":{"android":"levelo://app?vid=765249a1-b4bd-4788-ba12-3d9f91005156","ios":"levelo://app?vid=765249a1-b4bd-4788-ba12-3d9f91005156"},"vehicle_type_id":"4","last_reported":1727525699,"current_range_meters":38800,"station_id":"ce4bhpp2rcd13ifvqhfg","pricing_plan_id":"cebpf4jnsgd1na2vs0mg"},{"bike_id":"cb9756cb-1c65-4d96-9789-02d658b0a10d","system_id":"levelo_inurba_marseille","lat":43.337444,"lon":5.374475,"is_reserved":false,"is_disabled":false,"rental_uris":{"android":"levelo://app?vid=cb9756cb-1c65-4d96-9789-02d658b0a10d","ios":"levelo://app?vid=cb9756cb-1c65-4d96-9789-02d658b0a10d"},"vehicle_type_id":"4","last_reported":1727525699,"current_range_meters":24800,"station_id":"","pricing_plan_id":"cebpf4jnsgd1na2vs0mg"},{"bike_id":"7d54d53e-9465-4eb7-988f-3be552d17282","system_id":"levelo_inurba_marseille","lat":43.24994,"lon":5.38933,"is_reserved":false,"is_disabled":false,"rental_uris":{"android":"levelo://app?vid=7d54d53e-9465-4eb7-988f-3be552d17282","ios":"levelo://app?vid=7d54d53e-9465-4eb7-988f-3be552d17282"},"vehicle_type_id":"4","last_reported":1727525699,"current_range_meters":18000,"station_id":"ce4bhgp2rcd13ifvqfd0","pricing_plan_id":"cebpf4jnsgd1na2vs0mg"},{"bike_id":"1439a1ab-9a25-42a7-9fa9-e2c7ad20f357","system_id":"levelo_inurba_marseille","lat":43.32825,"lon":5.40515,"is_reserved":false,"is_disabled":false,"rental_uris":{"android":"levelo://app?vid=1439a1ab-9a25-42a7-9fa9-e2c7ad20f357","ios":"levelo://app?vid=1439a1ab-9a25-42a7-9fa9-e2c7ad20f357"},"vehicle_type_id":"4","last_reported":1727525699,"current_range_meters":2000,"station_id":"","pricing_plan_id":"cebpf4jnsgd1na2vs0mg"},{"bike_id":"e6077362-547e-40aa-9fec-98344b570e19","system_id":"levelo_inurba_marseille","lat":43.23956,"lon":5.36633,"is_reserved":false,"is_disabled":false,"rental_uris":{"android":"levelo://app?vid=e6077362-547e-40aa-9fec-98344b570e19","ios":"levelo://app?vid=e6077362-547e-40aa-9fec-98344b570e19"},"vehicle_type_id":"4","last_reported":1727525699,"current_range_meters":10800,"station_id":"ce4bhi12rcd13ifvqfp0","pricing_plan_id":"cebpf4jnsgd1na2vs0mg"},{"bike_id":"fd95b7d0-9465-4ced-a887-157866b5f796","system_id":"levelo_inurba_marseille","lat":43.28077,"lon":5.3966,"is_reserved":false,"is_disabled":false,"rental_uris":{"android":"levelo://app?vid=fd95b7d0-9465-4ced-a887-157866b5f796","ios":"levelo://app?vid=fd95b7d0-9465-4ced-a887-157866b5f796"},"vehicle_type_id":"4","last_reported":1727525699,"current_range_meters":39200,"station_id":"ce4bho12rcd13ifvqh2g","pricing_plan_id":"cebpf4jnsgd1na2vs0mg"},{"bike_id":"2748de34-95a3-4985-9799-787639aa25be","system_id":"levelo_inurba_marseille","lat":43.28075,"lon":5.39658,"is_reserved":false,"is_disabled":false,"rental_uris":{"android":"levelo://app?vid=2748de34-95a3-4985-9799-787639aa25be","ios":"levelo://app?vid=2748de34-95a3-4985-9799-787639aa25be"},"vehicle_type_id":"4","last_reported":1727525699,"current_range_meters":8800,"station_id":"ce4bho12rcd13ifvqh2g","pricing_plan_id":"cebpf4jnsgd1na2vs0mg"},{"bike_id":"829b4aed-3002-4475-ab01-7db37fff68b7","system_id":"levelo_inurba_marseille","lat":43.28029,"lon":5.36956,"is_reserved":false,"is_disabled":false,"rental_uris":{"android":"levelo://app?vid=829b4aed-3002-4475-ab01-7db37fff68b7","ios":"levelo://app?vid=829b4aed-3002-4475-ab01-7db37fff68b7"},"vehicle_type_id":"4","last_reported":1727525699,"current_range_meters":37600,"station_id":"ce4bha12rcd13ifvqef0","pricing_plan_id":"cebpf4jnsgd1na2vs0mg"},{"bike_id":"39b49294-5648-40f6-8f2e-f7efcddedd89","system_id":"levelo_inurba_marseille","lat":43.304352,"lon":5.397287,"is_reserved":false,"is_disabled":false,"rental_uris":{"android":"levelo://app?vid=39b49294-5648-40f6-8f2e-f7efcddedd89","ios":"levelo://app?vid=39b49294-5648-40f6-8f2e-f7efcddedd89"},"vehicle_type_id":"4","last_reported":1727525699,"current_range_meters":38000,"station_id":"ce4bgph2rcd13ifvqc2g","pricing_plan_id":"cebpf4jnsgd1na2vs0mg"},{"bike_id":"0801863c-74e1-43b7-9e41-d516b6398f98","system_id":"levelo_inurba_marseille","lat":43.30874,"lon":5.39632,"is_reserved":false,"is_disabled":false,"rental_uris":{"android":"levelo://app?vid=0801863c-74e1-43b7-9e41-d516b6398f98","ios":"levelo://app?vid=0801863c-74e1-43b7-9e41-d516b6398f98"},"vehicle_type_id":"4","last_reported":1727525699,"current_range_meters":38800,"station_id":"ce4bh012rcd13ifvqcv0","pricing_plan_id":"cebpf4jnsgd1na2vs0mg"},{"bike_id":"83ab67e9-9683-40ac-9b80-c07390469159","system_id":"levelo_inurba_marseille","lat":43.22928,"lon":5.35373,"is_reserved":false,"is_disabled":false,"rental_uris":{"android":"levelo://app?vid=83ab67e9-9683-40ac-9b80-c07390469159","ios":"levelo://app?vid=83ab67e9-9683-40ac-9b80-c07390469159"},"vehicle_type_id":"4","last_reported":1727525699,"current_range_meters":37600,"station_id":"cpo3532slgdg3j2ikp40","pricing_plan_id":"cebpf4jnsgd1na2vs0mg"},{"bike_id":"1d12beb9-04d0-4763-8c30-7c59b3a619a2","system_id":"levelo_inurba_marseille","lat":43.29683,"lon":5.3729,"is_reserved":false,"is_disabled":false,"rental_uris":{"android":"levelo://app?vid=1d12beb9-04d0-4763-8c30-7c59b3a619a2","ios":"levelo://app?vid=1d12beb9-04d0-4763-8c30-7c59b3a619a2"},"vehicle_type_id":"4","last_reported":1727525699,"current_range_meters":38800,"station_id":"ce4bgk12rcd13ifvqbj0","pricing_plan_id":"cebpf4jnsgd1na2vs0mg"},{"bike_id":"e2012e84-b7d6-4270-b930-e6b05d29a6fd","system_id":"levelo_inurba_marseille","lat":43.27673,"lon":5.38884,"is_reserved":false,"is_disabled":false,"rental_uris":{"android":"levelo://app?vid=e2012e84-b7d6-4270-b930-e6b05d29a6fd","ios":"levelo://app?vid=e2012e84-b7d6-4270-b930-e6b05d29a6fd"},"vehicle_type_id":"4","last_reported":1727525699,"current_range_meters":13600,"station_id":"ce4bhi12rcd13ifvqfo0","pricing_plan_id":"cebpf4jnsgd1na2vs0mg"},{"bike_id":"73d4b1b9-8fa7-45c3-b819-17c2aa182b44","system_id":"levelo_inurba_marseille","lat":43.2956,"lon":5.42284,"is_reserved":false,"is_disabled":false,"rental_uris":{"android":"levelo://app?vid=73d4b1b9-8fa7-45c3-b819-17c2aa182b44","ios":"levelo://app?vid=73d4b1b9-8fa7-45c3-b819-17c2aa182b44"},"vehicle_type_id":"4","last_reported":1727525699,"current_range_meters":10000,"station_id":"ce4bhph2rcd13ifvqhdg","pricing_plan_id":"cebpf4jnsgd1na2vs0mg"},{"bike_id":"03d70f85-4bbf-47b7-9226-760e02d67e4a","system_id":"levelo_inurba_marseille","lat":43.2971,"lon":5.3769,"is_reserved":false,"is_disabled":false,"rental_uris":{"android":"levelo://app?vid=03d70f85-4bbf-47b7-9226-760e02d67e4a","ios":"levelo://app?vid=03d70f85-4bbf-47b7-9226-760e02d67e4a"},"vehicle_type_id":"4","last_reported":1727525699,"current_range_meters":38000,"station_id":"ce4bgkh2rcd13ifvqbl0","pricing_plan_id":"cebpf4jnsgd1na2vs0mg"},{"bike_id":"8524a85f-8427-4a60-91b5-869fad39ff42","system_id":"levelo_inurba_marseille","lat":43.24994,"lon":5.38937,"is_reserved":false,"is_disabled":false,"rental_uris":{"android":"levelo://app?vid=8524a85f-8427-4a60-91b5-869fad39ff42","ios":"levelo://app?vid=8524a85f-8427-4a60-91b5-869fad39ff42"},"vehicle_type_id":"4","last_reported":1727525699,"current_range_meters":38400,"station_id":"ce4bhgp2rcd13ifvqfd0","pricing_plan_id":"cebpf4jnsgd1na2vs0mg"},{"bike_id":"3dcb4d19-9f2a-4c72-b340-cfe0fcbad6e1","system_id":"levelo_inurba_marseille","lat":43.25829,"lon":5.3943,"is_reserved":false,"is_disabled":false,"rental_uris":{"android":"levelo://app?vid=3dcb4d19-9f2a-4c72-b340-cfe0fcbad6e1","ios":"levelo://app?vid=3dcb4d19-9f2a-4c72-b340-cfe0fcbad6e1"},"vehicle_type_id":"4","last_reported":1727525699,"current_range_meters":37600,"station_id":"ce4bhip2rcd13ifvqft0","pricing_plan_id":"cebpf4jnsgd1na2vs0mg"},{"bike_id":"6fb54eef-1b79-4c8c-956c-b78c5752a631","system_id":"levelo_inurba_marseille","lat":43.25822,"lon":5.39433,"is_reserved":false,"is_disabled":false,"rental_uris":{"android":"levelo://app?vid=6fb54eef-1b79-4c8c-956c-b78c5752a631","ios":"levelo://app?vid=6fb54eef-1b79-4c8c-956c-b78c5752a631"},"vehicle_type_id":"4","last_reported":1727525699,"current_range_meters":7200,"station_id":"ce4bhip2rcd13ifvqft0","pricing_plan_id":"cebpf4jnsgd1na2vs0mg"},{"bike_id":"e093492a-0eb9-488d-b5da-e5d533cb3e2e","system_id":"levelo_inurba_marseille","lat":43.2721,"lon":5.39179,"is_reserved":false,"is_disabled":false,"rental_uris":{"android":"levelo://app?vid=e093492a-0eb9-488d-b5da-e5d533cb3e2e","ios":"levelo://app?vid=e093492a-0eb9-488d-b5da-e5d533cb3e2e"},"vehicle_type_id":"4","last_reported":1727525699,"current_range_meters":25200,"station_id":"ce4bhhp2rcd13ifvqfm0","pricing_plan_id":"cebpf4jnsgd1na2vs0mg"},{"bike_id":"cd0ff3e3-3daa-42bc-9697-566bcaf7ff3a","system_id":"levelo_inurba_marseille","lat":43.33019,"lon":5.39035,"is_reserved":false,"is_disabled":false,"rental_uris":{"android":"levelo://app?vid=cd0ff3e3-3daa-42bc-9697-566bcaf7ff3a","ios":"levelo://app?vid=cd0ff3e3-3daa-42bc-9697-566bcaf7ff3a"},"vehicle_type_id":"4","last_reported":1727525699,"current_range_meters":38800,"station_id":"ce4bhr92rcd13ifvqhrg","pricing_plan_id":"cebpf4jnsgd1na2vs0mg"},{"bike_id":"16025923-429d-494d-bd7e-d552f9568daf","system_id":"levelo_inurba_marseille","lat":43.27211,"lon":5.39191,"is_reserved":false,"is_disabled":false,"rental_uris":{"android":"levelo://app?vid=16025923-429d-494d-bd7e-d552f9568daf","ios":"levelo://app?vid=16025923-429d-494d-bd7e-d552f9568daf"},"vehicle_type_id":"4","last_reported":1727525699,"current_range_meters":30800,"station_id":"ce4bhhp2rcd13ifvqfm0","pricing_plan_id":"cebpf4jnsgd1na2vs0mg"},{"bike_id":"7fab7451-a6e0-472b-81ac-3e5565e130d8","system_id":"levelo_inurba_marseille","lat":43.33752,"lon":5.37442,"is_reserved":false,"is_disabled":false,"rental_uris":{"android":"levelo://app?vid=7fab7451-a6e0-472b-81ac-3e5565e130d8","ios":"levelo://app?vid=7fab7451-a6e0-472b-81ac-3e5565e130d8"},"vehicle_type_id":"4","last_reported":1727525699,"current_range_meters":14400,"station_id":"","pricing_plan_id":"cebpf4jnsgd1na2vs0mg"},{"bike_id":"ccb0399a-af8d-4a08-a739-b071793d1a1b","system_id":"levelo_inurba_marseille","lat":43.31712,"lon":5.43704,"is_reserved":false,"is_disabled":false,"rental_uris":{"android":"levelo://app?vid=ccb0399a-af8d-4a08-a739-b071793d1a1b","ios":"levelo://app?vid=ccb0399a-af8d-4a08-a739-b071793d1a1b"},"vehicle_type_id":"4","last_reported":1727525699,"current_range_meters":20800,"station_id":"ce4bhp92rcd13ifvqhcg","pricing_plan_id":"cebpf4jnsgd1na2vs0mg"},{"bike_id":"06e383df-1197-449f-9df1-e723e6e5b745","system_id":"levelo_inurba_marseille","lat":43.23926,"lon":5.38282,"is_reserved":false,"is_disabled":false,"rental_uris":{"android":"levelo://app?vid=06e383df-1197-449f-9df1-e723e6e5b745","ios":"levelo://app?vid=06e383df-1197-449f-9df1-e723e6e5b745"},"vehicle_type_id":"4","last_reported":1727525699,"current_range_meters":8400,"station_id":"","pricing_plan_id":"cebpf4jnsgd1na2vs0mg"},{"bike_id":"e19c2211-331c-42ae-b78a-4ecc2a7133fe","system_id":"levelo_inurba_marseille","lat":43.24668,"lon":5.38157,"is_reserved":false,"is_disabled":false,"rental_uris":{"android":"levelo://app?vid=e19c2211-331c-42ae-b78a-4ecc2a7133fe","ios":"levelo://app?vid=e19c2211-331c-42ae-b78a-4ecc2a7133fe"},"vehicle_type_id":"4","last_reported":1727525699,"current_range_meters":38400,"station_id":"ce4bhih2rcd13ifvqfr0","pricing_plan_id":"cebpf4jnsgd1na2vs0mg"},{"bike_id":"98602f72-4770-4f87-a926-cafde72f700c","system_id":"levelo_inurba_marseille","lat":43.29971,"lon":5.38476,"is_reserved":false,"is_disabled":false,"rental_uris":{"android":"levelo://app?vid=98602f72-4770-4f87-a926-cafde72f700c","ios":"levelo://app?vid=98602f72-4770-4f87-a926-cafde72f700c"},"vehicle_type_id":"4","last_reported":1727525699,"current_range_meters":24000,"station_id":"ce4bgj92rcd13ifvqbd0","pricing_plan_id":"cebpf4jnsgd1na2vs0mg"},{"bike_id":"88ee40ff-debc-4137-8ad3-4a6a160f4324","system_id":"levelo_inurba_marseille","lat":43.26935,"lon":5.38918,"is_reserved":false,"is_disabled":false,"rental_uris":{"android":"levelo://app?vid=88ee40ff-debc-4137-8ad3-4a6a160f4324","ios":"levelo://app?vid=88ee40ff-debc-4137-8ad3-4a6a160f4324"},"vehicle_type_id":"4","last_reported":1727525699,"current_range_meters":26000,"station_id":"ce4bhhh2rcd13ifvqfl0","pricing_plan_id":"cebpf4jnsgd1na2vs0mg"},{"bike_id":"5766ff15-3203-48fc-926e-155fa48982ce","system_id":"levelo_inurba_marseille","lat":43.30532,"lon":5.36547,"is_reserved":false,"is_disabled":false,"rental_uris":{"android":"levelo://app?vid=5766ff15-3203-48fc-926e-155fa48982ce","ios":"levelo://app?vid=5766ff15-3203-48fc-926e-155fa48982ce"},"vehicle_type_id":"4","last_reported":1727525699,"current_range_meters":24400,"station_id":"ce4bgs12rcd13ifvqcag","pricing_plan_id":"cebpf4jnsgd1na2vs0mg"},{"bike_id":"53d3d543-4809-4f9c-a6c1-ced8bbb46e3b","system_id":"levelo_inurba_marseille","lat":43.24386,"lon":5.3705,"is_reserved":false,"is_disabled":false,"rental_uris":{"android":"levelo://app?vid=53d3d543-4809-4f9c-a6c1-ced8bbb46e3b","ios":"levelo://app?vid=53d3d543-4809-4f9c-a6c1-ced8bbb46e3b"},"vehicle_type_id":"4","last_reported":1727525699,"current_range_meters":39200,"station_id":"ce4bhhh2rcd13ifvqfk0","pricing_plan_id":"cebpf4jnsgd1na2vs0mg"},{"bike_id":"a00340c3-2a87-4b48-a268-ec041e1a44ab","system_id":"levelo_inurba_marseille","lat":43.337444,"lon":5.374475,"is_reserved":false,"is_disabled":false,"rental_uris":{"android":"levelo://app?vid=a00340c3-2a87-4b48-a268-ec041e1a44ab","ios":"levelo://app?vid=a00340c3-2a87-4b48-a268-ec041e1a44ab"},"vehicle_type_id":"4","last_reported":1727525699,"current_range_meters":38800,"station_id":"","pricing_plan_id":"cebpf4jnsgd1na2vs0mg"},{"bike_id":"85bea604-ee1a-4e44-ab64-edd92269dade","system_id":"levelo_inurba_marseille","lat":43.301543,"lon":5.380839,"is_reserved":false,"is_disabled":false,"rental_uris":{"android":"levelo://app?vid=85bea604-ee1a-4e44-ab64-edd92269dade","ios":"levelo://app?vid=85bea604-ee1a-4e44-ab64-edd92269dade"},"vehicle_type_id":"4","last_reported":1727525699,"current_range_meters":27600,"station_id":"ce4bgjp2rcd13ifvqbh0","pricing_plan_id":"cebpf4jnsgd1na2vs0mg"},{"bike_id":"a4bb0d33-8ee5-4206-9584-62e8a4f44420","system_id":"levelo_inurba_marseille","lat":43.30537,"lon":5.36546,"is_reserved":false,"is_disabled":false,"rental_uris":{"android":"levelo://app?vid=a4bb0d33-8ee5-4206-9584-62e8a4f44420","ios":"levelo://app?vid=a4bb0d33-8ee5-4206-9584-62e8a4f44420"},"vehicle_type_id":"4","last_reported":1727525699,"current_range_meters":30800,"station_id":"ce4bgs12rcd13ifvqcag","pricing_plan_id":"cebpf4jnsgd1na2vs0mg"},{"bike_id":"dee4a9f7-5360-47b6-839d-f17c135f5ab9","system_id":"levelo_inurba_marseille","lat":43.27372,"lon":5.36262,"is_reserved":false,"is_disabled":false,"rental_uris":{"android":"levelo://app?vid=dee4a9f7-5360-47b6-839d-f17c135f5ab9","ios":"levelo://app?vid=dee4a9f7-5360-47b6-839d-f17c135f5ab9"},"vehicle_type_id":"4","last_reported":1727525699,"current_range_meters":12000,"station_id":"ce4bhbh2rcd13ifvqeo0","pricing_plan_id":"cebpf4jnsgd1na2vs0mg"},{"bike_id":"88c252b6-34e7-4889-9529-1e33eadcc1d0","system_id":"levelo_inurba_marseille","lat":43.27201,"lon":5.39173,"is_reserved":false,"is_disabled":false,"rental_uris":{"android":"levelo://app?vid=88c252b6-34e7-4889-9529-1e33eadcc1d0","ios":"levelo://app?vid=88c252b6-34e7-4889-9529-1e33eadcc1d0"},"vehicle_type_id":"4","last_reported":1727525699,"current_range_meters":35600,"station_id":"ce4bhhp2rcd13ifvqfm0","pricing_plan_id":"cebpf4jnsgd1na2vs0mg"},{"bike_id":"c579a613-f509-47a8-af78-415ec0a05381","system_id":"levelo_inurba_marseille","lat":43.26935,"lon":5.40243,"is_reserved":false,"is_disabled":false,"rental_uris":{"android":"levelo://app?vid=c579a613-f509-47a8-af78-415ec0a05381","ios":"levelo://app?vid=c579a613-f509-47a8-af78-415ec0a05381"},"vehicle_type_id":"4","last_reported":1727525699,"current_range_meters":10000,"station_id":"cjm6bp8fraef2m0cb0m0","pricing_plan_id":"cebpf4jnsgd1na2vs0mg"},{"bike_id":"8fe46ecc-1e67-4f19-8b8d-10a6acd8bd0b","system_id":"levelo_inurba_marseille","lat":43.26003,"lon":5.38675,"is_reserved":false,"is_disabled":false,"rental_uris":{"android":"levelo://app?vid=8fe46ecc-1e67-4f19-8b8d-10a6acd8bd0b","ios":"levelo://app?vid=8fe46ecc-1e67-4f19-8b8d-10a6acd8bd0b"},"vehicle_type_id":"4","last_reported":1727525699,"current_range_meters":8400,"station_id":"","pricing_plan_id":"cebpf4jnsgd1na2vs0mg"},{"bike_id":"4031286b-5a71-454f-8d1c-c95a3c530bc0","system_id":"levelo_inurba_marseille","lat":43.23965,"lon":5.36612,"is_reserved":false,"is_disabled":false,"rental_uris":{"android":"levelo://app?vid=4031286b-5a71-454f-8d1c-c95a3c530bc0","ios":"levelo://app?vid=4031286b-5a71-454f-8d1c-c95a3c530bc0"},"vehicle_type_id":"4","last_reported":1727525699,"current_range_meters":2800,"station_id":"ce4bhi12rcd13ifvqfp0","pricing_plan_id":"cebpf4jnsgd1na2vs0mg"},{"bike_id":"8f902400-6549-421f-9432-98a0b2be08ee","system_id":"levelo_inurba_marseille","lat":43.298883,"lon":5.365215,"is_reserved":false,"is_disabled":false,"rental_uris":{"android":"levelo://app?vid=8f902400-6549-421f-9432-98a0b2be08ee","ios":"levelo://app?vid=8f902400-6549-421f-9432-98a0b2be08ee"},"vehicle_type_id":"4","last_reported":1727525699,"current_range_meters":32400,"station_id":"ce4bgm92rcd13ifvqbr0","pricing_plan_id":"cebpf4jnsgd1na2vs0mg"},{"bike_id":"70f95908-a707-4443-89f0-05100b6f71f9","system_id":"levelo_inurba_marseille","lat":43.23184,"lon":5.39982,"is_reserved":false,"is_disabled":false,"rental_uris":{"android":"levelo://app?vid=70f95908-a707-4443-89f0-05100b6f71f9","ios":"levelo://app?vid=70f95908-a707-4443-89f0-05100b6f71f9"},"vehicle_type_id":"4","last_reported":1727525699,"current_range_meters":38800,"station_id":"ce4bhn12rcd13ifvqgqg","pricing_plan_id":"cebpf4jnsgd1na2vs0mg"},{"bike_id":"c82015d7-39b7-4550-86aa-0b30127499a3","system_id":"levelo_inurba_marseille","lat":43.2762,"lon":5.36098,"is_reserved":false,"is_disabled":false,"rental_uris":{"android":"levelo://app?vid=c82015d7-39b7-4550-86aa-0b30127499a3","ios":"levelo://app?vid=c82015d7-39b7-4550-86aa-0b30127499a3"},"vehicle_type_id":"4","last_reported":1727525699,"current_range_meters":39200,"station_id":"ce4bgj92rcd13ifvqbe0","pricing_plan_id":"cebpf4jnsgd1na2vs0mg"},{"bike_id":"afe5fcf5-fe1a-4d30-bfcd-4452c0d39cee","system_id":"levelo_inurba_marseille","lat":43.30149,"lon":5.38095,"is_reserved":false,"is_disabled":false,"rental_uris":{"android":"levelo://app?vid=afe5fcf5-fe1a-4d30-bfcd-4452c0d39cee","ios":"levelo://app?vid=afe5fcf5-fe1a-4d30-bfcd-4452c0d39cee"},"vehicle_type_id":"4","last_reported":1727525699,"current_range_meters":33600,"station_id":"ce4bgjp2rcd13ifvqbh0","pricing_plan_id":"cebpf4jnsgd1na2vs0mg"},{"bike_id":"f82c88a6-5ccb-4168-bec1-7cbb14a89599","system_id":"levelo_inurba_marseille","lat":43.241782,"lon":5.36408,"is_reserved":false,"is_disabled":false,"rental_uris":{"android":"levelo://app?vid=f82c88a6-5ccb-4168-bec1-7cbb14a89599","ios":"levelo://app?vid=f82c88a6-5ccb-4168-bec1-7cbb14a89599"},"vehicle_type_id":"4","last_reported":1727525699,"current_range_meters":6400,"station_id":"cpo36qri1sfpv3e86is0","pricing_plan_id":"cebpf4jnsgd1na2vs0mg"},{"bike_id":"7ca25bb4-b65d-4b5f-9852-ae78b5dab8a0","system_id":"levelo_inurba_marseille","lat":43.29037,"lon":5.39972,"is_reserved":false,"is_disabled":false,"rental_uris":{"android":"levelo://app?vid=7ca25bb4-b65d-4b5f-9852-ae78b5dab8a0","ios":"levelo://app?vid=7ca25bb4-b65d-4b5f-9852-ae78b5dab8a0"},"vehicle_type_id":"4","last_reported":1727525699,"current_range_meters":38800,"station_id":"ce4bh392rcd13ifvqdm0","pricing_plan_id":"cebpf4jnsgd1na2vs0mg"},{"bike_id":"0e022218-6f8f-4b95-89c5-1f76a26f81f4","system_id":"levelo_inurba_marseille","lat":43.26555,"lon":5.37283,"is_reserved":false,"is_disabled":false,"rental_uris":{"android":"levelo://app?vid=0e022218-6f8f-4b95-89c5-1f76a26f81f4","ios":"levelo://app?vid=0e022218-6f8f-4b95-89c5-1f76a26f81f4"},"vehicle_type_id":"4","last_reported":1727525699,"current_range_meters":19200,"station_id":"ce4bhg12rcd13ifvqf70","pricing_plan_id":"cebpf4jnsgd1na2vs0mg"},{"bike_id":"a7158696-a0e1-4b0a-b70a-2a2f868c7855","system_id":"levelo_inurba_marseille","lat":43.30548,"lon":5.36536,"is_reserved":false,"is_disabled":false,"rental_uris":{"android":"levelo://app?vid=a7158696-a0e1-4b0a-b70a-2a2f868c7855","ios":"levelo://app?vid=a7158696-a0e1-4b0a-b70a-2a2f868c7855"},"vehicle_type_id":"4","last_reported":1727525699,"current_range_meters":38000,"station_id":"ce4bgs12rcd13ifvqcag","pricing_plan_id":"cebpf4jnsgd1na2vs0mg"},{"bike_id":"470689a5-d872-4f2a-8a9c-37bca5272370","system_id":"levelo_inurba_marseille","lat":43.2455,"lon":5.39519,"is_reserved":false,"is_disabled":false,"rental_uris":{"android":"levelo://app?vid=470689a5-d872-4f2a-8a9c-37bca5272370","ios":"levelo://app?vid=470689a5-d872-4f2a-8a9c-37bca5272370"},"vehicle_type_id":"4","last_reported":1727525699,"current_range_meters":34000,"station_id":"ce4bhlp2rcd13ifvqgjg","pricing_plan_id":"cebpf4jnsgd1na2vs0mg"},{"bike_id":"fcf7874b-cfb2-47ef-a9c5-89a95a1b831f","system_id":"levelo_inurba_marseille","lat":43.23187,"lon":5.39987,"is_reserved":false,"is_disabled":false,"rental_uris":{"android":"levelo://app?vid=fcf7874b-cfb2-47ef-a9c5-89a95a1b831f","ios":"levelo://app?vid=fcf7874b-cfb2-47ef-a9c5-89a95a1b831f"},"vehicle_type_id":"4","last_reported":1727525699,"current_range_meters":20400,"station_id":"ce4bhn12rcd13ifvqgqg","pricing_plan_id":"cebpf4jnsgd1na2vs0mg"},{"bike_id":"3371e9e2-12bd-492f-9ad0-79333cd40a8a","system_id":"levelo_inurba_marseille","lat":43.30532,"lon":5.39324,"is_reserved":false,"is_disabled":false,"rental_uris":{"android":"levelo://app?vid=3371e9e2-12bd-492f-9ad0-79333cd40a8a","ios":"levelo://app?vid=3371e9e2-12bd-492f-9ad0-79333cd40a8a"},"vehicle_type_id":"4","last_reported":1727525699,"current_range_meters":31200,"station_id":"","pricing_plan_id":"cebpf4jnsgd1na2vs0mg"},{"bike_id":"869403bb-4fcc-4f66-8ec3-05c3e0e700b7","system_id":"levelo_inurba_marseille","lat":43.27425,"lon":5.39407,"is_reserved":false,"is_disabled":false,"rental_uris":{"android":"levelo://app?vid=869403bb-4fcc-4f66-8ec3-05c3e0e700b7","ios":"levelo://app?vid=869403bb-4fcc-4f66-8ec3-05c3e0e700b7"},"vehicle_type_id":"4","last_reported":1727525699,"current_range_meters":39200,"station_id":"ce4bhdp2rcd13ifvqf20","pricing_plan_id":"cebpf4jnsgd1na2vs0mg"},{"bike_id":"a71a48db-b62a-4a36-9988-3e8b8475ae23","system_id":"levelo_inurba_marseille","lat":43.27052,"lon":5.40256,"is_reserved":false,"is_disabled":false,"rental_uris":{"android":"levelo://app?vid=a71a48db-b62a-4a36-9988-3e8b8475ae23","ios":"levelo://app?vid=a71a48db-b62a-4a36-9988-3e8b8475ae23"},"vehicle_type_id":"4","last_reported":1727525699,"current_range_meters":8400,"station_id":"ce4bhk92rcd13ifvqgc0","pricing_plan_id":"cebpf4jnsgd1na2vs0mg"},{"bike_id":"d11a141c-e7c8-456d-bb17-614ed5f53a69","system_id":"levelo_inurba_marseille","lat":43.28612,"lon":5.37063,"is_reserved":false,"is_disabled":false,"rental_uris":{"android":"levelo://app?vid=d11a141c-e7c8-456d-bb17-614ed5f53a69","ios":"levelo://app?vid=d11a141c-e7c8-456d-bb17-614ed5f53a69"},"vehicle_type_id":"4","last_reported":1727525699,"current_range_meters":24800,"station_id":"ce4bht12rcd13ifvqi60","pricing_plan_id":"cebpf4jnsgd1na2vs0mg"},{"bike_id":"42c29691-2fc8-42c6-8cf2-6e1e331d9372","system_id":"levelo_inurba_marseille","lat":43.28152,"lon":5.42644,"is_reserved":false,"is_disabled":false,"rental_uris":{"android":"levelo://app?vid=42c29691-2fc8-42c6-8cf2-6e1e331d9372","ios":"levelo://app?vid=42c29691-2fc8-42c6-8cf2-6e1e331d9372"},"vehicle_type_id":"4","last_reported":1727525699,"current_range_meters":34800,"station_id":"ce4bhnh2rcd13ifvqgug","pricing_plan_id":"cebpf4jnsgd1na2vs0mg"},{"bike_id":"32eeea8e-573e-4a6d-9aa7-2d2e9dcc5693","system_id":"levelo_inurba_marseille","lat":43.26935,"lon":5.38913,"is_reserved":false,"is_disabled":false,"rental_uris":{"android":"levelo://app?vid=32eeea8e-573e-4a6d-9aa7-2d2e9dcc5693","ios":"levelo://app?vid=32eeea8e-573e-4a6d-9aa7-2d2e9dcc5693"},"vehicle_type_id":"4","last_reported":1727525699,"current_range_meters":36000,"station_id":"ce4bhhh2rcd13ifvqfl0","pricing_plan_id":"cebpf4jnsgd1na2vs0mg"},{"bike_id":"cf2a99f0-171d-46e2-b5f9-b8e518581e33","system_id":"levelo_inurba_marseille","lat":43.2396,"lon":5.36624,"is_reserved":false,"is_disabled":false,"rental_uris":{"android":"levelo://app?vid=cf2a99f0-171d-46e2-b5f9-b8e518581e33","ios":"levelo://app?vid=cf2a99f0-171d-46e2-b5f9-b8e518581e33"},"vehicle_type_id":"4","last_reported":1727525699,"current_range_meters":37600,"station_id":"ce4bhi12rcd13ifvqfp0","pricing_plan_id":"cebpf4jnsgd1na2vs0mg"},{"bike_id":"0be690e0-1203-4dbe-9340-3cf270206d54","system_id":"levelo_inurba_marseille","lat":43.2849,"lon":5.38418,"is_reserved":false,"is_disabled":false,"rental_uris":{"android":"levelo://app?vid=0be690e0-1203-4dbe-9340-3cf270206d54","ios":"levelo://app?vid=0be690e0-1203-4dbe-9340-3cf270206d54"},"vehicle_type_id":"4","last_reported":1727525699,"current_range_meters":12000,"station_id":"ce4bh512rcd13ifvqe3g","pricing_plan_id":"cebpf4jnsgd1na2vs0mg"},{"bike_id":"1b1b12e9-f9a2-4c74-8380-36908fa1f549","system_id":"levelo_inurba_marseille","lat":43.23969,"lon":5.36624,"is_reserved":false,"is_disabled":false,"rental_uris":{"android":"levelo://app?vid=1b1b12e9-f9a2-4c74-8380-36908fa1f549","ios":"levelo://app?vid=1b1b12e9-f9a2-4c74-8380-36908fa1f549"},"vehicle_type_id":"4","last_reported":1727525699,"current_range_meters":18800,"station_id":"ce4bhi12rcd13ifvqfp0","pricing_plan_id":"cebpf4jnsgd1na2vs0mg"},{"bike_id":"9813bfbe-daed-4c00-ace9-0d66d2e83d16","system_id":"levelo_inurba_marseille","lat":43.23143,"lon":5.4372,"is_reserved":false,"is_disabled":false,"rental_uris":{"android":"levelo://app?vid=9813bfbe-daed-4c00-ace9-0d66d2e83d16","ios":"levelo://app?vid=9813bfbe-daed-4c00-ace9-0d66d2e83d16"},"vehicle_type_id":"4","last_reported":1727525699,"current_range_meters":28000,"station_id":"ce4bhmp2rcd13ifvqgog","pricing_plan_id":"cebpf4jnsgd1na2vs0mg"},{"bike_id":"fddc00de-756b-47da-ba31-aa32fb18be4a","system_id":"levelo_inurba_marseille","lat":43.26192,"lon":5.37445,"is_reserved":false,"is_disabled":false,"rental_uris":{"android":"levelo://app?vid=fddc00de-756b-47da-ba31-aa32fb18be4a","ios":"levelo://app?vid=fddc00de-756b-47da-ba31-aa32fb18be4a"},"vehicle_type_id":"4","last_reported":1727525699,"current_range_meters":10000,"station_id":"ce4bhgp2rcd13ifvqfc0","pricing_plan_id":"cebpf4jnsgd1na2vs0mg"},{"bike_id":"af27e55c-9092-4f57-a5c6-7251428e651f","system_id":"levelo_inurba_marseille","lat":43.23196,"lon":5.35546,"is_reserved":false,"is_disabled":false,"rental_uris":{"android":"levelo://app?vid=af27e55c-9092-4f57-a5c6-7251428e651f","ios":"levelo://app?vid=af27e55c-9092-4f57-a5c6-7251428e651f"},"vehicle_type_id":"4","last_reported":1727525699,"current_range_meters":12800,"station_id":"ce4bhu92rcd13ifvqi70","pricing_plan_id":"cebpf4jnsgd1na2vs0mg"},{"bike_id":"52f17877-110a-422d-89ae-fdeda162e6f3","system_id":"levelo_inurba_marseille","lat":43.23955,"lon":5.36627,"is_reserved":false,"is_disabled":false,"rental_uris":{"android":"levelo://app?vid=52f17877-110a-422d-89ae-fdeda162e6f3","ios":"levelo://app?vid=52f17877-110a-422d-89ae-fdeda162e6f3"},"vehicle_type_id":"4","last_reported":1727525699,"current_range_meters":12000,"station_id":"ce4bhi12rcd13ifvqfp0","pricing_plan_id":"cebpf4jnsgd1na2vs0mg"},{"bike_id":"34be20a8-f878-4fd6-8b86-228f82e37008","system_id":"levelo_inurba_marseille","lat":43.29418,"lon":5.38616,"is_reserved":false,"is_disabled":false,"rental_uris":{"android":"levelo://app?vid=34be20a8-f878-4fd6-8b86-228f82e37008","ios":"levelo://app?vid=34be20a8-f878-4fd6-8b86-228f82e37008"},"vehicle_type_id":"4","last_reported":1727525699,"current_range_meters":27200,"station_id":"ce4bh2h2rcd13ifvqdh0","pricing_plan_id":"cebpf4jnsgd1na2vs0mg"},{"bike_id":"66090a2d-c8e8-444b-97ee-580cb870764a","system_id":"levelo_inurba_marseille","lat":43.27325,"lon":5.39077,"is_reserved":false,"is_disabled":false,"rental_uris":{"android":"levelo://app?vid=66090a2d-c8e8-444b-97ee-580cb870764a","ios":"levelo://app?vid=66090a2d-c8e8-444b-97ee-580cb870764a"},"vehicle_type_id":"4","last_reported":1727525699,"current_range_meters":7200,"station_id":"ce4bhgp2rcd13ifvqfe0","pricing_plan_id":"cebpf4jnsgd1na2vs0mg"},{"bike_id":"c249929f-9929-4093-92df-ced9bc74dec4","system_id":"levelo_inurba_marseille","lat":43.23191,"lon":5.35555,"is_reserved":false,"is_disabled":false,"rental_uris":{"android":"levelo://app?vid=c249929f-9929-4093-92df-ced9bc74dec4","ios":"levelo://app?vid=c249929f-9929-4093-92df-ced9bc74dec4"},"vehicle_type_id":"4","last_reported":1727525699,"current_range_meters":20000,"station_id":"ce4bhu92rcd13ifvqi70","pricing_plan_id":"cebpf4jnsgd1na2vs0mg"},{"bike_id":"2fe97347-d74b-4853-a175-570a52cf3516","system_id":"levelo_inurba_marseille","lat":43.29619,"lon":5.37157,"is_reserved":false,"is_disabled":false,"rental_uris":{"android":"levelo://app?vid=2fe97347-d74b-4853-a175-570a52cf3516","ios":"levelo://app?vid=2fe97347-d74b-4853-a175-570a52cf3516"},"vehicle_type_id":"4","last_reported":1727525699,"current_range_meters":39200,"station_id":"ce4bgnh2rcd13ifvqc0g","pricing_plan_id":"cebpf4jnsgd1na2vs0mg"},{"bike_id":"519c17fe-7769-4a3a-8d8b-5c88f7ebd34d","system_id":"levelo_inurba_marseille","lat":43.30182,"lon":5.36623,"is_reserved":false,"is_disabled":false,"rental_uris":{"android":"levelo://app?vid=519c17fe-7769-4a3a-8d8b-5c88f7ebd34d","ios":"levelo://app?vid=519c17fe-7769-4a3a-8d8b-5c88f7ebd34d"},"vehicle_type_id":"4","last_reported":1727525699,"current_range_meters":19600,"station_id":"ce4bgrh2rcd13ifvqc8g","pricing_plan_id":"cebpf4jnsgd1na2vs0mg"},{"bike_id":"e30506ae-b408-4c63-8b96-5db53f14df86","system_id":"levelo_inurba_marseille","lat":43.24805,"lon":5.37454,"is_reserved":false,"is_disabled":false,"rental_uris":{"android":"levelo://app?vid=e30506ae-b408-4c63-8b96-5db53f14df86","ios":"levelo://app?vid=e30506ae-b408-4c63-8b96-5db53f14df86"},"vehicle_type_id":"4","last_reported":1727525699,"current_range_meters":16000,"station_id":"ce4bhgh2rcd13ifvqfb0","pricing_plan_id":"cebpf4jnsgd1na2vs0mg"},{"bike_id":"80ce0cc5-bd5a-4cd2-ba94-15d9acd139ec","system_id":"levelo_inurba_marseille","lat":43.28281,"lon":5.35076,"is_reserved":false,"is_disabled":false,"rental_uris":{"android":"levelo://app?vid=80ce0cc5-bd5a-4cd2-ba94-15d9acd139ec","ios":"levelo://app?vid=80ce0cc5-bd5a-4cd2-ba94-15d9acd139ec"},"vehicle_type_id":"4","last_reported":1727525699,"current_range_meters":30400,"station_id":"ce4bhbp2rcd13ifvqerg","pricing_plan_id":"cebpf4jnsgd1na2vs0mg"},{"bike_id":"cef7b0e4-df87-48ab-b380-59c7db40cc58","system_id":"levelo_inurba_marseille","lat":43.29848,"lon":5.36273,"is_reserved":false,"is_disabled":false,"rental_uris":{"android":"levelo://app?vid=cef7b0e4-df87-48ab-b380-59c7db40cc58","ios":"levelo://app?vid=cef7b0e4-df87-48ab-b380-59c7db40cc58"},"vehicle_type_id":"4","last_reported":1727525699,"current_range_meters":20400,"station_id":"ce4bgpp2rcd13ifvqc3g","pricing_plan_id":"cebpf4jnsgd1na2vs0mg"},{"bike_id":"a1663e52-4884-4761-8651-845682d6aa9d","system_id":"levelo_inurba_marseille","lat":43.22928,"lon":5.35374,"is_reserved":false,"is_disabled":false,"rental_uris":{"android":"levelo://app?vid=a1663e52-4884-4761-8651-845682d6aa9d","ios":"levelo://app?vid=a1663e52-4884-4761-8651-845682d6aa9d"},"vehicle_type_id":"4","last_reported":1727525699,"current_range_meters":32400,"station_id":"cpo3532slgdg3j2ikp40","pricing_plan_id":"cebpf4jnsgd1na2vs0mg"},{"bike_id":"03e0df71-e472-41c0-b243-19a4b2ec10d1","system_id":"levelo_inurba_marseille","lat":43.2997,"lon":5.38474,"is_reserved":false,"is_disabled":false,"rental_uris":{"android":"levelo://app?vid=03e0df71-e472-41c0-b243-19a4b2ec10d1","ios":"levelo://app?vid=03e0df71-e472-41c0-b243-19a4b2ec10d1"},"vehicle_type_id":"4","last_reported":1727525699,"current_range_meters":36000,"station_id":"ce4bgj92rcd13ifvqbd0","pricing_plan_id":"cebpf4jnsgd1na2vs0mg"},{"bike_id":"c9b59e34-32cb-419e-8d3b-985a41a64694","system_id":"levelo_inurba_marseille","lat":43.28008,"lon":5.4167,"is_reserved":false,"is_disabled":false,"rental_uris":{"android":"levelo://app?vid=c9b59e34-32cb-419e-8d3b-985a41a64694","ios":"levelo://app?vid=c9b59e34-32cb-419e-8d3b-985a41a64694"},"vehicle_type_id":"4","last_reported":1727525699,"current_range_meters":38000,"station_id":"ce4bho12rcd13ifvqh1g","pricing_plan_id":"cebpf4jnsgd1na2vs0mg"},{"bike_id":"200e4f9d-b376-4cf3-9c53-6deb7733bd59","system_id":"levelo_inurba_marseille","lat":43.29313,"lon":5.37141,"is_reserved":false,"is_disabled":false,"rental_uris":{"android":"levelo://app?vid=200e4f9d-b376-4cf3-9c53-6deb7733bd59","ios":"levelo://app?vid=200e4f9d-b376-4cf3-9c53-6deb7733bd59"},"vehicle_type_id":"4","last_reported":1727525699,"current_range_meters":0,"station_id":"ce4bgh92rcd13ifvqb40","pricing_plan_id":"cebpf4jnsgd1na2vs0mg"},{"bike_id":"31d3c74d-f20a-4edf-9c40-1231eb4e8f43","system_id":"levelo_inurba_marseille","lat":43.29727,"lon":5.37688,"is_reserved":false,"is_disabled":false,"rental_uris":{"android":"levelo://app?vid=31d3c74d-f20a-4edf-9c40-1231eb4e8f43","ios":"levelo://app?vid=31d3c74d-f20a-4edf-9c40-1231eb4e8f43"},"vehicle_type_id":"4","last_reported":1727525699,"current_range_meters":38800,"station_id":"ce4bgkh2rcd13ifvqbl0","pricing_plan_id":"cebpf4jnsgd1na2vs0mg"},{"bike_id":"ef670da1-2122-4fae-876a-6773e8b2be74","system_id":"levelo_inurba_marseille","lat":43.29594,"lon":5.38098,"is_reserved":false,"is_disabled":false,"rental_uris":{"android":"levelo://app?vid=ef670da1-2122-4fae-876a-6773e8b2be74","ios":"levelo://app?vid=ef670da1-2122-4fae-876a-6773e8b2be74"},"vehicle_type_id":"4","last_reported":1727525699,"current_range_meters":12400,"station_id":"ce4bgl12rcd13ifvqbo0","pricing_plan_id":"cebpf4jnsgd1na2vs0mg"},{"bike_id":"6e043fe2-a8b8-4150-93b9-87ba57b71cae","system_id":"levelo_inurba_marseille","lat":43.30192,"lon":5.36625,"is_reserved":false,"is_disabled":false,"rental_uris":{"android":"levelo://app?vid=6e043fe2-a8b8-4150-93b9-87ba57b71cae","ios":"levelo://app?vid=6e043fe2-a8b8-4150-93b9-87ba57b71cae"},"vehicle_type_id":"4","last_reported":1727525699,"current_range_meters":5600,"station_id":"ce4bgrh2rcd13ifvqc8g","pricing_plan_id":"cebpf4jnsgd1na2vs0mg"},{"bike_id":"fb20e38d-5a91-489d-b032-15a29d70808d","system_id":"levelo_inurba_marseille","lat":43.3176,"lon":5.3901,"is_reserved":false,"is_disabled":false,"rental_uris":{"android":"levelo://app?vid=fb20e38d-5a91-489d-b032-15a29d70808d","ios":"levelo://app?vid=fb20e38d-5a91-489d-b032-15a29d70808d"},"vehicle_type_id":"4","last_reported":1727525699,"current_range_meters":36400,"station_id":"ce4bhqp2rcd13ifvqhng","pricing_plan_id":"cebpf4jnsgd1na2vs0mg"},{"bike_id":"2ae6ccef-710d-4c66-9e4e-d025d2e134a8","system_id":"levelo_inurba_marseille","lat":43.29574,"lon":5.37497,"is_reserved":false,"is_disabled":false,"rental_uris":{"android":"levelo://app?vid=2ae6ccef-710d-4c66-9e4e-d025d2e134a8","ios":"levelo://app?vid=2ae6ccef-710d-4c66-9e4e-d025d2e134a8"},"vehicle_type_id":"4","last_reported":1727525699,"current_range_meters":33600,"station_id":"ce4bgh92rcd13ifvqb50","pricing_plan_id":"cebpf4jnsgd1na2vs0mg"},{"bike_id":"40232cdb-3c32-4158-97e8-36580421c605","system_id":"levelo_inurba_marseille","lat":43.27902,"lon":5.37988,"is_reserved":false,"is_disabled":false,"rental_uris":{"android":"levelo://app?vid=40232cdb-3c32-4158-97e8-36580421c605","ios":"levelo://app?vid=40232cdb-3c32-4158-97e8-36580421c605"},"vehicle_type_id":"4","last_reported":1727525699,"current_range_meters":36800,"station_id":"ce4bhf92rcd13ifvqf50","pricing_plan_id":"cebpf4jnsgd1na2vs0mg"},{"bike_id":"8bc2963e-f24d-4af4-8d3d-ee0a94762b5c","system_id":"levelo_inurba_marseille","lat":43.25004,"lon":5.38925,"is_reserved":false,"is_disabled":false,"rental_uris":{"android":"levelo://app?vid=8bc2963e-f24d-4af4-8d3d-ee0a94762b5c","ios":"levelo://app?vid=8bc2963e-f24d-4af4-8d3d-ee0a94762b5c"},"vehicle_type_id":"4","last_reported":1727525699,"current_range_meters":18800,"station_id":"ce4bhgp2rcd13ifvqfd0","pricing_plan_id":"cebpf4jnsgd1na2vs0mg"},{"bike_id":"78d5a258-2b1f-45f2-9253-05903f545a0a","system_id":"levelo_inurba_marseille","lat":43.29727,"lon":5.3768,"is_reserved":false,"is_disabled":false,"rental_uris":{"android":"levelo://app?vid=78d5a258-2b1f-45f2-9253-05903f545a0a","ios":"levelo://app?vid=78d5a258-2b1f-45f2-9253-05903f545a0a"},"vehicle_type_id":"4","last_reported":1727525699,"current_range_meters":22400,"station_id":"ce4bgkh2rcd13ifvqbl0","pricing_plan_id":"cebpf4jnsgd1na2vs0mg"},{"bike_id":"b7d8fe89-7ef0-4cd5-874b-ff4ceb98b616","system_id":"levelo_inurba_marseille","lat":43.31217,"lon":5.36851,"is_reserved":false,"is_disabled":false,"rental_uris":{"android":"levelo://app?vid=b7d8fe89-7ef0-4cd5-874b-ff4ceb98b616","ios":"levelo://app?vid=b7d8fe89-7ef0-4cd5-874b-ff4ceb98b616"},"vehicle_type_id":"4","last_reported":1727525699,"current_range_meters":20800,"station_id":"ce4bgl92rcd13ifvqbq0","pricing_plan_id":"cebpf4jnsgd1na2vs0mg"},{"bike_id":"de8323f9-d012-4d9c-b01c-767c8be9d592","system_id":"levelo_inurba_marseille","lat":43.2655,"lon":5.37285,"is_reserved":false,"is_disabled":false,"rental_uris":{"android":"levelo://app?vid=de8323f9-d012-4d9c-b01c-767c8be9d592","ios":"levelo://app?vid=de8323f9-d012-4d9c-b01c-767c8be9d592"},"vehicle_type_id":"4","last_reported":1727525699,"current_range_meters":38800,"station_id":"ce4bhg12rcd13ifvqf70","pricing_plan_id":"cebpf4jnsgd1na2vs0mg"},{"bike_id":"5a0fc60d-12ad-4a47-8d99-68fe18434e9a","system_id":"levelo_inurba_marseille","lat":43.30537,"lon":5.36549,"is_reserved":false,"is_disabled":false,"rental_uris":{"android":"levelo://app?vid=5a0fc60d-12ad-4a47-8d99-68fe18434e9a","ios":"levelo://app?vid=5a0fc60d-12ad-4a47-8d99-68fe18434e9a"},"vehicle_type_id":"4","last_reported":1727525699,"current_range_meters":30400,"station_id":"ce4bgs12rcd13ifvqcag","pricing_plan_id":"cebpf4jnsgd1na2vs0mg"},{"bike_id":"b2ca4193-97b5-45dd-b635-93f05d5f2d78","system_id":"levelo_inurba_marseille","lat":43.3376,"lon":5.37535,"is_reserved":false,"is_disabled":false,"rental_uris":{"android":"levelo://app?vid=b2ca4193-97b5-45dd-b635-93f05d5f2d78","ios":"levelo://app?vid=b2ca4193-97b5-45dd-b635-93f05d5f2d78"},"vehicle_type_id":"4","last_reported":1727525699,"current_range_meters":19200,"station_id":"","pricing_plan_id":"cebpf4jnsgd1na2vs0mg"},{"bike_id":"9248ecb5-13f1-446d-b9ee-e266c545eae5","system_id":"levelo_inurba_marseille","lat":43.28571,"lon":5.39487,"is_reserved":false,"is_disabled":false,"rental_uris":{"android":"levelo://app?vid=9248ecb5-13f1-446d-b9ee-e266c545eae5","ios":"levelo://app?vid=9248ecb5-13f1-446d-b9ee-e266c545eae5"},"vehicle_type_id":"4","last_reported":1727525699,"current_range_meters":12400,"station_id":"ce4bh292rcd13ifvqdg0","pricing_plan_id":"cebpf4jnsgd1na2vs0mg"},{"bike_id":"823fe18e-c6fd-4c68-b458-e33ca2e04abd","system_id":"levelo_inurba_marseille","lat":43.33023,"lon":5.39034,"is_reserved":false,"is_disabled":false,"rental_uris":{"android":"levelo://app?vid=823fe18e-c6fd-4c68-b458-e33ca2e04abd","ios":"levelo://app?vid=823fe18e-c6fd-4c68-b458-e33ca2e04abd"},"vehicle_type_id":"4","last_reported":1727525699,"current_range_meters":18000,"station_id":"ce4bhr92rcd13ifvqhrg","pricing_plan_id":"cebpf4jnsgd1na2vs0mg"},{"bike_id":"bf15cf37-3a4c-4635-b28c-358f55c15bae","system_id":"levelo_inurba_marseille","lat":43.337573,"lon":5.374563,"is_reserved":false,"is_disabled":false,"rental_uris":{"android":"levelo://app?vid=bf15cf37-3a4c-4635-b28c-358f55c15bae","ios":"levelo://app?vid=bf15cf37-3a4c-4635-b28c-358f55c15bae"},"vehicle_type_id":"4","last_reported":1727525699,"current_range_meters":38800,"station_id":"","pricing_plan_id":"cebpf4jnsgd1na2vs0mg"},{"bike_id":"2510be33-86b7-4e71-8d70-c2aabad11442","system_id":"levelo_inurba_marseille","lat":43.2962,"lon":5.37153,"is_reserved":false,"is_disabled":false,"rental_uris":{"android":"levelo://app?vid=2510be33-86b7-4e71-8d70-c2aabad11442","ios":"levelo://app?vid=2510be33-86b7-4e71-8d70-c2aabad11442"},"vehicle_type_id":"4","last_reported":1727525699,"current_range_meters":38400,"station_id":"ce4bgnh2rcd13ifvqc0g","pricing_plan_id":"cebpf4jnsgd1na2vs0mg"},{"bike_id":"cd2327c7-af60-4af9-9eff-465722c02c8b","system_id":"levelo_inurba_marseille","lat":43.33614,"lon":5.41019,"is_reserved":false,"is_disabled":false,"rental_uris":{"android":"levelo://app?vid=cd2327c7-af60-4af9-9eff-465722c02c8b","ios":"levelo://app?vid=cd2327c7-af60-4af9-9eff-465722c02c8b"},"vehicle_type_id":"4","last_reported":1727525699,"current_range_meters":8800,"station_id":"ce4bhqh2rcd13ifvqhmg","pricing_plan_id":"cebpf4jnsgd1na2vs0mg"},{"bike_id":"d3242727-2f40-41af-84af-5fdd57de2329","system_id":"levelo_inurba_marseille","lat":43.28611,"lon":5.35104,"is_reserved":false,"is_disabled":false,"rental_uris":{"android":"levelo://app?vid=d3242727-2f40-41af-84af-5fdd57de2329","ios":"levelo://app?vid=d3242727-2f40-41af-84af-5fdd57de2329"},"vehicle_type_id":"4","last_reported":1727525699,"current_range_meters":23200,"station_id":"ce4bhch2rcd13ifvqeug","pricing_plan_id":"cebpf4jnsgd1na2vs0mg"},{"bike_id":"6aa95821-8b44-42f3-9d07-8b4a4001e2b1","system_id":"levelo_inurba_marseille","lat":43.23962,"lon":5.36617,"is_reserved":false,"is_disabled":false,"rental_uris":{"android":"levelo://app?vid=6aa95821-8b44-42f3-9d07-8b4a4001e2b1","ios":"levelo://app?vid=6aa95821-8b44-42f3-9d07-8b4a4001e2b1"},"vehicle_type_id":"4","last_reported":1727525699,"current_range_meters":33600,"station_id":"ce4bhi12rcd13ifvqfp0","pricing_plan_id":"cebpf4jnsgd1na2vs0mg"},{"bike_id":"091c8ba1-288e-4f8b-a66f-628927bbe83c","system_id":"levelo_inurba_marseille","lat":43.23967,"lon":5.36616,"is_reserved":false,"is_disabled":false,"rental_uris":{"android":"levelo://app?vid=091c8ba1-288e-4f8b-a66f-628927bbe83c","ios":"levelo://app?vid=091c8ba1-288e-4f8b-a66f-628927bbe83c"},"vehicle_type_id":"4","last_reported":1727525699,"current_range_meters":3600,"station_id":"ce4bhi12rcd13ifvqfp0","pricing_plan_id":"cebpf4jnsgd1na2vs0mg"},{"bike_id":"a63d4449-4f5a-4f1c-9a3c-27c8d74bd2a3","system_id":"levelo_inurba_marseille","lat":43.2439,"lon":5.37066,"is_reserved":false,"is_disabled":false,"rental_uris":{"android":"levelo://app?vid=a63d4449-4f5a-4f1c-9a3c-27c8d74bd2a3","ios":"levelo://app?vid=a63d4449-4f5a-4f1c-9a3c-27c8d74bd2a3"},"vehicle_type_id":"4","last_reported":1727525699,"current_range_meters":16400,"station_id":"ce4bhhh2rcd13ifvqfk0","pricing_plan_id":"cebpf4jnsgd1na2vs0mg"},{"bike_id":"fdc60fbf-62c6-4343-b28f-fdca3d3b4ed2","system_id":"levelo_inurba_marseille","lat":43.25498,"lon":5.37647,"is_reserved":false,"is_disabled":false,"rental_uris":{"android":"levelo://app?vid=fdc60fbf-62c6-4343-b28f-fdca3d3b4ed2","ios":"levelo://app?vid=fdc60fbf-62c6-4343-b28f-fdca3d3b4ed2"},"vehicle_type_id":"4","last_reported":1727525699,"current_range_meters":33200,"station_id":"ce4bhh12rcd13ifvqff0","pricing_plan_id":"cebpf4jnsgd1na2vs0mg"},{"bike_id":"6b525450-4099-4e0b-bd11-2a201e3d7d9e","system_id":"levelo_inurba_marseille","lat":43.29166,"lon":5.37143,"is_reserved":false,"is_disabled":false,"rental_uris":{"android":"levelo://app?vid=6b525450-4099-4e0b-bd11-2a201e3d7d9e","ios":"levelo://app?vid=6b525450-4099-4e0b-bd11-2a201e3d7d9e"},"vehicle_type_id":"4","last_reported":1727525699,"current_range_meters":3600,"station_id":"ce4bha92rcd13ifvqeh0","pricing_plan_id":"cebpf4jnsgd1na2vs0mg"},{"bike_id":"e7acdeb0-fc9f-4cd0-92be-be9c6b676592","system_id":"levelo_inurba_marseille","lat":43.29004,"lon":5.35603,"is_reserved":false,"is_disabled":false,"rental_uris":{"android":"levelo://app?vid=e7acdeb0-fc9f-4cd0-92be-be9c6b676592","ios":"levelo://app?vid=e7acdeb0-fc9f-4cd0-92be-be9c6b676592"},"vehicle_type_id":"4","last_reported":1727525699,"current_range_meters":4400,"station_id":"ce4bhb92rcd13ifvqen0","pricing_plan_id":"cebpf4jnsgd1na2vs0mg"},{"bike_id":"d39018ec-3caf-4f4e-b0fd-b4a6b92271c9","system_id":"levelo_inurba_marseille","lat":43.30793,"lon":5.37646,"is_reserved":false,"is_disabled":false,"rental_uris":{"android":"levelo://app?vid=d39018ec-3caf-4f4e-b0fd-b4a6b92271c9","ios":"levelo://app?vid=d39018ec-3caf-4f4e-b0fd-b4a6b92271c9"},"vehicle_type_id":"4","last_reported":1727525699,"current_range_meters":15200,"station_id":"ce4bgv92rcd13ifvqcq0","pricing_plan_id":"cebpf4jnsgd1na2vs0mg"},{"bike_id":"b084c65e-1af5-4fa6-a89a-e4c8c49755d8","system_id":"levelo_inurba_marseille","lat":43.2743,"lon":5.3942,"is_reserved":false,"is_disabled":false,"rental_uris":{"android":"levelo://app?vid=b084c65e-1af5-4fa6-a89a-e4c8c49755d8","ios":"levelo://app?vid=b084c65e-1af5-4fa6-a89a-e4c8c49755d8"},"vehicle_type_id":"4","last_reported":1727525699,"current_range_meters":28800,"station_id":"ce4bhdp2rcd13ifvqf20","pricing_plan_id":"cebpf4jnsgd1na2vs0mg"},{"bike_id":"a32da6d8-3d4e-491b-b942-27c756810f18","system_id":"levelo_inurba_marseille","lat":43.29798,"lon":5.38108,"is_reserved":false,"is_disabled":false,"rental_uris":{"android":"levelo://app?vid=a32da6d8-3d4e-491b-b942-27c756810f18","ios":"levelo://app?vid=a32da6d8-3d4e-491b-b942-27c756810f18"},"vehicle_type_id":"4","last_reported":1727525699,"current_range_meters":25600,"station_id":"ce4bgip2rcd13ifvqbb0","pricing_plan_id":"cebpf4jnsgd1na2vs0mg"},{"bike_id":"bc7dc6a9-589f-4649-9e06-6ce7434d3293","system_id":"levelo_inurba_marseille","lat":43.2866,"lon":5.36351,"is_reserved":false,"is_disabled":false,"rental_uris":{"android":"levelo://app?vid=bc7dc6a9-589f-4649-9e06-6ce7434d3293","ios":"levelo://app?vid=bc7dc6a9-589f-4649-9e06-6ce7434d3293"},"vehicle_type_id":"4","last_reported":1727525699,"current_range_meters":25600,"station_id":"ce4bhah2rcd13ifvqej0","pricing_plan_id":"cebpf4jnsgd1na2vs0mg"},{"bike_id":"b6201ac8-09c5-4ec5-be64-a004431fc69b","system_id":"levelo_inurba_marseille","lat":43.23193,"lon":5.35557,"is_reserved":false,"is_disabled":false,"rental_uris":{"android":"levelo://app?vid=b6201ac8-09c5-4ec5-be64-a004431fc69b","ios":"levelo://app?vid=b6201ac8-09c5-4ec5-be64-a004431fc69b"},"vehicle_type_id":"4","last_reported":1727525699,"current_range_meters":16000,"station_id":"ce4bhu92rcd13ifvqi70","pricing_plan_id":"cebpf4jnsgd1na2vs0mg"},{"bike_id":"1daf26b8-2909-42b1-9af7-bcfdfff8297e","system_id":"levelo_inurba_marseille","lat":43.23181,"lon":5.39974,"is_reserved":false,"is_disabled":false,"rental_uris":{"android":"levelo://app?vid=1daf26b8-2909-42b1-9af7-bcfdfff8297e","ios":"levelo://app?vid=1daf26b8-2909-42b1-9af7-bcfdfff8297e"},"vehicle_type_id":"4","last_reported":1727525699,"current_range_meters":38800,"station_id":"ce4bhn12rcd13ifvqgqg","pricing_plan_id":"cebpf4jnsgd1na2vs0mg"},{"bike_id":"bd1b70fa-a6e2-4db0-84a7-3df96ccc609d","system_id":"levelo_inurba_marseille","lat":43.27429,"lon":5.39406,"is_reserved":false,"is_disabled":false,"rental_uris":{"android":"levelo://app?vid=bd1b70fa-a6e2-4db0-84a7-3df96ccc609d","ios":"levelo://app?vid=bd1b70fa-a6e2-4db0-84a7-3df96ccc609d"},"vehicle_type_id":"4","last_reported":1727525699,"current_range_meters":34000,"station_id":"ce4bhdp2rcd13ifvqf20","pricing_plan_id":"cebpf4jnsgd1na2vs0mg"},{"bike_id":"8a228f78-61f7-4381-9d75-70ccef72225a","system_id":"levelo_inurba_marseille","lat":43.32543,"lon":5.41418,"is_reserved":false,"is_disabled":false,"rental_uris":{"android":"levelo://app?vid=8a228f78-61f7-4381-9d75-70ccef72225a","ios":"levelo://app?vid=8a228f78-61f7-4381-9d75-70ccef72225a"},"vehicle_type_id":"4","last_reported":1727525699,"current_range_meters":8000,"station_id":"ce4bhq12rcd13ifvqhhg","pricing_plan_id":"cebpf4jnsgd1na2vs0mg"},{"bike_id":"ed8c0c2a-49b2-4987-a9ba-4dd1ce890fe6","system_id":"levelo_inurba_marseille","lat":43.29726,"lon":5.37687,"is_reserved":false,"is_disabled":false,"rental_uris":{"android":"levelo://app?vid=ed8c0c2a-49b2-4987-a9ba-4dd1ce890fe6","ios":"levelo://app?vid=ed8c0c2a-49b2-4987-a9ba-4dd1ce890fe6"},"vehicle_type_id":"4","last_reported":1727525699,"current_range_meters":38800,"station_id":"ce4bgkh2rcd13ifvqbl0","pricing_plan_id":"cebpf4jnsgd1na2vs0mg"},{"bike_id":"cabc45ac-fe50-464c-8afd-e4e14b9136a4","system_id":"levelo_inurba_marseille","lat":43.284058,"lon":5.375098,"is_reserved":false,"is_disabled":false,"rental_uris":{"android":"levelo://app?vid=cabc45ac-fe50-464c-8afd-e4e14b9136a4","ios":"levelo://app?vid=cabc45ac-fe50-464c-8afd-e4e14b9136a4"},"vehicle_type_id":"4","last_reported":1727525699,"current_range_meters":36400,"station_id":"ce4bh412rcd13ifvqds0","pricing_plan_id":"cebpf4jnsgd1na2vs0mg"},{"bike_id":"e9aeb993-7e07-4b92-bc3a-19d2a560b8a6","system_id":"levelo_inurba_marseille","lat":43.27309,"lon":5.39073,"is_reserved":false,"is_disabled":false,"rental_uris":{"android":"levelo://app?vid=e9aeb993-7e07-4b92-bc3a-19d2a560b8a6","ios":"levelo://app?vid=e9aeb993-7e07-4b92-bc3a-19d2a560b8a6"},"vehicle_type_id":"4","last_reported":1727525699,"current_range_meters":38400,"station_id":"ce4bhgp2rcd13ifvqfe0","pricing_plan_id":"cebpf4jnsgd1na2vs0mg"},{"bike_id":"cd3c1cbc-a54e-4b37-b2b2-65225ae29bd6","system_id":"levelo_inurba_marseille","lat":43.30152,"lon":5.38076,"is_reserved":false,"is_disabled":false,"rental_uris":{"android":"levelo://app?vid=cd3c1cbc-a54e-4b37-b2b2-65225ae29bd6","ios":"levelo://app?vid=cd3c1cbc-a54e-4b37-b2b2-65225ae29bd6"},"vehicle_type_id":"4","last_reported":1727525699,"current_range_meters":32800,"station_id":"ce4bgjp2rcd13ifvqbh0","pricing_plan_id":"cebpf4jnsgd1na2vs0mg"},{"bike_id":"6bbe7017-d8c4-4797-9de4-8c9de6239e13","system_id":"levelo_inurba_marseille","lat":43.24996,"lon":5.3893,"is_reserved":false,"is_disabled":false,"rental_uris":{"android":"levelo://app?vid=6bbe7017-d8c4-4797-9de4-8c9de6239e13","ios":"levelo://app?vid=6bbe7017-d8c4-4797-9de4-8c9de6239e13"},"vehicle_type_id":"4","last_reported":1727525699,"current_range_meters":35600,"station_id":"ce4bhgp2rcd13ifvqfd0","pricing_plan_id":"cebpf4jnsgd1na2vs0mg"},{"bike_id":"3b170ecf-4bbb-421f-886d-94818fba1de8","system_id":"levelo_inurba_marseille","lat":43.28482,"lon":5.40019,"is_reserved":false,"is_disabled":false,"rental_uris":{"android":"levelo://app?vid=3b170ecf-4bbb-421f-886d-94818fba1de8","ios":"levelo://app?vid=3b170ecf-4bbb-421f-886d-94818fba1de8"},"vehicle_type_id":"4","last_reported":1727525699,"current_range_meters":37600,"station_id":"ce4bh2h2rcd13ifvqdh0","pricing_plan_id":"cebpf4jnsgd1na2vs0mg"},{"bike_id":"a352d782-a71e-4afa-b7a0-5a11c32e90eb","system_id":"levelo_inurba_marseille","lat":43.2396,"lon":5.36638,"is_reserved":false,"is_disabled":false,"rental_uris":{"android":"levelo://app?vid=a352d782-a71e-4afa-b7a0-5a11c32e90eb","ios":"levelo://app?vid=a352d782-a71e-4afa-b7a0-5a11c32e90eb"},"vehicle_type_id":"4","last_reported":1727525699,"current_range_meters":22000,"station_id":"ce4bhi12rcd13ifvqfp0","pricing_plan_id":"cebpf4jnsgd1na2vs0mg"},{"bike_id":"a2930f9b-d270-4c8a-897e-ce534e0919b3","system_id":"levelo_inurba_marseille","lat":43.24176,"lon":5.39731,"is_reserved":false,"is_disabled":false,"rental_uris":{"android":"levelo://app?vid=a2930f9b-d270-4c8a-897e-ce534e0919b3","ios":"levelo://app?vid=a2930f9b-d270-4c8a-897e-ce534e0919b3"},"vehicle_type_id":"4","last_reported":1727525699,"current_range_meters":24800,"station_id":"ce4bhn12rcd13ifvqgpg","pricing_plan_id":"cebpf4jnsgd1na2vs0mg"},{"bike_id":"16c8cd94-3673-47b3-ba21-cc467bc79683","system_id":"levelo_inurba_marseille","lat":43.31341,"lon":5.36705,"is_reserved":false,"is_disabled":false,"rental_uris":{"android":"levelo://app?vid=16c8cd94-3673-47b3-ba21-cc467bc79683","ios":"levelo://app?vid=16c8cd94-3673-47b3-ba21-cc467bc79683"},"vehicle_type_id":"4","last_reported":1727525699,"current_range_meters":38800,"station_id":"ce4bgr92rcd13ifvqc6g","pricing_plan_id":"cebpf4jnsgd1na2vs0mg"},{"bike_id":"207ffe99-f2e2-4d11-a577-0100f424763e","system_id":"levelo_inurba_marseille","lat":43.32039,"lon":5.4156,"is_reserved":false,"is_disabled":false,"rental_uris":{"android":"levelo://app?vid=207ffe99-f2e2-4d11-a577-0100f424763e","ios":"levelo://app?vid=207ffe99-f2e2-4d11-a577-0100f424763e"},"vehicle_type_id":"4","last_reported":1727525699,"current_range_meters":20400,"station_id":"ce4bhq92rcd13ifvqhkg","pricing_plan_id":"cebpf4jnsgd1na2vs0mg"},{"bike_id":"1b5c59f8-89a9-4e46-93f7-af2461aa251a","system_id":"levelo_inurba_marseille","lat":43.23961,"lon":5.36623,"is_reserved":false,"is_disabled":false,"rental_uris":{"android":"levelo://app?vid=1b5c59f8-89a9-4e46-93f7-af2461aa251a","ios":"levelo://app?vid=1b5c59f8-89a9-4e46-93f7-af2461aa251a"},"vehicle_type_id":"4","last_reported":1727525699,"current_range_meters":10800,"station_id":"ce4bhi12rcd13ifvqfp0","pricing_plan_id":"cebpf4jnsgd1na2vs0mg"},{"bike_id":"04a00171-ee19-4255-8598-884c38607751","system_id":"levelo_inurba_marseille","lat":43.29273,"lon":5.36841,"is_reserved":false,"is_disabled":false,"rental_uris":{"android":"levelo://app?vid=04a00171-ee19-4255-8598-884c38607751","ios":"levelo://app?vid=04a00171-ee19-4255-8598-884c38607751"},"vehicle_type_id":"4","last_reported":1727525699,"current_range_meters":30400,"station_id":"ce4bhbp2rcd13ifvqesg","pricing_plan_id":"cebpf4jnsgd1na2vs0mg"},{"bike_id":"de712dca-eef3-49c0-8217-c5753198615c","system_id":"levelo_inurba_marseille","lat":43.28615,"lon":5.35103,"is_reserved":false,"is_disabled":false,"rental_uris":{"android":"levelo://app?vid=de712dca-eef3-49c0-8217-c5753198615c","ios":"levelo://app?vid=de712dca-eef3-49c0-8217-c5753198615c"},"vehicle_type_id":"4","last_reported":1727525699,"current_range_meters":8000,"station_id":"ce4bhch2rcd13ifvqeug","pricing_plan_id":"cebpf4jnsgd1na2vs0mg"},{"bike_id":"4acf7c46-b7fb-40d7-9010-a6902994c14e","system_id":"levelo_inurba_marseille","lat":43.27911,"lon":5.38018,"is_reserved":false,"is_disabled":false,"rental_uris":{"android":"levelo://app?vid=4acf7c46-b7fb-40d7-9010-a6902994c14e","ios":"levelo://app?vid=4acf7c46-b7fb-40d7-9010-a6902994c14e"},"vehicle_type_id":"4","last_reported":1727525699,"current_range_meters":24800,"station_id":"ce4bhf92rcd13ifvqf50","pricing_plan_id":"cebpf4jnsgd1na2vs0mg"},{"bike_id":"eb40660b-9cba-4839-95b5-e1a88988e1c0","system_id":"levelo_inurba_marseille","lat":43.29845,"lon":5.36283,"is_reserved":false,"is_disabled":false,"rental_uris":{"android":"levelo://app?vid=eb40660b-9cba-4839-95b5-e1a88988e1c0","ios":"levelo://app?vid=eb40660b-9cba-4839-95b5-e1a88988e1c0"},"vehicle_type_id":"4","last_reported":1727525699,"current_range_meters":38800,"station_id":"ce4bgpp2rcd13ifvqc3g","pricing_plan_id":"cebpf4jnsgd1na2vs0mg"},{"bike_id":"28fd6afa-8ab7-494a-b25a-1a23b319519f","system_id":"levelo_inurba_marseille","lat":43.3171,"lon":5.43708,"is_reserved":false,"is_disabled":false,"rental_uris":{"android":"levelo://app?vid=28fd6afa-8ab7-494a-b25a-1a23b319519f","ios":"levelo://app?vid=28fd6afa-8ab7-494a-b25a-1a23b319519f"},"vehicle_type_id":"4","last_reported":1727525699,"current_range_meters":37600,"station_id":"ce4bhp92rcd13ifvqhcg","pricing_plan_id":"cebpf4jnsgd1na2vs0mg"},{"bike_id":"eb9354d6-b83c-4537-aa53-f96ed212763e","system_id":"levelo_inurba_marseille","lat":43.29974,"lon":5.38488,"is_reserved":false,"is_disabled":false,"rental_uris":{"android":"levelo://app?vid=eb9354d6-b83c-4537-aa53-f96ed212763e","ios":"levelo://app?vid=eb9354d6-b83c-4537-aa53-f96ed212763e"},"vehicle_type_id":"4","last_reported":1727525699,"current_range_meters":38800,"station_id":"ce4bgj92rcd13ifvqbd0","pricing_plan_id":"cebpf4jnsgd1na2vs0mg"},{"bike_id":"cf728546-b453-4bbe-a199-05de8a38e92b","system_id":"levelo_inurba_marseille","lat":43.29853,"lon":5.36275,"is_reserved":false,"is_disabled":false,"rental_uris":{"android":"levelo://app?vid=cf728546-b453-4bbe-a199-05de8a38e92b","ios":"levelo://app?vid=cf728546-b453-4bbe-a199-05de8a38e92b"},"vehicle_type_id":"4","last_reported":1727525699,"current_range_meters":11200,"station_id":"ce4bgpp2rcd13ifvqc3g","pricing_plan_id":"cebpf4jnsgd1na2vs0mg"},{"bike_id":"ae687e9a-7d30-4286-920b-e40b1122da1a","system_id":"levelo_inurba_marseille","lat":43.29693,"lon":5.36281,"is_reserved":false,"is_disabled":false,"rental_uris":{"android":"levelo://app?vid=ae687e9a-7d30-4286-920b-e40b1122da1a","ios":"levelo://app?vid=ae687e9a-7d30-4286-920b-e40b1122da1a"},"vehicle_type_id":"4","last_reported":1727525699,"current_range_meters":26000,"station_id":"ce4bgpp2rcd13ifvqc3g","pricing_plan_id":"cebpf4jnsgd1na2vs0mg"},{"bike_id":"31d9581d-789e-483b-ab43-a3d81f0839cd","system_id":"levelo_inurba_marseille","lat":43.23153,"lon":5.43697,"is_reserved":false,"is_disabled":false,"rental_uris":{"android":"levelo://app?vid=31d9581d-789e-483b-ab43-a3d81f0839cd","ios":"levelo://app?vid=31d9581d-789e-483b-ab43-a3d81f0839cd"},"vehicle_type_id":"4","last_reported":1727525699,"current_range_meters":16000,"station_id":"ce4bhmp2rcd13ifvqgog","pricing_plan_id":"cebpf4jnsgd1na2vs0mg"},{"bike_id":"b7edec61-05a9-4448-8725-131f3fa0925d","system_id":"levelo_inurba_marseille","lat":43.30136,"lon":5.37413,"is_reserved":false,"is_disabled":false,"rental_uris":{"android":"levelo://app?vid=b7edec61-05a9-4448-8725-131f3fa0925d","ios":"levelo://app?vid=b7edec61-05a9-4448-8725-131f3fa0925d"},"vehicle_type_id":"4","last_reported":1727525699,"current_range_meters":39200,"station_id":"ce4bgs92rcd13ifvqcc0","pricing_plan_id":"cebpf4jnsgd1na2vs0mg"},{"bike_id":"c1255339-eba0-4050-bad7-acc53bb368ee","system_id":"levelo_inurba_marseille","lat":43.29552,"lon":5.42279,"is_reserved":false,"is_disabled":false,"rental_uris":{"android":"levelo://app?vid=c1255339-eba0-4050-bad7-acc53bb368ee","ios":"levelo://app?vid=c1255339-eba0-4050-bad7-acc53bb368ee"},"vehicle_type_id":"4","last_reported":1727525699,"current_range_meters":38800,"station_id":"ce4bhph2rcd13ifvqhdg","pricing_plan_id":"cebpf4jnsgd1na2vs0mg"},{"bike_id":"2765eaf6-7ca6-4241-a191-b4d7fef45c56","system_id":"levelo_inurba_marseille","lat":43.32033,"lon":5.41558,"is_reserved":false,"is_disabled":false,"rental_uris":{"android":"levelo://app?vid=2765eaf6-7ca6-4241-a191-b4d7fef45c56","ios":"levelo://app?vid=2765eaf6-7ca6-4241-a191-b4d7fef45c56"},"vehicle_type_id":"4","last_reported":1727525699,"current_range_meters":34000,"station_id":"ce4bhq92rcd13ifvqhkg","pricing_plan_id":"cebpf4jnsgd1na2vs0mg"},{"bike_id":"ceda1303-8e1d-4d6f-8792-80ce6a3025d5","system_id":"levelo_inurba_marseille","lat":43.31709,"lon":5.43698,"is_reserved":false,"is_disabled":false,"rental_uris":{"android":"levelo://app?vid=ceda1303-8e1d-4d6f-8792-80ce6a3025d5","ios":"levelo://app?vid=ceda1303-8e1d-4d6f-8792-80ce6a3025d5"},"vehicle_type_id":"4","last_reported":1727525699,"current_range_meters":6400,"station_id":"ce4bhp92rcd13ifvqhcg","pricing_plan_id":"cebpf4jnsgd1na2vs0mg"},{"bike_id":"05622e68-7d36-4c76-aa88-61f8df8c95b4","system_id":"levelo_inurba_marseille","lat":43.33755,"lon":5.37464,"is_reserved":false,"is_disabled":false,"rental_uris":{"android":"levelo://app?vid=05622e68-7d36-4c76-aa88-61f8df8c95b4","ios":"levelo://app?vid=05622e68-7d36-4c76-aa88-61f8df8c95b4"},"vehicle_type_id":"4","last_reported":1727525699,"current_range_meters":38800,"station_id":"","pricing_plan_id":"cebpf4jnsgd1na2vs0mg"},{"bike_id":"61e10d90-1bb9-4c62-abe7-5b2652018e77","system_id":"levelo_inurba_marseille","lat":43.30313,"lon":5.36908,"is_reserved":false,"is_disabled":false,"rental_uris":{"android":"levelo://app?vid=61e10d90-1bb9-4c62-abe7-5b2652018e77","ios":"levelo://app?vid=61e10d90-1bb9-4c62-abe7-5b2652018e77"},"vehicle_type_id":"4","last_reported":1727525699,"current_range_meters":36800,"station_id":"ce4bgqh2rcd13ifvqc5g","pricing_plan_id":"cebpf4jnsgd1na2vs0mg"},{"bike_id":"8fdf9502-b4ec-4acd-9fca-fe33cf1aea14","system_id":"levelo_inurba_marseille","lat":43.31484,"lon":5.37308,"is_reserved":false,"is_disabled":false,"rental_uris":{"android":"levelo://app?vid=8fdf9502-b4ec-4acd-9fca-fe33cf1aea14","ios":"levelo://app?vid=8fdf9502-b4ec-4acd-9fca-fe33cf1aea14"},"vehicle_type_id":"4","last_reported":1727525699,"current_range_meters":23200,"station_id":"ce4bgt12rcd13ifvqcd0","pricing_plan_id":"cebpf4jnsgd1na2vs0mg"},{"bike_id":"c049a602-ba08-44c1-a4f9-1cbd185f086f","system_id":"levelo_inurba_marseille","lat":43.2293,"lon":5.35376,"is_reserved":false,"is_disabled":false,"rental_uris":{"android":"levelo://app?vid=c049a602-ba08-44c1-a4f9-1cbd185f086f","ios":"levelo://app?vid=c049a602-ba08-44c1-a4f9-1cbd185f086f"},"vehicle_type_id":"4","last_reported":1727525699,"current_range_meters":5600,"station_id":"cpo3532slgdg3j2ikp40","pricing_plan_id":"cebpf4jnsgd1na2vs0mg"},{"bike_id":"2617c06e-e17f-43d0-bd86-b5a25b7cd217","system_id":"levelo_inurba_marseille","lat":43.27426,"lon":5.39408,"is_reserved":false,"is_disabled":false,"rental_uris":{"android":"levelo://app?vid=2617c06e-e17f-43d0-bd86-b5a25b7cd217","ios":"levelo://app?vid=2617c06e-e17f-43d0-bd86-b5a25b7cd217"},"vehicle_type_id":"4","last_reported":1727525699,"current_range_meters":8400,"station_id":"ce4bhdp2rcd13ifvqf20","pricing_plan_id":"cebpf4jnsgd1na2vs0mg"},{"bike_id":"fdcd1071-889c-4083-b6d6-e9621e2ed0f9","system_id":"levelo_inurba_marseille","lat":43.2603,"lon":5.37545,"is_reserved":false,"is_disabled":false,"rental_uris":{"android":"levelo://app?vid=fdcd1071-889c-4083-b6d6-e9621e2ed0f9","ios":"levelo://app?vid=fdcd1071-889c-4083-b6d6-e9621e2ed0f9"},"vehicle_type_id":"4","last_reported":1727525699,"current_range_meters":36000,"station_id":"ce4bhgh2rcd13ifvqfa0","pricing_plan_id":"cebpf4jnsgd1na2vs0mg"},{"bike_id":"04b6177d-c575-4b6e-8490-63c3c4fcb2fb","system_id":"levelo_inurba_marseille","lat":43.29851,"lon":5.36287,"is_reserved":false,"is_disabled":false,"rental_uris":{"android":"levelo://app?vid=04b6177d-c575-4b6e-8490-63c3c4fcb2fb","ios":"levelo://app?vid=04b6177d-c575-4b6e-8490-63c3c4fcb2fb"},"vehicle_type_id":"4","last_reported":1727525699,"current_range_meters":26000,"station_id":"ce4bgpp2rcd13ifvqc3g","pricing_plan_id":"cebpf4jnsgd1na2vs0mg"},{"bike_id":"91d33c64-e39d-4818-9370-b6d7a6a4fc9e","system_id":"levelo_inurba_marseille","lat":43.301758,"lon":5.366104,"is_reserved":false,"is_disabled":false,"rental_uris":{"android":"levelo://app?vid=91d33c64-e39d-4818-9370-b6d7a6a4fc9e","ios":"levelo://app?vid=91d33c64-e39d-4818-9370-b6d7a6a4fc9e"},"vehicle_type_id":"4","last_reported":1727525699,"current_range_meters":28400,"station_id":"ce4bgrh2rcd13ifvqc8g","pricing_plan_id":"cebpf4jnsgd1na2vs0mg"},{"bike_id":"659a0c09-fb63-4bee-aeeb-dd1a4e69f7a8","system_id":"levelo_inurba_marseille","lat":43.27492,"lon":5.42443,"is_reserved":false,"is_disabled":false,"rental_uris":{"android":"levelo://app?vid=659a0c09-fb63-4bee-aeeb-dd1a4e69f7a8","ios":"levelo://app?vid=659a0c09-fb63-4bee-aeeb-dd1a4e69f7a8"},"vehicle_type_id":"4","last_reported":1727525699,"current_range_meters":35600,"station_id":"ce4bhn92rcd13ifvqgrg","pricing_plan_id":"cebpf4jnsgd1na2vs0mg"},{"bike_id":"063bbd6f-5d09-4418-8bbc-24cbd88cc1c7","system_id":"levelo_inurba_marseille","lat":43.29896,"lon":5.43665,"is_reserved":false,"is_disabled":false,"rental_uris":{"android":"levelo://app?vid=063bbd6f-5d09-4418-8bbc-24cbd88cc1c7","ios":"levelo://app?vid=063bbd6f-5d09-4418-8bbc-24cbd88cc1c7"},"vehicle_type_id":"4","last_reported":1727525699,"current_range_meters":22800,"station_id":"ce4bhpp2rcd13ifvqhfg","pricing_plan_id":"cebpf4jnsgd1na2vs0mg"},{"bike_id":"48e17e1b-d55c-4e61-bac2-73297c1324ef","system_id":"levelo_inurba_marseille","lat":43.28431,"lon":5.34996,"is_reserved":false,"is_disabled":false,"rental_uris":{"android":"levelo://app?vid=48e17e1b-d55c-4e61-bac2-73297c1324ef","ios":"levelo://app?vid=48e17e1b-d55c-4e61-bac2-73297c1324ef"},"vehicle_type_id":"4","last_reported":1727525699,"current_range_meters":13600,"station_id":"ce4bhbh2rcd13ifvqepg","pricing_plan_id":"cebpf4jnsgd1na2vs0mg"},{"bike_id":"237be906-f998-4448-9588-92ef953a4d82","system_id":"levelo_inurba_marseille","lat":43.24168,"lon":5.36383,"is_reserved":false,"is_disabled":false,"rental_uris":{"android":"levelo://app?vid=237be906-f998-4448-9588-92ef953a4d82","ios":"levelo://app?vid=237be906-f998-4448-9588-92ef953a4d82"},"vehicle_type_id":"4","last_reported":1727525699,"current_range_meters":30800,"station_id":"cpo36qri1sfpv3e86is0","pricing_plan_id":"cebpf4jnsgd1na2vs0mg"},{"bike_id":"8ce4806c-bb9d-4fca-8f7a-c7ad41f52108","system_id":"levelo_inurba_marseille","lat":43.30149,"lon":5.38078,"is_reserved":false,"is_disabled":false,"rental_uris":{"android":"levelo://app?vid=8ce4806c-bb9d-4fca-8f7a-c7ad41f52108","ios":"levelo://app?vid=8ce4806c-bb9d-4fca-8f7a-c7ad41f52108"},"vehicle_type_id":"4","last_reported":1727525699,"current_range_meters":18800,"station_id":"ce4bgjp2rcd13ifvqbh0","pricing_plan_id":"cebpf4jnsgd1na2vs0mg"},{"bike_id":"cf75b762-b246-4899-a58b-3f89c40bd654","system_id":"levelo_inurba_marseille","lat":43.25105,"lon":5.40328,"is_reserved":false,"is_disabled":false,"rental_uris":{"android":"levelo://app?vid=cf75b762-b246-4899-a58b-3f89c40bd654","ios":"levelo://app?vid=cf75b762-b246-4899-a58b-3f89c40bd654"},"vehicle_type_id":"4","last_reported":1727525699,"current_range_meters":23200,"station_id":"ce4bhlh2rcd13ifvqgig","pricing_plan_id":"cebpf4jnsgd1na2vs0mg"},{"bike_id":"88d497d1-6481-42a7-88f6-1b7f34701b82","system_id":"levelo_inurba_marseille","lat":43.29625,"lon":5.37713,"is_reserved":false,"is_disabled":false,"rental_uris":{"android":"levelo://app?vid=88d497d1-6481-42a7-88f6-1b7f34701b82","ios":"levelo://app?vid=88d497d1-6481-42a7-88f6-1b7f34701b82"},"vehicle_type_id":"4","last_reported":1727525699,"current_range_meters":27600,"station_id":"ce4bgi92rcd13ifvqb90","pricing_plan_id":"cebpf4jnsgd1na2vs0mg"},{"bike_id":"5bb4306d-8946-42ce-ac86-d1bdfdfc89ca","system_id":"levelo_inurba_marseille","lat":43.308588,"lon":5.396487,"is_reserved":false,"is_disabled":false,"rental_uris":{"android":"levelo://app?vid=5bb4306d-8946-42ce-ac86-d1bdfdfc89ca","ios":"levelo://app?vid=5bb4306d-8946-42ce-ac86-d1bdfdfc89ca"},"vehicle_type_id":"4","last_reported":1727525699,"current_range_meters":38000,"station_id":"ce4bh012rcd13ifvqcv0","pricing_plan_id":"cebpf4jnsgd1na2vs0mg"},{"bike_id":"01d4abc2-903e-40cc-b81c-2126e2ac9cd6","system_id":"levelo_inurba_marseille","lat":43.29977,"lon":5.38499,"is_reserved":false,"is_disabled":false,"rental_uris":{"android":"levelo://app?vid=01d4abc2-903e-40cc-b81c-2126e2ac9cd6","ios":"levelo://app?vid=01d4abc2-903e-40cc-b81c-2126e2ac9cd6"},"vehicle_type_id":"4","last_reported":1727525699,"current_range_meters":34800,"station_id":"ce4bgj92rcd13ifvqbd0","pricing_plan_id":"cebpf4jnsgd1na2vs0mg"},{"bike_id":"e9776310-b20e-4114-a6b6-30f9f0cfe653","system_id":"levelo_inurba_marseille","lat":43.26022,"lon":5.3755,"is_reserved":false,"is_disabled":false,"rental_uris":{"android":"levelo://app?vid=e9776310-b20e-4114-a6b6-30f9f0cfe653","ios":"levelo://app?vid=e9776310-b20e-4114-a6b6-30f9f0cfe653"},"vehicle_type_id":"4","last_reported":1727525699,"current_range_meters":38000,"station_id":"ce4bhgh2rcd13ifvqfa0","pricing_plan_id":"cebpf4jnsgd1na2vs0mg"},{"bike_id":"a9b8a714-ef34-4748-accf-5102b7fa104f","system_id":"levelo_inurba_marseille","lat":43.30931,"lon":5.40132,"is_reserved":false,"is_disabled":false,"rental_uris":{"android":"levelo://app?vid=a9b8a714-ef34-4748-accf-5102b7fa104f","ios":"levelo://app?vid=a9b8a714-ef34-4748-accf-5102b7fa104f"},"vehicle_type_id":"4","last_reported":1727525699,"current_range_meters":24000,"station_id":"ce4bgvp2rcd13ifvqct0","pricing_plan_id":"cebpf4jnsgd1na2vs0mg"},{"bike_id":"0701cf2a-674c-4c9d-af1e-6650acbaaf74","system_id":"levelo_inurba_marseille","lat":43.28379,"lon":5.37294,"is_reserved":false,"is_disabled":false,"rental_uris":{"android":"levelo://app?vid=0701cf2a-674c-4c9d-af1e-6650acbaaf74","ios":"levelo://app?vid=0701cf2a-674c-4c9d-af1e-6650acbaaf74"},"vehicle_type_id":"4","last_reported":1727525699,"current_range_meters":16400,"station_id":"","pricing_plan_id":"cebpf4jnsgd1na2vs0mg"},{"bike_id":"30f28c42-8f44-4840-8f55-7c3fa3026e99","system_id":"levelo_inurba_marseille","lat":43.27898,"lon":5.37997,"is_reserved":false,"is_disabled":false,"rental_uris":{"android":"levelo://app?vid=30f28c42-8f44-4840-8f55-7c3fa3026e99","ios":"levelo://app?vid=30f28c42-8f44-4840-8f55-7c3fa3026e99"},"vehicle_type_id":"4","last_reported":1727525699,"current_range_meters":39200,"station_id":"ce4bhf92rcd13ifvqf50","pricing_plan_id":"cebpf4jnsgd1na2vs0mg"},{"bike_id":"82aa0199-6e6f-4b00-ae61-42dd9a11daa8","system_id":"levelo_inurba_marseille","lat":43.287128,"lon":5.379358,"is_reserved":false,"is_disabled":false,"rental_uris":{"android":"levelo://app?vid=82aa0199-6e6f-4b00-ae61-42dd9a11daa8","ios":"levelo://app?vid=82aa0199-6e6f-4b00-ae61-42dd9a11daa8"},"vehicle_type_id":"4","last_reported":1727525699,"current_range_meters":37600,"station_id":"ce4bh9p2rcd13ifvqec0","pricing_plan_id":"cebpf4jnsgd1na2vs0mg"},{"bike_id":"726ee681-b71d-4b40-88c9-66dbe1f9bdc2","system_id":"levelo_inurba_marseille","lat":43.281,"lon":5.37837,"is_reserved":false,"is_disabled":false,"rental_uris":{"android":"levelo://app?vid=726ee681-b71d-4b40-88c9-66dbe1f9bdc2","ios":"levelo://app?vid=726ee681-b71d-4b40-88c9-66dbe1f9bdc2"},"vehicle_type_id":"4","last_reported":1727525699,"current_range_meters":25600,"station_id":"ce4bha12rcd13ifvqee0","pricing_plan_id":"cebpf4jnsgd1na2vs0mg"},{"bike_id":"48dd8be6-53cb-4e56-80e9-0a26cb8e43ce","system_id":"levelo_inurba_marseille","lat":43.28153,"lon":5.42648,"is_reserved":false,"is_disabled":false,"rental_uris":{"android":"levelo://app?vid=48dd8be6-53cb-4e56-80e9-0a26cb8e43ce","ios":"levelo://app?vid=48dd8be6-53cb-4e56-80e9-0a26cb8e43ce"},"vehicle_type_id":"4","last_reported":1727525699,"current_range_meters":34000,"station_id":"ce4bhnh2rcd13ifvqgug","pricing_plan_id":"cebpf4jnsgd1na2vs0mg"},{"bike_id":"67e26a28-a608-484a-bbbd-32103290f861","system_id":"levelo_inurba_marseille","lat":43.27373,"lon":5.36258,"is_reserved":false,"is_disabled":false,"rental_uris":{"android":"levelo://app?vid=67e26a28-a608-484a-bbbd-32103290f861","ios":"levelo://app?vid=67e26a28-a608-484a-bbbd-32103290f861"},"vehicle_type_id":"4","last_reported":1727525699,"current_range_meters":30000,"station_id":"ce4bhbh2rcd13ifvqeo0","pricing_plan_id":"cebpf4jnsgd1na2vs0mg"},{"bike_id":"12f9708b-78a7-44bf-89fc-9bc5a8dcadce","system_id":"levelo_inurba_marseille","lat":43.28104,"lon":5.37834,"is_reserved":false,"is_disabled":false,"rental_uris":{"android":"levelo://app?vid=12f9708b-78a7-44bf-89fc-9bc5a8dcadce","ios":"levelo://app?vid=12f9708b-78a7-44bf-89fc-9bc5a8dcadce"},"vehicle_type_id":"4","last_reported":1727525699,"current_range_meters":27600,"station_id":"ce4bha12rcd13ifvqee0","pricing_plan_id":"cebpf4jnsgd1na2vs0mg"},{"bike_id":"dd3abb56-fbbb-4150-a892-f98fe75148d7","system_id":"levelo_inurba_marseille","lat":43.29975,"lon":5.37181,"is_reserved":false,"is_disabled":false,"rental_uris":{"android":"levelo://app?vid=dd3abb56-fbbb-4150-a892-f98fe75148d7","ios":"levelo://app?vid=dd3abb56-fbbb-4150-a892-f98fe75148d7"},"vehicle_type_id":"4","last_reported":1727525699,"current_range_meters":38800,"station_id":"ce4bgr92rcd13ifvqc7g","pricing_plan_id":"cebpf4jnsgd1na2vs0mg"},{"bike_id":"001dcef2-87f7-4b07-bfe4-c5e01ebeebf7","system_id":"levelo_inurba_marseille","lat":43.23965,"lon":5.36618,"is_reserved":false,"is_disabled":false,"rental_uris":{"android":"levelo://app?vid=001dcef2-87f7-4b07-bfe4-c5e01ebeebf7","ios":"levelo://app?vid=001dcef2-87f7-4b07-bfe4-c5e01ebeebf7"},"vehicle_type_id":"4","last_reported":1727525699,"current_range_meters":22800,"station_id":"ce4bhi12rcd13ifvqfp0","pricing_plan_id":"cebpf4jnsgd1na2vs0mg"},{"bike_id":"a6903808-354a-4aed-8af8-b4a5f29db99f","system_id":"levelo_inurba_marseille","lat":43.27955,"lon":5.41046,"is_reserved":false,"is_disabled":false,"rental_uris":{"android":"levelo://app?vid=a6903808-354a-4aed-8af8-b4a5f29db99f","ios":"levelo://app?vid=a6903808-354a-4aed-8af8-b4a5f29db99f"},"vehicle_type_id":"4","last_reported":1727525699,"current_range_meters":17200,"station_id":"ce4bhnp2rcd13ifvqh0g","pricing_plan_id":"cebpf4jnsgd1na2vs0mg"},{"bike_id":"17f90e5d-d3b5-4027-bef2-ecc0be56aed9","system_id":"levelo_inurba_marseille","lat":43.23188,"lon":5.39993,"is_reserved":false,"is_disabled":false,"rental_uris":{"android":"levelo://app?vid=17f90e5d-d3b5-4027-bef2-ecc0be56aed9","ios":"levelo://app?vid=17f90e5d-d3b5-4027-bef2-ecc0be56aed9"},"vehicle_type_id":"4","last_reported":1727525699,"current_range_meters":8800,"station_id":"ce4bhn12rcd13ifvqgqg","pricing_plan_id":"cebpf4jnsgd1na2vs0mg"},{"bike_id":"6cdca13d-24d1-4302-912a-54d18c748242","system_id":"levelo_inurba_marseille","lat":43.31083,"lon":5.40132,"is_reserved":false,"is_disabled":false,"rental_uris":{"android":"levelo://app?vid=6cdca13d-24d1-4302-912a-54d18c748242","ios":"levelo://app?vid=6cdca13d-24d1-4302-912a-54d18c748242"},"vehicle_type_id":"4","last_reported":1727525699,"current_range_meters":9200,"station_id":"","pricing_plan_id":"cebpf4jnsgd1na2vs0mg"},{"bike_id":"cf3a4ee4-c9d3-4ea3-ae0b-b5b4c90d13af","system_id":"levelo_inurba_marseille","lat":43.2985,"lon":5.36286,"is_reserved":false,"is_disabled":false,"rental_uris":{"android":"levelo://app?vid=cf3a4ee4-c9d3-4ea3-ae0b-b5b4c90d13af","ios":"levelo://app?vid=cf3a4ee4-c9d3-4ea3-ae0b-b5b4c90d13af"},"vehicle_type_id":"4","last_reported":1727525699,"current_range_meters":16400,"station_id":"ce4bgpp2rcd13ifvqc3g","pricing_plan_id":"cebpf4jnsgd1na2vs0mg"},{"bike_id":"80772028-8c3e-4d06-b5a5-47d20bb2da13","system_id":"levelo_inurba_marseille","lat":43.30538,"lon":5.36699,"is_reserved":false,"is_disabled":false,"rental_uris":{"android":"levelo://app?vid=80772028-8c3e-4d06-b5a5-47d20bb2da13","ios":"levelo://app?vid=80772028-8c3e-4d06-b5a5-47d20bb2da13"},"vehicle_type_id":"4","last_reported":1727525699,"current_range_meters":38800,"station_id":"ce4bgrp2rcd13ifvqc9g","pricing_plan_id":"cebpf4jnsgd1na2vs0mg"},{"bike_id":"cfed592a-c3b8-42db-b647-22d881b948ab","system_id":"levelo_inurba_marseille","lat":43.27943,"lon":5.41039,"is_reserved":false,"is_disabled":false,"rental_uris":{"android":"levelo://app?vid=cfed592a-c3b8-42db-b647-22d881b948ab","ios":"levelo://app?vid=cfed592a-c3b8-42db-b647-22d881b948ab"},"vehicle_type_id":"4","last_reported":1727525699,"current_range_meters":32800,"station_id":"ce4bhnp2rcd13ifvqh0g","pricing_plan_id":"cebpf4jnsgd1na2vs0mg"},{"bike_id":"da2e7afb-45a7-4193-9960-716c0aa1657b","system_id":"levelo_inurba_marseille","lat":43.322903,"lon":5.382747,"is_reserved":false,"is_disabled":false,"rental_uris":{"android":"levelo://app?vid=da2e7afb-45a7-4193-9960-716c0aa1657b","ios":"levelo://app?vid=da2e7afb-45a7-4193-9960-716c0aa1657b"},"vehicle_type_id":"4","last_reported":1727525699,"current_range_meters":38800,"station_id":"ce4bhr12rcd13ifvqhqg","pricing_plan_id":"cebpf4jnsgd1na2vs0mg"},{"bike_id":"5fc2dbee-b063-45e3-a9bb-700ef5c4eed2","system_id":"levelo_inurba_marseille","lat":43.29719,"lon":5.36587,"is_reserved":false,"is_disabled":false,"rental_uris":{"android":"levelo://app?vid=5fc2dbee-b063-45e3-a9bb-700ef5c4eed2","ios":"levelo://app?vid=5fc2dbee-b063-45e3-a9bb-700ef5c4eed2"},"vehicle_type_id":"4","last_reported":1727525699,"current_range_meters":36800,"station_id":"ce4bgop2rcd13ifvqc1g","pricing_plan_id":"cebpf4jnsgd1na2vs0mg"},{"bike_id":"2fec73d1-65f5-4b1d-93da-57cebfa114ba","system_id":"levelo_inurba_marseille","lat":43.23054,"lon":5.35492,"is_reserved":false,"is_disabled":false,"rental_uris":{"android":"levelo://app?vid=2fec73d1-65f5-4b1d-93da-57cebfa114ba","ios":"levelo://app?vid=2fec73d1-65f5-4b1d-93da-57cebfa114ba"},"vehicle_type_id":"4","last_reported":1727525699,"current_range_meters":6800,"station_id":"cpo3342slgdg3j2ifvpg","pricing_plan_id":"cebpf4jnsgd1na2vs0mg"},{"bike_id":"dbab5e16-0de9-4389-932d-06a62d667144","system_id":"levelo_inurba_marseille","lat":43.258313,"lon":5.394205,"is_reserved":false,"is_disabled":false,"rental_uris":{"android":"levelo://app?vid=dbab5e16-0de9-4389-932d-06a62d667144","ios":"levelo://app?vid=dbab5e16-0de9-4389-932d-06a62d667144"},"vehicle_type_id":"4","last_reported":1727525699,"current_range_meters":36800,"station_id":"ce4bhip2rcd13ifvqft0","pricing_plan_id":"cebpf4jnsgd1na2vs0mg"},{"bike_id":"a5bcbc6c-275a-46c4-bb07-7ac70df82241","system_id":"levelo_inurba_marseille","lat":43.30183,"lon":5.36607,"is_reserved":false,"is_disabled":false,"rental_uris":{"android":"levelo://app?vid=a5bcbc6c-275a-46c4-bb07-7ac70df82241","ios":"levelo://app?vid=a5bcbc6c-275a-46c4-bb07-7ac70df82241"},"vehicle_type_id":"4","last_reported":1727525699,"current_range_meters":37600,"station_id":"ce4bgrh2rcd13ifvqc8g","pricing_plan_id":"cebpf4jnsgd1na2vs0mg"},{"bike_id":"3407da71-e9f5-4375-9956-506983640a2f","system_id":"levelo_inurba_marseille","lat":43.289959,"lon":5.375878,"is_reserved":false,"is_disabled":false,"rental_uris":{"android":"levelo://app?vid=3407da71-e9f5-4375-9956-506983640a2f","ios":"levelo://app?vid=3407da71-e9f5-4375-9956-506983640a2f"},"vehicle_type_id":"4","last_reported":1727525699,"current_range_meters":28400,"station_id":"ce4bh692rcd13ifvqe90","pricing_plan_id":"cebpf4jnsgd1na2vs0mg"},{"bike_id":"d8ca1020-403a-4b46-8389-834c7df644ff","system_id":"levelo_inurba_marseille","lat":43.29621,"lon":5.37732,"is_reserved":false,"is_disabled":false,"rental_uris":{"android":"levelo://app?vid=d8ca1020-403a-4b46-8389-834c7df644ff","ios":"levelo://app?vid=d8ca1020-403a-4b46-8389-834c7df644ff"},"vehicle_type_id":"4","last_reported":1727525699,"current_range_meters":31200,"station_id":"ce4bgi92rcd13ifvqb90","pricing_plan_id":"cebpf4jnsgd1na2vs0mg"},{"bike_id":"1a8d3655-cb12-4df1-9d84-5cc02d9b67d1","system_id":"levelo_inurba_marseille","lat":43.31225,"lon":5.3685,"is_reserved":false,"is_disabled":false,"rental_uris":{"android":"levelo://app?vid=1a8d3655-cb12-4df1-9d84-5cc02d9b67d1","ios":"levelo://app?vid=1a8d3655-cb12-4df1-9d84-5cc02d9b67d1"},"vehicle_type_id":"4","last_reported":1727525699,"current_range_meters":4000,"station_id":"ce4bgl92rcd13ifvqbq0","pricing_plan_id":"cebpf4jnsgd1na2vs0mg"},{"bike_id":"94c678cc-509d-4db7-81e2-5d489ac5a453","system_id":"levelo_inurba_marseille","lat":43.28268,"lon":5.35078,"is_reserved":false,"is_disabled":false,"rental_uris":{"android":"levelo://app?vid=94c678cc-509d-4db7-81e2-5d489ac5a453","ios":"levelo://app?vid=94c678cc-509d-4db7-81e2-5d489ac5a453"},"vehicle_type_id":"4","last_reported":1727525699,"current_range_meters":8400,"station_id":"ce4bhbp2rcd13ifvqerg","pricing_plan_id":"cebpf4jnsgd1na2vs0mg"},{"bike_id":"2fe487ef-353e-4bce-9915-eb8738ef0565","system_id":"levelo_inurba_marseille","lat":43.248,"lon":5.37449,"is_reserved":false,"is_disabled":false,"rental_uris":{"android":"levelo://app?vid=2fe487ef-353e-4bce-9915-eb8738ef0565","ios":"levelo://app?vid=2fe487ef-353e-4bce-9915-eb8738ef0565"},"vehicle_type_id":"4","last_reported":1727525699,"current_range_meters":17600,"station_id":"ce4bhgh2rcd13ifvqfb0","pricing_plan_id":"cebpf4jnsgd1na2vs0mg"},{"bike_id":"65768cd7-63c4-42bd-95bb-2f7bc170252f","system_id":"levelo_inurba_marseille","lat":43.29845,"lon":5.36275,"is_reserved":false,"is_disabled":false,"rental_uris":{"android":"levelo://app?vid=65768cd7-63c4-42bd-95bb-2f7bc170252f","ios":"levelo://app?vid=65768cd7-63c4-42bd-95bb-2f7bc170252f"},"vehicle_type_id":"4","last_reported":1727525699,"current_range_meters":39200,"station_id":"ce4bgpp2rcd13ifvqc3g","pricing_plan_id":"cebpf4jnsgd1na2vs0mg"},{"bike_id":"b25975a2-4789-471d-bf7d-ec59dfff3ec3","system_id":"levelo_inurba_marseille","lat":43.2953,"lon":5.3749,"is_reserved":false,"is_disabled":false,"rental_uris":{"android":"levelo://app?vid=b25975a2-4789-471d-bf7d-ec59dfff3ec3","ios":"levelo://app?vid=b25975a2-4789-471d-bf7d-ec59dfff3ec3"},"vehicle_type_id":"4","last_reported":1727525699,"current_range_meters":18000,"station_id":"ce4bgkp2rcd13ifvqbmg","pricing_plan_id":"cebpf4jnsgd1na2vs0mg"},{"bike_id":"e7df3a6f-3dc1-47b8-8425-1ba49f7bace4","system_id":"levelo_inurba_marseille","lat":43.29709,"lon":5.36605,"is_reserved":false,"is_disabled":false,"rental_uris":{"android":"levelo://app?vid=e7df3a6f-3dc1-47b8-8425-1ba49f7bace4","ios":"levelo://app?vid=e7df3a6f-3dc1-47b8-8425-1ba49f7bace4"},"vehicle_type_id":"4","last_reported":1727525699,"current_range_meters":38000,"station_id":"ce4bgn12rcd13ifvqbt0","pricing_plan_id":"cebpf4jnsgd1na2vs0mg"},{"bike_id":"9c723e83-ce2d-445d-a7e6-3b97e46ce207","system_id":"levelo_inurba_marseille","lat":43.29633,"lon":5.40589,"is_reserved":false,"is_disabled":false,"rental_uris":{"android":"levelo://app?vid=9c723e83-ce2d-445d-a7e6-3b97e46ce207","ios":"levelo://app?vid=9c723e83-ce2d-445d-a7e6-3b97e46ce207"},"vehicle_type_id":"4","last_reported":1727525699,"current_range_meters":30800,"station_id":"ce4bh0h2rcd13ifvqd60","pricing_plan_id":"cebpf4jnsgd1na2vs0mg"},{"bike_id":"14c1843a-d48f-44d0-bda1-3a514248990b","system_id":"levelo_inurba_marseille","lat":43.31275,"lon":5.40164,"is_reserved":false,"is_disabled":false,"rental_uris":{"android":"levelo://app?vid=14c1843a-d48f-44d0-bda1-3a514248990b","ios":"levelo://app?vid=14c1843a-d48f-44d0-bda1-3a514248990b"},"vehicle_type_id":"4","last_reported":1727525699,"current_range_meters":17200,"station_id":"ce4bh092rcd13ifvqd30","pricing_plan_id":"cebpf4jnsgd1na2vs0mg"},{"bike_id":"da3d8f0d-0f47-455d-bf44-fb306bfeadf4","system_id":"levelo_inurba_marseille","lat":43.30157,"lon":5.38086,"is_reserved":false,"is_disabled":false,"rental_uris":{"android":"levelo://app?vid=da3d8f0d-0f47-455d-bf44-fb306bfeadf4","ios":"levelo://app?vid=da3d8f0d-0f47-455d-bf44-fb306bfeadf4"},"vehicle_type_id":"4","last_reported":1727525699,"current_range_meters":26800,"station_id":"ce4bgjp2rcd13ifvqbh0","pricing_plan_id":"cebpf4jnsgd1na2vs0mg"},{"bike_id":"a840744e-f5ba-493b-a121-a825bd5d67de","system_id":"levelo_inurba_marseille","lat":43.2737,"lon":5.36261,"is_reserved":false,"is_disabled":false,"rental_uris":{"android":"levelo://app?vid=a840744e-f5ba-493b-a121-a825bd5d67de","ios":"levelo://app?vid=a840744e-f5ba-493b-a121-a825bd5d67de"},"vehicle_type_id":"4","last_reported":1727525699,"current_range_meters":18000,"station_id":"ce4bhbh2rcd13ifvqeo0","pricing_plan_id":"cebpf4jnsgd1na2vs0mg"},{"bike_id":"40b01cd0-c95e-4ffe-a686-f7381cc62ca2","system_id":"levelo_inurba_marseille","lat":43.24803,"lon":5.37453,"is_reserved":false,"is_disabled":false,"rental_uris":{"android":"levelo://app?vid=40b01cd0-c95e-4ffe-a686-f7381cc62ca2","ios":"levelo://app?vid=40b01cd0-c95e-4ffe-a686-f7381cc62ca2"},"vehicle_type_id":"4","last_reported":1727525699,"current_range_meters":2000,"station_id":"ce4bhgh2rcd13ifvqfb0","pricing_plan_id":"cebpf4jnsgd1na2vs0mg"},{"bike_id":"2db8e11b-ba05-4e23-8217-aa29eeb9aedb","system_id":"levelo_inurba_marseille","lat":43.28423,"lon":5.34995,"is_reserved":false,"is_disabled":false,"rental_uris":{"android":"levelo://app?vid=2db8e11b-ba05-4e23-8217-aa29eeb9aedb","ios":"levelo://app?vid=2db8e11b-ba05-4e23-8217-aa29eeb9aedb"},"vehicle_type_id":"4","last_reported":1727525699,"current_range_meters":24400,"station_id":"ce4bhbh2rcd13ifvqepg","pricing_plan_id":"cebpf4jnsgd1na2vs0mg"},{"bike_id":"67ad384a-3a16-4e29-9113-32c6258c1182","system_id":"levelo_inurba_marseille","lat":43.30343,"lon":5.378719,"is_reserved":false,"is_disabled":false,"rental_uris":{"android":"levelo://app?vid=67ad384a-3a16-4e29-9113-32c6258c1182","ios":"levelo://app?vid=67ad384a-3a16-4e29-9113-32c6258c1182"},"vehicle_type_id":"4","last_reported":1727525699,"current_range_meters":38800,"station_id":"ce4bgrp2rcd13ifvqc9g","pricing_plan_id":"cebpf4jnsgd1na2vs0mg"},{"bike_id":"0c3f0369-7cdf-4cba-a0db-09435ab8c8da","system_id":"levelo_inurba_marseille","lat":43.23191,"lon":5.39991,"is_reserved":false,"is_disabled":false,"rental_uris":{"android":"levelo://app?vid=0c3f0369-7cdf-4cba-a0db-09435ab8c8da","ios":"levelo://app?vid=0c3f0369-7cdf-4cba-a0db-09435ab8c8da"},"vehicle_type_id":"4","last_reported":1727525699,"current_range_meters":30800,"station_id":"ce4bhn12rcd13ifvqgqg","pricing_plan_id":"cebpf4jnsgd1na2vs0mg"},{"bike_id":"deb7980f-58a8-4033-8835-655c6a4e78f7","system_id":"levelo_inurba_marseille","lat":43.27568,"lon":5.38426,"is_reserved":false,"is_disabled":false,"rental_uris":{"android":"levelo://app?vid=deb7980f-58a8-4033-8835-655c6a4e78f7","ios":"levelo://app?vid=deb7980f-58a8-4033-8835-655c6a4e78f7"},"vehicle_type_id":"4","last_reported":1727525699,"current_range_meters":38800,"station_id":"ce4bhh92rcd13ifvqfi0","pricing_plan_id":"cebpf4jnsgd1na2vs0mg"},{"bike_id":"5bbd2505-51dc-451e-8388-5c62e078114a","system_id":"levelo_inurba_marseille","lat":43.24179,"lon":5.39734,"is_reserved":false,"is_disabled":false,"rental_uris":{"android":"levelo://app?vid=5bbd2505-51dc-451e-8388-5c62e078114a","ios":"levelo://app?vid=5bbd2505-51dc-451e-8388-5c62e078114a"},"vehicle_type_id":"4","last_reported":1727525699,"current_range_meters":38800,"station_id":"ce4bhn12rcd13ifvqgpg","pricing_plan_id":"cebpf4jnsgd1na2vs0mg"},{"bike_id":"06981e52-06f2-48c7-8865-e14ca565f9df","system_id":"levelo_inurba_marseille","lat":43.29727,"lon":5.37678,"is_reserved":false,"is_disabled":false,"rental_uris":{"android":"levelo://app?vid=06981e52-06f2-48c7-8865-e14ca565f9df","ios":"levelo://app?vid=06981e52-06f2-48c7-8865-e14ca565f9df"},"vehicle_type_id":"4","last_reported":1727525699,"current_range_meters":38800,"station_id":"ce4bgkh2rcd13ifvqbl0","pricing_plan_id":"cebpf4jnsgd1na2vs0mg"},{"bike_id":"bc20af5c-be7b-4c51-b09b-2e170ca1b5b9","system_id":"levelo_inurba_marseille","lat":43.25487,"lon":5.37647,"is_reserved":false,"is_disabled":false,"rental_uris":{"android":"levelo://app?vid=bc20af5c-be7b-4c51-b09b-2e170ca1b5b9","ios":"levelo://app?vid=bc20af5c-be7b-4c51-b09b-2e170ca1b5b9"},"vehicle_type_id":"4","last_reported":1727525699,"current_range_meters":37600,"station_id":"ce4bhh12rcd13ifvqff0","pricing_plan_id":"cebpf4jnsgd1na2vs0mg"},{"bike_id":"d8e32f1c-4c32-4777-922d-4d90b15b71c7","system_id":"levelo_inurba_marseille","lat":43.30863,"lon":5.3685,"is_reserved":false,"is_disabled":false,"rental_uris":{"android":"levelo://app?vid=d8e32f1c-4c32-4777-922d-4d90b15b71c7","ios":"levelo://app?vid=d8e32f1c-4c32-4777-922d-4d90b15b71c7"},"vehicle_type_id":"4","last_reported":1727525699,"current_range_meters":9600,"station_id":"ce4bgn92rcd13ifvqbvg","pricing_plan_id":"cebpf4jnsgd1na2vs0mg"},{"bike_id":"b470945e-f45c-4291-ac95-d7061c9aab44","system_id":"levelo_inurba_marseille","lat":43.2738,"lon":5.41213,"is_reserved":false,"is_disabled":false,"rental_uris":{"android":"levelo://app?vid=b470945e-f45c-4291-ac95-d7061c9aab44","ios":"levelo://app?vid=b470945e-f45c-4291-ac95-d7061c9aab44"},"vehicle_type_id":"4","last_reported":1727525699,"current_range_meters":28400,"station_id":"","pricing_plan_id":"cebpf4jnsgd1na2vs0mg"},{"bike_id":"baa06c7d-efad-4a9a-bc59-5e1715d1039c","system_id":"levelo_inurba_marseille","lat":43.22931,"lon":5.35374,"is_reserved":false,"is_disabled":false,"rental_uris":{"android":"levelo://app?vid=baa06c7d-efad-4a9a-bc59-5e1715d1039c","ios":"levelo://app?vid=baa06c7d-efad-4a9a-bc59-5e1715d1039c"},"vehicle_type_id":"4","last_reported":1727525699,"current_range_meters":23200,"station_id":"cpo3532slgdg3j2ikp40","pricing_plan_id":"cebpf4jnsgd1na2vs0mg"},{"bike_id":"89cb4acf-4cc4-40ac-8a3c-dfe2810960d7","system_id":"levelo_inurba_marseille","lat":43.30283,"lon":5.37709,"is_reserved":false,"is_disabled":false,"rental_uris":{"android":"levelo://app?vid=89cb4acf-4cc4-40ac-8a3c-dfe2810960d7","ios":"levelo://app?vid=89cb4acf-4cc4-40ac-8a3c-dfe2810960d7"},"vehicle_type_id":"4","last_reported":1727525699,"current_range_meters":8400,"station_id":"ce4bgjp2rcd13ifvqbh0","pricing_plan_id":"cebpf4jnsgd1na2vs0mg"},{"bike_id":"0526a56a-ac78-4e70-8eb6-efd57a427828","system_id":"levelo_inurba_marseille","lat":43.28613,"lon":5.35099,"is_reserved":false,"is_disabled":false,"rental_uris":{"android":"levelo://app?vid=0526a56a-ac78-4e70-8eb6-efd57a427828","ios":"levelo://app?vid=0526a56a-ac78-4e70-8eb6-efd57a427828"},"vehicle_type_id":"4","last_reported":1727525699,"current_range_meters":16400,"station_id":"ce4bhch2rcd13ifvqeug","pricing_plan_id":"cebpf4jnsgd1na2vs0mg"},{"bike_id":"59c57c06-a77f-45eb-b47c-e858e4dd2c4c","system_id":"levelo_inurba_marseille","lat":43.284704,"lon":5.384203,"is_reserved":false,"is_disabled":false,"rental_uris":{"android":"levelo://app?vid=59c57c06-a77f-45eb-b47c-e858e4dd2c4c","ios":"levelo://app?vid=59c57c06-a77f-45eb-b47c-e858e4dd2c4c"},"vehicle_type_id":"4","last_reported":1727525699,"current_range_meters":8800,"station_id":"ce4bh512rcd13ifvqe3g","pricing_plan_id":"cebpf4jnsgd1na2vs0mg"},{"bike_id":"e4361fa2-90d9-45ff-9d8a-e7b112f4e011","system_id":"levelo_inurba_marseille","lat":43.28521,"lon":5.39128,"is_reserved":false,"is_disabled":false,"rental_uris":{"android":"levelo://app?vid=e4361fa2-90d9-45ff-9d8a-e7b112f4e011","ios":"levelo://app?vid=e4361fa2-90d9-45ff-9d8a-e7b112f4e011"},"vehicle_type_id":"4","last_reported":1727525699,"current_range_meters":33200,"station_id":"ce4bh3p2rcd13ifvqdp0","pricing_plan_id":"cebpf4jnsgd1na2vs0mg"},{"bike_id":"e008fd61-43c0-429a-b2db-db9a7277c25c","system_id":"levelo_inurba_marseille","lat":43.24674,"lon":5.38155,"is_reserved":false,"is_disabled":false,"rental_uris":{"android":"levelo://app?vid=e008fd61-43c0-429a-b2db-db9a7277c25c","ios":"levelo://app?vid=e008fd61-43c0-429a-b2db-db9a7277c25c"},"vehicle_type_id":"4","last_reported":1727525699,"current_range_meters":38800,"station_id":"ce4bhih2rcd13ifvqfr0","pricing_plan_id":"cebpf4jnsgd1na2vs0mg"},{"bike_id":"119b1756-239e-4ffb-be16-70a9d802ff66","system_id":"levelo_inurba_marseille","lat":43.29844,"lon":5.36266,"is_reserved":false,"is_disabled":false,"rental_uris":{"android":"levelo://app?vid=119b1756-239e-4ffb-be16-70a9d802ff66","ios":"levelo://app?vid=119b1756-239e-4ffb-be16-70a9d802ff66"},"vehicle_type_id":"4","last_reported":1727525699,"current_range_meters":31200,"station_id":"ce4bgpp2rcd13ifvqc3g","pricing_plan_id":"cebpf4jnsgd1na2vs0mg"},{"bike_id":"cab45fd0-efbe-42f4-815f-9d32eba24a97","system_id":"levelo_inurba_marseille","lat":43.27903,"lon":5.41212,"is_reserved":false,"is_disabled":false,"rental_uris":{"android":"levelo://app?vid=cab45fd0-efbe-42f4-815f-9d32eba24a97","ios":"levelo://app?vid=cab45fd0-efbe-42f4-815f-9d32eba24a97"},"vehicle_type_id":"4","last_reported":1727525699,"current_range_meters":19200,"station_id":"","pricing_plan_id":"cebpf4jnsgd1na2vs0mg"},{"bike_id":"6eff8d2d-61fa-4715-9388-b30a052d3e98","system_id":"levelo_inurba_marseille","lat":43.337444,"lon":5.374475,"is_reserved":false,"is_disabled":false,"rental_uris":{"android":"levelo://app?vid=6eff8d2d-61fa-4715-9388-b30a052d3e98","ios":"levelo://app?vid=6eff8d2d-61fa-4715-9388-b30a052d3e98"},"vehicle_type_id":"4","last_reported":1727525699,"current_range_meters":32800,"station_id":"","pricing_plan_id":"cebpf4jnsgd1na2vs0mg"},{"bike_id":"637ea54b-676e-4687-a372-f778f0655b85","system_id":"levelo_inurba_marseille","lat":43.27215,"lon":5.40086,"is_reserved":false,"is_disabled":false,"rental_uris":{"android":"levelo://app?vid=637ea54b-676e-4687-a372-f778f0655b85","ios":"levelo://app?vid=637ea54b-676e-4687-a372-f778f0655b85"},"vehicle_type_id":"4","last_reported":1727525699,"current_range_meters":25600,"station_id":"","pricing_plan_id":"cebpf4jnsgd1na2vs0mg"},{"bike_id":"97171188-6f71-4127-bcf7-c48d28fe2a97","system_id":"levelo_inurba_marseille","lat":43.30414,"lon":5.39731,"is_reserved":false,"is_disabled":false,"rental_uris":{"android":"levelo://app?vid=97171188-6f71-4127-bcf7-c48d28fe2a97","ios":"levelo://app?vid=97171188-6f71-4127-bcf7-c48d28fe2a97"},"vehicle_type_id":"4","last_reported":1727525699,"current_range_meters":9200,"station_id":"ce4bh092rcd13ifvqd20","pricing_plan_id":"cebpf4jnsgd1na2vs0mg"},{"bike_id":"626efa4c-0b1e-402d-b3e8-e2eec0eba740","system_id":"levelo_inurba_marseille","lat":43.26057,"lon":5.39397,"is_reserved":false,"is_disabled":false,"rental_uris":{"android":"levelo://app?vid=626efa4c-0b1e-402d-b3e8-e2eec0eba740","ios":"levelo://app?vid=626efa4c-0b1e-402d-b3e8-e2eec0eba740"},"vehicle_type_id":"4","last_reported":1727525699,"current_range_meters":36000,"station_id":"ce4bhh92rcd13ifvqfj0","pricing_plan_id":"cebpf4jnsgd1na2vs0mg"},{"bike_id":"679acf3b-04f8-44f9-9a08-75170b9eb333","system_id":"levelo_inurba_marseille","lat":43.337444,"lon":5.374475,"is_reserved":false,"is_disabled":false,"rental_uris":{"android":"levelo://app?vid=679acf3b-04f8-44f9-9a08-75170b9eb333","ios":"levelo://app?vid=679acf3b-04f8-44f9-9a08-75170b9eb333"},"vehicle_type_id":"4","last_reported":1727525699,"current_range_meters":36000,"station_id":"","pricing_plan_id":"cebpf4jnsgd1na2vs0mg"},{"bike_id":"78abf810-968d-4a6d-8154-58f596737713","system_id":"levelo_inurba_marseille","lat":43.27568,"lon":5.38421,"is_reserved":false,"is_disabled":false,"rental_uris":{"android":"levelo://app?vid=78abf810-968d-4a6d-8154-58f596737713","ios":"levelo://app?vid=78abf810-968d-4a6d-8154-58f596737713"},"vehicle_type_id":"4","last_reported":1727525699,"current_range_meters":30000,"station_id":"ce4bhh92rcd13ifvqfi0","pricing_plan_id":"cebpf4jnsgd1na2vs0mg"},{"bike_id":"ec670651-2647-4cc6-bddc-4d1503991a9e","system_id":"levelo_inurba_marseille","lat":43.2979,"lon":5.37108,"is_reserved":false,"is_disabled":false,"rental_uris":{"android":"levelo://app?vid=ec670651-2647-4cc6-bddc-4d1503991a9e","ios":"levelo://app?vid=ec670651-2647-4cc6-bddc-4d1503991a9e"},"vehicle_type_id":"4","last_reported":1727525699,"current_range_meters":35600,"station_id":"ce4bgop2rcd13ifvqc1g","pricing_plan_id":"cebpf4jnsgd1na2vs0mg"},{"bike_id":"6797ad46-abf2-4d5f-bb78-f18867b9fe83","system_id":"levelo_inurba_marseille","lat":43.28003,"lon":5.40002,"is_reserved":false,"is_disabled":false,"rental_uris":{"android":"levelo://app?vid=6797ad46-abf2-4d5f-bb78-f18867b9fe83","ios":"levelo://app?vid=6797ad46-abf2-4d5f-bb78-f18867b9fe83"},"vehicle_type_id":"4","last_reported":1727525699,"current_range_meters":7200,"station_id":"ce4bho92rcd13ifvqh4g","pricing_plan_id":"cebpf4jnsgd1na2vs0mg"},{"bike_id":"49103c36-092f-43a6-a665-96ac4218adb8","system_id":"levelo_inurba_marseille","lat":43.32287,"lon":5.38261,"is_reserved":false,"is_disabled":false,"rental_uris":{"android":"levelo://app?vid=49103c36-092f-43a6-a665-96ac4218adb8","ios":"levelo://app?vid=49103c36-092f-43a6-a665-96ac4218adb8"},"vehicle_type_id":"4","last_reported":1727525699,"current_range_meters":38800,"station_id":"ce4bhr12rcd13ifvqhqg","pricing_plan_id":"cebpf4jnsgd1na2vs0mg"},{"bike_id":"a8706485-02d1-4419-92d8-0d1a335f813a","system_id":"levelo_inurba_marseille","lat":43.29308,"lon":5.37172,"is_reserved":false,"is_disabled":false,"rental_uris":{"android":"levelo://app?vid=a8706485-02d1-4419-92d8-0d1a335f813a","ios":"levelo://app?vid=a8706485-02d1-4419-92d8-0d1a335f813a"},"vehicle_type_id":"4","last_reported":1727525699,"current_range_meters":38800,"station_id":"ce4bgh92rcd13ifvqb40","pricing_plan_id":"cebpf4jnsgd1na2vs0mg"},{"bike_id":"0fb1ea23-9b0b-4b59-84b3-72423f8e888b","system_id":"levelo_inurba_marseille","lat":43.289634,"lon":5.398045,"is_reserved":false,"is_disabled":false,"rental_uris":{"android":"levelo://app?vid=0fb1ea23-9b0b-4b59-84b3-72423f8e888b","ios":"levelo://app?vid=0fb1ea23-9b0b-4b59-84b3-72423f8e888b"},"vehicle_type_id":"4","last_reported":1727525699,"current_range_meters":39200,"station_id":"ce4bh392rcd13ifvqdm0","pricing_plan_id":"cebpf4jnsgd1na2vs0mg"},{"bike_id":"6f0f9c32-de70-4574-9b89-cca29ab0554e","system_id":"levelo_inurba_marseille","lat":43.337444,"lon":5.374475,"is_reserved":false,"is_disabled":false,"rental_uris":{"android":"levelo://app?vid=6f0f9c32-de70-4574-9b89-cca29ab0554e","ios":"levelo://app?vid=6f0f9c32-de70-4574-9b89-cca29ab0554e"},"vehicle_type_id":"4","last_reported":1727525699,"current_range_meters":30800,"station_id":"","pricing_plan_id":"cebpf4jnsgd1na2vs0mg"},{"bike_id":"5cf9b64a-dab0-4989-bc12-239699cc63d3","system_id":"levelo_inurba_marseille","lat":43.29418,"lon":5.38615,"is_reserved":false,"is_disabled":false,"rental_uris":{"android":"levelo://app?vid=5cf9b64a-dab0-4989-bc12-239699cc63d3","ios":"levelo://app?vid=5cf9b64a-dab0-4989-bc12-239699cc63d3"},"vehicle_type_id":"4","last_reported":1727525699,"current_range_meters":25600,"station_id":"ce4bh2h2rcd13ifvqdh0","pricing_plan_id":"cebpf4jnsgd1na2vs0mg"},{"bike_id":"44839918-e841-4578-a34d-4d8014b09bc8","system_id":"levelo_inurba_marseille","lat":43.3123,"lon":5.36857,"is_reserved":false,"is_disabled":false,"rental_uris":{"android":"levelo://app?vid=44839918-e841-4578-a34d-4d8014b09bc8","ios":"levelo://app?vid=44839918-e841-4578-a34d-4d8014b09bc8"},