{"last_updated":1710544048,"ttl":30,"version":"2.2","data":{"bikes":[{"bike_id":"d5668bc7-3f5e-4428-98d3-5c4e76e7e401","system_id":"levelo_inurba_marseille","lat":43.312256,"lon":5.368904,"is_reserved":false,"is_disabled":false,"rental_uris":{"android":"levelo://app?vid=d5668bc7-3f5e-4428-98d3-5c4e76e7e401","ios":"levelo://app?vid=d5668bc7-3f5e-4428-98d3-5c4e76e7e401"},"vehicle_type_id":"4","last_reported":1710544048,"current_range_meters":0,"station_id":"ce4bgl92rcd13ifvqbq0","pricing_plan_id":"cebpf4jnsgd1na2vs0mg"},{"bike_id":"62852216-5499-4100-8561-e368d4933336","system_id":"levelo_inurba_marseille","lat":43.314811,"lon":5.373103,"is_reserved":false,"is_disabled":false,"rental_uris":{"android":"levelo://app?vid=62852216-5499-4100-8561-e368d4933336","ios":"levelo://app?vid=62852216-5499-4100-8561-e368d4933336"},"vehicle_type_id":"4","last_reported":1710544048,"current_range_meters":14800,"station_id":"ce4bgt12rcd13ifvqcd0","pricing_plan_id":"cebpf4jnsgd1na2vs0mg"},{"bike_id":"252fe404-9315-4e92-bc6e-82a90e2c6ff6","system_id":"levelo_inurba_marseille","lat":43.314811,"lon":5.373104,"is_reserved":false,"is_disabled":false,"rental_uris":{"android":"levelo://app?vid=252fe404-9315-4e92-bc6e-82a90e2c6ff6","ios":"levelo://app?vid=252fe404-9315-4e92-bc6e-82a90e2c6ff6"},"vehicle_type_id":"4","last_reported":1710544048,"current_range_meters":31200,"station_id":"ce4bgt12rcd13ifvqcd0","pricing_plan_id":"cebpf4jnsgd1na2vs0mg"},{"bike_id":"9f111b70-f0f7-4990-a1ae-e3c3ec30e657","system_id":"levelo_inurba_marseille","lat":43.314811,"lon":5.373103,"is_reserved":false,"is_disabled":false,"rental_uris":{"android":"levelo://app?vid=9f111b70-f0f7-4990-a1ae-e3c3ec30e657","ios":"levelo://app?vid=9f111b70-f0f7-4990-a1ae-e3c3ec30e657"},"vehicle_type_id":"4","last_reported":1710544048,"current_range_meters":11600,"station_id":"ce4bgt12rcd13ifvqcd0","pricing_plan_id":"cebpf4jnsgd1na2vs0mg"},{"bike_id":"622594b4-00d9-4960-a910-1bce9047698f","system_id":"levelo_inurba_marseille","lat":43.314811,"lon":5.373103,"is_reserved":false,"is_disabled":false,"rental_uris":{"android":"levelo://app?vid=622594b4-00d9-4960-a910-1bce9047698f","ios":"levelo://app?vid=622594b4-00d9-4960-a910-1bce9047698f"},"vehicle_type_id":"4","last_reported":1710544048,"current_range_meters":800,"station_id":"ce4bgt12rcd13ifvqcd0","pricing_plan_id":"cebpf4jnsgd1na2vs0mg"},{"bike_id":"af1c6c27-6eb8-4694-b10c-c13d66caef56","system_id":"levelo_inurba_marseille","lat":43.314811,"lon":5.373103,"is_reserved":false,"is_disabled":false,"rental_uris":{"android":"levelo://app?vid=af1c6c27-6eb8-4694-b10c-c13d66caef56","ios":"levelo://app?vid=af1c6c27-6eb8-4694-b10c-c13d66caef56"},"vehicle_type_id":"4","last_reported":1710544048,"current_range_meters":14800,"station_id":"ce4bgt12rcd13ifvqcd0","pricing_plan_id":"cebpf4jnsgd1na2vs0mg"},{"bike_id":"f4bfcc8e-ea18-4848-ac39-9c789c5f99f3","system_id":"levelo_inurba_marseille","lat":43.314811,"lon":5.373103,"is_reserved":false,"is_disabled":false,"rental_uris":{"android":"levelo://app?vid=f4bfcc8e-ea18-4848-ac39-9c789c5f99f3","ios":"levelo://app?vid=f4bfcc8e-ea18-4848-ac39-9c789c5f99f3"},"vehicle_type_id":"4","last_reported":1710544048,"current_range_meters":20800,"station_id":"ce4bgt12rcd13ifvqcd0","pricing_plan_id":"cebpf4jnsgd1na2vs0mg"},{"bike_id":"daae0b88-be70-4bb4-b60b-001cf97b9afb","system_id":"levelo_inurba_marseille","lat":43.314811,"lon":5.373104,"is_reserved":false,"is_disabled":false,"rental_uris":{"android":"levelo://app?vid=daae0b88-be70-4bb4-b60b-001cf97b9afb","ios":"levelo://app?vid=daae0b88-be70-4bb4-b60b-001cf97b9afb"},"vehicle_type_id":"4","last_reported":1710544048,"current_range_meters":17600,"station_id":"ce4bgt12rcd13ifvqcd0","pricing_plan_id":"cebpf4jnsgd1na2vs0mg"},{"bike_id":"6a5a9d1f-c889-426f-ac84-9b01975a6584","system_id":"levelo_inurba_marseille","lat":43.31518,"lon":5.373107,"is_reserved":false,"is_disabled":false,"rental_uris":{"android":"levelo://app?vid=6a5a9d1f-c889-426f-ac84-9b01975a6584","ios":"levelo://app?vid=6a5a9d1f-c889-426f-ac84-9b01975a6584"},"vehicle_type_id":"4","last_reported":1710544048,"current_range_meters":0,"station_id":"ce4bgt12rcd13ifvqcd0","pricing_plan_id":"cebpf4jnsgd1na2vs0mg"},{"bike_id":"b84a5fe8-2d20-4753-8899-1e095d90ff5d","system_id":"levelo_inurba_marseille","lat":43.30899,"lon":5.37173,"is_reserved":false,"is_disabled":false,"rental_uris":{"android":"levelo://app?vid=b84a5fe8-2d20-4753-8899-1e095d90ff5d","ios":"levelo://app?vid=b84a5fe8-2d20-4753-8899-1e095d90ff5d"},"vehicle_type_id":"4","last_reported":1710544048,"current_range_meters":9600,"station_id":"ce4bguh2rcd13ifvqckg","pricing_plan_id":"cebpf4jnsgd1na2vs0mg"},{"bike_id":"6357c94c-27d6-45a1-b706-a2a76cf31c02","system_id":"levelo_inurba_marseille","lat":43.309039,"lon":5.371797,"is_reserved":false,"is_disabled":false,"rental_uris":{"android":"levelo://app?vid=6357c94c-27d6-45a1-b706-a2a76cf31c02","ios":"levelo://app?vid=6357c94c-27d6-45a1-b706-a2a76cf31c02"},"vehicle_type_id":"4","last_reported":1710544048,"current_range_meters":29600,"station_id":"ce4bguh2rcd13ifvqckg","pricing_plan_id":"cebpf4jnsgd1na2vs0mg"},{"bike_id":"fe4abe62-1a1f-4538-a948-658e76329453","system_id":"levelo_inurba_marseille","lat":43.309034,"lon":5.371783,"is_reserved":false,"is_disabled":false,"rental_uris":{"android":"levelo://app?vid=fe4abe62-1a1f-4538-a948-658e76329453","ios":"levelo://app?vid=fe4abe62-1a1f-4538-a948-658e76329453"},"vehicle_type_id":"4","last_reported":1710544048,"current_range_meters":23200,"station_id":"ce4bguh2rcd13ifvqckg","pricing_plan_id":"cebpf4jnsgd1na2vs0mg"},{"bike_id":"ef080b52-165d-4da0-b46d-5fa35b7282b9","system_id":"levelo_inurba_marseille","lat":43.309039,"lon":5.371797,"is_reserved":false,"is_disabled":false,"rental_uris":{"android":"levelo://app?vid=ef080b52-165d-4da0-b46d-5fa35b7282b9","ios":"levelo://app?vid=ef080b52-165d-4da0-b46d-5fa35b7282b9"},"vehicle_type_id":"4","last_reported":1710544048,"current_range_meters":0,"station_id":"ce4bguh2rcd13ifvqckg","pricing_plan_id":"cebpf4jnsgd1na2vs0mg"},{"bike_id":"57a9a273-37d6-426c-ae9a-ce6e5859cd40","system_id":"levelo_inurba_marseille","lat":43.306831,"lon":5.366154,"is_reserved":false,"is_disabled":false,"rental_uris":{"android":"levelo://app?vid=57a9a273-37d6-426c-ae9a-ce6e5859cd40","ios":"levelo://app?vid=57a9a273-37d6-426c-ae9a-ce6e5859cd40"},"vehicle_type_id":"4","last_reported":1710544048,"current_range_meters":15200,"station_id":"","pricing_plan_id":"cebpf4jnsgd1na2vs0mg"},{"bike_id":"724198e3-cdf1-4577-8634-038f46d30943","system_id":"levelo_inurba_marseille","lat":43.30538,"lon":5.36701,"is_reserved":false,"is_disabled":false,"rental_uris":{"android":"levelo://app?vid=724198e3-cdf1-4577-8634-038f46d30943","ios":"levelo://app?vid=724198e3-cdf1-4577-8634-038f46d30943"},"vehicle_type_id":"4","last_reported":1710544048,"current_range_meters":0,"station_id":"ce4bgrp2rcd13ifvqc9g","pricing_plan_id":"cebpf4jnsgd1na2vs0mg"},{"bike_id":"b8315977-3852-4c45-b73a-bae9f6712ba3","system_id":"levelo_inurba_marseille","lat":43.305714,"lon":5.365633,"is_reserved":false,"is_disabled":false,"rental_uris":{"android":"levelo://app?vid=b8315977-3852-4c45-b73a-bae9f6712ba3","ios":"levelo://app?vid=b8315977-3852-4c45-b73a-bae9f6712ba3"},"vehicle_type_id":"4","last_reported":1710544048,"current_range_meters":21600,"station_id":"ce4bgs12rcd13ifvqcag","pricing_plan_id":"cebpf4jnsgd1na2vs0mg"},{"bike_id":"d5f91379-4853-46a0-bfcf-59b5719d911b","system_id":"levelo_inurba_marseille","lat":43.305989,"lon":5.37225,"is_reserved":false,"is_disabled":false,"rental_uris":{"android":"levelo://app?vid=d5f91379-4853-46a0-bfcf-59b5719d911b","ios":"levelo://app?vid=d5f91379-4853-46a0-bfcf-59b5719d911b"},"vehicle_type_id":"4","last_reported":1710544048,"current_range_meters":22800,"station_id":"ce4bgqh2rcd13ifvqc4g","pricing_plan_id":"cebpf4jnsgd1na2vs0mg"},{"bike_id":"86ef8552-de61-4ca5-bd45-db6cf7c72be9","system_id":"levelo_inurba_marseille","lat":43.305989,"lon":5.37225,"is_reserved":false,"is_disabled":false,"rental_uris":{"android":"levelo://app?vid=86ef8552-de61-4ca5-bd45-db6cf7c72be9","ios":"levelo://app?vid=86ef8552-de61-4ca5-bd45-db6cf7c72be9"},"vehicle_type_id":"4","last_reported":1710544048,"current_range_meters":24800,"station_id":"ce4bgqh2rcd13ifvqc4g","pricing_plan_id":"cebpf4jnsgd1na2vs0mg"},{"bike_id":"d64b0de6-ae88-4901-9ba5-64fb4c7d4c6c","system_id":"levelo_inurba_marseille","lat":43.305989,"lon":5.37225,"is_reserved":false,"is_disabled":false,"rental_uris":{"android":"levelo://app?vid=d64b0de6-ae88-4901-9ba5-64fb4c7d4c6c","ios":"levelo://app?vid=d64b0de6-ae88-4901-9ba5-64fb4c7d4c6c"},"vehicle_type_id":"4","last_reported":1710544048,"current_range_meters":12000,"station_id":"ce4bgqh2rcd13ifvqc4g","pricing_plan_id":"cebpf4jnsgd1na2vs0mg"},{"bike_id":"df9e8d3f-a717-4f29-8a40-6017bfe0cd97","system_id":"levelo_inurba_marseille","lat":43.305989,"lon":5.37225,"is_reserved":false,"is_disabled":false,"rental_uris":{"android":"levelo://app?vid=df9e8d3f-a717-4f29-8a40-6017bfe0cd97","ios":"levelo://app?vid=df9e8d3f-a717-4f29-8a40-6017bfe0cd97"},"vehicle_type_id":"4","last_reported":1710544048,"current_range_meters":31600,"station_id":"ce4bgqh2rcd13ifvqc4g","pricing_plan_id":"cebpf4jnsgd1na2vs0mg"},{"bike_id":"a7588948-84a4-4923-902c-fe2b5d2eda1d","system_id":"levelo_inurba_marseille","lat":43.305989,"lon":5.37225,"is_reserved":false,"is_disabled":false,"rental_uris":{"android":"levelo://app?vid=a7588948-84a4-4923-902c-fe2b5d2eda1d","ios":"levelo://app?vid=a7588948-84a4-4923-902c-fe2b5d2eda1d"},"vehicle_type_id":"4","last_reported":1710544048,"current_range_meters":25600,"station_id":"ce4bgqh2rcd13ifvqc4g","pricing_plan_id":"cebpf4jnsgd1na2vs0mg"},{"bike_id":"e249d47b-5c33-411c-96ef-669c67c29cd2","system_id":"levelo_inurba_marseille","lat":43.305989,"lon":5.37225,"is_reserved":false,"is_disabled":false,"rental_uris":{"android":"levelo://app?vid=e249d47b-5c33-411c-96ef-669c67c29cd2","ios":"levelo://app?vid=e249d47b-5c33-411c-96ef-669c67c29cd2"},"vehicle_type_id":"4","last_reported":1710544048,"current_range_meters":9600,"station_id":"ce4bgqh2rcd13ifvqc4g","pricing_plan_id":"cebpf4jnsgd1na2vs0mg"},{"bike_id":"99cd8363-b09b-4863-8f72-5151de791b57","system_id":"levelo_inurba_marseille","lat":43.30596,"lon":5.37215,"is_reserved":false,"is_disabled":false,"rental_uris":{"android":"levelo://app?vid=99cd8363-b09b-4863-8f72-5151de791b57","ios":"levelo://app?vid=99cd8363-b09b-4863-8f72-5151de791b57"},"vehicle_type_id":"4","last_reported":1710544048,"current_range_meters":21600,"station_id":"","pricing_plan_id":"cebpf4jnsgd1na2vs0mg"},{"bike_id":"25b4c706-18d6-434d-8e8e-ff73ea12e72f","system_id":"levelo_inurba_marseille","lat":43.305989,"lon":5.37225,"is_reserved":false,"is_disabled":false,"rental_uris":{"android":"levelo://app?vid=25b4c706-18d6-434d-8e8e-ff73ea12e72f","ios":"levelo://app?vid=25b4c706-18d6-434d-8e8e-ff73ea12e72f"},"vehicle_type_id":"4","last_reported":1710544048,"current_range_meters":14400,"station_id":"ce4bgqh2rcd13ifvqc4g","pricing_plan_id":"cebpf4jnsgd1na2vs0mg"},{"bike_id":"eeef88fb-bd96-44f7-af05-c4abf9084201","system_id":"levelo_inurba_marseille","lat":43.305989,"lon":5.37225,"is_reserved":false,"is_disabled":false,"rental_uris":{"android":"levelo://app?vid=eeef88fb-bd96-44f7-af05-c4abf9084201","ios":"levelo://app?vid=eeef88fb-bd96-44f7-af05-c4abf9084201"},"vehicle_type_id":"4","last_reported":1710544048,"current_range_meters":23200,"station_id":"ce4bgqh2rcd13ifvqc4g","pricing_plan_id":"cebpf4jnsgd1na2vs0mg"},{"bike_id":"896df729-c091-4450-8fe0-b4b21717e990","system_id":"levelo_inurba_marseille","lat":43.311131,"lon":5.377651,"is_reserved":false,"is_disabled":false,"rental_uris":{"android":"levelo://app?vid=896df729-c091-4450-8fe0-b4b21717e990","ios":"levelo://app?vid=896df729-c091-4450-8fe0-b4b21717e990"},"vehicle_type_id":"4","last_reported":1710544048,"current_range_meters":24800,"station_id":"ce4bgt92rcd13ifvqcg0","pricing_plan_id":"cebpf4jnsgd1na2vs0mg"},{"bike_id":"3b328f20-ad98-4c20-8539-d2b727ae8ea6","system_id":"levelo_inurba_marseille","lat":43.311131,"lon":5.377651,"is_reserved":false,"is_disabled":false,"rental_uris":{"android":"levelo://app?vid=3b328f20-ad98-4c20-8539-d2b727ae8ea6","ios":"levelo://app?vid=3b328f20-ad98-4c20-8539-d2b727ae8ea6"},"vehicle_type_id":"4","last_reported":1710544048,"current_range_meters":20000,"station_id":"ce4bgt92rcd13ifvqcg0","pricing_plan_id":"cebpf4jnsgd1na2vs0mg"},{"bike_id":"e4f6a704-57f3-4a68-a21f-d7fa3564a193","system_id":"levelo_inurba_marseille","lat":43.311131,"lon":5.377651,"is_reserved":false,"is_disabled":false,"rental_uris":{"android":"levelo://app?vid=e4f6a704-57f3-4a68-a21f-d7fa3564a193","ios":"levelo://app?vid=e4f6a704-57f3-4a68-a21f-d7fa3564a193"},"vehicle_type_id":"4","last_reported":1710544048,"current_range_meters":22000,"station_id":"ce4bgt92rcd13ifvqcg0","pricing_plan_id":"cebpf4jnsgd1na2vs0mg"},{"bike_id":"a6baf620-247a-4c4c-8af8-728b4090b6f2","system_id":"levelo_inurba_marseille","lat":43.307945,"lon":5.376487,"is_reserved":false,"is_disabled":false,"rental_uris":{"android":"levelo://app?vid=a6baf620-247a-4c4c-8af8-728b4090b6f2","ios":"levelo://app?vid=a6baf620-247a-4c4c-8af8-728b4090b6f2"},"vehicle_type_id":"4","last_reported":1710544048,"current_range_meters":7600,"station_id":"ce4bgv92rcd13ifvqcq0","pricing_plan_id":"cebpf4jnsgd1na2vs0mg"},{"bike_id":"107dbcab-2efb-4998-a326-59015cae38fc","system_id":"levelo_inurba_marseille","lat":43.307945,"lon":5.376487,"is_reserved":false,"is_disabled":false,"rental_uris":{"android":"levelo://app?vid=107dbcab-2efb-4998-a326-59015cae38fc","ios":"levelo://app?vid=107dbcab-2efb-4998-a326-59015cae38fc"},"vehicle_type_id":"4","last_reported":1710544048,"current_range_meters":6000,"station_id":"ce4bgv92rcd13ifvqcq0","pricing_plan_id":"cebpf4jnsgd1na2vs0mg"},{"bike_id":"8cc855a4-98c8-42b4-9984-8d87ca1d13b2","system_id":"levelo_inurba_marseille","lat":43.307945,"lon":5.376487,"is_reserved":false,"is_disabled":false,"rental_uris":{"android":"levelo://app?vid=8cc855a4-98c8-42b4-9984-8d87ca1d13b2","ios":"levelo://app?vid=8cc855a4-98c8-42b4-9984-8d87ca1d13b2"},"vehicle_type_id":"4","last_reported":1710544048,"current_range_meters":31200,"station_id":"ce4bgv92rcd13ifvqcq0","pricing_plan_id":"cebpf4jnsgd1na2vs0mg"},{"bike_id":"012ffac2-dd25-4be2-b07e-020a834eb88b","system_id":"levelo_inurba_marseille","lat":43.307945,"lon":5.376487,"is_reserved":false,"is_disabled":false,"rental_uris":{"android":"levelo://app?vid=012ffac2-dd25-4be2-b07e-020a834eb88b","ios":"levelo://app?vid=012ffac2-dd25-4be2-b07e-020a834eb88b"},"vehicle_type_id":"4","last_reported":1710544048,"current_range_meters":6800,"station_id":"ce4bgv92rcd13ifvqcq0","pricing_plan_id":"cebpf4jnsgd1na2vs0mg"},{"bike_id":"b5855734-fd31-478d-b31b-cb30ce070729","system_id":"levelo_inurba_marseille","lat":43.3042,"lon":5.36543,"is_reserved":false,"is_disabled":false,"rental_uris":{"android":"levelo://app?vid=b5855734-fd31-478d-b31b-cb30ce070729","ios":"levelo://app?vid=b5855734-fd31-478d-b31b-cb30ce070729"},"vehicle_type_id":"4","last_reported":1710544048,"current_range_meters":4800,"station_id":"","pricing_plan_id":"cebpf4jnsgd1na2vs0mg"},{"bike_id":"d0d485fc-3c25-4763-ad86-65c86de180cb","system_id":"levelo_inurba_marseille","lat":43.31708,"lon":5.37747,"is_reserved":false,"is_disabled":false,"rental_uris":{"android":"levelo://app?vid=d0d485fc-3c25-4763-ad86-65c86de180cb","ios":"levelo://app?vid=d0d485fc-3c25-4763-ad86-65c86de180cb"},"vehicle_type_id":"4","last_reported":1710544048,"current_range_meters":11200,"station_id":"ce4bgth2rcd13ifvqch0","pricing_plan_id":"cebpf4jnsgd1na2vs0mg"},{"bike_id":"d0365cdb-ac18-4b51-af08-e78a881a8201","system_id":"levelo_inurba_marseille","lat":43.31709,"lon":5.37752,"is_reserved":false,"is_disabled":false,"rental_uris":{"android":"levelo://app?vid=d0365cdb-ac18-4b51-af08-e78a881a8201","ios":"levelo://app?vid=d0365cdb-ac18-4b51-af08-e78a881a8201"},"vehicle_type_id":"4","last_reported":1710544048,"current_range_meters":8000,"station_id":"ce4bgth2rcd13ifvqch0","pricing_plan_id":"cebpf4jnsgd1na2vs0mg"},{"bike_id":"6df8a519-a704-46e9-b3eb-42b1fb917e85","system_id":"levelo_inurba_marseille","lat":43.31771,"lon":5.37788,"is_reserved":false,"is_disabled":false,"rental_uris":{"android":"levelo://app?vid=6df8a519-a704-46e9-b3eb-42b1fb917e85","ios":"levelo://app?vid=6df8a519-a704-46e9-b3eb-42b1fb917e85"},"vehicle_type_id":"4","last_reported":1710544048,"current_range_meters":13600,"station_id":"","pricing_plan_id":"cebpf4jnsgd1na2vs0mg"},{"bike_id":"75acbb7a-844c-4262-98aa-3529cada0940","system_id":"levelo_inurba_marseille","lat":43.315289,"lon":5.380349,"is_reserved":false,"is_disabled":false,"rental_uris":{"android":"levelo://app?vid=75acbb7a-844c-4262-98aa-3529cada0940","ios":"levelo://app?vid=75acbb7a-844c-4262-98aa-3529cada0940"},"vehicle_type_id":"4","last_reported":1710544048,"current_range_meters":30400,"station_id":"ce4bhsp2rcd13ifvqi50","pricing_plan_id":"cebpf4jnsgd1na2vs0mg"},{"bike_id":"7429b32f-de69-4fb1-828f-d41736e79a39","system_id":"levelo_inurba_marseille","lat":43.31528,"lon":5.38039,"is_reserved":false,"is_disabled":false,"rental_uris":{"android":"levelo://app?vid=7429b32f-de69-4fb1-828f-d41736e79a39","ios":"levelo://app?vid=7429b32f-de69-4fb1-828f-d41736e79a39"},"vehicle_type_id":"4","last_reported":1710544048,"current_range_meters":20000,"station_id":"ce4bhsp2rcd13ifvqi50","pricing_plan_id":"cebpf4jnsgd1na2vs0mg"},{"bike_id":"3608d763-66fd-497b-a690-4b174f8b5ff5","system_id":"levelo_inurba_marseille","lat":43.315293,"lon":5.380349,"is_reserved":false,"is_disabled":false,"rental_uris":{"android":"levelo://app?vid=3608d763-66fd-497b-a690-4b174f8b5ff5","ios":"levelo://app?vid=3608d763-66fd-497b-a690-4b174f8b5ff5"},"vehicle_type_id":"4","last_reported":1710544048,"current_range_meters":31200,"station_id":"ce4bhsp2rcd13ifvqi50","pricing_plan_id":"cebpf4jnsgd1na2vs0mg"},{"bike_id":"5398b644-69fe-4fd4-8a5f-d92bdfc2c47a","system_id":"levelo_inurba_marseille","lat":43.301939,"lon":5.366286,"is_reserved":false,"is_disabled":false,"rental_uris":{"android":"levelo://app?vid=5398b644-69fe-4fd4-8a5f-d92bdfc2c47a","ios":"levelo://app?vid=5398b644-69fe-4fd4-8a5f-d92bdfc2c47a"},"vehicle_type_id":"4","last_reported":1710544048,"current_range_meters":24000,"station_id":"ce4bgrh2rcd13ifvqc8g","pricing_plan_id":"cebpf4jnsgd1na2vs0mg"},{"bike_id":"9884e60a-e042-45f1-b58f-d8b08aa28aa0","system_id":"levelo_inurba_marseille","lat":43.308012,"lon":5.381511,"is_reserved":false,"is_disabled":false,"rental_uris":{"android":"levelo://app?vid=9884e60a-e042-45f1-b58f-d8b08aa28aa0","ios":"levelo://app?vid=9884e60a-e042-45f1-b58f-d8b08aa28aa0"},"vehicle_type_id":"4","last_reported":1710544048,"current_range_meters":18000,"station_id":"ce4bgt12rcd13ifvqce0","pricing_plan_id":"cebpf4jnsgd1na2vs0mg"},{"bike_id":"5de42926-3767-48ec-b013-b74a51b604d9","system_id":"levelo_inurba_marseille","lat":43.308012,"lon":5.381511,"is_reserved":false,"is_disabled":false,"rental_uris":{"android":"levelo://app?vid=5de42926-3767-48ec-b013-b74a51b604d9","ios":"levelo://app?vid=5de42926-3767-48ec-b013-b74a51b604d9"},"vehicle_type_id":"4","last_reported":1710544048,"current_range_meters":20400,"station_id":"ce4bgt12rcd13ifvqce0","pricing_plan_id":"cebpf4jnsgd1na2vs0mg"},{"bike_id":"40aa3d7a-4369-4262-9192-2de5c3430f0b","system_id":"levelo_inurba_marseille","lat":43.308012,"lon":5.381511,"is_reserved":false,"is_disabled":false,"rental_uris":{"android":"levelo://app?vid=40aa3d7a-4369-4262-9192-2de5c3430f0b","ios":"levelo://app?vid=40aa3d7a-4369-4262-9192-2de5c3430f0b"},"vehicle_type_id":"4","last_reported":1710544048,"current_range_meters":28000,"station_id":"ce4bgt12rcd13ifvqce0","pricing_plan_id":"cebpf4jnsgd1na2vs0mg"},{"bike_id":"47a9ca4c-c775-484e-a592-ef44adbf3952","system_id":"levelo_inurba_marseille","lat":43.320334,"lon":5.37957,"is_reserved":false,"is_disabled":false,"rental_uris":{"android":"levelo://app?vid=47a9ca4c-c775-484e-a592-ef44adbf3952","ios":"levelo://app?vid=47a9ca4c-c775-484e-a592-ef44adbf3952"},"vehicle_type_id":"4","last_reported":1710544048,"current_range_meters":2800,"station_id":"","pricing_plan_id":"cebpf4jnsgd1na2vs0mg"},{"bike_id":"3d849daa-c22b-41ba-8d61-e693ee86602b","system_id":"levelo_inurba_marseille","lat":43.304606,"lon":5.379026,"is_reserved":false,"is_disabled":false,"rental_uris":{"android":"levelo://app?vid=3d849daa-c22b-41ba-8d61-e693ee86602b","ios":"levelo://app?vid=3d849daa-c22b-41ba-8d61-e693ee86602b"},"vehicle_type_id":"4","last_reported":1710544048,"current_range_meters":12400,"station_id":"ce4bgup2rcd13ifvqcn0","pricing_plan_id":"cebpf4jnsgd1na2vs0mg"},{"bike_id":"582c7a17-0190-4119-9315-317135e8783b","system_id":"levelo_inurba_marseille","lat":43.304606,"lon":5.379026,"is_reserved":false,"is_disabled":false,"rental_uris":{"android":"levelo://app?vid=582c7a17-0190-4119-9315-317135e8783b","ios":"levelo://app?vid=582c7a17-0190-4119-9315-317135e8783b"},"vehicle_type_id":"4","last_reported":1710544048,"current_range_meters":2400,"station_id":"ce4bgup2rcd13ifvqcn0","pricing_plan_id":"cebpf4jnsgd1na2vs0mg"},{"bike_id":"0340c098-c68f-4978-a406-cbad32970ca9","system_id":"levelo_inurba_marseille","lat":43.324771,"lon":5.36557,"is_reserved":false,"is_disabled":false,"rental_uris":{"android":"levelo://app?vid=0340c098-c68f-4978-a406-cbad32970ca9","ios":"levelo://app?vid=0340c098-c68f-4978-a406-cbad32970ca9"},"vehicle_type_id":"4","last_reported":1710544048,"current_range_meters":27200,"station_id":"ce4bhs12rcd13ifvqhvg","pricing_plan_id":"cebpf4jnsgd1na2vs0mg"},{"bike_id":"96ade1c6-b8f4-4248-a16c-9ca6451e8605","system_id":"levelo_inurba_marseille","lat":43.324771,"lon":5.36557,"is_reserved":false,"is_disabled":false,"rental_uris":{"android":"levelo://app?vid=96ade1c6-b8f4-4248-a16c-9ca6451e8605","ios":"levelo://app?vid=96ade1c6-b8f4-4248-a16c-9ca6451e8605"},"vehicle_type_id":"4","last_reported":1710544048,"current_range_meters":21600,"station_id":"ce4bhs12rcd13ifvqhvg","pricing_plan_id":"cebpf4jnsgd1na2vs0mg"},{"bike_id":"45c182d4-c42c-4114-9e74-abc1eba34bef","system_id":"levelo_inurba_marseille","lat":43.32481,"lon":5.365802,"is_reserved":false,"is_disabled":false,"rental_uris":{"android":"levelo://app?vid=45c182d4-c42c-4114-9e74-abc1eba34bef","ios":"levelo://app?vid=45c182d4-c42c-4114-9e74-abc1eba34bef"},"vehicle_type_id":"4","last_reported":1710544048,"current_range_meters":24400,"station_id":"ce4bhs12rcd13ifvqhvg","pricing_plan_id":"cebpf4jnsgd1na2vs0mg"},{"bike_id":"1fad90b3-ff8e-4e6e-8c30-8e54eeb051a1","system_id":"levelo_inurba_marseille","lat":43.324771,"lon":5.36557,"is_reserved":false,"is_disabled":false,"rental_uris":{"android":"levelo://app?vid=1fad90b3-ff8e-4e6e-8c30-8e54eeb051a1","ios":"levelo://app?vid=1fad90b3-ff8e-4e6e-8c30-8e54eeb051a1"},"vehicle_type_id":"4","last_reported":1710544048,"current_range_meters":6000,"station_id":"ce4bhs12rcd13ifvqhvg","pricing_plan_id":"cebpf4jnsgd1na2vs0mg"},{"bike_id":"5408e4c7-2fa4-4dab-a5a0-a5ab8acdc782","system_id":"levelo_inurba_marseille","lat":43.324771,"lon":5.36557,"is_reserved":false,"is_disabled":false,"rental_uris":{"android":"levelo://app?vid=5408e4c7-2fa4-4dab-a5a0-a5ab8acdc782","ios":"levelo://app?vid=5408e4c7-2fa4-4dab-a5a0-a5ab8acdc782"},"vehicle_type_id":"4","last_reported":1710544048,"current_range_meters":5600,"station_id":"ce4bhs12rcd13ifvqhvg","pricing_plan_id":"cebpf4jnsgd1na2vs0mg"},{"bike_id":"c0cc4b46-b357-4a80-98cc-afe13efe41f1","system_id":"levelo_inurba_marseille","lat":43.324771,"lon":5.36557,"is_reserved":false,"is_disabled":false,"rental_uris":{"android":"levelo://app?vid=c0cc4b46-b357-4a80-98cc-afe13efe41f1","ios":"levelo://app?vid=c0cc4b46-b357-4a80-98cc-afe13efe41f1"},"vehicle_type_id":"4","last_reported":1710544048,"current_range_meters":4400,"station_id":"ce4bhs12rcd13ifvqhvg","pricing_plan_id":"cebpf4jnsgd1na2vs0mg"},{"bike_id":"12c419ff-5d5f-445b-9471-a4225b24c594","system_id":"levelo_inurba_marseille","lat":43.324771,"lon":5.36557,"is_reserved":false,"is_disabled":false,"rental_uris":{"android":"levelo://app?vid=12c419ff-5d5f-445b-9471-a4225b24c594","ios":"levelo://app?vid=12c419ff-5d5f-445b-9471-a4225b24c594"},"vehicle_type_id":"4","last_reported":1710544048,"current_range_meters":5200,"station_id":"ce4bhs12rcd13ifvqhvg","pricing_plan_id":"cebpf4jnsgd1na2vs0mg"},{"bike_id":"d0a1215e-2721-4c99-97bc-0f2502ca24bf","system_id":"levelo_inurba_marseille","lat":43.324771,"lon":5.36557,"is_reserved":false,"is_disabled":false,"rental_uris":{"android":"levelo://app?vid=d0a1215e-2721-4c99-97bc-0f2502ca24bf","ios":"levelo://app?vid=d0a1215e-2721-4c99-97bc-0f2502ca24bf"},"vehicle_type_id":"4","last_reported":1710544048,"current_range_meters":6400,"station_id":"ce4bhs12rcd13ifvqhvg","pricing_plan_id":"cebpf4jnsgd1na2vs0mg"},{"bike_id":"0beae27c-8e15-427f-98a8-4f6c1fff4039","system_id":"levelo_inurba_marseille","lat":43.324771,"lon":5.36557,"is_reserved":false,"is_disabled":false,"rental_uris":{"android":"levelo://app?vid=0beae27c-8e15-427f-98a8-4f6c1fff4039","ios":"levelo://app?vid=0beae27c-8e15-427f-98a8-4f6c1fff4039"},"vehicle_type_id":"4","last_reported":1710544048,"current_range_meters":8000,"station_id":"ce4bhs12rcd13ifvqhvg","pricing_plan_id":"cebpf4jnsgd1na2vs0mg"},{"bike_id":"18fc47d4-f43a-4eed-abb4-9d13f9e04f59","system_id":"levelo_inurba_marseille","lat":43.324771,"lon":5.36557,"is_reserved":false,"is_disabled":false,"rental_uris":{"android":"levelo://app?vid=18fc47d4-f43a-4eed-abb4-9d13f9e04f59","ios":"levelo://app?vid=18fc47d4-f43a-4eed-abb4-9d13f9e04f59"},"vehicle_type_id":"4","last_reported":1710544048,"current_range_meters":20000,"station_id":"ce4bhs12rcd13ifvqhvg","pricing_plan_id":"cebpf4jnsgd1na2vs0mg"},{"bike_id":"af0a83ad-4db4-465e-a460-b561e0502353","system_id":"levelo_inurba_marseille","lat":43.324771,"lon":5.36557,"is_reserved":false,"is_disabled":false,"rental_uris":{"android":"levelo://app?vid=af0a83ad-4db4-465e-a460-b561e0502353","ios":"levelo://app?vid=af0a83ad-4db4-465e-a460-b561e0502353"},"vehicle_type_id":"4","last_reported":1710544048,"current_range_meters":0,"station_id":"ce4bhs12rcd13ifvqhvg","pricing_plan_id":"cebpf4jnsgd1na2vs0mg"},{"bike_id":"3636e797-ae37-4ed8-ae31-11958c8b0dde","system_id":"levelo_inurba_marseille","lat":43.324771,"lon":5.36557,"is_reserved":false,"is_disabled":false,"rental_uris":{"android":"levelo://app?vid=3636e797-ae37-4ed8-ae31-11958c8b0dde","ios":"levelo://app?vid=3636e797-ae37-4ed8-ae31-11958c8b0dde"},"vehicle_type_id":"4","last_reported":1710544048,"current_range_meters":14800,"station_id":"ce4bhs12rcd13ifvqhvg","pricing_plan_id":"cebpf4jnsgd1na2vs0mg"},{"bike_id":"39592264-8806-4a31-a6a2-556b8abe3cbd","system_id":"levelo_inurba_marseille","lat":43.324771,"lon":5.36557,"is_reserved":false,"is_disabled":false,"rental_uris":{"android":"levelo://app?vid=39592264-8806-4a31-a6a2-556b8abe3cbd","ios":"levelo://app?vid=39592264-8806-4a31-a6a2-556b8abe3cbd"},"vehicle_type_id":"4","last_reported":1710544048,"current_range_meters":10400,"station_id":"ce4bhs12rcd13ifvqhvg","pricing_plan_id":"cebpf4jnsgd1na2vs0mg"},{"bike_id":"6bf09af1-e832-4335-ad93-de38b9de0b96","system_id":"levelo_inurba_marseille","lat":43.310804,"lon":5.38359,"is_reserved":false,"is_disabled":false,"rental_uris":{"android":"levelo://app?vid=6bf09af1-e832-4335-ad93-de38b9de0b96","ios":"levelo://app?vid=6bf09af1-e832-4335-ad93-de38b9de0b96"},"vehicle_type_id":"4","last_reported":1710544048,"current_range_meters":0,"station_id":"ce4bgv92rcd13ifvqcr0","pricing_plan_id":"cebpf4jnsgd1na2vs0mg"},{"bike_id":"048ce724-c9c2-4b2d-9d8a-5a6daa01f8cc","system_id":"levelo_inurba_marseille","lat":43.310804,"lon":5.38359,"is_reserved":false,"is_disabled":false,"rental_uris":{"android":"levelo://app?vid=048ce724-c9c2-4b2d-9d8a-5a6daa01f8cc","ios":"levelo://app?vid=048ce724-c9c2-4b2d-9d8a-5a6daa01f8cc"},"vehicle_type_id":"4","last_reported":1710544048,"current_range_meters":21600,"station_id":"ce4bgv92rcd13ifvqcr0","pricing_plan_id":"cebpf4jnsgd1na2vs0mg"},{"bike_id":"26f8ae32-857c-49d4-9477-7288971ce8c8","system_id":"levelo_inurba_marseille","lat":43.302784,"lon":5.377158,"is_reserved":false,"is_disabled":false,"rental_uris":{"android":"levelo://app?vid=26f8ae32-857c-49d4-9477-7288971ce8c8","ios":"levelo://app?vid=26f8ae32-857c-49d4-9477-7288971ce8c8"},"vehicle_type_id":"4","last_reported":1710544048,"current_range_meters":28800,"station_id":"ce4bguh2rcd13ifvqcj0","pricing_plan_id":"cebpf4jnsgd1na2vs0mg"},{"bike_id":"dc154f79-dd9e-4740-be77-371826edb848","system_id":"levelo_inurba_marseille","lat":43.310804,"lon":5.38359,"is_reserved":false,"is_disabled":false,"rental_uris":{"android":"levelo://app?vid=dc154f79-dd9e-4740-be77-371826edb848","ios":"levelo://app?vid=dc154f79-dd9e-4740-be77-371826edb848"},"vehicle_type_id":"4","last_reported":1710544048,"current_range_meters":0,"station_id":"ce4bgv92rcd13ifvqcr0","pricing_plan_id":"cebpf4jnsgd1na2vs0mg"},{"bike_id":"ebdbb388-0aa7-4010-b718-e00b32fee722","system_id":"levelo_inurba_marseille","lat":43.302784,"lon":5.377158,"is_reserved":false,"is_disabled":false,"rental_uris":{"android":"levelo://app?vid=ebdbb388-0aa7-4010-b718-e00b32fee722","ios":"levelo://app?vid=ebdbb388-0aa7-4010-b718-e00b32fee722"},"vehicle_type_id":"4","last_reported":1710544048,"current_range_meters":25200,"station_id":"ce4bguh2rcd13ifvqcj0","pricing_plan_id":"cebpf4jnsgd1na2vs0mg"},{"bike_id":"b2273e34-f3b1-45d8-a7c1-e0a5296f08a5","system_id":"levelo_inurba_marseille","lat":43.319965,"lon":5.38147,"is_reserved":false,"is_disabled":false,"rental_uris":{"android":"levelo://app?vid=b2273e34-f3b1-45d8-a7c1-e0a5296f08a5","ios":"levelo://app?vid=b2273e34-f3b1-45d8-a7c1-e0a5296f08a5"},"vehicle_type_id":"4","last_reported":1710544048,"current_range_meters":19600,"station_id":"ce4bhr12rcd13ifvqhpg","pricing_plan_id":"cebpf4jnsgd1na2vs0mg"},{"bike_id":"5e3113e3-29f6-4f14-a9c5-2af5d9ac0333","system_id":"levelo_inurba_marseille","lat":43.319968,"lon":5.381484,"is_reserved":false,"is_disabled":false,"rental_uris":{"android":"levelo://app?vid=5e3113e3-29f6-4f14-a9c5-2af5d9ac0333","ios":"levelo://app?vid=5e3113e3-29f6-4f14-a9c5-2af5d9ac0333"},"vehicle_type_id":"4","last_reported":1710544048,"current_range_meters":8800,"station_id":"ce4bhr12rcd13ifvqhpg","pricing_plan_id":"cebpf4jnsgd1na2vs0mg"},{"bike_id":"32f5d04a-4a49-412d-8179-8f69e2f51ddc","system_id":"levelo_inurba_marseille","lat":43.319941,"lon":5.381513,"is_reserved":false,"is_disabled":false,"rental_uris":{"android":"levelo://app?vid=32f5d04a-4a49-412d-8179-8f69e2f51ddc","ios":"levelo://app?vid=32f5d04a-4a49-412d-8179-8f69e2f51ddc"},"vehicle_type_id":"4","last_reported":1710544048,"current_range_meters":6000,"station_id":"ce4bhr12rcd13ifvqhpg","pricing_plan_id":"cebpf4jnsgd1na2vs0mg"},{"bike_id":"a46f3b86-7dc1-46bc-b469-645f5d47ddad","system_id":"levelo_inurba_marseille","lat":43.319935,"lon":5.381699,"is_reserved":false,"is_disabled":false,"rental_uris":{"android":"levelo://app?vid=a46f3b86-7dc1-46bc-b469-645f5d47ddad","ios":"levelo://app?vid=a46f3b86-7dc1-46bc-b469-645f5d47ddad"},"vehicle_type_id":"4","last_reported":1710544048,"current_range_meters":18800,"station_id":"ce4bhr12rcd13ifvqhpg","pricing_plan_id":"cebpf4jnsgd1na2vs0mg"},{"bike_id":"047bfaaa-aa6b-49b2-8002-e870a4645c6c","system_id":"levelo_inurba_marseille","lat":43.319935,"lon":5.381699,"is_reserved":false,"is_disabled":false,"rental_uris":{"android":"levelo://app?vid=047bfaaa-aa6b-49b2-8002-e870a4645c6c","ios":"levelo://app?vid=047bfaaa-aa6b-49b2-8002-e870a4645c6c"},"vehicle_type_id":"4","last_reported":1710544048,"current_range_meters":17200,"station_id":"ce4bhr12rcd13ifvqhpg","pricing_plan_id":"cebpf4jnsgd1na2vs0mg"},{"bike_id":"747ec0e5-a700-4ed0-859f-8b01d77434a9","system_id":"levelo_inurba_marseille","lat":43.319935,"lon":5.381699,"is_reserved":false,"is_disabled":false,"rental_uris":{"android":"levelo://app?vid=747ec0e5-a700-4ed0-859f-8b01d77434a9","ios":"levelo://app?vid=747ec0e5-a700-4ed0-859f-8b01d77434a9"},"vehicle_type_id":"4","last_reported":1710544048,"current_range_meters":0,"station_id":"ce4bhr12rcd13ifvqhpg","pricing_plan_id":"cebpf4jnsgd1na2vs0mg"},{"bike_id":"195ca8c3-ec51-4c4a-be01-404ef282e84e","system_id":"levelo_inurba_marseille","lat":43.31997,"lon":5.38172,"is_reserved":false,"is_disabled":false,"rental_uris":{"android":"levelo://app?vid=195ca8c3-ec51-4c4a-be01-404ef282e84e","ios":"levelo://app?vid=195ca8c3-ec51-4c4a-be01-404ef282e84e"},"vehicle_type_id":"4","last_reported":1710544048,"current_range_meters":0,"station_id":"ce4bhr12rcd13ifvqhpg","pricing_plan_id":"cebpf4jnsgd1na2vs0mg"},{"bike_id":"7c50995c-d5e2-4eee-93ad-73e1379c9e24","system_id":"levelo_inurba_marseille","lat":43.313571,"lon":5.384829,"is_reserved":false,"is_disabled":false,"rental_uris":{"android":"levelo://app?vid=7c50995c-d5e2-4eee-93ad-73e1379c9e24","ios":"levelo://app?vid=7c50995c-d5e2-4eee-93ad-73e1379c9e24"},"vehicle_type_id":"4","last_reported":1710544048,"current_range_meters":9200,"station_id":"ce4bgt92rcd13ifvqcf0","pricing_plan_id":"cebpf4jnsgd1na2vs0mg"},{"bike_id":"62fd71c3-cd37-48db-a498-a656d24390c1","system_id":"levelo_inurba_marseille","lat":43.313571,"lon":5.384829,"is_reserved":false,"is_disabled":false,"rental_uris":{"android":"levelo://app?vid=62fd71c3-cd37-48db-a498-a656d24390c1","ios":"levelo://app?vid=62fd71c3-cd37-48db-a498-a656d24390c1"},"vehicle_type_id":"4","last_reported":1710544048,"current_range_meters":20800,"station_id":"ce4bgt92rcd13ifvqcf0","pricing_plan_id":"cebpf4jnsgd1na2vs0mg"},{"bike_id":"034e3908-9df5-4a00-bbe2-3063caa792f3","system_id":"levelo_inurba_marseille","lat":43.313571,"lon":5.384829,"is_reserved":false,"is_disabled":false,"rental_uris":{"android":"levelo://app?vid=034e3908-9df5-4a00-bbe2-3063caa792f3","ios":"levelo://app?vid=034e3908-9df5-4a00-bbe2-3063caa792f3"},"vehicle_type_id":"4","last_reported":1710544048,"current_range_meters":15600,"station_id":"ce4bgt92rcd13ifvqcf0","pricing_plan_id":"cebpf4jnsgd1na2vs0mg"},{"bike_id":"cdee254d-f7bd-426c-a982-84b983b141a9","system_id":"levelo_inurba_marseille","lat":43.31368,"lon":5.38494,"is_reserved":false,"is_disabled":false,"rental_uris":{"android":"levelo://app?vid=cdee254d-f7bd-426c-a982-84b983b141a9","ios":"levelo://app?vid=cdee254d-f7bd-426c-a982-84b983b141a9"},"vehicle_type_id":"4","last_reported":1710544048,"current_range_meters":15600,"station_id":"ce4bgt92rcd13ifvqcf0","pricing_plan_id":"cebpf4jnsgd1na2vs0mg"},{"bike_id":"07d540ed-1152-42ac-aaf4-decd333ba858","system_id":"levelo_inurba_marseille","lat":43.313571,"lon":5.384829,"is_reserved":false,"is_disabled":false,"rental_uris":{"android":"levelo://app?vid=07d540ed-1152-42ac-aaf4-decd333ba858","ios":"levelo://app?vid=07d540ed-1152-42ac-aaf4-decd333ba858"},"vehicle_type_id":"4","last_reported":1710544048,"current_range_meters":3600,"station_id":"ce4bgt92rcd13ifvqcf0","pricing_plan_id":"cebpf4jnsgd1na2vs0mg"},{"bike_id":"0c5344ff-b80e-45bc-90c8-bdf821e6c51d","system_id":"levelo_inurba_marseille","lat":43.3136,"lon":5.38498,"is_reserved":false,"is_disabled":false,"rental_uris":{"android":"levelo://app?vid=0c5344ff-b80e-45bc-90c8-bdf821e6c51d","ios":"levelo://app?vid=0c5344ff-b80e-45bc-90c8-bdf821e6c51d"},"vehicle_type_id":"4","last_reported":1710544048,"current_range_meters":19600,"station_id":"ce4bgt92rcd13ifvqcf0","pricing_plan_id":"cebpf4jnsgd1na2vs0mg"},{"bike_id":"1df0d4bd-b73d-4639-a398-32d9672f4d3f","system_id":"levelo_inurba_marseille","lat":43.31362,"lon":5.38499,"is_reserved":false,"is_disabled":false,"rental_uris":{"android":"levelo://app?vid=1df0d4bd-b73d-4639-a398-32d9672f4d3f","ios":"levelo://app?vid=1df0d4bd-b73d-4639-a398-32d9672f4d3f"},"vehicle_type_id":"4","last_reported":1710544048,"current_range_meters":0,"station_id":"ce4bgt92rcd13ifvqcf0","pricing_plan_id":"cebpf4jnsgd1na2vs0mg"},{"bike_id":"b774aef8-6381-4050-a2b9-0c595daa6f38","system_id":"levelo_inurba_marseille","lat":43.313571,"lon":5.384829,"is_reserved":false,"is_disabled":false,"rental_uris":{"android":"levelo://app?vid=b774aef8-6381-4050-a2b9-0c595daa6f38","ios":"levelo://app?vid=b774aef8-6381-4050-a2b9-0c595daa6f38"},"vehicle_type_id":"4","last_reported":1710544048,"current_range_meters":20800,"station_id":"ce4bgt92rcd13ifvqcf0","pricing_plan_id":"cebpf4jnsgd1na2vs0mg"},{"bike_id":"207be1e0-5bf2-441e-8508-b207b44a7b66","system_id":"levelo_inurba_marseille","lat":43.313571,"lon":5.384829,"is_reserved":false,"is_disabled":false,"rental_uris":{"android":"levelo://app?vid=207be1e0-5bf2-441e-8508-b207b44a7b66","ios":"levelo://app?vid=207be1e0-5bf2-441e-8508-b207b44a7b66"},"vehicle_type_id":"4","last_reported":1710544048,"current_range_meters":26800,"station_id":"ce4bgt92rcd13ifvqcf0","pricing_plan_id":"cebpf4jnsgd1na2vs0mg"},{"bike_id":"c8136d0b-e04c-42b9-a175-193cf297b9fb","system_id":"levelo_inurba_marseille","lat":43.313571,"lon":5.384829,"is_reserved":false,"is_disabled":false,"rental_uris":{"android":"levelo://app?vid=c8136d0b-e04c-42b9-a175-193cf297b9fb","ios":"levelo://app?vid=c8136d0b-e04c-42b9-a175-193cf297b9fb"},"vehicle_type_id":"4","last_reported":1710544048,"current_range_meters":30000,"station_id":"ce4bgt92rcd13ifvqcf0","pricing_plan_id":"cebpf4jnsgd1na2vs0mg"},{"bike_id":"6a63bb3c-a622-4605-a99b-e7f6b2523362","system_id":"levelo_inurba_marseille","lat":43.299222,"lon":5.365554,"is_reserved":false,"is_disabled":false,"rental_uris":{"android":"levelo://app?vid=6a63bb3c-a622-4605-a99b-e7f6b2523362","ios":"levelo://app?vid=6a63bb3c-a622-4605-a99b-e7f6b2523362"},"vehicle_type_id":"4","last_reported":1710544048,"current_range_meters":26800,"station_id":"ce4bgm92rcd13ifvqbr0","pricing_plan_id":"cebpf4jnsgd1na2vs0mg"},{"bike_id":"26915e38-5812-44ba-b819-72e211aab989","system_id":"levelo_inurba_marseille","lat":43.299724,"lon":5.371829,"is_reserved":false,"is_disabled":false,"rental_uris":{"android":"levelo://app?vid=26915e38-5812-44ba-b819-72e211aab989","ios":"levelo://app?vid=26915e38-5812-44ba-b819-72e211aab989"},"vehicle_type_id":"4","last_reported":1710544048,"current_range_meters":23600,"station_id":"ce4bgr92rcd13ifvqc7g","pricing_plan_id":"cebpf4jnsgd1na2vs0mg"},{"bike_id":"934d1f49-3c63-479e-824d-f57f664b5edf","system_id":"levelo_inurba_marseille","lat":43.305364,"lon":5.384119,"is_reserved":false,"is_disabled":false,"rental_uris":{"android":"levelo://app?vid=934d1f49-3c63-479e-824d-f57f664b5edf","ios":"levelo://app?vid=934d1f49-3c63-479e-824d-f57f664b5edf"},"vehicle_type_id":"4","last_reported":1710544048,"current_range_meters":15200,"station_id":"ce4bgg92rcd13ifvqb30","pricing_plan_id":"cebpf4jnsgd1na2vs0mg"},{"bike_id":"49507fdb-a9da-4f8f-8f0b-6335ee54866e","system_id":"levelo_inurba_marseille","lat":43.299243,"lon":5.374807,"is_reserved":false,"is_disabled":false,"rental_uris":{"android":"levelo://app?vid=49507fdb-a9da-4f8f-8f0b-6335ee54866e","ios":"levelo://app?vid=49507fdb-a9da-4f8f-8f0b-6335ee54866e"},"vehicle_type_id":"4","last_reported":1710544048,"current_range_meters":0,"station_id":"ce4bgjh2rcd13ifvqbg0","pricing_plan_id":"cebpf4jnsgd1na2vs0mg"},{"bike_id":"7021b25c-0591-4a90-a9c3-ab7f3a80d520","system_id":"levelo_inurba_marseille","lat":43.299243,"lon":5.374807,"is_reserved":false,"is_disabled":false,"rental_uris":{"android":"levelo://app?vid=7021b25c-0591-4a90-a9c3-ab7f3a80d520","ios":"levelo://app?vid=7021b25c-0591-4a90-a9c3-ab7f3a80d520"},"vehicle_type_id":"4","last_reported":1710544048,"current_range_meters":8800,"station_id":"ce4bgjh2rcd13ifvqbg0","pricing_plan_id":"cebpf4jnsgd1na2vs0mg"},{"bike_id":"cd1a11d9-01f8-46b3-bba3-8329fc63cfdd","system_id":"levelo_inurba_marseille","lat":43.31182,"lon":5.38715,"is_reserved":false,"is_disabled":false,"rental_uris":{"android":"levelo://app?vid=cd1a11d9-01f8-46b3-bba3-8329fc63cfdd","ios":"levelo://app?vid=cd1a11d9-01f8-46b3-bba3-8329fc63cfdd"},"vehicle_type_id":"4","last_reported":1710544048,"current_range_meters":12800,"station_id":"ce4bgv12rcd13ifvqcp0","pricing_plan_id":"cebpf4jnsgd1na2vs0mg"},{"bike_id":"a48938c8-37e7-4642-a2f3-11e5336e442a","system_id":"levelo_inurba_marseille","lat":43.3117,"lon":5.38714,"is_reserved":false,"is_disabled":false,"rental_uris":{"android":"levelo://app?vid=a48938c8-37e7-4642-a2f3-11e5336e442a","ios":"levelo://app?vid=a48938c8-37e7-4642-a2f3-11e5336e442a"},"vehicle_type_id":"4","last_reported":1710544048,"current_range_meters":13600,"station_id":"ce4bgv12rcd13ifvqcp0","pricing_plan_id":"cebpf4jnsgd1na2vs0mg"},{"bike_id":"be6f9526-a2f3-494b-9fbe-1a08bea6ab77","system_id":"levelo_inurba_marseille","lat":43.311722,"lon":5.387247,"is_reserved":false,"is_disabled":false,"rental_uris":{"android":"levelo://app?vid=be6f9526-a2f3-494b-9fbe-1a08bea6ab77","ios":"levelo://app?vid=be6f9526-a2f3-494b-9fbe-1a08bea6ab77"},"vehicle_type_id":"4","last_reported":1710544048,"current_range_meters":22000,"station_id":"ce4bgv12rcd13ifvqcp0","pricing_plan_id":"cebpf4jnsgd1na2vs0mg"},{"bike_id":"64d974af-b901-4a74-9f67-76c189962e2f","system_id":"levelo_inurba_marseille","lat":43.31179,"lon":5.38716,"is_reserved":false,"is_disabled":false,"rental_uris":{"android":"levelo://app?vid=64d974af-b901-4a74-9f67-76c189962e2f","ios":"levelo://app?vid=64d974af-b901-4a74-9f67-76c189962e2f"},"vehicle_type_id":"4","last_reported":1710544048,"current_range_meters":21600,"station_id":"ce4bgv12rcd13ifvqcp0","pricing_plan_id":"cebpf4jnsgd1na2vs0mg"},{"bike_id":"1c89c781-4287-4256-8bd1-05cf0727e235","system_id":"levelo_inurba_marseille","lat":43.311733,"lon":5.38717,"is_reserved":false,"is_disabled":false,"rental_uris":{"android":"levelo://app?vid=1c89c781-4287-4256-8bd1-05cf0727e235","ios":"levelo://app?vid=1c89c781-4287-4256-8bd1-05cf0727e235"},"vehicle_type_id":"4","last_reported":1710544048,"current_range_meters":16400,"station_id":"ce4bgv12rcd13ifvqcp0","pricing_plan_id":"cebpf4jnsgd1na2vs0mg"},{"bike_id":"c7fa8077-1787-40ec-9da4-86e7b41b78af","system_id":"levelo_inurba_marseille","lat":43.311722,"lon":5.387247,"is_reserved":false,"is_disabled":false,"rental_uris":{"android":"levelo://app?vid=c7fa8077-1787-40ec-9da4-86e7b41b78af","ios":"levelo://app?vid=c7fa8077-1787-40ec-9da4-86e7b41b78af"},"vehicle_type_id":"4","last_reported":1710544048,"current_range_meters":4800,"station_id":"ce4bgv12rcd13ifvqcp0","pricing_plan_id":"cebpf4jnsgd1na2vs0mg"},{"bike_id":"33919a5d-6ad6-4cbe-8831-f60106daa727","system_id":"levelo_inurba_marseille","lat":43.299243,"lon":5.37481,"is_reserved":false,"is_disabled":false,"rental_uris":{"android":"levelo://app?vid=33919a5d-6ad6-4cbe-8831-f60106daa727","ios":"levelo://app?vid=33919a5d-6ad6-4cbe-8831-f60106daa727"},"vehicle_type_id":"4","last_reported":1710544048,"current_range_meters":2000,"station_id":"ce4bgjh2rcd13ifvqbg0","pricing_plan_id":"cebpf4jnsgd1na2vs0mg"},{"bike_id":"f5736afd-79f4-4808-a336-f85a2c8bb429","system_id":"levelo_inurba_marseille","lat":43.31176,"lon":5.3872,"is_reserved":false,"is_disabled":false,"rental_uris":{"android":"levelo://app?vid=f5736afd-79f4-4808-a336-f85a2c8bb429","ios":"levelo://app?vid=f5736afd-79f4-4808-a336-f85a2c8bb429"},"vehicle_type_id":"4","last_reported":1710544048,"current_range_meters":6400,"station_id":"ce4bgv12rcd13ifvqcp0","pricing_plan_id":"cebpf4jnsgd1na2vs0mg"},{"bike_id":"0a131335-9bd8-47cd-b183-85f3b5aaa77a","system_id":"levelo_inurba_marseille","lat":43.31172,"lon":5.3872,"is_reserved":false,"is_disabled":false,"rental_uris":{"android":"levelo://app?vid=0a131335-9bd8-47cd-b183-85f3b5aaa77a","ios":"levelo://app?vid=0a131335-9bd8-47cd-b183-85f3b5aaa77a"},"vehicle_type_id":"4","last_reported":1710544048,"current_range_meters":2800,"station_id":"ce4bgv12rcd13ifvqcp0","pricing_plan_id":"cebpf4jnsgd1na2vs0mg"},{"bike_id":"7f065908-baf0-4279-9dcc-a820d373c426","system_id":"levelo_inurba_marseille","lat":43.311722,"lon":5.387247,"is_reserved":false,"is_disabled":false,"rental_uris":{"android":"levelo://app?vid=7f065908-baf0-4279-9dcc-a820d373c426","ios":"levelo://app?vid=7f065908-baf0-4279-9dcc-a820d373c426"},"vehicle_type_id":"4","last_reported":1710544048,"current_range_meters":2800,"station_id":"ce4bgv12rcd13ifvqcp0","pricing_plan_id":"cebpf4jnsgd1na2vs0mg"},{"bike_id":"7ad2b8cb-003e-4197-b1c7-158a5d649eb8","system_id":"levelo_inurba_marseille","lat":43.311722,"lon":5.387247,"is_reserved":false,"is_disabled":false,"rental_uris":{"android":"levelo://app?vid=7ad2b8cb-003e-4197-b1c7-158a5d649eb8","ios":"levelo://app?vid=7ad2b8cb-003e-4197-b1c7-158a5d649eb8"},"vehicle_type_id":"4","last_reported":1710544048,"current_range_meters":17600,"station_id":"ce4bgv12rcd13ifvqcp0","pricing_plan_id":"cebpf4jnsgd1na2vs0mg"},{"bike_id":"bacb1e40-fff6-4e4a-92e3-394c6bc5c467","system_id":"levelo_inurba_marseille","lat":43.311722,"lon":5.387247,"is_reserved":false,"is_disabled":false,"rental_uris":{"android":"levelo://app?vid=bacb1e40-fff6-4e4a-92e3-394c6bc5c467","ios":"levelo://app?vid=bacb1e40-fff6-4e4a-92e3-394c6bc5c467"},"vehicle_type_id":"4","last_reported":1710544048,"current_range_meters":23600,"station_id":"ce4bgv12rcd13ifvqcp0","pricing_plan_id":"cebpf4jnsgd1na2vs0mg"},{"bike_id":"0b9da407-e1d3-4701-855c-07dea8719590","system_id":"levelo_inurba_marseille","lat":43.297938,"lon":5.370973,"is_reserved":false,"is_disabled":false,"rental_uris":{"android":"levelo://app?vid=0b9da407-e1d3-4701-855c-07dea8719590","ios":"levelo://app?vid=0b9da407-e1d3-4701-855c-07dea8719590"},"vehicle_type_id":"4","last_reported":1710544048,"current_range_meters":18800,"station_id":"ce4bgop2rcd13ifvqc1g","pricing_plan_id":"cebpf4jnsgd1na2vs0mg"},{"bike_id":"1bbe4bb9-029b-4137-8af9-d38f2c95b687","system_id":"levelo_inurba_marseille","lat":43.2979,"lon":5.37088,"is_reserved":false,"is_disabled":false,"rental_uris":{"android":"levelo://app?vid=1bbe4bb9-029b-4137-8af9-d38f2c95b687","ios":"levelo://app?vid=1bbe4bb9-029b-4137-8af9-d38f2c95b687"},"vehicle_type_id":"4","last_reported":1710544048,"current_range_meters":0,"station_id":"ce4bgop2rcd13ifvqc1g","pricing_plan_id":"cebpf4jnsgd1na2vs0mg"},{"bike_id":"137f4c25-8f9f-42c4-9298-663f02b31c68","system_id":"levelo_inurba_marseille","lat":43.297911,"lon":5.371052,"is_reserved":false,"is_disabled":false,"rental_uris":{"android":"levelo://app?vid=137f4c25-8f9f-42c4-9298-663f02b31c68","ios":"levelo://app?vid=137f4c25-8f9f-42c4-9298-663f02b31c68"},"vehicle_type_id":"4","last_reported":1710544048,"current_range_meters":10400,"station_id":"ce4bgop2rcd13ifvqc1g","pricing_plan_id":"cebpf4jnsgd1na2vs0mg"},{"bike_id":"9e981b5e-6b00-4a8f-a76b-8c6a7c95d25b","system_id":"levelo_inurba_marseille","lat":43.297867,"lon":5.370937,"is_reserved":false,"is_disabled":false,"rental_uris":{"android":"levelo://app?vid=9e981b5e-6b00-4a8f-a76b-8c6a7c95d25b","ios":"levelo://app?vid=9e981b5e-6b00-4a8f-a76b-8c6a7c95d25b"},"vehicle_type_id":"4","last_reported":1710544048,"current_range_meters":23200,"station_id":"ce4bgop2rcd13ifvqc1g","pricing_plan_id":"cebpf4jnsgd1na2vs0mg"},{"bike_id":"d7312225-e366-4936-b4e9-172399497a2c","system_id":"levelo_inurba_marseille","lat":43.297774,"lon":5.370875,"is_reserved":false,"is_disabled":false,"rental_uris":{"android":"levelo://app?vid=d7312225-e366-4936-b4e9-172399497a2c","ios":"levelo://app?vid=d7312225-e366-4936-b4e9-172399497a2c"},"vehicle_type_id":"4","last_reported":1710544048,"current_range_meters":18400,"station_id":"ce4bgop2rcd13ifvqc1g","pricing_plan_id":"cebpf4jnsgd1na2vs0mg"},{"bike_id":"d9bb7450-e02f-4ea4-9d44-6cbc931f35d3","system_id":"levelo_inurba_marseille","lat":43.29781,"lon":5.37098,"is_reserved":false,"is_disabled":false,"rental_uris":{"android":"levelo://app?vid=d9bb7450-e02f-4ea4-9d44-6cbc931f35d3","ios":"levelo://app?vid=d9bb7450-e02f-4ea4-9d44-6cbc931f35d3"},"vehicle_type_id":"4","last_reported":1710544048,"current_range_meters":23200,"station_id":"ce4bgop2rcd13ifvqc1g","pricing_plan_id":"cebpf4jnsgd1na2vs0mg"},{"bike_id":"a1ea46c0-4921-4767-a801-a177044432f3","system_id":"levelo_inurba_marseille","lat":43.322872,"lon":5.382756,"is_reserved":false,"is_disabled":false,"rental_uris":{"android":"levelo://app?vid=a1ea46c0-4921-4767-a801-a177044432f3","ios":"levelo://app?vid=a1ea46c0-4921-4767-a801-a177044432f3"},"vehicle_type_id":"4","last_reported":1710544048,"current_range_meters":31200,"station_id":"ce4bhr12rcd13ifvqhqg","pricing_plan_id":"cebpf4jnsgd1na2vs0mg"},{"bike_id":"3ff125a5-dff1-4591-b6cc-449dc2424878","system_id":"levelo_inurba_marseille","lat":43.322841,"lon":5.382708,"is_reserved":false,"is_disabled":false,"rental_uris":{"android":"levelo://app?vid=3ff125a5-dff1-4591-b6cc-449dc2424878","ios":"levelo://app?vid=3ff125a5-dff1-4591-b6cc-449dc2424878"},"vehicle_type_id":"4","last_reported":1710544048,"current_range_meters":23600,"station_id":"ce4bhr12rcd13ifvqhqg","pricing_plan_id":"cebpf4jnsgd1na2vs0mg"},{"bike_id":"36727d06-0af4-4c64-88de-4193d3d2494b","system_id":"levelo_inurba_marseille","lat":43.322872,"lon":5.382756,"is_reserved":false,"is_disabled":false,"rental_uris":{"android":"levelo://app?vid=36727d06-0af4-4c64-88de-4193d3d2494b","ios":"levelo://app?vid=36727d06-0af4-4c64-88de-4193d3d2494b"},"vehicle_type_id":"4","last_reported":1710544048,"current_range_meters":21600,"station_id":"ce4bhr12rcd13ifvqhqg","pricing_plan_id":"cebpf4jnsgd1na2vs0mg"},{"bike_id":"a0646874-b928-4238-88ab-01778b2d284c","system_id":"levelo_inurba_marseille","lat":43.32287,"lon":5.38273,"is_reserved":false,"is_disabled":false,"rental_uris":{"android":"levelo://app?vid=a0646874-b928-4238-88ab-01778b2d284c","ios":"levelo://app?vid=a0646874-b928-4238-88ab-01778b2d284c"},"vehicle_type_id":"4","last_reported":1710544048,"current_range_meters":0,"station_id":"ce4bhr12rcd13ifvqhqg","pricing_plan_id":"cebpf4jnsgd1na2vs0mg"},{"bike_id":"41a964d5-3943-4f24-b8cf-62a929f835d5","system_id":"levelo_inurba_marseille","lat":43.322872,"lon":5.382756,"is_reserved":false,"is_disabled":false,"rental_uris":{"android":"levelo://app?vid=41a964d5-3943-4f24-b8cf-62a929f835d5","ios":"levelo://app?vid=41a964d5-3943-4f24-b8cf-62a929f835d5"},"vehicle_type_id":"4","last_reported":1710544048,"current_range_meters":22400,"station_id":"ce4bhr12rcd13ifvqhqg","pricing_plan_id":"cebpf4jnsgd1na2vs0mg"},{"bike_id":"c7138234-dee1-496b-a4b5-ec50ce387339","system_id":"levelo_inurba_marseille","lat":43.322872,"lon":5.382756,"is_reserved":false,"is_disabled":false,"rental_uris":{"android":"levelo://app?vid=c7138234-dee1-496b-a4b5-ec50ce387339","ios":"levelo://app?vid=c7138234-dee1-496b-a4b5-ec50ce387339"},"vehicle_type_id":"4","last_reported":1710544048,"current_range_meters":18400,"station_id":"ce4bhr12rcd13ifvqhqg","pricing_plan_id":"cebpf4jnsgd1na2vs0mg"},{"bike_id":"9be1610f-c31d-4ce8-90f5-92648a7ce7bd","system_id":"levelo_inurba_marseille","lat":43.322872,"lon":5.382756,"is_reserved":false,"is_disabled":false,"rental_uris":{"android":"levelo://app?vid=9be1610f-c31d-4ce8-90f5-92648a7ce7bd","ios":"levelo://app?vid=9be1610f-c31d-4ce8-90f5-92648a7ce7bd"},"vehicle_type_id":"4","last_reported":1710544048,"current_range_meters":24000,"station_id":"ce4bhr12rcd13ifvqhqg","pricing_plan_id":"cebpf4jnsgd1na2vs0mg"},{"bike_id":"2d6887a7-62ae-4d89-8c19-2ea133424140","system_id":"levelo_inurba_marseille","lat":43.322872,"lon":5.382756,"is_reserved":false,"is_disabled":false,"rental_uris":{"android":"levelo://app?vid=2d6887a7-62ae-4d89-8c19-2ea133424140","ios":"levelo://app?vid=2d6887a7-62ae-4d89-8c19-2ea133424140"},"vehicle_type_id":"4","last_reported":1710544048,"current_range_meters":7200,"station_id":"ce4bhr12rcd13ifvqhqg","pricing_plan_id":"cebpf4jnsgd1na2vs0mg"},{"bike_id":"26a6f107-4553-428a-b878-f3d63b74f859","system_id":"levelo_inurba_marseille","lat":43.322872,"lon":5.382756,"is_reserved":false,"is_disabled":false,"rental_uris":{"android":"levelo://app?vid=26a6f107-4553-428a-b878-f3d63b74f859","ios":"levelo://app?vid=26a6f107-4553-428a-b878-f3d63b74f859"},"vehicle_type_id":"4","last_reported":1710544048,"current_range_meters":13200,"station_id":"ce4bhr12rcd13ifvqhqg","pricing_plan_id":"cebpf4jnsgd1na2vs0mg"},{"bike_id":"7d711117-8f24-4ca5-af35-2d207110a750","system_id":"levelo_inurba_marseille","lat":43.322872,"lon":5.382756,"is_reserved":false,"is_disabled":false,"rental_uris":{"android":"levelo://app?vid=7d711117-8f24-4ca5-af35-2d207110a750","ios":"levelo://app?vid=7d711117-8f24-4ca5-af35-2d207110a750"},"vehicle_type_id":"4","last_reported":1710544048,"current_range_meters":31200,"station_id":"ce4bhr12rcd13ifvqhqg","pricing_plan_id":"cebpf4jnsgd1na2vs0mg"},{"bike_id":"9f068b47-d9e0-4d15-b59f-5849f426e629","system_id":"levelo_inurba_marseille","lat":43.297163,"lon":5.365866,"is_reserved":false,"is_disabled":false,"rental_uris":{"android":"levelo://app?vid=9f068b47-d9e0-4d15-b59f-5849f426e629","ios":"levelo://app?vid=9f068b47-d9e0-4d15-b59f-5849f426e629"},"vehicle_type_id":"4","last_reported":1710544048,"current_range_meters":18400,"station_id":"ce4bgn12rcd13ifvqbt0","pricing_plan_id":"cebpf4jnsgd1na2vs0mg"},{"bike_id":"835fa61a-283d-4b5f-98f4-6bd6dc0379c2","system_id":"levelo_inurba_marseille","lat":43.297163,"lon":5.365866,"is_reserved":false,"is_disabled":false,"rental_uris":{"android":"levelo://app?vid=835fa61a-283d-4b5f-98f4-6bd6dc0379c2","ios":"levelo://app?vid=835fa61a-283d-4b5f-98f4-6bd6dc0379c2"},"vehicle_type_id":"4","last_reported":1710544048,"current_range_meters":14800,"station_id":"ce4bgn12rcd13ifvqbt0","pricing_plan_id":"cebpf4jnsgd1na2vs0mg"},{"bike_id":"b1ad78b0-f8ab-41b4-90c3-b32e003d875d","system_id":"levelo_inurba_marseille","lat":43.297163,"lon":5.365866,"is_reserved":false,"is_disabled":false,"rental_uris":{"android":"levelo://app?vid=b1ad78b0-f8ab-41b4-90c3-b32e003d875d","ios":"levelo://app?vid=b1ad78b0-f8ab-41b4-90c3-b32e003d875d"},"vehicle_type_id":"4","last_reported":1710544048,"current_range_meters":22000,"station_id":"ce4bgn12rcd13ifvqbt0","pricing_plan_id":"cebpf4jnsgd1na2vs0mg"},{"bike_id":"3bec973a-eaf9-4224-865f-f8debd504b0f","system_id":"levelo_inurba_marseille","lat":43.297163,"lon":5.365866,"is_reserved":false,"is_disabled":false,"rental_uris":{"android":"levelo://app?vid=3bec973a-eaf9-4224-865f-f8debd504b0f","ios":"levelo://app?vid=3bec973a-eaf9-4224-865f-f8debd504b0f"},"vehicle_type_id":"4","last_reported":1710544048,"current_range_meters":16800,"station_id":"ce4bgn12rcd13ifvqbt0","pricing_plan_id":"cebpf4jnsgd1na2vs0mg"},{"bike_id":"ce07b284-1838-4b72-8a98-d8a943fef114","system_id":"levelo_inurba_marseille","lat":43.297163,"lon":5.365866,"is_reserved":false,"is_disabled":false,"rental_uris":{"android":"levelo://app?vid=ce07b284-1838-4b72-8a98-d8a943fef114","ios":"levelo://app?vid=ce07b284-1838-4b72-8a98-d8a943fef114"},"vehicle_type_id":"4","last_reported":1710544048,"current_range_meters":0,"station_id":"ce4bgn12rcd13ifvqbt0","pricing_plan_id":"cebpf4jnsgd1na2vs0mg"},{"bike_id":"75d835cc-e16a-411c-b03f-f420b0bcd7ac","system_id":"levelo_inurba_marseille","lat":43.296044,"lon":5.367766,"is_reserved":false,"is_disabled":false,"rental_uris":{"android":"levelo://app?vid=75d835cc-e16a-411c-b03f-f420b0bcd7ac","ios":"levelo://app?vid=75d835cc-e16a-411c-b03f-f420b0bcd7ac"},"vehicle_type_id":"4","last_reported":1710544048,"current_range_meters":7200,"station_id":"ce4bgph2rcd13ifvqc2g","pricing_plan_id":"cebpf4jnsgd1na2vs0mg"},{"bike_id":"ed00442c-5fff-455b-b7e7-1c3ec7afa96d","system_id":"levelo_inurba_marseille","lat":43.296935,"lon":5.376544,"is_reserved":false,"is_disabled":false,"rental_uris":{"android":"levelo://app?vid=ed00442c-5fff-455b-b7e7-1c3ec7afa96d","ios":"levelo://app?vid=ed00442c-5fff-455b-b7e7-1c3ec7afa96d"},"vehicle_type_id":"4","last_reported":1710544048,"current_range_meters":3200,"station_id":"ce4bgkh2rcd13ifvqbl0","pricing_plan_id":"cebpf4jnsgd1na2vs0mg"},{"bike_id":"ce7e787b-ae35-4ab5-8ed6-625810d81713","system_id":"levelo_inurba_marseille","lat":43.296935,"lon":5.376544,"is_reserved":false,"is_disabled":false,"rental_uris":{"android":"levelo://app?vid=ce7e787b-ae35-4ab5-8ed6-625810d81713","ios":"levelo://app?vid=ce7e787b-ae35-4ab5-8ed6-625810d81713"},"vehicle_type_id":"4","last_reported":1710544048,"current_range_meters":17600,"station_id":"ce4bgkh2rcd13ifvqbl0","pricing_plan_id":"cebpf4jnsgd1na2vs0mg"},{"bike_id":"2c83ab61-5235-4ea8-97e9-6dce5473edc4","system_id":"levelo_inurba_marseille","lat":43.296921,"lon":5.376579,"is_reserved":false,"is_disabled":false,"rental_uris":{"android":"levelo://app?vid=2c83ab61-5235-4ea8-97e9-6dce5473edc4","ios":"levelo://app?vid=2c83ab61-5235-4ea8-97e9-6dce5473edc4"},"vehicle_type_id":"4","last_reported":1710544048,"current_range_meters":8000,"station_id":"ce4bgkh2rcd13ifvqbl0","pricing_plan_id":"cebpf4jnsgd1na2vs0mg"},{"bike_id":"215e0c28-c7f6-49cb-b4c3-0c0505cd8ea2","system_id":"levelo_inurba_marseille","lat":43.296921,"lon":5.376579,"is_reserved":false,"is_disabled":false,"rental_uris":{"android":"levelo://app?vid=215e0c28-c7f6-49cb-b4c3-0c0505cd8ea2","ios":"levelo://app?vid=215e0c28-c7f6-49cb-b4c3-0c0505cd8ea2"},"vehicle_type_id":"4","last_reported":1710544048,"current_range_meters":14800,"station_id":"ce4bgkh2rcd13ifvqbl0","pricing_plan_id":"cebpf4jnsgd1na2vs0mg"},{"bike_id":"2d107281-ee66-42aa-84d1-3cbd96d28b07","system_id":"levelo_inurba_marseille","lat":43.296935,"lon":5.376544,"is_reserved":false,"is_disabled":false,"rental_uris":{"android":"levelo://app?vid=2d107281-ee66-42aa-84d1-3cbd96d28b07","ios":"levelo://app?vid=2d107281-ee66-42aa-84d1-3cbd96d28b07"},"vehicle_type_id":"4","last_reported":1710544048,"current_range_meters":24400,"station_id":"ce4bgkh2rcd13ifvqbl0","pricing_plan_id":"cebpf4jnsgd1na2vs0mg"},{"bike_id":"0483c510-2014-49a1-ba45-cad8e0e40cc9","system_id":"levelo_inurba_marseille","lat":43.30955,"lon":5.39029,"is_reserved":false,"is_disabled":false,"rental_uris":{"android":"levelo://app?vid=0483c510-2014-49a1-ba45-cad8e0e40cc9","ios":"levelo://app?vid=0483c510-2014-49a1-ba45-cad8e0e40cc9"},"vehicle_type_id":"4","last_reported":1710544048,"current_range_meters":16400,"station_id":"ce4bgup2rcd13ifvqco0","pricing_plan_id":"cebpf4jnsgd1na2vs0mg"},{"bike_id":"d4b57db6-376a-4035-8c9f-4e85cfae2b6b","system_id":"levelo_inurba_marseille","lat":43.30959,"lon":5.39031,"is_reserved":false,"is_disabled":false,"rental_uris":{"android":"levelo://app?vid=d4b57db6-376a-4035-8c9f-4e85cfae2b6b","ios":"levelo://app?vid=d4b57db6-376a-4035-8c9f-4e85cfae2b6b"},"vehicle_type_id":"4","last_reported":1710544048,"current_range_meters":6400,"station_id":"ce4bgup2rcd13ifvqco0","pricing_plan_id":"cebpf4jnsgd1na2vs0mg"},{"bike_id":"b71bcb0d-73c8-4522-84de-be03352a6431","system_id":"levelo_inurba_marseille","lat":43.299028,"lon":5.381509,"is_reserved":false,"is_disabled":false,"rental_uris":{"android":"levelo://app?vid=b71bcb0d-73c8-4522-84de-be03352a6431","ios":"levelo://app?vid=b71bcb0d-73c8-4522-84de-be03352a6431"},"vehicle_type_id":"4","last_reported":1710544048,"current_range_meters":18400,"station_id":"ce4bgj12rcd13ifvqbc0","pricing_plan_id":"cebpf4jnsgd1na2vs0mg"},{"bike_id":"9d205d71-ae7c-4343-a350-d70e5d6930c7","system_id":"levelo_inurba_marseille","lat":43.309589,"lon":5.390258,"is_reserved":false,"is_disabled":false,"rental_uris":{"android":"levelo://app?vid=9d205d71-ae7c-4343-a350-d70e5d6930c7","ios":"levelo://app?vid=9d205d71-ae7c-4343-a350-d70e5d6930c7"},"vehicle_type_id":"4","last_reported":1710544048,"current_range_meters":8000,"station_id":"ce4bgup2rcd13ifvqco0","pricing_plan_id":"cebpf4jnsgd1na2vs0mg"},{"bike_id":"1a9c4f91-e607-499b-a223-c8951afd66d1","system_id":"levelo_inurba_marseille","lat":43.309589,"lon":5.390258,"is_reserved":false,"is_disabled":false,"rental_uris":{"android":"levelo://app?vid=1a9c4f91-e607-499b-a223-c8951afd66d1","ios":"levelo://app?vid=1a9c4f91-e607-499b-a223-c8951afd66d1"},"vehicle_type_id":"4","last_reported":1710544048,"current_range_meters":27200,"station_id":"ce4bgup2rcd13ifvqco0","pricing_plan_id":"cebpf4jnsgd1na2vs0mg"},{"bike_id":"a4d17fc2-5f81-4fff-b8a2-4567906deadc","system_id":"levelo_inurba_marseille","lat":43.3095,"lon":5.39031,"is_reserved":false,"is_disabled":false,"rental_uris":{"android":"levelo://app?vid=a4d17fc2-5f81-4fff-b8a2-4567906deadc","ios":"levelo://app?vid=a4d17fc2-5f81-4fff-b8a2-4567906deadc"},"vehicle_type_id":"4","last_reported":1710544048,"current_range_meters":19200,"station_id":"ce4bgup2rcd13ifvqco0","pricing_plan_id":"cebpf4jnsgd1na2vs0mg"},{"bike_id":"15c915ff-776f-4e18-bd72-bfd5ce0e9fb6","system_id":"levelo_inurba_marseille","lat":43.3095,"lon":5.39032,"is_reserved":false,"is_disabled":false,"rental_uris":{"android":"levelo://app?vid=15c915ff-776f-4e18-bd72-bfd5ce0e9fb6","ios":"levelo://app?vid=15c915ff-776f-4e18-bd72-bfd5ce0e9fb6"},"vehicle_type_id":"4","last_reported":1710544048,"current_range_meters":19200,"station_id":"ce4bgup2rcd13ifvqco0","pricing_plan_id":"cebpf4jnsgd1na2vs0mg"},{"bike_id":"c1c6c7fa-63b5-4cc7-82e3-276c1e0cbda2","system_id":"levelo_inurba_marseille","lat":43.309589,"lon":5.390258,"is_reserved":false,"is_disabled":false,"rental_uris":{"android":"levelo://app?vid=c1c6c7fa-63b5-4cc7-82e3-276c1e0cbda2","ios":"levelo://app?vid=c1c6c7fa-63b5-4cc7-82e3-276c1e0cbda2"},"vehicle_type_id":"4","last_reported":1710544048,"current_range_meters":6800,"station_id":"ce4bgup2rcd13ifvqco0","pricing_plan_id":"cebpf4jnsgd1na2vs0mg"},{"bike_id":"227a1d46-87e4-4c69-929a-1f5a2f30598c","system_id":"levelo_inurba_marseille","lat":43.30952,"lon":5.39033,"is_reserved":false,"is_disabled":false,"rental_uris":{"android":"levelo://app?vid=227a1d46-87e4-4c69-929a-1f5a2f30598c","ios":"levelo://app?vid=227a1d46-87e4-4c69-929a-1f5a2f30598c"},"vehicle_type_id":"4","last_reported":1710544048,"current_range_meters":5600,"station_id":"ce4bgup2rcd13ifvqco0","pricing_plan_id":"cebpf4jnsgd1na2vs0mg"},{"bike_id":"3551d94b-e777-43e6-8976-dc42a2431686","system_id":"levelo_inurba_marseille","lat":43.3095,"lon":5.39033,"is_reserved":false,"is_disabled":false,"rental_uris":{"android":"levelo://app?vid=3551d94b-e777-43e6-8976-dc42a2431686","ios":"levelo://app?vid=3551d94b-e777-43e6-8976-dc42a2431686"},"vehicle_type_id":"4","last_reported":1710544048,"current_range_meters":13600,"station_id":"ce4bgup2rcd13ifvqco0","pricing_plan_id":"cebpf4jnsgd1na2vs0mg"},{"bike_id":"2d51e4a9-90b1-40d2-b2f1-7b07eed3671a","system_id":"levelo_inurba_marseille","lat":43.30946,"lon":5.39032,"is_reserved":false,"is_disabled":false,"rental_uris":{"android":"levelo://app?vid=2d51e4a9-90b1-40d2-b2f1-7b07eed3671a","ios":"levelo://app?vid=2d51e4a9-90b1-40d2-b2f1-7b07eed3671a"},"vehicle_type_id":"4","last_reported":1710544048,"current_range_meters":20000,"station_id":"ce4bgup2rcd13ifvqco0","pricing_plan_id":"cebpf4jnsgd1na2vs0mg"},{"bike_id":"6094afd3-4489-4f59-8b0c-31d6d42cc43f","system_id":"levelo_inurba_marseille","lat":43.30951,"lon":5.39036,"is_reserved":false,"is_disabled":false,"rental_uris":{"android":"levelo://app?vid=6094afd3-4489-4f59-8b0c-31d6d42cc43f","ios":"levelo://app?vid=6094afd3-4489-4f59-8b0c-31d6d42cc43f"},"vehicle_type_id":"4","last_reported":1710544048,"current_range_meters":16000,"station_id":"ce4bgup2rcd13ifvqco0","pricing_plan_id":"cebpf4jnsgd1na2vs0mg"},{"bike_id":"934dcfbb-851e-4f5b-8f06-0e4a0da081b2","system_id":"levelo_inurba_marseille","lat":43.29746,"lon":5.37977,"is_reserved":false,"is_disabled":false,"rental_uris":{"android":"levelo://app?vid=934dcfbb-851e-4f5b-8f06-0e4a0da081b2","ios":"levelo://app?vid=934dcfbb-851e-4f5b-8f06-0e4a0da081b2"},"vehicle_type_id":"4","last_reported":1710544048,"current_range_meters":0,"station_id":"","pricing_plan_id":"cebpf4jnsgd1na2vs0mg"},{"bike_id":"b40e3c7a-4636-4598-a488-7041416c6b1b","system_id":"levelo_inurba_marseille","lat":43.304274,"lon":5.388873,"is_reserved":false,"is_disabled":false,"rental_uris":{"android":"levelo://app?vid=b40e3c7a-4636-4598-a488-7041416c6b1b","ios":"levelo://app?vid=b40e3c7a-4636-4598-a488-7041416c6b1b"},"vehicle_type_id":"4","last_reported":1710544048,"current_range_meters":25600,"station_id":"ce4bgk12rcd13ifvqbi0","pricing_plan_id":"cebpf4jnsgd1na2vs0mg"},{"bike_id":"78d37b44-015c-46f6-a064-6b0fe0d8c1b6","system_id":"levelo_inurba_marseille","lat":43.304274,"lon":5.388873,"is_reserved":false,"is_disabled":false,"rental_uris":{"android":"levelo://app?vid=78d37b44-015c-46f6-a064-6b0fe0d8c1b6","ios":"levelo://app?vid=78d37b44-015c-46f6-a064-6b0fe0d8c1b6"},"vehicle_type_id":"4","last_reported":1710544048,"current_range_meters":24400,"station_id":"ce4bgk12rcd13ifvqbi0","pricing_plan_id":"cebpf4jnsgd1na2vs0mg"},{"bike_id":"b06414c0-36e8-4f1c-8b6c-2e8e3a99279b","system_id":"levelo_inurba_marseille","lat":43.30436,"lon":5.38882,"is_reserved":false,"is_disabled":false,"rental_uris":{"android":"levelo://app?vid=b06414c0-36e8-4f1c-8b6c-2e8e3a99279b","ios":"levelo://app?vid=b06414c0-36e8-4f1c-8b6c-2e8e3a99279b"},"vehicle_type_id":"4","last_reported":1710544048,"current_range_meters":18000,"station_id":"ce4bgk12rcd13ifvqbi0","pricing_plan_id":"cebpf4jnsgd1na2vs0mg"},{"bike_id":"e2414b31-8a61-4cb2-ade2-9da9fb526aec","system_id":"levelo_inurba_marseille","lat":43.304274,"lon":5.388873,"is_reserved":false,"is_disabled":false,"rental_uris":{"android":"levelo://app?vid=e2414b31-8a61-4cb2-ade2-9da9fb526aec","ios":"levelo://app?vid=e2414b31-8a61-4cb2-ade2-9da9fb526aec"},"vehicle_type_id":"4","last_reported":1710544048,"current_range_meters":27600,"station_id":"ce4bgk12rcd13ifvqbi0","pricing_plan_id":"cebpf4jnsgd1na2vs0mg"},{"bike_id":"ae370393-6de5-4a24-a1d9-8730e3ed2a5e","system_id":"levelo_inurba_marseille","lat":43.29796,"lon":5.38107,"is_reserved":false,"is_disabled":false,"rental_uris":{"android":"levelo://app?vid=ae370393-6de5-4a24-a1d9-8730e3ed2a5e","ios":"levelo://app?vid=ae370393-6de5-4a24-a1d9-8730e3ed2a5e"},"vehicle_type_id":"4","last_reported":1710544048,"current_range_meters":0,"station_id":"ce4bgip2rcd13ifvqbb0","pricing_plan_id":"cebpf4jnsgd1na2vs0mg"},{"bike_id":"8f172a52-b1d5-456f-9d15-6cb713a66d22","system_id":"levelo_inurba_marseille","lat":43.30434,"lon":5.38884,"is_reserved":false,"is_disabled":false,"rental_uris":{"android":"levelo://app?vid=8f172a52-b1d5-456f-9d15-6cb713a66d22","ios":"levelo://app?vid=8f172a52-b1d5-456f-9d15-6cb713a66d22"},"vehicle_type_id":"4","last_reported":1710544048,"current_range_meters":6000,"station_id":"ce4bgk12rcd13ifvqbi0","pricing_plan_id":"cebpf4jnsgd1na2vs0mg"},{"bike_id":"127a72f8-175f-466b-87b6-b47f7bac9563","system_id":"levelo_inurba_marseille","lat":43.30432,"lon":5.38884,"is_reserved":false,"is_disabled":false,"rental_uris":{"android":"levelo://app?vid=127a72f8-175f-466b-87b6-b47f7bac9563","ios":"levelo://app?vid=127a72f8-175f-466b-87b6-b47f7bac9563"},"vehicle_type_id":"4","last_reported":1710544048,"current_range_meters":14800,"station_id":"ce4bgk12rcd13ifvqbi0","pricing_plan_id":"cebpf4jnsgd1na2vs0mg"},{"bike_id":"4aaaa04a-d507-478a-b9b7-41e39c267289","system_id":"levelo_inurba_marseille","lat":43.304274,"lon":5.388873,"is_reserved":false,"is_disabled":false,"rental_uris":{"android":"levelo://app?vid=4aaaa04a-d507-478a-b9b7-41e39c267289","ios":"levelo://app?vid=4aaaa04a-d507-478a-b9b7-41e39c267289"},"vehicle_type_id":"4","last_reported":1710544048,"current_range_meters":24800,"station_id":"ce4bgk12rcd13ifvqbi0","pricing_plan_id":"cebpf4jnsgd1na2vs0mg"},{"bike_id":"76300e3b-3cfa-4d90-bb9a-9721e46179dd","system_id":"levelo_inurba_marseille","lat":43.304274,"lon":5.388873,"is_reserved":false,"is_disabled":false,"rental_uris":{"android":"levelo://app?vid=76300e3b-3cfa-4d90-bb9a-9721e46179dd","ios":"levelo://app?vid=76300e3b-3cfa-4d90-bb9a-9721e46179dd"},"vehicle_type_id":"4","last_reported":1710544048,"current_range_meters":14000,"station_id":"ce4bgk12rcd13ifvqbi0","pricing_plan_id":"cebpf4jnsgd1na2vs0mg"},{"bike_id":"8a2404d3-c33d-4e49-bbb2-66cce3f855ca","system_id":"levelo_inurba_marseille","lat":43.304363,"lon":5.38888,"is_reserved":false,"is_disabled":false,"rental_uris":{"android":"levelo://app?vid=8a2404d3-c33d-4e49-bbb2-66cce3f855ca","ios":"levelo://app?vid=8a2404d3-c33d-4e49-bbb2-66cce3f855ca"},"vehicle_type_id":"4","last_reported":1710544048,"current_range_meters":400,"station_id":"ce4bgk12rcd13ifvqbi0","pricing_plan_id":"cebpf4jnsgd1na2vs0mg"},{"bike_id":"69a4a838-c496-43b6-8e11-ad9bc2de0b59","system_id":"levelo_inurba_marseille","lat":43.304274,"lon":5.388873,"is_reserved":false,"is_disabled":false,"rental_uris":{"android":"levelo://app?vid=69a4a838-c496-43b6-8e11-ad9bc2de0b59","ios":"levelo://app?vid=69a4a838-c496-43b6-8e11-ad9bc2de0b59"},"vehicle_type_id":"4","last_reported":1710544048,"current_range_meters":23200,"station_id":"ce4bgk12rcd13ifvqbi0","pricing_plan_id":"cebpf4jnsgd1na2vs0mg"},{"bike_id":"8946fd3a-f3cd-42f1-b9ed-29750152ff40","system_id":"levelo_inurba_marseille","lat":43.304274,"lon":5.388873,"is_reserved":false,"is_disabled":false,"rental_uris":{"android":"levelo://app?vid=8946fd3a-f3cd-42f1-b9ed-29750152ff40","ios":"levelo://app?vid=8946fd3a-f3cd-42f1-b9ed-29750152ff40"},"vehicle_type_id":"4","last_reported":1710544048,"current_range_meters":31200,"station_id":"ce4bgk12rcd13ifvqbi0","pricing_plan_id":"cebpf4jnsgd1na2vs0mg"},{"bike_id":"d221ce96-9cf3-4687-bca7-69405056eded","system_id":"levelo_inurba_marseille","lat":43.298023,"lon":5.381283,"is_reserved":false,"is_disabled":false,"rental_uris":{"android":"levelo://app?vid=d221ce96-9cf3-4687-bca7-69405056eded","ios":"levelo://app?vid=d221ce96-9cf3-4687-bca7-69405056eded"},"vehicle_type_id":"4","last_reported":1710544048,"current_range_meters":30800,"station_id":"ce4bgip2rcd13ifvqbb0","pricing_plan_id":"cebpf4jnsgd1na2vs0mg"},{"bike_id":"01d0b70a-10cc-4532-bbeb-159c1ea3e242","system_id":"levelo_inurba_marseille","lat":43.30431,"lon":5.38887,"is_reserved":false,"is_disabled":false,"rental_uris":{"android":"levelo://app?vid=01d0b70a-10cc-4532-bbeb-159c1ea3e242","ios":"levelo://app?vid=01d0b70a-10cc-4532-bbeb-159c1ea3e242"},"vehicle_type_id":"4","last_reported":1710544048,"current_range_meters":14400,"station_id":"ce4bgk12rcd13ifvqbi0","pricing_plan_id":"cebpf4jnsgd1na2vs0mg"},{"bike_id":"58ecc53b-a19e-42d9-b6cf-535d25a43cfb","system_id":"levelo_inurba_marseille","lat":43.30439,"lon":5.38893,"is_reserved":false,"is_disabled":false,"rental_uris":{"android":"levelo://app?vid=58ecc53b-a19e-42d9-b6cf-535d25a43cfb","ios":"levelo://app?vid=58ecc53b-a19e-42d9-b6cf-535d25a43cfb"},"vehicle_type_id":"4","last_reported":1710544048,"current_range_meters":18400,"station_id":"ce4bgk12rcd13ifvqbi0","pricing_plan_id":"cebpf4jnsgd1na2vs0mg"},{"bike_id":"df8163a1-d17f-4851-81df-7e911886455b","system_id":"levelo_inurba_marseille","lat":43.304318,"lon":5.388889,"is_reserved":false,"is_disabled":false,"rental_uris":{"android":"levelo://app?vid=df8163a1-d17f-4851-81df-7e911886455b","ios":"levelo://app?vid=df8163a1-d17f-4851-81df-7e911886455b"},"vehicle_type_id":"4","last_reported":1710544048,"current_range_meters":11200,"station_id":"ce4bgk12rcd13ifvqbi0","pricing_plan_id":"cebpf4jnsgd1na2vs0mg"},{"bike_id":"42acbe19-a9c9-4e83-94bc-86ee2eef206c","system_id":"levelo_inurba_marseille","lat":43.30429,"lon":5.38887,"is_reserved":false,"is_disabled":false,"rental_uris":{"android":"levelo://app?vid=42acbe19-a9c9-4e83-94bc-86ee2eef206c","ios":"levelo://app?vid=42acbe19-a9c9-4e83-94bc-86ee2eef206c"},"vehicle_type_id":"4","last_reported":1710544048,"current_range_meters":5200,"station_id":"ce4bgk12rcd13ifvqbi0","pricing_plan_id":"cebpf4jnsgd1na2vs0mg"},{"bike_id":"5271b12f-a9c4-4080-85c9-c9811d554a17","system_id":"levelo_inurba_marseille","lat":43.304274,"lon":5.388873,"is_reserved":false,"is_disabled":false,"rental_uris":{"android":"levelo://app?vid=5271b12f-a9c4-4080-85c9-c9811d554a17","ios":"levelo://app?vid=5271b12f-a9c4-4080-85c9-c9811d554a17"},"vehicle_type_id":"4","last_reported":1710544048,"current_range_meters":19200,"station_id":"ce4bgk12rcd13ifvqbi0","pricing_plan_id":"cebpf4jnsgd1na2vs0mg"},{"bike_id":"e5a366f1-10e0-4d98-989c-f262d790089d","system_id":"levelo_inurba_marseille","lat":43.3042,"lon":5.38885,"is_reserved":false,"is_disabled":false,"rental_uris":{"android":"levelo://app?vid=e5a366f1-10e0-4d98-989c-f262d790089d","ios":"levelo://app?vid=e5a366f1-10e0-4d98-989c-f262d790089d"},"vehicle_type_id":"4","last_reported":1710544048,"current_range_meters":2800,"station_id":"ce4bgk12rcd13ifvqbi0","pricing_plan_id":"cebpf4jnsgd1na2vs0mg"},{"bike_id":"4f62eb6b-4fef-47d3-9ba1-985817933fb5","system_id":"levelo_inurba_marseille","lat":43.30434,"lon":5.38896,"is_reserved":false,"is_disabled":false,"rental_uris":{"android":"levelo://app?vid=4f62eb6b-4fef-47d3-9ba1-985817933fb5","ios":"levelo://app?vid=4f62eb6b-4fef-47d3-9ba1-985817933fb5"},"vehicle_type_id":"4","last_reported":1710544048,"current_range_meters":30000,"station_id":"ce4bgk12rcd13ifvqbi0","pricing_plan_id":"cebpf4jnsgd1na2vs0mg"},{"bike_id":"ed61a634-6b63-4842-9a3d-1f7b2da7671c","system_id":"levelo_inurba_marseille","lat":43.304277,"lon":5.38892,"is_reserved":false,"is_disabled":false,"rental_uris":{"android":"levelo://app?vid=ed61a634-6b63-4842-9a3d-1f7b2da7671c","ios":"levelo://app?vid=ed61a634-6b63-4842-9a3d-1f7b2da7671c"},"vehicle_type_id":"4","last_reported":1710544048,"current_range_meters":8400,"station_id":"ce4bgk12rcd13ifvqbi0","pricing_plan_id":"cebpf4jnsgd1na2vs0mg"},{"bike_id":"2d54a04e-2219-4eb1-9031-ff2c18cacb33","system_id":"levelo_inurba_marseille","lat":43.296263,"lon":5.377094,"is_reserved":false,"is_disabled":false,"rental_uris":{"android":"levelo://app?vid=2d54a04e-2219-4eb1-9031-ff2c18cacb33","ios":"levelo://app?vid=2d54a04e-2219-4eb1-9031-ff2c18cacb33"},"vehicle_type_id":"4","last_reported":1710544048,"current_range_meters":10000,"station_id":"ce4bgi92rcd13ifvqb90","pricing_plan_id":"cebpf4jnsgd1na2vs0mg"},{"bike_id":"d9109e71-6b56-447c-b7ed-6a65d3678a4c","system_id":"levelo_inurba_marseille","lat":43.296263,"lon":5.377094,"is_reserved":false,"is_disabled":false,"rental_uris":{"android":"levelo://app?vid=d9109e71-6b56-447c-b7ed-6a65d3678a4c","ios":"levelo://app?vid=d9109e71-6b56-447c-b7ed-6a65d3678a4c"},"vehicle_type_id":"4","last_reported":1710544048,"current_range_meters":27600,"station_id":"ce4bgi92rcd13ifvqb90","pricing_plan_id":"cebpf4jnsgd1na2vs0mg"},{"bike_id":"4cbf56af-4121-4349-b1db-48f510ee03d6","system_id":"levelo_inurba_marseille","lat":43.299717,"lon":5.384845,"is_reserved":false,"is_disabled":false,"rental_uris":{"android":"levelo://app?vid=4cbf56af-4121-4349-b1db-48f510ee03d6","ios":"levelo://app?vid=4cbf56af-4121-4349-b1db-48f510ee03d6"},"vehicle_type_id":"4","last_reported":1710544048,"current_range_meters":25200,"station_id":"ce4bgj92rcd13ifvqbd0","pricing_plan_id":"cebpf4jnsgd1na2vs0mg"},{"bike_id":"739e48fe-0edf-4d0d-b858-ca37f972dd4d","system_id":"levelo_inurba_marseille","lat":43.299717,"lon":5.384845,"is_reserved":false,"is_disabled":false,"rental_uris":{"android":"levelo://app?vid=739e48fe-0edf-4d0d-b858-ca37f972dd4d","ios":"levelo://app?vid=739e48fe-0edf-4d0d-b858-ca37f972dd4d"},"vehicle_type_id":"4","last_reported":1710544048,"current_range_meters":16000,"station_id":"ce4bgj92rcd13ifvqbd0","pricing_plan_id":"cebpf4jnsgd1na2vs0mg"},{"bike_id":"1d9ba4bf-be04-4d2b-a772-c91f30b5a487","system_id":"levelo_inurba_marseille","lat":43.295279,"lon":5.375048,"is_reserved":false,"is_disabled":false,"rental_uris":{"android":"levelo://app?vid=1d9ba4bf-be04-4d2b-a772-c91f30b5a487","ios":"levelo://app?vid=1d9ba4bf-be04-4d2b-a772-c91f30b5a487"},"vehicle_type_id":"4","last_reported":1710544048,"current_range_meters":1600,"station_id":"ce4bgkp2rcd13ifvqbmg","pricing_plan_id":"cebpf4jnsgd1na2vs0mg"},{"bike_id":"73189312-5711-4f07-9ba2-a07b812fa614","system_id":"levelo_inurba_marseille","lat":43.32367,"lon":5.388836,"is_reserved":false,"is_disabled":false,"rental_uris":{"android":"levelo://app?vid=73189312-5711-4f07-9ba2-a07b812fa614","ios":"levelo://app?vid=73189312-5711-4f07-9ba2-a07b812fa614"},"vehicle_type_id":"4","last_reported":1710544048,"current_range_meters":25200,"station_id":"ce4bhqp2rcd13ifvqhog","pricing_plan_id":"cebpf4jnsgd1na2vs0mg"},{"bike_id":"40e2eb8a-4357-46b9-90f8-84a1e303713d","system_id":"levelo_inurba_marseille","lat":43.32368,"lon":5.38879,"is_reserved":false,"is_disabled":false,"rental_uris":{"android":"levelo://app?vid=40e2eb8a-4357-46b9-90f8-84a1e303713d","ios":"levelo://app?vid=40e2eb8a-4357-46b9-90f8-84a1e303713d"},"vehicle_type_id":"4","last_reported":1710544048,"current_range_meters":6000,"station_id":"ce4bhqp2rcd13ifvqhog","pricing_plan_id":"cebpf4jnsgd1na2vs0mg"},{"bike_id":"601549c9-17b6-4663-bb1f-1fc3c0514675","system_id":"levelo_inurba_marseille","lat":43.32363,"lon":5.38885,"is_reserved":false,"is_disabled":false,"rental_uris":{"android":"levelo://app?vid=601549c9-17b6-4663-bb1f-1fc3c0514675","ios":"levelo://app?vid=601549c9-17b6-4663-bb1f-1fc3c0514675"},"vehicle_type_id":"4","last_reported":1710544048,"current_range_meters":14800,"station_id":"ce4bhqp2rcd13ifvqhog","pricing_plan_id":"cebpf4jnsgd1na2vs0mg"},{"bike_id":"fabfa73f-5084-4820-a827-515b7447769f","system_id":"levelo_inurba_marseille","lat":43.32367,"lon":5.388836,"is_reserved":false,"is_disabled":false,"rental_uris":{"android":"levelo://app?vid=fabfa73f-5084-4820-a827-515b7447769f","ios":"levelo://app?vid=fabfa73f-5084-4820-a827-515b7447769f"},"vehicle_type_id":"4","last_reported":1710544048,"current_range_meters":1600,"station_id":"ce4bhqp2rcd13ifvqhog","pricing_plan_id":"cebpf4jnsgd1na2vs0mg"},{"bike_id":"eaf421f3-46ac-4e30-949b-910710944134","system_id":"levelo_inurba_marseille","lat":43.32363,"lon":5.38887,"is_reserved":false,"is_disabled":false,"rental_uris":{"android":"levelo://app?vid=eaf421f3-46ac-4e30-949b-910710944134","ios":"levelo://app?vid=eaf421f3-46ac-4e30-949b-910710944134"},"vehicle_type_id":"4","last_reported":1710544048,"current_range_meters":8800,"station_id":"ce4bhqp2rcd13ifvqhog","pricing_plan_id":"cebpf4jnsgd1na2vs0mg"},{"bike_id":"e50b30c0-4a8e-4e19-830e-a9c8b0ce526d","system_id":"levelo_inurba_marseille","lat":43.32367,"lon":5.388836,"is_reserved":false,"is_disabled":false,"rental_uris":{"android":"levelo://app?vid=e50b30c0-4a8e-4e19-830e-a9c8b0ce526d","ios":"levelo://app?vid=e50b30c0-4a8e-4e19-830e-a9c8b0ce526d"},"vehicle_type_id":"4","last_reported":1710544048,"current_range_meters":20800,"station_id":"ce4bhqp2rcd13ifvqhog","pricing_plan_id":"cebpf4jnsgd1na2vs0mg"},{"bike_id":"775cf867-e75b-4fd5-b02f-97c73260f4b7","system_id":"levelo_inurba_marseille","lat":43.32371,"lon":5.38884,"is_reserved":false,"is_disabled":false,"rental_uris":{"android":"levelo://app?vid=775cf867-e75b-4fd5-b02f-97c73260f4b7","ios":"levelo://app?vid=775cf867-e75b-4fd5-b02f-97c73260f4b7"},"vehicle_type_id":"4","last_reported":1710544048,"current_range_meters":6000,"station_id":"ce4bhqp2rcd13ifvqhog","pricing_plan_id":"cebpf4jnsgd1na2vs0mg"},{"bike_id":"98c893c2-7601-480f-b687-9b8b6030928a","system_id":"levelo_inurba_marseille","lat":43.32367,"lon":5.388836,"is_reserved":false,"is_disabled":false,"rental_uris":{"android":"levelo://app?vid=98c893c2-7601-480f-b687-9b8b6030928a","ios":"levelo://app?vid=98c893c2-7601-480f-b687-9b8b6030928a"},"vehicle_type_id":"4","last_reported":1710544048,"current_range_meters":3600,"station_id":"ce4bhqp2rcd13ifvqhog","pricing_plan_id":"cebpf4jnsgd1na2vs0mg"},{"bike_id":"3987cddb-4ed7-405b-96ca-b1abeb478286","system_id":"levelo_inurba_marseille","lat":43.32367,"lon":5.388836,"is_reserved":false,"is_disabled":false,"rental_uris":{"android":"levelo://app?vid=3987cddb-4ed7-405b-96ca-b1abeb478286","ios":"levelo://app?vid=3987cddb-4ed7-405b-96ca-b1abeb478286"},"vehicle_type_id":"4","last_reported":1710544048,"current_range_meters":21600,"station_id":"ce4bhqp2rcd13ifvqhog","pricing_plan_id":"cebpf4jnsgd1na2vs0mg"},{"bike_id":"cc81d865-bd9e-47ea-9dba-ee06420c17c4","system_id":"levelo_inurba_marseille","lat":43.32367,"lon":5.388836,"is_reserved":false,"is_disabled":false,"rental_uris":{"android":"levelo://app?vid=cc81d865-bd9e-47ea-9dba-ee06420c17c4","ios":"levelo://app?vid=cc81d865-bd9e-47ea-9dba-ee06420c17c4"},"vehicle_type_id":"4","last_reported":1710544048,"current_range_meters":0,"station_id":"ce4bhqp2rcd13ifvqhog","pricing_plan_id":"cebpf4jnsgd1na2vs0mg"},{"bike_id":"bf5e95be-7e52-46c4-9c94-cc5c5ea87be2","system_id":"levelo_inurba_marseille","lat":43.32369,"lon":5.38889,"is_reserved":false,"is_disabled":false,"rental_uris":{"android":"levelo://app?vid=bf5e95be-7e52-46c4-9c94-cc5c5ea87be2","ios":"levelo://app?vid=bf5e95be-7e52-46c4-9c94-cc5c5ea87be2"},"vehicle_type_id":"4","last_reported":1710544048,"current_range_meters":0,"station_id":"ce4bhqp2rcd13ifvqhog","pricing_plan_id":"cebpf4jnsgd1na2vs0mg"},{"bike_id":"e7defb13-07db-447b-afd9-2164da423aef","system_id":"levelo_inurba_marseille","lat":43.32367,"lon":5.388836,"is_reserved":false,"is_disabled":false,"rental_uris":{"android":"levelo://app?vid=e7defb13-07db-447b-afd9-2164da423aef","ios":"levelo://app?vid=e7defb13-07db-447b-afd9-2164da423aef"},"vehicle_type_id":"4","last_reported":1710544048,"current_range_meters":21600,"station_id":"ce4bhqp2rcd13ifvqhog","pricing_plan_id":"cebpf4jnsgd1na2vs0mg"},{"bike_id":"543d4186-714b-4866-a911-93293b5ebde7","system_id":"levelo_inurba_marseille","lat":43.32367,"lon":5.388836,"is_reserved":false,"is_disabled":false,"rental_uris":{"android":"levelo://app?vid=543d4186-714b-4866-a911-93293b5ebde7","ios":"levelo://app?vid=543d4186-714b-4866-a911-93293b5ebde7"},"vehicle_type_id":"4","last_reported":1710544048,"current_range_meters":10800,"station_id":"ce4bhqp2rcd13ifvqhog","pricing_plan_id":"cebpf4jnsgd1na2vs0mg"},{"bike_id":"c887125d-89c7-45bd-b291-c606943fc5eb","system_id":"levelo_inurba_marseille","lat":43.29614,"lon":5.38106,"is_reserved":false,"is_disabled":false,"rental_uris":{"android":"levelo://app?vid=c887125d-89c7-45bd-b291-c606943fc5eb","ios":"levelo://app?vid=c887125d-89c7-45bd-b291-c606943fc5eb"},"vehicle_type_id":"4","last_reported":1710544048,"current_range_meters":16000,"station_id":"ce4bgl12rcd13ifvqbo0","pricing_plan_id":"cebpf4jnsgd1na2vs0mg"},{"bike_id":"023df717-7b36-44c5-aaa3-704376b14c67","system_id":"levelo_inurba_marseille","lat":43.29608,"lon":5.38107,"is_reserved":false,"is_disabled":false,"rental_uris":{"android":"levelo://app?vid=023df717-7b36-44c5-aaa3-704376b14c67","ios":"levelo://app?vid=023df717-7b36-44c5-aaa3-704376b14c67"},"vehicle_type_id":"4","last_reported":1710544048,"current_range_meters":11200,"station_id":"ce4bgl12rcd13ifvqbo0","pricing_plan_id":"cebpf4jnsgd1na2vs0mg"},{"bike_id":"497f40a3-b279-4527-847b-aba83605fef5","system_id":"levelo_inurba_marseille","lat":43.295977,"lon":5.380923,"is_reserved":false,"is_disabled":false,"rental_uris":{"android":"levelo://app?vid=497f40a3-b279-4527-847b-aba83605fef5","ios":"levelo://app?vid=497f40a3-b279-4527-847b-aba83605fef5"},"vehicle_type_id":"4","last_reported":1710544048,"current_range_meters":800,"station_id":"ce4bgl12rcd13ifvqbo0","pricing_plan_id":"cebpf4jnsgd1na2vs0mg"},{"bike_id":"e619867d-ed24-47a1-b74d-d5d99033d4ec","system_id":"levelo_inurba_marseille","lat":43.29597,"lon":5.38091,"is_reserved":false,"is_disabled":false,"rental_uris":{"android":"levelo://app?vid=e619867d-ed24-47a1-b74d-d5d99033d4ec","ios":"levelo://app?vid=e619867d-ed24-47a1-b74d-d5d99033d4ec"},"vehicle_type_id":"4","last_reported":1710544048,"current_range_meters":0,"station_id":"ce4bgl12rcd13ifvqbo0","pricing_plan_id":"cebpf4jnsgd1na2vs0mg"},{"bike_id":"a4323557-bb9c-4ce3-a92f-bf2f692a61d4","system_id":"levelo_inurba_marseille","lat":43.296014,"lon":5.381056,"is_reserved":false,"is_disabled":false,"rental_uris":{"android":"levelo://app?vid=a4323557-bb9c-4ce3-a92f-bf2f692a61d4","ios":"levelo://app?vid=a4323557-bb9c-4ce3-a92f-bf2f692a61d4"},"vehicle_type_id":"4","last_reported":1710544048,"current_range_meters":31200,"station_id":"ce4bgl12rcd13ifvqbo0","pricing_plan_id":"cebpf4jnsgd1na2vs0mg"},{"bike_id":"40672055-7cbe-4a86-b615-b8224d2ada19","system_id":"levelo_inurba_marseille","lat":43.29599,"lon":5.381045,"is_reserved":false,"is_disabled":false,"rental_uris":{"android":"levelo://app?vid=40672055-7cbe-4a86-b615-b8224d2ada19","ios":"levelo://app?vid=40672055-7cbe-4a86-b615-b8224d2ada19"},"vehicle_type_id":"4","last_reported":1710544048,"current_range_meters":10400,"station_id":"ce4bgl12rcd13ifvqbo0","pricing_plan_id":"cebpf4jnsgd1na2vs0mg"},{"bike_id":"2c0a8dad-ba90-48f9-bb81-1111d351d283","system_id":"levelo_inurba_marseille","lat":43.295927,"lon":5.380947,"is_reserved":false,"is_disabled":false,"rental_uris":{"android":"levelo://app?vid=2c0a8dad-ba90-48f9-bb81-1111d351d283","ios":"levelo://app?vid=2c0a8dad-ba90-48f9-bb81-1111d351d283"},"vehicle_type_id":"4","last_reported":1710544048,"current_range_meters":7200,"station_id":"ce4bgl12rcd13ifvqbo0","pricing_plan_id":"cebpf4jnsgd1na2vs0mg"},{"bike_id":"dc3271e3-af39-43cf-8c7a-23fdf7155d8d","system_id":"levelo_inurba_marseille","lat":43.295918,"lon":5.380977,"is_reserved":false,"is_disabled":false,"rental_uris":{"android":"levelo://app?vid=dc3271e3-af39-43cf-8c7a-23fdf7155d8d","ios":"levelo://app?vid=dc3271e3-af39-43cf-8c7a-23fdf7155d8d"},"vehicle_type_id":"4","last_reported":1710544048,"current_range_meters":7200,"station_id":"ce4bgl12rcd13ifvqbo0","pricing_plan_id":"cebpf4jnsgd1na2vs0mg"},{"bike_id":"badf16ed-cb59-4bce-98a6-fef9a065894d","system_id":"levelo_inurba_marseille","lat":43.29602,"lon":5.381084,"is_reserved":false,"is_disabled":false,"rental_uris":{"android":"levelo://app?vid=badf16ed-cb59-4bce-98a6-fef9a065894d","ios":"levelo://app?vid=badf16ed-cb59-4bce-98a6-fef9a065894d"},"vehicle_type_id":"4","last_reported":1710544048,"current_range_meters":10400,"station_id":"ce4bgl12rcd13ifvqbo0","pricing_plan_id":"cebpf4jnsgd1na2vs0mg"},{"bike_id":"6769dd56-684d-4316-8c2d-8fac613c812c","system_id":"levelo_inurba_marseille","lat":43.29602,"lon":5.381084,"is_reserved":false,"is_disabled":false,"rental_uris":{"android":"levelo://app?vid=6769dd56-684d-4316-8c2d-8fac613c812c","ios":"levelo://app?vid=6769dd56-684d-4316-8c2d-8fac613c812c"},"vehicle_type_id":"4","last_reported":1710544048,"current_range_meters":26800,"station_id":"ce4bgl12rcd13ifvqbo0","pricing_plan_id":"cebpf4jnsgd1na2vs0mg"},{"bike_id":"cfe2a847-07d1-4ec2-858e-dd849f963394","system_id":"levelo_inurba_marseille","lat":43.29602,"lon":5.381084,"is_reserved":false,"is_disabled":false,"rental_uris":{"android":"levelo://app?vid=cfe2a847-07d1-4ec2-858e-dd849f963394","ios":"levelo://app?vid=cfe2a847-07d1-4ec2-858e-dd849f963394"},"vehicle_type_id":"4","last_reported":1710544048,"current_range_meters":31200,"station_id":"ce4bgl12rcd13ifvqbo0","pricing_plan_id":"cebpf4jnsgd1na2vs0mg"},{"bike_id":"de79f41c-1124-47bb-bb59-8b3966db8d1e","system_id":"levelo_inurba_marseille","lat":43.292749,"lon":5.368402,"is_reserved":false,"is_disabled":false,"rental_uris":{"android":"levelo://app?vid=de79f41c-1124-47bb-bb59-8b3966db8d1e","ios":"levelo://app?vid=de79f41c-1124-47bb-bb59-8b3966db8d1e"},"vehicle_type_id":"4","last_reported":1710544048,"current_range_meters":9600,"station_id":"ce4bhbp2rcd13ifvqesg","pricing_plan_id":"cebpf4jnsgd1na2vs0mg"},{"bike_id":"595dd835-31c0-459c-b571-50b6bcae6f36","system_id":"levelo_inurba_marseille","lat":43.292749,"lon":5.368402,"is_reserved":false,"is_disabled":false,"rental_uris":{"android":"levelo://app?vid=595dd835-31c0-459c-b571-50b6bcae6f36","ios":"levelo://app?vid=595dd835-31c0-459c-b571-50b6bcae6f36"},"vehicle_type_id":"4","last_reported":1710544048,"current_range_meters":9200,"station_id":"ce4bhbp2rcd13ifvqesg","pricing_plan_id":"cebpf4jnsgd1na2vs0mg"},{"bike_id":"80262a33-1fe3-4d17-9e96-10142ff6d75c","system_id":"levelo_inurba_marseille","lat":43.29305,"lon":5.37177,"is_reserved":false,"is_disabled":false,"rental_uris":{"android":"levelo://app?vid=80262a33-1fe3-4d17-9e96-10142ff6d75c","ios":"levelo://app?vid=80262a33-1fe3-4d17-9e96-10142ff6d75c"},"vehicle_type_id":"4","last_reported":1710544048,"current_range_meters":0,"station_id":"ce4bgh92rcd13ifvqb40","pricing_plan_id":"cebpf4jnsgd1na2vs0mg"},{"bike_id":"5ebd3e76-1883-474a-b3a9-c15fe95f82f2","system_id":"levelo_inurba_marseille","lat":43.29306,"lon":5.37186,"is_reserved":false,"is_disabled":false,"rental_uris":{"android":"levelo://app?vid=5ebd3e76-1883-474a-b3a9-c15fe95f82f2","ios":"levelo://app?vid=5ebd3e76-1883-474a-b3a9-c15fe95f82f2"},"vehicle_type_id":"4","last_reported":1710544048,"current_range_meters":0,"station_id":"ce4bgh92rcd13ifvqb40","pricing_plan_id":"cebpf4jnsgd1na2vs0mg"},{"bike_id":"972d997c-44e9-415a-af3e-2160fb35a968","system_id":"levelo_inurba_marseille","lat":43.292749,"lon":5.368402,"is_reserved":false,"is_disabled":false,"rental_uris":{"android":"levelo://app?vid=972d997c-44e9-415a-af3e-2160fb35a968","ios":"levelo://app?vid=972d997c-44e9-415a-af3e-2160fb35a968"},"vehicle_type_id":"4","last_reported":1710544048,"current_range_meters":400,"station_id":"ce4bhbp2rcd13ifvqesg","pricing_plan_id":"cebpf4jnsgd1na2vs0mg"},{"bike_id":"71e4dd1d-1ce0-4f58-859c-634a8e535b1f","system_id":"levelo_inurba_marseille","lat":43.292749,"lon":5.368402,"is_reserved":false,"is_disabled":false,"rental_uris":{"android":"levelo://app?vid=71e4dd1d-1ce0-4f58-859c-634a8e535b1f","ios":"levelo://app?vid=71e4dd1d-1ce0-4f58-859c-634a8e535b1f"},"vehicle_type_id":"4","last_reported":1710544048,"current_range_meters":0,"station_id":"ce4bhbp2rcd13ifvqesg","pricing_plan_id":"cebpf4jnsgd1na2vs0mg"},{"bike_id":"1327d037-a39b-44d4-b4bc-4285d76a95d9","system_id":"levelo_inurba_marseille","lat":43.292749,"lon":5.368402,"is_reserved":false,"is_disabled":false,"rental_uris":{"android":"levelo://app?vid=1327d037-a39b-44d4-b4bc-4285d76a95d9","ios":"levelo://app?vid=1327d037-a39b-44d4-b4bc-4285d76a95d9"},"vehicle_type_id":"4","last_reported":1710544048,"current_range_meters":31200,"station_id":"ce4bhbp2rcd13ifvqesg","pricing_plan_id":"cebpf4jnsgd1na2vs0mg"},{"bike_id":"d3c0bb2b-16fa-491a-9739-f33d723943cf","system_id":"levelo_inurba_marseille","lat":43.292749,"lon":5.368402,"is_reserved":false,"is_disabled":false,"rental_uris":{"android":"levelo://app?vid=d3c0bb2b-16fa-491a-9739-f33d723943cf","ios":"levelo://app?vid=d3c0bb2b-16fa-491a-9739-f33d723943cf"},"vehicle_type_id":"4","last_reported":1710544048,"current_range_meters":0,"station_id":"ce4bhbp2rcd13ifvqesg","pricing_plan_id":"cebpf4jnsgd1na2vs0mg"},{"bike_id":"6aee7dab-2471-4158-b83d-770b33d1b1e9","system_id":"levelo_inurba_marseille","lat":43.292749,"lon":5.368398,"is_reserved":false,"is_disabled":false,"rental_uris":{"android":"levelo://app?vid=6aee7dab-2471-4158-b83d-770b33d1b1e9","ios":"levelo://app?vid=6aee7dab-2471-4158-b83d-770b33d1b1e9"},"vehicle_type_id":"4","last_reported":1710544048,"current_range_meters":0,"station_id":"ce4bhbp2rcd13ifvqesg","pricing_plan_id":"cebpf4jnsgd1na2vs0mg"},{"bike_id":"418e58e6-5fdc-4a07-8acd-ff699a0b9a53","system_id":"levelo_inurba_marseille","lat":43.292749,"lon":5.368402,"is_reserved":false,"is_disabled":false,"rental_uris":{"android":"levelo://app?vid=418e58e6-5fdc-4a07-8acd-ff699a0b9a53","ios":"levelo://app?vid=418e58e6-5fdc-4a07-8acd-ff699a0b9a53"},"vehicle_type_id":"4","last_reported":1710544048,"current_range_meters":27600,"station_id":"ce4bhbp2rcd13ifvqesg","pricing_plan_id":"cebpf4jnsgd1na2vs0mg"},{"bike_id":"c5817a73-71f0-40ce-871f-90e884e208b9","system_id":"levelo_inurba_marseille","lat":43.292749,"lon":5.368402,"is_reserved":false,"is_disabled":false,"rental_uris":{"android":"levelo://app?vid=c5817a73-71f0-40ce-871f-90e884e208b9","ios":"levelo://app?vid=c5817a73-71f0-40ce-871f-90e884e208b9"},"vehicle_type_id":"4","last_reported":1710544048,"current_range_meters":23600,"station_id":"ce4bhbp2rcd13ifvqesg","pricing_plan_id":"cebpf4jnsgd1na2vs0mg"},{"bike_id":"c047d070-6596-447a-bdf9-a2cb0483bfa3","system_id":"levelo_inurba_marseille","lat":43.29261,"lon":5.36844,"is_reserved":false,"is_disabled":false,"rental_uris":{"android":"levelo://app?vid=c047d070-6596-447a-bdf9-a2cb0483bfa3","ios":"levelo://app?vid=c047d070-6596-447a-bdf9-a2cb0483bfa3"},"vehicle_type_id":"4","last_reported":1710544048,"current_range_meters":17200,"station_id":"ce4bhbp2rcd13ifvqesg","pricing_plan_id":"cebpf4jnsgd1na2vs0mg"},{"bike_id":"a1e6c919-006a-4537-9fb7-fb19ca693b13","system_id":"levelo_inurba_marseille","lat":43.293092,"lon":5.374528,"is_reserved":false,"is_disabled":false,"rental_uris":{"android":"levelo://app?vid=a1e6c919-006a-4537-9fb7-fb19ca693b13","ios":"levelo://app?vid=a1e6c919-006a-4537-9fb7-fb19ca693b13"},"vehicle_type_id":"4","last_reported":1710544048,"current_range_meters":0,"station_id":"ce4bgi12rcd13ifvqb70","pricing_plan_id":"cebpf4jnsgd1na2vs0mg"},{"bike_id":"d7c01342-7b21-4ebe-98de-803620953b33","system_id":"levelo_inurba_marseille","lat":43.293009,"lon":5.374584,"is_reserved":false,"is_disabled":false,"rental_uris":{"android":"levelo://app?vid=d7c01342-7b21-4ebe-98de-803620953b33","ios":"levelo://app?vid=d7c01342-7b21-4ebe-98de-803620953b33"},"vehicle_type_id":"4","last_reported":1710544048,"current_range_meters":8800,"station_id":"ce4bgi12rcd13ifvqb70","pricing_plan_id":"cebpf4jnsgd1na2vs0mg"},{"bike_id":"238a9642-0997-4cc7-9377-ed0f41cdcb72","system_id":"levelo_inurba_marseille","lat":43.293009,"lon":5.374584,"is_reserved":false,"is_disabled":false,"rental_uris":{"android":"levelo://app?vid=238a9642-0997-4cc7-9377-ed0f41cdcb72","ios":"levelo://app?vid=238a9642-0997-4cc7-9377-ed0f41cdcb72"},"vehicle_type_id":"4","last_reported":1710544048,"current_range_meters":11600,"station_id":"ce4bgi12rcd13ifvqb70","pricing_plan_id":"cebpf4jnsgd1na2vs0mg"},{"bike_id":"9f5edb1c-13ec-46ed-bcea-7863ec825619","system_id":"levelo_inurba_marseille","lat":43.305994,"lon":5.393687,"is_reserved":false,"is_disabled":false,"rental_uris":{"android":"levelo://app?vid=9f5edb1c-13ec-46ed-bcea-7863ec825619","ios":"levelo://app?vid=9f5edb1c-13ec-46ed-bcea-7863ec825619"},"vehicle_type_id":"4","last_reported":1710544048,"current_range_meters":26400,"station_id":"ce4bh0p2rcd13ifvqd80","pricing_plan_id":"cebpf4jnsgd1na2vs0mg"},{"bike_id":"d8b7779b-ea98-440c-b49d-9908ff50c463","system_id":"levelo_inurba_marseille","lat":43.2936,"lon":5.37835,"is_reserved":false,"is_disabled":false,"rental_uris":{"android":"levelo://app?vid=d8b7779b-ea98-440c-b49d-9908ff50c463","ios":"levelo://app?vid=d8b7779b-ea98-440c-b49d-9908ff50c463"},"vehicle_type_id":"4","last_reported":1710544048,"current_range_meters":12800,"station_id":"ce4bgjh2rcd13ifvqbf0","pricing_plan_id":"cebpf4jnsgd1na2vs0mg"},{"bike_id":"683d0adb-3f1c-41c0-8182-e4ec40da610f","system_id":"levelo_inurba_marseille","lat":43.303002,"lon":5.392142,"is_reserved":false,"is_disabled":false,"rental_uris":{"android":"levelo://app?vid=683d0adb-3f1c-41c0-8182-e4ec40da610f","ios":"levelo://app?vid=683d0adb-3f1c-41c0-8182-e4ec40da610f"},"vehicle_type_id":"4","last_reported":1710544048,"current_range_meters":0,"station_id":"ce4bgkh2rcd13ifvqbk0","pricing_plan_id":"cebpf4jnsgd1na2vs0mg"},{"bike_id":"3c8788d4-8741-4f24-8239-1138186b9a29","system_id":"levelo_inurba_marseille","lat":43.2936,"lon":5.37835,"is_reserved":false,"is_disabled":false,"rental_uris":{"android":"levelo://app?vid=3c8788d4-8741-4f24-8239-1138186b9a29","ios":"levelo://app?vid=3c8788d4-8741-4f24-8239-1138186b9a29"},"vehicle_type_id":"4","last_reported":1710544048,"current_range_meters":25600,"station_id":"ce4bgjh2rcd13ifvqbf0","pricing_plan_id":"cebpf4jnsgd1na2vs0mg"},{"bike_id":"1bfe21d0-9918-43bd-8d24-48ace5480c01","system_id":"levelo_inurba_marseille","lat":43.298955,"lon":5.388388,"is_reserved":false,"is_disabled":false,"rental_uris":{"android":"levelo://app?vid=1bfe21d0-9918-43bd-8d24-48ace5480c01","ios":"levelo://app?vid=1bfe21d0-9918-43bd-8d24-48ace5480c01"},"vehicle_type_id":"4","last_reported":1710544048,"current_range_meters":19200,"station_id":"ce4bh392rcd13ifvqdl0","pricing_plan_id":"cebpf4jnsgd1na2vs0mg"},{"bike_id":"65cee062-5e1a-4142-b1e7-c6d3b54331b2","system_id":"levelo_inurba_marseille","lat":43.292427,"lon":5.37337,"is_reserved":false,"is_disabled":false,"rental_uris":{"android":"levelo://app?vid=65cee062-5e1a-4142-b1e7-c6d3b54331b2","ios":"levelo://app?vid=65cee062-5e1a-4142-b1e7-c6d3b54331b2"},"vehicle_type_id":"4","last_reported":1710544048,"current_range_meters":0,"station_id":"","pricing_plan_id":"cebpf4jnsgd1na2vs0mg"},{"bike_id":"deaa7443-9ef0-4096-8ebb-5e2773d294aa","system_id":"levelo_inurba_marseille","lat":43.2936,"lon":5.37835,"is_reserved":false,"is_disabled":false,"rental_uris":{"android":"levelo://app?vid=deaa7443-9ef0-4096-8ebb-5e2773d294aa","ios":"levelo://app?vid=deaa7443-9ef0-4096-8ebb-5e2773d294aa"},"vehicle_type_id":"4","last_reported":1710544048,"current_range_meters":8400,"station_id":"ce4bgjh2rcd13ifvqbf0","pricing_plan_id":"cebpf4jnsgd1na2vs0mg"},{"bike_id":"7c656197-defb-4c27-8bb1-6842ffc5b6a9","system_id":"levelo_inurba_marseille","lat":43.2936,"lon":5.37835,"is_reserved":false,"is_disabled":false,"rental_uris":{"android":"levelo://app?vid=7c656197-defb-4c27-8bb1-6842ffc5b6a9","ios":"levelo://app?vid=7c656197-defb-4c27-8bb1-6842ffc5b6a9"},"vehicle_type_id":"4","last_reported":1710544048,"current_range_meters":8400,"station_id":"ce4bgjh2rcd13ifvqbf0","pricing_plan_id":"cebpf4jnsgd1na2vs0mg"},{"bike_id":"b02a80c4-f732-4afe-8fb1-761b922f26b5","system_id":"levelo_inurba_marseille","lat":43.294927,"lon":5.382013,"is_reserved":false,"is_disabled":false,"rental_uris":{"android":"levelo://app?vid=b02a80c4-f732-4afe-8fb1-761b922f26b5","ios":"levelo://app?vid=b02a80c4-f732-4afe-8fb1-761b922f26b5"},"vehicle_type_id":"4","last_reported":1710544048,"current_range_meters":9600,"station_id":"","pricing_plan_id":"cebpf4jnsgd1na2vs0mg"},{"bike_id":"26a7f282-64b8-4c62-ac45-b96ed6b5280e","system_id":"levelo_inurba_marseille","lat":43.30085,"lon":5.390856,"is_reserved":false,"is_disabled":false,"rental_uris":{"android":"levelo://app?vid=26a7f282-64b8-4c62-ac45-b96ed6b5280e","ios":"levelo://app?vid=26a7f282-64b8-4c62-ac45-b96ed6b5280e"},"vehicle_type_id":"4","last_reported":1710544048,"current_range_meters":9200,"station_id":"ce4bh192rcd13ifvqdb0","pricing_plan_id":"cebpf4jnsgd1na2vs0mg"},{"bike_id":"0b64af69-b9f2-438a-bbc9-f87b215b547a","system_id":"levelo_inurba_marseille","lat":43.30085,"lon":5.390856,"is_reserved":false,"is_disabled":false,"rental_uris":{"android":"levelo://app?vid=0b64af69-b9f2-438a-bbc9-f87b215b547a","ios":"levelo://app?vid=0b64af69-b9f2-438a-bbc9-f87b215b547a"},"vehicle_type_id":"4","last_reported":1710544048,"current_range_meters":27600,"station_id":"ce4bh192rcd13ifvqdb0","pricing_plan_id":"cebpf4jnsgd1na2vs0mg"},{"bike_id":"3761e1c2-255a-4e79-827d-02e2b7258e97","system_id":"levelo_inurba_marseille","lat":43.30085,"lon":5.390856,"is_reserved":false,"is_disabled":false,"rental_uris":{"android":"levelo://app?vid=3761e1c2-255a-4e79-827d-02e2b7258e97","ios":"levelo://app?vid=3761e1c2-255a-4e79-827d-02e2b7258e97"},"vehicle_type_id":"4","last_reported":1710544048,"current_range_meters":0,"station_id":"ce4bh192rcd13ifvqdb0","pricing_plan_id":"cebpf4jnsgd1na2vs0mg"},{"bike_id":"9c1ac2d9-46c3-4410-94c4-a7fe6cc5c826","system_id":"levelo_inurba_marseille","lat":43.30091,"lon":5.3908,"is_reserved":false,"is_disabled":false,"rental_uris":{"android":"levelo://app?vid=9c1ac2d9-46c3-4410-94c4-a7fe6cc5c826","ios":"levelo://app?vid=9c1ac2d9-46c3-4410-94c4-a7fe6cc5c826"},"vehicle_type_id":"4","last_reported":1710544048,"current_range_meters":2800,"station_id":"ce4bh192rcd13ifvqdb0","pricing_plan_id":"cebpf4jnsgd1na2vs0mg"},{"bike_id":"9c59decb-49be-4100-9015-b219bbd8b920","system_id":"levelo_inurba_marseille","lat":43.293009,"lon":5.374584,"is_reserved":false,"is_disabled":false,"rental_uris":{"android":"levelo://app?vid=9c59decb-49be-4100-9015-b219bbd8b920","ios":"levelo://app?vid=9c59decb-49be-4100-9015-b219bbd8b920"},"vehicle_type_id":"4","last_reported":1710544048,"current_range_meters":6400,"station_id":"ce4bgi12rcd13ifvqb70","pricing_plan_id":"cebpf4jnsgd1na2vs0mg"},{"bike_id":"f6d5133e-7c4a-4a4e-9b36-f20776666401","system_id":"levelo_inurba_marseille","lat":43.293009,"lon":5.374584,"is_reserved":false,"is_disabled":false,"rental_uris":{"android":"levelo://app?vid=f6d5133e-7c4a-4a4e-9b36-f20776666401","ios":"levelo://app?vid=f6d5133e-7c4a-4a4e-9b36-f20776666401"},"vehicle_type_id":"4","last_reported":1710544048,"current_range_meters":13600,"station_id":"ce4bgi12rcd13ifvqb70","pricing_plan_id":"cebpf4jnsgd1na2vs0mg"},{"bike_id":"b966187f-a06f-4e59-991c-ed24952382ce","system_id":"levelo_inurba_marseille","lat":43.293009,"lon":5.374584,"is_reserved":false,"is_disabled":false,"rental_uris":{"android":"levelo://app?vid=b966187f-a06f-4e59-991c-ed24952382ce","ios":"levelo://app?vid=b966187f-a06f-4e59-991c-ed24952382ce"},