{"last_updated":1692309957,"ttl":30,"version":"2.2","data":{"bikes":[{"bike_id":"3d6cfb6b-8f02-4ee9-be7b-7eca8b62b3ac","system_id":"levelo_inurba_marseille","lat":43.309076,"lon":5.368465,"is_reserved":false,"is_disabled":false,"rental_uris":{"android":"levelo://app?vid=3d6cfb6b-8f02-4ee9-be7b-7eca8b62b3ac","ios":"levelo://app?vid=3d6cfb6b-8f02-4ee9-be7b-7eca8b62b3ac"},"vehicle_type_id":"4","last_reported":1692309957,"current_range_meters":18400,"station_id":"ce4bgn92rcd13ifvqbvg","pricing_plan_id":"free"},{"bike_id":"b159cfeb-ee2b-49d7-8a27-e7d9a21e59a9","system_id":"levelo_inurba_marseille","lat":43.314811,"lon":5.373103,"is_reserved":false,"is_disabled":false,"rental_uris":{"android":"levelo://app?vid=b159cfeb-ee2b-49d7-8a27-e7d9a21e59a9","ios":"levelo://app?vid=b159cfeb-ee2b-49d7-8a27-e7d9a21e59a9"},"vehicle_type_id":"4","last_reported":1692309957,"current_range_meters":4000,"station_id":"ce4bgt12rcd13ifvqcd0","pricing_plan_id":"free"},{"bike_id":"6ca8c12b-8c49-48ec-b411-acbfc065b0e8","system_id":"levelo_inurba_marseille","lat":43.314811,"lon":5.373103,"is_reserved":false,"is_disabled":false,"rental_uris":{"android":"levelo://app?vid=6ca8c12b-8c49-48ec-b411-acbfc065b0e8","ios":"levelo://app?vid=6ca8c12b-8c49-48ec-b411-acbfc065b0e8"},"vehicle_type_id":"4","last_reported":1692309957,"current_range_meters":17200,"station_id":"ce4bgt12rcd13ifvqcd0","pricing_plan_id":"free"},{"bike_id":"b3c50c1a-57a6-4fa3-ae91-9c213f982225","system_id":"levelo_inurba_marseille","lat":43.314811,"lon":5.373104,"is_reserved":false,"is_disabled":false,"rental_uris":{"android":"levelo://app?vid=b3c50c1a-57a6-4fa3-ae91-9c213f982225","ios":"levelo://app?vid=b3c50c1a-57a6-4fa3-ae91-9c213f982225"},"vehicle_type_id":"4","last_reported":1692309957,"current_range_meters":800,"station_id":"ce4bgt12rcd13ifvqcd0","pricing_plan_id":"free"},{"bike_id":"67388759-5894-4170-ab25-0d20a1e9a515","system_id":"levelo_inurba_marseille","lat":43.309039,"lon":5.371797,"is_reserved":false,"is_disabled":false,"rental_uris":{"android":"levelo://app?vid=67388759-5894-4170-ab25-0d20a1e9a515","ios":"levelo://app?vid=67388759-5894-4170-ab25-0d20a1e9a515"},"vehicle_type_id":"4","last_reported":1692309957,"current_range_meters":23600,"station_id":"ce4bguh2rcd13ifvqckg","pricing_plan_id":"free"},{"bike_id":"701d56c5-1bb4-42dd-8be5-d1179ae9242f","system_id":"levelo_inurba_marseille","lat":43.309039,"lon":5.371797,"is_reserved":false,"is_disabled":false,"rental_uris":{"android":"levelo://app?vid=701d56c5-1bb4-42dd-8be5-d1179ae9242f","ios":"levelo://app?vid=701d56c5-1bb4-42dd-8be5-d1179ae9242f"},"vehicle_type_id":"4","last_reported":1692309957,"current_range_meters":22000,"station_id":"ce4bguh2rcd13ifvqckg","pricing_plan_id":"free"},{"bike_id":"a904af8e-e60f-4783-a85b-8eca0b69ce63","system_id":"levelo_inurba_marseille","lat":43.30587,"lon":5.36532,"is_reserved":false,"is_disabled":false,"rental_uris":{"android":"levelo://app?vid=a904af8e-e60f-4783-a85b-8eca0b69ce63","ios":"levelo://app?vid=a904af8e-e60f-4783-a85b-8eca0b69ce63"},"vehicle_type_id":"4","last_reported":1692309957,"current_range_meters":800,"station_id":"","pricing_plan_id":"free"},{"bike_id":"386ed8e3-b71e-4f68-86af-202c5b76503e","system_id":"levelo_inurba_marseille","lat":43.30539,"lon":5.36699,"is_reserved":false,"is_disabled":false,"rental_uris":{"android":"levelo://app?vid=386ed8e3-b71e-4f68-86af-202c5b76503e","ios":"levelo://app?vid=386ed8e3-b71e-4f68-86af-202c5b76503e"},"vehicle_type_id":"4","last_reported":1692309957,"current_range_meters":31200,"station_id":"ce4bgrp2rcd13ifvqc9g","pricing_plan_id":"free"},{"bike_id":"9fbe6e18-d192-44c2-98b5-cafb68b41aa4","system_id":"levelo_inurba_marseille","lat":43.30532,"lon":5.36538,"is_reserved":false,"is_disabled":false,"rental_uris":{"android":"levelo://app?vid=9fbe6e18-d192-44c2-98b5-cafb68b41aa4","ios":"levelo://app?vid=9fbe6e18-d192-44c2-98b5-cafb68b41aa4"},"vehicle_type_id":"4","last_reported":1692309957,"current_range_meters":19200,"station_id":"ce4bgs12rcd13ifvqcag","pricing_plan_id":"free"},{"bike_id":"8a989dbd-272d-47b8-85c4-b44e7fb00cfa","system_id":"levelo_inurba_marseille","lat":43.305989,"lon":5.37225,"is_reserved":false,"is_disabled":false,"rental_uris":{"android":"levelo://app?vid=8a989dbd-272d-47b8-85c4-b44e7fb00cfa","ios":"levelo://app?vid=8a989dbd-272d-47b8-85c4-b44e7fb00cfa"},"vehicle_type_id":"4","last_reported":1692309957,"current_range_meters":12000,"station_id":"ce4bgqh2rcd13ifvqc4g","pricing_plan_id":"free"},{"bike_id":"4d01b6fa-738d-4018-8a1b-5db48b17fbc1","system_id":"levelo_inurba_marseille","lat":43.305989,"lon":5.37225,"is_reserved":false,"is_disabled":false,"rental_uris":{"android":"levelo://app?vid=4d01b6fa-738d-4018-8a1b-5db48b17fbc1","ios":"levelo://app?vid=4d01b6fa-738d-4018-8a1b-5db48b17fbc1"},"vehicle_type_id":"4","last_reported":1692309957,"current_range_meters":7200,"station_id":"ce4bgqh2rcd13ifvqc4g","pricing_plan_id":"free"},{"bike_id":"78dd7622-d911-4de7-ba70-a640a82d1abd","system_id":"levelo_inurba_marseille","lat":43.305989,"lon":5.37225,"is_reserved":false,"is_disabled":false,"rental_uris":{"android":"levelo://app?vid=78dd7622-d911-4de7-ba70-a640a82d1abd","ios":"levelo://app?vid=78dd7622-d911-4de7-ba70-a640a82d1abd"},"vehicle_type_id":"4","last_reported":1692309957,"current_range_meters":10800,"station_id":"ce4bgqh2rcd13ifvqc4g","pricing_plan_id":"free"},{"bike_id":"607770eb-17a0-48ab-9cff-1bf5bd4fd076","system_id":"levelo_inurba_marseille","lat":43.305989,"lon":5.37225,"is_reserved":false,"is_disabled":false,"rental_uris":{"android":"levelo://app?vid=607770eb-17a0-48ab-9cff-1bf5bd4fd076","ios":"levelo://app?vid=607770eb-17a0-48ab-9cff-1bf5bd4fd076"},"vehicle_type_id":"4","last_reported":1692309957,"current_range_meters":10800,"station_id":"ce4bgqh2rcd13ifvqc4g","pricing_plan_id":"free"},{"bike_id":"bea902c7-cee0-4154-a317-90365f1e26eb","system_id":"levelo_inurba_marseille","lat":43.30592,"lon":5.37224,"is_reserved":false,"is_disabled":false,"rental_uris":{"android":"levelo://app?vid=bea902c7-cee0-4154-a317-90365f1e26eb","ios":"levelo://app?vid=bea902c7-cee0-4154-a317-90365f1e26eb"},"vehicle_type_id":"4","last_reported":1692309957,"current_range_meters":0,"station_id":"ce4bgqh2rcd13ifvqc4g","pricing_plan_id":"free"},{"bike_id":"8e282257-5c1b-47f9-8bd4-e61679c24a4a","system_id":"levelo_inurba_marseille","lat":43.30589,"lon":5.37222,"is_reserved":false,"is_disabled":false,"rental_uris":{"android":"levelo://app?vid=8e282257-5c1b-47f9-8bd4-e61679c24a4a","ios":"levelo://app?vid=8e282257-5c1b-47f9-8bd4-e61679c24a4a"},"vehicle_type_id":"4","last_reported":1692309957,"current_range_meters":16400,"station_id":"ce4bgqh2rcd13ifvqc4g","pricing_plan_id":"free"},{"bike_id":"9c230663-bc18-4865-b011-2fca421069eb","system_id":"levelo_inurba_marseille","lat":43.311131,"lon":5.377651,"is_reserved":false,"is_disabled":false,"rental_uris":{"android":"levelo://app?vid=9c230663-bc18-4865-b011-2fca421069eb","ios":"levelo://app?vid=9c230663-bc18-4865-b011-2fca421069eb"},"vehicle_type_id":"4","last_reported":1692309957,"current_range_meters":31200,"station_id":"ce4bgt92rcd13ifvqcg0","pricing_plan_id":"free"},{"bike_id":"08b9c5a5-42b0-4dfe-8391-637546b3eaa5","system_id":"levelo_inurba_marseille","lat":43.311131,"lon":5.377651,"is_reserved":false,"is_disabled":false,"rental_uris":{"android":"levelo://app?vid=08b9c5a5-42b0-4dfe-8391-637546b3eaa5","ios":"levelo://app?vid=08b9c5a5-42b0-4dfe-8391-637546b3eaa5"},"vehicle_type_id":"4","last_reported":1692309957,"current_range_meters":8800,"station_id":"ce4bgt92rcd13ifvqcg0","pricing_plan_id":"free"},{"bike_id":"e8b4c4db-8fbf-478e-a99b-98a0a9f28b07","system_id":"levelo_inurba_marseille","lat":43.311131,"lon":5.377651,"is_reserved":false,"is_disabled":false,"rental_uris":{"android":"levelo://app?vid=e8b4c4db-8fbf-478e-a99b-98a0a9f28b07","ios":"levelo://app?vid=e8b4c4db-8fbf-478e-a99b-98a0a9f28b07"},"vehicle_type_id":"4","last_reported":1692309957,"current_range_meters":10400,"station_id":"ce4bgt92rcd13ifvqcg0","pricing_plan_id":"free"},{"bike_id":"55dab607-c453-4cbc-9443-0bae0073b47b","system_id":"levelo_inurba_marseille","lat":43.30782,"lon":5.37638,"is_reserved":false,"is_disabled":false,"rental_uris":{"android":"levelo://app?vid=55dab607-c453-4cbc-9443-0bae0073b47b","ios":"levelo://app?vid=55dab607-c453-4cbc-9443-0bae0073b47b"},"vehicle_type_id":"4","last_reported":1692309957,"current_range_meters":13600,"station_id":"ce4bgv92rcd13ifvqcq0","pricing_plan_id":"free"},{"bike_id":"e37eabe7-a527-446e-9969-5976a38517fb","system_id":"levelo_inurba_marseille","lat":43.307945,"lon":5.376487,"is_reserved":false,"is_disabled":false,"rental_uris":{"android":"levelo://app?vid=e37eabe7-a527-446e-9969-5976a38517fb","ios":"levelo://app?vid=e37eabe7-a527-446e-9969-5976a38517fb"},"vehicle_type_id":"4","last_reported":1692309957,"current_range_meters":14800,"station_id":"ce4bgv92rcd13ifvqcq0","pricing_plan_id":"free"},{"bike_id":"0fef91fb-03bc-4a4e-af23-b54e2bc052dc","system_id":"levelo_inurba_marseille","lat":43.30769,"lon":5.37656,"is_reserved":false,"is_disabled":false,"rental_uris":{"android":"levelo://app?vid=0fef91fb-03bc-4a4e-af23-b54e2bc052dc","ios":"levelo://app?vid=0fef91fb-03bc-4a4e-af23-b54e2bc052dc"},"vehicle_type_id":"4","last_reported":1692309957,"current_range_meters":0,"station_id":"ce4bgv92rcd13ifvqcq0","pricing_plan_id":"free"},{"bike_id":"abe02008-48b9-4a39-a492-745d55fbe8f7","system_id":"levelo_inurba_marseille","lat":43.31705,"lon":5.37774,"is_reserved":false,"is_disabled":false,"rental_uris":{"android":"levelo://app?vid=abe02008-48b9-4a39-a492-745d55fbe8f7","ios":"levelo://app?vid=abe02008-48b9-4a39-a492-745d55fbe8f7"},"vehicle_type_id":"4","last_reported":1692309957,"current_range_meters":18400,"station_id":"ce4bgth2rcd13ifvqch0","pricing_plan_id":"free"},{"bike_id":"e1f0f2d3-8a05-486d-a0fb-b7ce0c01bf5f","system_id":"levelo_inurba_marseille","lat":43.311722,"lon":5.387247,"is_reserved":false,"is_disabled":false,"rental_uris":{"android":"levelo://app?vid=e1f0f2d3-8a05-486d-a0fb-b7ce0c01bf5f","ios":"levelo://app?vid=e1f0f2d3-8a05-486d-a0fb-b7ce0c01bf5f"},"vehicle_type_id":"4","last_reported":1692309957,"current_range_meters":29600,"station_id":"ce4bgv12rcd13ifvqcp0","pricing_plan_id":"free"},{"bike_id":"48673fad-3297-46db-bcf6-f957caa10c9c","system_id":"levelo_inurba_marseille","lat":43.315289,"lon":5.380349,"is_reserved":false,"is_disabled":false,"rental_uris":{"android":"levelo://app?vid=48673fad-3297-46db-bcf6-f957caa10c9c","ios":"levelo://app?vid=48673fad-3297-46db-bcf6-f957caa10c9c"},"vehicle_type_id":"4","last_reported":1692309957,"current_range_meters":18800,"station_id":"ce4bhsp2rcd13ifvqi50","pricing_plan_id":"free"},{"bike_id":"f11f593b-f726-4d67-941a-59a3a9062f71","system_id":"levelo_inurba_marseille","lat":43.31529,"lon":5.3804,"is_reserved":false,"is_disabled":false,"rental_uris":{"android":"levelo://app?vid=f11f593b-f726-4d67-941a-59a3a9062f71","ios":"levelo://app?vid=f11f593b-f726-4d67-941a-59a3a9062f71"},"vehicle_type_id":"4","last_reported":1692309957,"current_range_meters":28800,"station_id":"ce4bhsp2rcd13ifvqi50","pricing_plan_id":"free"},{"bike_id":"70fba649-4e64-4688-af40-1c40eb933bab","system_id":"levelo_inurba_marseille","lat":43.315289,"lon":5.380349,"is_reserved":false,"is_disabled":false,"rental_uris":{"android":"levelo://app?vid=70fba649-4e64-4688-af40-1c40eb933bab","ios":"levelo://app?vid=70fba649-4e64-4688-af40-1c40eb933bab"},"vehicle_type_id":"4","last_reported":1692309957,"current_range_meters":13200,"station_id":"ce4bhsp2rcd13ifvqi50","pricing_plan_id":"free"},{"bike_id":"5e9c47c2-b4bb-4724-80d3-c9951d0bb789","system_id":"levelo_inurba_marseille","lat":43.308012,"lon":5.381511,"is_reserved":false,"is_disabled":false,"rental_uris":{"android":"levelo://app?vid=5e9c47c2-b4bb-4724-80d3-c9951d0bb789","ios":"levelo://app?vid=5e9c47c2-b4bb-4724-80d3-c9951d0bb789"},"vehicle_type_id":"4","last_reported":1692309957,"current_range_meters":400,"station_id":"ce4bgt12rcd13ifvqce0","pricing_plan_id":"free"},{"bike_id":"f8d2090d-49da-47a2-ab32-834f83f2cc1c","system_id":"levelo_inurba_marseille","lat":43.30803,"lon":5.38161,"is_reserved":false,"is_disabled":false,"rental_uris":{"android":"levelo://app?vid=f8d2090d-49da-47a2-ab32-834f83f2cc1c","ios":"levelo://app?vid=f8d2090d-49da-47a2-ab32-834f83f2cc1c"},"vehicle_type_id":"4","last_reported":1692309957,"current_range_meters":13600,"station_id":"ce4bgt12rcd13ifvqce0","pricing_plan_id":"free"},{"bike_id":"dea068c3-9f55-443f-a3e8-b89ca5e10582","system_id":"levelo_inurba_marseille","lat":43.304606,"lon":5.379026,"is_reserved":false,"is_disabled":false,"rental_uris":{"android":"levelo://app?vid=dea068c3-9f55-443f-a3e8-b89ca5e10582","ios":"levelo://app?vid=dea068c3-9f55-443f-a3e8-b89ca5e10582"},"vehicle_type_id":"4","last_reported":1692309957,"current_range_meters":31200,"station_id":"ce4bgup2rcd13ifvqcn0","pricing_plan_id":"free"},{"bike_id":"9b6261f4-62c6-47cb-995a-f4d5cae8733d","system_id":"levelo_inurba_marseille","lat":43.304606,"lon":5.379026,"is_reserved":false,"is_disabled":false,"rental_uris":{"android":"levelo://app?vid=9b6261f4-62c6-47cb-995a-f4d5cae8733d","ios":"levelo://app?vid=9b6261f4-62c6-47cb-995a-f4d5cae8733d"},"vehicle_type_id":"4","last_reported":1692309957,"current_range_meters":31200,"station_id":"ce4bgup2rcd13ifvqcn0","pricing_plan_id":"free"},{"bike_id":"ae798491-ab6a-4ef2-a254-d26ad5881df4","system_id":"levelo_inurba_marseille","lat":43.304606,"lon":5.379026,"is_reserved":false,"is_disabled":false,"rental_uris":{"android":"levelo://app?vid=ae798491-ab6a-4ef2-a254-d26ad5881df4","ios":"levelo://app?vid=ae798491-ab6a-4ef2-a254-d26ad5881df4"},"vehicle_type_id":"4","last_reported":1692309957,"current_range_meters":31600,"station_id":"ce4bgup2rcd13ifvqcn0","pricing_plan_id":"free"},{"bike_id":"3ef77a1c-101c-4e7b-bbf2-41a2523f0f8a","system_id":"levelo_inurba_marseille","lat":43.304606,"lon":5.379026,"is_reserved":false,"is_disabled":false,"rental_uris":{"android":"levelo://app?vid=3ef77a1c-101c-4e7b-bbf2-41a2523f0f8a","ios":"levelo://app?vid=3ef77a1c-101c-4e7b-bbf2-41a2523f0f8a"},"vehicle_type_id":"4","last_reported":1692309957,"current_range_meters":30800,"station_id":"ce4bgup2rcd13ifvqcn0","pricing_plan_id":"free"},{"bike_id":"fef9115c-ea09-4f09-969f-1c2a3bc60e1d","system_id":"levelo_inurba_marseille","lat":43.30456,"lon":5.379,"is_reserved":false,"is_disabled":false,"rental_uris":{"android":"levelo://app?vid=fef9115c-ea09-4f09-969f-1c2a3bc60e1d","ios":"levelo://app?vid=fef9115c-ea09-4f09-969f-1c2a3bc60e1d"},"vehicle_type_id":"4","last_reported":1692309957,"current_range_meters":5200,"station_id":"ce4bgup2rcd13ifvqcn0","pricing_plan_id":"free"},{"bike_id":"6afe2a32-ac99-436a-93a5-259259a75843","system_id":"levelo_inurba_marseille","lat":43.304606,"lon":5.379026,"is_reserved":false,"is_disabled":false,"rental_uris":{"android":"levelo://app?vid=6afe2a32-ac99-436a-93a5-259259a75843","ios":"levelo://app?vid=6afe2a32-ac99-436a-93a5-259259a75843"},"vehicle_type_id":"4","last_reported":1692309957,"current_range_meters":4400,"station_id":"ce4bgup2rcd13ifvqcn0","pricing_plan_id":"free"},{"bike_id":"116048b7-452e-491d-98e5-3b3d6cb425c8","system_id":"levelo_inurba_marseille","lat":43.304606,"lon":5.379026,"is_reserved":false,"is_disabled":false,"rental_uris":{"android":"levelo://app?vid=116048b7-452e-491d-98e5-3b3d6cb425c8","ios":"levelo://app?vid=116048b7-452e-491d-98e5-3b3d6cb425c8"},"vehicle_type_id":"4","last_reported":1692309957,"current_range_meters":13200,"station_id":"ce4bgup2rcd13ifvqcn0","pricing_plan_id":"free"},{"bike_id":"affbbbe5-f43a-484c-ac54-71ff554dd4cf","system_id":"levelo_inurba_marseille","lat":43.3046,"lon":5.37909,"is_reserved":false,"is_disabled":false,"rental_uris":{"android":"levelo://app?vid=affbbbe5-f43a-484c-ac54-71ff554dd4cf","ios":"levelo://app?vid=affbbbe5-f43a-484c-ac54-71ff554dd4cf"},"vehicle_type_id":"4","last_reported":1692309957,"current_range_meters":16400,"station_id":"ce4bgup2rcd13ifvqcn0","pricing_plan_id":"free"},{"bike_id":"3e40a51f-8ee8-4903-9fd2-afd47aeb8834","system_id":"levelo_inurba_marseille","lat":43.304606,"lon":5.379026,"is_reserved":false,"is_disabled":false,"rental_uris":{"android":"levelo://app?vid=3e40a51f-8ee8-4903-9fd2-afd47aeb8834","ios":"levelo://app?vid=3e40a51f-8ee8-4903-9fd2-afd47aeb8834"},"vehicle_type_id":"4","last_reported":1692309957,"current_range_meters":7200,"station_id":"ce4bgup2rcd13ifvqcn0","pricing_plan_id":"free"},{"bike_id":"ddb69c82-11b7-4b93-94ee-a7ac8387e8bb","system_id":"levelo_inurba_marseille","lat":43.304606,"lon":5.379026,"is_reserved":false,"is_disabled":false,"rental_uris":{"android":"levelo://app?vid=ddb69c82-11b7-4b93-94ee-a7ac8387e8bb","ios":"levelo://app?vid=ddb69c82-11b7-4b93-94ee-a7ac8387e8bb"},"vehicle_type_id":"4","last_reported":1692309957,"current_range_meters":19600,"station_id":"ce4bgup2rcd13ifvqcn0","pricing_plan_id":"free"},{"bike_id":"bab1cd3c-fff2-4274-85c4-bfe04772e975","system_id":"levelo_inurba_marseille","lat":43.30456,"lon":5.37906,"is_reserved":false,"is_disabled":false,"rental_uris":{"android":"levelo://app?vid=bab1cd3c-fff2-4274-85c4-bfe04772e975","ios":"levelo://app?vid=bab1cd3c-fff2-4274-85c4-bfe04772e975"},"vehicle_type_id":"4","last_reported":1692309957,"current_range_meters":2000,"station_id":"ce4bgup2rcd13ifvqcn0","pricing_plan_id":"free"},{"bike_id":"5946db09-566a-486d-b111-800ca3721a96","system_id":"levelo_inurba_marseille","lat":43.304606,"lon":5.379026,"is_reserved":false,"is_disabled":false,"rental_uris":{"android":"levelo://app?vid=5946db09-566a-486d-b111-800ca3721a96","ios":"levelo://app?vid=5946db09-566a-486d-b111-800ca3721a96"},"vehicle_type_id":"4","last_reported":1692309957,"current_range_meters":22000,"station_id":"ce4bgup2rcd13ifvqcn0","pricing_plan_id":"free"},{"bike_id":"87358efd-e413-491b-a7e7-1beb97a495cb","system_id":"levelo_inurba_marseille","lat":43.304606,"lon":5.379026,"is_reserved":false,"is_disabled":false,"rental_uris":{"android":"levelo://app?vid=87358efd-e413-491b-a7e7-1beb97a495cb","ios":"levelo://app?vid=87358efd-e413-491b-a7e7-1beb97a495cb"},"vehicle_type_id":"4","last_reported":1692309957,"current_range_meters":31200,"station_id":"ce4bgup2rcd13ifvqcn0","pricing_plan_id":"free"},{"bike_id":"5a2e6c20-4387-4428-ab30-bd3b631e9f1e","system_id":"levelo_inurba_marseille","lat":43.304606,"lon":5.379026,"is_reserved":false,"is_disabled":false,"rental_uris":{"android":"levelo://app?vid=5a2e6c20-4387-4428-ab30-bd3b631e9f1e","ios":"levelo://app?vid=5a2e6c20-4387-4428-ab30-bd3b631e9f1e"},"vehicle_type_id":"4","last_reported":1692309957,"current_range_meters":21200,"station_id":"ce4bgup2rcd13ifvqcn0","pricing_plan_id":"free"},{"bike_id":"74e30182-e09a-4738-8d6d-3beeb29a8c64","system_id":"levelo_inurba_marseille","lat":43.304606,"lon":5.379026,"is_reserved":false,"is_disabled":false,"rental_uris":{"android":"levelo://app?vid=74e30182-e09a-4738-8d6d-3beeb29a8c64","ios":"levelo://app?vid=74e30182-e09a-4738-8d6d-3beeb29a8c64"},"vehicle_type_id":"4","last_reported":1692309957,"current_range_meters":11600,"station_id":"ce4bgup2rcd13ifvqcn0","pricing_plan_id":"free"},{"bike_id":"b328d323-4e49-4e11-8d47-6f47f1998c64","system_id":"levelo_inurba_marseille","lat":43.31988,"lon":5.38142,"is_reserved":false,"is_disabled":false,"rental_uris":{"android":"levelo://app?vid=b328d323-4e49-4e11-8d47-6f47f1998c64","ios":"levelo://app?vid=b328d323-4e49-4e11-8d47-6f47f1998c64"},"vehicle_type_id":"4","last_reported":1692309957,"current_range_meters":25200,"station_id":"ce4bhr12rcd13ifvqhpg","pricing_plan_id":"free"},{"bike_id":"88762d40-52ba-436a-b80a-c40414f42fb8","system_id":"levelo_inurba_marseille","lat":43.3199,"lon":5.38148,"is_reserved":false,"is_disabled":false,"rental_uris":{"android":"levelo://app?vid=88762d40-52ba-436a-b80a-c40414f42fb8","ios":"levelo://app?vid=88762d40-52ba-436a-b80a-c40414f42fb8"},"vehicle_type_id":"4","last_reported":1692309957,"current_range_meters":5600,"station_id":"ce4bhr12rcd13ifvqhpg","pricing_plan_id":"free"},{"bike_id":"0199fadd-d0a9-4074-adc4-86b80fffb7d6","system_id":"levelo_inurba_marseille","lat":43.319935,"lon":5.381699,"is_reserved":false,"is_disabled":false,"rental_uris":{"android":"levelo://app?vid=0199fadd-d0a9-4074-adc4-86b80fffb7d6","ios":"levelo://app?vid=0199fadd-d0a9-4074-adc4-86b80fffb7d6"},"vehicle_type_id":"4","last_reported":1692309957,"current_range_meters":30000,"station_id":"ce4bhr12rcd13ifvqhpg","pricing_plan_id":"free"},{"bike_id":"7b3c0e6e-bbe2-4c88-aaa1-69c07e9b139a","system_id":"levelo_inurba_marseille","lat":43.319935,"lon":5.381699,"is_reserved":false,"is_disabled":false,"rental_uris":{"android":"levelo://app?vid=7b3c0e6e-bbe2-4c88-aaa1-69c07e9b139a","ios":"levelo://app?vid=7b3c0e6e-bbe2-4c88-aaa1-69c07e9b139a"},"vehicle_type_id":"4","last_reported":1692309957,"current_range_meters":16800,"station_id":"ce4bhr12rcd13ifvqhpg","pricing_plan_id":"free"},{"bike_id":"453ecfdd-3284-499c-808d-a91757f43e14","system_id":"levelo_inurba_marseille","lat":43.319935,"lon":5.381699,"is_reserved":false,"is_disabled":false,"rental_uris":{"android":"levelo://app?vid=453ecfdd-3284-499c-808d-a91757f43e14","ios":"levelo://app?vid=453ecfdd-3284-499c-808d-a91757f43e14"},"vehicle_type_id":"4","last_reported":1692309957,"current_range_meters":22800,"station_id":"ce4bhr12rcd13ifvqhpg","pricing_plan_id":"free"},{"bike_id":"8edc98e9-ff68-4abb-9aed-439fc370eb1d","system_id":"levelo_inurba_marseille","lat":43.31993,"lon":5.38155,"is_reserved":false,"is_disabled":false,"rental_uris":{"android":"levelo://app?vid=8edc98e9-ff68-4abb-9aed-439fc370eb1d","ios":"levelo://app?vid=8edc98e9-ff68-4abb-9aed-439fc370eb1d"},"vehicle_type_id":"4","last_reported":1692309957,"current_range_meters":9600,"station_id":"ce4bhr12rcd13ifvqhpg","pricing_plan_id":"free"},{"bike_id":"edcd4620-0989-48c0-a8b2-f553f618cd83","system_id":"levelo_inurba_marseille","lat":43.313571,"lon":5.384829,"is_reserved":false,"is_disabled":false,"rental_uris":{"android":"levelo://app?vid=edcd4620-0989-48c0-a8b2-f553f618cd83","ios":"levelo://app?vid=edcd4620-0989-48c0-a8b2-f553f618cd83"},"vehicle_type_id":"4","last_reported":1692309957,"current_range_meters":7600,"station_id":"ce4bgt92rcd13ifvqcf0","pricing_plan_id":"free"},{"bike_id":"f153ac73-9ab3-442f-8759-d49d5175c475","system_id":"levelo_inurba_marseille","lat":43.313571,"lon":5.384829,"is_reserved":false,"is_disabled":false,"rental_uris":{"android":"levelo://app?vid=f153ac73-9ab3-442f-8759-d49d5175c475","ios":"levelo://app?vid=f153ac73-9ab3-442f-8759-d49d5175c475"},"vehicle_type_id":"4","last_reported":1692309957,"current_range_meters":17200,"station_id":"ce4bgt92rcd13ifvqcf0","pricing_plan_id":"free"},{"bike_id":"fb9de164-f97e-478e-9fa7-b6fa3e039409","system_id":"levelo_inurba_marseille","lat":43.313571,"lon":5.384829,"is_reserved":false,"is_disabled":false,"rental_uris":{"android":"levelo://app?vid=fb9de164-f97e-478e-9fa7-b6fa3e039409","ios":"levelo://app?vid=fb9de164-f97e-478e-9fa7-b6fa3e039409"},"vehicle_type_id":"4","last_reported":1692309957,"current_range_meters":12800,"station_id":"ce4bgt92rcd13ifvqcf0","pricing_plan_id":"free"},{"bike_id":"f8506981-5e18-4cfa-9c66-08877592c2e8","system_id":"levelo_inurba_marseille","lat":43.313571,"lon":5.384829,"is_reserved":false,"is_disabled":false,"rental_uris":{"android":"levelo://app?vid=f8506981-5e18-4cfa-9c66-08877592c2e8","ios":"levelo://app?vid=f8506981-5e18-4cfa-9c66-08877592c2e8"},"vehicle_type_id":"4","last_reported":1692309957,"current_range_meters":5200,"station_id":"ce4bgt92rcd13ifvqcf0","pricing_plan_id":"free"},{"bike_id":"8074d7dd-7048-46c5-90cf-38872a71f98c","system_id":"levelo_inurba_marseille","lat":43.313571,"lon":5.384829,"is_reserved":false,"is_disabled":false,"rental_uris":{"android":"levelo://app?vid=8074d7dd-7048-46c5-90cf-38872a71f98c","ios":"levelo://app?vid=8074d7dd-7048-46c5-90cf-38872a71f98c"},"vehicle_type_id":"4","last_reported":1692309957,"current_range_meters":20000,"station_id":"ce4bgt92rcd13ifvqcf0","pricing_plan_id":"free"},{"bike_id":"64727294-cd95-46fe-8a9b-8d015858d403","system_id":"levelo_inurba_marseille","lat":43.313571,"lon":5.384829,"is_reserved":false,"is_disabled":false,"rental_uris":{"android":"levelo://app?vid=64727294-cd95-46fe-8a9b-8d015858d403","ios":"levelo://app?vid=64727294-cd95-46fe-8a9b-8d015858d403"},"vehicle_type_id":"4","last_reported":1692309957,"current_range_meters":26400,"station_id":"ce4bgt92rcd13ifvqcf0","pricing_plan_id":"free"},{"bike_id":"d44fe93f-ae2b-4a88-bff1-45011735cb13","system_id":"levelo_inurba_marseille","lat":43.313571,"lon":5.384829,"is_reserved":false,"is_disabled":false,"rental_uris":{"android":"levelo://app?vid=d44fe93f-ae2b-4a88-bff1-45011735cb13","ios":"levelo://app?vid=d44fe93f-ae2b-4a88-bff1-45011735cb13"},"vehicle_type_id":"4","last_reported":1692309957,"current_range_meters":6400,"station_id":"ce4bgt92rcd13ifvqcf0","pricing_plan_id":"free"},{"bike_id":"6772daf6-3da1-4e26-9a1d-c3515e116dc2","system_id":"levelo_inurba_marseille","lat":43.313571,"lon":5.384829,"is_reserved":false,"is_disabled":false,"rental_uris":{"android":"levelo://app?vid=6772daf6-3da1-4e26-9a1d-c3515e116dc2","ios":"levelo://app?vid=6772daf6-3da1-4e26-9a1d-c3515e116dc2"},"vehicle_type_id":"4","last_reported":1692309957,"current_range_meters":14400,"station_id":"ce4bgt92rcd13ifvqcf0","pricing_plan_id":"free"},{"bike_id":"804c3f64-25ab-4ab9-aa07-fba60f6693dd","system_id":"levelo_inurba_marseille","lat":43.313571,"lon":5.384829,"is_reserved":false,"is_disabled":false,"rental_uris":{"android":"levelo://app?vid=804c3f64-25ab-4ab9-aa07-fba60f6693dd","ios":"levelo://app?vid=804c3f64-25ab-4ab9-aa07-fba60f6693dd"},"vehicle_type_id":"4","last_reported":1692309957,"current_range_meters":6000,"station_id":"ce4bgt92rcd13ifvqcf0","pricing_plan_id":"free"},{"bike_id":"2f64f751-e7b2-43cc-8d61-d93e099f5010","system_id":"levelo_inurba_marseille","lat":43.2998,"lon":5.37169,"is_reserved":false,"is_disabled":false,"rental_uris":{"android":"levelo://app?vid=2f64f751-e7b2-43cc-8d61-d93e099f5010","ios":"levelo://app?vid=2f64f751-e7b2-43cc-8d61-d93e099f5010"},"vehicle_type_id":"4","last_reported":1692309957,"current_range_meters":0,"station_id":"ce4bgr92rcd13ifvqc7g","pricing_plan_id":"free"},{"bike_id":"f2e0237c-4ddc-4ddb-9be6-0dfabeff3c7d","system_id":"levelo_inurba_marseille","lat":43.29966,"lon":5.37171,"is_reserved":false,"is_disabled":false,"rental_uris":{"android":"levelo://app?vid=f2e0237c-4ddc-4ddb-9be6-0dfabeff3c7d","ios":"levelo://app?vid=f2e0237c-4ddc-4ddb-9be6-0dfabeff3c7d"},"vehicle_type_id":"4","last_reported":1692309957,"current_range_meters":5600,"station_id":"ce4bgr92rcd13ifvqc7g","pricing_plan_id":"free"},{"bike_id":"21c47c09-593a-4a81-b47d-da5f4a458da2","system_id":"levelo_inurba_marseille","lat":43.305428,"lon":5.384178,"is_reserved":false,"is_disabled":false,"rental_uris":{"android":"levelo://app?vid=21c47c09-593a-4a81-b47d-da5f4a458da2","ios":"levelo://app?vid=21c47c09-593a-4a81-b47d-da5f4a458da2"},"vehicle_type_id":"4","last_reported":1692309957,"current_range_meters":22400,"station_id":"ce4bgg92rcd13ifvqb30","pricing_plan_id":"free"},{"bike_id":"26181e32-18e6-49a5-aa8f-417a3d474c89","system_id":"levelo_inurba_marseille","lat":43.30543,"lon":5.38436,"is_reserved":false,"is_disabled":false,"rental_uris":{"android":"levelo://app?vid=26181e32-18e6-49a5-aa8f-417a3d474c89","ios":"levelo://app?vid=26181e32-18e6-49a5-aa8f-417a3d474c89"},"vehicle_type_id":"4","last_reported":1692309957,"current_range_meters":1200,"station_id":"ce4bgg92rcd13ifvqb30","pricing_plan_id":"free"},{"bike_id":"ee93d6d5-5d21-466a-964c-31769f078e44","system_id":"levelo_inurba_marseille","lat":43.30536,"lon":5.38431,"is_reserved":false,"is_disabled":false,"rental_uris":{"android":"levelo://app?vid=ee93d6d5-5d21-466a-964c-31769f078e44","ios":"levelo://app?vid=ee93d6d5-5d21-466a-964c-31769f078e44"},"vehicle_type_id":"4","last_reported":1692309957,"current_range_meters":0,"station_id":"ce4bgg92rcd13ifvqb30","pricing_plan_id":"free"},{"bike_id":"cb505fc2-0811-40e6-af0a-c6f64ed5e43d","system_id":"levelo_inurba_marseille","lat":43.30533,"lon":5.38431,"is_reserved":false,"is_disabled":false,"rental_uris":{"android":"levelo://app?vid=cb505fc2-0811-40e6-af0a-c6f64ed5e43d","ios":"levelo://app?vid=cb505fc2-0811-40e6-af0a-c6f64ed5e43d"},"vehicle_type_id":"4","last_reported":1692309957,"current_range_meters":2400,"station_id":"ce4bgg92rcd13ifvqb30","pricing_plan_id":"free"},{"bike_id":"23529586-fe08-4d7f-8f82-5de25235c645","system_id":"levelo_inurba_marseille","lat":43.30532,"lon":5.38431,"is_reserved":false,"is_disabled":false,"rental_uris":{"android":"levelo://app?vid=23529586-fe08-4d7f-8f82-5de25235c645","ios":"levelo://app?vid=23529586-fe08-4d7f-8f82-5de25235c645"},"vehicle_type_id":"4","last_reported":1692309957,"current_range_meters":23200,"station_id":"ce4bgg92rcd13ifvqb30","pricing_plan_id":"free"},{"bike_id":"f79f9b9e-51c1-4755-94a1-bd31ffad7025","system_id":"levelo_inurba_marseille","lat":43.311722,"lon":5.387247,"is_reserved":false,"is_disabled":false,"rental_uris":{"android":"levelo://app?vid=f79f9b9e-51c1-4755-94a1-bd31ffad7025","ios":"levelo://app?vid=f79f9b9e-51c1-4755-94a1-bd31ffad7025"},"vehicle_type_id":"4","last_reported":1692309957,"current_range_meters":31200,"station_id":"ce4bgv12rcd13ifvqcp0","pricing_plan_id":"free"},{"bike_id":"880b6407-7704-4839-b5b7-cd56df8a4b33","system_id":"levelo_inurba_marseille","lat":43.30539,"lon":5.38444,"is_reserved":false,"is_disabled":false,"rental_uris":{"android":"levelo://app?vid=880b6407-7704-4839-b5b7-cd56df8a4b33","ios":"levelo://app?vid=880b6407-7704-4839-b5b7-cd56df8a4b33"},"vehicle_type_id":"4","last_reported":1692309957,"current_range_meters":0,"station_id":"ce4bgg92rcd13ifvqb30","pricing_plan_id":"free"},{"bike_id":"09485a3a-6ecf-4718-bec1-bee4f094a860","system_id":"levelo_inurba_marseille","lat":43.311722,"lon":5.387247,"is_reserved":false,"is_disabled":false,"rental_uris":{"android":"levelo://app?vid=09485a3a-6ecf-4718-bec1-bee4f094a860","ios":"levelo://app?vid=09485a3a-6ecf-4718-bec1-bee4f094a860"},"vehicle_type_id":"4","last_reported":1692309957,"current_range_meters":18800,"station_id":"ce4bgv12rcd13ifvqcp0","pricing_plan_id":"free"},{"bike_id":"0973c2d2-aba4-4629-b0d3-070e26968a0b","system_id":"levelo_inurba_marseille","lat":43.299243,"lon":5.37481,"is_reserved":false,"is_disabled":false,"rental_uris":{"android":"levelo://app?vid=0973c2d2-aba4-4629-b0d3-070e26968a0b","ios":"levelo://app?vid=0973c2d2-aba4-4629-b0d3-070e26968a0b"},"vehicle_type_id":"4","last_reported":1692309957,"current_range_meters":20000,"station_id":"ce4bgjh2rcd13ifvqbg0","pricing_plan_id":"free"},{"bike_id":"53715568-c740-4ac7-b517-651e2914821c","system_id":"levelo_inurba_marseille","lat":43.311738,"lon":5.387162,"is_reserved":false,"is_disabled":false,"rental_uris":{"android":"levelo://app?vid=53715568-c740-4ac7-b517-651e2914821c","ios":"levelo://app?vid=53715568-c740-4ac7-b517-651e2914821c"},"vehicle_type_id":"4","last_reported":1692309957,"current_range_meters":4000,"station_id":"ce4bgv12rcd13ifvqcp0","pricing_plan_id":"free"},{"bike_id":"06888e23-683d-4eb5-90c2-66dff1548b26","system_id":"levelo_inurba_marseille","lat":43.311722,"lon":5.387247,"is_reserved":false,"is_disabled":false,"rental_uris":{"android":"levelo://app?vid=06888e23-683d-4eb5-90c2-66dff1548b26","ios":"levelo://app?vid=06888e23-683d-4eb5-90c2-66dff1548b26"},"vehicle_type_id":"4","last_reported":1692309957,"current_range_meters":31200,"station_id":"ce4bgv12rcd13ifvqcp0","pricing_plan_id":"free"},{"bike_id":"c0773979-ef9a-4c35-ac69-461666e5f249","system_id":"levelo_inurba_marseille","lat":43.311722,"lon":5.387247,"is_reserved":false,"is_disabled":false,"rental_uris":{"android":"levelo://app?vid=c0773979-ef9a-4c35-ac69-461666e5f249","ios":"levelo://app?vid=c0773979-ef9a-4c35-ac69-461666e5f249"},"vehicle_type_id":"4","last_reported":1692309957,"current_range_meters":13200,"station_id":"ce4bgv12rcd13ifvqcp0","pricing_plan_id":"free"},{"bike_id":"c509a2d5-facc-47f1-8f83-710ff6d57b8a","system_id":"levelo_inurba_marseille","lat":43.31171,"lon":5.38718,"is_reserved":false,"is_disabled":false,"rental_uris":{"android":"levelo://app?vid=c509a2d5-facc-47f1-8f83-710ff6d57b8a","ios":"levelo://app?vid=c509a2d5-facc-47f1-8f83-710ff6d57b8a"},"vehicle_type_id":"4","last_reported":1692309957,"current_range_meters":29200,"station_id":"ce4bgv12rcd13ifvqcp0","pricing_plan_id":"free"},{"bike_id":"4d490e2d-da3e-4705-8b9c-e66060d2b66c","system_id":"levelo_inurba_marseille","lat":43.31172,"lon":5.38719,"is_reserved":false,"is_disabled":false,"rental_uris":{"android":"levelo://app?vid=4d490e2d-da3e-4705-8b9c-e66060d2b66c","ios":"levelo://app?vid=4d490e2d-da3e-4705-8b9c-e66060d2b66c"},"vehicle_type_id":"4","last_reported":1692309957,"current_range_meters":16400,"station_id":"ce4bgv12rcd13ifvqcp0","pricing_plan_id":"free"},{"bike_id":"1c270814-c471-43ba-9ee2-c1970af65df8","system_id":"levelo_inurba_marseille","lat":43.311722,"lon":5.387247,"is_reserved":false,"is_disabled":false,"rental_uris":{"android":"levelo://app?vid=1c270814-c471-43ba-9ee2-c1970af65df8","ios":"levelo://app?vid=1c270814-c471-43ba-9ee2-c1970af65df8"},"vehicle_type_id":"4","last_reported":1692309957,"current_range_meters":14000,"station_id":"ce4bgv12rcd13ifvqcp0","pricing_plan_id":"free"},{"bike_id":"338ccd19-9d7c-4c6e-b7f7-0c28fae038f6","system_id":"levelo_inurba_marseille","lat":43.311722,"lon":5.387247,"is_reserved":false,"is_disabled":false,"rental_uris":{"android":"levelo://app?vid=338ccd19-9d7c-4c6e-b7f7-0c28fae038f6","ios":"levelo://app?vid=338ccd19-9d7c-4c6e-b7f7-0c28fae038f6"},"vehicle_type_id":"4","last_reported":1692309957,"current_range_meters":31600,"station_id":"ce4bgv12rcd13ifvqcp0","pricing_plan_id":"free"},{"bike_id":"d2afe736-b706-4c1c-ac48-517d0f070897","system_id":"levelo_inurba_marseille","lat":43.311722,"lon":5.387247,"is_reserved":false,"is_disabled":false,"rental_uris":{"android":"levelo://app?vid=d2afe736-b706-4c1c-ac48-517d0f070897","ios":"levelo://app?vid=d2afe736-b706-4c1c-ac48-517d0f070897"},"vehicle_type_id":"4","last_reported":1692309957,"current_range_meters":18400,"station_id":"ce4bgv12rcd13ifvqcp0","pricing_plan_id":"free"},{"bike_id":"7b403168-1596-4e51-9d29-1351e2440eba","system_id":"levelo_inurba_marseille","lat":43.29884,"lon":5.37513,"is_reserved":false,"is_disabled":false,"rental_uris":{"android":"levelo://app?vid=7b403168-1596-4e51-9d29-1351e2440eba","ios":"levelo://app?vid=7b403168-1596-4e51-9d29-1351e2440eba"},"vehicle_type_id":"4","last_reported":1692309957,"current_range_meters":7200,"station_id":"","pricing_plan_id":"free"},{"bike_id":"67c43f86-fcb6-41cc-8957-c0d7033c94b6","system_id":"levelo_inurba_marseille","lat":43.32289,"lon":5.38263,"is_reserved":false,"is_disabled":false,"rental_uris":{"android":"levelo://app?vid=67c43f86-fcb6-41cc-8957-c0d7033c94b6","ios":"levelo://app?vid=67c43f86-fcb6-41cc-8957-c0d7033c94b6"},"vehicle_type_id":"4","last_reported":1692309957,"current_range_meters":26400,"station_id":"ce4bhr12rcd13ifvqhqg","pricing_plan_id":"free"},{"bike_id":"5b5c8cae-b425-4976-9ba8-5ae205664d6b","system_id":"levelo_inurba_marseille","lat":43.32285,"lon":5.3827,"is_reserved":false,"is_disabled":false,"rental_uris":{"android":"levelo://app?vid=5b5c8cae-b425-4976-9ba8-5ae205664d6b","ios":"levelo://app?vid=5b5c8cae-b425-4976-9ba8-5ae205664d6b"},"vehicle_type_id":"4","last_reported":1692309957,"current_range_meters":27200,"station_id":"ce4bhr12rcd13ifvqhqg","pricing_plan_id":"free"},{"bike_id":"5f91fc7d-0833-4a7c-a0d8-21ec0ad5455a","system_id":"levelo_inurba_marseille","lat":43.32288,"lon":5.3827,"is_reserved":false,"is_disabled":false,"rental_uris":{"android":"levelo://app?vid=5f91fc7d-0833-4a7c-a0d8-21ec0ad5455a","ios":"levelo://app?vid=5f91fc7d-0833-4a7c-a0d8-21ec0ad5455a"},"vehicle_type_id":"4","last_reported":1692309957,"current_range_meters":29200,"station_id":"ce4bhr12rcd13ifvqhqg","pricing_plan_id":"free"},{"bike_id":"a1f7b084-f437-4e0c-8b20-334f54c48d59","system_id":"levelo_inurba_marseille","lat":43.322872,"lon":5.382756,"is_reserved":false,"is_disabled":false,"rental_uris":{"android":"levelo://app?vid=a1f7b084-f437-4e0c-8b20-334f54c48d59","ios":"levelo://app?vid=a1f7b084-f437-4e0c-8b20-334f54c48d59"},"vehicle_type_id":"4","last_reported":1692309957,"current_range_meters":26400,"station_id":"ce4bhr12rcd13ifvqhqg","pricing_plan_id":"free"},{"bike_id":"2655ed25-ff91-44e2-9350-639e39275cf7","system_id":"levelo_inurba_marseille","lat":43.32285,"lon":5.38277,"is_reserved":false,"is_disabled":false,"rental_uris":{"android":"levelo://app?vid=2655ed25-ff91-44e2-9350-639e39275cf7","ios":"levelo://app?vid=2655ed25-ff91-44e2-9350-639e39275cf7"},"vehicle_type_id":"4","last_reported":1692309957,"current_range_meters":30000,"station_id":"ce4bhr12rcd13ifvqhqg","pricing_plan_id":"free"},{"bike_id":"2b488fa5-6690-49f1-8674-7d2969f31eb4","system_id":"levelo_inurba_marseille","lat":43.322872,"lon":5.382756,"is_reserved":false,"is_disabled":false,"rental_uris":{"android":"levelo://app?vid=2b488fa5-6690-49f1-8674-7d2969f31eb4","ios":"levelo://app?vid=2b488fa5-6690-49f1-8674-7d2969f31eb4"},"vehicle_type_id":"4","last_reported":1692309957,"current_range_meters":20400,"station_id":"ce4bhr12rcd13ifvqhqg","pricing_plan_id":"free"},{"bike_id":"b9784bc4-a1f4-4e7b-a996-3746dcc4c656","system_id":"levelo_inurba_marseille","lat":43.322872,"lon":5.382756,"is_reserved":false,"is_disabled":false,"rental_uris":{"android":"levelo://app?vid=b9784bc4-a1f4-4e7b-a996-3746dcc4c656","ios":"levelo://app?vid=b9784bc4-a1f4-4e7b-a996-3746dcc4c656"},"vehicle_type_id":"4","last_reported":1692309957,"current_range_meters":18000,"station_id":"ce4bhr12rcd13ifvqhqg","pricing_plan_id":"free"},{"bike_id":"673200d6-9c00-4797-bd65-06254571f6fe","system_id":"levelo_inurba_marseille","lat":43.322872,"lon":5.382756,"is_reserved":false,"is_disabled":false,"rental_uris":{"android":"levelo://app?vid=673200d6-9c00-4797-bd65-06254571f6fe","ios":"levelo://app?vid=673200d6-9c00-4797-bd65-06254571f6fe"},"vehicle_type_id":"4","last_reported":1692309957,"current_range_meters":31200,"station_id":"ce4bhr12rcd13ifvqhqg","pricing_plan_id":"free"},{"bike_id":"4ea834d1-267f-41ec-b789-6c09255ff5cc","system_id":"levelo_inurba_marseille","lat":43.322872,"lon":5.382756,"is_reserved":false,"is_disabled":false,"rental_uris":{"android":"levelo://app?vid=4ea834d1-267f-41ec-b789-6c09255ff5cc","ios":"levelo://app?vid=4ea834d1-267f-41ec-b789-6c09255ff5cc"},"vehicle_type_id":"4","last_reported":1692309957,"current_range_meters":27600,"station_id":"ce4bhr12rcd13ifvqhqg","pricing_plan_id":"free"},{"bike_id":"15120a69-1dc0-488d-b5dc-3813b3f3db2b","system_id":"levelo_inurba_marseille","lat":43.3229,"lon":5.38277,"is_reserved":false,"is_disabled":false,"rental_uris":{"android":"levelo://app?vid=15120a69-1dc0-488d-b5dc-3813b3f3db2b","ios":"levelo://app?vid=15120a69-1dc0-488d-b5dc-3813b3f3db2b"},"vehicle_type_id":"4","last_reported":1692309957,"current_range_meters":5600,"station_id":"ce4bhr12rcd13ifvqhqg","pricing_plan_id":"free"},{"bike_id":"20066552-063e-4d3e-9e10-e0e8a6d2c838","system_id":"levelo_inurba_marseille","lat":43.32285,"lon":5.38284,"is_reserved":false,"is_disabled":false,"rental_uris":{"android":"levelo://app?vid=20066552-063e-4d3e-9e10-e0e8a6d2c838","ios":"levelo://app?vid=20066552-063e-4d3e-9e10-e0e8a6d2c838"},"vehicle_type_id":"4","last_reported":1692309957,"current_range_meters":10000,"station_id":"ce4bhr12rcd13ifvqhqg","pricing_plan_id":"free"},{"bike_id":"dae4f848-b0f8-4754-83f5-8feeef2d9437","system_id":"levelo_inurba_marseille","lat":43.322872,"lon":5.382756,"is_reserved":false,"is_disabled":false,"rental_uris":{"android":"levelo://app?vid=dae4f848-b0f8-4754-83f5-8feeef2d9437","ios":"levelo://app?vid=dae4f848-b0f8-4754-83f5-8feeef2d9437"},"vehicle_type_id":"4","last_reported":1692309957,"current_range_meters":21200,"station_id":"ce4bhr12rcd13ifvqhqg","pricing_plan_id":"free"},{"bike_id":"3dc8ddfd-e386-4774-938c-dc3a7b25274a","system_id":"levelo_inurba_marseille","lat":43.3282,"lon":5.36679,"is_reserved":false,"is_disabled":false,"rental_uris":{"android":"levelo://app?vid=3dc8ddfd-e386-4774-938c-dc3a7b25274a","ios":"levelo://app?vid=3dc8ddfd-e386-4774-938c-dc3a7b25274a"},"vehicle_type_id":"4","last_reported":1692309957,"current_range_meters":12000,"station_id":"ce4bhs92rcd13ifvqi0g","pricing_plan_id":"free"},{"bike_id":"c84822bd-f81b-4f6c-9edf-3a63395bc23a","system_id":"levelo_inurba_marseille","lat":43.328371,"lon":5.366909,"is_reserved":false,"is_disabled":false,"rental_uris":{"android":"levelo://app?vid=c84822bd-f81b-4f6c-9edf-3a63395bc23a","ios":"levelo://app?vid=c84822bd-f81b-4f6c-9edf-3a63395bc23a"},"vehicle_type_id":"4","last_reported":1692309957,"current_range_meters":9600,"station_id":"ce4bhs92rcd13ifvqi0g","pricing_plan_id":"free"},{"bike_id":"2cacf4ba-30f0-4f40-92af-cee799fe4c0c","system_id":"levelo_inurba_marseille","lat":43.32822,"lon":5.36683,"is_reserved":false,"is_disabled":false,"rental_uris":{"android":"levelo://app?vid=2cacf4ba-30f0-4f40-92af-cee799fe4c0c","ios":"levelo://app?vid=2cacf4ba-30f0-4f40-92af-cee799fe4c0c"},"vehicle_type_id":"4","last_reported":1692309957,"current_range_meters":21600,"station_id":"ce4bhs92rcd13ifvqi0g","pricing_plan_id":"free"},{"bike_id":"4ed96fad-2e51-49a2-879d-e8c05ef80263","system_id":"levelo_inurba_marseille","lat":43.328371,"lon":5.366909,"is_reserved":false,"is_disabled":false,"rental_uris":{"android":"levelo://app?vid=4ed96fad-2e51-49a2-879d-e8c05ef80263","ios":"levelo://app?vid=4ed96fad-2e51-49a2-879d-e8c05ef80263"},"vehicle_type_id":"4","last_reported":1692309957,"current_range_meters":8800,"station_id":"ce4bhs92rcd13ifvqi0g","pricing_plan_id":"free"},{"bike_id":"54004dd5-a87c-4c2d-aec9-93cf55b6de7f","system_id":"levelo_inurba_marseille","lat":43.32829,"lon":5.36679,"is_reserved":false,"is_disabled":false,"rental_uris":{"android":"levelo://app?vid=54004dd5-a87c-4c2d-aec9-93cf55b6de7f","ios":"levelo://app?vid=54004dd5-a87c-4c2d-aec9-93cf55b6de7f"},"vehicle_type_id":"4","last_reported":1692309957,"current_range_meters":15200,"station_id":"ce4bhs92rcd13ifvqi0g","pricing_plan_id":"free"},{"bike_id":"5f8a6ca0-5dfe-4c06-929a-c1030bd48d99","system_id":"levelo_inurba_marseille","lat":43.32837,"lon":5.36683,"is_reserved":false,"is_disabled":false,"rental_uris":{"android":"levelo://app?vid=5f8a6ca0-5dfe-4c06-929a-c1030bd48d99","ios":"levelo://app?vid=5f8a6ca0-5dfe-4c06-929a-c1030bd48d99"},"vehicle_type_id":"4","last_reported":1692309957,"current_range_meters":8800,"station_id":"ce4bhs92rcd13ifvqi0g","pricing_plan_id":"free"},{"bike_id":"dd789220-e7b5-42c1-b9dc-dc4243148021","system_id":"levelo_inurba_marseille","lat":43.297163,"lon":5.365866,"is_reserved":false,"is_disabled":false,"rental_uris":{"android":"levelo://app?vid=dd789220-e7b5-42c1-b9dc-dc4243148021","ios":"levelo://app?vid=dd789220-e7b5-42c1-b9dc-dc4243148021"},"vehicle_type_id":"4","last_reported":1692309957,"current_range_meters":31200,"station_id":"ce4bgn12rcd13ifvqbt0","pricing_plan_id":"free"},{"bike_id":"29ff98ec-738a-432a-8f53-ebf226097b6f","system_id":"levelo_inurba_marseille","lat":43.29706,"lon":5.36615,"is_reserved":false,"is_disabled":false,"rental_uris":{"android":"levelo://app?vid=29ff98ec-738a-432a-8f53-ebf226097b6f","ios":"levelo://app?vid=29ff98ec-738a-432a-8f53-ebf226097b6f"},"vehicle_type_id":"4","last_reported":1692309957,"current_range_meters":0,"station_id":"ce4bgn12rcd13ifvqbt0","pricing_plan_id":"free"},{"bike_id":"bb155e93-116e-494a-9911-2df351c7dae8","system_id":"levelo_inurba_marseille","lat":43.296131,"lon":5.370791,"is_reserved":false,"is_disabled":false,"rental_uris":{"android":"levelo://app?vid=bb155e93-116e-494a-9911-2df351c7dae8","ios":"levelo://app?vid=bb155e93-116e-494a-9911-2df351c7dae8"},"vehicle_type_id":"4","last_reported":1692309957,"current_range_meters":29600,"station_id":"ce4bgnh2rcd13ifvqc0g","pricing_plan_id":"free"},{"bike_id":"d3139180-8ba9-4c91-b6e4-8baae3c22113","system_id":"levelo_inurba_marseille","lat":43.296131,"lon":5.370773,"is_reserved":false,"is_disabled":false,"rental_uris":{"android":"levelo://app?vid=d3139180-8ba9-4c91-b6e4-8baae3c22113","ios":"levelo://app?vid=d3139180-8ba9-4c91-b6e4-8baae3c22113"},"vehicle_type_id":"4","last_reported":1692309957,"current_range_meters":31200,"station_id":"ce4bgnh2rcd13ifvqc0g","pricing_plan_id":"free"},{"bike_id":"b9a855a0-d9d8-4782-943a-840cbcde0bb8","system_id":"levelo_inurba_marseille","lat":43.31752,"lon":5.39016,"is_reserved":false,"is_disabled":false,"rental_uris":{"android":"levelo://app?vid=b9a855a0-d9d8-4782-943a-840cbcde0bb8","ios":"levelo://app?vid=b9a855a0-d9d8-4782-943a-840cbcde0bb8"},"vehicle_type_id":"4","last_reported":1692309957,"current_range_meters":16400,"station_id":"ce4bhqp2rcd13ifvqhng","pricing_plan_id":"free"},{"bike_id":"9432fbfc-3a8c-45d4-9c00-953f792f4463","system_id":"levelo_inurba_marseille","lat":43.31758,"lon":5.39016,"is_reserved":false,"is_disabled":false,"rental_uris":{"android":"levelo://app?vid=9432fbfc-3a8c-45d4-9c00-953f792f4463","ios":"levelo://app?vid=9432fbfc-3a8c-45d4-9c00-953f792f4463"},"vehicle_type_id":"4","last_reported":1692309957,"current_range_meters":6400,"station_id":"ce4bhqp2rcd13ifvqhng","pricing_plan_id":"free"},{"bike_id":"b8e3dc40-fa36-45b0-be35-d03f25a28476","system_id":"levelo_inurba_marseille","lat":43.317557,"lon":5.390173,"is_reserved":false,"is_disabled":false,"rental_uris":{"android":"levelo://app?vid=b8e3dc40-fa36-45b0-be35-d03f25a28476","ios":"levelo://app?vid=b8e3dc40-fa36-45b0-be35-d03f25a28476"},"vehicle_type_id":"4","last_reported":1692309957,"current_range_meters":16800,"station_id":"ce4bhqp2rcd13ifvqhng","pricing_plan_id":"free"},{"bike_id":"1ff2de43-09ec-4d92-b75e-08b007be86b2","system_id":"levelo_inurba_marseille","lat":43.317557,"lon":5.390173,"is_reserved":false,"is_disabled":false,"rental_uris":{"android":"levelo://app?vid=1ff2de43-09ec-4d92-b75e-08b007be86b2","ios":"levelo://app?vid=1ff2de43-09ec-4d92-b75e-08b007be86b2"},"vehicle_type_id":"4","last_reported":1692309957,"current_range_meters":31200,"station_id":"ce4bhqp2rcd13ifvqhng","pricing_plan_id":"free"},{"bike_id":"45c20450-ce45-46cd-a697-a01c9c4b43e6","system_id":"levelo_inurba_marseille","lat":43.295748,"lon":5.37522,"is_reserved":false,"is_disabled":false,"rental_uris":{"android":"levelo://app?vid=45c20450-ce45-46cd-a697-a01c9c4b43e6","ios":"levelo://app?vid=45c20450-ce45-46cd-a697-a01c9c4b43e6"},"vehicle_type_id":"4","last_reported":1692309957,"current_range_meters":14800,"station_id":"ce4bgh92rcd13ifvqb50","pricing_plan_id":"free"},{"bike_id":"d72466b3-9753-4bc3-a0b0-acf8796ba326","system_id":"levelo_inurba_marseille","lat":43.304278,"lon":5.388868,"is_reserved":false,"is_disabled":false,"rental_uris":{"android":"levelo://app?vid=d72466b3-9753-4bc3-a0b0-acf8796ba326","ios":"levelo://app?vid=d72466b3-9753-4bc3-a0b0-acf8796ba326"},"vehicle_type_id":"4","last_reported":1692309957,"current_range_meters":28000,"station_id":"ce4bgk12rcd13ifvqbi0","pricing_plan_id":"free"},{"bike_id":"a4df99ce-0488-49dd-a888-94686f562e88","system_id":"levelo_inurba_marseille","lat":43.29569,"lon":5.37517,"is_reserved":false,"is_disabled":false,"rental_uris":{"android":"levelo://app?vid=a4df99ce-0488-49dd-a888-94686f562e88","ios":"levelo://app?vid=a4df99ce-0488-49dd-a888-94686f562e88"},"vehicle_type_id":"4","last_reported":1692309957,"current_range_meters":29200,"station_id":"ce4bgh92rcd13ifvqb50","pricing_plan_id":"free"},{"bike_id":"df198b03-bc53-48fa-ab38-b6eac4ace5ee","system_id":"levelo_inurba_marseille","lat":43.30432,"lon":5.38891,"is_reserved":false,"is_disabled":false,"rental_uris":{"android":"levelo://app?vid=df198b03-bc53-48fa-ab38-b6eac4ace5ee","ios":"levelo://app?vid=df198b03-bc53-48fa-ab38-b6eac4ace5ee"},"vehicle_type_id":"4","last_reported":1692309957,"current_range_meters":1200,"station_id":"ce4bgk12rcd13ifvqbi0","pricing_plan_id":"free"},{"bike_id":"e1727e66-30cf-4bf7-8661-85cdc61103da","system_id":"levelo_inurba_marseille","lat":43.30432,"lon":5.38891,"is_reserved":false,"is_disabled":false,"rental_uris":{"android":"levelo://app?vid=e1727e66-30cf-4bf7-8661-85cdc61103da","ios":"levelo://app?vid=e1727e66-30cf-4bf7-8661-85cdc61103da"},"vehicle_type_id":"4","last_reported":1692309957,"current_range_meters":26000,"station_id":"ce4bgk12rcd13ifvqbi0","pricing_plan_id":"free"},{"bike_id":"1c36667a-a771-4a02-964e-b56378d87d33","system_id":"levelo_inurba_marseille","lat":43.304274,"lon":5.388873,"is_reserved":false,"is_disabled":false,"rental_uris":{"android":"levelo://app?vid=1c36667a-a771-4a02-964e-b56378d87d33","ios":"levelo://app?vid=1c36667a-a771-4a02-964e-b56378d87d33"},"vehicle_type_id":"4","last_reported":1692309957,"current_range_meters":23600,"station_id":"ce4bgk12rcd13ifvqbi0","pricing_plan_id":"free"},{"bike_id":"fe2b13de-75c4-4e3c-a860-9d022c18d5e3","system_id":"levelo_inurba_marseille","lat":43.30435,"lon":5.38896,"is_reserved":false,"is_disabled":false,"rental_uris":{"android":"levelo://app?vid=fe2b13de-75c4-4e3c-a860-9d022c18d5e3","ios":"levelo://app?vid=fe2b13de-75c4-4e3c-a860-9d022c18d5e3"},"vehicle_type_id":"4","last_reported":1692309957,"current_range_meters":11600,"station_id":"ce4bgk12rcd13ifvqbi0","pricing_plan_id":"free"},{"bike_id":"0660b0d0-d7b0-4fed-89db-e81dafb03290","system_id":"levelo_inurba_marseille","lat":43.30421,"lon":5.38889,"is_reserved":false,"is_disabled":false,"rental_uris":{"android":"levelo://app?vid=0660b0d0-d7b0-4fed-89db-e81dafb03290","ios":"levelo://app?vid=0660b0d0-d7b0-4fed-89db-e81dafb03290"},"vehicle_type_id":"4","last_reported":1692309957,"current_range_meters":5600,"station_id":"ce4bgk12rcd13ifvqbi0","pricing_plan_id":"free"},{"bike_id":"2d7610d9-7695-4c95-b246-458910fe96d9","system_id":"levelo_inurba_marseille","lat":43.304278,"lon":5.388868,"is_reserved":false,"is_disabled":false,"rental_uris":{"android":"levelo://app?vid=2d7610d9-7695-4c95-b246-458910fe96d9","ios":"levelo://app?vid=2d7610d9-7695-4c95-b246-458910fe96d9"},"vehicle_type_id":"4","last_reported":1692309957,"current_range_meters":18800,"station_id":"ce4bgk12rcd13ifvqbi0","pricing_plan_id":"free"},{"bike_id":"4b93cf39-7460-4073-9cd6-92884ff803cd","system_id":"levelo_inurba_marseille","lat":43.3043,"lon":5.38897,"is_reserved":false,"is_disabled":false,"rental_uris":{"android":"levelo://app?vid=4b93cf39-7460-4073-9cd6-92884ff803cd","ios":"levelo://app?vid=4b93cf39-7460-4073-9cd6-92884ff803cd"},"vehicle_type_id":"4","last_reported":1692309957,"current_range_meters":0,"station_id":"ce4bgk12rcd13ifvqbi0","pricing_plan_id":"free"},{"bike_id":"17b728c2-d07b-49fa-84e9-10f8747f27f4","system_id":"levelo_inurba_marseille","lat":43.30427,"lon":5.38895,"is_reserved":false,"is_disabled":false,"rental_uris":{"android":"levelo://app?vid=17b728c2-d07b-49fa-84e9-10f8747f27f4","ios":"levelo://app?vid=17b728c2-d07b-49fa-84e9-10f8747f27f4"},"vehicle_type_id":"4","last_reported":1692309957,"current_range_meters":1600,"station_id":"ce4bgk12rcd13ifvqbi0","pricing_plan_id":"free"},{"bike_id":"92397e3f-0a52-4a8e-95a7-c68ac4d0544b","system_id":"levelo_inurba_marseille","lat":43.30434,"lon":5.38901,"is_reserved":false,"is_disabled":false,"rental_uris":{"android":"levelo://app?vid=92397e3f-0a52-4a8e-95a7-c68ac4d0544b","ios":"levelo://app?vid=92397e3f-0a52-4a8e-95a7-c68ac4d0544b"},"vehicle_type_id":"4","last_reported":1692309957,"current_range_meters":3200,"station_id":"ce4bgk12rcd13ifvqbi0","pricing_plan_id":"free"},{"bike_id":"b861e12c-d0a9-4a88-ae41-b69134dda3e2","system_id":"levelo_inurba_marseille","lat":43.299707,"lon":5.384859,"is_reserved":false,"is_disabled":false,"rental_uris":{"android":"levelo://app?vid=b861e12c-d0a9-4a88-ae41-b69134dda3e2","ios":"levelo://app?vid=b861e12c-d0a9-4a88-ae41-b69134dda3e2"},"vehicle_type_id":"4","last_reported":1692309957,"current_range_meters":2400,"station_id":"ce4bgj92rcd13ifvqbd0","pricing_plan_id":"free"},{"bike_id":"41211202-068a-447a-a6f2-53fd34d5e66b","system_id":"levelo_inurba_marseille","lat":43.3011,"lon":5.38763,"is_reserved":false,"is_disabled":false,"rental_uris":{"android":"levelo://app?vid=41211202-068a-447a-a6f2-53fd34d5e66b","ios":"levelo://app?vid=41211202-068a-447a-a6f2-53fd34d5e66b"},"vehicle_type_id":"4","last_reported":1692309957,"current_range_meters":2000,"station_id":"","pricing_plan_id":"free"},{"bike_id":"450b6384-3b45-4695-a86b-848539f6da31","system_id":"levelo_inurba_marseille","lat":43.32362,"lon":5.3888,"is_reserved":false,"is_disabled":false,"rental_uris":{"android":"levelo://app?vid=450b6384-3b45-4695-a86b-848539f6da31","ios":"levelo://app?vid=450b6384-3b45-4695-a86b-848539f6da31"},"vehicle_type_id":"4","last_reported":1692309957,"current_range_meters":17200,"station_id":"ce4bhqp2rcd13ifvqhog","pricing_plan_id":"free"},{"bike_id":"32a579f4-a77e-4089-9137-3fc22c8afa17","system_id":"levelo_inurba_marseille","lat":43.323636,"lon":5.388792,"is_reserved":false,"is_disabled":false,"rental_uris":{"android":"levelo://app?vid=32a579f4-a77e-4089-9137-3fc22c8afa17","ios":"levelo://app?vid=32a579f4-a77e-4089-9137-3fc22c8afa17"},"vehicle_type_id":"4","last_reported":1692309957,"current_range_meters":24800,"station_id":"ce4bhqp2rcd13ifvqhog","pricing_plan_id":"free"},{"bike_id":"1b5c2691-bd33-46db-b85d-232fc0684773","system_id":"levelo_inurba_marseille","lat":43.323647,"lon":5.38879,"is_reserved":false,"is_disabled":false,"rental_uris":{"android":"levelo://app?vid=1b5c2691-bd33-46db-b85d-232fc0684773","ios":"levelo://app?vid=1b5c2691-bd33-46db-b85d-232fc0684773"},"vehicle_type_id":"4","last_reported":1692309957,"current_range_meters":26400,"station_id":"ce4bhqp2rcd13ifvqhog","pricing_plan_id":"free"},{"bike_id":"493070c9-f70b-4b47-b30c-92320f3520ef","system_id":"levelo_inurba_marseille","lat":43.32367,"lon":5.388774,"is_reserved":false,"is_disabled":false,"rental_uris":{"android":"levelo://app?vid=493070c9-f70b-4b47-b30c-92320f3520ef","ios":"levelo://app?vid=493070c9-f70b-4b47-b30c-92320f3520ef"},"vehicle_type_id":"4","last_reported":1692309957,"current_range_meters":31200,"station_id":"ce4bhqp2rcd13ifvqhog","pricing_plan_id":"free"},{"bike_id":"63396931-3c86-400b-9cfa-e42c81141461","system_id":"levelo_inurba_marseille","lat":43.3236,"lon":5.38885,"is_reserved":false,"is_disabled":false,"rental_uris":{"android":"levelo://app?vid=63396931-3c86-400b-9cfa-e42c81141461","ios":"levelo://app?vid=63396931-3c86-400b-9cfa-e42c81141461"},"vehicle_type_id":"4","last_reported":1692309957,"current_range_meters":18000,"station_id":"ce4bhqp2rcd13ifvqhog","pricing_plan_id":"free"},{"bike_id":"b8b09e11-edb3-4d3e-80b3-1d2534dcc898","system_id":"levelo_inurba_marseille","lat":43.32363,"lon":5.38884,"is_reserved":false,"is_disabled":false,"rental_uris":{"android":"levelo://app?vid=b8b09e11-edb3-4d3e-80b3-1d2534dcc898","ios":"levelo://app?vid=b8b09e11-edb3-4d3e-80b3-1d2534dcc898"},"vehicle_type_id":"4","last_reported":1692309957,"current_range_meters":18000,"station_id":"ce4bhqp2rcd13ifvqhog","pricing_plan_id":"free"},{"bike_id":"55f08f4d-333e-4077-9882-16e72e12ddbf","system_id":"levelo_inurba_marseille","lat":43.323668,"lon":5.388809,"is_reserved":false,"is_disabled":false,"rental_uris":{"android":"levelo://app?vid=55f08f4d-333e-4077-9882-16e72e12ddbf","ios":"levelo://app?vid=55f08f4d-333e-4077-9882-16e72e12ddbf"},"vehicle_type_id":"4","last_reported":1692309957,"current_range_meters":13200,"station_id":"ce4bhqp2rcd13ifvqhog","pricing_plan_id":"free"},{"bike_id":"2dc3c59b-aa02-4492-ae74-e71f3960d573","system_id":"levelo_inurba_marseille","lat":43.323668,"lon":5.388815,"is_reserved":false,"is_disabled":false,"rental_uris":{"android":"levelo://app?vid=2dc3c59b-aa02-4492-ae74-e71f3960d573","ios":"levelo://app?vid=2dc3c59b-aa02-4492-ae74-e71f3960d573"},"vehicle_type_id":"4","last_reported":1692309957,"current_range_meters":12400,"station_id":"ce4bhqp2rcd13ifvqhog","pricing_plan_id":"free"},{"bike_id":"5deca036-ea7a-461b-9966-cca000531f2a","system_id":"levelo_inurba_marseille","lat":43.323687,"lon":5.388805,"is_reserved":false,"is_disabled":false,"rental_uris":{"android":"levelo://app?vid=5deca036-ea7a-461b-9966-cca000531f2a","ios":"levelo://app?vid=5deca036-ea7a-461b-9966-cca000531f2a"},"vehicle_type_id":"4","last_reported":1692309957,"current_range_meters":23600,"station_id":"ce4bhqp2rcd13ifvqhog","pricing_plan_id":"free"},{"bike_id":"517b8a15-bd07-4c15-a2b2-2beade6f46d2","system_id":"levelo_inurba_marseille","lat":43.32363,"lon":5.38886,"is_reserved":false,"is_disabled":false,"rental_uris":{"android":"levelo://app?vid=517b8a15-bd07-4c15-a2b2-2beade6f46d2","ios":"levelo://app?vid=517b8a15-bd07-4c15-a2b2-2beade6f46d2"},"vehicle_type_id":"4","last_reported":1692309957,"current_range_meters":31200,"station_id":"ce4bhqp2rcd13ifvqhog","pricing_plan_id":"free"},{"bike_id":"111350f1-3818-488b-b79c-5d6b1f163a54","system_id":"levelo_inurba_marseille","lat":43.323679,"lon":5.388816,"is_reserved":false,"is_disabled":false,"rental_uris":{"android":"levelo://app?vid=111350f1-3818-488b-b79c-5d6b1f163a54","ios":"levelo://app?vid=111350f1-3818-488b-b79c-5d6b1f163a54"},"vehicle_type_id":"4","last_reported":1692309957,"current_range_meters":31200,"station_id":"ce4bhqp2rcd13ifvqhog","pricing_plan_id":"free"},{"bike_id":"e8a2f707-9e36-4fc5-bdc2-8422932ebc78","system_id":"levelo_inurba_marseille","lat":43.323687,"lon":5.388818,"is_reserved":false,"is_disabled":false,"rental_uris":{"android":"levelo://app?vid=e8a2f707-9e36-4fc5-bdc2-8422932ebc78","ios":"levelo://app?vid=e8a2f707-9e36-4fc5-bdc2-8422932ebc78"},"vehicle_type_id":"4","last_reported":1692309957,"current_range_meters":31200,"station_id":"ce4bhqp2rcd13ifvqhog","pricing_plan_id":"free"},{"bike_id":"810e5c4e-cfbd-4fb4-b6d8-02289cde4c80","system_id":"levelo_inurba_marseille","lat":43.32367,"lon":5.388836,"is_reserved":false,"is_disabled":false,"rental_uris":{"android":"levelo://app?vid=810e5c4e-cfbd-4fb4-b6d8-02289cde4c80","ios":"levelo://app?vid=810e5c4e-cfbd-4fb4-b6d8-02289cde4c80"},"vehicle_type_id":"4","last_reported":1692309957,"current_range_meters":20800,"station_id":"ce4bhqp2rcd13ifvqhog","pricing_plan_id":"free"},{"bike_id":"cbffe489-c68c-4e68-b63d-cbf52cd3cc48","system_id":"levelo_inurba_marseille","lat":43.323685,"lon":5.388826,"is_reserved":false,"is_disabled":false,"rental_uris":{"android":"levelo://app?vid=cbffe489-c68c-4e68-b63d-cbf52cd3cc48","ios":"levelo://app?vid=cbffe489-c68c-4e68-b63d-cbf52cd3cc48"},"vehicle_type_id":"4","last_reported":1692309957,"current_range_meters":28800,"station_id":"ce4bhqp2rcd13ifvqhog","pricing_plan_id":"free"},{"bike_id":"6b6cba89-d2b8-44bb-8454-5df08cf65f67","system_id":"levelo_inurba_marseille","lat":43.32367,"lon":5.388836,"is_reserved":false,"is_disabled":false,"rental_uris":{"android":"levelo://app?vid=6b6cba89-d2b8-44bb-8454-5df08cf65f67","ios":"levelo://app?vid=6b6cba89-d2b8-44bb-8454-5df08cf65f67"},"vehicle_type_id":"4","last_reported":1692309957,"current_range_meters":21200,"station_id":"ce4bhqp2rcd13ifvqhog","pricing_plan_id":"free"},{"bike_id":"4314cd19-09e7-4af1-900a-88512d095e20","system_id":"levelo_inurba_marseille","lat":43.32374,"lon":5.38899,"is_reserved":false,"is_disabled":false,"rental_uris":{"android":"levelo://app?vid=4314cd19-09e7-4af1-900a-88512d095e20","ios":"levelo://app?vid=4314cd19-09e7-4af1-900a-88512d095e20"},"vehicle_type_id":"4","last_reported":1692309957,"current_range_meters":16000,"station_id":"ce4bhqp2rcd13ifvqhog","pricing_plan_id":"free"},{"bike_id":"8aa73f31-2d28-450a-abbf-504103df15ca","system_id":"levelo_inurba_marseille","lat":43.29601,"lon":5.381084,"is_reserved":false,"is_disabled":false,"rental_uris":{"android":"levelo://app?vid=8aa73f31-2d28-450a-abbf-504103df15ca","ios":"levelo://app?vid=8aa73f31-2d28-450a-abbf-504103df15ca"},"vehicle_type_id":"4","last_reported":1692309957,"current_range_meters":17200,"station_id":"ce4bgl12rcd13ifvqbo0","pricing_plan_id":"free"},{"bike_id":"a0e7265e-1714-42e0-bdbd-d661f0db1b1a","system_id":"levelo_inurba_marseille","lat":43.29308,"lon":5.37174,"is_reserved":false,"is_disabled":false,"rental_uris":{"android":"levelo://app?vid=a0e7265e-1714-42e0-bdbd-d661f0db1b1a","ios":"levelo://app?vid=a0e7265e-1714-42e0-bdbd-d661f0db1b1a"},"vehicle_type_id":"4","last_reported":1692309957,"current_range_meters":5200,"station_id":"ce4bgh92rcd13ifvqb40","pricing_plan_id":"free"},{"bike_id":"f621c868-243a-401c-819a-88632a6fcb94","system_id":"levelo_inurba_marseille","lat":43.29307,"lon":5.37183,"is_reserved":false,"is_disabled":false,"rental_uris":{"android":"levelo://app?vid=f621c868-243a-401c-819a-88632a6fcb94","ios":"levelo://app?vid=f621c868-243a-401c-819a-88632a6fcb94"},"vehicle_type_id":"4","last_reported":1692309957,"current_range_meters":14800,"station_id":"ce4bgh92rcd13ifvqb40","pricing_plan_id":"free"},{"bike_id":"43ba1918-9ad5-43a0-8663-e42e731728db","system_id":"levelo_inurba_marseille","lat":43.293009,"lon":5.374584,"is_reserved":false,"is_disabled":false,"rental_uris":{"android":"levelo://app?vid=43ba1918-9ad5-43a0-8663-e42e731728db","ios":"levelo://app?vid=43ba1918-9ad5-43a0-8663-e42e731728db"},"vehicle_type_id":"4","last_reported":1692309957,"current_range_meters":0,"station_id":"ce4bgi12rcd13ifvqb70","pricing_plan_id":"free"},{"bike_id":"268be607-a238-463e-b4aa-8ed70769c32d","system_id":"levelo_inurba_marseille","lat":43.305994,"lon":5.393687,"is_reserved":false,"is_disabled":false,"rental_uris":{"android":"levelo://app?vid=268be607-a238-463e-b4aa-8ed70769c32d","ios":"levelo://app?vid=268be607-a238-463e-b4aa-8ed70769c32d"},"vehicle_type_id":"4","last_reported":1692309957,"current_range_meters":14000,"station_id":"ce4bh0p2rcd13ifvqd80","pricing_plan_id":"free"},{"bike_id":"38fef587-7cc5-4800-b069-87b8f296a10a","system_id":"levelo_inurba_marseille","lat":43.293009,"lon":5.374584,"is_reserved":false,"is_disabled":false,"rental_uris":{"android":"levelo://app?vid=38fef587-7cc5-4800-b069-87b8f296a10a","ios":"levelo://app?vid=38fef587-7cc5-4800-b069-87b8f296a10a"},"vehicle_type_id":"4","last_reported":1692309957,"current_range_meters":31200,"station_id":"ce4bgi12rcd13ifvqb70","pricing_plan_id":"free"},{"bike_id":"5e9fe6d4-41d6-4e63-8bd6-d742c269030f","system_id":"levelo_inurba_marseille","lat":43.303002,"lon":5.392142,"is_reserved":false,"is_disabled":false,"rental_uris":{"android":"levelo://app?vid=5e9fe6d4-41d6-4e63-8bd6-d742c269030f","ios":"levelo://app?vid=5e9fe6d4-41d6-4e63-8bd6-d742c269030f"},"vehicle_type_id":"4","last_reported":1692309957,"current_range_meters":0,"station_id":"ce4bgkh2rcd13ifvqbk0","pricing_plan_id":"free"},{"bike_id":"4c1e1559-6aea-4cac-9bd3-e5e52d1e6610","system_id":"levelo_inurba_marseille","lat":43.300852,"lon":5.390859,"is_reserved":false,"is_disabled":false,"rental_uris":{"android":"levelo://app?vid=4c1e1559-6aea-4cac-9bd3-e5e52d1e6610","ios":"levelo://app?vid=4c1e1559-6aea-4cac-9bd3-e5e52d1e6610"},"vehicle_type_id":"4","last_reported":1692309957,"current_range_meters":5600,"station_id":"ce4bh192rcd13ifvqdb0","pricing_plan_id":"free"},{"bike_id":"bc5e6ab4-d112-4db3-9638-d135be850a73","system_id":"levelo_inurba_marseille","lat":43.300852,"lon":5.390859,"is_reserved":false,"is_disabled":false,"rental_uris":{"android":"levelo://app?vid=bc5e6ab4-d112-4db3-9638-d135be850a73","ios":"levelo://app?vid=bc5e6ab4-d112-4db3-9638-d135be850a73"},"vehicle_type_id":"4","last_reported":1692309957,"current_range_meters":26000,"station_id":"ce4bh192rcd13ifvqdb0","pricing_plan_id":"free"},{"bike_id":"5f68a5dd-0871-455e-a4bb-d7ff4c1a8150","system_id":"levelo_inurba_marseille","lat":43.30088,"lon":5.39077,"is_reserved":false,"is_disabled":false,"rental_uris":{"android":"levelo://app?vid=5f68a5dd-0871-455e-a4bb-d7ff4c1a8150","ios":"levelo://app?vid=5f68a5dd-0871-455e-a4bb-d7ff4c1a8150"},"vehicle_type_id":"4","last_reported":1692309957,"current_range_meters":19200,"station_id":"ce4bh192rcd13ifvqdb0","pricing_plan_id":"free"},{"bike_id":"eaa81a31-5c12-4214-8fd0-3d17367c729a","system_id":"levelo_inurba_marseille","lat":43.300852,"lon":5.390859,"is_reserved":false,"is_disabled":false,"rental_uris":{"android":"levelo://app?vid=eaa81a31-5c12-4214-8fd0-3d17367c729a","ios":"levelo://app?vid=eaa81a31-5c12-4214-8fd0-3d17367c729a"},"vehicle_type_id":"4","last_reported":1692309957,"current_range_meters":19200,"station_id":"ce4bh192rcd13ifvqdb0","pricing_plan_id":"free"},{"bike_id":"a71a3376-e60f-4428-86cf-3b51584dcd3b","system_id":"levelo_inurba_marseille","lat":43.300852,"lon":5.390859,"is_reserved":false,"is_disabled":false,"rental_uris":{"android":"levelo://app?vid=a71a3376-e60f-4428-86cf-3b51584dcd3b","ios":"levelo://app?vid=a71a3376-e60f-4428-86cf-3b51584dcd3b"},"vehicle_type_id":"4","last_reported":1692309957,"current_range_meters":22400,"station_id":"ce4bh192rcd13ifvqdb0","pricing_plan_id":"free"},{"bike_id":"d9147990-2873-499a-a648-fe8d95eaf4f0","system_id":"levelo_inurba_marseille","lat":43.30085,"lon":5.390856,"is_reserved":false,"is_disabled":false,"rental_uris":{"android":"levelo://app?vid=d9147990-2873-499a-a648-fe8d95eaf4f0","ios":"levelo://app?vid=d9147990-2873-499a-a648-fe8d95eaf4f0"},"vehicle_type_id":"4","last_reported":1692309957,"current_range_meters":17200,"station_id":"ce4bh192rcd13ifvqdb0","pricing_plan_id":"free"},{"bike_id":"3dff3293-1fad-49ac-a4be-5d1fd9ac95af","system_id":"levelo_inurba_marseille","lat":43.298764,"lon":5.388973,"is_reserved":false,"is_disabled":false,"rental_uris":{"android":"levelo://app?vid=3dff3293-1fad-49ac-a4be-5d1fd9ac95af","ios":"levelo://app?vid=3dff3293-1fad-49ac-a4be-5d1fd9ac95af"},"vehicle_type_id":"4","last_reported":1692309957,"current_range_meters":13600,"station_id":"ce4bh392rcd13ifvqdl0","pricing_plan_id":"free"},{"bike_id":"533a5643-fd3c-433d-bf87-fdfb7276380e","system_id":"levelo_inurba_marseille","lat":43.291675,"lon":5.371583,"is_reserved":false,"is_disabled":false,"rental_uris":{"android":"levelo://app?vid=533a5643-fd3c-433d-bf87-fdfb7276380e","ios":"levelo://app?vid=533a5643-fd3c-433d-bf87-fdfb7276380e"},"vehicle_type_id":"4","last_reported":1692309957,"current_range_meters":21200,"station_id":"ce4bha92rcd13ifvqeh0","pricing_plan_id":"free"},{"bike_id":"11221b48-cc8f-43f7-a156-fd927e0a5f20","system_id":"levelo_inurba_marseille","lat":43.31328,"lon":5.39697,"is_reserved":false,"is_disabled":false,"rental_uris":{"android":"levelo://app?vid=11221b48-cc8f-43f7-a156-fd927e0a5f20","ios":"levelo://app?vid=11221b48-cc8f-43f7-a156-fd927e0a5f20"},"vehicle_type_id":"4","last_reported":1692309957,"current_range_meters":12800,"station_id":"ce4bgvp2rcd13ifvqcu0","pricing_plan_id":"free"},{"bike_id":"62c2fb47-9d59-41a1-9798-a36ccfd93642","system_id":"levelo_inurba_marseille","lat":43.30878,"lon":5.3965,"is_reserved":false,"is_disabled":false,"rental_uris":{"android":"levelo://app?vid=62c2fb47-9d59-41a1-9798-a36ccfd93642","ios":"levelo://app?vid=62c2fb47-9d59-41a1-9798-a36ccfd93642"},"vehicle_type_id":"4","last_reported":1692309957,"current_range_meters":9600,"station_id":"ce4bh012rcd13ifvqcv0","pricing_plan_id":"free"},{"bike_id":"94301f5d-3988-489d-83b2-966725b83228","system_id":"levelo_inurba_marseille","lat":43.29529,"lon":5.385581,"is_reserved":false,"is_disabled":false,"rental_uris":{"android":"levelo://app?vid=94301f5d-3988-489d-83b2-966725b83228","ios":"levelo://app?vid=94301f5d-3988-489d-83b2-966725b83228"},"vehicle_type_id":"4","last_reported":1692309957,"current_range_meters":4400,"station_id":"ce4bgih2rcd13ifvqba0","pricing_plan_id":"free"},{"bike_id":"c3a7bcad-d491-42e3-9917-16bec7d2c65b","system_id":"levelo_inurba_marseille","lat":43.309038,"lon":5.396546,"is_reserved":false,"is_disabled":false,"rental_uris":{"android":"levelo://app?vid=c3a7bcad-d491-42e3-9917-16bec7d2c65b","ios":"levelo://app?vid=c3a7bcad-d491-42e3-9917-16bec7d2c65b"},"vehicle_type_id":"4","last_reported":1692309957,"current_range_meters":2000,"station_id":"ce4bh012rcd13ifvqcv0","pricing_plan_id":"free"},{"bike_id":"86096ce3-456a-4129-aa29-bde4befc6200","system_id":"levelo_inurba_marseille","lat":43.29529,"lon":5.385581,"is_reserved":false,"is_disabled":false,"rental_uris":{"android":"levelo://app?vid=86096ce3-456a-4129-aa29-bde4befc6200","ios":"levelo://app?vid=86096ce3-456a-4129-aa29-bde4befc6200"},"vehicle_type_id":"4","last_reported":1692309957,"current_range_meters":14800,"station_id":"ce4bgih2rcd13ifvqba0","pricing_plan_id":"free"},{"bike_id":"99883748-006e-4b79-b052-be9048a3365a","system_id":"levelo_inurba_marseille","lat":43.29529,"lon":5.385581,"is_reserved":false,"is_disabled":false,"rental_uris":{"android":"levelo://app?vid=99883748-006e-4b79-b052-be9048a3365a","ios":"levelo://app?vid=99883748-006e-4b79-b052-be9048a3365a"},"vehicle_type_id":"4","last_reported":1692309957,"current_range_meters":15200,"station_id":"ce4bgih2rcd13ifvqba0","pricing_plan_id":"free"},{"bike_id":"f788df1d-0f88-42ce-978f-4b492dbad3a1","system_id":"levelo_inurba_marseille","lat":43.290779,"lon":5.371482,"is_reserved":false,"is_disabled":false,"rental_uris":{"android":"levelo://app?vid=f788df1d-0f88-42ce-978f-4b492dbad3a1","ios":"levelo://app?vid=f788df1d-0f88-42ce-978f-4b492dbad3a1"},"vehicle_type_id":"4","last_reported":1692309957,"current_range_meters":23200,"station_id":"ce4bh5p2rcd13ifvqe4g","pricing_plan_id":"free"},{"bike_id":"6abd1c3d-6093-4bca-8256-5cdc3b572e00","system_id":"levelo_inurba_marseille","lat":43.290779,"lon":5.371482,"is_reserved":false,"is_disabled":false,"rental_uris":{"android":"levelo://app?vid=6abd1c3d-6093-4bca-8256-5cdc3b572e00","ios":"levelo://app?vid=6abd1c3d-6093-4bca-8256-5cdc3b572e00"},"vehicle_type_id":"4","last_reported":1692309957,"current_range_meters":3200,"station_id":"ce4bh5p2rcd13ifvqe4g","pricing_plan_id":"free"},{"bike_id":"a23e3d0f-bef5-40fd-a3d7-46f5923aaf3a","system_id":"levelo_inurba_marseille","lat":43.302008,"lon":5.394694,"is_reserved":false,"is_disabled":false,"rental_uris":{"android":"levelo://app?vid=a23e3d0f-bef5-40fd-a3d7-46f5923aaf3a","ios":"levelo://app?vid=a23e3d0f-bef5-40fd-a3d7-46f5923aaf3a"},"vehicle_type_id":"4","last_reported":1692309957,"current_range_meters":18400,"station_id":"ce4bh0p2rcd13ifvqd70","pricing_plan_id":"free"},{"bike_id":"ba2a0dcc-78b3-4b3c-8c46-01080871d6d9","system_id":"levelo_inurba_marseille","lat":43.302008,"lon":5.394694,"is_reserved":false,"is_disabled":false,"rental_uris":{"android":"levelo://app?vid=ba2a0dcc-78b3-4b3c-8c46-01080871d6d9","ios":"levelo://app?vid=ba2a0dcc-78b3-4b3c-8c46-01080871d6d9"},"vehicle_type_id":"4","last_reported":1692309957,"current_range_meters":5600,"station_id":"ce4bh0p2rcd13ifvqd70","pricing_plan_id":"free"},{"bike_id":"d9058357-e610-413f-9eb8-b8ca5750c8c5","system_id":"levelo_inurba_marseille","lat":43.302008,"lon":5.394694,"is_reserved":false,"is_disabled":false,"rental_uris":{"android":"levelo://app?vid=d9058357-e610-413f-9eb8-b8ca5750c8c5","ios":"levelo://app?vid=d9058357-e610-413f-9eb8-b8ca5750c8c5"},"vehicle_type_id":"4","last_reported":1692309957,"current_range_meters":16400,"station_id":"ce4bh0p2rcd13ifvqd70","pricing_plan_id":"free"},{"bike_id":"49425054-5b43-4481-bfd2-f39f39d1dfa7","system_id":"levelo_inurba_marseille","lat":43.302008,"lon":5.394694,"is_reserved":false,"is_disabled":false,"rental_uris":{"android":"levelo://app?vid=49425054-5b43-4481-bfd2-f39f39d1dfa7","ios":"levelo://app?vid=49425054-5b43-4481-bfd2-f39f39d1dfa7"},"vehicle_type_id":"4","last_reported":1692309957,"current_range_meters":31200,"station_id":"ce4bh0p2rcd13ifvqd70","pricing_plan_id":"free"},{"bike_id":"a62fdb47-847f-4dbf-8e86-fceae0951adc","system_id":"levelo_inurba_marseille","lat":43.290631,"lon":5.359244,"is_reserved":false,"is_disabled":false,"rental_uris":{"android":"levelo://app?vid=a62fdb47-847f-4dbf-8e86-fceae0951adc","ios":"levelo://app?vid=a62fdb47-847f-4dbf-8e86-fceae0951adc"},"vehicle_type_id":"4","last_reported":1692309957,"current_range_meters":22400,"station_id":"ce4bha92rcd13ifvqeg0","pricing_plan_id":"free"},{"bike_id":"9261109e-6d48-4f3b-bc9b-cd4a818cf6c7","system_id":"levelo_inurba_marseille","lat":43.29412,"lon":5.38628,"is_reserved":false,"is_disabled":false,"rental_uris":{"android":"levelo://app?vid=9261109e-6d48-4f3b-bc9b-cd4a818cf6c7","ios":"levelo://app?vid=9261109e-6d48-4f3b-bc9b-cd4a818cf6c7"},"vehicle_type_id":"4","last_reported":1692309957,"current_range_meters":31200,"station_id":"ce4bh2h2rcd13ifvqdh0","pricing_plan_id":"free"},{"bike_id":"386ba929-d66d-44f2-b645-adfbb6f024b0","system_id":"levelo_inurba_marseille","lat":43.289321,"lon":5.366502,"is_reserved":false,"is_disabled":false,"rental_uris":{"android":"levelo://app?vid=386ba929-d66d-44f2-b645-adfbb6f024b0","ios":"levelo://app?vid=386ba929-d66d-44f2-b645-adfbb6f024b0"},"vehicle_type_id":"4","last_reported":1692309957,"current_range_meters":8000,"station_id":"ce4bhap2rcd13ifvqek0","pricing_plan_id":"free"},{"bike_id":"e17c71d4-fc9a-4ba6-a1eb-e9daef1ac72f","system_id":"levelo_inurba_marseille","lat":43.33039,"lon":5.3892,"is_reserved":false,"is_disabled":false,"rental_uris":{"android":"levelo://app?vid=e17c71d4-fc9a-4ba6-a1eb-e9daef1ac72f","ios":"levelo://app?vid=e17c71d4-fc9a-4ba6-a1eb-e9daef1ac72f"},"vehicle_type_id":"4","last_reported":1692309957,"current_range_meters":400,"station_id":"ce4bhr92rcd13ifvqhrg","pricing_plan_id":"free"},{"bike_id":"d4ad8918-8ab6-4278-b772-6948b5c39e1d","system_id":"levelo_inurba_marseille","lat":43.330442,"lon":5.389148,"is_reserved":false,"is_disabled":false,"rental_uris":{"android":"levelo://app?vid=d4ad8918-8ab6-4278-b772-6948b5c39e1d","ios":"levelo://app?vid=d4ad8918-8ab6-4278-b772-6948b5c39e1d"},"vehicle_type_id":"4","last_reported":1692309957,"current_range_meters":15200,"station_id":"ce4bhr92rcd13ifvqhrg","pricing_plan_id":"free"},{"bike_id":"ee6169e7-305c-48b3-9bc0-ac90e4868c39","system_id":"levelo_inurba_marseille","lat":43.330412,"lon":5.389175,"is_reserved":false,"is_disabled":false,"rental_uris":{"android":"levelo://app?vid=ee6169e7-305c-48b3-9bc0-ac90e4868c39","ios":"levelo://app?vid=ee6169e7-305c-48b3-9bc0-ac90e4868c39"},"vehicle_type_id":"4","last_reported":1692309957,"current_range_meters":20000,"station_id":"ce4bhr92rcd13ifvqhrg","pricing_plan_id":"free"},{"bike_id":"859ece1b-eaf2-4429-915d-1d151e169e7f","system_id":"levelo_inurba_marseille","lat":43.33039,"lon":5.38921,"is_reserved":false,"is_disabled":false,"rental_uris":{"android":"levelo://app?vid=859ece1b-eaf2-4429-915d-1d151e169e7f","ios":"levelo://app?vid=859ece1b-eaf2-4429-915d-1d151e169e7f"},"vehicle_type_id":"4","last_reported":1692309957,"current_range_meters":12800,"station_id":"ce4bhr92rcd13ifvqhrg","pricing_plan_id":"free"},{"bike_id":"70bf8ae7-a3d1-4160-b88a-65d31f2b1cbc","system_id":"levelo_inurba_marseille","lat":43.33043,"lon":5.38918,"is_reserved":false,"is_disabled":false,"rental_uris":{"android":"levelo://app?vid=70bf8ae7-a3d1-4160-b88a-65d31f2b1cbc","ios":"levelo://app?vid=70bf8ae7-a3d1-4160-b88a-65d31f2b1cbc"},"vehicle_type_id":"4","last_reported":1692309957,"current_range_meters":13600,"station_id":"ce4bhr92rcd13ifvqhrg","pricing_plan_id":"free"},{"bike_id":"2b80de14-59ed-4cf4-8f77-c1ce738a7471","system_id":"levelo_inurba_marseille","lat":43.33043,"lon":5.38918,"is_reserved":false,"is_disabled":false,"rental_uris":{"android":"levelo://app?vid=2b80de14-59ed-4cf4-8f77-c1ce738a7471","ios":"levelo://app?vid=2b80de14-59ed-4cf4-8f77-c1ce738a7471"},"vehicle_type_id":"4","last_reported":1692309957,"current_range_meters":2000,"station_id":"ce4bhr92rcd13ifvqhrg","pricing_plan_id":"free"},{"bike_id":"78f1a325-e5b4-4a72-bb0e-b29d3285ba24","system_id":"levelo_inurba_marseille","lat":43.28995,"lon":5.35609,"is_reserved":false,"is_disabled":false,"rental_uris":{"android":"levelo://app?vid=78f1a325-e5b4-4a72-bb0e-b29d3285ba24","ios":"levelo://app?vid=78f1a325-e5b4-4a72-bb0e-b29d3285ba24"},"vehicle_type_id":"4","last_reported":1692309957,"current_range_meters":30400,"station_id":"ce4bhb92rcd13ifvqen0","pricing_plan_id":"free"},{"bike_id":"90a5e305-db28-43d3-8afd-eee42a71bcee","system_id":"levelo_inurba_marseille","lat":43.295169,"lon":5.390426,"is_reserved":false,"is_disabled":false,"rental_uris":{"android":"levelo://app?vid=90a5e305-db28-43d3-8afd-eee42a71bcee","ios":"levelo://app?vid=90a5e305-db28-43d3-8afd-eee42a71bcee"},"vehicle_type_id":"4","last_reported":1692309957,"current_range_meters":1200,"station_id":"ce4bh3p2rcd13ifvqdp0","pricing_plan_id":"free"},{"bike_id":"257eb7e6-ec63-452c-8595-abaf282eaf06","system_id":"levelo_inurba_marseille","lat":43.29791,"lon":5.39344,"is_reserved":false,"is_disabled":false,"rental_uris":{"android":"levelo://app?vid=257eb7e6-ec63-452c-8595-abaf282eaf06","ios":"levelo://app?vid=257eb7e6-ec63-452c-8595-abaf282eaf06"},"vehicle_type_id":"4","last_reported":1692309957,"current_range_meters":26800,"station_id":"chh1huq6cuj3fo74tm60","pricing_plan_id":"free"},{"bike_id":"23fc2263-2c00-4782-8bbe-1bb303b66cae","system_id":"levelo_inurba_marseille","lat":43.29788,"lon":5.39346,"is_reserved":false,"is_disabled":false,"rental_uris":{"android":"levelo://app?vid=23fc2263-2c00-4782-8bbe-1bb303b66cae","ios":"levelo://app?vid=23fc2263-2c00-4782-8bbe-1bb303b66cae"},"vehicle_type_id":"4","last_reported":1692309957,"current_range_meters":18400,"station_id":"chh1huq6cuj3fo74tm60","pricing_plan_id":"free"},{"bike_id":"a3100da2-fda0-49bd-9246-d5b1741cf2e1","system_id":"levelo_inurba_marseille","lat":43.297815,"lon":5.393548,"is_reserved":false,"is_disabled":false,"rental_uris":{"android":"levelo://app?vid=a3100da2-fda0-49bd-9246-d5b1741cf2e1","ios":"levelo://app?vid=a3100da2-fda0-49bd-9246-d5b1741cf2e1"},"vehicle_type_id":"4","last_reported":1692309957,"current_range_meters":400,"station_id":"chh1huq6cuj3fo74tm60","pricing_plan_id":"free"},{"bike_id":"dcba7135-4a4f-43fb-9545-dbb8dae17b00","system_id":"levelo_inurba_marseille","lat":43.2901,"lon":5.381269,"is_reserved":false,"is_disabled":false,"rental_uris":{"android":"levelo://app?vid=dcba7135-4a4f-43fb-9545-dbb8dae17b00","ios":"levelo://app?vid=dcba7135-4a4f-43fb-9545-dbb8dae17b00"},"vehicle_type_id":"4","last_reported":1692309957,"current_range_meters":24000,"station_id":"ce4bh4p2rcd13ifvqe1g","pricing_plan_id":"free"},{"bike_id":"fcbbc945-3203-4081-9bc8-6127e9602b63","system_id":"levelo_inurba_marseille","lat":43.31271,"lon":5.40166,"is_reserved":false,"is_disabled":false,"rental_uris":{"android":"levelo://app?vid=fcbbc945-3203-4081-9bc8-6127e9602b63","ios":"levelo://app?vid=fcbbc945-3203-4081-9bc8-6127e9602b63"},"vehicle_type_id":"4","last_reported":1692309957,"current_range_meters":15600,"station_id":"ce4bh092rcd13ifvqd30","pricing_plan_id":"free"},{"bike_id":"86b1c357-8b13-4217-a8cb-559265c177ff","system_id":"levelo_inurba_marseille","lat":43.33739,"lon":5.37475,"is_reserved":false,"is_disabled":false,"rental_uris":{"android":"levelo://app?vid=86b1c357-8b13-4217-a8cb-559265c177ff","ios":"levelo://app?vid=86b1c357-8b13-4217-a8cb-559265c177ff"},"vehicle_type_id":"4","last_reported":1692309957,"current_range_meters":27200,"station_id":"","pricing_plan_id":"free"},{"bike_id":"6580d5c8-fbb6-4c85-b06a-eb04f257e9f1","system_id":"levelo_inurba_marseille","lat":43.31259,"lon":5.4017,"is_reserved":false,"is_disabled":false,"rental_uris":{"android":"levelo://app?vid=6580d5c8-fbb6-4c85-b06a-eb04f257e9f1","ios":"levelo://app?vid=6580d5c8-fbb6-4c85-b06a-eb04f257e9f1"},"vehicle_type_id":"4","last_reported":1692309957,"current_range_meters":9600,"station_id":"ce4bh092rcd13ifvqd30","pricing_plan_id":"free"},{"bike_id":"468e976a-8695-4380-af23-af0e4600f85d","system_id":"levelo_inurba_marseille","lat":43.31269,"lon":5.40173,"is_reserved":false,"is_disabled":false,"rental_uris":{"android":"levelo://app?vid=468e976a-8695-4380-af23-af0e4600f85d","ios":"levelo://app?vid=468e976a-8695-4380-af23-af0e4600f85d"},"vehicle_type_id":"4","last_reported":1692309957,"current_range_meters":1600,"station_id":"ce4bh092rcd13ifvqd30","pricing_plan_id":"free"},{"bike_id":"436927ab-91f8-4215-a0a9-b6d8476f0cfe","system_id":"levelo_inurba_marseille","lat":43.301117,"lon":5.398795,"is_reserved":false,"is_disabled":false,"rental_uris":{"android":"levelo://app?vid=436927ab-91f8-4215-a0a9-b6d8476f0cfe","ios":"levelo://app?vid=436927ab-91f8-4215-a0a9-b6d8476f0cfe"},"vehicle_type_id":"4","last_reported":1692309957,"current_range_meters":21600,"station_id":"ce4bh0h2rcd13ifvqd40","pricing_plan_id":"free"},{"bike_id":"3d8a9e45-a0bc-4720-b402-658eb040d28a","system_id":"levelo_inurba_marseille","lat":43.309371,"lon":5.401449,"is_reserved":false,"is_disabled":false,"rental_uris":{"android":"levelo://app?vid=3d8a9e45-a0bc-4720-b402-658eb040d28a","ios":"levelo://app?vid=3d8a9e45-a0bc-4720-b402-658eb040d28a"},"vehicle_type_id":"4","last_reported":1692309957,"current_range_meters":27600,"station_id":"ce4bgvp2rcd13ifvqct0","pricing_plan_id":"free"},{"bike_id":"f7089ed9-b76d-48d7-9c95-a026973d85c9","system_id":"levelo_inurba_marseille","lat":43.3127,"lon":5.4018,"is_reserved":false,"is_disabled":false,"rental_uris":{"android":"levelo://app?vid=f7089ed9-b76d-48d7-9c95-a026973d85c9","ios":"levelo://app?vid=f7089ed9-b76d-48d7-9c95-a026973d85c9"},"vehicle_type_id":"4","last_reported":1692309957,"current_range_meters":20000,"station_id":"ce4bh092rcd13ifvqd30","pricing_plan_id":"free"},{"bike_id":"b5712d29-c90e-4242-9daf-729ce50eead3","system_id":"levelo_inurba_marseille","lat":43.31261,"lon":5.40181,"is_reserved":false,"is_disabled":false,"rental_uris":{"android":"levelo://app?vid=b5712d29-c90e-4242-9daf-729ce50eead3","ios":"levelo://app?vid=b5712d29-c90e-4242-9daf-729ce50eead3"},"vehicle_type_id":"4","last_reported":1692309957,"current_range_meters":18800,"station_id":"ce4bh092rcd13ifvqd30","pricing_plan_id":"free"},{"bike_id":"4cb3c944-184f-40a1-a428-c2991d4b4747","system_id":"levelo_inurba_marseille","lat":43.30929,"lon":5.40149,"is_reserved":false,"is_disabled":false,"rental_uris":{"android":"levelo://app?vid=4cb3c944-184f-40a1-a428-c2991d4b4747","ios":"levelo://app?vid=4cb3c944-184f-40a1-a428-c2991d4b4747"},"vehicle_type_id":"4","last_reported":1692309957,"current_range_meters":3200,"station_id":"ce4bgvp2rcd13ifvqct0","pricing_plan_id":"free"},{"bike_id":"af780357-a8f8-4cbd-a818-396599dd4299","system_id":"levelo_inurba_marseille","lat":43.33757,"lon":5.37438,"is_reserved":false,"is_disabled":false,"rental_uris":{"android":"levelo://app?vid=af780357-a8f8-4cbd-a818-396599dd4299","ios":"levelo://app?vid=af780357-a8f8-4cbd-a818-396599dd4299"},"vehicle_type_id":"4","last_reported":1692309957,"current_range_meters":19600,"station_id":"","pricing_plan_id":"free"},{"bike_id":"e3b6d729-203e-43d6-8e99-dde5b8e03048","system_id":"levelo_inurba_marseille","lat":43.30642,"lon":5.401031,"is_reserved":false,"is_disabled":false,"rental_uris":{"android":"levelo://app?vid=e3b6d729-203e-43d6-8e99-dde5b8e03048","ios":"levelo://app?vid=e3b6d729-203e-43d6-8e99-dde5b8e03048"},"vehicle_type_id":"4","last_reported":1692309957,"current_range_meters":16000,"station_id":"ce4bh112rcd13ifvqda0","pricing_plan_id":"free"},{"bike_id":"aec645da-214f-4be9-a48c-5681919e14f7","system_id":"levelo_inurba_marseille","lat":43.33754,"lon":5.37483,"is_reserved":false,"is_disabled":false,"rental_uris":{"android":"levelo://app?vid=aec645da-214f-4be9-a48c-5681919e14f7","ios":"levelo://app?vid=aec645da-214f-4be9-a48c-5681919e14f7"},"vehicle_type_id":"4","last_reported":1692309957,"current_range_meters":28800,"station_id":"","pricing_plan_id":"free"},{"bike_id":"4e223b6f-3c25-48b2-bf29-64fb04ae9c60","system_id":"levelo_inurba_marseille","lat":43.33766,"lon":5.3744,"is_reserved":false,"is_disabled":false,"rental_uris":{"android":"levelo://app?vid=4e223b6f-3c25-48b2-bf29-64fb04ae9c60","ios":"levelo://app?vid=4e223b6f-3c25-48b2-bf29-64fb04ae9c60"},"vehicle_type_id":"4","last_reported":1692309957,"current_range_meters":27600,"station_id":"","pricing_plan_id":"free"},{"bike_id":"c8e36187-835d-4ae5-a596-75160776a381","system_id":"levelo_inurba_marseille","lat":43.3376,"lon":5.37486,"is_reserved":false,"is_disabled":false,"rental_uris":{"android":"levelo://app?vid=c8e36187-835d-4ae5-a596-75160776a381","ios":"levelo://app?vid=c8e36187-835d-4ae5-a596-75160776a381"},"vehicle_type_id":"4","last_reported":1692309957,"current_range_meters":27600,"station_id":"","pricing_plan_id":"free"},{"bike_id":"4e294aba-603d-41a2-88a4-2bcf1a5cbca6","system_id":"levelo_inurba_marseille","lat":43.30642,"lon":5.401031,"is_reserved":false,"is_disabled":false,"rental_uris":{"android":"levelo://app?vid=4e294aba-603d-41a2-88a4-2bcf1a5cbca6","ios":"levelo://app?vid=4e294aba-603d-41a2-88a4-2bcf1a5cbca6"},"vehicle_type_id":"4","last_reported":1692309957,"current_range_meters":14800,"station_id":"ce4bh112rcd13ifvqda0","pricing_plan_id":"free"},{"bike_id":"f061bc0c-bc73-4de4-89a3-07b1eb078576","system_id":"levelo_inurba_marseille","lat":43.30642,"lon":5.401031,"is_reserved":false,"is_disabled":false,"rental_uris":{"android":"levelo://app?vid=f061bc0c-bc73-4de4-89a3-07b1eb078576","ios":"levelo://app?vid=f061bc0c-bc73-4de4-89a3-07b1eb078576"},"vehicle_type_id":"4","last_reported":1692309957,"current_range_meters":19600,"station_id":"ce4bh112rcd13ifvqda0","pricing_plan_id":"free"},{"bike_id":"c066227d-7697-44b0-86ef-ca738b68cd28","system_id":"levelo_inurba_marseille","lat":43.301117,"lon":5.398795,"is_reserved":false,"is_disabled":false,"rental_uris":{"android":"levelo://app?vid=c066227d-7697-44b0-86ef-ca738b68cd28","ios":"levelo://app?vid=c066227d-7697-44b0-86ef-ca738b68cd28"},"vehicle_type_id":"4","last_reported":1692309957,"current_range_meters":20400,"station_id":"ce4bh0h2rcd13ifvqd40","pricing_plan_id":"free"},{"bike_id":"ecfdc74a-6757-4d72-82a7-64d4f0fb2ac6","system_id":"levelo_inurba_marseille","lat":43.298681,"lon":5.397225,"is_reserved":false,"is_disabled":false,"rental_uris":{"android":"levelo://app?vid=ecfdc74a-6757-4d72-82a7-64d4f0fb2ac6","ios":"levelo://app?vid=ecfdc74a-6757-4d72-82a7-64d4f0fb2ac6"},"vehicle_type_id":"4","last_reported":1692309957,"current_range_meters":16400,"station_id":"ce4bh0h2rcd13ifvqd50","pricing_plan_id":"free"},{"bike_id":"43dc5965-c2c9-42ff-835f-67e1477ea27f","system_id":"levelo_inurba_marseille","lat":43.28664,"lon":5.36356,"is_reserved":false,"is_disabled":false,"rental_uris":{"android":"levelo://app?vid=43dc5965-c2c9-42ff-835f-67e1477ea27f","ios":"levelo://app?vid=43dc5965-c2c9-42ff-835f-67e1477ea27f"},"vehicle_type_id":"4","last_reported":1692309957,"current_range_meters":21200,"station_id":"","pricing_plan_id":"free"},{"bike_id":"75199276-b705-4ad7-b6a9-49aeaa84628a","system_id":"levelo_inurba_marseille","lat":43.286591,"lon":5.363346,"is_reserved":false,"is_disabled":false,"rental_uris":{"android":"levelo://app?vid=75199276-b705-4ad7-b6a9-49aeaa84628a","ios":"levelo://app?vid=75199276-b705-4ad7-b6a9-49aeaa84628a"},"vehicle_type_id":"4","last_reported":1692309957,"current_range_meters":31600,"station_id":"ce4bhah2rcd13ifvqej0","pricing_plan_id":"free"},{"bike_id":"7cf1d947-862b-4a57-a259-c416a4ebd95b","system_id":"levelo_inurba_marseille","lat":43.286591,"lon":5.363346,"is_reserved":false,"is_disabled":false,"rental_uris":{"android":"levelo://app?vid=7cf1d947-862b-4a57-a259-c416a4ebd95b","ios":"levelo://app?vid=7cf1d947-862b-4a57-a259-c416a4ebd95b"},"vehicle_type_id":"4","last_reported":1692309957,"current_range_meters":10000,"station_id":"ce4bhah2rcd13ifvqej0","pricing_plan_id":"free"},{"bike_id":"f1fe2221-679f-45fb-8ab1-ae2d23365d0b","system_id":"levelo_inurba_marseille","lat":43.298681,"lon":5.397225,"is_reserved":false,"is_disabled":false,"rental_uris":{"android":"levelo://app?vid=f1fe2221-679f-45fb-8ab1-ae2d23365d0b","ios":"levelo://app?vid=f1fe2221-679f-45fb-8ab1-ae2d23365d0b"},"vehicle_type_id":"4","last_reported":1692309957,"current_range_meters":20800,"station_id":"ce4bh0h2rcd13ifvqd50","pricing_plan_id":"free"},{"bike_id":"a5dbcb6c-9fda-4945-af28-d86bc78db7f8","system_id":"levelo_inurba_marseille","lat":43.295196,"lon":5.39397,"is_reserved":false,"is_disabled":false,"rental_uris":{"android":"levelo://app?vid=a5dbcb6c-9fda-4945-af28-d86bc78db7f8","ios":"levelo://app?vid=a5dbcb6c-9fda-4945-af28-d86bc78db7f8"},"vehicle_type_id":"4","last_reported":1692309957,"current_range_meters":21600,"station_id":"ce4bh292rcd13ifvqdf0","pricing_plan_id":"free"},{"bike_id":"bb23e4c1-487c-4907-a722-1e3e77a616ed","system_id":"levelo_inurba_marseille","lat":43.298681,"lon":5.397225,"is_reserved":false,"is_disabled":false,"rental_uris":{"android":"levelo://app?vid=bb23e4c1-487c-4907-a722-1e3e77a616ed","ios":"levelo://app?vid=bb23e4c1-487c-4907-a722-1e3e77a616ed"},"vehicle_type_id":"4","last_reported":1692309957,"current_range_meters":1200,"station_id":"ce4bh0h2rcd13ifvqd50","pricing_plan_id":"free"},{"bike_id":"e05b04dc-5ca7-426f-b8e1-a3943863c3bd","system_id":"levelo_inurba_marseille","lat":43.298681,"lon":5.397225,"is_reserved":false,"is_disabled":false,"rental_uris":{"android":"levelo://app?vid=e05b04dc-5ca7-426f-b8e1-a3943863c3bd","ios":"levelo://app?vid=e05b04dc-5ca7-426f-b8e1-a3943863c3bd"},"vehicle_type_id":"4","last_reported":1692309957,"current_range_meters":10000,"station_id":"ce4bh0h2rcd13ifvqd50","pricing_plan_id":"free"},{"bike_id":"ac60ca66-07b6-4594-b78c-ff6ff04d4b5f","system_id":"levelo_inurba_marseille","lat":43.298681,"lon":5.397225,"is_reserved":false,"is_disabled":false,"rental_uris":{"android":"levelo://app?vid=ac60ca66-07b6-4594-b78c-ff6ff04d4b5f","ios":"levelo://app?vid=ac60ca66-07b6-4594-b78c-ff6ff04d4b5f"},"vehicle_type_id":"4","last_reported":1692309957,"current_range_meters":31200,"station_id":"ce4bh0h2rcd13ifvqd50","pricing_plan_id":"free"},{"bike_id":"d501f50a-69c5-4f5d-941c-c170734e81e6","system_id":"levelo_inurba_marseille","lat":43.295196,"lon":5.39397,"is_reserved":false,"is_disabled":false,"rental_uris":{"android":"levelo://app?vid=d501f50a-69c5-4f5d-941c-c170734e81e6","ios":"levelo://app?vid=d501f50a-69c5-4f5d-941c-c170734e81e6"},"vehicle_type_id":"4","last_reported":1692309957,"current_range_meters":21200,"station_id":"ce4bh292rcd13ifvqdf0","pricing_plan_id":"free"},{"bike_id":"5dae7692-2167-47dd-979f-fbda30cf2eb6","system_id":"levelo_inurba_marseille","lat":43.295196,"lon":5.39397,"is_reserved":false,"is_disabled":false,"rental_uris":{"android":"levelo://app?vid=5dae7692-2167-47dd-979f-fbda30cf2eb6","ios":"levelo://app?vid=5dae7692-2167-47dd-979f-fbda30cf2eb6"},"vehicle_type_id":"4","last_reported":1692309957,"current_range_meters":8800,"station_id":"ce4bh292rcd13ifvqdf0","pricing_plan_id":"free"},{"bike_id":"5491ba74-037a-46fe-8665-be5de3027476","system_id":"levelo_inurba_marseille","lat":43.29517,"lon":5.39404,"is_reserved":false,"is_disabled":false,"rental_uris":{"android":"levelo://app?vid=5491ba74-037a-46fe-8665-be5de3027476","ios":"levelo://app?vid=5491ba74-037a-46fe-8665-be5de3027476"},"vehicle_type_id":"4","last_reported":1692309957,"current_range_meters":18000,"station_id":"ce4bh292rcd13ifvqdf0","pricing_plan_id":"free"},{"bike_id":"35b26cd0-40e5-4a43-8f63-30939f1fa6cd","system_id":"levelo_inurba_marseille","lat":43.295194,"lon":5.39397,"is_reserved":false,"is_disabled":false,"rental_uris":{"android":"levelo://app?vid=35b26cd0-40e5-4a43-8f63-30939f1fa6cd","ios":"levelo://app?vid=35b26cd0-40e5-4a43-8f63-30939f1fa6cd"},"vehicle_type_id":"4","last_reported":1692309957,"current_range_meters":20400,"station_id":"ce4bh292rcd13ifvqdf0","pricing_plan_id":"free"},{"bike_id":"b9b8758d-4e06-4c62-8b74-c30e2c876f00","system_id":"levelo_inurba_marseille","lat":43.295194,"lon":5.39397,"is_reserved":false,"is_disabled":false,"rental_uris":{"android":"levelo://app?vid=b9b8758d-4e06-4c62-8b74-c30e2c876f00","ios":"levelo://app?vid=b9b8758d-4e06-4c62-8b74-c30e2c876f00"},"vehicle_type_id":"4","last_reported":1692309957,"current_range_meters":17600,"station_id":"ce4bh292rcd13ifvqdf0","pricing_plan_id":"free"},{"bike_id":"e2334918-836c-4fa2-8aba-64f1a3021998","system_id":"levelo_inurba_marseille","lat":43.295194,"lon":5.39397,"is_reserved":false,"is_disabled":false,"rental_uris":{"android":"levelo://app?vid=e2334918-836c-4fa2-8aba-64f1a3021998","ios":"levelo://app?vid=e2334918-836c-4fa2-8aba-64f1a3021998"},"vehicle_type_id":"4","last_reported":1692309957,"current_range_meters":0,"station_id":"ce4bh292rcd13ifvqdf0","pricing_plan_id":"free"},{"bike_id":"3a0b0c82-cff2-4cf2-a127-3dde3eaa0e9a","system_id":"levelo_inurba_marseille","lat":43.295196,"lon":5.39397,"is_reserved":false,"is_disabled":false,"rental_uris":{"android":"levelo://app?vid=3a0b0c82-cff2-4cf2-a127-3dde3eaa0e9a","ios":"levelo://app?vid=3a0b0c82-cff2-4cf2-a127-3dde3eaa0e9a"},"vehicle_type_id":"4","last_reported":1692309957,"current_range_meters":20000,"station_id":"ce4bh292rcd13ifvqdf0","pricing_plan_id":"free"},{"bike_id":"8e2847dd-c5cc-4195-b22a-5d11be3e5d51","system_id":"levelo_inurba_marseille","lat":43.290345,"lon":5.38646,"is_reserved":false,"is_disabled":false,"rental_uris":{"android":"levelo://app?vid=8e2847dd-c5cc-4195-b22a-5d11be3e5d51","ios":"levelo://app?vid=8e2847dd-c5cc-4195-b22a-5d11be3e5d51"},"vehicle_type_id":"4","last_reported":1692309957,"current_range_meters":30400,"station_id":"ce4bh4p2rcd13ifvqe0g","pricing_plan_id":"free"},{"bike_id":"e4d9bf58-87fa-45a1-99bf-6e51d9d7b1c4","system_id":"levelo_inurba_marseille","lat":43.290345,"lon":5.38646,"is_reserved":false,"is_disabled":false,"rental_uris":{"android":"levelo://app?vid=e4d9bf58-87fa-45a1-99bf-6e51d9d7b1c4","ios":"levelo://app?vid=e4d9bf58-87fa-45a1-99bf-6e51d9d7b1c4"},"vehicle_type_id":"4","last_reported":1692309957,"current_range_meters":28000,"station_id":"ce4bh4p2rcd13ifvqe0g","pricing_plan_id":"free"},{"bike_id":"cce8b095-2ce1-4037-995f-9430354b4d46","system_id":"levelo_inurba_marseille","lat":43.290336,"lon":5.386425,"is_reserved":false,"is_disabled":false,"rental_uris":{"android":"levelo://app?vid=cce8b095-2ce1-4037-995f-9430354b4d46","ios":"levelo://app?vid=cce8b095-2ce1-4037-995f-9430354b4d46"},"vehicle_type_id":"4","last_reported":1692309957,"current_range_meters":8800,"station_id":"ce4bh4p2rcd13ifvqe0g","pricing_plan_id":"free"},{"bike_id":"21546973-dcc5-4291-83bf-5b19c7fc36d6","system_id":"levelo_inurba_marseille","lat":43.290345,"lon":5.38646,"is_reserved":false,"is_disabled":false,"rental_uris":{"android":"levelo://app?vid=21546973-dcc5-4291-83bf-5b19c7fc36d6","ios":"levelo://app?vid=21546973-dcc5-4291-83bf-5b19c7fc36d6"},"vehicle_type_id":"4","last_reported":1692309957,"current_range_meters":28400,"station_id":"ce4bh4p2rcd13ifvqe0g","pricing_plan_id":"free"},{"bike_id":"de11230d-92a1-4678-9f2a-c406446ce27c","system_id":"levelo_inurba_marseille","lat":43.290336,"lon":5.386425,"is_reserved":false,"is_disabled":false,"rental_uris":{"android":"levelo://app?vid=de11230d-92a1-4678-9f2a-c406446ce27c","ios":"levelo://app?vid=de11230d-92a1-4678-9f2a-c406446ce27c"},"vehicle_type_id":"4","last_reported":1692309957,"current_range_meters":4800,"station_id":"ce4bh4p2rcd13ifvqe0g","pricing_plan_id":"free"},{"bike_id":"ca75889d-9a97-4817-bcf3-d401b4dbd7ec","system_id":"levelo_inurba_marseille","lat":43.290336,"lon":5.386425,"is_reserved":false,"is_disabled":false,"rental_uris":{"android":"levelo://app?vid=ca75889d-9a97-4817-bcf3-d401b4dbd7ec","ios":"levelo://app?vid=ca75889d-9a97-4817-bcf3-d401b4dbd7ec"},"vehicle_type_id":"4","last_reported":1692309957,"current_range_meters":10000,"station_id":"ce4bh4p2rcd13ifvqe0g","pricing_plan_id":"free"},{"bike_id":"ebf55612-b2b8-4473-9817-fd0cf6934715","system_id":"levelo_inurba_marseille","lat":43.290336,"lon":5.386425,"is_reserved":false,"is_disabled":false,"rental_uris":{"android":"levelo://app?vid=ebf55612-b2b8-4473-9817-fd0cf6934715","ios":"levelo://app?vid=ebf55612-b2b8-4473-9817-fd0cf6934715"},"vehicle_type_id":"4","last_reported":1692309957,"current_range_meters":24800,"station_id":"ce4bh4p2rcd13ifvqe0g","pricing_plan_id":"free"},{"bike_id":"e77b66da-695d-496d-abbe-7f2a9dc82ee9","system_id":"levelo_inurba_marseille","lat":43.290345,"lon":5.38646,"is_reserved":false,"is_disabled":false,"rental_uris":{"android":"levelo://app?vid=e77b66da-695d-496d-abbe-7f2a9dc82ee9","ios":"levelo://app?vid=e77b66da-695d-496d-abbe-7f2a9dc82ee9"},"vehicle_type_id":"4","last_reported":1692309957,"current_range_meters":7600,"station_id":"ce4bh4p2rcd13ifvqe0g","pricing_plan_id":"free"},{"bike_id":"3bd0abfb-bc17-452b-aecc-fc3cd97b9cfd","system_id":"levelo_inurba_marseille","lat":43.302759,"lon":5.400793,"is_reserved":false,"is_disabled":false,"rental_uris":{"android":"levelo://app?vid=3bd0abfb-bc17-452b-aecc-fc3cd97b9cfd","ios":"levelo://app?vid=3bd0abfb-bc17-452b-aecc-fc3cd97b9cfd"},"vehicle_type_id":"4","last_reported":1692309957,"current_range_meters":2400,"station_id":"ce4bgvh2rcd13ifvqcs0","pricing_plan_id":"free"},{"bike_id":"69dd6bb5-14f8-4cde-a580-53a076cedb70","system_id":"levelo_inurba_marseille","lat":43.30246,"lon":5.40077,"is_reserved":false,"is_disabled":false,"rental_uris":{"android":"levelo://app?vid=69dd6bb5-14f8-4cde-a580-53a076cedb70","ios":"levelo://app?vid=69dd6bb5-14f8-4cde-a580-53a076cedb70"},"vehicle_type_id":"4","last_reported":1692309957,"current_range_meters":24400,"station_id":"ce4bgvh2rcd13ifvqcs0","pricing_plan_id":"free"},{"bike_id":"9f524cbe-b1a9-4e25-a72a-fc1d639a3ac2","system_id":"levelo_inurba_marseille","lat":43.302759,"lon":5.400793,"is_reserved":false,"is_disabled":false,"rental_uris":{"android":"levelo://app?vid=9f524cbe-b1a9-4e25-a72a-fc1d639a3ac2","ios":"levelo://app?vid=9f524cbe-b1a9-4e25-a72a-fc1d639a3ac2"},"vehicle_type_id":"4","last_reported":1692309957,"current_range_meters":2400,"station_id":"ce4bgvh2rcd13ifvqcs0","pricing_plan_id":"free"},{"bike_id":"f1d19126-2dae-4c89-9413-c0719011e4af","system_id":"levelo_inurba_marseille","lat":43.287184,"lon":5.37937,"is_reserved":false,"is_disabled":false,"rental_uris":{"android":"levelo://app?vid=f1d19126-2dae-4c89-9413-c0719011e4af","ios":"levelo://app?vid=f1d19126-2dae-4c89-9413-c0719011e4af"},"vehicle_type_id":"4","last_reported":1692309957,"current_range_meters":7600,"station_id":"ce4bh9p2rcd13ifvqec0","pricing_plan_id":"free"},{"bike_id":"f9182c76-0efb-484d-b5de-3dbe747a479a","system_id":"levelo_inurba_marseille","lat":43.287185,"lon":5.379373,"is_reserved":false,"is_disabled":false,"rental_uris":{"android":"levelo://app?vid=f9182c76-0efb-484d-b5de-3dbe747a479a","ios":"levelo://app?vid=f9182c76-0efb-484d-b5de-3dbe747a479a"},"vehicle_type_id":"4","last_reported":1692309957,"current_range_meters":30000,"station_id":"ce4bh9p2rcd13ifvqec0","pricing_plan_id":"free"},{"bike_id":"95d6be3f-83f8-4e12-9ad1-25b92d59d5b9","system_id":"levelo_inurba_marseille","lat":43.287185,"lon":5.379373,"is_reserved":false,"is_disabled":false,"rental_uris":{"android":"levelo://app?vid=95d6be3f-83f8-4e12-9ad1-25b92d59d5b9","ios":"levelo://app?vid=95d6be3f-83f8-4e12-9ad1-25b92d59d5b9"},"vehicle_type_id":"4","last_reported":1692309957,"current_range_meters":4800,"station_id":"ce4bh9p2rcd13ifvqec0","pricing_plan_id":"free"},{"bike_id":"6cbe4b3d-6b6f-484d-8a0b-d5df80774748","system_id":"levelo_inurba_marseille","lat":43.287185,"lon":5.379373,"is_reserved":false,"is_disabled":false,"rental_uris":{"android":"levelo://app?vid=6cbe4b3d-6b6f-484d-8a0b-d5df80774748","ios":"levelo://app?vid=6cbe4b3d-6b6f-484d-8a0b-d5df80774748"},"vehicle_type_id":"4","last_reported":1692309957,"current_range_meters":24800,"station_id":"ce4bh9p2rcd13ifvqec0","pricing_plan_id":"free"},{"bike_id":"0a0145f1-02b1-4359-af68-42411b2e285d","system_id":"levelo_inurba_marseille","lat":43.287184,"lon":5.37937,"is_reserved":false,"is_disabled":false,"rental_uris":{"android":"levelo://app?vid=0a0145f1-02b1-4359-af68-42411b2e285d","ios":"levelo://app?vid=0a0145f1-02b1-4359-af68-42411b2e285d"},"vehicle_type_id":"4","last_reported":1692309957,"current_range_meters":18800,"station_id":"ce4bh9p2rcd13ifvqec0","pricing_plan_id":"free"},{"bike_id":"b40471b2-fb77-45e8-9d6a-71552300f8d9","system_id":"levelo_inurba_marseille","lat":43.31641,"lon":5.40437,"is_reserved":false,"is_disabled":false,"rental_uris":{"android":"levelo://app?vid=b40471b2-fb77-45e8-9d6a-71552300f8d9","ios":"levelo://app?vid=b40471b2-fb77-45e8-9d6a-71552300f8d9"},"vehicle_type_id":"4","last_reported":1692309957,"current_range_meters":0,"station_id":"ce4bh012rcd13ifvqd00","pricing_plan_id":"free"},{"bike_id":"7da9e437-1e79-4b5f-9ab0-65254ac17dd7","system_id":"levelo_inurba_marseille","lat":43.31645,"lon":5.40437,"is_reserved":false,"is_disabled":false,"rental_uris":{"android":"levelo://app?vid=7da9e437-1e79-4b5f-9ab0-65254ac17dd7","ios":"levelo://app?vid=7da9e437-1e79-4b5f-9ab0-65254ac17dd7"},