{"last_updated":1767276620,"ttl":60,"version":"2.2","data":{"bikes":[{"bike_id":"ac6730fa-d76f-485f-8747-a499e1dcd7da","system_id":"levelo_inurba_marseille","lat":43.217466,"lon":5.346038,"is_reserved":false,"is_disabled":false,"rental_uris":{"android":"levelo://app?vid=ac6730fa-d76f-485f-8747-a499e1dcd7da","ios":"levelo://app?vid=ac6730fa-d76f-485f-8747-a499e1dcd7da"},"vehicle_type_id":"4","last_reported":1767276621,"current_range_meters":2800,"station_id":"ce4bhch2rcd13ifvqeug","pricing_plan_id":"cebpf4jnsgd1na2vs0mg"},{"bike_id":"742f1e99-972a-4415-9c07-2696da1383a1","system_id":"levelo_inurba_marseille","lat":43.29646,"lon":5.40587,"is_reserved":false,"is_disabled":false,"rental_uris":{"android":"levelo://app?vid=742f1e99-972a-4415-9c07-2696da1383a1","ios":"levelo://app?vid=742f1e99-972a-4415-9c07-2696da1383a1"},"vehicle_type_id":"4","last_reported":1767276621,"current_range_meters":2800,"station_id":"","pricing_plan_id":"cebpf4jnsgd1na2vs0mg"},{"bike_id":"a90b3db1-e9bb-4388-a5b3-fed59b8c0500","system_id":"levelo_inurba_marseille","lat":43.30097,"lon":5.39075,"is_reserved":false,"is_disabled":true,"rental_uris":{"android":"levelo://app?vid=a90b3db1-e9bb-4388-a5b3-fed59b8c0500","ios":"levelo://app?vid=a90b3db1-e9bb-4388-a5b3-fed59b8c0500"},"vehicle_type_id":"4","last_reported":1767276621,"current_range_meters":2800,"station_id":"ce4bh192rcd13ifvqdb0","pricing_plan_id":"cebpf4jnsgd1na2vs0mg"},{"bike_id":"0681f0ab-bd3d-4d2a-bc25-77be0ba39983","system_id":"levelo_inurba_marseille","lat":43.255795,"lon":5.382255,"is_reserved":false,"is_disabled":false,"rental_uris":{"android":"levelo://app?vid=0681f0ab-bd3d-4d2a-bc25-77be0ba39983","ios":"levelo://app?vid=0681f0ab-bd3d-4d2a-bc25-77be0ba39983"},"vehicle_type_id":"4","last_reported":1767276621,"current_range_meters":2800,"station_id":"ce4bhih2rcd13ifvqfs0","pricing_plan_id":"cebpf4jnsgd1na2vs0mg"},{"bike_id":"5d27e5a5-6709-4a93-abc8-6d2baa3ba80b","system_id":"levelo_inurba_marseille","lat":43.28616,"lon":5.35113,"is_reserved":false,"is_disabled":false,"rental_uris":{"android":"levelo://app?vid=5d27e5a5-6709-4a93-abc8-6d2baa3ba80b","ios":"levelo://app?vid=5d27e5a5-6709-4a93-abc8-6d2baa3ba80b"},"vehicle_type_id":"4","last_reported":1767276621,"current_range_meters":2800,"station_id":"ce4bhch2rcd13ifvqeug","pricing_plan_id":"cebpf4jnsgd1na2vs0mg"},{"bike_id":"d2b442bb-7bdc-499e-99e9-d8b15513c65a","system_id":"levelo_inurba_marseille","lat":43.21192,"lon":5.35089,"is_reserved":false,"is_disabled":false,"rental_uris":{"android":"levelo://app?vid=d2b442bb-7bdc-499e-99e9-d8b15513c65a","ios":"levelo://app?vid=d2b442bb-7bdc-499e-99e9-d8b15513c65a"},"vehicle_type_id":"4","last_reported":1767276621,"current_range_meters":3200,"station_id":"st_cvj6sg6p6f1abm77japg","pricing_plan_id":"cebpf4jnsgd1na2vs0mg"},{"bike_id":"cbfb3456-7d9b-419f-8555-ba129f8e814d","system_id":"levelo_inurba_marseille","lat":43.294848,"lon":5.376121,"is_reserved":false,"is_disabled":false,"rental_uris":{"android":"levelo://app?vid=cbfb3456-7d9b-419f-8555-ba129f8e814d","ios":"levelo://app?vid=cbfb3456-7d9b-419f-8555-ba129f8e814d"},"vehicle_type_id":"4","last_reported":1767276621,"current_range_meters":3200,"station_id":"ce4bgkp2rcd13ifvqbmg","pricing_plan_id":"cebpf4jnsgd1na2vs0mg"},{"bike_id":"3ae180a1-ad81-4fbd-8d8e-5122c1af76f4","system_id":"levelo_inurba_marseille","lat":43.337444,"lon":5.374475,"is_reserved":false,"is_disabled":false,"rental_uris":{"android":"levelo://app?vid=3ae180a1-ad81-4fbd-8d8e-5122c1af76f4","ios":"levelo://app?vid=3ae180a1-ad81-4fbd-8d8e-5122c1af76f4"},"vehicle_type_id":"4","last_reported":1767276621,"current_range_meters":3200,"station_id":"","pricing_plan_id":"cebpf4jnsgd1na2vs0mg"},{"bike_id":"48f1bdec-93ea-42b5-9859-b775d28e87eb","system_id":"levelo_inurba_marseille","lat":43.23782,"lon":5.3662,"is_reserved":false,"is_disabled":false,"rental_uris":{"android":"levelo://app?vid=48f1bdec-93ea-42b5-9859-b775d28e87eb","ios":"levelo://app?vid=48f1bdec-93ea-42b5-9859-b775d28e87eb"},"vehicle_type_id":"4","last_reported":1767276621,"current_range_meters":3200,"station_id":"st_d3nk18o9ro0c73en2l3g","pricing_plan_id":"cebpf4jnsgd1na2vs0mg"},{"bike_id":"f591bc23-6dfd-4e5f-b7c7-6174e4097efe","system_id":"levelo_inurba_marseille","lat":43.28149,"lon":5.42634,"is_reserved":false,"is_disabled":false,"rental_uris":{"android":"levelo://app?vid=f591bc23-6dfd-4e5f-b7c7-6174e4097efe","ios":"levelo://app?vid=f591bc23-6dfd-4e5f-b7c7-6174e4097efe"},"vehicle_type_id":"4","last_reported":1767276621,"current_range_meters":3600,"station_id":"ce4bhnh2rcd13ifvqgug","pricing_plan_id":"cebpf4jnsgd1na2vs0mg"},{"bike_id":"72234d06-a3e6-4dee-9730-7ab7af6f768d","system_id":"levelo_inurba_marseille","lat":43.29586,"lon":5.36743,"is_reserved":false,"is_disabled":false,"rental_uris":{"android":"levelo://app?vid=72234d06-a3e6-4dee-9730-7ab7af6f768d","ios":"levelo://app?vid=72234d06-a3e6-4dee-9730-7ab7af6f768d"},"vehicle_type_id":"4","last_reported":1767276621,"current_range_meters":3600,"station_id":"ce4bgph2rcd13ifvqc2g","pricing_plan_id":"cebpf4jnsgd1na2vs0mg"},{"bike_id":"c3f2631a-1d54-48a8-bdc9-e59b9db2b31a","system_id":"levelo_inurba_marseille","lat":43.29847,"lon":5.36279,"is_reserved":false,"is_disabled":false,"rental_uris":{"android":"levelo://app?vid=c3f2631a-1d54-48a8-bdc9-e59b9db2b31a","ios":"levelo://app?vid=c3f2631a-1d54-48a8-bdc9-e59b9db2b31a"},"vehicle_type_id":"4","last_reported":1767276621,"current_range_meters":3600,"station_id":"ce4bgpp2rcd13ifvqc3g","pricing_plan_id":"cebpf4jnsgd1na2vs0mg"},{"bike_id":"536a3334-c66c-4b68-a899-007d3c4551df","system_id":"levelo_inurba_marseille","lat":43.29577,"lon":5.39963,"is_reserved":false,"is_disabled":false,"rental_uris":{"android":"levelo://app?vid=536a3334-c66c-4b68-a899-007d3c4551df","ios":"levelo://app?vid=536a3334-c66c-4b68-a899-007d3c4551df"},"vehicle_type_id":"4","last_reported":1767276621,"current_range_meters":3600,"station_id":"ce4bh312rcd13ifvqdj0","pricing_plan_id":"cebpf4jnsgd1na2vs0mg"},{"bike_id":"33c9eaf0-680b-4a68-82f8-7d87f07e6e13","system_id":"levelo_inurba_marseille","lat":43.26506,"lon":5.39579,"is_reserved":false,"is_disabled":false,"rental_uris":{"android":"levelo://app?vid=33c9eaf0-680b-4a68-82f8-7d87f07e6e13","ios":"levelo://app?vid=33c9eaf0-680b-4a68-82f8-7d87f07e6e13"},"vehicle_type_id":"4","last_reported":1767276621,"current_range_meters":4000,"station_id":"ce4bhi12rcd13ifvqfq0","pricing_plan_id":"cebpf4jnsgd1na2vs0mg"},{"bike_id":"b9fe624b-5f79-478c-8b92-041224fcacce","system_id":"levelo_inurba_marseille","lat":43.286133,"lon":5.3987,"is_reserved":false,"is_disabled":false,"rental_uris":{"android":"levelo://app?vid=b9fe624b-5f79-478c-8b92-041224fcacce","ios":"levelo://app?vid=b9fe624b-5f79-478c-8b92-041224fcacce"},"vehicle_type_id":"4","last_reported":1767276621,"current_range_meters":4000,"station_id":"st_d4a7ka997mjs738ck50g","pricing_plan_id":"cebpf4jnsgd1na2vs0mg"},{"bike_id":"29bbd316-a3ba-4fba-9255-99b4397329c1","system_id":"levelo_inurba_marseille","lat":43.24956,"lon":5.40506,"is_reserved":false,"is_disabled":false,"rental_uris":{"android":"levelo://app?vid=29bbd316-a3ba-4fba-9255-99b4397329c1","ios":"levelo://app?vid=29bbd316-a3ba-4fba-9255-99b4397329c1"},"vehicle_type_id":"4","last_reported":1767276621,"current_range_meters":4000,"station_id":"st_d2ngiaodas8pm72gd1h0","pricing_plan_id":"cebpf4jnsgd1na2vs0mg"},{"bike_id":"f69f3b06-8276-4071-9678-936028de3372","system_id":"levelo_inurba_marseille","lat":43.29867,"lon":5.39767,"is_reserved":false,"is_disabled":false,"rental_uris":{"android":"levelo://app?vid=f69f3b06-8276-4071-9678-936028de3372","ios":"levelo://app?vid=f69f3b06-8276-4071-9678-936028de3372"},"vehicle_type_id":"4","last_reported":1767276621,"current_range_meters":4000,"station_id":"ce4bh0h2rcd13ifvqd50","pricing_plan_id":"cebpf4jnsgd1na2vs0mg"},{"bike_id":"65bcb155-d26f-40af-9b01-2b9a18976370","system_id":"levelo_inurba_marseille","lat":43.29969,"lon":5.37214,"is_reserved":false,"is_disabled":false,"rental_uris":{"android":"levelo://app?vid=65bcb155-d26f-40af-9b01-2b9a18976370","ios":"levelo://app?vid=65bcb155-d26f-40af-9b01-2b9a18976370"},"vehicle_type_id":"4","last_reported":1767276621,"current_range_meters":4000,"station_id":"ce4bgr92rcd13ifvqc7g","pricing_plan_id":"cebpf4jnsgd1na2vs0mg"},{"bike_id":"53f9191b-e003-49c7-90f1-f6c658d01ab0","system_id":"levelo_inurba_marseille","lat":43.290007,"lon":5.356173,"is_reserved":false,"is_disabled":false,"rental_uris":{"android":"levelo://app?vid=53f9191b-e003-49c7-90f1-f6c658d01ab0","ios":"levelo://app?vid=53f9191b-e003-49c7-90f1-f6c658d01ab0"},"vehicle_type_id":"4","last_reported":1767276621,"current_range_meters":4000,"station_id":"","pricing_plan_id":"cebpf4jnsgd1na2vs0mg"},{"bike_id":"ea3799df-a0ff-4db9-93d8-68868bb67c46","system_id":"levelo_inurba_marseille","lat":43.26224,"lon":5.37469,"is_reserved":false,"is_disabled":false,"rental_uris":{"android":"levelo://app?vid=ea3799df-a0ff-4db9-93d8-68868bb67c46","ios":"levelo://app?vid=ea3799df-a0ff-4db9-93d8-68868bb67c46"},"vehicle_type_id":"4","last_reported":1767276621,"current_range_meters":4000,"station_id":"","pricing_plan_id":"cebpf4jnsgd1na2vs0mg"},{"bike_id":"15d4b3a9-2a0c-4e9d-a44e-678b77ebd8cf","system_id":"levelo_inurba_marseille","lat":43.30316,"lon":5.36899,"is_reserved":false,"is_disabled":false,"rental_uris":{"android":"levelo://app?vid=15d4b3a9-2a0c-4e9d-a44e-678b77ebd8cf","ios":"levelo://app?vid=15d4b3a9-2a0c-4e9d-a44e-678b77ebd8cf"},"vehicle_type_id":"4","last_reported":1767276621,"current_range_meters":4000,"station_id":"ce4bgqh2rcd13ifvqc5g","pricing_plan_id":"cebpf4jnsgd1na2vs0mg"},{"bike_id":"7b9882ce-9439-4c9e-b627-b4457959142c","system_id":"levelo_inurba_marseille","lat":43.273779,"lon":5.362527,"is_reserved":false,"is_disabled":false,"rental_uris":{"android":"levelo://app?vid=7b9882ce-9439-4c9e-b627-b4457959142c","ios":"levelo://app?vid=7b9882ce-9439-4c9e-b627-b4457959142c"},"vehicle_type_id":"4","last_reported":1767276621,"current_range_meters":4000,"station_id":"ce4bhb92rcd13ifvqen0","pricing_plan_id":"cebpf4jnsgd1na2vs0mg"},{"bike_id":"efd33062-2cef-445f-af98-648f578e9c2a","system_id":"levelo_inurba_marseille","lat":43.32615,"lon":5.41987,"is_reserved":false,"is_disabled":false,"rental_uris":{"android":"levelo://app?vid=efd33062-2cef-445f-af98-648f578e9c2a","ios":"levelo://app?vid=efd33062-2cef-445f-af98-648f578e9c2a"},"vehicle_type_id":"4","last_reported":1767276621,"current_range_meters":4400,"station_id":"","pricing_plan_id":"cebpf4jnsgd1na2vs0mg"},{"bike_id":"07486d01-d393-4183-95ce-6e179f1b3578","system_id":"levelo_inurba_marseille","lat":43.2797,"lon":5.386987,"is_reserved":false,"is_disabled":true,"rental_uris":{"android":"levelo://app?vid=07486d01-d393-4183-95ce-6e179f1b3578","ios":"levelo://app?vid=07486d01-d393-4183-95ce-6e179f1b3578"},"vehicle_type_id":"4","last_reported":1767276621,"current_range_meters":4400,"station_id":"ce4bhg12rcd13ifvqf80","pricing_plan_id":"cebpf4jnsgd1na2vs0mg"},{"bike_id":"dc9feb7e-742c-4c15-83bb-7db4fa4848d4","system_id":"levelo_inurba_marseille","lat":43.3226,"lon":5.38956,"is_reserved":false,"is_disabled":false,"rental_uris":{"android":"levelo://app?vid=dc9feb7e-742c-4c15-83bb-7db4fa4848d4","ios":"levelo://app?vid=dc9feb7e-742c-4c15-83bb-7db4fa4848d4"},"vehicle_type_id":"4","last_reported":1767276621,"current_range_meters":4400,"station_id":"","pricing_plan_id":"cebpf4jnsgd1na2vs0mg"},{"bike_id":"54f6ec4b-5c5e-4e7c-a924-d8d70c9ee744","system_id":"levelo_inurba_marseille","lat":43.30336,"lon":5.39752,"is_reserved":false,"is_disabled":false,"rental_uris":{"android":"levelo://app?vid=54f6ec4b-5c5e-4e7c-a924-d8d70c9ee744","ios":"levelo://app?vid=54f6ec4b-5c5e-4e7c-a924-d8d70c9ee744"},"vehicle_type_id":"4","last_reported":1767276621,"current_range_meters":4400,"station_id":"","pricing_plan_id":"cebpf4jnsgd1na2vs0mg"},{"bike_id":"8b03412a-810b-4a8f-91ea-45d30d05d0ee","system_id":"levelo_inurba_marseille","lat":43.231302,"lon":5.39978,"is_reserved":false,"is_disabled":false,"rental_uris":{"android":"levelo://app?vid=8b03412a-810b-4a8f-91ea-45d30d05d0ee","ios":"levelo://app?vid=8b03412a-810b-4a8f-91ea-45d30d05d0ee"},"vehicle_type_id":"4","last_reported":1767276621,"current_range_meters":4400,"station_id":"","pricing_plan_id":"cebpf4jnsgd1na2vs0mg"},{"bike_id":"2f776167-fd8c-4bf2-b226-79f6121d295b","system_id":"levelo_inurba_marseille","lat":43.31709,"lon":5.43709,"is_reserved":false,"is_disabled":false,"rental_uris":{"android":"levelo://app?vid=2f776167-fd8c-4bf2-b226-79f6121d295b","ios":"levelo://app?vid=2f776167-fd8c-4bf2-b226-79f6121d295b"},"vehicle_type_id":"4","last_reported":1767276621,"current_range_meters":4400,"station_id":"ce4bhp92rcd13ifvqhcg","pricing_plan_id":"cebpf4jnsgd1na2vs0mg"},{"bike_id":"08174721-8bbd-4d8d-aee2-4fb043ce3d90","system_id":"levelo_inurba_marseille","lat":43.24647,"lon":5.38891,"is_reserved":false,"is_disabled":false,"rental_uris":{"android":"levelo://app?vid=08174721-8bbd-4d8d-aee2-4fb043ce3d90","ios":"levelo://app?vid=08174721-8bbd-4d8d-aee2-4fb043ce3d90"},"vehicle_type_id":"4","last_reported":1767276621,"current_range_meters":4400,"station_id":"ce4bhg12rcd13ifvqf60","pricing_plan_id":"cebpf4jnsgd1na2vs0mg"},{"bike_id":"41069fea-96c4-45bf-816c-b1152be2e8c4","system_id":"levelo_inurba_marseille","lat":43.25325,"lon":5.421654,"is_reserved":false,"is_disabled":false,"rental_uris":{"android":"levelo://app?vid=41069fea-96c4-45bf-816c-b1152be2e8c4","ios":"levelo://app?vid=41069fea-96c4-45bf-816c-b1152be2e8c4"},"vehicle_type_id":"4","last_reported":1767276621,"current_range_meters":4800,"station_id":"st_d2m65c5bi1j21697t3ng","pricing_plan_id":"cebpf4jnsgd1na2vs0mg"},{"bike_id":"9cf20d61-ddfa-467e-90ea-ddf7859b95f0","system_id":"levelo_inurba_marseille","lat":43.30397,"lon":5.42483,"is_reserved":false,"is_disabled":false,"rental_uris":{"android":"levelo://app?vid=9cf20d61-ddfa-467e-90ea-ddf7859b95f0","ios":"levelo://app?vid=9cf20d61-ddfa-467e-90ea-ddf7859b95f0"},"vehicle_type_id":"4","last_reported":1767276621,"current_range_meters":4800,"station_id":"ce4bhoh2rcd13ifvqh6g","pricing_plan_id":"cebpf4jnsgd1na2vs0mg"},{"bike_id":"dce28840-1b59-4930-917a-12d88071d00f","system_id":"levelo_inurba_marseille","lat":43.28545,"lon":5.44102,"is_reserved":false,"is_disabled":false,"rental_uris":{"android":"levelo://app?vid=dce28840-1b59-4930-917a-12d88071d00f","ios":"levelo://app?vid=dce28840-1b59-4930-917a-12d88071d00f"},"vehicle_type_id":"4","last_reported":1767276621,"current_range_meters":4800,"station_id":"st_d3j3df2ikq2c7380ej80","pricing_plan_id":"cebpf4jnsgd1na2vs0mg"},{"bike_id":"a661872f-aa9c-48cf-bf60-351a124e6f6d","system_id":"levelo_inurba_marseille","lat":43.2738,"lon":5.36238,"is_reserved":false,"is_disabled":false,"rental_uris":{"android":"levelo://app?vid=a661872f-aa9c-48cf-bf60-351a124e6f6d","ios":"levelo://app?vid=a661872f-aa9c-48cf-bf60-351a124e6f6d"},"vehicle_type_id":"4","last_reported":1767276621,"current_range_meters":4800,"station_id":"ce4bhbh2rcd13ifvqeo0","pricing_plan_id":"cebpf4jnsgd1na2vs0mg"},{"bike_id":"27bd2cc7-96ae-473b-af1c-87e035dfa1e6","system_id":"levelo_inurba_marseille","lat":43.27324,"lon":5.39113,"is_reserved":false,"is_disabled":false,"rental_uris":{"android":"levelo://app?vid=27bd2cc7-96ae-473b-af1c-87e035dfa1e6","ios":"levelo://app?vid=27bd2cc7-96ae-473b-af1c-87e035dfa1e6"},"vehicle_type_id":"4","last_reported":1767276621,"current_range_meters":4800,"station_id":"ce4bhgp2rcd13ifvqfe0","pricing_plan_id":"cebpf4jnsgd1na2vs0mg"},{"bike_id":"a274e1f3-90e8-4548-9a2a-4f53c59abc4e","system_id":"levelo_inurba_marseille","lat":43.31705,"lon":5.40463,"is_reserved":false,"is_disabled":true,"rental_uris":{"android":"levelo://app?vid=a274e1f3-90e8-4548-9a2a-4f53c59abc4e","ios":"levelo://app?vid=a274e1f3-90e8-4548-9a2a-4f53c59abc4e"},"vehicle_type_id":"4","last_reported":1767276621,"current_range_meters":4800,"station_id":"ce4bh012rcd13ifvqd00","pricing_plan_id":"cebpf4jnsgd1na2vs0mg"},{"bike_id":"c0efa7e8-7f6b-4a9e-941b-890ff80e593b","system_id":"levelo_inurba_marseille","lat":43.27997,"lon":5.40027,"is_reserved":false,"is_disabled":false,"rental_uris":{"android":"levelo://app?vid=c0efa7e8-7f6b-4a9e-941b-890ff80e593b","ios":"levelo://app?vid=c0efa7e8-7f6b-4a9e-941b-890ff80e593b"},"vehicle_type_id":"4","last_reported":1767276621,"current_range_meters":4800,"station_id":"ce4bho92rcd13ifvqh4g","pricing_plan_id":"cebpf4jnsgd1na2vs0mg"},{"bike_id":"0fa76090-b264-4d7f-a0bc-7de1e50f19da","system_id":"levelo_inurba_marseille","lat":43.28022,"lon":5.40411,"is_reserved":false,"is_disabled":false,"rental_uris":{"android":"levelo://app?vid=0fa76090-b264-4d7f-a0bc-7de1e50f19da","ios":"levelo://app?vid=0fa76090-b264-4d7f-a0bc-7de1e50f19da"},"vehicle_type_id":"4","last_reported":1767276621,"current_range_meters":4800,"station_id":"","pricing_plan_id":"cebpf4jnsgd1na2vs0mg"},{"bike_id":"7754b33c-d8eb-4a22-9676-e0bcf880ebe7","system_id":"levelo_inurba_marseille","lat":43.22927,"lon":5.35381,"is_reserved":false,"is_disabled":false,"rental_uris":{"android":"levelo://app?vid=7754b33c-d8eb-4a22-9676-e0bcf880ebe7","ios":"levelo://app?vid=7754b33c-d8eb-4a22-9676-e0bcf880ebe7"},"vehicle_type_id":"4","last_reported":1767276621,"current_range_meters":4800,"station_id":"cpo3532slgdg3j2ikp40","pricing_plan_id":"cebpf4jnsgd1na2vs0mg"},{"bike_id":"9a2077a2-cebc-468c-82f9-fecda68a9ec3","system_id":"levelo_inurba_marseille","lat":43.2949,"lon":5.40896,"is_reserved":false,"is_disabled":false,"rental_uris":{"android":"levelo://app?vid=9a2077a2-cebc-468c-82f9-fecda68a9ec3","ios":"levelo://app?vid=9a2077a2-cebc-468c-82f9-fecda68a9ec3"},"vehicle_type_id":"4","last_reported":1767276621,"current_range_meters":4800,"station_id":"","pricing_plan_id":"cebpf4jnsgd1na2vs0mg"},{"bike_id":"00f10e68-8346-4c92-aadd-174d2f94ed8f","system_id":"levelo_inurba_marseille","lat":43.30278,"lon":5.37245,"is_reserved":false,"is_disabled":false,"rental_uris":{"android":"levelo://app?vid=00f10e68-8346-4c92-aadd-174d2f94ed8f","ios":"levelo://app?vid=00f10e68-8346-4c92-aadd-174d2f94ed8f"},"vehicle_type_id":"4","last_reported":1767276621,"current_range_meters":4800,"station_id":"","pricing_plan_id":"cebpf4jnsgd1na2vs0mg"},{"bike_id":"33ef6386-dc43-4b4e-b0b5-b71b16ee9a4d","system_id":"levelo_inurba_marseille","lat":43.28267,"lon":5.35069,"is_reserved":false,"is_disabled":false,"rental_uris":{"android":"levelo://app?vid=33ef6386-dc43-4b4e-b0b5-b71b16ee9a4d","ios":"levelo://app?vid=33ef6386-dc43-4b4e-b0b5-b71b16ee9a4d"},"vehicle_type_id":"4","last_reported":1767276621,"current_range_meters":4800,"station_id":"ce4bhbp2rcd13ifvqerg","pricing_plan_id":"cebpf4jnsgd1na2vs0mg"},{"bike_id":"0ab0ac30-af99-432a-96b6-33a463626c8b","system_id":"levelo_inurba_marseille","lat":43.29181,"lon":5.35815,"is_reserved":false,"is_disabled":false,"rental_uris":{"android":"levelo://app?vid=0ab0ac30-af99-432a-96b6-33a463626c8b","ios":"levelo://app?vid=0ab0ac30-af99-432a-96b6-33a463626c8b"},"vehicle_type_id":"4","last_reported":1767276621,"current_range_meters":5600,"station_id":"ce4bhb12rcd13ifvqel0","pricing_plan_id":"cebpf4jnsgd1na2vs0mg"},{"bike_id":"681c5b2e-33f5-44fa-b4bf-54d0eaea0b39","system_id":"levelo_inurba_marseille","lat":43.29387,"lon":5.3805,"is_reserved":false,"is_disabled":false,"rental_uris":{"android":"levelo://app?vid=681c5b2e-33f5-44fa-b4bf-54d0eaea0b39","ios":"levelo://app?vid=681c5b2e-33f5-44fa-b4bf-54d0eaea0b39"},"vehicle_type_id":"4","last_reported":1767276621,"current_range_meters":5600,"station_id":"","pricing_plan_id":"cebpf4jnsgd1na2vs0mg"},{"bike_id":"1485075b-1bb5-48d2-b0e5-402379126b05","system_id":"levelo_inurba_marseille","lat":43.29885,"lon":5.38093,"is_reserved":false,"is_disabled":false,"rental_uris":{"android":"levelo://app?vid=1485075b-1bb5-48d2-b0e5-402379126b05","ios":"levelo://app?vid=1485075b-1bb5-48d2-b0e5-402379126b05"},"vehicle_type_id":"4","last_reported":1767276621,"current_range_meters":5600,"station_id":"","pricing_plan_id":"cebpf4jnsgd1na2vs0mg"},{"bike_id":"75e40aa5-86f4-4c52-877f-db96fa56d725","system_id":"levelo_inurba_marseille","lat":43.29004,"lon":5.35605,"is_reserved":false,"is_disabled":false,"rental_uris":{"android":"levelo://app?vid=75e40aa5-86f4-4c52-877f-db96fa56d725","ios":"levelo://app?vid=75e40aa5-86f4-4c52-877f-db96fa56d725"},"vehicle_type_id":"4","last_reported":1767276621,"current_range_meters":5600,"station_id":"ce4bhb92rcd13ifvqen0","pricing_plan_id":"cebpf4jnsgd1na2vs0mg"},{"bike_id":"149a94e7-8065-4440-a1ab-1ba416a8f181","system_id":"levelo_inurba_marseille","lat":43.28468,"lon":5.48395,"is_reserved":false,"is_disabled":false,"rental_uris":{"android":"levelo://app?vid=149a94e7-8065-4440-a1ab-1ba416a8f181","ios":"levelo://app?vid=149a94e7-8065-4440-a1ab-1ba416a8f181"},"vehicle_type_id":"4","last_reported":1767276621,"current_range_meters":5600,"station_id":"","pricing_plan_id":"cebpf4jnsgd1na2vs0mg"},{"bike_id":"ba94ed8a-8e29-47b3-85d9-7461869db006","system_id":"levelo_inurba_marseille","lat":43.28273,"lon":5.35056,"is_reserved":false,"is_disabled":false,"rental_uris":{"android":"levelo://app?vid=ba94ed8a-8e29-47b3-85d9-7461869db006","ios":"levelo://app?vid=ba94ed8a-8e29-47b3-85d9-7461869db006"},"vehicle_type_id":"4","last_reported":1767276621,"current_range_meters":5600,"station_id":"ce4bhbp2rcd13ifvqerg","pricing_plan_id":"cebpf4jnsgd1na2vs0mg"},{"bike_id":"6f4bee2f-cd13-4795-ad2d-1a3729b8f445","system_id":"levelo_inurba_marseille","lat":43.27373,"lon":5.36268,"is_reserved":false,"is_disabled":false,"rental_uris":{"android":"levelo://app?vid=6f4bee2f-cd13-4795-ad2d-1a3729b8f445","ios":"levelo://app?vid=6f4bee2f-cd13-4795-ad2d-1a3729b8f445"},"vehicle_type_id":"4","last_reported":1767276621,"current_range_meters":5600,"station_id":"ce4bhbh2rcd13ifvqeo0","pricing_plan_id":"cebpf4jnsgd1na2vs0mg"},{"bike_id":"e68d8d7a-9726-4645-be3e-17079870e2da","system_id":"levelo_inurba_marseille","lat":43.27377,"lon":5.36256,"is_reserved":false,"is_disabled":false,"rental_uris":{"android":"levelo://app?vid=e68d8d7a-9726-4645-be3e-17079870e2da","ios":"levelo://app?vid=e68d8d7a-9726-4645-be3e-17079870e2da"},"vehicle_type_id":"4","last_reported":1767276621,"current_range_meters":5600,"station_id":"ce4bhbh2rcd13ifvqeo0","pricing_plan_id":"cebpf4jnsgd1na2vs0mg"},{"bike_id":"b9f5bb9a-d9aa-4714-a9ae-ceaed3ab533e","system_id":"levelo_inurba_marseille","lat":43.29643,"lon":5.38045,"is_reserved":false,"is_disabled":false,"rental_uris":{"android":"levelo://app?vid=b9f5bb9a-d9aa-4714-a9ae-ceaed3ab533e","ios":"levelo://app?vid=b9f5bb9a-d9aa-4714-a9ae-ceaed3ab533e"},"vehicle_type_id":"4","last_reported":1767276621,"current_range_meters":5600,"station_id":"","pricing_plan_id":"cebpf4jnsgd1na2vs0mg"},{"bike_id":"d2c40b22-565d-4a49-bb53-f72047eca32b","system_id":"levelo_inurba_marseille","lat":43.269457,"lon":5.386404,"is_reserved":false,"is_disabled":false,"rental_uris":{"android":"levelo://app?vid=d2c40b22-565d-4a49-bb53-f72047eca32b","ios":"levelo://app?vid=d2c40b22-565d-4a49-bb53-f72047eca32b"},"vehicle_type_id":"4","last_reported":1767276621,"current_range_meters":5600,"station_id":"ce4bhh92rcd13ifvqfh0","pricing_plan_id":"cebpf4jnsgd1na2vs0mg"},{"bike_id":"5265762e-9468-4f8e-963d-e1d647f4d72d","system_id":"levelo_inurba_marseille","lat":43.337444,"lon":5.374475,"is_reserved":false,"is_disabled":false,"rental_uris":{"android":"levelo://app?vid=5265762e-9468-4f8e-963d-e1d647f4d72d","ios":"levelo://app?vid=5265762e-9468-4f8e-963d-e1d647f4d72d"},"vehicle_type_id":"4","last_reported":1767276621,"current_range_meters":6000,"station_id":"","pricing_plan_id":"cebpf4jnsgd1na2vs0mg"},{"bike_id":"5ac76dd4-8341-4c0d-b496-0898a4870a5a","system_id":"levelo_inurba_marseille","lat":43.29436,"lon":5.41326,"is_reserved":false,"is_disabled":false,"rental_uris":{"android":"levelo://app?vid=5ac76dd4-8341-4c0d-b496-0898a4870a5a","ios":"levelo://app?vid=5ac76dd4-8341-4c0d-b496-0898a4870a5a"},"vehicle_type_id":"4","last_reported":1767276621,"current_range_meters":6000,"station_id":"","pricing_plan_id":"cebpf4jnsgd1na2vs0mg"},{"bike_id":"e93c83d5-bafc-41ab-b80f-422d8d8d6d2a","system_id":"levelo_inurba_marseille","lat":43.26848,"lon":5.40078,"is_reserved":false,"is_disabled":false,"rental_uris":{"android":"levelo://app?vid=e93c83d5-bafc-41ab-b80f-422d8d8d6d2a","ios":"levelo://app?vid=e93c83d5-bafc-41ab-b80f-422d8d8d6d2a"},"vehicle_type_id":"4","last_reported":1767276621,"current_range_meters":6000,"station_id":"","pricing_plan_id":"cebpf4jnsgd1na2vs0mg"},{"bike_id":"8c9f703d-219a-46f5-bb1d-6f7b59f09c24","system_id":"levelo_inurba_marseille","lat":43.30177,"lon":5.37414,"is_reserved":false,"is_disabled":false,"rental_uris":{"android":"levelo://app?vid=8c9f703d-219a-46f5-bb1d-6f7b59f09c24","ios":"levelo://app?vid=8c9f703d-219a-46f5-bb1d-6f7b59f09c24"},"vehicle_type_id":"4","last_reported":1767276621,"current_range_meters":6000,"station_id":"ce4bgs92rcd13ifvqcc0","pricing_plan_id":"cebpf4jnsgd1na2vs0mg"},{"bike_id":"78ed77cb-47f0-4c82-bf8a-f958576ec953","system_id":"levelo_inurba_marseille","lat":43.2815,"lon":5.42639,"is_reserved":false,"is_disabled":false,"rental_uris":{"android":"levelo://app?vid=78ed77cb-47f0-4c82-bf8a-f958576ec953","ios":"levelo://app?vid=78ed77cb-47f0-4c82-bf8a-f958576ec953"},"vehicle_type_id":"4","last_reported":1767276621,"current_range_meters":6000,"station_id":"ce4bhnh2rcd13ifvqgug","pricing_plan_id":"cebpf4jnsgd1na2vs0mg"},{"bike_id":"d1041711-ecb4-4070-8b9f-37a4fa94dae7","system_id":"levelo_inurba_marseille","lat":43.336086,"lon":5.410259,"is_reserved":false,"is_disabled":false,"rental_uris":{"android":"levelo://app?vid=d1041711-ecb4-4070-8b9f-37a4fa94dae7","ios":"levelo://app?vid=d1041711-ecb4-4070-8b9f-37a4fa94dae7"},"vehicle_type_id":"4","last_reported":1767276621,"current_range_meters":6000,"station_id":"ce4bhqh2rcd13ifvqhmg","pricing_plan_id":"cebpf4jnsgd1na2vs0mg"},{"bike_id":"5592c2f3-9ab9-4d96-bb81-f8832f2614a2","system_id":"levelo_inurba_marseille","lat":43.26544,"lon":5.37302,"is_reserved":false,"is_disabled":false,"rental_uris":{"android":"levelo://app?vid=5592c2f3-9ab9-4d96-bb81-f8832f2614a2","ios":"levelo://app?vid=5592c2f3-9ab9-4d96-bb81-f8832f2614a2"},"vehicle_type_id":"4","last_reported":1767276621,"current_range_meters":6000,"station_id":"ce4bhg12rcd13ifvqf70","pricing_plan_id":"cebpf4jnsgd1na2vs0mg"},{"bike_id":"e9a5eb2f-5342-4378-8fc6-06fbe17d605d","system_id":"levelo_inurba_marseille","lat":43.29572,"lon":5.3998,"is_reserved":false,"is_disabled":false,"rental_uris":{"android":"levelo://app?vid=e9a5eb2f-5342-4378-8fc6-06fbe17d605d","ios":"levelo://app?vid=e9a5eb2f-5342-4378-8fc6-06fbe17d605d"},"vehicle_type_id":"4","last_reported":1767276621,"current_range_meters":6000,"station_id":"ce4bh312rcd13ifvqdj0","pricing_plan_id":"cebpf4jnsgd1na2vs0mg"},{"bike_id":"535d562b-448c-43ac-86cc-1d98462f2032","system_id":"levelo_inurba_marseille","lat":43.27924,"lon":5.39594,"is_reserved":false,"is_disabled":false,"rental_uris":{"android":"levelo://app?vid=535d562b-448c-43ac-86cc-1d98462f2032","ios":"levelo://app?vid=535d562b-448c-43ac-86cc-1d98462f2032"},"vehicle_type_id":"4","last_reported":1767276621,"current_range_meters":6000,"station_id":"ce4bhf92rcd13ifvqf40","pricing_plan_id":"cebpf4jnsgd1na2vs0mg"},{"bike_id":"32a7b5d7-5af3-4910-b418-797951028920","system_id":"levelo_inurba_marseille","lat":43.29138,"lon":5.38529,"is_reserved":false,"is_disabled":false,"rental_uris":{"android":"levelo://app?vid=32a7b5d7-5af3-4910-b418-797951028920","ios":"levelo://app?vid=32a7b5d7-5af3-4910-b418-797951028920"},"vehicle_type_id":"4","last_reported":1767276621,"current_range_meters":6000,"station_id":"","pricing_plan_id":"cebpf4jnsgd1na2vs0mg"},{"bike_id":"1a74ebb7-d01a-423d-9cbf-65547c033a9c","system_id":"levelo_inurba_marseille","lat":43.29526,"lon":5.39396,"is_reserved":false,"is_disabled":false,"rental_uris":{"android":"levelo://app?vid=1a74ebb7-d01a-423d-9cbf-65547c033a9c","ios":"levelo://app?vid=1a74ebb7-d01a-423d-9cbf-65547c033a9c"},"vehicle_type_id":"4","last_reported":1767276621,"current_range_meters":6000,"station_id":"ce4bh292rcd13ifvqdf0","pricing_plan_id":"cebpf4jnsgd1na2vs0mg"},{"bike_id":"90dac6f2-4e58-4623-b929-4f8d06ec1c31","system_id":"levelo_inurba_marseille","lat":43.28506,"lon":5.42545,"is_reserved":false,"is_disabled":false,"rental_uris":{"android":"levelo://app?vid=90dac6f2-4e58-4623-b929-4f8d06ec1c31","ios":"levelo://app?vid=90dac6f2-4e58-4623-b929-4f8d06ec1c31"},"vehicle_type_id":"4","last_reported":1767276621,"current_range_meters":6400,"station_id":"","pricing_plan_id":"cebpf4jnsgd1na2vs0mg"},{"bike_id":"abf838d6-6712-4300-adda-f8cd4c1d329b","system_id":"levelo_inurba_marseille","lat":43.28431,"lon":5.3752,"is_reserved":false,"is_disabled":false,"rental_uris":{"android":"levelo://app?vid=abf838d6-6712-4300-adda-f8cd4c1d329b","ios":"levelo://app?vid=abf838d6-6712-4300-adda-f8cd4c1d329b"},"vehicle_type_id":"4","last_reported":1767276621,"current_range_meters":6400,"station_id":"ce4bh412rcd13ifvqds0","pricing_plan_id":"cebpf4jnsgd1na2vs0mg"},{"bike_id":"2b23942c-0d5b-4193-b718-e6099c5527d3","system_id":"levelo_inurba_marseille","lat":43.23198,"lon":5.35556,"is_reserved":false,"is_disabled":false,"rental_uris":{"android":"levelo://app?vid=2b23942c-0d5b-4193-b718-e6099c5527d3","ios":"levelo://app?vid=2b23942c-0d5b-4193-b718-e6099c5527d3"},"vehicle_type_id":"4","last_reported":1767276621,"current_range_meters":6400,"station_id":"ce4bhu92rcd13ifvqi70","pricing_plan_id":"cebpf4jnsgd1na2vs0mg"},{"bike_id":"8fa53ddb-80a9-4b81-a17d-6b07554edef4","system_id":"levelo_inurba_marseille","lat":43.28469,"lon":5.48406,"is_reserved":false,"is_disabled":false,"rental_uris":{"android":"levelo://app?vid=8fa53ddb-80a9-4b81-a17d-6b07554edef4","ios":"levelo://app?vid=8fa53ddb-80a9-4b81-a17d-6b07554edef4"},"vehicle_type_id":"4","last_reported":1767276621,"current_range_meters":6400,"station_id":"st_d3svhcjqgbts73a3dn0g","pricing_plan_id":"cebpf4jnsgd1na2vs0mg"},{"bike_id":"19c8fae4-b80c-498c-a4ef-76cc1120fdb3","system_id":"levelo_inurba_marseille","lat":43.279237,"lon":5.410421,"is_reserved":false,"is_disabled":false,"rental_uris":{"android":"levelo://app?vid=19c8fae4-b80c-498c-a4ef-76cc1120fdb3","ios":"levelo://app?vid=19c8fae4-b80c-498c-a4ef-76cc1120fdb3"},"vehicle_type_id":"4","last_reported":1767276621,"current_range_meters":6400,"station_id":"ce4bhnp2rcd13ifvqh0g","pricing_plan_id":"cebpf4jnsgd1na2vs0mg"},{"bike_id":"f84c045b-627d-4441-a87c-1b1ac78f156a","system_id":"levelo_inurba_marseille","lat":43.28406,"lon":5.37514,"is_reserved":false,"is_disabled":false,"rental_uris":{"android":"levelo://app?vid=f84c045b-627d-4441-a87c-1b1ac78f156a","ios":"levelo://app?vid=f84c045b-627d-4441-a87c-1b1ac78f156a"},"vehicle_type_id":"4","last_reported":1767276621,"current_range_meters":6400,"station_id":"ce4bh412rcd13ifvqds0","pricing_plan_id":"cebpf4jnsgd1na2vs0mg"},{"bike_id":"2d4772b7-d16b-4cb4-a135-dc76b6fe23e3","system_id":"levelo_inurba_marseille","lat":43.27979,"lon":5.39991,"is_reserved":false,"is_disabled":false,"rental_uris":{"android":"levelo://app?vid=2d4772b7-d16b-4cb4-a135-dc76b6fe23e3","ios":"levelo://app?vid=2d4772b7-d16b-4cb4-a135-dc76b6fe23e3"},"vehicle_type_id":"4","last_reported":1767276621,"current_range_meters":6400,"station_id":"ce4bho92rcd13ifvqh4g","pricing_plan_id":"cebpf4jnsgd1na2vs0mg"},{"bike_id":"49998141-cac4-4767-a907-b8a3171a3b09","system_id":"levelo_inurba_marseille","lat":43.291528,"lon":5.384956,"is_reserved":false,"is_disabled":false,"rental_uris":{"android":"levelo://app?vid=49998141-cac4-4767-a907-b8a3171a3b09","ios":"levelo://app?vid=49998141-cac4-4767-a907-b8a3171a3b09"},"vehicle_type_id":"4","last_reported":1767276621,"current_range_meters":6400,"station_id":"","pricing_plan_id":"cebpf4jnsgd1na2vs0mg"},{"bike_id":"650cf425-f87e-4c30-9156-354d5fef94cd","system_id":"levelo_inurba_marseille","lat":43.30092,"lon":5.36756,"is_reserved":false,"is_disabled":false,"rental_uris":{"android":"levelo://app?vid=650cf425-f87e-4c30-9156-354d5fef94cd","ios":"levelo://app?vid=650cf425-f87e-4c30-9156-354d5fef94cd"},"vehicle_type_id":"4","last_reported":1767276621,"current_range_meters":6400,"station_id":"","pricing_plan_id":"cebpf4jnsgd1na2vs0mg"},{"bike_id":"b7142933-5bc0-4beb-a4ab-a3152aae03ce","system_id":"levelo_inurba_marseille","lat":43.26022,"lon":5.41736,"is_reserved":false,"is_disabled":false,"rental_uris":{"android":"levelo://app?vid=b7142933-5bc0-4beb-a4ab-a3152aae03ce","ios":"levelo://app?vid=b7142933-5bc0-4beb-a4ab-a3152aae03ce"},"vehicle_type_id":"4","last_reported":1767276621,"current_range_meters":6400,"station_id":"","pricing_plan_id":"cebpf4jnsgd1na2vs0mg"},{"bike_id":"7d80c422-b253-47f9-9f96-7b4428ddd5fc","system_id":"levelo_inurba_marseille","lat":43.273765,"lon":5.362601,"is_reserved":false,"is_disabled":false,"rental_uris":{"android":"levelo://app?vid=7d80c422-b253-47f9-9f96-7b4428ddd5fc","ios":"levelo://app?vid=7d80c422-b253-47f9-9f96-7b4428ddd5fc"},"vehicle_type_id":"4","last_reported":1767276621,"current_range_meters":6400,"station_id":"ce4bhbh2rcd13ifvqeo0","pricing_plan_id":"cebpf4jnsgd1na2vs0mg"},{"bike_id":"3c2a4282-2187-43f1-8f2a-ac14d32b7082","system_id":"levelo_inurba_marseille","lat":43.26955,"lon":5.40254,"is_reserved":false,"is_disabled":false,"rental_uris":{"android":"levelo://app?vid=3c2a4282-2187-43f1-8f2a-ac14d32b7082","ios":"levelo://app?vid=3c2a4282-2187-43f1-8f2a-ac14d32b7082"},"vehicle_type_id":"4","last_reported":1767276621,"current_range_meters":6400,"station_id":"cjm6bp8fraef2m0cb0m0","pricing_plan_id":"cebpf4jnsgd1na2vs0mg"},{"bike_id":"0c9ca243-897c-4d38-8127-8933d39eb60f","system_id":"levelo_inurba_marseille","lat":43.28861,"lon":5.42532,"is_reserved":false,"is_disabled":false,"rental_uris":{"android":"levelo://app?vid=0c9ca243-897c-4d38-8127-8933d39eb60f","ios":"levelo://app?vid=0c9ca243-897c-4d38-8127-8933d39eb60f"},"vehicle_type_id":"4","last_reported":1767276621,"current_range_meters":6400,"station_id":"st_d3b462108ojc7389ooeg","pricing_plan_id":"cebpf4jnsgd1na2vs0mg"},{"bike_id":"f706dea8-efae-45c7-a0d0-ef3606201ff7","system_id":"levelo_inurba_marseille","lat":43.23961,"lon":5.36626,"is_reserved":false,"is_disabled":false,"rental_uris":{"android":"levelo://app?vid=f706dea8-efae-45c7-a0d0-ef3606201ff7","ios":"levelo://app?vid=f706dea8-efae-45c7-a0d0-ef3606201ff7"},"vehicle_type_id":"4","last_reported":1767276621,"current_range_meters":6400,"station_id":"ce4bhi12rcd13ifvqfp0","pricing_plan_id":"cebpf4jnsgd1na2vs0mg"},{"bike_id":"7f8c1213-60b7-4367-a2bf-21350ef37308","system_id":"levelo_inurba_marseille","lat":43.273724,"lon":5.362639,"is_reserved":false,"is_disabled":false,"rental_uris":{"android":"levelo://app?vid=7f8c1213-60b7-4367-a2bf-21350ef37308","ios":"levelo://app?vid=7f8c1213-60b7-4367-a2bf-21350ef37308"},"vehicle_type_id":"4","last_reported":1767276621,"current_range_meters":6800,"station_id":"ce4bhbh2rcd13ifvqeo0","pricing_plan_id":"cebpf4jnsgd1na2vs0mg"},{"bike_id":"64a753a8-2e2e-45ca-a035-e62cf25f0f92","system_id":"levelo_inurba_marseille","lat":43.284766,"lon":5.349864,"is_reserved":false,"is_disabled":false,"rental_uris":{"android":"levelo://app?vid=64a753a8-2e2e-45ca-a035-e62cf25f0f92","ios":"levelo://app?vid=64a753a8-2e2e-45ca-a035-e62cf25f0f92"},"vehicle_type_id":"4","last_reported":1767276621,"current_range_meters":6800,"station_id":"ce4bgj92rcd13ifvqbe0","pricing_plan_id":"cebpf4jnsgd1na2vs0mg"},{"bike_id":"240f90c0-9144-4a3b-a221-7e86b8542577","system_id":"levelo_inurba_marseille","lat":43.26818,"lon":5.40273,"is_reserved":false,"is_disabled":false,"rental_uris":{"android":"levelo://app?vid=240f90c0-9144-4a3b-a221-7e86b8542577","ios":"levelo://app?vid=240f90c0-9144-4a3b-a221-7e86b8542577"},"vehicle_type_id":"4","last_reported":1767276621,"current_range_meters":6800,"station_id":"ce501612rcd8frsf0b60","pricing_plan_id":"cebpf4jnsgd1na2vs0mg"},{"bike_id":"e038a1b3-3d4f-47d4-b1ff-a265b74bb66e","system_id":"levelo_inurba_marseille","lat":43.2999,"lon":5.37186,"is_reserved":false,"is_disabled":false,"rental_uris":{"android":"levelo://app?vid=e038a1b3-3d4f-47d4-b1ff-a265b74bb66e","ios":"levelo://app?vid=e038a1b3-3d4f-47d4-b1ff-a265b74bb66e"},"vehicle_type_id":"4","last_reported":1767276621,"current_range_meters":6800,"station_id":"ce4bgr92rcd13ifvqc7g","pricing_plan_id":"cebpf4jnsgd1na2vs0mg"},{"bike_id":"ff749ca8-7ec0-491f-8d35-58f97403825a","system_id":"levelo_inurba_marseille","lat":43.282767,"lon":5.350766,"is_reserved":false,"is_disabled":false,"rental_uris":{"android":"levelo://app?vid=ff749ca8-7ec0-491f-8d35-58f97403825a","ios":"levelo://app?vid=ff749ca8-7ec0-491f-8d35-58f97403825a"},"vehicle_type_id":"4","last_reported":1767276621,"current_range_meters":6800,"station_id":"ce4bhbp2rcd13ifvqerg","pricing_plan_id":"cebpf4jnsgd1na2vs0mg"},{"bike_id":"6c5a0f93-b4f0-4709-9bde-46b446fc69f4","system_id":"levelo_inurba_marseille","lat":43.22565,"lon":5.41637,"is_reserved":false,"is_disabled":false,"rental_uris":{"android":"levelo://app?vid=6c5a0f93-b4f0-4709-9bde-46b446fc69f4","ios":"levelo://app?vid=6c5a0f93-b4f0-4709-9bde-46b446fc69f4"},"vehicle_type_id":"4","last_reported":1767276621,"current_range_meters":6800,"station_id":"st_d2o4gvlbi1j2169b742g","pricing_plan_id":"cebpf4jnsgd1na2vs0mg"},{"bike_id":"e9d34b14-a11a-49cf-b8d8-99a6e9a6e979","system_id":"levelo_inurba_marseille","lat":43.23778,"lon":5.36636,"is_reserved":false,"is_disabled":false,"rental_uris":{"android":"levelo://app?vid=e9d34b14-a11a-49cf-b8d8-99a6e9a6e979","ios":"levelo://app?vid=e9d34b14-a11a-49cf-b8d8-99a6e9a6e979"},"vehicle_type_id":"4","last_reported":1767276621,"current_range_meters":6800,"station_id":"st_d3nk18o9ro0c73en2l3g","pricing_plan_id":"cebpf4jnsgd1na2vs0mg"},{"bike_id":"d285cd77-c7b4-4ad4-ad28-ed6edfeaa990","system_id":"levelo_inurba_marseille","lat":43.29624,"lon":5.38055,"is_reserved":false,"is_disabled":true,"rental_uris":{"android":"levelo://app?vid=d285cd77-c7b4-4ad4-ad28-ed6edfeaa990","ios":"levelo://app?vid=d285cd77-c7b4-4ad4-ad28-ed6edfeaa990"},"vehicle_type_id":"4","last_reported":1767276621,"current_range_meters":6800,"station_id":"","pricing_plan_id":"cebpf4jnsgd1na2vs0mg"},{"bike_id":"0b1c31df-6053-46ae-a996-bd44648b6dc1","system_id":"levelo_inurba_marseille","lat":43.29188,"lon":5.39328,"is_reserved":false,"is_disabled":false,"rental_uris":{"android":"levelo://app?vid=0b1c31df-6053-46ae-a996-bd44648b6dc1","ios":"levelo://app?vid=0b1c31df-6053-46ae-a996-bd44648b6dc1"},"vehicle_type_id":"4","last_reported":1767276621,"current_range_meters":6800,"station_id":"ce4bh192rcd13ifvqdd0","pricing_plan_id":"cebpf4jnsgd1na2vs0mg"},{"bike_id":"3efa1c66-708c-4389-b392-0111e929cac8","system_id":"levelo_inurba_marseille","lat":43.21741,"lon":5.34608,"is_reserved":false,"is_disabled":false,"rental_uris":{"android":"levelo://app?vid=3efa1c66-708c-4389-b392-0111e929cac8","ios":"levelo://app?vid=3efa1c66-708c-4389-b392-0111e929cac8"},"vehicle_type_id":"4","last_reported":1767276621,"current_range_meters":6800,"station_id":"st_cvj6r9ubvosntc0bgbag","pricing_plan_id":"cebpf4jnsgd1na2vs0mg"},{"bike_id":"1bdbf1a9-0c04-417d-ab4d-30025544df3c","system_id":"levelo_inurba_marseille","lat":43.29011,"lon":5.35621,"is_reserved":false,"is_disabled":false,"rental_uris":{"android":"levelo://app?vid=1bdbf1a9-0c04-417d-ab4d-30025544df3c","ios":"levelo://app?vid=1bdbf1a9-0c04-417d-ab4d-30025544df3c"},"vehicle_type_id":"4","last_reported":1767276621,"current_range_meters":6800,"station_id":"ce4bhb92rcd13ifvqen0","pricing_plan_id":"cebpf4jnsgd1na2vs0mg"},{"bike_id":"43464ac5-5123-4584-a572-085a071fa175","system_id":"levelo_inurba_marseille","lat":43.324039,"lon":5.404223,"is_reserved":false,"is_disabled":false,"rental_uris":{"android":"levelo://app?vid=43464ac5-5123-4584-a572-085a071fa175","ios":"levelo://app?vid=43464ac5-5123-4584-a572-085a071fa175"},"vehicle_type_id":"4","last_reported":1767276621,"current_range_meters":6800,"station_id":"","pricing_plan_id":"cebpf4jnsgd1na2vs0mg"},{"bike_id":"3282aea1-9bed-44e6-a833-eea50b551ac8","system_id":"levelo_inurba_marseille","lat":43.26957,"lon":5.38917,"is_reserved":false,"is_disabled":false,"rental_uris":{"android":"levelo://app?vid=3282aea1-9bed-44e6-a833-eea50b551ac8","ios":"levelo://app?vid=3282aea1-9bed-44e6-a833-eea50b551ac8"},"vehicle_type_id":"4","last_reported":1767276621,"current_range_meters":7200,"station_id":"ce4bhhh2rcd13ifvqfl0","pricing_plan_id":"cebpf4jnsgd1na2vs0mg"},{"bike_id":"10a390a4-7b09-4b4f-b7ce-d970c07cc5ce","system_id":"levelo_inurba_marseille","lat":43.2871,"lon":5.38692,"is_reserved":false,"is_disabled":false,"rental_uris":{"android":"levelo://app?vid=10a390a4-7b09-4b4f-b7ce-d970c07cc5ce","ios":"levelo://app?vid=10a390a4-7b09-4b4f-b7ce-d970c07cc5ce"},"vehicle_type_id":"4","last_reported":1767276621,"current_range_meters":7200,"station_id":"","pricing_plan_id":"cebpf4jnsgd1na2vs0mg"},{"bike_id":"133de80b-c267-42cb-8ee5-9ffea7555dd7","system_id":"levelo_inurba_marseille","lat":43.29236,"lon":5.36063,"is_reserved":false,"is_disabled":false,"rental_uris":{"android":"levelo://app?vid=133de80b-c267-42cb-8ee5-9ffea7555dd7","ios":"levelo://app?vid=133de80b-c267-42cb-8ee5-9ffea7555dd7"},"vehicle_type_id":"4","last_reported":1767276621,"current_range_meters":7200,"station_id":"ce4bhbh2rcd13ifvqeqg","pricing_plan_id":"cebpf4jnsgd1na2vs0mg"},{"bike_id":"c24fb52e-8744-45e1-88e1-bcf7cc58aaf7","system_id":"levelo_inurba_marseille","lat":43.29229,"lon":5.36069,"is_reserved":false,"is_disabled":false,"rental_uris":{"android":"levelo://app?vid=c24fb52e-8744-45e1-88e1-bcf7cc58aaf7","ios":"levelo://app?vid=c24fb52e-8744-45e1-88e1-bcf7cc58aaf7"},"vehicle_type_id":"4","last_reported":1767276621,"current_range_meters":7200,"station_id":"ce4bhbh2rcd13ifvqeqg","pricing_plan_id":"cebpf4jnsgd1na2vs0mg"},{"bike_id":"a8800cd5-9636-49e9-b1fe-ec75f21420d4","system_id":"levelo_inurba_marseille","lat":43.22564,"lon":5.4163,"is_reserved":false,"is_disabled":false,"rental_uris":{"android":"levelo://app?vid=a8800cd5-9636-49e9-b1fe-ec75f21420d4","ios":"levelo://app?vid=a8800cd5-9636-49e9-b1fe-ec75f21420d4"},"vehicle_type_id":"4","last_reported":1767276621,"current_range_meters":7200,"station_id":"st_d2o4gvlbi1j2169b742g","pricing_plan_id":"cebpf4jnsgd1na2vs0mg"},{"bike_id":"4372a42a-b334-4e8f-9141-9b6d15dd3e03","system_id":"levelo_inurba_marseille","lat":43.28482,"lon":5.48396,"is_reserved":false,"is_disabled":false,"rental_uris":{"android":"levelo://app?vid=4372a42a-b334-4e8f-9141-9b6d15dd3e03","ios":"levelo://app?vid=4372a42a-b334-4e8f-9141-9b6d15dd3e03"},"vehicle_type_id":"4","last_reported":1767276621,"current_range_meters":7200,"station_id":"","pricing_plan_id":"cebpf4jnsgd1na2vs0mg"},{"bike_id":"a02fb672-5bdf-46c8-9fc1-e8fcbc8dc4d2","system_id":"levelo_inurba_marseille","lat":43.30292,"lon":5.386387,"is_reserved":false,"is_disabled":false,"rental_uris":{"android":"levelo://app?vid=a02fb672-5bdf-46c8-9fc1-e8fcbc8dc4d2","ios":"levelo://app?vid=a02fb672-5bdf-46c8-9fc1-e8fcbc8dc4d2"},"vehicle_type_id":"4","last_reported":1767276621,"current_range_meters":7200,"station_id":"","pricing_plan_id":"cebpf4jnsgd1na2vs0mg"},{"bike_id":"9b31c737-9919-4753-902d-88d0177986b8","system_id":"levelo_inurba_marseille","lat":43.28881,"lon":5.42515,"is_reserved":false,"is_disabled":false,"rental_uris":{"android":"levelo://app?vid=9b31c737-9919-4753-902d-88d0177986b8","ios":"levelo://app?vid=9b31c737-9919-4753-902d-88d0177986b8"},"vehicle_type_id":"4","last_reported":1767276621,"current_range_meters":7200,"station_id":"st_d3b462108ojc7389ooeg","pricing_plan_id":"cebpf4jnsgd1na2vs0mg"},{"bike_id":"9e1c64d3-e7b9-49f4-8f17-a4e4b7f40d5a","system_id":"levelo_inurba_marseille","lat":43.24658,"lon":5.3893,"is_reserved":false,"is_disabled":false,"rental_uris":{"android":"levelo://app?vid=9e1c64d3-e7b9-49f4-8f17-a4e4b7f40d5a","ios":"levelo://app?vid=9e1c64d3-e7b9-49f4-8f17-a4e4b7f40d5a"},"vehicle_type_id":"4","last_reported":1767276621,"current_range_meters":7200,"station_id":"ce4bhg12rcd13ifvqf60","pricing_plan_id":"cebpf4jnsgd1na2vs0mg"},{"bike_id":"d89c4ab8-b836-426b-99a2-352e690cd836","system_id":"levelo_inurba_marseille","lat":43.30792,"lon":5.38149,"is_reserved":false,"is_disabled":false,"rental_uris":{"android":"levelo://app?vid=d89c4ab8-b836-426b-99a2-352e690cd836","ios":"levelo://app?vid=d89c4ab8-b836-426b-99a2-352e690cd836"},"vehicle_type_id":"4","last_reported":1767276621,"current_range_meters":7200,"station_id":"ce4bgt12rcd13ifvqce0","pricing_plan_id":"cebpf4jnsgd1na2vs0mg"},{"bike_id":"1e979309-d823-4aaf-b851-f1be8461cefe","system_id":"levelo_inurba_marseille","lat":43.28481,"lon":5.48407,"is_reserved":false,"is_disabled":false,"rental_uris":{"android":"levelo://app?vid=1e979309-d823-4aaf-b851-f1be8461cefe","ios":"levelo://app?vid=1e979309-d823-4aaf-b851-f1be8461cefe"},"vehicle_type_id":"4","last_reported":1767276621,"current_range_meters":7200,"station_id":"st_d3svhcjqgbts73a3dn0g","pricing_plan_id":"cebpf4jnsgd1na2vs0mg"},{"bike_id":"f297e1d0-d6d1-470d-832a-7cfd1d704b5f","system_id":"levelo_inurba_marseille","lat":43.2687,"lon":5.39272,"is_reserved":false,"is_disabled":false,"rental_uris":{"android":"levelo://app?vid=f297e1d0-d6d1-470d-832a-7cfd1d704b5f","ios":"levelo://app?vid=f297e1d0-d6d1-470d-832a-7cfd1d704b5f"},"vehicle_type_id":"4","last_reported":1767276621,"current_range_meters":7200,"station_id":"","pricing_plan_id":"cebpf4jnsgd1na2vs0mg"},{"bike_id":"d0f5ce5d-60a6-4154-b718-956922d2343a","system_id":"levelo_inurba_marseille","lat":43.30434,"lon":5.388875,"is_reserved":false,"is_disabled":false,"rental_uris":{"android":"levelo://app?vid=d0f5ce5d-60a6-4154-b718-956922d2343a","ios":"levelo://app?vid=d0f5ce5d-60a6-4154-b718-956922d2343a"},"vehicle_type_id":"4","last_reported":1767276621,"current_range_meters":7200,"station_id":"ce4bgk12rcd13ifvqbi0","pricing_plan_id":"cebpf4jnsgd1na2vs0mg"},{"bike_id":"3e3f7bbb-d8be-4283-a158-c83a5251eb44","system_id":"levelo_inurba_marseille","lat":43.24401,"lon":5.37072,"is_reserved":false,"is_disabled":false,"rental_uris":{"android":"levelo://app?vid=3e3f7bbb-d8be-4283-a158-c83a5251eb44","ios":"levelo://app?vid=3e3f7bbb-d8be-4283-a158-c83a5251eb44"},"vehicle_type_id":"4","last_reported":1767276621,"current_range_meters":7200,"station_id":"ce4bhhh2rcd13ifvqfk0","pricing_plan_id":"cebpf4jnsgd1na2vs0mg"},{"bike_id":"56cedb5f-d017-4472-b5e7-d37bea82a31a","system_id":"levelo_inurba_marseille","lat":43.32495,"lon":5.38305,"is_reserved":false,"is_disabled":false,"rental_uris":{"android":"levelo://app?vid=56cedb5f-d017-4472-b5e7-d37bea82a31a","ios":"levelo://app?vid=56cedb5f-d017-4472-b5e7-d37bea82a31a"},"vehicle_type_id":"4","last_reported":1767276621,"current_range_meters":7200,"station_id":"st_d4asgbiv49dc73anf9m0","pricing_plan_id":"cebpf4jnsgd1na2vs0mg"},{"bike_id":"308700b9-43d7-4ad1-bc1a-6707a4516e13","system_id":"levelo_inurba_marseille","lat":43.243844,"lon":5.370565,"is_reserved":false,"is_disabled":false,"rental_uris":{"android":"levelo://app?vid=308700b9-43d7-4ad1-bc1a-6707a4516e13","ios":"levelo://app?vid=308700b9-43d7-4ad1-bc1a-6707a4516e13"},"vehicle_type_id":"4","last_reported":1767276621,"current_range_meters":7200,"station_id":"","pricing_plan_id":"cebpf4jnsgd1na2vs0mg"},{"bike_id":"7df75586-262d-4ec2-8f98-c0691702c6c8","system_id":"levelo_inurba_marseille","lat":43.28173,"lon":5.42663,"is_reserved":false,"is_disabled":false,"rental_uris":{"android":"levelo://app?vid=7df75586-262d-4ec2-8f98-c0691702c6c8","ios":"levelo://app?vid=7df75586-262d-4ec2-8f98-c0691702c6c8"},"vehicle_type_id":"4","last_reported":1767276621,"current_range_meters":7200,"station_id":"ce4bhnh2rcd13ifvqgug","pricing_plan_id":"cebpf4jnsgd1na2vs0mg"},{"bike_id":"11c4fe83-64da-4ac4-b553-eec4e3bfbcd0","system_id":"levelo_inurba_marseille","lat":43.23195,"lon":5.35559,"is_reserved":false,"is_disabled":false,"rental_uris":{"android":"levelo://app?vid=11c4fe83-64da-4ac4-b553-eec4e3bfbcd0","ios":"levelo://app?vid=11c4fe83-64da-4ac4-b553-eec4e3bfbcd0"},"vehicle_type_id":"4","last_reported":1767276621,"current_range_meters":7200,"station_id":"ce4bhu92rcd13ifvqi70","pricing_plan_id":"cebpf4jnsgd1na2vs0mg"},{"bike_id":"49a01a11-8673-492e-9b5e-b92964e4e9ba","system_id":"levelo_inurba_marseille","lat":43.281416,"lon":5.426412,"is_reserved":false,"is_disabled":false,"rental_uris":{"android":"levelo://app?vid=49a01a11-8673-492e-9b5e-b92964e4e9ba","ios":"levelo://app?vid=49a01a11-8673-492e-9b5e-b92964e4e9ba"},"vehicle_type_id":"4","last_reported":1767276621,"current_range_meters":7200,"station_id":"ce4bhnh2rcd13ifvqgug","pricing_plan_id":"cebpf4jnsgd1na2vs0mg"},{"bike_id":"14a063dc-6bdd-4941-b6ce-72e2ea651aa8","system_id":"levelo_inurba_marseille","lat":43.29183,"lon":5.35806,"is_reserved":false,"is_disabled":false,"rental_uris":{"android":"levelo://app?vid=14a063dc-6bdd-4941-b6ce-72e2ea651aa8","ios":"levelo://app?vid=14a063dc-6bdd-4941-b6ce-72e2ea651aa8"},"vehicle_type_id":"4","last_reported":1767276621,"current_range_meters":7200,"station_id":"ce4bhb12rcd13ifvqel0","pricing_plan_id":"cebpf4jnsgd1na2vs0mg"},{"bike_id":"ae16ff2f-039d-4cdf-a936-aa3dd9f21d44","system_id":"levelo_inurba_marseille","lat":43.2706,"lon":5.38301,"is_reserved":false,"is_disabled":false,"rental_uris":{"android":"levelo://app?vid=ae16ff2f-039d-4cdf-a936-aa3dd9f21d44","ios":"levelo://app?vid=ae16ff2f-039d-4cdf-a936-aa3dd9f21d44"},"vehicle_type_id":"4","last_reported":1767276621,"current_range_meters":8000,"station_id":"st_d3n2fo6cfp8s73cte1j0","pricing_plan_id":"cebpf4jnsgd1na2vs0mg"},{"bike_id":"e091a64d-3bea-4eb4-be23-0d33eb28eebf","system_id":"levelo_inurba_marseille","lat":43.26944,"lon":5.40272,"is_reserved":false,"is_disabled":false,"rental_uris":{"android":"levelo://app?vid=e091a64d-3bea-4eb4-be23-0d33eb28eebf","ios":"levelo://app?vid=e091a64d-3bea-4eb4-be23-0d33eb28eebf"},"vehicle_type_id":"4","last_reported":1767276621,"current_range_meters":8000,"station_id":"cjm6bp8fraef2m0cb0m0","pricing_plan_id":"cebpf4jnsgd1na2vs0mg"},{"bike_id":"dc1d1fd3-287c-4df2-89a3-973e9127dcfe","system_id":"levelo_inurba_marseille","lat":43.24623,"lon":5.431487,"is_reserved":false,"is_disabled":false,"rental_uris":{"android":"levelo://app?vid=dc1d1fd3-287c-4df2-89a3-973e9127dcfe","ios":"levelo://app?vid=dc1d1fd3-287c-4df2-89a3-973e9127dcfe"},"vehicle_type_id":"4","last_reported":1767276621,"current_range_meters":8000,"station_id":"st_d2m6c4gdas8pm72e190g","pricing_plan_id":"cebpf4jnsgd1na2vs0mg"},{"bike_id":"c030322a-0c52-4e80-91e9-43aa6ec3f9f1","system_id":"levelo_inurba_marseille","lat":43.21185,"lon":5.35079,"is_reserved":false,"is_disabled":false,"rental_uris":{"android":"levelo://app?vid=c030322a-0c52-4e80-91e9-43aa6ec3f9f1","ios":"levelo://app?vid=c030322a-0c52-4e80-91e9-43aa6ec3f9f1"},"vehicle_type_id":"4","last_reported":1767276621,"current_range_meters":8000,"station_id":"st_cvj6sg6p6f1abm77japg","pricing_plan_id":"cebpf4jnsgd1na2vs0mg"},{"bike_id":"25f3b82f-06ca-4f8f-a005-18bf90572843","system_id":"levelo_inurba_marseille","lat":43.30181,"lon":5.36631,"is_reserved":false,"is_disabled":false,"rental_uris":{"android":"levelo://app?vid=25f3b82f-06ca-4f8f-a005-18bf90572843","ios":"levelo://app?vid=25f3b82f-06ca-4f8f-a005-18bf90572843"},"vehicle_type_id":"4","last_reported":1767276621,"current_range_meters":8000,"station_id":"ce4bgrh2rcd13ifvqc8g","pricing_plan_id":"cebpf4jnsgd1na2vs0mg"},{"bike_id":"ba7500f5-6a35-427e-9149-a2fc11dadf8f","system_id":"levelo_inurba_marseille","lat":43.2842,"lon":5.3498,"is_reserved":false,"is_disabled":false,"rental_uris":{"android":"levelo://app?vid=ba7500f5-6a35-427e-9149-a2fc11dadf8f","ios":"levelo://app?vid=ba7500f5-6a35-427e-9149-a2fc11dadf8f"},"vehicle_type_id":"4","last_reported":1767276621,"current_range_meters":8000,"station_id":"ce4bhbh2rcd13ifvqepg","pricing_plan_id":"cebpf4jnsgd1na2vs0mg"},{"bike_id":"9e5dafc7-f2da-4d0b-b668-e32cc043ceb4","system_id":"levelo_inurba_marseille","lat":43.28047,"lon":5.40073,"is_reserved":false,"is_disabled":false,"rental_uris":{"android":"levelo://app?vid=9e5dafc7-f2da-4d0b-b668-e32cc043ceb4","ios":"levelo://app?vid=9e5dafc7-f2da-4d0b-b668-e32cc043ceb4"},"vehicle_type_id":"4","last_reported":1767276621,"current_range_meters":8000,"station_id":"","pricing_plan_id":"cebpf4jnsgd1na2vs0mg"},{"bike_id":"bb76a84a-e98e-48d3-9c1a-cb33c8071e80","system_id":"levelo_inurba_marseille","lat":43.313203,"lon":5.397035,"is_reserved":false,"is_disabled":false,"rental_uris":{"android":"levelo://app?vid=bb76a84a-e98e-48d3-9c1a-cb33c8071e80","ios":"levelo://app?vid=bb76a84a-e98e-48d3-9c1a-cb33c8071e80"},"vehicle_type_id":"4","last_reported":1767276621,"current_range_meters":8000,"station_id":"ce4bgvp2rcd13ifvqcu0","pricing_plan_id":"cebpf4jnsgd1na2vs0mg"},{"bike_id":"307c193b-b40d-4078-a6d3-6820c7325bfa","system_id":"levelo_inurba_marseille","lat":43.21749,"lon":5.34605,"is_reserved":false,"is_disabled":false,"rental_uris":{"android":"levelo://app?vid=307c193b-b40d-4078-a6d3-6820c7325bfa","ios":"levelo://app?vid=307c193b-b40d-4078-a6d3-6820c7325bfa"},"vehicle_type_id":"4","last_reported":1767276621,"current_range_meters":8000,"station_id":"","pricing_plan_id":"cebpf4jnsgd1na2vs0mg"},{"bike_id":"1a670a54-1840-4940-b62b-05b0e394ae95","system_id":"levelo_inurba_marseille","lat":43.28428,"lon":5.3499,"is_reserved":false,"is_disabled":false,"rental_uris":{"android":"levelo://app?vid=1a670a54-1840-4940-b62b-05b0e394ae95","ios":"levelo://app?vid=1a670a54-1840-4940-b62b-05b0e394ae95"},"vehicle_type_id":"4","last_reported":1767276621,"current_range_meters":8000,"station_id":"ce4bhbh2rcd13ifvqepg","pricing_plan_id":"cebpf4jnsgd1na2vs0mg"},{"bike_id":"d2523aaf-ccf1-449a-8615-958e3d77937d","system_id":"levelo_inurba_marseille","lat":43.29536,"lon":5.38545,"is_reserved":false,"is_disabled":false,"rental_uris":{"android":"levelo://app?vid=d2523aaf-ccf1-449a-8615-958e3d77937d","ios":"levelo://app?vid=d2523aaf-ccf1-449a-8615-958e3d77937d"},"vehicle_type_id":"4","last_reported":1767276621,"current_range_meters":8000,"station_id":"ce4bgih2rcd13ifvqba0","pricing_plan_id":"cebpf4jnsgd1na2vs0mg"},{"bike_id":"d49fd2c9-dca5-4864-87e0-359520dd27b8","system_id":"levelo_inurba_marseille","lat":43.26142,"lon":5.3976,"is_reserved":false,"is_disabled":false,"rental_uris":{"android":"levelo://app?vid=d49fd2c9-dca5-4864-87e0-359520dd27b8","ios":"levelo://app?vid=d49fd2c9-dca5-4864-87e0-359520dd27b8"},"vehicle_type_id":"4","last_reported":1767276621,"current_range_meters":8000,"station_id":"","pricing_plan_id":"cebpf4jnsgd1na2vs0mg"},{"bike_id":"ca2a4141-2d11-4724-ae9a-5df9c6e34715","system_id":"levelo_inurba_marseille","lat":43.24645,"lon":5.38894,"is_reserved":false,"is_disabled":false,"rental_uris":{"android":"levelo://app?vid=ca2a4141-2d11-4724-ae9a-5df9c6e34715","ios":"levelo://app?vid=ca2a4141-2d11-4724-ae9a-5df9c6e34715"},"vehicle_type_id":"4","last_reported":1767276621,"current_range_meters":8000,"station_id":"ce4bhg12rcd13ifvqf60","pricing_plan_id":"cebpf4jnsgd1na2vs0mg"},{"bike_id":"edb144c4-7934-4963-a970-3320a0ca02a8","system_id":"levelo_inurba_marseille","lat":43.217578,"lon":5.34596,"is_reserved":false,"is_disabled":false,"rental_uris":{"android":"levelo://app?vid=edb144c4-7934-4963-a970-3320a0ca02a8","ios":"levelo://app?vid=edb144c4-7934-4963-a970-3320a0ca02a8"},"vehicle_type_id":"4","last_reported":1767276621,"current_range_meters":8000,"station_id":"st_cvj6r9ubvosntc0bgbag","pricing_plan_id":"cebpf4jnsgd1na2vs0mg"},{"bike_id":"f489c472-ee6d-42dd-8be8-3a531cfd3f02","system_id":"levelo_inurba_marseille","lat":43.2877,"lon":5.45483,"is_reserved":false,"is_disabled":false,"rental_uris":{"android":"levelo://app?vid=f489c472-ee6d-42dd-8be8-3a531cfd3f02","ios":"levelo://app?vid=f489c472-ee6d-42dd-8be8-3a531cfd3f02"},"vehicle_type_id":"4","last_reported":1767276621,"current_range_meters":8000,"station_id":"","pricing_plan_id":"cebpf4jnsgd1na2vs0mg"},{"bike_id":"f9e9fd89-b7c6-4e84-90bb-2a2dc045365a","system_id":"levelo_inurba_marseille","lat":43.26016,"lon":5.40883,"is_reserved":false,"is_disabled":false,"rental_uris":{"android":"levelo://app?vid=f9e9fd89-b7c6-4e84-90bb-2a2dc045365a","ios":"levelo://app?vid=f9e9fd89-b7c6-4e84-90bb-2a2dc045365a"},"vehicle_type_id":"4","last_reported":1767276621,"current_range_meters":8000,"station_id":"ce4bhm92rcd13ifvqglg","pricing_plan_id":"cebpf4jnsgd1na2vs0mg"},{"bike_id":"531267e4-ddcb-4440-918c-e02e3020fc45","system_id":"levelo_inurba_marseille","lat":43.28472,"lon":5.38543,"is_reserved":false,"is_disabled":false,"rental_uris":{"android":"levelo://app?vid=531267e4-ddcb-4440-918c-e02e3020fc45","ios":"levelo://app?vid=531267e4-ddcb-4440-918c-e02e3020fc45"},"vehicle_type_id":"4","last_reported":1767276621,"current_range_meters":8400,"station_id":"ce4bh8p2rcd13ifvqeb0","pricing_plan_id":"cebpf4jnsgd1na2vs0mg"},{"bike_id":"a6aa6c9f-b0e3-4c62-8397-469bf61c1776","system_id":"levelo_inurba_marseille","lat":43.26546,"lon":5.37292,"is_reserved":false,"is_disabled":false,"rental_uris":{"android":"levelo://app?vid=a6aa6c9f-b0e3-4c62-8397-469bf61c1776","ios":"levelo://app?vid=a6aa6c9f-b0e3-4c62-8397-469bf61c1776"},"vehicle_type_id":"4","last_reported":1767276621,"current_range_meters":8400,"station_id":"ce4bhg12rcd13ifvqf70","pricing_plan_id":"cebpf4jnsgd1na2vs0mg"},{"bike_id":"4b612c97-f84b-459a-bc6d-0cd90c252bf8","system_id":"levelo_inurba_marseille","lat":43.26517,"lon":5.37956,"is_reserved":false,"is_disabled":false,"rental_uris":{"android":"levelo://app?vid=4b612c97-f84b-459a-bc6d-0cd90c252bf8","ios":"levelo://app?vid=4b612c97-f84b-459a-bc6d-0cd90c252bf8"},"vehicle_type_id":"4","last_reported":1767276621,"current_range_meters":8400,"station_id":"","pricing_plan_id":"cebpf4jnsgd1na2vs0mg"},{"bike_id":"8a9cb631-63e9-428f-b283-78ab220c7b5c","system_id":"levelo_inurba_marseille","lat":43.30333,"lon":5.4042,"is_reserved":false,"is_disabled":false,"rental_uris":{"android":"levelo://app?vid=8a9cb631-63e9-428f-b283-78ab220c7b5c","ios":"levelo://app?vid=8a9cb631-63e9-428f-b283-78ab220c7b5c"},"vehicle_type_id":"4","last_reported":1767276621,"current_range_meters":8400,"station_id":"ce4bh012rcd13ifvqd10","pricing_plan_id":"cebpf4jnsgd1na2vs0mg"},{"bike_id":"b5f80a1c-7345-44ae-9c2d-843287ace1f8","system_id":"levelo_inurba_marseille","lat":43.27435,"lon":5.42396,"is_reserved":false,"is_disabled":false,"rental_uris":{"android":"levelo://app?vid=b5f80a1c-7345-44ae-9c2d-843287ace1f8","ios":"levelo://app?vid=b5f80a1c-7345-44ae-9c2d-843287ace1f8"},"vehicle_type_id":"4","last_reported":1767276621,"current_range_meters":8400,"station_id":"","pricing_plan_id":"cebpf4jnsgd1na2vs0mg"},{"bike_id":"6e8619ec-a3bf-4d04-895c-caf3015d08fa","system_id":"levelo_inurba_marseille","lat":43.29191,"lon":5.35829,"is_reserved":false,"is_disabled":false,"rental_uris":{"android":"levelo://app?vid=6e8619ec-a3bf-4d04-895c-caf3015d08fa","ios":"levelo://app?vid=6e8619ec-a3bf-4d04-895c-caf3015d08fa"},"vehicle_type_id":"4","last_reported":1767276621,"current_range_meters":8400,"station_id":"ce4bhb12rcd13ifvqel0","pricing_plan_id":"cebpf4jnsgd1na2vs0mg"},{"bike_id":"1763bda5-9a2f-4323-b228-f44726653fd8","system_id":"levelo_inurba_marseille","lat":43.28427,"lon":5.34992,"is_reserved":false,"is_disabled":false,"rental_uris":{"android":"levelo://app?vid=1763bda5-9a2f-4323-b228-f44726653fd8","ios":"levelo://app?vid=1763bda5-9a2f-4323-b228-f44726653fd8"},"vehicle_type_id":"4","last_reported":1767276621,"current_range_meters":8400,"station_id":"ce4bhbh2rcd13ifvqepg","pricing_plan_id":"cebpf4jnsgd1na2vs0mg"},{"bike_id":"0d8b64dc-d3a4-4c37-80be-c48d945a81e3","system_id":"levelo_inurba_marseille","lat":43.28491,"lon":5.38454,"is_reserved":false,"is_disabled":true,"rental_uris":{"android":"levelo://app?vid=0d8b64dc-d3a4-4c37-80be-c48d945a81e3","ios":"levelo://app?vid=0d8b64dc-d3a4-4c37-80be-c48d945a81e3"},"vehicle_type_id":"4","last_reported":1767276621,"current_range_meters":8400,"station_id":"ce4bh512rcd13ifvqe3g","pricing_plan_id":"cebpf4jnsgd1na2vs0mg"},{"bike_id":"659bae1a-53de-4128-a53e-a7275b3ad233","system_id":"levelo_inurba_marseille","lat":43.298,"lon":5.38092,"is_reserved":false,"is_disabled":false,"rental_uris":{"android":"levelo://app?vid=659bae1a-53de-4128-a53e-a7275b3ad233","ios":"levelo://app?vid=659bae1a-53de-4128-a53e-a7275b3ad233"},"vehicle_type_id":"4","last_reported":1767276621,"current_range_meters":8400,"station_id":"ce4bgip2rcd13ifvqbb0","pricing_plan_id":"cebpf4jnsgd1na2vs0mg"},{"bike_id":"f50376ee-187b-422c-bfb2-3bcff51c7529","system_id":"levelo_inurba_marseille","lat":43.29007,"lon":5.35609,"is_reserved":false,"is_disabled":false,"rental_uris":{"android":"levelo://app?vid=f50376ee-187b-422c-bfb2-3bcff51c7529","ios":"levelo://app?vid=f50376ee-187b-422c-bfb2-3bcff51c7529"},"vehicle_type_id":"4","last_reported":1767276621,"current_range_meters":8400,"station_id":"ce4bhb92rcd13ifvqen0","pricing_plan_id":"cebpf4jnsgd1na2vs0mg"},{"bike_id":"b675723f-eb2b-4e8e-98d4-b2a5a9f31a16","system_id":"levelo_inurba_marseille","lat":43.30593,"lon":5.37237,"is_reserved":false,"is_disabled":false,"rental_uris":{"android":"levelo://app?vid=b675723f-eb2b-4e8e-98d4-b2a5a9f31a16","ios":"levelo://app?vid=b675723f-eb2b-4e8e-98d4-b2a5a9f31a16"},"vehicle_type_id":"4","last_reported":1767276621,"current_range_meters":8400,"station_id":"ce4bgqh2rcd13ifvqc4g","pricing_plan_id":"cebpf4jnsgd1na2vs0mg"},{"bike_id":"73ffe705-5471-4050-890d-67e3966b70ed","system_id":"levelo_inurba_marseille","lat":43.30112,"lon":5.43123,"is_reserved":false,"is_disabled":false,"rental_uris":{"android":"levelo://app?vid=73ffe705-5471-4050-890d-67e3966b70ed","ios":"levelo://app?vid=73ffe705-5471-4050-890d-67e3966b70ed"},"vehicle_type_id":"4","last_reported":1767276621,"current_range_meters":8400,"station_id":"st_d3js3co5814s73ftftug","pricing_plan_id":"cebpf4jnsgd1na2vs0mg"},{"bike_id":"8f36adfd-9702-444f-9761-701cb7e1083e","system_id":"levelo_inurba_marseille","lat":43.289456,"lon":5.363947,"is_reserved":false,"is_disabled":false,"rental_uris":{"android":"levelo://app?vid=8f36adfd-9702-444f-9761-701cb7e1083e","ios":"levelo://app?vid=8f36adfd-9702-444f-9761-701cb7e1083e"},"vehicle_type_id":"4","last_reported":1767276621,"current_range_meters":8800,"station_id":"ce4bhc92rcd13ifvqetg","pricing_plan_id":"cebpf4jnsgd1na2vs0mg"},{"bike_id":"061bf87f-3ebd-4602-992d-adc6d4472a7e","system_id":"levelo_inurba_marseille","lat":43.23787,"lon":5.3663,"is_reserved":false,"is_disabled":false,"rental_uris":{"android":"levelo://app?vid=061bf87f-3ebd-4602-992d-adc6d4472a7e","ios":"levelo://app?vid=061bf87f-3ebd-4602-992d-adc6d4472a7e"},"vehicle_type_id":"4","last_reported":1767276621,"current_range_meters":8800,"station_id":"st_d3nk18o9ro0c73en2l3g","pricing_plan_id":"cebpf4jnsgd1na2vs0mg"},{"bike_id":"fc63ef86-bb4e-4618-b1e1-9557ca500b2e","system_id":"levelo_inurba_marseille","lat":43.26373,"lon":5.41059,"is_reserved":false,"is_disabled":false,"rental_uris":{"android":"levelo://app?vid=fc63ef86-bb4e-4618-b1e1-9557ca500b2e","ios":"levelo://app?vid=fc63ef86-bb4e-4618-b1e1-9557ca500b2e"},"vehicle_type_id":"4","last_reported":1767276621,"current_range_meters":8800,"station_id":"st_d4e5ca6na9uc73bfl5fg","pricing_plan_id":"cebpf4jnsgd1na2vs0mg"},{"bike_id":"d4c6dc95-f402-4619-8161-a90cb01a834e","system_id":"levelo_inurba_marseille","lat":43.2891,"lon":5.42478,"is_reserved":false,"is_disabled":false,"rental_uris":{"android":"levelo://app?vid=d4c6dc95-f402-4619-8161-a90cb01a834e","ios":"levelo://app?vid=d4c6dc95-f402-4619-8161-a90cb01a834e"},"vehicle_type_id":"4","last_reported":1767276621,"current_range_meters":8800,"station_id":"","pricing_plan_id":"cebpf4jnsgd1na2vs0mg"},{"bike_id":"2183148a-b0ec-4c44-956d-bc6f11e44910","system_id":"levelo_inurba_marseille","lat":43.29513,"lon":5.39058,"is_reserved":false,"is_disabled":false,"rental_uris":{"android":"levelo://app?vid=2183148a-b0ec-4c44-956d-bc6f11e44910","ios":"levelo://app?vid=2183148a-b0ec-4c44-956d-bc6f11e44910"},"vehicle_type_id":"4","last_reported":1767276621,"current_range_meters":8800,"station_id":"ce4bh3p2rcd13ifvqdp0","pricing_plan_id":"cebpf4jnsgd1na2vs0mg"},{"bike_id":"8ed4747c-ffc4-4952-a58f-ccece03fc778","system_id":"levelo_inurba_marseille","lat":43.27199,"lon":5.40986,"is_reserved":false,"is_disabled":false,"rental_uris":{"android":"levelo://app?vid=8ed4747c-ffc4-4952-a58f-ccece03fc778","ios":"levelo://app?vid=8ed4747c-ffc4-4952-a58f-ccece03fc778"},"vehicle_type_id":"4","last_reported":1767276621,"current_range_meters":8800,"station_id":"ce4bhl12rcd13ifvqgf0","pricing_plan_id":"cebpf4jnsgd1na2vs0mg"},{"bike_id":"65586352-19ee-4979-8cba-b52cca760c9d","system_id":"levelo_inurba_marseille","lat":43.29229,"lon":5.38773,"is_reserved":false,"is_disabled":false,"rental_uris":{"android":"levelo://app?vid=65586352-19ee-4979-8cba-b52cca760c9d","ios":"levelo://app?vid=65586352-19ee-4979-8cba-b52cca760c9d"},"vehicle_type_id":"4","last_reported":1767276621,"current_range_meters":8800,"station_id":"","pricing_plan_id":"cebpf4jnsgd1na2vs0mg"},{"bike_id":"89da9f1f-320c-40d1-85bc-bfe896dcaaea","system_id":"levelo_inurba_marseille","lat":43.324958,"lon":5.383064,"is_reserved":false,"is_disabled":false,"rental_uris":{"android":"levelo://app?vid=89da9f1f-320c-40d1-85bc-bfe896dcaaea","ios":"levelo://app?vid=89da9f1f-320c-40d1-85bc-bfe896dcaaea"},"vehicle_type_id":"4","last_reported":1767276621,"current_range_meters":8800,"station_id":"st_d4asgbiv49dc73anf9m0","pricing_plan_id":"cebpf4jnsgd1na2vs0mg"},{"bike_id":"7f8bc2f4-3256-4176-a803-fa7e148de4c6","system_id":"levelo_inurba_marseille","lat":43.2436,"lon":5.40891,"is_reserved":false,"is_disabled":false,"rental_uris":{"android":"levelo://app?vid=7f8bc2f4-3256-4176-a803-fa7e148de4c6","ios":"levelo://app?vid=7f8bc2f4-3256-4176-a803-fa7e148de4c6"},"vehicle_type_id":"4","last_reported":1767276621,"current_range_meters":8800,"station_id":"","pricing_plan_id":"cebpf4jnsgd1na2vs0mg"},{"bike_id":"ca3f2db3-b93a-4ad8-90f8-de36e33fe8b4","system_id":"levelo_inurba_marseille","lat":43.217402,"lon":5.346037,"is_reserved":false,"is_disabled":false,"rental_uris":{"android":"levelo://app?vid=ca3f2db3-b93a-4ad8-90f8-de36e33fe8b4","ios":"levelo://app?vid=ca3f2db3-b93a-4ad8-90f8-de36e33fe8b4"},"vehicle_type_id":"4","last_reported":1767276621,"current_range_meters":8800,"station_id":"","pricing_plan_id":"cebpf4jnsgd1na2vs0mg"},{"bike_id":"83a5ad5a-fe84-4c67-bbe0-e18050e1f9a3","system_id":"levelo_inurba_marseille","lat":43.27674,"lon":5.38897,"is_reserved":false,"is_disabled":false,"rental_uris":{"android":"levelo://app?vid=83a5ad5a-fe84-4c67-bbe0-e18050e1f9a3","ios":"levelo://app?vid=83a5ad5a-fe84-4c67-bbe0-e18050e1f9a3"},"vehicle_type_id":"4","last_reported":1767276621,"current_range_meters":8800,"station_id":"ce4bhi12rcd13ifvqfo0","pricing_plan_id":"cebpf4jnsgd1na2vs0mg"},{"bike_id":"ea5031e4-b749-4d48-ba29-71e8d8d5383b","system_id":"levelo_inurba_marseille","lat":43.26402,"lon":5.37394,"is_reserved":false,"is_disabled":false,"rental_uris":{"android":"levelo://app?vid=ea5031e4-b749-4d48-ba29-71e8d8d5383b","ios":"levelo://app?vid=ea5031e4-b749-4d48-ba29-71e8d8d5383b"},"vehicle_type_id":"4","last_reported":1767276621,"current_range_meters":8800,"station_id":"","pricing_plan_id":"cebpf4jnsgd1na2vs0mg"},{"bike_id":"47502a4f-6643-4d86-adaf-d4a1bda6584d","system_id":"levelo_inurba_marseille","lat":43.30319,"lon":5.4044,"is_reserved":false,"is_disabled":false,"rental_uris":{"android":"levelo://app?vid=47502a4f-6643-4d86-adaf-d4a1bda6584d","ios":"levelo://app?vid=47502a4f-6643-4d86-adaf-d4a1bda6584d"},"vehicle_type_id":"4","last_reported":1767276621,"current_range_meters":8800,"station_id":"ce4bh012rcd13ifvqd10","pricing_plan_id":"cebpf4jnsgd1na2vs0mg"},{"bike_id":"905d2adb-4c11-4943-bfe0-1c94e49f7df2","system_id":"levelo_inurba_marseille","lat":43.29775,"lon":5.38092,"is_reserved":false,"is_disabled":false,"rental_uris":{"android":"levelo://app?vid=905d2adb-4c11-4943-bfe0-1c94e49f7df2","ios":"levelo://app?vid=905d2adb-4c11-4943-bfe0-1c94e49f7df2"},"vehicle_type_id":"4","last_reported":1767276621,"current_range_meters":8800,"station_id":"ce4bgip2rcd13ifvqbb0","pricing_plan_id":"cebpf4jnsgd1na2vs0mg"},{"bike_id":"59b9f952-f261-4669-9bf2-ec09f3352df3","system_id":"levelo_inurba_marseille","lat":43.27095,"lon":5.42278,"is_reserved":false,"is_disabled":false,"rental_uris":{"android":"levelo://app?vid=59b9f952-f261-4669-9bf2-ec09f3352df3","ios":"levelo://app?vid=59b9f952-f261-4669-9bf2-ec09f3352df3"},"vehicle_type_id":"4","last_reported":1767276621,"current_range_meters":8800,"station_id":"ce4bhk92rcd13ifvqgb0","pricing_plan_id":"cebpf4jnsgd1na2vs0mg"},{"bike_id":"6bda29c0-298a-4931-b152-ee72aefab1c3","system_id":"levelo_inurba_marseille","lat":43.29847,"lon":5.37672,"is_reserved":false,"is_disabled":false,"rental_uris":{"android":"levelo://app?vid=6bda29c0-298a-4931-b152-ee72aefab1c3","ios":"levelo://app?vid=6bda29c0-298a-4931-b152-ee72aefab1c3"},"vehicle_type_id":"4","last_reported":1767276621,"current_range_meters":8800,"station_id":"","pricing_plan_id":"cebpf4jnsgd1na2vs0mg"},{"bike_id":"97869cef-0c7d-40b8-8857-d32b49fec0d6","system_id":"levelo_inurba_marseille","lat":43.29803,"lon":5.38087,"is_reserved":false,"is_disabled":false,"rental_uris":{"android":"levelo://app?vid=97869cef-0c7d-40b8-8857-d32b49fec0d6","ios":"levelo://app?vid=97869cef-0c7d-40b8-8857-d32b49fec0d6"},"vehicle_type_id":"4","last_reported":1767276621,"current_range_meters":8800,"station_id":"ce4bgip2rcd13ifvqbb0","pricing_plan_id":"cebpf4jnsgd1na2vs0mg"},{"bike_id":"84e86dfc-b61a-42c1-93b8-a112038f791b","system_id":"levelo_inurba_marseille","lat":43.28614,"lon":5.35108,"is_reserved":false,"is_disabled":false,"rental_uris":{"android":"levelo://app?vid=84e86dfc-b61a-42c1-93b8-a112038f791b","ios":"levelo://app?vid=84e86dfc-b61a-42c1-93b8-a112038f791b"},"vehicle_type_id":"4","last_reported":1767276621,"current_range_meters":8800,"station_id":"ce4bhch2rcd13ifvqeug","pricing_plan_id":"cebpf4jnsgd1na2vs0mg"},{"bike_id":"27f62b3e-34a5-44c0-b8d2-5a7048902926","system_id":"levelo_inurba_marseille","lat":43.295442,"lon":5.381602,"is_reserved":false,"is_disabled":false,"rental_uris":{"android":"levelo://app?vid=27f62b3e-34a5-44c0-b8d2-5a7048902926","ios":"levelo://app?vid=27f62b3e-34a5-44c0-b8d2-5a7048902926"},"vehicle_type_id":"4","last_reported":1767276621,"current_range_meters":9200,"station_id":"","pricing_plan_id":"cebpf4jnsgd1na2vs0mg"},{"bike_id":"20b80e5c-5b37-41dc-a98b-394c8cdb4a29","system_id":"levelo_inurba_marseille","lat":43.25861,"lon":5.39909,"is_reserved":false,"is_disabled":false,"rental_uris":{"android":"levelo://app?vid=20b80e5c-5b37-41dc-a98b-394c8cdb4a29","ios":"levelo://app?vid=20b80e5c-5b37-41dc-a98b-394c8cdb4a29"},"vehicle_type_id":"4","last_reported":1767276621,"current_range_meters":9200,"station_id":"ce4bhl92rcd13ifvqghg","pricing_plan_id":"cebpf4jnsgd1na2vs0mg"},{"bike_id":"67057471-b7f6-4964-9f3d-d28fd0a7dcdb","system_id":"levelo_inurba_marseille","lat":43.31908,"lon":5.40739,"is_reserved":false,"is_disabled":true,"rental_uris":{"android":"levelo://app?vid=67057471-b7f6-4964-9f3d-d28fd0a7dcdb","ios":"levelo://app?vid=67057471-b7f6-4964-9f3d-d28fd0a7dcdb"},"vehicle_type_id":"4","last_reported":1767276621,"current_range_meters":9200,"station_id":"ce4bhq12rcd13ifvqhig","pricing_plan_id":"cebpf4jnsgd1na2vs0mg"},{"bike_id":"f86a25f1-ea9e-4c4d-8fca-5f1887ab98fa","system_id":"levelo_inurba_marseille","lat":43.28479,"lon":5.38435,"is_reserved":false,"is_disabled":false,"rental_uris":{"android":"levelo://app?vid=f86a25f1-ea9e-4c4d-8fca-5f1887ab98fa","ios":"levelo://app?vid=f86a25f1-ea9e-4c4d-8fca-5f1887ab98fa"},"vehicle_type_id":"4","last_reported":1767276621,"current_range_meters":9200,"station_id":"ce4bh512rcd13ifvqe3g","pricing_plan_id":"cebpf4jnsgd1na2vs0mg"},{"bike_id":"2ed4fa7a-7088-44e0-8f53-974ed4946400","system_id":"levelo_inurba_marseille","lat":43.29614,"lon":5.37741,"is_reserved":false,"is_disabled":false,"rental_uris":{"android":"levelo://app?vid=2ed4fa7a-7088-44e0-8f53-974ed4946400","ios":"levelo://app?vid=2ed4fa7a-7088-44e0-8f53-974ed4946400"},"vehicle_type_id":"4","last_reported":1767276621,"current_range_meters":9200,"station_id":"ce4bgi92rcd13ifvqb90","pricing_plan_id":"cebpf4jnsgd1na2vs0mg"},{"bike_id":"915f6698-b884-4298-bbbb-78a00bb5b551","system_id":"levelo_inurba_marseille","lat":43.28981,"lon":5.35614,"is_reserved":false,"is_disabled":false,"rental_uris":{"android":"levelo://app?vid=915f6698-b884-4298-bbbb-78a00bb5b551","ios":"levelo://app?vid=915f6698-b884-4298-bbbb-78a00bb5b551"},"vehicle_type_id":"4","last_reported":1767276621,"current_range_meters":9200,"station_id":"ce4bhb92rcd13ifvqen0","pricing_plan_id":"cebpf4jnsgd1na2vs0mg"},{"bike_id":"a37546a5-5ed0-437a-8b08-467eedf47722","system_id":"levelo_inurba_marseille","lat":43.24536,"lon":5.39523,"is_reserved":false,"is_disabled":false,"rental_uris":{"android":"levelo://app?vid=a37546a5-5ed0-437a-8b08-467eedf47722","ios":"levelo://app?vid=a37546a5-5ed0-437a-8b08-467eedf47722"},"vehicle_type_id":"4","last_reported":1767276621,"current_range_meters":9200,"station_id":"ce4bhlp2rcd13ifvqgjg","pricing_plan_id":"cebpf4jnsgd1na2vs0mg"},{"bike_id":"71feabac-18bb-4c38-9f1c-553d18ed10d6","system_id":"levelo_inurba_marseille","lat":43.29603,"lon":5.37178,"is_reserved":false,"is_disabled":false,"rental_uris":{"android":"levelo://app?vid=71feabac-18bb-4c38-9f1c-553d18ed10d6","ios":"levelo://app?vid=71feabac-18bb-4c38-9f1c-553d18ed10d6"},"vehicle_type_id":"4","last_reported":1767276621,"current_range_meters":9200,"station_id":"ce4bgnh2rcd13ifvqc0g","pricing_plan_id":"cebpf4jnsgd1na2vs0mg"},{"bike_id":"e6bcd5e1-a202-48e6-8b98-f87f833cf8ef","system_id":"levelo_inurba_marseille","lat":43.25502,"lon":5.37652,"is_reserved":false,"is_disabled":false,"rental_uris":{"android":"levelo://app?vid=e6bcd5e1-a202-48e6-8b98-f87f833cf8ef","ios":"levelo://app?vid=e6bcd5e1-a202-48e6-8b98-f87f833cf8ef"},"vehicle_type_id":"4","last_reported":1767276621,"current_range_meters":9200,"station_id":"ce4bhh12rcd13ifvqff0","pricing_plan_id":"cebpf4jnsgd1na2vs0mg"},{"bike_id":"3726ff5a-3e12-42b0-b68f-b0200516c587","system_id":"levelo_inurba_marseille","lat":43.21189,"lon":5.35078,"is_reserved":false,"is_disabled":false,"rental_uris":{"android":"levelo://app?vid=3726ff5a-3e12-42b0-b68f-b0200516c587","ios":"levelo://app?vid=3726ff5a-3e12-42b0-b68f-b0200516c587"},"vehicle_type_id":"4","last_reported":1767276621,"current_range_meters":9200,"station_id":"st_cvj6sg6p6f1abm77japg","pricing_plan_id":"cebpf4jnsgd1na2vs0mg"},{"bike_id":"7a50b4ef-d15d-487b-b18e-8e41c1c952fb","system_id":"levelo_inurba_marseille","lat":43.29468,"lon":5.3976,"is_reserved":false,"is_disabled":false,"rental_uris":{"android":"levelo://app?vid=7a50b4ef-d15d-487b-b18e-8e41c1c952fb","ios":"levelo://app?vid=7a50b4ef-d15d-487b-b18e-8e41c1c952fb"},"vehicle_type_id":"4","last_reported":1767276621,"current_range_meters":9600,"station_id":"ce4bh3h2rcd13ifvqdo0","pricing_plan_id":"cebpf4jnsgd1na2vs0mg"},{"bike_id":"097bad86-709a-43c9-ab5b-3ba3679352e9","system_id":"levelo_inurba_marseille","lat":43.26197,"lon":5.37459,"is_reserved":false,"is_disabled":false,"rental_uris":{"android":"levelo://app?vid=097bad86-709a-43c9-ab5b-3ba3679352e9","ios":"levelo://app?vid=097bad86-709a-43c9-ab5b-3ba3679352e9"},"vehicle_type_id":"4","last_reported":1767276621,"current_range_meters":9600,"station_id":"ce4bhgp2rcd13ifvqfc0","pricing_plan_id":"cebpf4jnsgd1na2vs0mg"},{"bike_id":"c18d1ad8-ca1b-4918-b10e-5f60157c386b","system_id":"levelo_inurba_marseille","lat":43.2379,"lon":5.36635,"is_reserved":false,"is_disabled":false,"rental_uris":{"android":"levelo://app?vid=c18d1ad8-ca1b-4918-b10e-5f60157c386b","ios":"levelo://app?vid=c18d1ad8-ca1b-4918-b10e-5f60157c386b"},"vehicle_type_id":"4","last_reported":1767276621,"current_range_meters":9600,"station_id":"st_d3nk18o9ro0c73en2l3g","pricing_plan_id":"cebpf4jnsgd1na2vs0mg"},{"bike_id":"53924fd8-5777-4f20-9ea2-dc16a02b5d55","system_id":"levelo_inurba_marseille","lat":43.26557,"lon":5.37292,"is_reserved":false,"is_disabled":false,"rental_uris":{"android":"levelo://app?vid=53924fd8-5777-4f20-9ea2-dc16a02b5d55","ios":"levelo://app?vid=53924fd8-5777-4f20-9ea2-dc16a02b5d55"},"vehicle_type_id":"4","last_reported":1767276621,"current_range_meters":9600,"station_id":"ce4bhg12rcd13ifvqf70","pricing_plan_id":"cebpf4jnsgd1na2vs0mg"},{"bike_id":"f1108872-5fa5-476f-80f4-3a1cd6f15393","system_id":"levelo_inurba_marseille","lat":43.29273,"lon":5.4016,"is_reserved":false,"is_disabled":false,"rental_uris":{"android":"levelo://app?vid=f1108872-5fa5-476f-80f4-3a1cd6f15393","ios":"levelo://app?vid=f1108872-5fa5-476f-80f4-3a1cd6f15393"},"vehicle_type_id":"4","last_reported":1767276621,"current_range_meters":9600,"station_id":"ce4bh312rcd13ifvqdk0","pricing_plan_id":"cebpf4jnsgd1na2vs0mg"},{"bike_id":"3501ff75-149d-4276-833a-80688a400562","system_id":"levelo_inurba_marseille","lat":43.272837,"lon":5.362907,"is_reserved":false,"is_disabled":false,"rental_uris":{"android":"levelo://app?vid=3501ff75-149d-4276-833a-80688a400562","ios":"levelo://app?vid=3501ff75-149d-4276-833a-80688a400562"},"vehicle_type_id":"4","last_reported":1767276621,"current_range_meters":9600,"station_id":"","pricing_plan_id":"cebpf4jnsgd1na2vs0mg"},{"bike_id":"bab8f5ce-6ea3-45fd-aa21-29b68816a77a","system_id":"levelo_inurba_marseille","lat":43.265073,"lon":5.395673,"is_reserved":false,"is_disabled":false,"rental_uris":{"android":"levelo://app?vid=bab8f5ce-6ea3-45fd-aa21-29b68816a77a","ios":"levelo://app?vid=bab8f5ce-6ea3-45fd-aa21-29b68816a77a"},"vehicle_type_id":"4","last_reported":1767276621,"current_range_meters":9600,"station_id":"ce4bhi12rcd13ifvqfq0","pricing_plan_id":"cebpf4jnsgd1na2vs0mg"},{"bike_id":"a4bf83f6-5478-4dbd-a08e-d579e90306ee","system_id":"levelo_inurba_marseille","lat":43.33615,"lon":5.4104,"is_reserved":false,"is_disabled":false,"rental_uris":{"android":"levelo://app?vid=a4bf83f6-5478-4dbd-a08e-d579e90306ee","ios":"levelo://app?vid=a4bf83f6-5478-4dbd-a08e-d579e90306ee"},"vehicle_type_id":"4","last_reported":1767276621,"current_range_meters":9600,"station_id":"ce4bhqh2rcd13ifvqhmg","pricing_plan_id":"cebpf4jnsgd1na2vs0mg"},{"bike_id":"19ce5f20-7bb4-4143-b512-c2426b22270d","system_id":"levelo_inurba_marseille","lat":43.26557,"lon":5.37304,"is_reserved":false,"is_disabled":false,"rental_uris":{"android":"levelo://app?vid=19ce5f20-7bb4-4143-b512-c2426b22270d","ios":"levelo://app?vid=19ce5f20-7bb4-4143-b512-c2426b22270d"},"vehicle_type_id":"4","last_reported":1767276621,"current_range_meters":9600,"station_id":"ce4bhg12rcd13ifvqf70","pricing_plan_id":"cebpf4jnsgd1na2vs0mg"},{"bike_id":"833f040f-d0af-41ac-b103-c33ebe1a5661","system_id":"levelo_inurba_marseille","lat":43.2854,"lon":5.440912,"is_reserved":false,"is_disabled":false,"rental_uris":{"android":"levelo://app?vid=833f040f-d0af-41ac-b103-c33ebe1a5661","ios":"levelo://app?vid=833f040f-d0af-41ac-b103-c33ebe1a5661"},"vehicle_type_id":"4","last_reported":1767276621,"current_range_meters":9600,"station_id":"st_d3j3df2ikq2c7380ej80","pricing_plan_id":"cebpf4jnsgd1na2vs0mg"},{"bike_id":"2e432000-19e4-474b-acb8-4742408d8ecf","system_id":"levelo_inurba_marseille","lat":43.29646,"lon":5.37955,"is_reserved":false,"is_disabled":false,"rental_uris":{"android":"levelo://app?vid=2e432000-19e4-474b-acb8-4742408d8ecf","ios":"levelo://app?vid=2e432000-19e4-474b-acb8-4742408d8ecf"},"vehicle_type_id":"4","last_reported":1767276621,"current_range_meters":9600,"station_id":"","pricing_plan_id":"cebpf4jnsgd1na2vs0mg"},{"bike_id":"81586eb2-5997-4a7f-910d-f12ada7984c8","system_id":"levelo_inurba_marseille","lat":43.29887,"lon":5.38629,"is_reserved":false,"is_disabled":false,"rental_uris":{"android":"levelo://app?vid=81586eb2-5997-4a7f-910d-f12ada7984c8","ios":"levelo://app?vid=81586eb2-5997-4a7f-910d-f12ada7984c8"},"vehicle_type_id":"4","last_reported":1767276621,"current_range_meters":9600,"station_id":"","pricing_plan_id":"cebpf4jnsgd1na2vs0mg"},{"bike_id":"9cd33af6-41d1-41ec-a4f6-c787448ebf12","system_id":"levelo_inurba_marseille","lat":43.31301,"lon":5.40147,"is_reserved":false,"is_disabled":false,"rental_uris":{"android":"levelo://app?vid=9cd33af6-41d1-41ec-a4f6-c787448ebf12","ios":"levelo://app?vid=9cd33af6-41d1-41ec-a4f6-c787448ebf12"},"vehicle_type_id":"4","last_reported":1767276621,"current_range_meters":9600,"station_id":"ce4bh092rcd13ifvqd30","pricing_plan_id":"cebpf4jnsgd1na2vs0mg"},{"bike_id":"475de299-2917-42da-9347-8b67ff473f85","system_id":"levelo_inurba_marseille","lat":43.30125,"lon":5.43117,"is_reserved":false,"is_disabled":false,"rental_uris":{"android":"levelo://app?vid=475de299-2917-42da-9347-8b67ff473f85","ios":"levelo://app?vid=475de299-2917-42da-9347-8b67ff473f85"},"vehicle_type_id":"4","last_reported":1767276621,"current_range_meters":9600,"station_id":"st_d3js3co5814s73ftftug","pricing_plan_id":"cebpf4jnsgd1na2vs0mg"},{"bike_id":"406f64a0-da6e-49db-a7ac-d7a777f3175c","system_id":"levelo_inurba_marseille","lat":43.2736,"lon":5.39095,"is_reserved":false,"is_disabled":false,"rental_uris":{"android":"levelo://app?vid=406f64a0-da6e-49db-a7ac-d7a777f3175c","ios":"levelo://app?vid=406f64a0-da6e-49db-a7ac-d7a777f3175c"},"vehicle_type_id":"4","last_reported":1767276621,"current_range_meters":9600,"station_id":"ce4bhgp2rcd13ifvqfe0","pricing_plan_id":"cebpf4jnsgd1na2vs0mg"},{"bike_id":"fe8ede5e-e421-43b2-b0f3-ba2f260a5761","system_id":"levelo_inurba_marseille","lat":43.29291,"lon":5.37442,"is_reserved":false,"is_disabled":false,"rental_uris":{"android":"levelo://app?vid=fe8ede5e-e421-43b2-b0f3-ba2f260a5761","ios":"levelo://app?vid=fe8ede5e-e421-43b2-b0f3-ba2f260a5761"},"vehicle_type_id":"4","last_reported":1767276621,"current_range_meters":9600,"station_id":"ce4bgi12rcd13ifvqb70","pricing_plan_id":"cebpf4jnsgd1na2vs0mg"},{"bike_id":"81b381bc-39c9-4c06-8f0b-900d31e973c1","system_id":"levelo_inurba_marseille","lat":43.25091,"lon":5.39523,"is_reserved":false,"is_disabled":false,"rental_uris":{"android":"levelo://app?vid=81b381bc-39c9-4c06-8f0b-900d31e973c1","ios":"levelo://app?vid=81b381bc-39c9-4c06-8f0b-900d31e973c1"},"vehicle_type_id":"4","last_reported":1767276621,"current_range_meters":9600,"station_id":"ce4bhm12rcd13ifvqgkg","pricing_plan_id":"cebpf4jnsgd1na2vs0mg"},{"bike_id":"da51a696-5705-48cd-a174-f63e3c15d9de","system_id":"levelo_inurba_marseille","lat":43.28887,"lon":5.42541,"is_reserved":false,"is_disabled":false,"rental_uris":{"android":"levelo://app?vid=da51a696-5705-48cd-a174-f63e3c15d9de","ios":"levelo://app?vid=da51a696-5705-48cd-a174-f63e3c15d9de"},"vehicle_type_id":"4","last_reported":1767276621,"current_range_meters":9600,"station_id":"st_d3b462108ojc7389ooeg","pricing_plan_id":"cebpf4jnsgd1na2vs0mg"},{"bike_id":"bebec6bc-9df3-406e-90bc-396ce2b3b0b3","system_id":"levelo_inurba_marseille","lat":43.2637,"lon":5.3741,"is_reserved":false,"is_disabled":false,"rental_uris":{"android":"levelo://app?vid=bebec6bc-9df3-406e-90bc-396ce2b3b0b3","ios":"levelo://app?vid=bebec6bc-9df3-406e-90bc-396ce2b3b0b3"},"vehicle_type_id":"4","last_reported":1767276621,"current_range_meters":9600,"station_id":"","pricing_plan_id":"cebpf4jnsgd1na2vs0mg"},{"bike_id":"5294767e-dd69-4945-8c8e-03dd74e904a7","system_id":"levelo_inurba_marseille","lat":43.23062,"lon":5.35493,"is_reserved":false,"is_disabled":false,"rental_uris":{"android":"levelo://app?vid=5294767e-dd69-4945-8c8e-03dd74e904a7","ios":"levelo://app?vid=5294767e-dd69-4945-8c8e-03dd74e904a7"},"vehicle_type_id":"4","last_reported":1767276621,"current_range_meters":10000,"station_id":"cpo3342slgdg3j2ifvpg","pricing_plan_id":"cebpf4jnsgd1na2vs0mg"},{"bike_id":"637f6ca5-94b4-4966-819c-aa817ec06354","system_id":"levelo_inurba_marseille","lat":43.2922,"lon":5.36069,"is_reserved":false,"is_disabled":false,"rental_uris":{"android":"levelo://app?vid=637f6ca5-94b4-4966-819c-aa817ec06354","ios":"levelo://app?vid=637f6ca5-94b4-4966-819c-aa817ec06354"},"vehicle_type_id":"4","last_reported":1767276621,"current_range_meters":10000,"station_id":"ce4bhbh2rcd13ifvqeqg","pricing_plan_id":"cebpf4jnsgd1na2vs0mg"},{"bike_id":"d8431e58-d3e8-4456-9570-729e3ebbcc73","system_id":"levelo_inurba_marseille","lat":43.30189,"lon":5.37236,"is_reserved":false,"is_disabled":false,"rental_uris":{"android":"levelo://app?vid=d8431e58-d3e8-4456-9570-729e3ebbcc73","ios":"levelo://app?vid=d8431e58-d3e8-4456-9570-729e3ebbcc73"},"vehicle_type_id":"4","last_reported":1767276621,"current_range_meters":10000,"station_id":"","pricing_plan_id":"cebpf4jnsgd1na2vs0mg"},{"bike_id":"27eab711-3794-4c67-b72c-787e5b4b546b","system_id":"levelo_inurba_marseille","lat":43.25566,"lon":5.38245,"is_reserved":false,"is_disabled":false,"rental_uris":{"android":"levelo://app?vid=27eab711-3794-4c67-b72c-787e5b4b546b","ios":"levelo://app?vid=27eab711-3794-4c67-b72c-787e5b4b546b"},"vehicle_type_id":"4","last_reported":1767276621,"current_range_meters":10000,"station_id":"ce4bhih2rcd13ifvqfs0","pricing_plan_id":"cebpf4jnsgd1na2vs0mg"},{"bike_id":"25f1743a-a2b2-454e-84ce-5c43f5ea30d3","system_id":"levelo_inurba_marseille","lat":43.29896,"lon":5.43689,"is_reserved":false,"is_disabled":false,"rental_uris":{"android":"levelo://app?vid=25f1743a-a2b2-454e-84ce-5c43f5ea30d3","ios":"levelo://app?vid=25f1743a-a2b2-454e-84ce-5c43f5ea30d3"},"vehicle_type_id":"4","last_reported":1767276621,"current_range_meters":10000,"station_id":"ce4bhpp2rcd13ifvqhfg","pricing_plan_id":"cebpf4jnsgd1na2vs0mg"},{"bike_id":"961a4b80-6a80-41fc-af4e-cb7c655480a6","system_id":"levelo_inurba_marseille","lat":43.283084,"lon":5.397534,"is_reserved":false,"is_disabled":true,"rental_uris":{"android":"levelo://app?vid=961a4b80-6a80-41fc-af4e-cb7c655480a6","ios":"levelo://app?vid=961a4b80-6a80-41fc-af4e-cb7c655480a6"},"vehicle_type_id":"4","last_reported":1767276621,"current_range_meters":10000,"station_id":"","pricing_plan_id":"cebpf4jnsgd1na2vs0mg"},{"bike_id":"f3a4c2fd-c27a-4ca6-bbe5-3949d2a88808","system_id":"levelo_inurba_marseille","lat":43.2858,"lon":5.42996,"is_reserved":false,"is_disabled":false,"rental_uris":{"android":"levelo://app?vid=f3a4c2fd-c27a-4ca6-bbe5-3949d2a88808","ios":"levelo://app?vid=f3a4c2fd-c27a-4ca6-bbe5-3949d2a88808"},"vehicle_type_id":"4","last_reported":1767276621,"current_range_meters":10000,"station_id":"","pricing_plan_id":"cebpf4jnsgd1na2vs0mg"},{"bike_id":"c70225d4-a502-4469-93b2-aecf70c63654","system_id":"levelo_inurba_marseille","lat":43.25589,"lon":5.38253,"is_reserved":false,"is_disabled":false,"rental_uris":{"android":"levelo://app?vid=c70225d4-a502-4469-93b2-aecf70c63654","ios":"levelo://app?vid=c70225d4-a502-4469-93b2-aecf70c63654"},"vehicle_type_id":"4","last_reported":1767276621,"current_range_meters":10000,"station_id":"ce4bhih2rcd13ifvqfs0","pricing_plan_id":"cebpf4jnsgd1na2vs0mg"},{"bike_id":"6fb516e5-e628-41ad-b5c2-8ff84fd69951","system_id":"levelo_inurba_marseille","lat":43.24799,"lon":5.37462,"is_reserved":false,"is_disabled":false,"rental_uris":{"android":"levelo://app?vid=6fb516e5-e628-41ad-b5c2-8ff84fd69951","ios":"levelo://app?vid=6fb516e5-e628-41ad-b5c2-8ff84fd69951"},"vehicle_type_id":"4","last_reported":1767276621,"current_range_meters":10000,"station_id":"ce4bhgh2rcd13ifvqfb0","pricing_plan_id":"cebpf4jnsgd1na2vs0mg"},{"bike_id":"3fd00cb0-0645-4a8c-874a-2e0df62cb4f5","system_id":"levelo_inurba_marseille","lat":43.297392,"lon":5.380746,"is_reserved":false,"is_disabled":false,"rental_uris":{"android":"levelo://app?vid=3fd00cb0-0645-4a8c-874a-2e0df62cb4f5","ios":"levelo://app?vid=3fd00cb0-0645-4a8c-874a-2e0df62cb4f5"},"vehicle_type_id":"4","last_reported":1767276621,"current_range_meters":10000,"station_id":"","pricing_plan_id":"cebpf4jnsgd1na2vs0mg"},{"bike_id":"f7cc14a3-8c73-4fca-a4c6-edd380709817","system_id":"levelo_inurba_marseille","lat":43.33542,"lon":5.37459,"is_reserved":false,"is_disabled":false,"rental_uris":{"android":"levelo://app?vid=f7cc14a3-8c73-4fca-a4c6-edd380709817","ios":"levelo://app?vid=f7cc14a3-8c73-4fca-a4c6-edd380709817"},"vehicle_type_id":"4","last_reported":1767276621,"current_range_meters":10000,"station_id":"st_d46tts09ee8s73dlu43g","pricing_plan_id":"cebpf4jnsgd1na2vs0mg"},{"bike_id":"e643efe5-3f21-4ef1-bd90-304d19dae986","system_id":"levelo_inurba_marseille","lat":43.26784,"lon":5.39418,"is_reserved":false,"is_disabled":false,"rental_uris":{"android":"levelo://app?vid=e643efe5-3f21-4ef1-bd90-304d19dae986","ios":"levelo://app?vid=e643efe5-3f21-4ef1-bd90-304d19dae986"},"vehicle_type_id":"4","last_reported":1767276621,"current_range_meters":10000,"station_id":"ce4bhh12rcd13ifvqfg0","pricing_plan_id":"cebpf4jnsgd1na2vs0mg"},{"bike_id":"9a253175-fef0-4c75-a8d8-bb357322efb0","system_id":"levelo_inurba_marseille","lat":43.21207,"lon":5.35062,"is_reserved":false,"is_disabled":false,"rental_uris":{"android":"levelo://app?vid=9a253175-fef0-4c75-a8d8-bb357322efb0","ios":"levelo://app?vid=9a253175-fef0-4c75-a8d8-bb357322efb0"},"vehicle_type_id":"4","last_reported":1767276621,"current_range_meters":10000,"station_id":"st_cvj6sg6p6f1abm77japg","pricing_plan_id":"cebpf4jnsgd1na2vs0mg"},{"bike_id":"e24d1d34-5eb2-40e8-8978-1e587817cfce","system_id":"levelo_inurba_marseille","lat":43.250887,"lon":5.395225,"is_reserved":false,"is_disabled":false,"rental_uris":{"android":"levelo://app?vid=e24d1d34-5eb2-40e8-8978-1e587817cfce","ios":"levelo://app?vid=e24d1d34-5eb2-40e8-8978-1e587817cfce"},"vehicle_type_id":"4","last_reported":1767276621,"current_range_meters":10000,"station_id":"ce4bhm12rcd13ifvqgkg","pricing_plan_id":"cebpf4jnsgd1na2vs0mg"},{"bike_id":"1e76a634-1236-4429-a6ca-562668962923","system_id":"levelo_inurba_marseille","lat":43.25217,"lon":5.39438,"is_reserved":false,"is_disabled":false,"rental_uris":{"android":"levelo://app?vid=1e76a634-1236-4429-a6ca-562668962923","ios":"levelo://app?vid=1e76a634-1236-4429-a6ca-562668962923"},"vehicle_type_id":"4","last_reported":1767276621,"current_range_meters":10800,"station_id":"","pricing_plan_id":"cebpf4jnsgd1na2vs0mg"},{"bike_id":"713b2eaa-bc4b-456a-9c0e-6bd5e8150b43","system_id":"levelo_inurba_marseille","lat":43.29535,"lon":5.3855,"is_reserved":false,"is_disabled":false,"rental_uris":{"android":"levelo://app?vid=713b2eaa-bc4b-456a-9c0e-6bd5e8150b43","ios":"levelo://app?vid=713b2eaa-bc4b-456a-9c0e-6bd5e8150b43"},"vehicle_type_id":"4","last_reported":1767276621,"current_range_meters":10800,"station_id":"ce4bgih2rcd13ifvqba0","pricing_plan_id":"cebpf4jnsgd1na2vs0mg"},{"bike_id":"62bbb4f8-cd37-4703-914d-4c2cbb4345e1","system_id":"levelo_inurba_marseille","lat":43.28072,"lon":5.39674,"is_reserved":false,"is_disabled":false,"rental_uris":{"android":"levelo://app?vid=62bbb4f8-cd37-4703-914d-4c2cbb4345e1","ios":"levelo://app?vid=62bbb4f8-cd37-4703-914d-4c2cbb4345e1"},"vehicle_type_id":"4","last_reported":1767276621,"current_range_meters":10800,"station_id":"ce4bho12rcd13ifvqh2g","pricing_plan_id":"cebpf4jnsgd1na2vs0mg"},{"bike_id":"1976f061-e064-45cd-9d75-48c90f29fe4d","system_id":"levelo_inurba_marseille","lat":43.28411,"lon":5.34984,"is_reserved":false,"is_disabled":false,"rental_uris":{"android":"levelo://app?vid=1976f061-e064-45cd-9d75-48c90f29fe4d","ios":"levelo://app?vid=1976f061-e064-45cd-9d75-48c90f29fe4d"},"vehicle_type_id":"4","last_reported":1767276621,"current_range_meters":10800,"station_id":"ce4bhbh2rcd13ifvqepg","pricing_plan_id":"cebpf4jnsgd1na2vs0mg"},{"bike_id":"1e16f8d7-2cd8-4d3d-9227-16bd1b9fe708","system_id":"levelo_inurba_marseille","lat":43.29522,"lon":5.37441,"is_reserved":false,"is_disabled":false,"rental_uris":{"android":"levelo://app?vid=1e16f8d7-2cd8-4d3d-9227-16bd1b9fe708","ios":"levelo://app?vid=1e16f8d7-2cd8-4d3d-9227-16bd1b9fe708"},"vehicle_type_id":"4","last_reported":1767276621,"current_range_meters":10800,"station_id":"","pricing_plan_id":"cebpf4jnsgd1na2vs0mg"},{"bike_id":"54045760-2072-46e5-a5c4-00c3b9646aa6","system_id":"levelo_inurba_marseille","lat":43.29987,"lon":5.37155,"is_reserved":false,"is_disabled":false,"rental_uris":{"android":"levelo://app?vid=54045760-2072-46e5-a5c4-00c3b9646aa6","ios":"levelo://app?vid=54045760-2072-46e5-a5c4-00c3b9646aa6"},"vehicle_type_id":"4","last_reported":1767276621,"current_range_meters":10800,"station_id":"ce4bgr92rcd13ifvqc7g","pricing_plan_id":"cebpf4jnsgd1na2vs0mg"},{"bike_id":"41853112-4688-4aa7-ade9-19232fbbbc52","system_id":"levelo_inurba_marseille","lat":43.30331,"lon":5.40433,"is_reserved":false,"is_disabled":false,"rental_uris":{"android":"levelo://app?vid=41853112-4688-4aa7-ade9-19232fbbbc52","ios":"levelo://app?vid=41853112-4688-4aa7-ade9-19232fbbbc52"},"vehicle_type_id":"4","last_reported":1767276621,"current_range_meters":10800,"station_id":"ce4bh012rcd13ifvqd10","pricing_plan_id":"cebpf4jnsgd1na2vs0mg"},{"bike_id":"b6c2de47-37fa-44c1-ae2a-ab2b9c904820","system_id":"levelo_inurba_marseille","lat":43.28487,"lon":5.3844,"is_reserved":false,"is_disabled":false,"rental_uris":{"android":"levelo://app?vid=b6c2de47-37fa-44c1-ae2a-ab2b9c904820","ios":"levelo://app?vid=b6c2de47-37fa-44c1-ae2a-ab2b9c904820"},"vehicle_type_id":"4","last_reported":1767276621,"current_range_meters":10800,"station_id":"ce4bh512rcd13ifvqe3g","pricing_plan_id":"cebpf4jnsgd1na2vs0mg"},{"bike_id":"7ac98c64-2424-49b0-be1b-1d86a6975c42","system_id":"levelo_inurba_marseille","lat":43.29007,"lon":5.35617,"is_reserved":false,"is_disabled":false,"rental_uris":{"android":"levelo://app?vid=7ac98c64-2424-49b0-be1b-1d86a6975c42","ios":"levelo://app?vid=7ac98c64-2424-49b0-be1b-1d86a6975c42"},"vehicle_type_id":"4","last_reported":1767276621,"current_range_meters":10800,"station_id":"ce4bhb92rcd13ifvqen0","pricing_plan_id":"cebpf4jnsgd1na2vs0mg"},{"bike_id":"08793bdf-bae6-4989-a3e8-8fa2dc512947","system_id":"levelo_inurba_marseille","lat":43.21191,"lon":5.35078,"is_reserved":false,"is_disabled":false,"rental_uris":{"android":"levelo://app?vid=08793bdf-bae6-4989-a3e8-8fa2dc512947","ios":"levelo://app?vid=08793bdf-bae6-4989-a3e8-8fa2dc512947"},"vehicle_type_id":"4","last_reported":1767276621,"current_range_meters":10800,"station_id":"st_cvj6sg6p6f1abm77japg","pricing_plan_id":"cebpf4jnsgd1na2vs0mg"},{"bike_id":"1498f079-e300-4265-837b-8da7d97aca06","system_id":"levelo_inurba_marseille","lat":43.241664,"lon":5.363919,"is_reserved":false,"is_disabled":false,"rental_uris":{"android":"levelo://app?vid=1498f079-e300-4265-837b-8da7d97aca06","ios":"levelo://app?vid=1498f079-e300-4265-837b-8da7d97aca06"},"vehicle_type_id":"4","last_reported":1767276621,"current_range_meters":10800,"station_id":"cpo36qri1sfpv3e86is0","pricing_plan_id":"cebpf4jnsgd1na2vs0mg"},{"bike_id":"77b8dbb9-10a2-471b-8484-641824fdf1ec","system_id":"levelo_inurba_marseille","lat":43.2655,"lon":5.37286,"is_reserved":false,"is_disabled":false,"rental_uris":{"android":"levelo://app?vid=77b8dbb9-10a2-471b-8484-641824fdf1ec","ios":"levelo://app?vid=77b8dbb9-10a2-471b-8484-641824fdf1ec"},"vehicle_type_id":"4","last_reported":1767276621,"current_range_meters":10800,"station_id":"ce4bhg12rcd13ifvqf70","pricing_plan_id":"cebpf4jnsgd1na2vs0mg"},{"bike_id":"43c1a78b-d396-4314-be34-9c431dabef43","system_id":"levelo_inurba_marseille","lat":43.2707,"lon":5.42299,"is_reserved":false,"is_disabled":false,"rental_uris":{"android":"levelo://app?vid=43c1a78b-d396-4314-be34-9c431dabef43","ios":"levelo://app?vid=43c1a78b-d396-4314-be34-9c431dabef43"},"vehicle_type_id":"4","last_reported":1767276621,"current_range_meters":10800,"station_id":"ce4bhk92rcd13ifvqgb0","pricing_plan_id":"cebpf4jnsgd1na2vs0mg"},{"bike_id":"8537bd71-cf9f-4a1e-b237-98f63cc73108","system_id":"levelo_inurba_marseille","lat":43.26503,"lon":5.39545,"is_reserved":false,"is_disabled":false,"rental_uris":{"android":"levelo://app?vid=8537bd71-cf9f-4a1e-b237-98f63cc73108","ios":"levelo://app?vid=8537bd71-cf9f-4a1e-b237-98f63cc73108"},"vehicle_type_id":"4","last_reported":1767276621,"current_range_meters":10800,"station_id":"ce4bhi12rcd13ifvqfq0","pricing_plan_id":"cebpf4jnsgd1na2vs0mg"},{"bike_id":"4fa90134-07de-4b8f-8733-d2b27d5f23ce","system_id":"levelo_inurba_marseille","lat":43.27306,"lon":5.39103,"is_reserved":false,"is_disabled":false,"rental_uris":{"android":"levelo://app?vid=4fa90134-07de-4b8f-8733-d2b27d5f23ce","ios":"levelo://app?vid=4fa90134-07de-4b8f-8733-d2b27d5f23ce"},"vehicle_type_id":"4","last_reported":1767276621,"current_range_meters":10800,"station_id":"ce4bhgp2rcd13ifvqfe0","pricing_plan_id":"cebpf4jnsgd1na2vs0mg"},{"bike_id":"e0decbbd-66f2-41ff-95bf-ae2a7b2f4e23","system_id":"levelo_inurba_marseille","lat":43.2858,"lon":5.42628,"is_reserved":false,"is_disabled":false,"rental_uris":{"android":"levelo://app?vid=e0decbbd-66f2-41ff-95bf-ae2a7b2f4e23","ios":"levelo://app?vid=e0decbbd-66f2-41ff-95bf-ae2a7b2f4e23"},"vehicle_type_id":"4","last_reported":1767276621,"current_range_meters":10800,"station_id":"","pricing_plan_id":"cebpf4jnsgd1na2vs0mg"},{"bike_id":"329f79d1-6877-44e3-98b7-9de0084f3845","system_id":"levelo_inurba_marseille","lat":43.29534,"lon":5.394,"is_reserved":false,"is_disabled":false,"rental_uris":{"android":"levelo://app?vid=329f79d1-6877-44e3-98b7-9de0084f3845","ios":"levelo://app?vid=329f79d1-6877-44e3-98b7-9de0084f3845"},"vehicle_type_id":"4","last_reported":1767276621,"current_range_meters":10800,"station_id":"ce4bh292rcd13ifvqdf0","pricing_plan_id":"cebpf4jnsgd1na2vs0mg"},{"bike_id":"76499c74-973d-426f-8f6d-e26d239c3972","system_id":"levelo_inurba_marseille","lat":43.27941,"lon":5.43586,"is_reserved":false,"is_disabled":false,"rental_uris":{"android":"levelo://app?vid=76499c74-973d-426f-8f6d-e26d239c3972","ios":"levelo://app?vid=76499c74-973d-426f-8f6d-e26d239c3972"},"vehicle_type_id":"4","last_reported":1767276621,"current_range_meters":10800,"station_id":"","pricing_plan_id":"cebpf4jnsgd1na2vs0mg"},{"bike_id":"bf0e9831-c74b-4b77-afac-4e525f8e3fd0","system_id":"levelo_inurba_marseille","lat":43.24395,"lon":5.37069,"is_reserved":false,"is_disabled":false,"rental_uris":{"android":"levelo://app?vid=bf0e9831-c74b-4b77-afac-4e525f8e3fd0","ios":"levelo://app?vid=bf0e9831-c74b-4b77-afac-4e525f8e3fd0"},"vehicle_type_id":"4","last_reported":1767276621,"current_range_meters":10800,"station_id":"ce4bhhh2rcd13ifvqfk0","pricing_plan_id":"cebpf4jnsgd1na2vs0mg"},{"bike_id":"9df162bc-891e-45bf-aca7-b62635560500","system_id":"levelo_inurba_marseille","lat":43.21187,"lon":5.35088,"is_reserved":false,"is_disabled":false,"rental_uris":{"android":"levelo://app?vid=9df162bc-891e-45bf-aca7-b62635560500","ios":"levelo://app?vid=9df162bc-891e-45bf-aca7-b62635560500"},"vehicle_type_id":"4","last_reported":1767276621,"current_range_meters":11200,"station_id":"st_cvj6sg6p6f1abm77japg","pricing_plan_id":"cebpf4jnsgd1na2vs0mg"},{"bike_id":"f1c49e2b-8547-4e4d-84a6-76d2820e2e13","system_id":"levelo_inurba_marseille","lat":43.29256,"lon":5.38449,"is_reserved":false,"is_disabled":false,"rental_uris":{"android":"levelo://app?vid=f1c49e2b-8547-4e4d-84a6-76d2820e2e13","ios":"levelo://app?vid=f1c49e2b-8547-4e4d-84a6-76d2820e2e13"},"vehicle_type_id":"4","last_reported":1767276621,"current_range_meters":11200,"station_id":"ce4bh692rcd13ifvqea0","pricing_plan_id":"cebpf4jnsgd1na2vs0mg"},{"bike_id":"389cf71c-b0db-4227-b975-75bd43efde18","system_id":"levelo_inurba_marseille","lat":43.31489,"lon":5.37304,"is_reserved":false,"is_disabled":false,"rental_uris":{"android":"levelo://app?vid=389cf71c-b0db-4227-b975-75bd43efde18","ios":"levelo://app?vid=389cf71c-b0db-4227-b975-75bd43efde18"},"vehicle_type_id":"4","last_reported":1767276621,"current_range_meters":11200,"station_id":"ce4bgt12rcd13ifvqcd0","pricing_plan_id":"cebpf4jnsgd1na2vs0mg"},{"bike_id":"de4d6dec-43d6-4438-b1b1-061395e51b1a","system_id":"levelo_inurba_marseille","lat":43.28473,"lon":5.38419,"is_reserved":false,"is_disabled":false,"rental_uris":{"android":"levelo://app?vid=de4d6dec-43d6-4438-b1b1-061395e51b1a","ios":"levelo://app?vid=de4d6dec-43d6-4438-b1b1-061395e51b1a"},"vehicle_type_id":"4","last_reported":1767276621,"current_range_meters":11200,"station_id":"ce4bh512rcd13ifvqe3g","pricing_plan_id":"cebpf4jnsgd1na2vs0mg"},{"bike_id":"9cd71620-62fb-4f72-a225-41e5a96f4b2e","system_id":"levelo_inurba_marseille","lat":43.24812,"lon":5.37463,"is_reserved":false,"is_disabled":false,"rental_uris":{"android":"levelo://app?vid=9cd71620-62fb-4f72-a225-41e5a96f4b2e","ios":"levelo://app?vid=9cd71620-62fb-4f72-a225-41e5a96f4b2e"},"vehicle_type_id":"4","last_reported":1767276621,"current_range_meters":11200,"station_id":"ce4bhgh2rcd13ifvqfb0","pricing_plan_id":"cebpf4jnsgd1na2vs0mg"},