{"last_updated":1762801717,"ttl":60,"version":"2.2","data":{"bikes":[{"bike_id":"a22621ed-dce3-441e-82fa-0978db9d5cc0","system_id":"levelo_inurba_marseille","lat":43.337444,"lon":5.374475,"is_reserved":false,"is_disabled":false,"rental_uris":{"android":"levelo://app?vid=a22621ed-dce3-441e-82fa-0978db9d5cc0","ios":"levelo://app?vid=a22621ed-dce3-441e-82fa-0978db9d5cc0"},"vehicle_type_id":"4","last_reported":1762801717,"current_range_meters":0,"station_id":"","pricing_plan_id":"cebpf4jnsgd1na2vs0mg"},{"bike_id":"6b301a98-6f5c-4387-bdb6-e8c6772fecef","system_id":"levelo_inurba_marseille","lat":43.29033,"lon":5.39964,"is_reserved":false,"is_disabled":false,"rental_uris":{"android":"levelo://app?vid=6b301a98-6f5c-4387-bdb6-e8c6772fecef","ios":"levelo://app?vid=6b301a98-6f5c-4387-bdb6-e8c6772fecef"},"vehicle_type_id":"4","last_reported":1762801717,"current_range_meters":2800,"station_id":"ce4bh392rcd13ifvqdm0","pricing_plan_id":"cebpf4jnsgd1na2vs0mg"},{"bike_id":"f7a9367b-4a42-4c29-b4ca-76d9af6c8a85","system_id":"levelo_inurba_marseille","lat":43.30459,"lon":5.37906,"is_reserved":false,"is_disabled":false,"rental_uris":{"android":"levelo://app?vid=f7a9367b-4a42-4c29-b4ca-76d9af6c8a85","ios":"levelo://app?vid=f7a9367b-4a42-4c29-b4ca-76d9af6c8a85"},"vehicle_type_id":"4","last_reported":1762801717,"current_range_meters":2800,"station_id":"ce4bgup2rcd13ifvqcn0","pricing_plan_id":"cebpf4jnsgd1na2vs0mg"},{"bike_id":"d58162db-574a-44f0-b573-b59c9312a09d","system_id":"levelo_inurba_marseille","lat":43.28271,"lon":5.35072,"is_reserved":false,"is_disabled":true,"rental_uris":{"android":"levelo://app?vid=d58162db-574a-44f0-b573-b59c9312a09d","ios":"levelo://app?vid=d58162db-574a-44f0-b573-b59c9312a09d"},"vehicle_type_id":"4","last_reported":1762801717,"current_range_meters":2800,"station_id":"ce4bhbp2rcd13ifvqerg","pricing_plan_id":"cebpf4jnsgd1na2vs0mg"},{"bike_id":"fa833d4e-d8b3-49c6-9eee-7417badde15e","system_id":"levelo_inurba_marseille","lat":43.30606,"lon":5.3723,"is_reserved":false,"is_disabled":false,"rental_uris":{"android":"levelo://app?vid=fa833d4e-d8b3-49c6-9eee-7417badde15e","ios":"levelo://app?vid=fa833d4e-d8b3-49c6-9eee-7417badde15e"},"vehicle_type_id":"4","last_reported":1762801717,"current_range_meters":2800,"station_id":"ce4bgqh2rcd13ifvqc4g","pricing_plan_id":"cebpf4jnsgd1na2vs0mg"},{"bike_id":"a69d6a54-a1e6-4207-9356-ff37cadbe1be","system_id":"levelo_inurba_marseille","lat":43.30145,"lon":5.37422,"is_reserved":false,"is_disabled":false,"rental_uris":{"android":"levelo://app?vid=a69d6a54-a1e6-4207-9356-ff37cadbe1be","ios":"levelo://app?vid=a69d6a54-a1e6-4207-9356-ff37cadbe1be"},"vehicle_type_id":"4","last_reported":1762801717,"current_range_meters":2800,"station_id":"ce4bgs92rcd13ifvqcc0","pricing_plan_id":"cebpf4jnsgd1na2vs0mg"},{"bike_id":"53248d9b-7b9f-47d1-a77f-844ad45b74e8","system_id":"levelo_inurba_marseille","lat":43.30347,"lon":5.41879,"is_reserved":false,"is_disabled":false,"rental_uris":{"android":"levelo://app?vid=53248d9b-7b9f-47d1-a77f-844ad45b74e8","ios":"levelo://app?vid=53248d9b-7b9f-47d1-a77f-844ad45b74e8"},"vehicle_type_id":"4","last_reported":1762801717,"current_range_meters":2800,"station_id":"ce4bhop2rcd13ifvqh7g","pricing_plan_id":"cebpf4jnsgd1na2vs0mg"},{"bike_id":"83645448-77d2-4aa3-9aa8-8b71b36f9fc7","system_id":"levelo_inurba_marseille","lat":43.31075,"lon":5.38494,"is_reserved":false,"is_disabled":false,"rental_uris":{"android":"levelo://app?vid=83645448-77d2-4aa3-9aa8-8b71b36f9fc7","ios":"levelo://app?vid=83645448-77d2-4aa3-9aa8-8b71b36f9fc7"},"vehicle_type_id":"4","last_reported":1762801717,"current_range_meters":2800,"station_id":"","pricing_plan_id":"cebpf4jnsgd1na2vs0mg"},{"bike_id":"870a9ad1-db35-4ab0-bc9a-84476efc6571","system_id":"levelo_inurba_marseille","lat":43.32786,"lon":5.42644,"is_reserved":false,"is_disabled":false,"rental_uris":{"android":"levelo://app?vid=870a9ad1-db35-4ab0-bc9a-84476efc6571","ios":"levelo://app?vid=870a9ad1-db35-4ab0-bc9a-84476efc6571"},"vehicle_type_id":"4","last_reported":1762801717,"current_range_meters":2800,"station_id":"","pricing_plan_id":"cebpf4jnsgd1na2vs0mg"},{"bike_id":"8bc1910b-11b5-47c1-a653-163876b87f2c","system_id":"levelo_inurba_marseille","lat":43.30298,"lon":5.36882,"is_reserved":false,"is_disabled":false,"rental_uris":{"android":"levelo://app?vid=8bc1910b-11b5-47c1-a653-163876b87f2c","ios":"levelo://app?vid=8bc1910b-11b5-47c1-a653-163876b87f2c"},"vehicle_type_id":"4","last_reported":1762801717,"current_range_meters":3200,"station_id":"ce4bgqh2rcd13ifvqc5g","pricing_plan_id":"cebpf4jnsgd1na2vs0mg"},{"bike_id":"1ba45afb-911f-4938-ac16-d2b286ce140f","system_id":"levelo_inurba_marseille","lat":43.321351,"lon":5.367864,"is_reserved":false,"is_disabled":false,"rental_uris":{"android":"levelo://app?vid=1ba45afb-911f-4938-ac16-d2b286ce140f","ios":"levelo://app?vid=1ba45afb-911f-4938-ac16-d2b286ce140f"},"vehicle_type_id":"4","last_reported":1762801717,"current_range_meters":3200,"station_id":"ce4bhrh2rcd13ifvqhug","pricing_plan_id":"cebpf4jnsgd1na2vs0mg"},{"bike_id":"d46cc329-6faa-46a5-8560-210f27aa2deb","system_id":"levelo_inurba_marseille","lat":43.29987,"lon":5.37185,"is_reserved":false,"is_disabled":false,"rental_uris":{"android":"levelo://app?vid=d46cc329-6faa-46a5-8560-210f27aa2deb","ios":"levelo://app?vid=d46cc329-6faa-46a5-8560-210f27aa2deb"},"vehicle_type_id":"4","last_reported":1762801717,"current_range_meters":3200,"station_id":"ce4bgr92rcd13ifvqc7g","pricing_plan_id":"cebpf4jnsgd1na2vs0mg"},{"bike_id":"8040d437-b793-4c7c-83dd-8a60b4a68d3a","system_id":"levelo_inurba_marseille","lat":43.25921,"lon":5.40907,"is_reserved":false,"is_disabled":true,"rental_uris":{"android":"levelo://app?vid=8040d437-b793-4c7c-83dd-8a60b4a68d3a","ios":"levelo://app?vid=8040d437-b793-4c7c-83dd-8a60b4a68d3a"},"vehicle_type_id":"4","last_reported":1762801717,"current_range_meters":3200,"station_id":"ce4bhm92rcd13ifvqglg","pricing_plan_id":"cebpf4jnsgd1na2vs0mg"},{"bike_id":"9327e1c0-efe4-496c-b890-924322fe2973","system_id":"levelo_inurba_marseille","lat":43.31978,"lon":5.38147,"is_reserved":false,"is_disabled":false,"rental_uris":{"android":"levelo://app?vid=9327e1c0-efe4-496c-b890-924322fe2973","ios":"levelo://app?vid=9327e1c0-efe4-496c-b890-924322fe2973"},"vehicle_type_id":"4","last_reported":1762801717,"current_range_meters":3200,"station_id":"ce4bhr12rcd13ifvqhpg","pricing_plan_id":"cebpf4jnsgd1na2vs0mg"},{"bike_id":"cd6c41b2-6b21-43c5-918a-48d1c3874906","system_id":"levelo_inurba_marseille","lat":43.29265,"lon":5.37619,"is_reserved":false,"is_disabled":false,"rental_uris":{"android":"levelo://app?vid=cd6c41b2-6b21-43c5-918a-48d1c3874906","ios":"levelo://app?vid=cd6c41b2-6b21-43c5-918a-48d1c3874906"},"vehicle_type_id":"4","last_reported":1762801717,"current_range_meters":3600,"station_id":"ce4bgi12rcd13ifvqb80","pricing_plan_id":"cebpf4jnsgd1na2vs0mg"},{"bike_id":"21d85569-6f33-4b58-ade2-21191f36640e","system_id":"levelo_inurba_marseille","lat":43.27069,"lon":5.42278,"is_reserved":false,"is_disabled":false,"rental_uris":{"android":"levelo://app?vid=21d85569-6f33-4b58-ade2-21191f36640e","ios":"levelo://app?vid=21d85569-6f33-4b58-ade2-21191f36640e"},"vehicle_type_id":"4","last_reported":1762801717,"current_range_meters":3600,"station_id":"ce4bhk92rcd13ifvqgb0","pricing_plan_id":"cebpf4jnsgd1na2vs0mg"},{"bike_id":"9517dcb9-8b42-4908-b31c-60ccfabfb355","system_id":"levelo_inurba_marseille","lat":43.29516,"lon":5.39402,"is_reserved":false,"is_disabled":false,"rental_uris":{"android":"levelo://app?vid=9517dcb9-8b42-4908-b31c-60ccfabfb355","ios":"levelo://app?vid=9517dcb9-8b42-4908-b31c-60ccfabfb355"},"vehicle_type_id":"4","last_reported":1762801717,"current_range_meters":3600,"station_id":"ce4bh292rcd13ifvqdf0","pricing_plan_id":"cebpf4jnsgd1na2vs0mg"},{"bike_id":"4faecdab-be85-4565-abfe-448dd71d0f78","system_id":"levelo_inurba_marseille","lat":43.306534,"lon":5.400856,"is_reserved":false,"is_disabled":false,"rental_uris":{"android":"levelo://app?vid=4faecdab-be85-4565-abfe-448dd71d0f78","ios":"levelo://app?vid=4faecdab-be85-4565-abfe-448dd71d0f78"},"vehicle_type_id":"4","last_reported":1762801717,"current_range_meters":3600,"station_id":"ce4bh112rcd13ifvqda0","pricing_plan_id":"cebpf4jnsgd1na2vs0mg"},{"bike_id":"562e6cb5-b78a-413c-bba7-6278d50c30b2","system_id":"levelo_inurba_marseille","lat":43.29982,"lon":5.37176,"is_reserved":false,"is_disabled":false,"rental_uris":{"android":"levelo://app?vid=562e6cb5-b78a-413c-bba7-6278d50c30b2","ios":"levelo://app?vid=562e6cb5-b78a-413c-bba7-6278d50c30b2"},"vehicle_type_id":"4","last_reported":1762801717,"current_range_meters":4000,"station_id":"ce4bgr92rcd13ifvqc7g","pricing_plan_id":"cebpf4jnsgd1na2vs0mg"},{"bike_id":"1433c944-98e6-4d10-926e-4e6879538f8c","system_id":"levelo_inurba_marseille","lat":43.29525,"lon":5.3854,"is_reserved":false,"is_disabled":false,"rental_uris":{"android":"levelo://app?vid=1433c944-98e6-4d10-926e-4e6879538f8c","ios":"levelo://app?vid=1433c944-98e6-4d10-926e-4e6879538f8c"},"vehicle_type_id":"4","last_reported":1762801717,"current_range_meters":4000,"station_id":"","pricing_plan_id":"cebpf4jnsgd1na2vs0mg"},{"bike_id":"87c7a0ba-81c6-408e-a57c-27a4eeb09ff9","system_id":"levelo_inurba_marseille","lat":43.29018,"lon":5.38127,"is_reserved":false,"is_disabled":false,"rental_uris":{"android":"levelo://app?vid=87c7a0ba-81c6-408e-a57c-27a4eeb09ff9","ios":"levelo://app?vid=87c7a0ba-81c6-408e-a57c-27a4eeb09ff9"},"vehicle_type_id":"4","last_reported":1762801717,"current_range_meters":4000,"station_id":"ce4bh4p2rcd13ifvqe1g","pricing_plan_id":"cebpf4jnsgd1na2vs0mg"},{"bike_id":"f8289a13-e81c-4623-9f2b-25526f5fdc46","system_id":"levelo_inurba_marseille","lat":43.2987,"lon":5.38914,"is_reserved":false,"is_disabled":false,"rental_uris":{"android":"levelo://app?vid=f8289a13-e81c-4623-9f2b-25526f5fdc46","ios":"levelo://app?vid=f8289a13-e81c-4623-9f2b-25526f5fdc46"},"vehicle_type_id":"4","last_reported":1762801717,"current_range_meters":4000,"station_id":"ce4bh392rcd13ifvqdl0","pricing_plan_id":"cebpf4jnsgd1na2vs0mg"},{"bike_id":"146eb21c-1fc5-4562-b5b8-082af7c6ec6f","system_id":"levelo_inurba_marseille","lat":43.303399,"lon":5.392646,"is_reserved":false,"is_disabled":false,"rental_uris":{"android":"levelo://app?vid=146eb21c-1fc5-4562-b5b8-082af7c6ec6f","ios":"levelo://app?vid=146eb21c-1fc5-4562-b5b8-082af7c6ec6f"},"vehicle_type_id":"4","last_reported":1762801717,"current_range_meters":4400,"station_id":"ce4bh112rcd13ifvqda0","pricing_plan_id":"cebpf4jnsgd1na2vs0mg"},{"bike_id":"2a63506c-8fb0-45cc-a6de-b04ba1ca63a1","system_id":"levelo_inurba_marseille","lat":43.30433,"lon":5.3889,"is_reserved":false,"is_disabled":false,"rental_uris":{"android":"levelo://app?vid=2a63506c-8fb0-45cc-a6de-b04ba1ca63a1","ios":"levelo://app?vid=2a63506c-8fb0-45cc-a6de-b04ba1ca63a1"},"vehicle_type_id":"4","last_reported":1762801717,"current_range_meters":4400,"station_id":"ce4bgk12rcd13ifvqbi0","pricing_plan_id":"cebpf4jnsgd1na2vs0mg"},{"bike_id":"6f98b7a7-ae98-40be-aded-6fe2b547bfca","system_id":"levelo_inurba_marseille","lat":43.28488,"lon":5.484,"is_reserved":false,"is_disabled":false,"rental_uris":{"android":"levelo://app?vid=6f98b7a7-ae98-40be-aded-6fe2b547bfca","ios":"levelo://app?vid=6f98b7a7-ae98-40be-aded-6fe2b547bfca"},"vehicle_type_id":"4","last_reported":1762801717,"current_range_meters":4400,"station_id":"","pricing_plan_id":"cebpf4jnsgd1na2vs0mg"},{"bike_id":"743db1ae-a87f-4091-8481-ff094b703436","system_id":"levelo_inurba_marseille","lat":43.29259,"lon":5.38431,"is_reserved":false,"is_disabled":false,"rental_uris":{"android":"levelo://app?vid=743db1ae-a87f-4091-8481-ff094b703436","ios":"levelo://app?vid=743db1ae-a87f-4091-8481-ff094b703436"},"vehicle_type_id":"4","last_reported":1762801717,"current_range_meters":4800,"station_id":"ce4bh692rcd13ifvqea0","pricing_plan_id":"cebpf4jnsgd1na2vs0mg"},{"bike_id":"67697536-023f-4377-9a19-327bd629b9f7","system_id":"levelo_inurba_marseille","lat":43.29256,"lon":5.40906,"is_reserved":false,"is_disabled":false,"rental_uris":{"android":"levelo://app?vid=67697536-023f-4377-9a19-327bd629b9f7","ios":"levelo://app?vid=67697536-023f-4377-9a19-327bd629b9f7"},"vehicle_type_id":"4","last_reported":1762801717,"current_range_meters":4800,"station_id":"ce4bh192rcd13ifvqdc0","pricing_plan_id":"cebpf4jnsgd1na2vs0mg"},{"bike_id":"15db09df-59b0-446a-87c5-e354a3319258","system_id":"levelo_inurba_marseille","lat":43.28474,"lon":5.48386,"is_reserved":false,"is_disabled":false,"rental_uris":{"android":"levelo://app?vid=15db09df-59b0-446a-87c5-e354a3319258","ios":"levelo://app?vid=15db09df-59b0-446a-87c5-e354a3319258"},"vehicle_type_id":"4","last_reported":1762801717,"current_range_meters":4800,"station_id":"","pricing_plan_id":"cebpf4jnsgd1na2vs0mg"},{"bike_id":"e21bfbed-3713-4a4b-889e-51069cb69671","system_id":"levelo_inurba_marseille","lat":43.28956,"lon":5.36382,"is_reserved":false,"is_disabled":false,"rental_uris":{"android":"levelo://app?vid=e21bfbed-3713-4a4b-889e-51069cb69671","ios":"levelo://app?vid=e21bfbed-3713-4a4b-889e-51069cb69671"},"vehicle_type_id":"4","last_reported":1762801717,"current_range_meters":4800,"station_id":"ce4bhc92rcd13ifvqetg","pricing_plan_id":"cebpf4jnsgd1na2vs0mg"},{"bike_id":"475ddf72-1038-4e9f-8a30-2031edc3ebd5","system_id":"levelo_inurba_marseille","lat":43.28078,"lon":5.39655,"is_reserved":false,"is_disabled":false,"rental_uris":{"android":"levelo://app?vid=475ddf72-1038-4e9f-8a30-2031edc3ebd5","ios":"levelo://app?vid=475ddf72-1038-4e9f-8a30-2031edc3ebd5"},"vehicle_type_id":"4","last_reported":1762801717,"current_range_meters":4800,"station_id":"ce4bho12rcd13ifvqh2g","pricing_plan_id":"cebpf4jnsgd1na2vs0mg"},{"bike_id":"c1a8951c-0b8b-4e04-9556-ddc347871e56","system_id":"levelo_inurba_marseille","lat":43.33621,"lon":5.3542,"is_reserved":false,"is_disabled":false,"rental_uris":{"android":"levelo://app?vid=c1a8951c-0b8b-4e04-9556-ddc347871e56","ios":"levelo://app?vid=c1a8951c-0b8b-4e04-9556-ddc347871e56"},"vehicle_type_id":"4","last_reported":1762801717,"current_range_meters":4800,"station_id":"","pricing_plan_id":"cebpf4jnsgd1na2vs0mg"},{"bike_id":"51999094-518c-42ff-9bac-d3371fa6e87d","system_id":"levelo_inurba_marseille","lat":43.29526,"lon":5.39039,"is_reserved":false,"is_disabled":false,"rental_uris":{"android":"levelo://app?vid=51999094-518c-42ff-9bac-d3371fa6e87d","ios":"levelo://app?vid=51999094-518c-42ff-9bac-d3371fa6e87d"},"vehicle_type_id":"4","last_reported":1762801717,"current_range_meters":4800,"station_id":"ce4bh3p2rcd13ifvqdp0","pricing_plan_id":"cebpf4jnsgd1na2vs0mg"},{"bike_id":"48cab047-ab99-4fe2-9244-b470b313730a","system_id":"levelo_inurba_marseille","lat":43.24086,"lon":5.378153,"is_reserved":false,"is_disabled":false,"rental_uris":{"android":"levelo://app?vid=48cab047-ab99-4fe2-9244-b470b313730a","ios":"levelo://app?vid=48cab047-ab99-4fe2-9244-b470b313730a"},"vehicle_type_id":"4","last_reported":1762801717,"current_range_meters":4800,"station_id":"ce4bhnp2rcd13ifvqgvg","pricing_plan_id":"cebpf4jnsgd1na2vs0mg"},{"bike_id":"d09e3a4b-43e6-414a-a831-e267f881a0e9","system_id":"levelo_inurba_marseille","lat":43.29032,"lon":5.37559,"is_reserved":false,"is_disabled":false,"rental_uris":{"android":"levelo://app?vid=d09e3a4b-43e6-414a-a831-e267f881a0e9","ios":"levelo://app?vid=d09e3a4b-43e6-414a-a831-e267f881a0e9"},"vehicle_type_id":"4","last_reported":1762801717,"current_range_meters":5600,"station_id":"ce4bh692rcd13ifvqe90","pricing_plan_id":"cebpf4jnsgd1na2vs0mg"},{"bike_id":"aa79cbde-d983-4712-9e84-0836e2aa3bd3","system_id":"levelo_inurba_marseille","lat":43.30092,"lon":5.39079,"is_reserved":false,"is_disabled":false,"rental_uris":{"android":"levelo://app?vid=aa79cbde-d983-4712-9e84-0836e2aa3bd3","ios":"levelo://app?vid=aa79cbde-d983-4712-9e84-0836e2aa3bd3"},"vehicle_type_id":"4","last_reported":1762801717,"current_range_meters":5600,"station_id":"ce4bh192rcd13ifvqdb0","pricing_plan_id":"cebpf4jnsgd1na2vs0mg"},{"bike_id":"b5c4eef7-c933-41c2-a6fc-72bf1dce1419","system_id":"levelo_inurba_marseille","lat":43.2953,"lon":5.38552,"is_reserved":false,"is_disabled":false,"rental_uris":{"android":"levelo://app?vid=b5c4eef7-c933-41c2-a6fc-72bf1dce1419","ios":"levelo://app?vid=b5c4eef7-c933-41c2-a6fc-72bf1dce1419"},"vehicle_type_id":"4","last_reported":1762801717,"current_range_meters":5600,"station_id":"ce4bgih2rcd13ifvqba0","pricing_plan_id":"cebpf4jnsgd1na2vs0mg"},{"bike_id":"4dbf0acb-0b22-4812-b2fd-b5c6215a2b8e","system_id":"levelo_inurba_marseille","lat":43.28722,"lon":5.36089,"is_reserved":false,"is_disabled":false,"rental_uris":{"android":"levelo://app?vid=4dbf0acb-0b22-4812-b2fd-b5c6215a2b8e","ios":"levelo://app?vid=4dbf0acb-0b22-4812-b2fd-b5c6215a2b8e"},"vehicle_type_id":"4","last_reported":1762801717,"current_range_meters":5600,"station_id":"cki0cbj6b192h4jlfktg","pricing_plan_id":"cebpf4jnsgd1na2vs0mg"},{"bike_id":"37046d5c-5e99-459d-805d-dfaf6fcb80d0","system_id":"levelo_inurba_marseille","lat":43.31331,"lon":5.39695,"is_reserved":false,"is_disabled":false,"rental_uris":{"android":"levelo://app?vid=37046d5c-5e99-459d-805d-dfaf6fcb80d0","ios":"levelo://app?vid=37046d5c-5e99-459d-805d-dfaf6fcb80d0"},"vehicle_type_id":"4","last_reported":1762801717,"current_range_meters":6000,"station_id":"ce4bgvp2rcd13ifvqcu0","pricing_plan_id":"cebpf4jnsgd1na2vs0mg"},{"bike_id":"85a1aeec-d02b-4398-8e37-8dd5853e5b17","system_id":"levelo_inurba_marseille","lat":43.29267,"lon":5.40939,"is_reserved":false,"is_disabled":false,"rental_uris":{"android":"levelo://app?vid=85a1aeec-d02b-4398-8e37-8dd5853e5b17","ios":"levelo://app?vid=85a1aeec-d02b-4398-8e37-8dd5853e5b17"},"vehicle_type_id":"4","last_reported":1762801717,"current_range_meters":6000,"station_id":"ce4bh192rcd13ifvqdc0","pricing_plan_id":"cebpf4jnsgd1na2vs0mg"},{"bike_id":"5d665087-9549-4a03-a942-8572f71491bf","system_id":"levelo_inurba_marseille","lat":43.279382,"lon":5.411573,"is_reserved":false,"is_disabled":false,"rental_uris":{"android":"levelo://app?vid=5d665087-9549-4a03-a942-8572f71491bf","ios":"levelo://app?vid=5d665087-9549-4a03-a942-8572f71491bf"},"vehicle_type_id":"4","last_reported":1762801717,"current_range_meters":6000,"station_id":"","pricing_plan_id":"cebpf4jnsgd1na2vs0mg"},{"bike_id":"690d1ddd-9c17-4548-ac02-188ffc98e34c","system_id":"levelo_inurba_marseille","lat":43.29542,"lon":5.42279,"is_reserved":false,"is_disabled":false,"rental_uris":{"android":"levelo://app?vid=690d1ddd-9c17-4548-ac02-188ffc98e34c","ios":"levelo://app?vid=690d1ddd-9c17-4548-ac02-188ffc98e34c"},"vehicle_type_id":"4","last_reported":1762801717,"current_range_meters":6400,"station_id":"ce4bhph2rcd13ifvqhdg","pricing_plan_id":"cebpf4jnsgd1na2vs0mg"},{"bike_id":"e4e7a07a-b09e-4eea-b69e-dabeee120473","system_id":"levelo_inurba_marseille","lat":43.250862,"lon":5.39516,"is_reserved":false,"is_disabled":false,"rental_uris":{"android":"levelo://app?vid=e4e7a07a-b09e-4eea-b69e-dabeee120473","ios":"levelo://app?vid=e4e7a07a-b09e-4eea-b69e-dabeee120473"},"vehicle_type_id":"4","last_reported":1762801717,"current_range_meters":6400,"station_id":"ce4bhm12rcd13ifvqgkg","pricing_plan_id":"cebpf4jnsgd1na2vs0mg"},{"bike_id":"e7f6cfcf-ed6d-4d46-8b7a-1a844d02dd39","system_id":"levelo_inurba_marseille","lat":43.26189,"lon":5.37449,"is_reserved":false,"is_disabled":false,"rental_uris":{"android":"levelo://app?vid=e7f6cfcf-ed6d-4d46-8b7a-1a844d02dd39","ios":"levelo://app?vid=e7f6cfcf-ed6d-4d46-8b7a-1a844d02dd39"},"vehicle_type_id":"4","last_reported":1762801717,"current_range_meters":6400,"station_id":"ce4bhgp2rcd13ifvqfc0","pricing_plan_id":"cebpf4jnsgd1na2vs0mg"},{"bike_id":"18e985ad-a5fa-42c5-b154-f8875761bb59","system_id":"levelo_inurba_marseille","lat":43.323475,"lon":5.36735,"is_reserved":false,"is_disabled":false,"rental_uris":{"android":"levelo://app?vid=18e985ad-a5fa-42c5-b154-f8875761bb59","ios":"levelo://app?vid=18e985ad-a5fa-42c5-b154-f8875761bb59"},"vehicle_type_id":"4","last_reported":1762801717,"current_range_meters":6400,"station_id":"ce4bhsh2rcd13ifvqi2g","pricing_plan_id":"cebpf4jnsgd1na2vs0mg"},{"bike_id":"ef6c1ec0-badd-4546-b153-6025668fcf46","system_id":"levelo_inurba_marseille","lat":43.2909,"lon":5.38147,"is_reserved":false,"is_disabled":false,"rental_uris":{"android":"levelo://app?vid=ef6c1ec0-badd-4546-b153-6025668fcf46","ios":"levelo://app?vid=ef6c1ec0-badd-4546-b153-6025668fcf46"},"vehicle_type_id":"4","last_reported":1762801717,"current_range_meters":6400,"station_id":"ce4bh512rcd13ifvqe2g","pricing_plan_id":"cebpf4jnsgd1na2vs0mg"},{"bike_id":"63a4b90c-1b57-4c36-a1a4-e59f52ede3b9","system_id":"levelo_inurba_marseille","lat":43.30082,"lon":5.39089,"is_reserved":false,"is_disabled":true,"rental_uris":{"android":"levelo://app?vid=63a4b90c-1b57-4c36-a1a4-e59f52ede3b9","ios":"levelo://app?vid=63a4b90c-1b57-4c36-a1a4-e59f52ede3b9"},"vehicle_type_id":"4","last_reported":1762801717,"current_range_meters":6800,"station_id":"ce4bh192rcd13ifvqdb0","pricing_plan_id":"cebpf4jnsgd1na2vs0mg"},{"bike_id":"656fa42c-200f-4b99-96f0-2c78f8a9e2e8","system_id":"levelo_inurba_marseille","lat":43.31323,"lon":5.39684,"is_reserved":false,"is_disabled":false,"rental_uris":{"android":"levelo://app?vid=656fa42c-200f-4b99-96f0-2c78f8a9e2e8","ios":"levelo://app?vid=656fa42c-200f-4b99-96f0-2c78f8a9e2e8"},"vehicle_type_id":"4","last_reported":1762801717,"current_range_meters":6800,"station_id":"ce4bgvp2rcd13ifvqcu0","pricing_plan_id":"cebpf4jnsgd1na2vs0mg"},{"bike_id":"1b34efef-5c7f-48e6-81f8-048c0189ef7a","system_id":"levelo_inurba_marseille","lat":43.2784,"lon":5.39216,"is_reserved":false,"is_disabled":false,"rental_uris":{"android":"levelo://app?vid=1b34efef-5c7f-48e6-81f8-048c0189ef7a","ios":"levelo://app?vid=1b34efef-5c7f-48e6-81f8-048c0189ef7a"},"vehicle_type_id":"4","last_reported":1762801717,"current_range_meters":6800,"station_id":"ce4bhjp2rcd13ifvqga0","pricing_plan_id":"cebpf4jnsgd1na2vs0mg"},{"bike_id":"a21c84e6-23e7-41f1-b922-6a19f70224a4","system_id":"levelo_inurba_marseille","lat":43.24173,"lon":5.39732,"is_reserved":false,"is_disabled":false,"rental_uris":{"android":"levelo://app?vid=a21c84e6-23e7-41f1-b922-6a19f70224a4","ios":"levelo://app?vid=a21c84e6-23e7-41f1-b922-6a19f70224a4"},"vehicle_type_id":"4","last_reported":1762801717,"current_range_meters":6800,"station_id":"ce4bhn12rcd13ifvqgpg","pricing_plan_id":"cebpf4jnsgd1na2vs0mg"},{"bike_id":"bcb7664a-39c2-46f8-930f-41cebd3d0b86","system_id":"levelo_inurba_marseille","lat":43.2119,"lon":5.35075,"is_reserved":false,"is_disabled":true,"rental_uris":{"android":"levelo://app?vid=bcb7664a-39c2-46f8-930f-41cebd3d0b86","ios":"levelo://app?vid=bcb7664a-39c2-46f8-930f-41cebd3d0b86"},"vehicle_type_id":"4","last_reported":1762801717,"current_range_meters":6800,"station_id":"st_cvj6sg6p6f1abm77japg","pricing_plan_id":"cebpf4jnsgd1na2vs0mg"},{"bike_id":"9b9e54fc-dab9-4e10-91cf-e7a61f534f2b","system_id":"levelo_inurba_marseille","lat":43.31701,"lon":5.37743,"is_reserved":false,"is_disabled":false,"rental_uris":{"android":"levelo://app?vid=9b9e54fc-dab9-4e10-91cf-e7a61f534f2b","ios":"levelo://app?vid=9b9e54fc-dab9-4e10-91cf-e7a61f534f2b"},"vehicle_type_id":"4","last_reported":1762801717,"current_range_meters":6800,"station_id":"ce4bgth2rcd13ifvqch0","pricing_plan_id":"cebpf4jnsgd1na2vs0mg"},{"bike_id":"d2d874c6-31b2-4c56-8564-c4d3b126b44b","system_id":"levelo_inurba_marseille","lat":43.31331,"lon":5.39689,"is_reserved":false,"is_disabled":false,"rental_uris":{"android":"levelo://app?vid=d2d874c6-31b2-4c56-8564-c4d3b126b44b","ios":"levelo://app?vid=d2d874c6-31b2-4c56-8564-c4d3b126b44b"},"vehicle_type_id":"4","last_reported":1762801717,"current_range_meters":6800,"station_id":"ce4bgvp2rcd13ifvqcu0","pricing_plan_id":"cebpf4jnsgd1na2vs0mg"},{"bike_id":"0b55f0b9-3371-4ac7-b85e-ab95a2adbdc5","system_id":"levelo_inurba_marseille","lat":43.23178,"lon":5.39981,"is_reserved":false,"is_disabled":false,"rental_uris":{"android":"levelo://app?vid=0b55f0b9-3371-4ac7-b85e-ab95a2adbdc5","ios":"levelo://app?vid=0b55f0b9-3371-4ac7-b85e-ab95a2adbdc5"},"vehicle_type_id":"4","last_reported":1762801717,"current_range_meters":7200,"station_id":"ce4bhn12rcd13ifvqgqg","pricing_plan_id":"cebpf4jnsgd1na2vs0mg"},{"bike_id":"cc64b289-643a-42f8-b480-750d1907471c","system_id":"levelo_inurba_marseille","lat":43.297068,"lon":5.366109,"is_reserved":false,"is_disabled":false,"rental_uris":{"android":"levelo://app?vid=cc64b289-643a-42f8-b480-750d1907471c","ios":"levelo://app?vid=cc64b289-643a-42f8-b480-750d1907471c"},"vehicle_type_id":"4","last_reported":1762801717,"current_range_meters":7200,"station_id":"ce4bgn12rcd13ifvqbt0","pricing_plan_id":"cebpf4jnsgd1na2vs0mg"},{"bike_id":"f7df5474-d40f-441e-85d7-dd879c917f6b","system_id":"levelo_inurba_marseille","lat":43.25093,"lon":5.39522,"is_reserved":false,"is_disabled":false,"rental_uris":{"android":"levelo://app?vid=f7df5474-d40f-441e-85d7-dd879c917f6b","ios":"levelo://app?vid=f7df5474-d40f-441e-85d7-dd879c917f6b"},"vehicle_type_id":"4","last_reported":1762801717,"current_range_meters":7200,"station_id":"ce4bhm12rcd13ifvqgkg","pricing_plan_id":"cebpf4jnsgd1na2vs0mg"},{"bike_id":"c804ed0e-8639-4474-87dc-16ee6c014932","system_id":"levelo_inurba_marseille","lat":43.27995,"lon":5.41668,"is_reserved":false,"is_disabled":false,"rental_uris":{"android":"levelo://app?vid=c804ed0e-8639-4474-87dc-16ee6c014932","ios":"levelo://app?vid=c804ed0e-8639-4474-87dc-16ee6c014932"},"vehicle_type_id":"4","last_reported":1762801717,"current_range_meters":7200,"station_id":"ce4bho12rcd13ifvqh1g","pricing_plan_id":"cebpf4jnsgd1na2vs0mg"},{"bike_id":"5997c6b0-b0f4-4848-a8f1-63ca201df211","system_id":"levelo_inurba_marseille","lat":43.33943,"lon":5.41513,"is_reserved":false,"is_disabled":false,"rental_uris":{"android":"levelo://app?vid=5997c6b0-b0f4-4848-a8f1-63ca201df211","ios":"levelo://app?vid=5997c6b0-b0f4-4848-a8f1-63ca201df211"},"vehicle_type_id":"4","last_reported":1762801717,"current_range_meters":7200,"station_id":"","pricing_plan_id":"cebpf4jnsgd1na2vs0mg"},{"bike_id":"e7112d7d-aa3f-44c5-b977-8ffa0b79e7c4","system_id":"levelo_inurba_marseille","lat":43.29261,"lon":5.38446,"is_reserved":false,"is_disabled":false,"rental_uris":{"android":"levelo://app?vid=e7112d7d-aa3f-44c5-b977-8ffa0b79e7c4","ios":"levelo://app?vid=e7112d7d-aa3f-44c5-b977-8ffa0b79e7c4"},"vehicle_type_id":"4","last_reported":1762801717,"current_range_meters":8000,"station_id":"ce4bh692rcd13ifvqea0","pricing_plan_id":"cebpf4jnsgd1na2vs0mg"},{"bike_id":"3a6a2cda-de2d-4cd9-b0b0-cf370481601b","system_id":"levelo_inurba_marseille","lat":43.29619,"lon":5.3717,"is_reserved":false,"is_disabled":false,"rental_uris":{"android":"levelo://app?vid=3a6a2cda-de2d-4cd9-b0b0-cf370481601b","ios":"levelo://app?vid=3a6a2cda-de2d-4cd9-b0b0-cf370481601b"},"vehicle_type_id":"4","last_reported":1762801717,"current_range_meters":8000,"station_id":"ce4bgnh2rcd13ifvqc0g","pricing_plan_id":"cebpf4jnsgd1na2vs0mg"},{"bike_id":"8298846b-4beb-464e-ae72-19bc05be9ad3","system_id":"levelo_inurba_marseille","lat":43.26025,"lon":5.41745,"is_reserved":false,"is_disabled":false,"rental_uris":{"android":"levelo://app?vid=8298846b-4beb-464e-ae72-19bc05be9ad3","ios":"levelo://app?vid=8298846b-4beb-464e-ae72-19bc05be9ad3"},"vehicle_type_id":"4","last_reported":1762801717,"current_range_meters":8000,"station_id":"","pricing_plan_id":"cebpf4jnsgd1na2vs0mg"},{"bike_id":"e792e45d-851d-4109-9188-719af2703e23","system_id":"levelo_inurba_marseille","lat":43.292405,"lon":5.383772,"is_reserved":false,"is_disabled":false,"rental_uris":{"android":"levelo://app?vid=e792e45d-851d-4109-9188-719af2703e23","ios":"levelo://app?vid=e792e45d-851d-4109-9188-719af2703e23"},"vehicle_type_id":"4","last_reported":1762801717,"current_range_meters":8400,"station_id":"ce4bh692rcd13ifvqea0","pricing_plan_id":"cebpf4jnsgd1na2vs0mg"},{"bike_id":"8f5369f5-c9d9-44e2-9611-f79568616ba0","system_id":"levelo_inurba_marseille","lat":43.31677,"lon":5.40483,"is_reserved":false,"is_disabled":false,"rental_uris":{"android":"levelo://app?vid=8f5369f5-c9d9-44e2-9611-f79568616ba0","ios":"levelo://app?vid=8f5369f5-c9d9-44e2-9611-f79568616ba0"},"vehicle_type_id":"4","last_reported":1762801717,"current_range_meters":8400,"station_id":"ce4bh012rcd13ifvqd00","pricing_plan_id":"cebpf4jnsgd1na2vs0mg"},{"bike_id":"01f311c1-8123-448d-a029-7395d79b79a6","system_id":"levelo_inurba_marseille","lat":43.29779,"lon":5.37097,"is_reserved":false,"is_disabled":false,"rental_uris":{"android":"levelo://app?vid=01f311c1-8123-448d-a029-7395d79b79a6","ios":"levelo://app?vid=01f311c1-8123-448d-a029-7395d79b79a6"},"vehicle_type_id":"4","last_reported":1762801717,"current_range_meters":8400,"station_id":"ce4bgop2rcd13ifvqc1g","pricing_plan_id":"cebpf4jnsgd1na2vs0mg"},{"bike_id":"64ffa736-ea74-4505-a734-db0dd59dfe61","system_id":"levelo_inurba_marseille","lat":43.27066,"lon":5.42261,"is_reserved":false,"is_disabled":false,"rental_uris":{"android":"levelo://app?vid=64ffa736-ea74-4505-a734-db0dd59dfe61","ios":"levelo://app?vid=64ffa736-ea74-4505-a734-db0dd59dfe61"},"vehicle_type_id":"4","last_reported":1762801717,"current_range_meters":8400,"station_id":"ce4bhk92rcd13ifvqgb0","pricing_plan_id":"cebpf4jnsgd1na2vs0mg"},{"bike_id":"fff8e2b7-a6a6-450f-b0bb-9db54e5f98cf","system_id":"levelo_inurba_marseille","lat":43.25082,"lon":5.39512,"is_reserved":false,"is_disabled":false,"rental_uris":{"android":"levelo://app?vid=fff8e2b7-a6a6-450f-b0bb-9db54e5f98cf","ios":"levelo://app?vid=fff8e2b7-a6a6-450f-b0bb-9db54e5f98cf"},"vehicle_type_id":"4","last_reported":1762801717,"current_range_meters":8400,"station_id":"ce4bhm12rcd13ifvqgkg","pricing_plan_id":"cebpf4jnsgd1na2vs0mg"},{"bike_id":"a2edf73b-294e-4e03-876a-1f2fcc69ddc3","system_id":"levelo_inurba_marseille","lat":43.331617,"lon":5.376813,"is_reserved":false,"is_disabled":false,"rental_uris":{"android":"levelo://app?vid=a2edf73b-294e-4e03-876a-1f2fcc69ddc3","ios":"levelo://app?vid=a2edf73b-294e-4e03-876a-1f2fcc69ddc3"},"vehicle_type_id":"4","last_reported":1762801717,"current_range_meters":8800,"station_id":"st_d46cu089ee8s73dldbu0","pricing_plan_id":"cebpf4jnsgd1na2vs0mg"},{"bike_id":"e6e75867-63d3-4a22-b3e0-9954699cdd11","system_id":"levelo_inurba_marseille","lat":43.24649,"lon":5.38899,"is_reserved":false,"is_disabled":false,"rental_uris":{"android":"levelo://app?vid=e6e75867-63d3-4a22-b3e0-9954699cdd11","ios":"levelo://app?vid=e6e75867-63d3-4a22-b3e0-9954699cdd11"},"vehicle_type_id":"4","last_reported":1762801717,"current_range_meters":8800,"station_id":"ce4bhg12rcd13ifvqf60","pricing_plan_id":"cebpf4jnsgd1na2vs0mg"},{"bike_id":"d32acf6f-21aa-4fbf-bed6-33d296ca0f9f","system_id":"levelo_inurba_marseille","lat":43.2175,"lon":5.34599,"is_reserved":false,"is_disabled":false,"rental_uris":{"android":"levelo://app?vid=d32acf6f-21aa-4fbf-bed6-33d296ca0f9f","ios":"levelo://app?vid=d32acf6f-21aa-4fbf-bed6-33d296ca0f9f"},"vehicle_type_id":"4","last_reported":1762801717,"current_range_meters":8800,"station_id":"st_cvj6r9ubvosntc0bgbag","pricing_plan_id":"cebpf4jnsgd1na2vs0mg"},{"bike_id":"fbf67f94-0887-4c6e-9150-1108cee4dc7a","system_id":"levelo_inurba_marseille","lat":43.29383,"lon":5.37828,"is_reserved":false,"is_disabled":false,"rental_uris":{"android":"levelo://app?vid=fbf67f94-0887-4c6e-9150-1108cee4dc7a","ios":"levelo://app?vid=fbf67f94-0887-4c6e-9150-1108cee4dc7a"},"vehicle_type_id":"4","last_reported":1762801717,"current_range_meters":8800,"station_id":"ce4bgjh2rcd13ifvqbf0","pricing_plan_id":"cebpf4jnsgd1na2vs0mg"},{"bike_id":"46748178-17b8-4dc8-80b3-39159ff743e0","system_id":"levelo_inurba_marseille","lat":43.30048,"lon":5.38326,"is_reserved":false,"is_disabled":false,"rental_uris":{"android":"levelo://app?vid=46748178-17b8-4dc8-80b3-39159ff743e0","ios":"levelo://app?vid=46748178-17b8-4dc8-80b3-39159ff743e0"},"vehicle_type_id":"4","last_reported":1762801717,"current_range_meters":8800,"station_id":"","pricing_plan_id":"cebpf4jnsgd1na2vs0mg"},{"bike_id":"34a1d4f1-be9b-4328-93f1-e367a5a30247","system_id":"levelo_inurba_marseille","lat":43.30124,"lon":5.38949,"is_reserved":false,"is_disabled":false,"rental_uris":{"android":"levelo://app?vid=34a1d4f1-be9b-4328-93f1-e367a5a30247","ios":"levelo://app?vid=34a1d4f1-be9b-4328-93f1-e367a5a30247"},"vehicle_type_id":"4","last_reported":1762801717,"current_range_meters":8800,"station_id":"","pricing_plan_id":"cebpf4jnsgd1na2vs0mg"},{"bike_id":"f08621f1-92b2-4985-8a3a-96dd283a7c2b","system_id":"levelo_inurba_marseille","lat":43.31354,"lon":5.37932,"is_reserved":false,"is_disabled":false,"rental_uris":{"android":"levelo://app?vid=f08621f1-92b2-4985-8a3a-96dd283a7c2b","ios":"levelo://app?vid=f08621f1-92b2-4985-8a3a-96dd283a7c2b"},"vehicle_type_id":"4","last_reported":1762801717,"current_range_meters":8800,"station_id":"","pricing_plan_id":"cebpf4jnsgd1na2vs0mg"},{"bike_id":"229655f0-13dc-427a-842d-d3a5b5df6db7","system_id":"levelo_inurba_marseille","lat":43.28675,"lon":5.38673,"is_reserved":false,"is_disabled":false,"rental_uris":{"android":"levelo://app?vid=229655f0-13dc-427a-842d-d3a5b5df6db7","ios":"levelo://app?vid=229655f0-13dc-427a-842d-d3a5b5df6db7"},"vehicle_type_id":"4","last_reported":1762801717,"current_range_meters":8800,"station_id":"ce4bh492rcd13ifvqdug","pricing_plan_id":"cebpf4jnsgd1na2vs0mg"},{"bike_id":"296b35f4-bf34-48bd-a614-0084f905815f","system_id":"levelo_inurba_marseille","lat":43.29926,"lon":5.36388,"is_reserved":false,"is_disabled":false,"rental_uris":{"android":"levelo://app?vid=296b35f4-bf34-48bd-a614-0084f905815f","ios":"levelo://app?vid=296b35f4-bf34-48bd-a614-0084f905815f"},"vehicle_type_id":"4","last_reported":1762801717,"current_range_meters":8800,"station_id":"","pricing_plan_id":"cebpf4jnsgd1na2vs0mg"},{"bike_id":"a4459593-8c15-4da5-bd03-9d606f761951","system_id":"levelo_inurba_marseille","lat":43.29524,"lon":5.39395,"is_reserved":false,"is_disabled":false,"rental_uris":{"android":"levelo://app?vid=a4459593-8c15-4da5-bd03-9d606f761951","ios":"levelo://app?vid=a4459593-8c15-4da5-bd03-9d606f761951"},"vehicle_type_id":"4","last_reported":1762801717,"current_range_meters":9200,"station_id":"ce4bh292rcd13ifvqdf0","pricing_plan_id":"cebpf4jnsgd1na2vs0mg"},{"bike_id":"693424fd-c9a2-4b7d-9174-4cfe08761821","system_id":"levelo_inurba_marseille","lat":43.2963,"lon":5.40603,"is_reserved":false,"is_disabled":false,"rental_uris":{"android":"levelo://app?vid=693424fd-c9a2-4b7d-9174-4cfe08761821","ios":"levelo://app?vid=693424fd-c9a2-4b7d-9174-4cfe08761821"},"vehicle_type_id":"4","last_reported":1762801717,"current_range_meters":9200,"station_id":"ce4bh0h2rcd13ifvqd60","pricing_plan_id":"cebpf4jnsgd1na2vs0mg"},{"bike_id":"ebdb5bec-ac33-4499-96e4-2713090e0a8e","system_id":"levelo_inurba_marseille","lat":43.29262,"lon":5.3843,"is_reserved":false,"is_disabled":true,"rental_uris":{"android":"levelo://app?vid=ebdb5bec-ac33-4499-96e4-2713090e0a8e","ios":"levelo://app?vid=ebdb5bec-ac33-4499-96e4-2713090e0a8e"},"vehicle_type_id":"4","last_reported":1762801717,"current_range_meters":9200,"station_id":"ce4bh692rcd13ifvqea0","pricing_plan_id":"cebpf4jnsgd1na2vs0mg"},{"bike_id":"e87b937c-e986-465d-ab91-00a23f40a3bc","system_id":"levelo_inurba_marseille","lat":43.28034,"lon":5.36942,"is_reserved":false,"is_disabled":false,"rental_uris":{"android":"levelo://app?vid=e87b937c-e986-465d-ab91-00a23f40a3bc","ios":"levelo://app?vid=e87b937c-e986-465d-ab91-00a23f40a3bc"},"vehicle_type_id":"4","last_reported":1762801717,"current_range_meters":9200,"station_id":"ce4bha12rcd13ifvqef0","pricing_plan_id":"cebpf4jnsgd1na2vs0mg"},{"bike_id":"258f4075-4e68-4a11-8af5-189efb586036","system_id":"levelo_inurba_marseille","lat":43.29518,"lon":5.39038,"is_reserved":false,"is_disabled":false,"rental_uris":{"android":"levelo://app?vid=258f4075-4e68-4a11-8af5-189efb586036","ios":"levelo://app?vid=258f4075-4e68-4a11-8af5-189efb586036"},"vehicle_type_id":"4","last_reported":1762801717,"current_range_meters":9600,"station_id":"ce4bh3p2rcd13ifvqdp0","pricing_plan_id":"cebpf4jnsgd1na2vs0mg"},{"bike_id":"63d8a065-f82d-4c47-b620-a30ed0ec93ea","system_id":"levelo_inurba_marseille","lat":43.27995,"lon":5.4166,"is_reserved":false,"is_disabled":false,"rental_uris":{"android":"levelo://app?vid=63d8a065-f82d-4c47-b620-a30ed0ec93ea","ios":"levelo://app?vid=63d8a065-f82d-4c47-b620-a30ed0ec93ea"},"vehicle_type_id":"4","last_reported":1762801717,"current_range_meters":9600,"station_id":"ce4bho12rcd13ifvqh1g","pricing_plan_id":"cebpf4jnsgd1na2vs0mg"},{"bike_id":"3d36e441-7d84-4761-a06f-5403b5b11c06","system_id":"levelo_inurba_marseille","lat":43.25864,"lon":5.39896,"is_reserved":false,"is_disabled":false,"rental_uris":{"android":"levelo://app?vid=3d36e441-7d84-4761-a06f-5403b5b11c06","ios":"levelo://app?vid=3d36e441-7d84-4761-a06f-5403b5b11c06"},"vehicle_type_id":"4","last_reported":1762801717,"current_range_meters":9600,"station_id":"ce4bhl92rcd13ifvqghg","pricing_plan_id":"cebpf4jnsgd1na2vs0mg"},{"bike_id":"e7738b0b-6f5c-441d-a3ed-0226668acc21","system_id":"levelo_inurba_marseille","lat":43.301381,"lon":5.387691,"is_reserved":false,"is_disabled":false,"rental_uris":{"android":"levelo://app?vid=e7738b0b-6f5c-441d-a3ed-0226668acc21","ios":"levelo://app?vid=e7738b0b-6f5c-441d-a3ed-0226668acc21"},"vehicle_type_id":"4","last_reported":1762801717,"current_range_meters":9600,"station_id":"","pricing_plan_id":"cebpf4jnsgd1na2vs0mg"},{"bike_id":"b2f47e72-aee9-4796-9c35-bc928a2f0312","system_id":"levelo_inurba_marseille","lat":43.2997,"lon":5.38489,"is_reserved":false,"is_disabled":false,"rental_uris":{"android":"levelo://app?vid=b2f47e72-aee9-4796-9c35-bc928a2f0312","ios":"levelo://app?vid=b2f47e72-aee9-4796-9c35-bc928a2f0312"},"vehicle_type_id":"4","last_reported":1762801717,"current_range_meters":9600,"station_id":"ce4bgj92rcd13ifvqbd0","pricing_plan_id":"cebpf4jnsgd1na2vs0mg"},{"bike_id":"b4cb9bc3-2674-422b-8c74-5594292dd02e","system_id":"levelo_inurba_marseille","lat":43.27526,"lon":5.37499,"is_reserved":false,"is_disabled":false,"rental_uris":{"android":"levelo://app?vid=b4cb9bc3-2674-422b-8c74-5594292dd02e","ios":"levelo://app?vid=b4cb9bc3-2674-422b-8c74-5594292dd02e"},"vehicle_type_id":"4","last_reported":1762801717,"current_range_meters":9600,"station_id":"","pricing_plan_id":"cebpf4jnsgd1na2vs0mg"},{"bike_id":"87524a3f-48c2-4e95-9608-7652abaa9a53","system_id":"levelo_inurba_marseille","lat":43.30711,"lon":5.36758,"is_reserved":false,"is_disabled":false,"rental_uris":{"android":"levelo://app?vid=87524a3f-48c2-4e95-9608-7652abaa9a53","ios":"levelo://app?vid=87524a3f-48c2-4e95-9608-7652abaa9a53"},"vehicle_type_id":"4","last_reported":1762801717,"current_range_meters":10000,"station_id":"","pricing_plan_id":"cebpf4jnsgd1na2vs0mg"},{"bike_id":"fff41c82-14be-4559-8977-14af459e5564","system_id":"levelo_inurba_marseille","lat":43.29795,"lon":5.39345,"is_reserved":false,"is_disabled":false,"rental_uris":{"android":"levelo://app?vid=fff41c82-14be-4559-8977-14af459e5564","ios":"levelo://app?vid=fff41c82-14be-4559-8977-14af459e5564"},"vehicle_type_id":"4","last_reported":1762801717,"current_range_meters":10000,"station_id":"chh1huq6cuj3fo74tm60","pricing_plan_id":"cebpf4jnsgd1na2vs0mg"},{"bike_id":"ab4ac132-5519-4aac-ac12-8b8c2929bb7e","system_id":"levelo_inurba_marseille","lat":43.32302,"lon":5.38493,"is_reserved":false,"is_disabled":false,"rental_uris":{"android":"levelo://app?vid=ab4ac132-5519-4aac-ac12-8b8c2929bb7e","ios":"levelo://app?vid=ab4ac132-5519-4aac-ac12-8b8c2929bb7e"},"vehicle_type_id":"4","last_reported":1762801717,"current_range_meters":10000,"station_id":"st_d45171o9ee8s73djdqug","pricing_plan_id":"cebpf4jnsgd1na2vs0mg"},{"bike_id":"07618fb4-fdf4-452a-a76e-4b0defae3541","system_id":"levelo_inurba_marseille","lat":43.225361,"lon":5.348313,"is_reserved":false,"is_disabled":false,"rental_uris":{"android":"levelo://app?vid=07618fb4-fdf4-452a-a76e-4b0defae3541","ios":"levelo://app?vid=07618fb4-fdf4-452a-a76e-4b0defae3541"},"vehicle_type_id":"4","last_reported":1762801717,"current_range_meters":10000,"station_id":"","pricing_plan_id":"cebpf4jnsgd1na2vs0mg"},{"bike_id":"be3d8650-9293-46bc-b0c9-a47bad563b96","system_id":"levelo_inurba_marseille","lat":43.21761,"lon":5.34611,"is_reserved":false,"is_disabled":false,"rental_uris":{"android":"levelo://app?vid=be3d8650-9293-46bc-b0c9-a47bad563b96","ios":"levelo://app?vid=be3d8650-9293-46bc-b0c9-a47bad563b96"},"vehicle_type_id":"4","last_reported":1762801717,"current_range_meters":10000,"station_id":"st_cvj6r9ubvosntc0bgbag","pricing_plan_id":"cebpf4jnsgd1na2vs0mg"},{"bike_id":"fd513886-05bf-441a-8bc4-814625ad9695","system_id":"levelo_inurba_marseille","lat":43.28942,"lon":5.36643,"is_reserved":false,"is_disabled":false,"rental_uris":{"android":"levelo://app?vid=fd513886-05bf-441a-8bc4-814625ad9695","ios":"levelo://app?vid=fd513886-05bf-441a-8bc4-814625ad9695"},"vehicle_type_id":"4","last_reported":1762801717,"current_range_meters":10000,"station_id":"ce4bhap2rcd13ifvqek0","pricing_plan_id":"cebpf4jnsgd1na2vs0mg"},{"bike_id":"4720db16-8b2a-4715-b38e-881890595c85","system_id":"levelo_inurba_marseille","lat":43.24646,"lon":5.43147,"is_reserved":false,"is_disabled":false,"rental_uris":{"android":"levelo://app?vid=4720db16-8b2a-4715-b38e-881890595c85","ios":"levelo://app?vid=4720db16-8b2a-4715-b38e-881890595c85"},"vehicle_type_id":"4","last_reported":1762801717,"current_range_meters":10000,"station_id":"st_d2m6c4gdas8pm72e190g","pricing_plan_id":"cebpf4jnsgd1na2vs0mg"},{"bike_id":"ea673a9b-229e-4613-866c-e33a2cdf7118","system_id":"levelo_inurba_marseille","lat":43.27952,"lon":5.41042,"is_reserved":false,"is_disabled":false,"rental_uris":{"android":"levelo://app?vid=ea673a9b-229e-4613-866c-e33a2cdf7118","ios":"levelo://app?vid=ea673a9b-229e-4613-866c-e33a2cdf7118"},"vehicle_type_id":"4","last_reported":1762801717,"current_range_meters":10000,"station_id":"ce4bhnp2rcd13ifvqh0g","pricing_plan_id":"cebpf4jnsgd1na2vs0mg"},{"bike_id":"39ff6a52-7c15-4e36-9056-950efe8be9ca","system_id":"levelo_inurba_marseille","lat":43.2848,"lon":5.48403,"is_reserved":false,"is_disabled":false,"rental_uris":{"android":"levelo://app?vid=39ff6a52-7c15-4e36-9056-950efe8be9ca","ios":"levelo://app?vid=39ff6a52-7c15-4e36-9056-950efe8be9ca"},"vehicle_type_id":"4","last_reported":1762801717,"current_range_meters":10000,"station_id":"","pricing_plan_id":"cebpf4jnsgd1na2vs0mg"},{"bike_id":"a906f7c6-e9b7-42af-8bd2-6e1feeb979a5","system_id":"levelo_inurba_marseille","lat":43.28843,"lon":5.39583,"is_reserved":false,"is_disabled":false,"rental_uris":{"android":"levelo://app?vid=a906f7c6-e9b7-42af-8bd2-6e1feeb979a5","ios":"levelo://app?vid=a906f7c6-e9b7-42af-8bd2-6e1feeb979a5"},"vehicle_type_id":"4","last_reported":1762801717,"current_range_meters":10800,"station_id":"","pricing_plan_id":"cebpf4jnsgd1na2vs0mg"},{"bike_id":"c64fee4c-3836-4a94-a755-da7f55e34d14","system_id":"levelo_inurba_marseille","lat":43.29519,"lon":5.38536,"is_reserved":false,"is_disabled":false,"rental_uris":{"android":"levelo://app?vid=c64fee4c-3836-4a94-a755-da7f55e34d14","ios":"levelo://app?vid=c64fee4c-3836-4a94-a755-da7f55e34d14"},"vehicle_type_id":"4","last_reported":1762801717,"current_range_meters":10800,"station_id":"ce4bgih2rcd13ifvqba0","pricing_plan_id":"cebpf4jnsgd1na2vs0mg"},{"bike_id":"dd6887ce-b057-4b97-a82c-8565bc23e529","system_id":"levelo_inurba_marseille","lat":43.29364,"lon":5.37847,"is_reserved":false,"is_disabled":false,"rental_uris":{"android":"levelo://app?vid=dd6887ce-b057-4b97-a82c-8565bc23e529","ios":"levelo://app?vid=dd6887ce-b057-4b97-a82c-8565bc23e529"},"vehicle_type_id":"4","last_reported":1762801717,"current_range_meters":11200,"station_id":"ce4bgjh2rcd13ifvqbf0","pricing_plan_id":"cebpf4jnsgd1na2vs0mg"},{"bike_id":"96807a8e-1b45-4a36-b7ed-92091f4bcaf6","system_id":"levelo_inurba_marseille","lat":43.309306,"lon":5.401424,"is_reserved":false,"is_disabled":true,"rental_uris":{"android":"levelo://app?vid=96807a8e-1b45-4a36-b7ed-92091f4bcaf6","ios":"levelo://app?vid=96807a8e-1b45-4a36-b7ed-92091f4bcaf6"},"vehicle_type_id":"4","last_reported":1762801717,"current_range_meters":11200,"station_id":"","pricing_plan_id":"cebpf4jnsgd1na2vs0mg"},{"bike_id":"4ed4b87f-e4ec-4bca-928c-a0c406b0869b","system_id":"levelo_inurba_marseille","lat":43.27988,"lon":5.40016,"is_reserved":false,"is_disabled":false,"rental_uris":{"android":"levelo://app?vid=4ed4b87f-e4ec-4bca-928c-a0c406b0869b","ios":"levelo://app?vid=4ed4b87f-e4ec-4bca-928c-a0c406b0869b"},"vehicle_type_id":"4","last_reported":1762801717,"current_range_meters":11200,"station_id":"ce4bho92rcd13ifvqh4g","pricing_plan_id":"cebpf4jnsgd1na2vs0mg"},{"bike_id":"a3c64c06-7cf7-4a5c-a838-04f5202f9d3f","system_id":"levelo_inurba_marseille","lat":43.31273,"lon":5.40176,"is_reserved":false,"is_disabled":false,"rental_uris":{"android":"levelo://app?vid=a3c64c06-7cf7-4a5c-a838-04f5202f9d3f","ios":"levelo://app?vid=a3c64c06-7cf7-4a5c-a838-04f5202f9d3f"},"vehicle_type_id":"4","last_reported":1762801717,"current_range_meters":11200,"station_id":"ce4bh092rcd13ifvqd30","pricing_plan_id":"cebpf4jnsgd1na2vs0mg"},{"bike_id":"6da403a0-45ce-4b75-9208-fa1268fc56c2","system_id":"levelo_inurba_marseille","lat":43.27369,"lon":5.36258,"is_reserved":false,"is_disabled":false,"rental_uris":{"android":"levelo://app?vid=6da403a0-45ce-4b75-9208-fa1268fc56c2","ios":"levelo://app?vid=6da403a0-45ce-4b75-9208-fa1268fc56c2"},"vehicle_type_id":"4","last_reported":1762801717,"current_range_meters":11200,"station_id":"ce4bhbh2rcd13ifvqeo0","pricing_plan_id":"cebpf4jnsgd1na2vs0mg"},{"bike_id":"93b49ebf-d9fa-49cd-9da3-22e867a810f3","system_id":"levelo_inurba_marseille","lat":43.29743,"lon":5.41106,"is_reserved":false,"is_disabled":false,"rental_uris":{"android":"levelo://app?vid=93b49ebf-d9fa-49cd-9da3-22e867a810f3","ios":"levelo://app?vid=93b49ebf-d9fa-49cd-9da3-22e867a810f3"},"vehicle_type_id":"4","last_reported":1762801717,"current_range_meters":11200,"station_id":"","pricing_plan_id":"cebpf4jnsgd1na2vs0mg"},{"bike_id":"5200cfce-1c97-45ff-bc9a-de40a884f42a","system_id":"levelo_inurba_marseille","lat":43.29028,"lon":5.38641,"is_reserved":false,"is_disabled":false,"rental_uris":{"android":"levelo://app?vid=5200cfce-1c97-45ff-bc9a-de40a884f42a","ios":"levelo://app?vid=5200cfce-1c97-45ff-bc9a-de40a884f42a"},"vehicle_type_id":"4","last_reported":1762801717,"current_range_meters":11200,"station_id":"ce4bh4p2rcd13ifvqe0g","pricing_plan_id":"cebpf4jnsgd1na2vs0mg"},{"bike_id":"ffe050e8-e964-43f0-affe-fdb013a22c0b","system_id":"levelo_inurba_marseille","lat":43.28468,"lon":5.48407,"is_reserved":false,"is_disabled":false,"rental_uris":{"android":"levelo://app?vid=ffe050e8-e964-43f0-affe-fdb013a22c0b","ios":"levelo://app?vid=ffe050e8-e964-43f0-affe-fdb013a22c0b"},"vehicle_type_id":"4","last_reported":1762801717,"current_range_meters":11200,"station_id":"","pricing_plan_id":"cebpf4jnsgd1na2vs0mg"},{"bike_id":"aaaf596b-bdd6-405d-b4c1-7e006c98c401","system_id":"levelo_inurba_marseille","lat":43.28558,"lon":5.3948,"is_reserved":false,"is_disabled":false,"rental_uris":{"android":"levelo://app?vid=aaaf596b-bdd6-405d-b4c1-7e006c98c401","ios":"levelo://app?vid=aaaf596b-bdd6-405d-b4c1-7e006c98c401"},"vehicle_type_id":"4","last_reported":1762801717,"current_range_meters":11200,"station_id":"ce4bh292rcd13ifvqdg0","pricing_plan_id":"cebpf4jnsgd1na2vs0mg"},{"bike_id":"a2537e26-57f5-4e0f-91e8-ef22c9326e2c","system_id":"levelo_inurba_marseille","lat":43.24073,"lon":5.37753,"is_reserved":false,"is_disabled":false,"rental_uris":{"android":"levelo://app?vid=a2537e26-57f5-4e0f-91e8-ef22c9326e2c","ios":"levelo://app?vid=a2537e26-57f5-4e0f-91e8-ef22c9326e2c"},"vehicle_type_id":"4","last_reported":1762801717,"current_range_meters":11600,"station_id":"ce4bhnp2rcd13ifvqgvg","pricing_plan_id":"cebpf4jnsgd1na2vs0mg"},{"bike_id":"b9af5f68-090e-457c-a4a8-7c915c5e8e0e","system_id":"levelo_inurba_marseille","lat":43.2929,"lon":5.3746,"is_reserved":false,"is_disabled":false,"rental_uris":{"android":"levelo://app?vid=b9af5f68-090e-457c-a4a8-7c915c5e8e0e","ios":"levelo://app?vid=b9af5f68-090e-457c-a4a8-7c915c5e8e0e"},"vehicle_type_id":"4","last_reported":1762801717,"current_range_meters":11600,"station_id":"ce4bgi12rcd13ifvqb70","pricing_plan_id":"cebpf4jnsgd1na2vs0mg"},{"bike_id":"896a0fc4-e98e-425f-b646-7db4d5ace172","system_id":"levelo_inurba_marseille","lat":43.3199,"lon":5.38155,"is_reserved":false,"is_disabled":false,"rental_uris":{"android":"levelo://app?vid=896a0fc4-e98e-425f-b646-7db4d5ace172","ios":"levelo://app?vid=896a0fc4-e98e-425f-b646-7db4d5ace172"},"vehicle_type_id":"4","last_reported":1762801717,"current_range_meters":11600,"station_id":"ce4bhr12rcd13ifvqhpg","pricing_plan_id":"cebpf4jnsgd1na2vs0mg"},{"bike_id":"ade60b12-7fe0-4d78-bf24-ff8e06802418","system_id":"levelo_inurba_marseille","lat":43.29246,"lon":5.40903,"is_reserved":false,"is_disabled":false,"rental_uris":{"android":"levelo://app?vid=ade60b12-7fe0-4d78-bf24-ff8e06802418","ios":"levelo://app?vid=ade60b12-7fe0-4d78-bf24-ff8e06802418"},"vehicle_type_id":"4","last_reported":1762801717,"current_range_meters":11600,"station_id":"ce4bh192rcd13ifvqdc0","pricing_plan_id":"cebpf4jnsgd1na2vs0mg"},{"bike_id":"24de70df-9b80-4721-8771-f61cb7be1ef9","system_id":"levelo_inurba_marseille","lat":43.3192,"lon":5.38126,"is_reserved":false,"is_disabled":false,"rental_uris":{"android":"levelo://app?vid=24de70df-9b80-4721-8771-f61cb7be1ef9","ios":"levelo://app?vid=24de70df-9b80-4721-8771-f61cb7be1ef9"},"vehicle_type_id":"4","last_reported":1762801717,"current_range_meters":11600,"station_id":"","pricing_plan_id":"cebpf4jnsgd1na2vs0mg"},{"bike_id":"cf76997a-52ab-4c4e-a194-261835100f90","system_id":"levelo_inurba_marseille","lat":43.30545,"lon":5.38422,"is_reserved":false,"is_disabled":false,"rental_uris":{"android":"levelo://app?vid=cf76997a-52ab-4c4e-a194-261835100f90","ios":"levelo://app?vid=cf76997a-52ab-4c4e-a194-261835100f90"},"vehicle_type_id":"4","last_reported":1762801717,"current_range_meters":11600,"station_id":"ce4bgg92rcd13ifvqb30","pricing_plan_id":"cebpf4jnsgd1na2vs0mg"},{"bike_id":"e03fc219-f6b9-4c81-b2b0-bb752a1c7fa7","system_id":"levelo_inurba_marseille","lat":43.279829,"lon":5.400204,"is_reserved":false,"is_disabled":false,"rental_uris":{"android":"levelo://app?vid=e03fc219-f6b9-4c81-b2b0-bb752a1c7fa7","ios":"levelo://app?vid=e03fc219-f6b9-4c81-b2b0-bb752a1c7fa7"},"vehicle_type_id":"4","last_reported":1762801717,"current_range_meters":11600,"station_id":"ce4bho92rcd13ifvqh4g","pricing_plan_id":"cebpf4jnsgd1na2vs0mg"},{"bike_id":"cc7e9749-d205-466e-a3ba-a04ec3ee1c9f","system_id":"levelo_inurba_marseille","lat":43.270714,"lon":5.422774,"is_reserved":false,"is_disabled":false,"rental_uris":{"android":"levelo://app?vid=cc7e9749-d205-466e-a3ba-a04ec3ee1c9f","ios":"levelo://app?vid=cc7e9749-d205-466e-a3ba-a04ec3ee1c9f"},"vehicle_type_id":"4","last_reported":1762801717,"current_range_meters":12000,"station_id":"ce4bhk92rcd13ifvqgb0","pricing_plan_id":"cebpf4jnsgd1na2vs0mg"},{"bike_id":"2d003246-289e-4235-87e3-d86a55465f5e","system_id":"levelo_inurba_marseille","lat":43.29892,"lon":5.37537,"is_reserved":false,"is_disabled":false,"rental_uris":{"android":"levelo://app?vid=2d003246-289e-4235-87e3-d86a55465f5e","ios":"levelo://app?vid=2d003246-289e-4235-87e3-d86a55465f5e"},"vehicle_type_id":"4","last_reported":1762801717,"current_range_meters":12000,"station_id":"","pricing_plan_id":"cebpf4jnsgd1na2vs0mg"},{"bike_id":"05c8049e-d3d8-43e4-b736-bb1ab1e9237e","system_id":"levelo_inurba_marseille","lat":43.2927,"lon":5.36849,"is_reserved":false,"is_disabled":false,"rental_uris":{"android":"levelo://app?vid=05c8049e-d3d8-43e4-b736-bb1ab1e9237e","ios":"levelo://app?vid=05c8049e-d3d8-43e4-b736-bb1ab1e9237e"},"vehicle_type_id":"4","last_reported":1762801717,"current_range_meters":12000,"station_id":"ce4bhbp2rcd13ifvqesg","pricing_plan_id":"cebpf4jnsgd1na2vs0mg"},{"bike_id":"81ae76cc-b801-4759-b58f-2b51d812735a","system_id":"levelo_inurba_marseille","lat":43.21747,"lon":5.34602,"is_reserved":false,"is_disabled":false,"rental_uris":{"android":"levelo://app?vid=81ae76cc-b801-4759-b58f-2b51d812735a","ios":"levelo://app?vid=81ae76cc-b801-4759-b58f-2b51d812735a"},"vehicle_type_id":"4","last_reported":1762801717,"current_range_meters":12000,"station_id":"st_cvj6r9ubvosntc0bgbag","pricing_plan_id":"cebpf4jnsgd1na2vs0mg"},{"bike_id":"ac8a8750-1d87-4cf8-9c77-e78b99da5512","system_id":"levelo_inurba_marseille","lat":43.23605,"lon":5.361713,"is_reserved":false,"is_disabled":false,"rental_uris":{"android":"levelo://app?vid=ac8a8750-1d87-4cf8-9c77-e78b99da5512","ios":"levelo://app?vid=ac8a8750-1d87-4cf8-9c77-e78b99da5512"},"vehicle_type_id":"4","last_reported":1762801717,"current_range_meters":12000,"station_id":"","pricing_plan_id":"cebpf4jnsgd1na2vs0mg"},{"bike_id":"56d55916-e181-4b7c-9286-13751264f480","system_id":"levelo_inurba_marseille","lat":43.29023,"lon":5.38633,"is_reserved":false,"is_disabled":false,"rental_uris":{"android":"levelo://app?vid=56d55916-e181-4b7c-9286-13751264f480","ios":"levelo://app?vid=56d55916-e181-4b7c-9286-13751264f480"},"vehicle_type_id":"4","last_reported":1762801717,"current_range_meters":12000,"station_id":"ce4bh4p2rcd13ifvqe0g","pricing_plan_id":"cebpf4jnsgd1na2vs0mg"},{"bike_id":"d331b58f-0754-4181-93f7-d4d5e2f8b496","system_id":"levelo_inurba_marseille","lat":43.225347,"lon":5.348291,"is_reserved":false,"is_disabled":false,"rental_uris":{"android":"levelo://app?vid=d331b58f-0754-4181-93f7-d4d5e2f8b496","ios":"levelo://app?vid=d331b58f-0754-4181-93f7-d4d5e2f8b496"},"vehicle_type_id":"4","last_reported":1762801717,"current_range_meters":12000,"station_id":"","pricing_plan_id":"cebpf4jnsgd1na2vs0mg"},{"bike_id":"19d97750-977b-4379-8bf5-4d571f1f6aec","system_id":"levelo_inurba_marseille","lat":43.34114,"lon":5.40715,"is_reserved":false,"is_disabled":false,"rental_uris":{"android":"levelo://app?vid=19d97750-977b-4379-8bf5-4d571f1f6aec","ios":"levelo://app?vid=19d97750-977b-4379-8bf5-4d571f1f6aec"},"vehicle_type_id":"4","last_reported":1762801717,"current_range_meters":12000,"station_id":"","pricing_plan_id":"cebpf4jnsgd1na2vs0mg"},{"bike_id":"eeb4f6c6-0773-48b0-b402-394c440f4bbc","system_id":"levelo_inurba_marseille","lat":43.29512,"lon":5.39391,"is_reserved":false,"is_disabled":true,"rental_uris":{"android":"levelo://app?vid=eeb4f6c6-0773-48b0-b402-394c440f4bbc","ios":"levelo://app?vid=eeb4f6c6-0773-48b0-b402-394c440f4bbc"},"vehicle_type_id":"4","last_reported":1762801717,"current_range_meters":12000,"station_id":"ce4bh292rcd13ifvqdf0","pricing_plan_id":"cebpf4jnsgd1na2vs0mg"},{"bike_id":"ed63a729-2c24-4076-bfcb-5692187ed558","system_id":"levelo_inurba_marseille","lat":43.26566,"lon":5.40321,"is_reserved":false,"is_disabled":false,"rental_uris":{"android":"levelo://app?vid=ed63a729-2c24-4076-bfcb-5692187ed558","ios":"levelo://app?vid=ed63a729-2c24-4076-bfcb-5692187ed558"},"vehicle_type_id":"4","last_reported":1762801717,"current_range_meters":12000,"station_id":"ce4bhmp2rcd13ifvqgng","pricing_plan_id":"cebpf4jnsgd1na2vs0mg"},{"bike_id":"9356bd3c-f32c-4f37-b064-fa5248a7a0e9","system_id":"levelo_inurba_marseille","lat":43.28261,"lon":5.35058,"is_reserved":false,"is_disabled":false,"rental_uris":{"android":"levelo://app?vid=9356bd3c-f32c-4f37-b064-fa5248a7a0e9","ios":"levelo://app?vid=9356bd3c-f32c-4f37-b064-fa5248a7a0e9"},"vehicle_type_id":"4","last_reported":1762801717,"current_range_meters":12400,"station_id":"ce4bhbp2rcd13ifvqerg","pricing_plan_id":"cebpf4jnsgd1na2vs0mg"},{"bike_id":"a2261492-19dd-44fa-8c32-b4eeed495387","system_id":"levelo_inurba_marseille","lat":43.29852,"lon":5.3629,"is_reserved":false,"is_disabled":false,"rental_uris":{"android":"levelo://app?vid=a2261492-19dd-44fa-8c32-b4eeed495387","ios":"levelo://app?vid=a2261492-19dd-44fa-8c32-b4eeed495387"},"vehicle_type_id":"4","last_reported":1762801717,"current_range_meters":12400,"station_id":"ce4bgpp2rcd13ifvqc3g","pricing_plan_id":"cebpf4jnsgd1na2vs0mg"},{"bike_id":"e26789a9-9500-4fd8-897a-ff2d641376ec","system_id":"levelo_inurba_marseille","lat":43.270447,"lon":5.4232,"is_reserved":false,"is_disabled":false,"rental_uris":{"android":"levelo://app?vid=e26789a9-9500-4fd8-897a-ff2d641376ec","ios":"levelo://app?vid=e26789a9-9500-4fd8-897a-ff2d641376ec"},"vehicle_type_id":"4","last_reported":1762801717,"current_range_meters":12400,"station_id":"ce4bhk92rcd13ifvqgb0","pricing_plan_id":"cebpf4jnsgd1na2vs0mg"},{"bike_id":"3abbb1f3-344f-4e62-875d-37a6a86248f6","system_id":"levelo_inurba_marseille","lat":43.26677,"lon":5.38252,"is_reserved":false,"is_disabled":false,"rental_uris":{"android":"levelo://app?vid=3abbb1f3-344f-4e62-875d-37a6a86248f6","ios":"levelo://app?vid=3abbb1f3-344f-4e62-875d-37a6a86248f6"},"vehicle_type_id":"4","last_reported":1762801717,"current_range_meters":12400,"station_id":"ce4bhg92rcd13ifvqf90","pricing_plan_id":"cebpf4jnsgd1na2vs0mg"},{"bike_id":"fb0e6bea-d078-4452-905b-07db49a4858c","system_id":"levelo_inurba_marseille","lat":43.28475,"lon":5.48403,"is_reserved":false,"is_disabled":false,"rental_uris":{"android":"levelo://app?vid=fb0e6bea-d078-4452-905b-07db49a4858c","ios":"levelo://app?vid=fb0e6bea-d078-4452-905b-07db49a4858c"},"vehicle_type_id":"4","last_reported":1762801717,"current_range_meters":12400,"station_id":"","pricing_plan_id":"cebpf4jnsgd1na2vs0mg"},{"bike_id":"65417ce1-2776-4dc6-8aca-118ed3563d0f","system_id":"levelo_inurba_marseille","lat":43.22554,"lon":5.41592,"is_reserved":false,"is_disabled":false,"rental_uris":{"android":"levelo://app?vid=65417ce1-2776-4dc6-8aca-118ed3563d0f","ios":"levelo://app?vid=65417ce1-2776-4dc6-8aca-118ed3563d0f"},"vehicle_type_id":"4","last_reported":1762801717,"current_range_meters":12400,"station_id":"st_d2o4gvlbi1j2169b742g","pricing_plan_id":"cebpf4jnsgd1na2vs0mg"},{"bike_id":"427ad384-b90f-467c-9630-bdbcdf909fa9","system_id":"levelo_inurba_marseille","lat":43.29768,"lon":5.37111,"is_reserved":false,"is_disabled":false,"rental_uris":{"android":"levelo://app?vid=427ad384-b90f-467c-9630-bdbcdf909fa9","ios":"levelo://app?vid=427ad384-b90f-467c-9630-bdbcdf909fa9"},"vehicle_type_id":"4","last_reported":1762801717,"current_range_meters":12400,"station_id":"ce4bgop2rcd13ifvqc1g","pricing_plan_id":"cebpf4jnsgd1na2vs0mg"},{"bike_id":"a764c78d-45db-4f10-b117-0b847330c154","system_id":"levelo_inurba_marseille","lat":43.27566,"lon":5.38414,"is_reserved":false,"is_disabled":false,"rental_uris":{"android":"levelo://app?vid=a764c78d-45db-4f10-b117-0b847330c154","ios":"levelo://app?vid=a764c78d-45db-4f10-b117-0b847330c154"},"vehicle_type_id":"4","last_reported":1762801717,"current_range_meters":12800,"station_id":"ce4bhh92rcd13ifvqfi0","pricing_plan_id":"cebpf4jnsgd1na2vs0mg"},{"bike_id":"e2e7f795-9d91-43df-bd5f-371e1ab40ada","system_id":"levelo_inurba_marseille","lat":43.28566,"lon":5.39495,"is_reserved":false,"is_disabled":false,"rental_uris":{"android":"levelo://app?vid=e2e7f795-9d91-43df-bd5f-371e1ab40ada","ios":"levelo://app?vid=e2e7f795-9d91-43df-bd5f-371e1ab40ada"},"vehicle_type_id":"4","last_reported":1762801717,"current_range_meters":12800,"station_id":"ce4bh292rcd13ifvqdg0","pricing_plan_id":"cebpf4jnsgd1na2vs0mg"},{"bike_id":"33382fd9-7369-4606-a4d3-9ef89d743f75","system_id":"levelo_inurba_marseille","lat":43.293154,"lon":5.371395,"is_reserved":false,"is_disabled":false,"rental_uris":{"android":"levelo://app?vid=33382fd9-7369-4606-a4d3-9ef89d743f75","ios":"levelo://app?vid=33382fd9-7369-4606-a4d3-9ef89d743f75"},"vehicle_type_id":"4","last_reported":1762801717,"current_range_meters":12800,"station_id":"ce4bgh92rcd13ifvqb40","pricing_plan_id":"cebpf4jnsgd1na2vs0mg"},{"bike_id":"bb673994-b9ec-4ca4-a388-67c43209657a","system_id":"levelo_inurba_marseille","lat":43.30725,"lon":5.36835,"is_reserved":false,"is_disabled":false,"rental_uris":{"android":"levelo://app?vid=bb673994-b9ec-4ca4-a388-67c43209657a","ios":"levelo://app?vid=bb673994-b9ec-4ca4-a388-67c43209657a"},"vehicle_type_id":"4","last_reported":1762801717,"current_range_meters":12800,"station_id":"","pricing_plan_id":"cebpf4jnsgd1na2vs0mg"},{"bike_id":"a33005c1-f643-4adb-8bee-fa011c7be68c","system_id":"levelo_inurba_marseille","lat":43.22532,"lon":5.34831,"is_reserved":false,"is_disabled":false,"rental_uris":{"android":"levelo://app?vid=a33005c1-f643-4adb-8bee-fa011c7be68c","ios":"levelo://app?vid=a33005c1-f643-4adb-8bee-fa011c7be68c"},"vehicle_type_id":"4","last_reported":1762801717,"current_range_meters":12800,"station_id":"","pricing_plan_id":"cebpf4jnsgd1na2vs0mg"},{"bike_id":"9fc59d22-8e56-48e1-b7b6-6b21b0982bb9","system_id":"levelo_inurba_marseille","lat":43.23193,"lon":5.35549,"is_reserved":false,"is_disabled":false,"rental_uris":{"android":"levelo://app?vid=9fc59d22-8e56-48e1-b7b6-6b21b0982bb9","ios":"levelo://app?vid=9fc59d22-8e56-48e1-b7b6-6b21b0982bb9"},"vehicle_type_id":"4","last_reported":1762801717,"current_range_meters":12800,"station_id":"ce4bhu92rcd13ifvqi70","pricing_plan_id":"cebpf4jnsgd1na2vs0mg"},{"bike_id":"fe53f30a-f235-4b9a-b297-6c4aedc17b2d","system_id":"levelo_inurba_marseille","lat":43.31356,"lon":5.38479,"is_reserved":false,"is_disabled":false,"rental_uris":{"android":"levelo://app?vid=fe53f30a-f235-4b9a-b297-6c4aedc17b2d","ios":"levelo://app?vid=fe53f30a-f235-4b9a-b297-6c4aedc17b2d"},"vehicle_type_id":"4","last_reported":1762801717,"current_range_meters":12800,"station_id":"ce4bgt92rcd13ifvqcf0","pricing_plan_id":"cebpf4jnsgd1na2vs0mg"},{"bike_id":"9778699e-1da9-4882-84e2-119f7996bf65","system_id":"levelo_inurba_marseille","lat":43.27186,"lon":5.4097,"is_reserved":false,"is_disabled":false,"rental_uris":{"android":"levelo://app?vid=9778699e-1da9-4882-84e2-119f7996bf65","ios":"levelo://app?vid=9778699e-1da9-4882-84e2-119f7996bf65"},"vehicle_type_id":"4","last_reported":1762801717,"current_range_meters":12800,"station_id":"ce4bhl12rcd13ifvqgf0","pricing_plan_id":"cebpf4jnsgd1na2vs0mg"},{"bike_id":"38f3c8b6-1f4a-425c-ad9a-d815af469478","system_id":"levelo_inurba_marseille","lat":43.29197,"lon":5.39326,"is_reserved":false,"is_disabled":false,"rental_uris":{"android":"levelo://app?vid=38f3c8b6-1f4a-425c-ad9a-d815af469478","ios":"levelo://app?vid=38f3c8b6-1f4a-425c-ad9a-d815af469478"},"vehicle_type_id":"4","last_reported":1762801717,"current_range_meters":12800,"station_id":"ce4bh192rcd13ifvqdd0","pricing_plan_id":"cebpf4jnsgd1na2vs0mg"},{"bike_id":"fd572400-4e62-443b-b2d9-86ea88c2dfdf","system_id":"levelo_inurba_marseille","lat":43.21748,"lon":5.34603,"is_reserved":false,"is_disabled":true,"rental_uris":{"android":"levelo://app?vid=fd572400-4e62-443b-b2d9-86ea88c2dfdf","ios":"levelo://app?vid=fd572400-4e62-443b-b2d9-86ea88c2dfdf"},"vehicle_type_id":"4","last_reported":1762801717,"current_range_meters":12800,"station_id":"","pricing_plan_id":"cebpf4jnsgd1na2vs0mg"},{"bike_id":"f9a1b970-6de3-468d-96e6-e10aa15ca1ee","system_id":"levelo_inurba_marseille","lat":43.3117,"lon":5.38722,"is_reserved":false,"is_disabled":false,"rental_uris":{"android":"levelo://app?vid=f9a1b970-6de3-468d-96e6-e10aa15ca1ee","ios":"levelo://app?vid=f9a1b970-6de3-468d-96e6-e10aa15ca1ee"},"vehicle_type_id":"4","last_reported":1762801717,"current_range_meters":12800,"station_id":"ce4bgv12rcd13ifvqcp0","pricing_plan_id":"cebpf4jnsgd1na2vs0mg"},{"bike_id":"9b25880f-a64a-416b-864b-54f865b4f13b","system_id":"levelo_inurba_marseille","lat":43.29307,"lon":5.37176,"is_reserved":false,"is_disabled":false,"rental_uris":{"android":"levelo://app?vid=9b25880f-a64a-416b-864b-54f865b4f13b","ios":"levelo://app?vid=9b25880f-a64a-416b-864b-54f865b4f13b"},"vehicle_type_id":"4","last_reported":1762801717,"current_range_meters":12800,"station_id":"ce4bgh92rcd13ifvqb40","pricing_plan_id":"cebpf4jnsgd1na2vs0mg"},{"bike_id":"9778b994-32b1-414b-b3d2-74abe2925ec7","system_id":"levelo_inurba_marseille","lat":43.31323,"lon":5.39701,"is_reserved":false,"is_disabled":false,"rental_uris":{"android":"levelo://app?vid=9778b994-32b1-414b-b3d2-74abe2925ec7","ios":"levelo://app?vid=9778b994-32b1-414b-b3d2-74abe2925ec7"},"vehicle_type_id":"4","last_reported":1762801717,"current_range_meters":12800,"station_id":"ce4bgvp2rcd13ifvqcu0","pricing_plan_id":"cebpf4jnsgd1na2vs0mg"},{"bike_id":"b646a158-2a00-4a5f-b725-1c8e4c990367","system_id":"levelo_inurba_marseille","lat":43.28535,"lon":5.44103,"is_reserved":false,"is_disabled":false,"rental_uris":{"android":"levelo://app?vid=b646a158-2a00-4a5f-b725-1c8e4c990367","ios":"levelo://app?vid=b646a158-2a00-4a5f-b725-1c8e4c990367"},"vehicle_type_id":"4","last_reported":1762801717,"current_range_meters":13600,"station_id":"st_d3j3df2ikq2c7380ej80","pricing_plan_id":"cebpf4jnsgd1na2vs0mg"},{"bike_id":"e3ca31e7-8c60-464d-95fd-3aad12a4aaf3","system_id":"levelo_inurba_marseille","lat":43.30962,"lon":5.38294,"is_reserved":false,"is_disabled":false,"rental_uris":{"android":"levelo://app?vid=e3ca31e7-8c60-464d-95fd-3aad12a4aaf3","ios":"levelo://app?vid=e3ca31e7-8c60-464d-95fd-3aad12a4aaf3"},"vehicle_type_id":"4","last_reported":1762801717,"current_range_meters":13600,"station_id":"","pricing_plan_id":"cebpf4jnsgd1na2vs0mg"},{"bike_id":"1086c95b-b74f-4e99-9e15-ae33be8101e5","system_id":"levelo_inurba_marseille","lat":43.30145,"lon":5.37629,"is_reserved":false,"is_disabled":false,"rental_uris":{"android":"levelo://app?vid=1086c95b-b74f-4e99-9e15-ae33be8101e5","ios":"levelo://app?vid=1086c95b-b74f-4e99-9e15-ae33be8101e5"},"vehicle_type_id":"4","last_reported":1762801717,"current_range_meters":13600,"station_id":"","pricing_plan_id":"cebpf4jnsgd1na2vs0mg"},{"bike_id":"acba7d78-8675-4380-a0d7-6857a21d92a8","system_id":"levelo_inurba_marseille","lat":43.31169,"lon":5.38714,"is_reserved":false,"is_disabled":false,"rental_uris":{"android":"levelo://app?vid=acba7d78-8675-4380-a0d7-6857a21d92a8","ios":"levelo://app?vid=acba7d78-8675-4380-a0d7-6857a21d92a8"},"vehicle_type_id":"4","last_reported":1762801717,"current_range_meters":13600,"station_id":"ce4bgv12rcd13ifvqcp0","pricing_plan_id":"cebpf4jnsgd1na2vs0mg"},{"bike_id":"8c406313-420e-41ff-af83-c57107ff0f94","system_id":"levelo_inurba_marseille","lat":43.33022,"lon":5.39043,"is_reserved":false,"is_disabled":false,"rental_uris":{"android":"levelo://app?vid=8c406313-420e-41ff-af83-c57107ff0f94","ios":"levelo://app?vid=8c406313-420e-41ff-af83-c57107ff0f94"},"vehicle_type_id":"4","last_reported":1762801717,"current_range_meters":13600,"station_id":"ce4bhr92rcd13ifvqhrg","pricing_plan_id":"cebpf4jnsgd1na2vs0mg"},{"bike_id":"9c241647-20ac-4941-8d18-01a6e3add973","system_id":"levelo_inurba_marseille","lat":43.24536,"lon":5.3951,"is_reserved":false,"is_disabled":true,"rental_uris":{"android":"levelo://app?vid=9c241647-20ac-4941-8d18-01a6e3add973","ios":"levelo://app?vid=9c241647-20ac-4941-8d18-01a6e3add973"},"vehicle_type_id":"4","last_reported":1762801717,"current_range_meters":13600,"station_id":"ce4bhlp2rcd13ifvqgjg","pricing_plan_id":"cebpf4jnsgd1na2vs0mg"},{"bike_id":"4ef56f27-b618-4191-843e-9c861890082c","system_id":"levelo_inurba_marseille","lat":43.285524,"lon":5.392436,"is_reserved":false,"is_disabled":true,"rental_uris":{"android":"levelo://app?vid=4ef56f27-b618-4191-843e-9c861890082c","ios":"levelo://app?vid=4ef56f27-b618-4191-843e-9c861890082c"},"vehicle_type_id":"4","last_reported":1762801717,"current_range_meters":13600,"station_id":"","pricing_plan_id":"cebpf4jnsgd1na2vs0mg"},{"bike_id":"9be94b56-15ef-463f-ba7e-e63df6171cb1","system_id":"levelo_inurba_marseille","lat":43.2175,"lon":5.34609,"is_reserved":false,"is_disabled":false,"rental_uris":{"android":"levelo://app?vid=9be94b56-15ef-463f-ba7e-e63df6171cb1","ios":"levelo://app?vid=9be94b56-15ef-463f-ba7e-e63df6171cb1"},"vehicle_type_id":"4","last_reported":1762801717,"current_range_meters":13600,"station_id":"st_cvj6r9ubvosntc0bgbag","pricing_plan_id":"cebpf4jnsgd1na2vs0mg"},{"bike_id":"aef685de-280c-4e54-9130-d320a0f8ffb3","system_id":"levelo_inurba_marseille","lat":43.28028,"lon":5.36952,"is_reserved":false,"is_disabled":false,"rental_uris":{"android":"levelo://app?vid=aef685de-280c-4e54-9130-d320a0f8ffb3","ios":"levelo://app?vid=aef685de-280c-4e54-9130-d320a0f8ffb3"},"vehicle_type_id":"4","last_reported":1762801717,"current_range_meters":14000,"station_id":"ce4bha12rcd13ifvqef0","pricing_plan_id":"cebpf4jnsgd1na2vs0mg"},{"bike_id":"b7589c36-c725-4ae0-a367-12f6a2c5f1ef","system_id":"levelo_inurba_marseille","lat":43.29811,"lon":5.44056,"is_reserved":false,"is_disabled":false,"rental_uris":{"android":"levelo://app?vid=b7589c36-c725-4ae0-a367-12f6a2c5f1ef","ios":"levelo://app?vid=b7589c36-c725-4ae0-a367-12f6a2c5f1ef"},"vehicle_type_id":"4","last_reported":1762801717,"current_range_meters":14000,"station_id":"st_d3jp68qikq2c7381ktn0","pricing_plan_id":"cebpf4jnsgd1na2vs0mg"},{"bike_id":"14ae8280-220d-4b5f-b74a-98c3bf5b5927","system_id":"levelo_inurba_marseille","lat":43.29617,"lon":5.37738,"is_reserved":false,"is_disabled":true,"rental_uris":{"android":"levelo://app?vid=14ae8280-220d-4b5f-b74a-98c3bf5b5927","ios":"levelo://app?vid=14ae8280-220d-4b5f-b74a-98c3bf5b5927"},"vehicle_type_id":"4","last_reported":1762801717,"current_range_meters":14000,"station_id":"ce4bgi92rcd13ifvqb90","pricing_plan_id":"cebpf4jnsgd1na2vs0mg"},{"bike_id":"54f735e8-be09-4c8b-8e00-95ddd49a74f4","system_id":"levelo_inurba_marseille","lat":43.28438,"lon":5.39207,"is_reserved":false,"is_disabled":false,"rental_uris":{"android":"levelo://app?vid=54f735e8-be09-4c8b-8e00-95ddd49a74f4","ios":"levelo://app?vid=54f735e8-be09-4c8b-8e00-95ddd49a74f4"},"vehicle_type_id":"4","last_reported":1762801717,"current_range_meters":14000,"station_id":"ce4bhoh2rcd13ifvqh5g","pricing_plan_id":"cebpf4jnsgd1na2vs0mg"},{"bike_id":"df71f488-9f79-4ae2-ad49-0f0aa9704986","system_id":"levelo_inurba_marseille","lat":43.28864,"lon":5.42523,"is_reserved":false,"is_disabled":false,"rental_uris":{"android":"levelo://app?vid=df71f488-9f79-4ae2-ad49-0f0aa9704986","ios":"levelo://app?vid=df71f488-9f79-4ae2-ad49-0f0aa9704986"},"vehicle_type_id":"4","last_reported":1762801717,"current_range_meters":14000,"station_id":"st_d3b462108ojc7389ooeg","pricing_plan_id":"cebpf4jnsgd1na2vs0mg"},{"bike_id":"90384ade-e727-4e54-a4ec-022976eb2f81","system_id":"levelo_inurba_marseille","lat":43.286621,"lon":5.386746,"is_reserved":false,"is_disabled":false,"rental_uris":{"android":"levelo://app?vid=90384ade-e727-4e54-a4ec-022976eb2f81","ios":"levelo://app?vid=90384ade-e727-4e54-a4ec-022976eb2f81"},"vehicle_type_id":"4","last_reported":1762801717,"current_range_meters":14000,"station_id":"ce4bh492rcd13ifvqdug","pricing_plan_id":"cebpf4jnsgd1na2vs0mg"},{"bike_id":"65621f2d-8d47-4cb2-bceb-f933e891cb8e","system_id":"levelo_inurba_marseille","lat":43.285632,"lon":5.395027,"is_reserved":false,"is_disabled":false,"rental_uris":{"android":"levelo://app?vid=65621f2d-8d47-4cb2-bceb-f933e891cb8e","ios":"levelo://app?vid=65621f2d-8d47-4cb2-bceb-f933e891cb8e"},"vehicle_type_id":"4","last_reported":1762801717,"current_range_meters":14000,"station_id":"ce4bh292rcd13ifvqdg0","pricing_plan_id":"cebpf4jnsgd1na2vs0mg"},{"bike_id":"64570b73-40cd-4e4e-972a-e3c9c6de5082","system_id":"levelo_inurba_marseille","lat":43.29524,"lon":5.38539,"is_reserved":false,"is_disabled":false,"rental_uris":{"android":"levelo://app?vid=64570b73-40cd-4e4e-972a-e3c9c6de5082","ios":"levelo://app?vid=64570b73-40cd-4e4e-972a-e3c9c6de5082"},"vehicle_type_id":"4","last_reported":1762801717,"current_range_meters":14400,"station_id":"ce4bgih2rcd13ifvqba0","pricing_plan_id":"cebpf4jnsgd1na2vs0mg"},{"bike_id":"80a5b288-c4c3-4a25-8c6c-ea160c21372f","system_id":"levelo_inurba_marseille","lat":43.25331,"lon":5.42156,"is_reserved":false,"is_disabled":false,"rental_uris":{"android":"levelo://app?vid=80a5b288-c4c3-4a25-8c6c-ea160c21372f","ios":"levelo://app?vid=80a5b288-c4c3-4a25-8c6c-ea160c21372f"},"vehicle_type_id":"4","last_reported":1762801717,"current_range_meters":14400,"station_id":"st_d2m65c5bi1j21697t3ng","pricing_plan_id":"cebpf4jnsgd1na2vs0mg"},{"bike_id":"f1e88a1e-70aa-4bf1-b7e5-5f2322031217","system_id":"levelo_inurba_marseille","lat":43.28072,"lon":5.3965,"is_reserved":false,"is_disabled":false,"rental_uris":{"android":"levelo://app?vid=f1e88a1e-70aa-4bf1-b7e5-5f2322031217","ios":"levelo://app?vid=f1e88a1e-70aa-4bf1-b7e5-5f2322031217"},"vehicle_type_id":"4","last_reported":1762801717,"current_range_meters":14400,"station_id":"ce4bho12rcd13ifvqh2g","pricing_plan_id":"cebpf4jnsgd1na2vs0mg"},{"bike_id":"6bc3789a-2114-48e0-80cb-310ee71707d8","system_id":"levelo_inurba_marseille","lat":43.285402,"lon":5.440971,"is_reserved":false,"is_disabled":false,"rental_uris":{"android":"levelo://app?vid=6bc3789a-2114-48e0-80cb-310ee71707d8","ios":"levelo://app?vid=6bc3789a-2114-48e0-80cb-310ee71707d8"},"vehicle_type_id":"4","last_reported":1762801717,"current_range_meters":14400,"station_id":"st_d3j3df2ikq2c7380ej80","pricing_plan_id":"cebpf4jnsgd1na2vs0mg"},{"bike_id":"c505da9f-74ce-46d6-be25-14e9f37952fb","system_id":"levelo_inurba_marseille","lat":43.30955,"lon":5.40141,"is_reserved":false,"is_disabled":false,"rental_uris":{"android":"levelo://app?vid=c505da9f-74ce-46d6-be25-14e9f37952fb","ios":"levelo://app?vid=c505da9f-74ce-46d6-be25-14e9f37952fb"},"vehicle_type_id":"4","last_reported":1762801717,"current_range_meters":14400,"station_id":"ce4bgvp2rcd13ifvqct0","pricing_plan_id":"cebpf4jnsgd1na2vs0mg"},{"bike_id":"68020ba9-15ce-46ee-b08e-2124b15dbcbd","system_id":"levelo_inurba_marseille","lat":43.29273,"lon":5.38417,"is_reserved":false,"is_disabled":false,"rental_uris":{"android":"levelo://app?vid=68020ba9-15ce-46ee-b08e-2124b15dbcbd","ios":"levelo://app?vid=68020ba9-15ce-46ee-b08e-2124b15dbcbd"},"vehicle_type_id":"4","last_reported":1762801717,"current_range_meters":14400,"station_id":"ce4bh692rcd13ifvqea0","pricing_plan_id":"cebpf4jnsgd1na2vs0mg"},{"bike_id":"acebeab0-e1a9-46a9-b4c4-3e6fc5879dcf","system_id":"levelo_inurba_marseille","lat":43.30145,"lon":5.38103,"is_reserved":false,"is_disabled":false,"rental_uris":{"android":"levelo://app?vid=acebeab0-e1a9-46a9-b4c4-3e6fc5879dcf","ios":"levelo://app?vid=acebeab0-e1a9-46a9-b4c4-3e6fc5879dcf"},"vehicle_type_id":"4","last_reported":1762801717,"current_range_meters":14800,"station_id":"ce4bgjp2rcd13ifvqbh0","pricing_plan_id":"cebpf4jnsgd1na2vs0mg"},{"bike_id":"721186a3-1cd7-4822-a583-ab5eff8a0750","system_id":"levelo_inurba_marseille","lat":43.297665,"lon":5.388979,"is_reserved":false,"is_disabled":false,"rental_uris":{"android":"levelo://app?vid=721186a3-1cd7-4822-a583-ab5eff8a0750","ios":"levelo://app?vid=721186a3-1cd7-4822-a583-ab5eff8a0750"},"vehicle_type_id":"4","last_reported":1762801717,"current_range_meters":14800,"station_id":"","pricing_plan_id":"cebpf4jnsgd1na2vs0mg"},{"bike_id":"99d9d76d-d94f-48e3-abc3-f50dd41e3269","system_id":"levelo_inurba_marseille","lat":43.31146,"lon":5.38303,"is_reserved":false,"is_disabled":false,"rental_uris":{"android":"levelo://app?vid=99d9d76d-d94f-48e3-abc3-f50dd41e3269","ios":"levelo://app?vid=99d9d76d-d94f-48e3-abc3-f50dd41e3269"},"vehicle_type_id":"4","last_reported":1762801717,"current_range_meters":14800,"station_id":"","pricing_plan_id":"cebpf4jnsgd1na2vs0mg"},{"bike_id":"c88172e6-9ca8-4917-9fec-dae0082b9849","system_id":"levelo_inurba_marseille","lat":43.23056,"lon":5.35493,"is_reserved":false,"is_disabled":false,"rental_uris":{"android":"levelo://app?vid=c88172e6-9ca8-4917-9fec-dae0082b9849","ios":"levelo://app?vid=c88172e6-9ca8-4917-9fec-dae0082b9849"},"vehicle_type_id":"4","last_reported":1762801717,"current_range_meters":14800,"station_id":"cpo3342slgdg3j2ifvpg","pricing_plan_id":"cebpf4jnsgd1na2vs0mg"},{"bike_id":"0355083f-4fa4-470c-bb8a-7b986ffab777","system_id":"levelo_inurba_marseille","lat":43.2815,"lon":5.42645,"is_reserved":false,"is_disabled":false,"rental_uris":{"android":"levelo://app?vid=0355083f-4fa4-470c-bb8a-7b986ffab777","ios":"levelo://app?vid=0355083f-4fa4-470c-bb8a-7b986ffab777"},"vehicle_type_id":"4","last_reported":1762801717,"current_range_meters":14800,"station_id":"ce4bhnh2rcd13ifvqgug","pricing_plan_id":"cebpf4jnsgd1na2vs0mg"},{"bike_id":"30b116e1-fe20-4402-953d-83a85048d745","system_id":"levelo_inurba_marseille","lat":43.28016,"lon":5.36941,"is_reserved":false,"is_disabled":false,"rental_uris":{"android":"levelo://app?vid=30b116e1-fe20-4402-953d-83a85048d745","ios":"levelo://app?vid=30b116e1-fe20-4402-953d-83a85048d745"},"vehicle_type_id":"4","last_reported":1762801717,"current_range_meters":14800,"station_id":"ce4bha12rcd13ifvqef0","pricing_plan_id":"cebpf4jnsgd1na2vs0mg"},{"bike_id":"be86220c-6cab-43c0-bc05-fd5e693109a4","system_id":"levelo_inurba_marseille","lat":43.295312,"lon":5.385407,"is_reserved":false,"is_disabled":false,"rental_uris":{"android":"levelo://app?vid=be86220c-6cab-43c0-bc05-fd5e693109a4","ios":"levelo://app?vid=be86220c-6cab-43c0-bc05-fd5e693109a4"},"vehicle_type_id":"4","last_reported":1762801717,"current_range_meters":14800,"station_id":"ce4bgih2rcd13ifvqba0","pricing_plan_id":"cebpf4jnsgd1na2vs0mg"},{"bike_id":"72519289-0544-4653-9c86-3b1b90b3ff62","system_id":"levelo_inurba_marseille","lat":43.28218,"lon":5.39069,"is_reserved":false,"is_disabled":false,"rental_uris":{"android":"levelo://app?vid=72519289-0544-4653-9c86-3b1b90b3ff62","ios":"levelo://app?vid=72519289-0544-4653-9c86-3b1b90b3ff62"},"vehicle_type_id":"4","last_reported":1762801717,"current_range_meters":14800,"station_id":"ce4bhn92rcd13ifvqgsg","pricing_plan_id":"cebpf4jnsgd1na2vs0mg"},{"bike_id":"8746ee26-c15a-4e99-a9a2-50ae618fccb0","system_id":"levelo_inurba_marseille","lat":43.279354,"lon":5.410356,"is_reserved":false,"is_disabled":false,"rental_uris":{"android":"levelo://app?vid=8746ee26-c15a-4e99-a9a2-50ae618fccb0","ios":"levelo://app?vid=8746ee26-c15a-4e99-a9a2-50ae618fccb0"},"vehicle_type_id":"4","last_reported":1762801717,"current_range_meters":15200,"station_id":"ce4bhnp2rcd13ifvqh0g","pricing_plan_id":"cebpf4jnsgd1na2vs0mg"},{"bike_id":"50bd906f-f66c-4773-8e69-65d41802e55d","system_id":"levelo_inurba_marseille","lat":43.22533,"lon":5.34834,"is_reserved":false,"is_disabled":false,"rental_uris":{"android":"levelo://app?vid=50bd906f-f66c-4773-8e69-65d41802e55d","ios":"levelo://app?vid=50bd906f-f66c-4773-8e69-65d41802e55d"},"vehicle_type_id":"4","last_reported":1762801717,"current_range_meters":15200,"station_id":"","pricing_plan_id":"cebpf4jnsgd1na2vs0mg"},{"bike_id":"4b68d13f-f5d9-4b23-871f-a9d0ced8871b","system_id":"levelo_inurba_marseille","lat":43.31305,"lon":5.37797,"is_reserved":false,"is_disabled":false,"rental_uris":{"android":"levelo://app?vid=4b68d13f-f5d9-4b23-871f-a9d0ced8871b","ios":"levelo://app?vid=4b68d13f-f5d9-4b23-871f-a9d0ced8871b"},"vehicle_type_id":"4","last_reported":1762801717,"current_range_meters":15200,"station_id":"","pricing_plan_id":"cebpf4jnsgd1na2vs0mg"},{"bike_id":"61dce50e-6510-4945-af49-a43ad9d82ef9","system_id":"levelo_inurba_marseille","lat":43.291962,"lon":5.393301,"is_reserved":false,"is_disabled":false,"rental_uris":{"android":"levelo://app?vid=61dce50e-6510-4945-af49-a43ad9d82ef9","ios":"levelo://app?vid=61dce50e-6510-4945-af49-a43ad9d82ef9"},"vehicle_type_id":"4","last_reported":1762801717,"current_range_meters":15200,"station_id":"","pricing_plan_id":"cebpf4jnsgd1na2vs0mg"},{"bike_id":"9b34c495-4c59-454c-a403-0748c00d1712","system_id":"levelo_inurba_marseille","lat":43.30537,"lon":5.36559,"is_reserved":false,"is_disabled":false,"rental_uris":{"android":"levelo://app?vid=9b34c495-4c59-454c-a403-0748c00d1712","ios":"levelo://app?vid=9b34c495-4c59-454c-a403-0748c00d1712"},"vehicle_type_id":"4","last_reported":1762801717,"current_range_meters":15200,"station_id":"ce4bgs12rcd13ifvqcag","pricing_plan_id":"cebpf4jnsgd1na2vs0mg"},{"bike_id":"c44bd383-5877-4c8e-be9e-3c26f0777217","system_id":"levelo_inurba_marseille","lat":43.2952,"lon":5.39406,"is_reserved":false,"is_disabled":false,"rental_uris":{"android":"levelo://app?vid=c44bd383-5877-4c8e-be9e-3c26f0777217","ios":"levelo://app?vid=c44bd383-5877-4c8e-be9e-3c26f0777217"},"vehicle_type_id":"4","last_reported":1762801717,"current_range_meters":15200,"station_id":"ce4bh292rcd13ifvqdf0","pricing_plan_id":"cebpf4jnsgd1na2vs0mg"},{"bike_id":"6c311e29-6110-4066-b266-e0a617db7ab9","system_id":"levelo_inurba_marseille","lat":43.26201,"lon":5.37934,"is_reserved":false,"is_disabled":false,"rental_uris":{"android":"levelo://app?vid=6c311e29-6110-4066-b266-e0a617db7ab9","ios":"levelo://app?vid=6c311e29-6110-4066-b266-e0a617db7ab9"},"vehicle_type_id":"4","last_reported":1762801717,"current_range_meters":15200,"station_id":"ce4bhjp2rcd13ifvqg90","pricing_plan_id":"cebpf4jnsgd1na2vs0mg"},{"bike_id":"0001f610-ee0b-4dfa-a101-19ef82b4afb7","system_id":"levelo_inurba_marseille","lat":43.29815,"lon":5.44068,"is_reserved":false,"is_disabled":false,"rental_uris":{"android":"levelo://app?vid=0001f610-ee0b-4dfa-a101-19ef82b4afb7","ios":"levelo://app?vid=0001f610-ee0b-4dfa-a101-19ef82b4afb7"},"vehicle_type_id":"4","last_reported":1762801717,"current_range_meters":15200,"station_id":"st_d3jp68qikq2c7381ktn0","pricing_plan_id":"cebpf4jnsgd1na2vs0mg"},{"bike_id":"9a00faeb-2967-47dd-bb7a-fab347bc5d7f","system_id":"levelo_inurba_marseille","lat":43.30089,"lon":5.38275,"is_reserved":false,"is_disabled":false,"rental_uris":{"android":"levelo://app?vid=9a00faeb-2967-47dd-bb7a-fab347bc5d7f","ios":"levelo://app?vid=9a00faeb-2967-47dd-bb7a-fab347bc5d7f"},"vehicle_type_id":"4","last_reported":1762801717,"current_range_meters":15200,"station_id":"","pricing_plan_id":"cebpf4jnsgd1na2vs0mg"},{"bike_id":"096cdd72-f6cf-4a1a-9fed-102492f9041f","system_id":"levelo_inurba_marseille","lat":43.23183,"lon":5.39975,"is_reserved":false,"is_disabled":false,"rental_uris":{"android":"levelo://app?vid=096cdd72-f6cf-4a1a-9fed-102492f9041f","ios":"levelo://app?vid=096cdd72-f6cf-4a1a-9fed-102492f9041f"},"vehicle_type_id":"4","last_reported":1762801717,"current_range_meters":15200,"station_id":"ce4bhn12rcd13ifvqgqg","pricing_plan_id":"cebpf4jnsgd1na2vs0mg"},{"bike_id":"228af895-8e16-45ae-8bd1-f3650266360b","system_id":"levelo_inurba_marseille","lat":43.284182,"lon":5.374967,"is_reserved":false,"is_disabled":false,"rental_uris":{"android":"levelo://app?vid=228af895-8e16-45ae-8bd1-f3650266360b","ios":"levelo://app?vid=228af895-8e16-45ae-8bd1-f3650266360b"},"vehicle_type_id":"4","last_reported":1762801717,"current_range_meters":15200,"station_id":"","pricing_plan_id":"cebpf4jnsgd1na2vs0mg"},{"bike_id":"c80766a6-aa9a-4c09-88b6-397546065fcc","system_id":"levelo_inurba_marseille","lat":43.231958,"lon":5.355634,"is_reserved":false,"is_disabled":false,"rental_uris":{"android":"levelo://app?vid=c80766a6-aa9a-4c09-88b6-397546065fcc","ios":"levelo://app?vid=c80766a6-aa9a-4c09-88b6-397546065fcc"},"vehicle_type_id":"4","last_reported":1762801717,"current_range_meters":16000,"station_id":"ce4bhu92rcd13ifvqi70","pricing_plan_id":"cebpf4jnsgd1na2vs0mg"},{"bike_id":"572373a4-75f2-4fb5-85b5-fc044aad94b5","system_id":"levelo_inurba_marseille","lat":43.29016,"lon":5.3863,"is_reserved":false,"is_disabled":false,"rental_uris":{"android":"levelo://app?vid=572373a4-75f2-4fb5-85b5-fc044aad94b5","ios":"levelo://app?vid=572373a4-75f2-4fb5-85b5-fc044aad94b5"},"vehicle_type_id":"4","last_reported":1762801717,"current_range_meters":16000,"station_id":"ce4bh4p2rcd13ifvqe0g","pricing_plan_id":"cebpf4jnsgd1na2vs0mg"},{"bike_id":"f6d47fb7-db41-4e96-ba28-8326c8ac0ede","system_id":"levelo_inurba_marseille","lat":43.309322,"lon":5.401366,"is_reserved":false,"is_disabled":false,"rental_uris":{"android":"levelo://app?vid=f6d47fb7-db41-4e96-ba28-8326c8ac0ede","ios":"levelo://app?vid=f6d47fb7-db41-4e96-ba28-8326c8ac0ede"},"vehicle_type_id":"4","last_reported":1762801717,"current_range_meters":16000,"station_id":"","pricing_plan_id":"cebpf4jnsgd1na2vs0mg"},{"bike_id":"9093134c-76dd-4d84-9339-bb51f6d5bb73","system_id":"levelo_inurba_marseille","lat":43.284917,"lon":5.439608,"is_reserved":false,"is_disabled":false,"rental_uris":{"android":"levelo://app?vid=9093134c-76dd-4d84-9339-bb51f6d5bb73","ios":"levelo://app?vid=9093134c-76dd-4d84-9339-bb51f6d5bb73"},"vehicle_type_id":"4","last_reported":1762801717,"current_range_meters":16000,"station_id":"","pricing_plan_id":"cebpf4jnsgd1na2vs0mg"},{"bike_id":"42bbdb4f-c9b7-4299-b4a6-0178a6a32bf3","system_id":"levelo_inurba_marseille","lat":43.31837,"lon":5.37422,"is_reserved":false,"is_disabled":false,"rental_uris":{"android":"levelo://app?vid=42bbdb4f-c9b7-4299-b4a6-0178a6a32bf3","ios":"levelo://app?vid=42bbdb4f-c9b7-4299-b4a6-0178a6a32bf3"},"vehicle_type_id":"4","last_reported":1762801717,"current_range_meters":16000,"station_id":"","pricing_plan_id":"cebpf4jnsgd1na2vs0mg"},{"bike_id":"1016aac3-b163-4bd4-b914-896c361c935b","system_id":"levelo_inurba_marseille","lat":43.32121,"lon":5.38843,"is_reserved":false,"is_disabled":false,"rental_uris":{"android":"levelo://app?vid=1016aac3-b163-4bd4-b914-896c361c935b","ios":"levelo://app?vid=1016aac3-b163-4bd4-b914-896c361c935b"},"vehicle_type_id":"4","last_reported":1762801717,"current_range_meters":16000,"station_id":"","pricing_plan_id":"cebpf4jnsgd1na2vs0mg"},{"bike_id":"71a4db39-13b5-4ad2-a6d2-50dbaa41784f","system_id":"levelo_inurba_marseille","lat":43.30465,"lon":5.37899,"is_reserved":false,"is_disabled":true,"rental_uris":{"android":"levelo://app?vid=71a4db39-13b5-4ad2-a6d2-50dbaa41784f","ios":"levelo://app?vid=71a4db39-13b5-4ad2-a6d2-50dbaa41784f"},"vehicle_type_id":"4","last_reported":1762801717,"current_range_meters":16000,"station_id":"ce4bgup2rcd13ifvqcn0","pricing_plan_id":"cebpf4jnsgd1na2vs0mg"},{"bike_id":"79db459f-06da-4605-af5d-5c6f2573fdb9","system_id":"levelo_inurba_marseille","lat":43.23177,"lon":5.39986,"is_reserved":false,"is_disabled":false,"rental_uris":{"android":"levelo://app?vid=79db459f-06da-4605-af5d-5c6f2573fdb9","ios":"levelo://app?vid=79db459f-06da-4605-af5d-5c6f2573fdb9"},"vehicle_type_id":"4","last_reported":1762801717,"current_range_meters":16000,"station_id":"ce4bhn12rcd13ifvqgqg","pricing_plan_id":"cebpf4jnsgd1na2vs0mg"},{"bike_id":"180a70a9-8924-4885-9ca3-10c578c02589","system_id":"levelo_inurba_marseille","lat":43.225256,"lon":5.348423,"is_reserved":false,"is_disabled":false,"rental_uris":{"android":"levelo://app?vid=180a70a9-8924-4885-9ca3-10c578c02589","ios":"levelo://app?vid=180a70a9-8924-4885-9ca3-10c578c02589"},"vehicle_type_id":"4","last_reported":1762801717,"current_range_meters":16000,"station_id":"","pricing_plan_id":"cebpf4jnsgd1na2vs0mg"},{"bike_id":"2f1b4db2-fc5d-4d79-b2c2-e69d9ef0a974","system_id":"levelo_inurba_marseille","lat":43.27669,"lon":5.383756,"is_reserved":false,"is_disabled":false,"rental_uris":{"android":"levelo://app?vid=2f1b4db2-fc5d-4d79-b2c2-e69d9ef0a974","ios":"levelo://app?vid=2f1b4db2-fc5d-4d79-b2c2-e69d9ef0a974"},"vehicle_type_id":"4","last_reported":1762801717,"current_range_meters":16000,"station_id":"ce4bhh92rcd13ifvqfi0","pricing_plan_id":"cebpf4jnsgd1na2vs0mg"},{"bike_id":"e92fd170-4280-4dd6-943b-5cd795efb5ee","system_id":"levelo_inurba_marseille","lat":43.281602,"lon":5.426286,"is_reserved":false,"is_disabled":false,"rental_uris":{"android":"levelo://app?vid=e92fd170-4280-4dd6-943b-5cd795efb5ee","ios":"levelo://app?vid=e92fd170-4280-4dd6-943b-5cd795efb5ee"},"vehicle_type_id":"4","last_reported":1762801717,"current_range_meters":16000,"station_id":"ce4bhnh2rcd13ifvqgug","pricing_plan_id":"cebpf4jnsgd1na2vs0mg"},{"bike_id":"034a6373-4feb-4cd9-8524-e994750e3f50","system_id":"levelo_inurba_marseille","lat":43.295276,"lon":5.385371,"is_reserved":false,"is_disabled":false,"rental_uris":{"android":"levelo://app?vid=034a6373-4feb-4cd9-8524-e994750e3f50","ios":"levelo://app?vid=034a6373-4feb-4cd9-8524-e994750e3f50"},"vehicle_type_id":"4","last_reported":1762801717,"current_range_meters":16000,"station_id":"ce4bgih2rcd13ifvqba0","pricing_plan_id":"cebpf4jnsgd1na2vs0mg"},{"bike_id":"616e30bb-d95f-428f-bea8-88ccaedc97a5","system_id":"levelo_inurba_marseille","lat":43.31202,"lon":5.36827,"is_reserved":false,"is_disabled":false,"rental_uris":{"android":"levelo://app?vid=616e30bb-d95f-428f-bea8-88ccaedc97a5","ios":"levelo://app?vid=616e30bb-d95f-428f-bea8-88ccaedc97a5"},"vehicle_type_id":"4","last_reported":1762801717,"current_range_meters":16000,"station_id":"ce4bgl92rcd13ifvqbq0","pricing_plan_id":"cebpf4jnsgd1na2vs0mg"},{"bike_id":"8895156d-619b-4ab8-944e-f73b08747a11","system_id":"levelo_inurba_marseille","lat":43.29521,"lon":5.39045,"is_reserved":false,"is_disabled":false,"rental_uris":{"android":"levelo://app?vid=8895156d-619b-4ab8-944e-f73b08747a11","ios":"levelo://app?vid=8895156d-619b-4ab8-944e-f73b08747a11"},"vehicle_type_id":"4","last_reported":1762801717,"current_range_meters":16000,"station_id":"ce4bh3p2rcd13ifvqdp0","pricing_plan_id":"cebpf4jnsgd1na2vs0mg"},{"bike_id":"d10b92c3-bf28-4b00-8a49-017266cda74a","system_id":"levelo_inurba_marseille","lat":43.28699,"lon":5.37393,"is_reserved":false,"is_disabled":false,"rental_uris":{"android":"levelo://app?vid=d10b92c3-bf28-4b00-8a49-017266cda74a","ios":"levelo://app?vid=d10b92c3-bf28-4b00-8a49-017266cda74a"},"vehicle_type_id":"4","last_reported":1762801717,"current_range_meters":16400,"station_id":"ce4bh3p2rcd13ifvqdq0","pricing_plan_id":"cebpf4jnsgd1na2vs0mg"},{"bike_id":"4cae9d5c-a24c-41f1-9f54-aaa487e732a6","system_id":"levelo_inurba_marseille","lat":43.29963,"lon":5.38158,"is_reserved":false,"is_disabled":false,"rental_uris":{"android":"levelo://app?vid=4cae9d5c-a24c-41f1-9f54-aaa487e732a6","ios":"levelo://app?vid=4cae9d5c-a24c-41f1-9f54-aaa487e732a6"},"vehicle_type_id":"4","last_reported":1762801717,"current_range_meters":16400,"station_id":"","pricing_plan_id":"cebpf4jnsgd1na2vs0mg"},{"bike_id":"6ae87b41-3981-4b69-b43c-0b6bde62265a","system_id":"levelo_inurba_marseille","lat":43.33777,"lon":5.37436,"is_reserved":false,"is_disabled":false,"rental_uris":{"android":"levelo://app?vid=6ae87b41-3981-4b69-b43c-0b6bde62265a","ios":"levelo://app?vid=6ae87b41-3981-4b69-b43c-0b6bde62265a"},"vehicle_type_id":"4","last_reported":1762801717,"current_range_meters":16400,"station_id":"","pricing_plan_id":"cebpf4jnsgd1na2vs0mg"},{"bike_id":"1f41fd9b-c0a9-4aba-91e7-2f4f5dd58d96","system_id":"levelo_inurba_marseille","lat":43.30959,"lon":5.39031,"is_reserved":false,"is_disabled":true,"rental_uris":{"android":"levelo://app?vid=1f41fd9b-c0a9-4aba-91e7-2f4f5dd58d96","ios":"levelo://app?vid=1f41fd9b-c0a9-4aba-91e7-2f4f5dd58d96"},"vehicle_type_id":"4","last_reported":1762801717,"current_range_meters":16400,"station_id":"ce4bgup2rcd13ifvqco0","pricing_plan_id":"cebpf4jnsgd1na2vs0mg"},{"bike_id":"263f5e35-0aaf-4abe-aeb7-625a219e9ce1","system_id":"levelo_inurba_marseille","lat":43.24069,"lon":5.37763,"is_reserved":false,"is_disabled":false,"rental_uris":{"android":"levelo://app?vid=263f5e35-0aaf-4abe-aeb7-625a219e9ce1","ios":"levelo://app?vid=263f5e35-0aaf-4abe-aeb7-625a219e9ce1"},"vehicle_type_id":"4","last_reported":1762801717,"current_range_meters":16400,"station_id":"ce4bhnp2rcd13ifvqgvg","pricing_plan_id":"cebpf4jnsgd1na2vs0mg"},{"bike_id":"4e50b31c-5448-429b-840e-2fdbbd4544a9","system_id":"levelo_inurba_marseille","lat":43.31281,"lon":5.40168,"is_reserved":false,"is_disabled":false,"rental_uris":{"android":"levelo://app?vid=4e50b31c-5448-429b-840e-2fdbbd4544a9","ios":"levelo://app?vid=4e50b31c-5448-429b-840e-2fdbbd4544a9"},"vehicle_type_id":"4","last_reported":1762801717,"current_range_meters":16400,"station_id":"ce4bh092rcd13ifvqd30","pricing_plan_id":"cebpf4jnsgd1na2vs0mg"},{"bike_id":"f21cf1df-8fc5-47dd-b0bb-c7f0df17fea5","system_id":"levelo_inurba_marseille","lat":43.32475,"lon":5.36562,"is_reserved":false,"is_disabled":false,"rental_uris":{"android":"levelo://app?vid=f21cf1df-8fc5-47dd-b0bb-c7f0df17fea5","ios":"levelo://app?vid=f21cf1df-8fc5-47dd-b0bb-c7f0df17fea5"},"vehicle_type_id":"4","last_reported":1762801717,"current_range_meters":16400,"station_id":"ce4bhs12rcd13ifvqhvg","pricing_plan_id":"cebpf4jnsgd1na2vs0mg"},{"bike_id":"42d12ee4-a29d-4c9c-86d9-72d1042bb02f","system_id":"levelo_inurba_marseille","lat":43.292633,"lon":5.384394,"is_reserved":false,"is_disabled":false,"rental_uris":{"android":"levelo://app?vid=42d12ee4-a29d-4c9c-86d9-72d1042bb02f","ios":"levelo://app?vid=42d12ee4-a29d-4c9c-86d9-72d1042bb02f"},"vehicle_type_id":"4","last_reported":1762801717,"current_range_meters":16400,"station_id":"ce4bhu92rcd13ifvqi70","pricing_plan_id":"cebpf4jnsgd1na2vs0mg"},{"bike_id":"7ab9f50c-fe33-422d-9108-7c4207ec1290","system_id":"levelo_inurba_marseille","lat":43.28704,"lon":5.3741,"is_reserved":false,"is_disabled":false,"rental_uris":{"android":"levelo://app?vid=7ab9f50c-fe33-422d-9108-7c4207ec1290","ios":"levelo://app?vid=7ab9f50c-fe33-422d-9108-7c4207ec1290"},"vehicle_type_id":"4","last_reported":1762801717,"current_range_meters":16800,"station_id":"ce4bh3p2rcd13ifvqdq0","pricing_plan_id":"cebpf4jnsgd1na2vs0mg"},{"bike_id":"5eb28dc9-1056-4fe2-a3f0-4c13efc57df0","system_id":"levelo_inurba_marseille","lat":43.25922,"lon":5.40908,"is_reserved":false,"is_disabled":true,"rental_uris":{"android":"levelo://app?vid=5eb28dc9-1056-4fe2-a3f0-4c13efc57df0","ios":"levelo://app?vid=5eb28dc9-1056-4fe2-a3f0-4c13efc57df0"},"vehicle_type_id":"4","last_reported":1762801717,"current_range_meters":16800,"station_id":"ce4bhm92rcd13ifvqglg","pricing_plan_id":"cebpf4jnsgd1na2vs0mg"},{"bike_id":"122bdab4-68f6-41de-a130-9cd3d01ccdfd","system_id":"levelo_inurba_marseille","lat":43.22533,"lon":5.34829,"is_reserved":false,"is_disabled":false,"rental_uris":{"android":"levelo://app?vid=122bdab4-68f6-41de-a130-9cd3d01ccdfd","ios":"levelo://app?vid=122bdab4-68f6-41de-a130-9cd3d01ccdfd"},"vehicle_type_id":"4","last_reported":1762801717,"current_range_meters":16800,"station_id":"","pricing_plan_id":"cebpf4jnsgd1na2vs0mg"},{"bike_id":"7177c944-2e3a-4e1f-b479-66d7a9727a4d","system_id":"levelo_inurba_marseille","lat":43.33172,"lon":5.37687,"is_reserved":false,"is_disabled":false,"rental_uris":{"android":"levelo://app?vid=7177c944-2e3a-4e1f-b479-66d7a9727a4d","ios":"levelo://app?vid=7177c944-2e3a-4e1f-b479-66d7a9727a4d"},"vehicle_type_id":"4","last_reported":1762801717,"current_range_meters":16800,"station_id":"st_d46cu089ee8s73dldbu0","pricing_plan_id":"cebpf4jnsgd1na2vs0mg"},{"bike_id":"3e8b4e91-109a-4a74-b8e6-07e811a1ad33","system_id":"levelo_inurba_marseille","lat":43.24051,"lon":5.37767,"is_reserved":false,"is_disabled":false,"rental_uris":{"android":"levelo://app?vid=3e8b4e91-109a-4a74-b8e6-07e811a1ad33","ios":"levelo://app?vid=3e8b4e91-109a-4a74-b8e6-07e811a1ad33"},"vehicle_type_id":"4","last_reported":1762801717,"current_range_meters":16800,"station_id":"ce4bhnp2rcd13ifvqgvg","pricing_plan_id":"cebpf4jnsgd1na2vs0mg"},{"bike_id":"851e52a7-7701-41a2-9335-4b4a9404896b","system_id":"levelo_inurba_marseille","lat":43.29818,"lon":5.44066,"is_reserved":false,"is_disabled":false,"rental_uris":{"android":"levelo://app?vid=851e52a7-7701-41a2-9335-4b4a9404896b","ios":"levelo://app?vid=851e52a7-7701-41a2-9335-4b4a9404896b"},"vehicle_type_id":"4","last_reported":1762801717,"current_range_meters":16800,"station_id":"st_d3jp68qikq2c7381ktn0","pricing_plan_id":"cebpf4jnsgd1na2vs0mg"},{"bike_id":"55565bb5-554f-44ac-9654-9c94bad0d62b","system_id":"levelo_inurba_marseille","lat":43.284535,"lon":5.380847,"is_reserved":false,"is_disabled":false,"rental_uris":{"android":"levelo://app?vid=55565bb5-554f-44ac-9654-9c94bad0d62b","ios":"levelo://app?vid=55565bb5-554f-44ac-9654-9c94bad0d62b"},"vehicle_type_id":"4","last_reported":1762801717,"current_range_meters":17200,"station_id":"","pricing_plan_id":"cebpf4jnsgd1na2vs0mg"},{"bike_id":"c3130cd0-aba8-40f2-968e-4dd9a9676f9f","system_id":"levelo_inurba_marseille","lat":43.27995,"lon":5.41671,"is_reserved":false,"is_disabled":false,"rental_uris":{"android":"levelo://app?vid=c3130cd0-aba8-40f2-968e-4dd9a9676f9f","ios":"levelo://app?vid=c3130cd0-aba8-40f2-968e-4dd9a9676f9f"},"vehicle_type_id":"4","last_reported":1762801717,"current_range_meters":17200,"station_id":"ce4bho12rcd13ifvqh1g","pricing_plan_id":"cebpf4jnsgd1na2vs0mg"},{"bike_id":"d610cd16-c813-406e-bee7-295ec8ce6047","system_id":"levelo_inurba_marseille","lat":43.33785,"lon":5.37474,"is_reserved":false,"is_disabled":false,"rental_uris":{"android":"levelo://app?vid=d610cd16-c813-406e-bee7-295ec8ce6047","ios":"levelo://app?vid=d610cd16-c813-406e-bee7-295ec8ce6047"},"vehicle_type_id":"4","last_reported":1762801717,"current_range_meters":17200,"station_id":"","pricing_plan_id":"cebpf4jnsgd1na2vs0mg"},{"bike_id":"08da735d-b58f-44f9-9128-6ddfbcba212e","system_id":"levelo_inurba_marseille","lat":43.28421,"lon":5.374965,"is_reserved":false,"is_disabled":false,"rental_uris":{"android":"levelo://app?vid=08da735d-b58f-44f9-9128-6ddfbcba212e","ios":"levelo://app?vid=08da735d-b58f-44f9-9128-6ddfbcba212e"},"vehicle_type_id":"4","last_reported":1762801717,"current_range_meters":17200,"station_id":"ce4bh412rcd13ifvqds0","pricing_plan_id":"cebpf4jnsgd1na2vs0mg"},{"bike_id":"909bdbfc-1aa3-47b1-ab23-3eca7b376e92","system_id":"levelo_inurba_marseille","lat":43.231517,"lon":5.437012,"is_reserved":false,"is_disabled":false,"rental_uris":{"android":"levelo://app?vid=909bdbfc-1aa3-47b1-ab23-3eca7b376e92","ios":"levelo://app?vid=909bdbfc-1aa3-47b1-ab23-3eca7b376e92"},"vehicle_type_id":"4","last_reported":1762801717,"current_range_meters":17200,"station_id":"ce4bhmp2rcd13ifvqgog","pricing_plan_id":"cebpf4jnsgd1na2vs0mg"},{"bike_id":"f686b961-5407-45fe-b551-096e9f3106cf","system_id":"levelo_inurba_marseille","lat":43.29873,"lon":5.39731,"is_reserved":false,"is_disabled":false,"rental_uris":{"android":"levelo://app?vid=f686b961-5407-45fe-b551-096e9f3106cf","ios":"levelo://app?vid=f686b961-5407-45fe-b551-096e9f3106cf"},"vehicle_type_id":"4","last_reported":1762801717,"current_range_meters":17200,"station_id":"ce4bh0h2rcd13ifvqd50","pricing_plan_id":"cebpf4jnsgd1na2vs0mg"},{"bike_id":"c6749249-9066-4f83-aa0c-adb94fd03a3c","system_id":"levelo_inurba_marseille","lat":43.29265,"lon":5.38442,"is_reserved":false,"is_disabled":false,"rental_uris":{"android":"levelo://app?vid=c6749249-9066-4f83-aa0c-adb94fd03a3c","ios":"levelo://app?vid=c6749249-9066-4f83-aa0c-adb94fd03a3c"},"vehicle_type_id":"4","last_reported":1762801717,"current_range_meters":17200,"station_id":"ce4bh692rcd13ifvqea0","pricing_plan_id":"cebpf4jnsgd1na2vs0mg"},{"bike_id":"363ee27e-7d42-4392-8678-4c4cb6a8aef7","system_id":"levelo_inurba_marseille","lat":43.28158,"lon":5.42639,"is_reserved":false,"is_disabled":false,"rental_uris":{"android":"levelo://app?vid=363ee27e-7d42-4392-8678-4c4cb6a8aef7","ios":"levelo://app?vid=363ee27e-7d42-4392-8678-4c4cb6a8aef7"},"vehicle_type_id":"4","last_reported":1762801717,"current_range_meters":17200,"station_id":"ce4bhnh2rcd13ifvqgug","pricing_plan_id":"cebpf4jnsgd1na2vs0mg"},{"bike_id":"5f390cff-b9cf-4b0f-ac36-2c78575e12b3","system_id":"levelo_inurba_marseille","lat":43.29284,"lon":5.36839,"is_reserved":false,"is_disabled":false,"rental_uris":{"android":"levelo://app?vid=5f390cff-b9cf-4b0f-ac36-2c78575e12b3","ios":"levelo://app?vid=5f390cff-b9cf-4b0f-ac36-2c78575e12b3"},"vehicle_type_id":"4","last_reported":1762801717,"current_range_meters":17200,"station_id":"ce4bhbp2rcd13ifvqesg","pricing_plan_id":"cebpf4jnsgd1na2vs0mg"},{"bike_id":"96d132e6-f9ce-4bce-a02d-cee681ed88c4","system_id":"levelo_inurba_marseille","lat":43.262283,"lon":5.404565,"is_reserved":false,"is_disabled":false,"rental_uris":{"android":"levelo://app?vid=96d132e6-f9ce-4bce-a02d-cee681ed88c4","ios":"levelo://app?vid=96d132e6-f9ce-4bce-a02d-cee681ed88c4"},"vehicle_type_id":"4","last_reported":1762801717,"current_range_meters":17600,"station_id":"ce4bhmh2rcd13ifvqgmg","pricing_plan_id":"cebpf4jnsgd1na2vs0mg"},{"bike_id":"27199c6e-10d6-4131-bc55-add1a518a9ad","system_id":"levelo_inurba_marseille","lat":43.27997,"lon":5.40007,"is_reserved":false,"is_disabled":false,"rental_uris":{"android":"levelo://app?vid=27199c6e-10d6-4131-bc55-add1a518a9ad","ios":"levelo://app?vid=27199c6e-10d6-4131-bc55-add1a518a9ad"},"vehicle_type_id":"4","last_reported":1762801717,"current_range_meters":17600,"station_id":"ce4bho92rcd13ifvqh4g","pricing_plan_id":"cebpf4jnsgd1na2vs0mg"},{"bike_id":"e2ae78b6-0e45-4d14-be67-9fe3a6a70a8e","system_id":"levelo_inurba_marseille","lat":43.2898,"lon":5.37839,"is_reserved":false,"is_disabled":true,"rental_uris":{"android":"levelo://app?vid=e2ae78b6-0e45-4d14-be67-9fe3a6a70a8e","ios":"levelo://app?vid=e2ae78b6-0e45-4d14-be67-9fe3a6a70a8e"},