{"last_updated":1779043958,"ttl":60,"version":"2.2","data":{"bikes":[{"bike_id":"ba150d35-1697-4785-911e-d57cfe653e09","system_id":"levelo_inurba_marseille","lat":43.308,"lon":5.38177,"is_reserved":false,"is_disabled":false,"rental_uris":{"android":"levelo://app?vid=ba150d35-1697-4785-911e-d57cfe653e09","ios":"levelo://app?vid=ba150d35-1697-4785-911e-d57cfe653e09"},"vehicle_type_id":"4","last_reported":1779043959,"current_range_meters":2800,"station_id":"ce4bgt12rcd13ifvqce0","pricing_plan_id":"cebpf4jnsgd1na2vs0mg"},{"bike_id":"57a8818b-6ba7-4617-8b68-22d76f3ed67d","system_id":"levelo_inurba_marseille","lat":43.32356,"lon":5.36728,"is_reserved":false,"is_disabled":false,"rental_uris":{"android":"levelo://app?vid=57a8818b-6ba7-4617-8b68-22d76f3ed67d","ios":"levelo://app?vid=57a8818b-6ba7-4617-8b68-22d76f3ed67d"},"vehicle_type_id":"4","last_reported":1779043959,"current_range_meters":2800,"station_id":"ce4bhsh2rcd13ifvqi2g","pricing_plan_id":"cebpf4jnsgd1na2vs0mg"},{"bike_id":"b5fa87f4-2e08-421e-aab3-166563c3d908","system_id":"levelo_inurba_marseille","lat":43.26939,"lon":5.40255,"is_reserved":false,"is_disabled":false,"rental_uris":{"android":"levelo://app?vid=b5fa87f4-2e08-421e-aab3-166563c3d908","ios":"levelo://app?vid=b5fa87f4-2e08-421e-aab3-166563c3d908"},"vehicle_type_id":"4","last_reported":1779043959,"current_range_meters":2800,"station_id":"cjm6bp8fraef2m0cb0m0","pricing_plan_id":"cebpf4jnsgd1na2vs0mg"},{"bike_id":"3a013e4d-4e58-45e1-b4cd-ba8f22407475","system_id":"levelo_inurba_marseille","lat":43.31104,"lon":5.37769,"is_reserved":false,"is_disabled":false,"rental_uris":{"android":"levelo://app?vid=3a013e4d-4e58-45e1-b4cd-ba8f22407475","ios":"levelo://app?vid=3a013e4d-4e58-45e1-b4cd-ba8f22407475"},"vehicle_type_id":"4","last_reported":1779043959,"current_range_meters":2800,"station_id":"ce4bgt92rcd13ifvqcg0","pricing_plan_id":"cebpf4jnsgd1na2vs0mg"},{"bike_id":"c4df9a32-2c02-41b7-b43b-8a5c21ed47ef","system_id":"levelo_inurba_marseille","lat":43.28696,"lon":5.46665,"is_reserved":false,"is_disabled":false,"rental_uris":{"android":"levelo://app?vid=c4df9a32-2c02-41b7-b43b-8a5c21ed47ef","ios":"levelo://app?vid=c4df9a32-2c02-41b7-b43b-8a5c21ed47ef"},"vehicle_type_id":"4","last_reported":1779043959,"current_range_meters":2800,"station_id":"st_d6tc3vkotcvc738tfjhg","pricing_plan_id":"cebpf4jnsgd1na2vs0mg"},{"bike_id":"d22e4ca3-f6f4-4580-b89a-0139e6ac4908","system_id":"levelo_inurba_marseille","lat":43.24637,"lon":5.41567,"is_reserved":false,"is_disabled":false,"rental_uris":{"android":"levelo://app?vid=d22e4ca3-f6f4-4580-b89a-0139e6ac4908","ios":"levelo://app?vid=d22e4ca3-f6f4-4580-b89a-0139e6ac4908"},"vehicle_type_id":"4","last_reported":1779043959,"current_range_meters":2800,"station_id":"","pricing_plan_id":"cebpf4jnsgd1na2vs0mg"},{"bike_id":"5297df97-f23f-47aa-89ea-944f9f64f34c","system_id":"levelo_inurba_marseille","lat":43.317183,"lon":5.423912,"is_reserved":false,"is_disabled":false,"rental_uris":{"android":"levelo://app?vid=5297df97-f23f-47aa-89ea-944f9f64f34c","ios":"levelo://app?vid=5297df97-f23f-47aa-89ea-944f9f64f34c"},"vehicle_type_id":"4","last_reported":1779043959,"current_range_meters":2800,"station_id":"ce4bhp92rcd13ifvqhbg","pricing_plan_id":"cebpf4jnsgd1na2vs0mg"},{"bike_id":"dbe28cac-ed8b-484b-92db-28876b016a9e","system_id":"levelo_inurba_marseille","lat":43.29555,"lon":5.42268,"is_reserved":false,"is_disabled":false,"rental_uris":{"android":"levelo://app?vid=dbe28cac-ed8b-484b-92db-28876b016a9e","ios":"levelo://app?vid=dbe28cac-ed8b-484b-92db-28876b016a9e"},"vehicle_type_id":"4","last_reported":1779043959,"current_range_meters":2800,"station_id":"ce4bhph2rcd13ifvqhdg","pricing_plan_id":"cebpf4jnsgd1na2vs0mg"},{"bike_id":"1b7f9ae5-e33c-45b7-b938-37f25fadb7b7","system_id":"levelo_inurba_marseille","lat":43.302975,"lon":5.392184,"is_reserved":false,"is_disabled":false,"rental_uris":{"android":"levelo://app?vid=1b7f9ae5-e33c-45b7-b938-37f25fadb7b7","ios":"levelo://app?vid=1b7f9ae5-e33c-45b7-b938-37f25fadb7b7"},"vehicle_type_id":"4","last_reported":1779043959,"current_range_meters":2800,"station_id":"ce4bgkh2rcd13ifvqbk0","pricing_plan_id":"cebpf4jnsgd1na2vs0mg"},{"bike_id":"b17c4260-3bab-4259-bf2c-e9b476e587cc","system_id":"levelo_inurba_marseille","lat":43.29905,"lon":5.36479,"is_reserved":false,"is_disabled":false,"rental_uris":{"android":"levelo://app?vid=b17c4260-3bab-4259-bf2c-e9b476e587cc","ios":"levelo://app?vid=b17c4260-3bab-4259-bf2c-e9b476e587cc"},"vehicle_type_id":"4","last_reported":1779043959,"current_range_meters":2800,"station_id":"","pricing_plan_id":"cebpf4jnsgd1na2vs0mg"},{"bike_id":"3686cd93-ca6b-490b-8851-66fb19f1cbc1","system_id":"levelo_inurba_marseille","lat":43.27198,"lon":5.39189,"is_reserved":false,"is_disabled":false,"rental_uris":{"android":"levelo://app?vid=3686cd93-ca6b-490b-8851-66fb19f1cbc1","ios":"levelo://app?vid=3686cd93-ca6b-490b-8851-66fb19f1cbc1"},"vehicle_type_id":"4","last_reported":1779043959,"current_range_meters":2800,"station_id":"ce4bhhp2rcd13ifvqfm0","pricing_plan_id":"cebpf4jnsgd1na2vs0mg"},{"bike_id":"d1c1fead-fe04-4196-9748-3f6e20a96633","system_id":"levelo_inurba_marseille","lat":43.27612,"lon":5.3611,"is_reserved":false,"is_disabled":true,"rental_uris":{"android":"levelo://app?vid=d1c1fead-fe04-4196-9748-3f6e20a96633","ios":"levelo://app?vid=d1c1fead-fe04-4196-9748-3f6e20a96633"},"vehicle_type_id":"4","last_reported":1779043959,"current_range_meters":3200,"station_id":"ce4bgj92rcd13ifvqbe0","pricing_plan_id":"cebpf4jnsgd1na2vs0mg"},{"bike_id":"3540664e-3b7d-4133-8f7a-f4f0cd6ddb4c","system_id":"levelo_inurba_marseille","lat":43.27909,"lon":5.39588,"is_reserved":false,"is_disabled":false,"rental_uris":{"android":"levelo://app?vid=3540664e-3b7d-4133-8f7a-f4f0cd6ddb4c","ios":"levelo://app?vid=3540664e-3b7d-4133-8f7a-f4f0cd6ddb4c"},"vehicle_type_id":"4","last_reported":1779043959,"current_range_meters":3200,"station_id":"ce4bhf92rcd13ifvqf40","pricing_plan_id":"cebpf4jnsgd1na2vs0mg"},{"bike_id":"45416c1e-83b2-4dd3-a46f-a2d8eb08a267","system_id":"levelo_inurba_marseille","lat":43.29756,"lon":5.37689,"is_reserved":false,"is_disabled":true,"rental_uris":{"android":"levelo://app?vid=45416c1e-83b2-4dd3-a46f-a2d8eb08a267","ios":"levelo://app?vid=45416c1e-83b2-4dd3-a46f-a2d8eb08a267"},"vehicle_type_id":"4","last_reported":1779043959,"current_range_meters":3200,"station_id":"ce4bgkh2rcd13ifvqbl0","pricing_plan_id":"cebpf4jnsgd1na2vs0mg"},{"bike_id":"b6678264-85a0-4285-83fe-fde2570b5eca","system_id":"levelo_inurba_marseille","lat":43.24987,"lon":5.38928,"is_reserved":false,"is_disabled":false,"rental_uris":{"android":"levelo://app?vid=b6678264-85a0-4285-83fe-fde2570b5eca","ios":"levelo://app?vid=b6678264-85a0-4285-83fe-fde2570b5eca"},"vehicle_type_id":"4","last_reported":1779043959,"current_range_meters":3200,"station_id":"ce4bhgp2rcd13ifvqfd0","pricing_plan_id":"cebpf4jnsgd1na2vs0mg"},{"bike_id":"1a36ad71-dcd7-4c43-a455-74375f932fc0","system_id":"levelo_inurba_marseille","lat":43.26211,"lon":5.38772,"is_reserved":false,"is_disabled":false,"rental_uris":{"android":"levelo://app?vid=1a36ad71-dcd7-4c43-a455-74375f932fc0","ios":"levelo://app?vid=1a36ad71-dcd7-4c43-a455-74375f932fc0"},"vehicle_type_id":"4","last_reported":1779043959,"current_range_meters":3200,"station_id":"","pricing_plan_id":"cebpf4jnsgd1na2vs0mg"},{"bike_id":"2d3969f2-1e7c-45fc-93a9-1a3b905efdf8","system_id":"levelo_inurba_marseille","lat":43.255073,"lon":5.376501,"is_reserved":false,"is_disabled":false,"rental_uris":{"android":"levelo://app?vid=2d3969f2-1e7c-45fc-93a9-1a3b905efdf8","ios":"levelo://app?vid=2d3969f2-1e7c-45fc-93a9-1a3b905efdf8"},"vehicle_type_id":"4","last_reported":1779043959,"current_range_meters":3200,"station_id":"ce4bhh12rcd13ifvqff0","pricing_plan_id":"cebpf4jnsgd1na2vs0mg"},{"bike_id":"454f6a56-bd78-45d3-a830-65d016fa90f7","system_id":"levelo_inurba_marseille","lat":43.29428,"lon":5.3865,"is_reserved":false,"is_disabled":false,"rental_uris":{"android":"levelo://app?vid=454f6a56-bd78-45d3-a830-65d016fa90f7","ios":"levelo://app?vid=454f6a56-bd78-45d3-a830-65d016fa90f7"},"vehicle_type_id":"4","last_reported":1779043959,"current_range_meters":3200,"station_id":"","pricing_plan_id":"cebpf4jnsgd1na2vs0mg"},{"bike_id":"6e527825-f5d2-44a1-a472-af1508aac4ba","system_id":"levelo_inurba_marseille","lat":43.28702,"lon":5.37396,"is_reserved":false,"is_disabled":false,"rental_uris":{"android":"levelo://app?vid=6e527825-f5d2-44a1-a472-af1508aac4ba","ios":"levelo://app?vid=6e527825-f5d2-44a1-a472-af1508aac4ba"},"vehicle_type_id":"4","last_reported":1779043959,"current_range_meters":3200,"station_id":"ce4bh3p2rcd13ifvqdq0","pricing_plan_id":"cebpf4jnsgd1na2vs0mg"},{"bike_id":"d712c6ad-51f6-437c-9555-6695df650f1e","system_id":"levelo_inurba_marseille","lat":43.31885,"lon":5.36807,"is_reserved":false,"is_disabled":false,"rental_uris":{"android":"levelo://app?vid=d712c6ad-51f6-437c-9555-6695df650f1e","ios":"levelo://app?vid=d712c6ad-51f6-437c-9555-6695df650f1e"},"vehicle_type_id":"4","last_reported":1779043959,"current_range_meters":3200,"station_id":"st_d6o2h0d0559c73evc1b0","pricing_plan_id":"cebpf4jnsgd1na2vs0mg"},{"bike_id":"40b91862-1dfe-464a-b955-495d64fdacda","system_id":"levelo_inurba_marseille","lat":43.27435,"lon":5.39423,"is_reserved":false,"is_disabled":false,"rental_uris":{"android":"levelo://app?vid=40b91862-1dfe-464a-b955-495d64fdacda","ios":"levelo://app?vid=40b91862-1dfe-464a-b955-495d64fdacda"},"vehicle_type_id":"4","last_reported":1779043959,"current_range_meters":3200,"station_id":"ce4bhdp2rcd13ifvqf20","pricing_plan_id":"cebpf4jnsgd1na2vs0mg"},{"bike_id":"fe9ffd90-3a9f-43a7-9349-05884594ccf9","system_id":"levelo_inurba_marseille","lat":43.301356,"lon":5.387758,"is_reserved":false,"is_disabled":false,"rental_uris":{"android":"levelo://app?vid=fe9ffd90-3a9f-43a7-9349-05884594ccf9","ios":"levelo://app?vid=fe9ffd90-3a9f-43a7-9349-05884594ccf9"},"vehicle_type_id":"4","last_reported":1779043959,"current_range_meters":3200,"station_id":"ce4bghh2rcd13ifvqb60","pricing_plan_id":"cebpf4jnsgd1na2vs0mg"},{"bike_id":"a1e590af-4ebb-4d7d-a8d7-c709f66eaca6","system_id":"levelo_inurba_marseille","lat":43.278181,"lon":5.407093,"is_reserved":false,"is_disabled":false,"rental_uris":{"android":"levelo://app?vid=a1e590af-4ebb-4d7d-a8d7-c709f66eaca6","ios":"levelo://app?vid=a1e590af-4ebb-4d7d-a8d7-c709f66eaca6"},"vehicle_type_id":"4","last_reported":1779043959,"current_range_meters":3200,"station_id":"ce4bhnh2rcd13ifvqgtg","pricing_plan_id":"cebpf4jnsgd1na2vs0mg"},{"bike_id":"9c04dd90-e2b2-416c-b4b6-9aab6319b1b8","system_id":"levelo_inurba_marseille","lat":43.272071,"lon":5.391843,"is_reserved":false,"is_disabled":false,"rental_uris":{"android":"levelo://app?vid=9c04dd90-e2b2-416c-b4b6-9aab6319b1b8","ios":"levelo://app?vid=9c04dd90-e2b2-416c-b4b6-9aab6319b1b8"},"vehicle_type_id":"4","last_reported":1779043959,"current_range_meters":3200,"station_id":"ce4bhhp2rcd13ifvqfm0","pricing_plan_id":"cebpf4jnsgd1na2vs0mg"},{"bike_id":"89e0fe84-a849-4443-8624-0fbea65fc8f8","system_id":"levelo_inurba_marseille","lat":43.25562,"lon":5.37526,"is_reserved":false,"is_disabled":false,"rental_uris":{"android":"levelo://app?vid=89e0fe84-a849-4443-8624-0fbea65fc8f8","ios":"levelo://app?vid=89e0fe84-a849-4443-8624-0fbea65fc8f8"},"vehicle_type_id":"4","last_reported":1779043959,"current_range_meters":3200,"station_id":"","pricing_plan_id":"cebpf4jnsgd1na2vs0mg"},{"bike_id":"2427fded-4349-4425-9f6b-66cb5ed52ef8","system_id":"levelo_inurba_marseille","lat":43.27809,"lon":5.40693,"is_reserved":false,"is_disabled":false,"rental_uris":{"android":"levelo://app?vid=2427fded-4349-4425-9f6b-66cb5ed52ef8","ios":"levelo://app?vid=2427fded-4349-4425-9f6b-66cb5ed52ef8"},"vehicle_type_id":"4","last_reported":1779043959,"current_range_meters":3200,"station_id":"ce4bhnh2rcd13ifvqgtg","pricing_plan_id":"cebpf4jnsgd1na2vs0mg"},{"bike_id":"7df68af5-0a4b-49cb-bb49-256e11a9a48a","system_id":"levelo_inurba_marseille","lat":43.26812,"lon":5.4027,"is_reserved":false,"is_disabled":false,"rental_uris":{"android":"levelo://app?vid=7df68af5-0a4b-49cb-bb49-256e11a9a48a","ios":"levelo://app?vid=7df68af5-0a4b-49cb-bb49-256e11a9a48a"},"vehicle_type_id":"4","last_reported":1779043959,"current_range_meters":3200,"station_id":"ce501612rcd8frsf0b60","pricing_plan_id":"cebpf4jnsgd1na2vs0mg"},{"bike_id":"83395a78-e9e9-4d05-b914-9cab090a7e41","system_id":"levelo_inurba_marseille","lat":43.22563,"lon":5.41623,"is_reserved":false,"is_disabled":false,"rental_uris":{"android":"levelo://app?vid=83395a78-e9e9-4d05-b914-9cab090a7e41","ios":"levelo://app?vid=83395a78-e9e9-4d05-b914-9cab090a7e41"},"vehicle_type_id":"4","last_reported":1779043959,"current_range_meters":3600,"station_id":"st_d2o4gvlbi1j2169b742g","pricing_plan_id":"cebpf4jnsgd1na2vs0mg"},{"bike_id":"0eec5137-cd05-4421-87a9-fdebbdb1c0f9","system_id":"levelo_inurba_marseille","lat":43.33543,"lon":5.37465,"is_reserved":false,"is_disabled":false,"rental_uris":{"android":"levelo://app?vid=0eec5137-cd05-4421-87a9-fdebbdb1c0f9","ios":"levelo://app?vid=0eec5137-cd05-4421-87a9-fdebbdb1c0f9"},"vehicle_type_id":"4","last_reported":1779043959,"current_range_meters":3600,"station_id":"st_d46tts09ee8s73dlu43g","pricing_plan_id":"cebpf4jnsgd1na2vs0mg"},{"bike_id":"74c5a63b-2f80-4bb3-9618-e60d8f59c76b","system_id":"levelo_inurba_marseille","lat":43.28713,"lon":5.46695,"is_reserved":false,"is_disabled":false,"rental_uris":{"android":"levelo://app?vid=74c5a63b-2f80-4bb3-9618-e60d8f59c76b","ios":"levelo://app?vid=74c5a63b-2f80-4bb3-9618-e60d8f59c76b"},"vehicle_type_id":"4","last_reported":1779043959,"current_range_meters":3600,"station_id":"st_d6tc3vkotcvc738tfjhg","pricing_plan_id":"cebpf4jnsgd1na2vs0mg"},{"bike_id":"cc4d3a9f-820b-4968-b146-a1e09c7d7b0c","system_id":"levelo_inurba_marseille","lat":43.25097,"lon":5.39545,"is_reserved":false,"is_disabled":false,"rental_uris":{"android":"levelo://app?vid=cc4d3a9f-820b-4968-b146-a1e09c7d7b0c","ios":"levelo://app?vid=cc4d3a9f-820b-4968-b146-a1e09c7d7b0c"},"vehicle_type_id":"4","last_reported":1779043959,"current_range_meters":3600,"station_id":"ce4bhm12rcd13ifvqgkg","pricing_plan_id":"cebpf4jnsgd1na2vs0mg"},{"bike_id":"084a15e1-5253-46ae-abb0-2123f63032d9","system_id":"levelo_inurba_marseille","lat":43.27667,"lon":5.41374,"is_reserved":false,"is_disabled":false,"rental_uris":{"android":"levelo://app?vid=084a15e1-5253-46ae-abb0-2123f63032d9","ios":"levelo://app?vid=084a15e1-5253-46ae-abb0-2123f63032d9"},"vehicle_type_id":"4","last_reported":1779043959,"current_range_meters":3600,"station_id":"","pricing_plan_id":"cebpf4jnsgd1na2vs0mg"},{"bike_id":"14be98d9-f6f1-4e77-9898-d9b3e12137c2","system_id":"levelo_inurba_marseille","lat":43.21753,"lon":5.34608,"is_reserved":false,"is_disabled":true,"rental_uris":{"android":"levelo://app?vid=14be98d9-f6f1-4e77-9898-d9b3e12137c2","ios":"levelo://app?vid=14be98d9-f6f1-4e77-9898-d9b3e12137c2"},"vehicle_type_id":"4","last_reported":1779043959,"current_range_meters":3600,"station_id":"st_cvj6r9ubvosntc0bgbag","pricing_plan_id":"cebpf4jnsgd1na2vs0mg"},{"bike_id":"ddc3bf1a-99f5-4794-a812-95dc9e2e165b","system_id":"levelo_inurba_marseille","lat":43.23886,"lon":5.37478,"is_reserved":false,"is_disabled":true,"rental_uris":{"android":"levelo://app?vid=ddc3bf1a-99f5-4794-a812-95dc9e2e165b","ios":"levelo://app?vid=ddc3bf1a-99f5-4794-a812-95dc9e2e165b"},"vehicle_type_id":"4","last_reported":1779043959,"current_range_meters":3600,"station_id":"st_d6sm7csbq4hs73f8fpjg","pricing_plan_id":"cebpf4jnsgd1na2vs0mg"},{"bike_id":"8396cec4-0d34-4d94-a454-895e6c420ef9","system_id":"levelo_inurba_marseille","lat":43.26572,"lon":5.39022,"is_reserved":false,"is_disabled":true,"rental_uris":{"android":"levelo://app?vid=8396cec4-0d34-4d94-a454-895e6c420ef9","ios":"levelo://app?vid=8396cec4-0d34-4d94-a454-895e6c420ef9"},"vehicle_type_id":"4","last_reported":1779043959,"current_range_meters":3600,"station_id":"ce4bhe12rcd13ifvqf30","pricing_plan_id":"cebpf4jnsgd1na2vs0mg"},{"bike_id":"0900b65a-9d38-404e-a4e7-96cc69101ebc","system_id":"levelo_inurba_marseille","lat":43.26782,"lon":5.39417,"is_reserved":false,"is_disabled":false,"rental_uris":{"android":"levelo://app?vid=0900b65a-9d38-404e-a4e7-96cc69101ebc","ios":"levelo://app?vid=0900b65a-9d38-404e-a4e7-96cc69101ebc"},"vehicle_type_id":"4","last_reported":1779043959,"current_range_meters":3600,"station_id":"ce4bhh12rcd13ifvqfg0","pricing_plan_id":"cebpf4jnsgd1na2vs0mg"},{"bike_id":"1fcf1fe6-3a5b-42d2-bfcf-8d013b2941cc","system_id":"levelo_inurba_marseille","lat":43.33582,"lon":5.37456,"is_reserved":false,"is_disabled":false,"rental_uris":{"android":"levelo://app?vid=1fcf1fe6-3a5b-42d2-bfcf-8d013b2941cc","ios":"levelo://app?vid=1fcf1fe6-3a5b-42d2-bfcf-8d013b2941cc"},"vehicle_type_id":"4","last_reported":1779043959,"current_range_meters":3600,"station_id":"st_d46tts09ee8s73dlu43g","pricing_plan_id":"cebpf4jnsgd1na2vs0mg"},{"bike_id":"1f739346-4ae4-4ed7-afef-9ecf0ab6914e","system_id":"levelo_inurba_marseille","lat":43.25505,"lon":5.3766,"is_reserved":false,"is_disabled":true,"rental_uris":{"android":"levelo://app?vid=1f739346-4ae4-4ed7-afef-9ecf0ab6914e","ios":"levelo://app?vid=1f739346-4ae4-4ed7-afef-9ecf0ab6914e"},"vehicle_type_id":"4","last_reported":1779043959,"current_range_meters":3600,"station_id":"ce4bhh12rcd13ifvqff0","pricing_plan_id":"cebpf4jnsgd1na2vs0mg"},{"bike_id":"84a343c7-92c0-42ee-869d-43310954b8b1","system_id":"levelo_inurba_marseille","lat":43.225281,"lon":5.348366,"is_reserved":false,"is_disabled":true,"rental_uris":{"android":"levelo://app?vid=84a343c7-92c0-42ee-869d-43310954b8b1","ios":"levelo://app?vid=84a343c7-92c0-42ee-869d-43310954b8b1"},"vehicle_type_id":"4","last_reported":1779043959,"current_range_meters":3600,"station_id":"st_cvj5dfep6f1abm77gieg","pricing_plan_id":"cebpf4jnsgd1na2vs0mg"},{"bike_id":"843b1bba-06db-4799-a509-943b9321c82e","system_id":"levelo_inurba_marseille","lat":43.29187,"lon":5.35823,"is_reserved":false,"is_disabled":false,"rental_uris":{"android":"levelo://app?vid=843b1bba-06db-4799-a509-943b9321c82e","ios":"levelo://app?vid=843b1bba-06db-4799-a509-943b9321c82e"},"vehicle_type_id":"4","last_reported":1779043959,"current_range_meters":3600,"station_id":"ce4bhb12rcd13ifvqel0","pricing_plan_id":"cebpf4jnsgd1na2vs0mg"},{"bike_id":"b1dd7dc7-192d-48f1-80c1-27794307c003","system_id":"levelo_inurba_marseille","lat":43.26256,"lon":5.40471,"is_reserved":false,"is_disabled":false,"rental_uris":{"android":"levelo://app?vid=b1dd7dc7-192d-48f1-80c1-27794307c003","ios":"levelo://app?vid=b1dd7dc7-192d-48f1-80c1-27794307c003"},"vehicle_type_id":"4","last_reported":1779043959,"current_range_meters":3600,"station_id":"ce4bhmh2rcd13ifvqgmg","pricing_plan_id":"cebpf4jnsgd1na2vs0mg"},{"bike_id":"6c2000d6-446d-407f-9c51-7f605fa9a7bc","system_id":"levelo_inurba_marseille","lat":43.31718,"lon":5.43708,"is_reserved":false,"is_disabled":false,"rental_uris":{"android":"levelo://app?vid=6c2000d6-446d-407f-9c51-7f605fa9a7bc","ios":"levelo://app?vid=6c2000d6-446d-407f-9c51-7f605fa9a7bc"},"vehicle_type_id":"4","last_reported":1779043959,"current_range_meters":3600,"station_id":"ce4bhp92rcd13ifvqhcg","pricing_plan_id":"cebpf4jnsgd1na2vs0mg"},{"bike_id":"56ab4a0e-a072-4802-a4dc-a036d5cb054b","system_id":"levelo_inurba_marseille","lat":43.27047,"lon":5.4026,"is_reserved":false,"is_disabled":false,"rental_uris":{"android":"levelo://app?vid=56ab4a0e-a072-4802-a4dc-a036d5cb054b","ios":"levelo://app?vid=56ab4a0e-a072-4802-a4dc-a036d5cb054b"},"vehicle_type_id":"4","last_reported":1779043959,"current_range_meters":3600,"station_id":"ce4bhk92rcd13ifvqgc0","pricing_plan_id":"cebpf4jnsgd1na2vs0mg"},{"bike_id":"d3a8f95d-e462-4f64-ae89-bf81c928a1c2","system_id":"levelo_inurba_marseille","lat":43.23162,"lon":5.43715,"is_reserved":false,"is_disabled":false,"rental_uris":{"android":"levelo://app?vid=d3a8f95d-e462-4f64-ae89-bf81c928a1c2","ios":"levelo://app?vid=d3a8f95d-e462-4f64-ae89-bf81c928a1c2"},"vehicle_type_id":"4","last_reported":1779043959,"current_range_meters":3600,"station_id":"ce4bhmp2rcd13ifvqgog","pricing_plan_id":"cebpf4jnsgd1na2vs0mg"},{"bike_id":"2bda3d52-eb88-438c-a8f8-3ab51be2eac2","system_id":"levelo_inurba_marseille","lat":43.31712,"lon":5.4048,"is_reserved":false,"is_disabled":false,"rental_uris":{"android":"levelo://app?vid=2bda3d52-eb88-438c-a8f8-3ab51be2eac2","ios":"levelo://app?vid=2bda3d52-eb88-438c-a8f8-3ab51be2eac2"},"vehicle_type_id":"4","last_reported":1779043959,"current_range_meters":4000,"station_id":"ce4bh012rcd13ifvqd00","pricing_plan_id":"cebpf4jnsgd1na2vs0mg"},{"bike_id":"30dadd8a-ab4c-485b-8d1d-9fef39f6eeb6","system_id":"levelo_inurba_marseille","lat":43.26577,"lon":5.39026,"is_reserved":false,"is_disabled":false,"rental_uris":{"android":"levelo://app?vid=30dadd8a-ab4c-485b-8d1d-9fef39f6eeb6","ios":"levelo://app?vid=30dadd8a-ab4c-485b-8d1d-9fef39f6eeb6"},"vehicle_type_id":"4","last_reported":1779043959,"current_range_meters":4000,"station_id":"ce4bhe12rcd13ifvqf30","pricing_plan_id":"cebpf4jnsgd1na2vs0mg"},{"bike_id":"efec0f5e-de3c-4d58-bd6a-818ef4098bac","system_id":"levelo_inurba_marseille","lat":43.25569,"lon":5.38238,"is_reserved":false,"is_disabled":false,"rental_uris":{"android":"levelo://app?vid=efec0f5e-de3c-4d58-bd6a-818ef4098bac","ios":"levelo://app?vid=efec0f5e-de3c-4d58-bd6a-818ef4098bac"},"vehicle_type_id":"4","last_reported":1779043959,"current_range_meters":4000,"station_id":"ce4bhih2rcd13ifvqfs0","pricing_plan_id":"cebpf4jnsgd1na2vs0mg"},{"bike_id":"b90751e2-6c82-4aac-94a6-884baf469550","system_id":"levelo_inurba_marseille","lat":43.30583,"lon":5.39343,"is_reserved":false,"is_disabled":false,"rental_uris":{"android":"levelo://app?vid=b90751e2-6c82-4aac-94a6-884baf469550","ios":"levelo://app?vid=b90751e2-6c82-4aac-94a6-884baf469550"},"vehicle_type_id":"4","last_reported":1779043959,"current_range_meters":4000,"station_id":"ce4bh0p2rcd13ifvqd80","pricing_plan_id":"cebpf4jnsgd1na2vs0mg"},{"bike_id":"8d0c8938-6e22-43c4-adb4-ddab489a8d16","system_id":"levelo_inurba_marseille","lat":43.27057,"lon":5.40254,"is_reserved":false,"is_disabled":false,"rental_uris":{"android":"levelo://app?vid=8d0c8938-6e22-43c4-adb4-ddab489a8d16","ios":"levelo://app?vid=8d0c8938-6e22-43c4-adb4-ddab489a8d16"},"vehicle_type_id":"4","last_reported":1779043959,"current_range_meters":4000,"station_id":"ce4bhk92rcd13ifvqgc0","pricing_plan_id":"cebpf4jnsgd1na2vs0mg"},{"bike_id":"baefe204-570f-4b44-aab0-6b48671c6c5d","system_id":"levelo_inurba_marseille","lat":43.24813,"lon":5.37458,"is_reserved":false,"is_disabled":false,"rental_uris":{"android":"levelo://app?vid=baefe204-570f-4b44-aab0-6b48671c6c5d","ios":"levelo://app?vid=baefe204-570f-4b44-aab0-6b48671c6c5d"},"vehicle_type_id":"4","last_reported":1779043959,"current_range_meters":4000,"station_id":"ce4bhgh2rcd13ifvqfb0","pricing_plan_id":"cebpf4jnsgd1na2vs0mg"},{"bike_id":"c7234c5c-5d45-4d97-85cc-779e72ef56a5","system_id":"levelo_inurba_marseille","lat":43.29755,"lon":5.42776,"is_reserved":false,"is_disabled":false,"rental_uris":{"android":"levelo://app?vid=c7234c5c-5d45-4d97-85cc-779e72ef56a5","ios":"levelo://app?vid=c7234c5c-5d45-4d97-85cc-779e72ef56a5"},"vehicle_type_id":"4","last_reported":1779043959,"current_range_meters":4000,"station_id":"st_d3md5207bmas73dh9klg","pricing_plan_id":"cebpf4jnsgd1na2vs0mg"},{"bike_id":"63b6abae-5aa8-4369-8eab-cabf1302c82d","system_id":"levelo_inurba_marseille","lat":43.26032,"lon":5.375463,"is_reserved":false,"is_disabled":true,"rental_uris":{"android":"levelo://app?vid=63b6abae-5aa8-4369-8eab-cabf1302c82d","ios":"levelo://app?vid=63b6abae-5aa8-4369-8eab-cabf1302c82d"},"vehicle_type_id":"4","last_reported":1779043959,"current_range_meters":4000,"station_id":"ce4bhgh2rcd13ifvqfa0","pricing_plan_id":"cebpf4jnsgd1na2vs0mg"},{"bike_id":"b65397b9-cbfa-42cc-8917-d43d4b689953","system_id":"levelo_inurba_marseille","lat":43.2988,"lon":5.38909,"is_reserved":false,"is_disabled":false,"rental_uris":{"android":"levelo://app?vid=b65397b9-cbfa-42cc-8917-d43d4b689953","ios":"levelo://app?vid=b65397b9-cbfa-42cc-8917-d43d4b689953"},"vehicle_type_id":"4","last_reported":1779043959,"current_range_meters":4000,"station_id":"ce4bh392rcd13ifvqdl0","pricing_plan_id":"cebpf4jnsgd1na2vs0mg"},{"bike_id":"d736b09b-d99c-425c-8eda-0b24f79681e2","system_id":"levelo_inurba_marseille","lat":43.28619,"lon":5.35101,"is_reserved":false,"is_disabled":false,"rental_uris":{"android":"levelo://app?vid=d736b09b-d99c-425c-8eda-0b24f79681e2","ios":"levelo://app?vid=d736b09b-d99c-425c-8eda-0b24f79681e2"},"vehicle_type_id":"4","last_reported":1779043959,"current_range_meters":4000,"station_id":"ce4bhch2rcd13ifvqeug","pricing_plan_id":"cebpf4jnsgd1na2vs0mg"},{"bike_id":"5437682e-dcef-499a-b3ba-7fe51d190c81","system_id":"levelo_inurba_marseille","lat":43.30134,"lon":5.38779,"is_reserved":false,"is_disabled":false,"rental_uris":{"android":"levelo://app?vid=5437682e-dcef-499a-b3ba-7fe51d190c81","ios":"levelo://app?vid=5437682e-dcef-499a-b3ba-7fe51d190c81"},"vehicle_type_id":"4","last_reported":1779043959,"current_range_meters":4000,"station_id":"ce4bghh2rcd13ifvqb60","pricing_plan_id":"cebpf4jnsgd1na2vs0mg"},{"bike_id":"fe402ac9-1d34-4ea1-93b5-0aabdb787562","system_id":"levelo_inurba_marseille","lat":43.30558,"lon":5.36526,"is_reserved":false,"is_disabled":false,"rental_uris":{"android":"levelo://app?vid=fe402ac9-1d34-4ea1-93b5-0aabdb787562","ios":"levelo://app?vid=fe402ac9-1d34-4ea1-93b5-0aabdb787562"},"vehicle_type_id":"4","last_reported":1779043959,"current_range_meters":4000,"station_id":"ce4bgs12rcd13ifvqcag","pricing_plan_id":"cebpf4jnsgd1na2vs0mg"},{"bike_id":"314ed82b-0e0d-4385-be6c-0a511711d36f","system_id":"levelo_inurba_marseille","lat":43.27498,"lon":5.42443,"is_reserved":false,"is_disabled":false,"rental_uris":{"android":"levelo://app?vid=314ed82b-0e0d-4385-be6c-0a511711d36f","ios":"levelo://app?vid=314ed82b-0e0d-4385-be6c-0a511711d36f"},"vehicle_type_id":"4","last_reported":1779043959,"current_range_meters":4000,"station_id":"ce4bhn92rcd13ifvqgrg","pricing_plan_id":"cebpf4jnsgd1na2vs0mg"},{"bike_id":"6d646e98-b4e6-4229-940f-9c736a0942fc","system_id":"levelo_inurba_marseille","lat":43.26933,"lon":5.40257,"is_reserved":false,"is_disabled":false,"rental_uris":{"android":"levelo://app?vid=6d646e98-b4e6-4229-940f-9c736a0942fc","ios":"levelo://app?vid=6d646e98-b4e6-4229-940f-9c736a0942fc"},"vehicle_type_id":"4","last_reported":1779043959,"current_range_meters":4000,"station_id":"cjm6bp8fraef2m0cb0m0","pricing_plan_id":"cebpf4jnsgd1na2vs0mg"},{"bike_id":"b6985635-6e2b-4936-bd1b-bee558cbd690","system_id":"levelo_inurba_marseille","lat":43.30318,"lon":5.4044,"is_reserved":false,"is_disabled":false,"rental_uris":{"android":"levelo://app?vid=b6985635-6e2b-4936-bd1b-bee558cbd690","ios":"levelo://app?vid=b6985635-6e2b-4936-bd1b-bee558cbd690"},"vehicle_type_id":"4","last_reported":1779043959,"current_range_meters":4000,"station_id":"ce4bh012rcd13ifvqd10","pricing_plan_id":"cebpf4jnsgd1na2vs0mg"},{"bike_id":"fcfbaa59-ce32-42ed-9b12-f4e06295f40f","system_id":"levelo_inurba_marseille","lat":43.31913,"lon":5.40731,"is_reserved":false,"is_disabled":true,"rental_uris":{"android":"levelo://app?vid=fcfbaa59-ce32-42ed-9b12-f4e06295f40f","ios":"levelo://app?vid=fcfbaa59-ce32-42ed-9b12-f4e06295f40f"},"vehicle_type_id":"4","last_reported":1779043959,"current_range_meters":4000,"station_id":"ce4bhq12rcd13ifvqhig","pricing_plan_id":"cebpf4jnsgd1na2vs0mg"},{"bike_id":"ab6e2ed0-2f2f-4a9a-8dcf-397ef82e7dd1","system_id":"levelo_inurba_marseille","lat":43.27302,"lon":5.39083,"is_reserved":false,"is_disabled":false,"rental_uris":{"android":"levelo://app?vid=ab6e2ed0-2f2f-4a9a-8dcf-397ef82e7dd1","ios":"levelo://app?vid=ab6e2ed0-2f2f-4a9a-8dcf-397ef82e7dd1"},"vehicle_type_id":"4","last_reported":1779043959,"current_range_meters":4400,"station_id":"ce4bhgp2rcd13ifvqfe0","pricing_plan_id":"cebpf4jnsgd1na2vs0mg"},{"bike_id":"7018d291-db24-4937-bdb6-7a5e0d410594","system_id":"levelo_inurba_marseille","lat":43.23071,"lon":5.35494,"is_reserved":false,"is_disabled":false,"rental_uris":{"android":"levelo://app?vid=7018d291-db24-4937-bdb6-7a5e0d410594","ios":"levelo://app?vid=7018d291-db24-4937-bdb6-7a5e0d410594"},"vehicle_type_id":"4","last_reported":1779043959,"current_range_meters":4400,"station_id":"cpo3342slgdg3j2ifvpg","pricing_plan_id":"cebpf4jnsgd1na2vs0mg"},{"bike_id":"e0d7b709-0281-4c85-bb8f-aee6dee5fc4a","system_id":"levelo_inurba_marseille","lat":43.2454,"lon":5.39527,"is_reserved":false,"is_disabled":false,"rental_uris":{"android":"levelo://app?vid=e0d7b709-0281-4c85-bb8f-aee6dee5fc4a","ios":"levelo://app?vid=e0d7b709-0281-4c85-bb8f-aee6dee5fc4a"},"vehicle_type_id":"4","last_reported":1779043959,"current_range_meters":4400,"station_id":"ce4bhlp2rcd13ifvqgjg","pricing_plan_id":"cebpf4jnsgd1na2vs0mg"},{"bike_id":"b353fcfa-d81c-4da8-b742-47d09c5f969b","system_id":"levelo_inurba_marseille","lat":43.30429,"lon":5.39749,"is_reserved":false,"is_disabled":false,"rental_uris":{"android":"levelo://app?vid=b353fcfa-d81c-4da8-b742-47d09c5f969b","ios":"levelo://app?vid=b353fcfa-d81c-4da8-b742-47d09c5f969b"},"vehicle_type_id":"4","last_reported":1779043959,"current_range_meters":4400,"station_id":"ce4bh092rcd13ifvqd20","pricing_plan_id":"cebpf4jnsgd1na2vs0mg"},{"bike_id":"68f5e754-eab7-434a-b933-a53440a64142","system_id":"levelo_inurba_marseille","lat":43.29714,"lon":5.36609,"is_reserved":false,"is_disabled":false,"rental_uris":{"android":"levelo://app?vid=68f5e754-eab7-434a-b933-a53440a64142","ios":"levelo://app?vid=68f5e754-eab7-434a-b933-a53440a64142"},"vehicle_type_id":"4","last_reported":1779043959,"current_range_meters":4400,"station_id":"ce4bgn12rcd13ifvqbt0","pricing_plan_id":"cebpf4jnsgd1na2vs0mg"},{"bike_id":"2900ac0b-ff12-48ee-a257-0c70083c0f6a","system_id":"levelo_inurba_marseille","lat":43.24682,"lon":5.38131,"is_reserved":false,"is_disabled":false,"rental_uris":{"android":"levelo://app?vid=2900ac0b-ff12-48ee-a257-0c70083c0f6a","ios":"levelo://app?vid=2900ac0b-ff12-48ee-a257-0c70083c0f6a"},"vehicle_type_id":"4","last_reported":1779043959,"current_range_meters":4400,"station_id":"ce4bhih2rcd13ifvqfr0","pricing_plan_id":"cebpf4jnsgd1na2vs0mg"},{"bike_id":"6abb323d-d3aa-48c8-ab14-e7b12e6ea6b7","system_id":"levelo_inurba_marseille","lat":43.27915,"lon":5.39576,"is_reserved":false,"is_disabled":false,"rental_uris":{"android":"levelo://app?vid=6abb323d-d3aa-48c8-ab14-e7b12e6ea6b7","ios":"levelo://app?vid=6abb323d-d3aa-48c8-ab14-e7b12e6ea6b7"},"vehicle_type_id":"4","last_reported":1779043959,"current_range_meters":4400,"station_id":"ce4bhf92rcd13ifvqf40","pricing_plan_id":"cebpf4jnsgd1na2vs0mg"},{"bike_id":"d71406e8-ea8e-4a21-8d01-2aee74bbb001","system_id":"levelo_inurba_marseille","lat":43.249952,"lon":5.389289,"is_reserved":false,"is_disabled":false,"rental_uris":{"android":"levelo://app?vid=d71406e8-ea8e-4a21-8d01-2aee74bbb001","ios":"levelo://app?vid=d71406e8-ea8e-4a21-8d01-2aee74bbb001"},"vehicle_type_id":"4","last_reported":1779043959,"current_range_meters":4400,"station_id":"ce4bhgp2rcd13ifvqfd0","pricing_plan_id":"cebpf4jnsgd1na2vs0mg"},{"bike_id":"25711a43-df4e-467e-8e16-065542f02483","system_id":"levelo_inurba_marseille","lat":43.27937,"lon":5.38718,"is_reserved":false,"is_disabled":true,"rental_uris":{"android":"levelo://app?vid=25711a43-df4e-467e-8e16-065542f02483","ios":"levelo://app?vid=25711a43-df4e-467e-8e16-065542f02483"},"vehicle_type_id":"4","last_reported":1779043959,"current_range_meters":4400,"station_id":"ce4bhg12rcd13ifvqf80","pricing_plan_id":"cebpf4jnsgd1na2vs0mg"},{"bike_id":"b2822b3a-13eb-4acd-a4e1-5bea24154727","system_id":"levelo_inurba_marseille","lat":43.27199,"lon":5.39184,"is_reserved":false,"is_disabled":false,"rental_uris":{"android":"levelo://app?vid=b2822b3a-13eb-4acd-a4e1-5bea24154727","ios":"levelo://app?vid=b2822b3a-13eb-4acd-a4e1-5bea24154727"},"vehicle_type_id":"4","last_reported":1779043959,"current_range_meters":4400,"station_id":"ce4bhhp2rcd13ifvqfm0","pricing_plan_id":"cebpf4jnsgd1na2vs0mg"},{"bike_id":"35823a85-738f-4ac7-a0c9-6cc34c6e2c76","system_id":"levelo_inurba_marseille","lat":43.29732,"lon":5.37687,"is_reserved":false,"is_disabled":false,"rental_uris":{"android":"levelo://app?vid=35823a85-738f-4ac7-a0c9-6cc34c6e2c76","ios":"levelo://app?vid=35823a85-738f-4ac7-a0c9-6cc34c6e2c76"},"vehicle_type_id":"4","last_reported":1779043959,"current_range_meters":4400,"station_id":"ce4bgkh2rcd13ifvqbl0","pricing_plan_id":"cebpf4jnsgd1na2vs0mg"},{"bike_id":"7e948665-6f77-459f-988e-93c35b0431a7","system_id":"levelo_inurba_marseille","lat":43.2926,"lon":5.38437,"is_reserved":false,"is_disabled":false,"rental_uris":{"android":"levelo://app?vid=7e948665-6f77-459f-988e-93c35b0431a7","ios":"levelo://app?vid=7e948665-6f77-459f-988e-93c35b0431a7"},"vehicle_type_id":"4","last_reported":1779043959,"current_range_meters":4400,"station_id":"ce4bh692rcd13ifvqea0","pricing_plan_id":"cebpf4jnsgd1na2vs0mg"},{"bike_id":"240b6286-4f4b-43f3-9331-e5d036f2ef14","system_id":"levelo_inurba_marseille","lat":43.28379,"lon":5.4599,"is_reserved":false,"is_disabled":false,"rental_uris":{"android":"levelo://app?vid=240b6286-4f4b-43f3-9331-e5d036f2ef14","ios":"levelo://app?vid=240b6286-4f4b-43f3-9331-e5d036f2ef14"},"vehicle_type_id":"4","last_reported":1779043959,"current_range_meters":4400,"station_id":"ce4bhgh2rcd13ifvqfa0","pricing_plan_id":"cebpf4jnsgd1na2vs0mg"},{"bike_id":"aeddd205-0778-4f2c-be42-520448cbd2e0","system_id":"levelo_inurba_marseille","lat":43.30431,"lon":5.39747,"is_reserved":false,"is_disabled":false,"rental_uris":{"android":"levelo://app?vid=aeddd205-0778-4f2c-be42-520448cbd2e0","ios":"levelo://app?vid=aeddd205-0778-4f2c-be42-520448cbd2e0"},"vehicle_type_id":"4","last_reported":1779043959,"current_range_meters":4400,"station_id":"ce4bh092rcd13ifvqd20","pricing_plan_id":"cebpf4jnsgd1na2vs0mg"},{"bike_id":"27f0a0e1-03b5-43d3-bc02-b8a8a2fdf6b3","system_id":"levelo_inurba_marseille","lat":43.26246,"lon":5.404,"is_reserved":false,"is_disabled":false,"rental_uris":{"android":"levelo://app?vid=27f0a0e1-03b5-43d3-bc02-b8a8a2fdf6b3","ios":"levelo://app?vid=27f0a0e1-03b5-43d3-bc02-b8a8a2fdf6b3"},"vehicle_type_id":"4","last_reported":1779043959,"current_range_meters":4400,"station_id":"ce4bhmh2rcd13ifvqgmg","pricing_plan_id":"cebpf4jnsgd1na2vs0mg"},{"bike_id":"c64d6a09-97d2-4f45-9210-692a5f5bdd0d","system_id":"levelo_inurba_marseille","lat":43.30406,"lon":5.40109,"is_reserved":false,"is_disabled":false,"rental_uris":{"android":"levelo://app?vid=c64d6a09-97d2-4f45-9210-692a5f5bdd0d","ios":"levelo://app?vid=c64d6a09-97d2-4f45-9210-692a5f5bdd0d"},"vehicle_type_id":"4","last_reported":1779043959,"current_range_meters":4800,"station_id":"","pricing_plan_id":"cebpf4jnsgd1na2vs0mg"},{"bike_id":"125600d4-73c6-4f07-afcc-7302bda8aa7f","system_id":"levelo_inurba_marseille","lat":43.29976,"lon":5.38493,"is_reserved":false,"is_disabled":false,"rental_uris":{"android":"levelo://app?vid=125600d4-73c6-4f07-afcc-7302bda8aa7f","ios":"levelo://app?vid=125600d4-73c6-4f07-afcc-7302bda8aa7f"},"vehicle_type_id":"4","last_reported":1779043959,"current_range_meters":4800,"station_id":"ce4bgj92rcd13ifvqbd0","pricing_plan_id":"cebpf4jnsgd1na2vs0mg"},{"bike_id":"627f912b-2a5a-4555-96b9-7d245e531be0","system_id":"levelo_inurba_marseille","lat":43.30186,"lon":5.36608,"is_reserved":false,"is_disabled":false,"rental_uris":{"android":"levelo://app?vid=627f912b-2a5a-4555-96b9-7d245e531be0","ios":"levelo://app?vid=627f912b-2a5a-4555-96b9-7d245e531be0"},"vehicle_type_id":"4","last_reported":1779043959,"current_range_meters":4800,"station_id":"ce4bgrh2rcd13ifvqc8g","pricing_plan_id":"cebpf4jnsgd1na2vs0mg"},{"bike_id":"cacf9df6-1aef-4255-acbe-6f6b575c507e","system_id":"levelo_inurba_marseille","lat":43.30263,"lon":5.37723,"is_reserved":false,"is_disabled":false,"rental_uris":{"android":"levelo://app?vid=cacf9df6-1aef-4255-acbe-6f6b575c507e","ios":"levelo://app?vid=cacf9df6-1aef-4255-acbe-6f6b575c507e"},"vehicle_type_id":"4","last_reported":1779043959,"current_range_meters":4800,"station_id":"ce4bguh2rcd13ifvqcj0","pricing_plan_id":"cebpf4jnsgd1na2vs0mg"},{"bike_id":"10796095-66ee-41c6-9cae-4b2582c8ed25","system_id":"levelo_inurba_marseille","lat":43.24666,"lon":5.38161,"is_reserved":false,"is_disabled":false,"rental_uris":{"android":"levelo://app?vid=10796095-66ee-41c6-9cae-4b2582c8ed25","ios":"levelo://app?vid=10796095-66ee-41c6-9cae-4b2582c8ed25"},"vehicle_type_id":"4","last_reported":1779043959,"current_range_meters":4800,"station_id":"ce4bhih2rcd13ifvqfr0","pricing_plan_id":"cebpf4jnsgd1na2vs0mg"},{"bike_id":"23c2eff2-298d-48cd-89d1-c72bdbf02c02","system_id":"levelo_inurba_marseille","lat":43.290672,"lon":5.37572,"is_reserved":false,"is_disabled":false,"rental_uris":{"android":"levelo://app?vid=23c2eff2-298d-48cd-89d1-c72bdbf02c02","ios":"levelo://app?vid=23c2eff2-298d-48cd-89d1-c72bdbf02c02"},"vehicle_type_id":"4","last_reported":1779043959,"current_range_meters":4800,"station_id":"ce4bh692rcd13ifvqe90","pricing_plan_id":"cebpf4jnsgd1na2vs0mg"},{"bike_id":"eaa37104-4d31-4901-a628-d78d5af5a46e","system_id":"levelo_inurba_marseille","lat":43.29553,"lon":5.42295,"is_reserved":false,"is_disabled":false,"rental_uris":{"android":"levelo://app?vid=eaa37104-4d31-4901-a628-d78d5af5a46e","ios":"levelo://app?vid=eaa37104-4d31-4901-a628-d78d5af5a46e"},"vehicle_type_id":"4","last_reported":1779043959,"current_range_meters":4800,"station_id":"ce4bhph2rcd13ifvqhdg","pricing_plan_id":"cebpf4jnsgd1na2vs0mg"},{"bike_id":"1fd9de75-8fc6-4566-b4ca-12b503f39047","system_id":"levelo_inurba_marseille","lat":43.23888,"lon":5.37474,"is_reserved":false,"is_disabled":false,"rental_uris":{"android":"levelo://app?vid=1fd9de75-8fc6-4566-b4ca-12b503f39047","ios":"levelo://app?vid=1fd9de75-8fc6-4566-b4ca-12b503f39047"},"vehicle_type_id":"4","last_reported":1779043959,"current_range_meters":4800,"station_id":"st_d6sm7csbq4hs73f8fpjg","pricing_plan_id":"cebpf4jnsgd1na2vs0mg"},{"bike_id":"bf85cbf3-2868-4a5d-ae4b-a9c2549d1531","system_id":"levelo_inurba_marseille","lat":43.25096,"lon":5.39516,"is_reserved":false,"is_disabled":false,"rental_uris":{"android":"levelo://app?vid=bf85cbf3-2868-4a5d-ae4b-a9c2549d1531","ios":"levelo://app?vid=bf85cbf3-2868-4a5d-ae4b-a9c2549d1531"},"vehicle_type_id":"4","last_reported":1779043959,"current_range_meters":4800,"station_id":"ce4bhm12rcd13ifvqgkg","pricing_plan_id":"cebpf4jnsgd1na2vs0mg"},{"bike_id":"1e2e0aa3-c84f-406a-b224-eeec276bff84","system_id":"levelo_inurba_marseille","lat":43.27993,"lon":5.40025,"is_reserved":false,"is_disabled":false,"rental_uris":{"android":"levelo://app?vid=1e2e0aa3-c84f-406a-b224-eeec276bff84","ios":"levelo://app?vid=1e2e0aa3-c84f-406a-b224-eeec276bff84"},"vehicle_type_id":"4","last_reported":1779043959,"current_range_meters":4800,"station_id":"ce4bho92rcd13ifvqh4g","pricing_plan_id":"cebpf4jnsgd1na2vs0mg"},{"bike_id":"30422c4c-7b20-4267-93f0-fbdbc9e38d93","system_id":"levelo_inurba_marseille","lat":43.29595,"lon":5.39602,"is_reserved":false,"is_disabled":false,"rental_uris":{"android":"levelo://app?vid=30422c4c-7b20-4267-93f0-fbdbc9e38d93","ios":"levelo://app?vid=30422c4c-7b20-4267-93f0-fbdbc9e38d93"},"vehicle_type_id":"4","last_reported":1779043959,"current_range_meters":4800,"station_id":"","pricing_plan_id":"cebpf4jnsgd1na2vs0mg"},{"bike_id":"b3b85aa8-c8e2-427b-93ee-91bbb474a230","system_id":"levelo_inurba_marseille","lat":43.29529,"lon":5.39029,"is_reserved":false,"is_disabled":false,"rental_uris":{"android":"levelo://app?vid=b3b85aa8-c8e2-427b-93ee-91bbb474a230","ios":"levelo://app?vid=b3b85aa8-c8e2-427b-93ee-91bbb474a230"},"vehicle_type_id":"4","last_reported":1779043959,"current_range_meters":4800,"station_id":"ce4bh3p2rcd13ifvqdp0","pricing_plan_id":"cebpf4jnsgd1na2vs0mg"},{"bike_id":"6d5c12e7-ee14-431f-90a1-7d378eb9ef4e","system_id":"levelo_inurba_marseille","lat":43.24018,"lon":5.36243,"is_reserved":false,"is_disabled":false,"rental_uris":{"android":"levelo://app?vid=6d5c12e7-ee14-431f-90a1-7d378eb9ef4e","ios":"levelo://app?vid=6d5c12e7-ee14-431f-90a1-7d378eb9ef4e"},"vehicle_type_id":"4","last_reported":1779043959,"current_range_meters":4800,"station_id":"","pricing_plan_id":"cebpf4jnsgd1na2vs0mg"},{"bike_id":"fc7cd386-b72a-4b96-913b-bc9a9b502c65","system_id":"levelo_inurba_marseille","lat":43.24389,"lon":5.37068,"is_reserved":false,"is_disabled":false,"rental_uris":{"android":"levelo://app?vid=fc7cd386-b72a-4b96-913b-bc9a9b502c65","ios":"levelo://app?vid=fc7cd386-b72a-4b96-913b-bc9a9b502c65"},"vehicle_type_id":"4","last_reported":1779043959,"current_range_meters":4800,"station_id":"ce4bhhh2rcd13ifvqfk0","pricing_plan_id":"cebpf4jnsgd1na2vs0mg"},{"bike_id":"c44f5603-79c5-489c-940c-e9a03c34a576","system_id":"levelo_inurba_marseille","lat":43.26814,"lon":5.40822,"is_reserved":false,"is_disabled":false,"rental_uris":{"android":"levelo://app?vid=c44f5603-79c5-489c-940c-e9a03c34a576","ios":"levelo://app?vid=c44f5603-79c5-489c-940c-e9a03c34a576"},"vehicle_type_id":"4","last_reported":1779043959,"current_range_meters":4800,"station_id":"","pricing_plan_id":"cebpf4jnsgd1na2vs0mg"},{"bike_id":"3c9b28f3-66fb-49cd-b6b0-8712ef89535c","system_id":"levelo_inurba_marseille","lat":43.29968,"lon":5.38496,"is_reserved":false,"is_disabled":false,"rental_uris":{"android":"levelo://app?vid=3c9b28f3-66fb-49cd-b6b0-8712ef89535c","ios":"levelo://app?vid=3c9b28f3-66fb-49cd-b6b0-8712ef89535c"},"vehicle_type_id":"4","last_reported":1779043959,"current_range_meters":4800,"station_id":"ce4bgj92rcd13ifvqbd0","pricing_plan_id":"cebpf4jnsgd1na2vs0mg"},{"bike_id":"fc7d4a15-90c4-4a20-bffd-0e4d99545bed","system_id":"levelo_inurba_marseille","lat":43.27313,"lon":5.3906,"is_reserved":false,"is_disabled":false,"rental_uris":{"android":"levelo://app?vid=fc7d4a15-90c4-4a20-bffd-0e4d99545bed","ios":"levelo://app?vid=fc7d4a15-90c4-4a20-bffd-0e4d99545bed"},"vehicle_type_id":"4","last_reported":1779043959,"current_range_meters":4800,"station_id":"ce4bhgp2rcd13ifvqfe0","pricing_plan_id":"cebpf4jnsgd1na2vs0mg"},{"bike_id":"dea9e9e1-74e5-4a5e-8b6f-a9149ad99517","system_id":"levelo_inurba_marseille","lat":43.26766,"lon":5.39413,"is_reserved":false,"is_disabled":false,"rental_uris":{"android":"levelo://app?vid=dea9e9e1-74e5-4a5e-8b6f-a9149ad99517","ios":"levelo://app?vid=dea9e9e1-74e5-4a5e-8b6f-a9149ad99517"},"vehicle_type_id":"4","last_reported":1779043959,"current_range_meters":4800,"station_id":"ce4bhh12rcd13ifvqfg0","pricing_plan_id":"cebpf4jnsgd1na2vs0mg"},{"bike_id":"2c09c623-d0fc-4914-bf0a-ccfeb41929f9","system_id":"levelo_inurba_marseille","lat":43.250934,"lon":5.395186,"is_reserved":false,"is_disabled":false,"rental_uris":{"android":"levelo://app?vid=2c09c623-d0fc-4914-bf0a-ccfeb41929f9","ios":"levelo://app?vid=2c09c623-d0fc-4914-bf0a-ccfeb41929f9"},"vehicle_type_id":"4","last_reported":1779043959,"current_range_meters":4800,"station_id":"ce4bhm12rcd13ifvqgkg","pricing_plan_id":"cebpf4jnsgd1na2vs0mg"},{"bike_id":"174908e5-1a8a-4e75-9ffe-42c831b3d107","system_id":"levelo_inurba_marseille","lat":43.28714,"lon":5.46679,"is_reserved":false,"is_disabled":false,"rental_uris":{"android":"levelo://app?vid=174908e5-1a8a-4e75-9ffe-42c831b3d107","ios":"levelo://app?vid=174908e5-1a8a-4e75-9ffe-42c831b3d107"},"vehicle_type_id":"4","last_reported":1779043959,"current_range_meters":4800,"station_id":"st_d6tc3vkotcvc738tfjhg","pricing_plan_id":"cebpf4jnsgd1na2vs0mg"},{"bike_id":"6759a002-ee3e-49d0-b782-db71494e95a1","system_id":"levelo_inurba_marseille","lat":43.32537,"lon":5.41419,"is_reserved":false,"is_disabled":false,"rental_uris":{"android":"levelo://app?vid=6759a002-ee3e-49d0-b782-db71494e95a1","ios":"levelo://app?vid=6759a002-ee3e-49d0-b782-db71494e95a1"},"vehicle_type_id":"4","last_reported":1779043959,"current_range_meters":5600,"station_id":"ce4bhq12rcd13ifvqhhg","pricing_plan_id":"cebpf4jnsgd1na2vs0mg"},{"bike_id":"18aed254-99f8-4887-b6bb-9f0b7f12e791","system_id":"levelo_inurba_marseille","lat":43.233711,"lon":5.399384,"is_reserved":false,"is_disabled":false,"rental_uris":{"android":"levelo://app?vid=18aed254-99f8-4887-b6bb-9f0b7f12e791","ios":"levelo://app?vid=18aed254-99f8-4887-b6bb-9f0b7f12e791"},"vehicle_type_id":"4","last_reported":1779043959,"current_range_meters":5600,"station_id":"ce4bhn12rcd13ifvqgqg","pricing_plan_id":"cebpf4jnsgd1na2vs0mg"},{"bike_id":"c202053c-bf56-4fcc-b773-f16cf0f2200d","system_id":"levelo_inurba_marseille","lat":43.276789,"lon":5.388732,"is_reserved":false,"is_disabled":false,"rental_uris":{"android":"levelo://app?vid=c202053c-bf56-4fcc-b773-f16cf0f2200d","ios":"levelo://app?vid=c202053c-bf56-4fcc-b773-f16cf0f2200d"},"vehicle_type_id":"4","last_reported":1779043959,"current_range_meters":5600,"station_id":"ce4bhi12rcd13ifvqfo0","pricing_plan_id":"cebpf4jnsgd1na2vs0mg"},{"bike_id":"55be906b-c469-4b4e-98e2-0ce0a6163e85","system_id":"levelo_inurba_marseille","lat":43.24812,"lon":5.37456,"is_reserved":false,"is_disabled":false,"rental_uris":{"android":"levelo://app?vid=55be906b-c469-4b4e-98e2-0ce0a6163e85","ios":"levelo://app?vid=55be906b-c469-4b4e-98e2-0ce0a6163e85"},"vehicle_type_id":"4","last_reported":1779043959,"current_range_meters":5600,"station_id":"ce4bhgh2rcd13ifvqfb0","pricing_plan_id":"cebpf4jnsgd1na2vs0mg"},{"bike_id":"ab869954-75c9-4ce0-91af-b0e811bbc3c2","system_id":"levelo_inurba_marseille","lat":43.26932,"lon":5.40256,"is_reserved":false,"is_disabled":false,"rental_uris":{"android":"levelo://app?vid=ab869954-75c9-4ce0-91af-b0e811bbc3c2","ios":"levelo://app?vid=ab869954-75c9-4ce0-91af-b0e811bbc3c2"},"vehicle_type_id":"4","last_reported":1779043959,"current_range_meters":5600,"station_id":"cjm6bp8fraef2m0cb0m0","pricing_plan_id":"cebpf4jnsgd1na2vs0mg"},{"bike_id":"59f64eb1-92c1-4a8e-91f4-78ba5ad935c2","system_id":"levelo_inurba_marseille","lat":43.24816,"lon":5.37455,"is_reserved":false,"is_disabled":false,"rental_uris":{"android":"levelo://app?vid=59f64eb1-92c1-4a8e-91f4-78ba5ad935c2","ios":"levelo://app?vid=59f64eb1-92c1-4a8e-91f4-78ba5ad935c2"},"vehicle_type_id":"4","last_reported":1779043959,"current_range_meters":5600,"station_id":"ce4bhgh2rcd13ifvqfb0","pricing_plan_id":"cebpf4jnsgd1na2vs0mg"},{"bike_id":"cfa94f2a-ebb6-4d4a-8d6d-aa62bf78873a","system_id":"levelo_inurba_marseille","lat":43.3107,"lon":5.37169,"is_reserved":false,"is_disabled":false,"rental_uris":{"android":"levelo://app?vid=cfa94f2a-ebb6-4d4a-8d6d-aa62bf78873a","ios":"levelo://app?vid=cfa94f2a-ebb6-4d4a-8d6d-aa62bf78873a"},"vehicle_type_id":"4","last_reported":1779043959,"current_range_meters":5600,"station_id":"st_d4kl2rp97mjs73e7tdfg","pricing_plan_id":"cebpf4jnsgd1na2vs0mg"},{"bike_id":"b5d9497a-4684-46b2-ad68-72f8937b64e0","system_id":"levelo_inurba_marseille","lat":43.23957,"lon":5.36627,"is_reserved":false,"is_disabled":false,"rental_uris":{"android":"levelo://app?vid=b5d9497a-4684-46b2-ad68-72f8937b64e0","ios":"levelo://app?vid=b5d9497a-4684-46b2-ad68-72f8937b64e0"},"vehicle_type_id":"4","last_reported":1779043959,"current_range_meters":5600,"station_id":"ce4bhi12rcd13ifvqfp0","pricing_plan_id":"cebpf4jnsgd1na2vs0mg"},{"bike_id":"70307b5b-24a6-43c6-ab81-112ae3176821","system_id":"levelo_inurba_marseille","lat":43.24803,"lon":5.37451,"is_reserved":false,"is_disabled":false,"rental_uris":{"android":"levelo://app?vid=70307b5b-24a6-43c6-ab81-112ae3176821","ios":"levelo://app?vid=70307b5b-24a6-43c6-ab81-112ae3176821"},"vehicle_type_id":"4","last_reported":1779043959,"current_range_meters":5600,"station_id":"ce4bhgh2rcd13ifvqfb0","pricing_plan_id":"cebpf4jnsgd1na2vs0mg"},{"bike_id":"86219975-89ab-42fd-b177-eeeb42df1054","system_id":"levelo_inurba_marseille","lat":43.2954,"lon":5.38544,"is_reserved":false,"is_disabled":false,"rental_uris":{"android":"levelo://app?vid=86219975-89ab-42fd-b177-eeeb42df1054","ios":"levelo://app?vid=86219975-89ab-42fd-b177-eeeb42df1054"},"vehicle_type_id":"4","last_reported":1779043959,"current_range_meters":5600,"station_id":"ce4bgih2rcd13ifvqba0","pricing_plan_id":"cebpf4jnsgd1na2vs0mg"},{"bike_id":"53bcec8f-d1b8-402e-b8f3-a6e4cd531c14","system_id":"levelo_inurba_marseille","lat":43.21191,"lon":5.35072,"is_reserved":false,"is_disabled":false,"rental_uris":{"android":"levelo://app?vid=53bcec8f-d1b8-402e-b8f3-a6e4cd531c14","ios":"levelo://app?vid=53bcec8f-d1b8-402e-b8f3-a6e4cd531c14"},"vehicle_type_id":"4","last_reported":1779043959,"current_range_meters":5600,"station_id":"st_cvj6sg6p6f1abm77japg","pricing_plan_id":"cebpf4jnsgd1na2vs0mg"},{"bike_id":"021c6951-1612-4bb2-9aeb-35977132643c","system_id":"levelo_inurba_marseille","lat":43.2903,"lon":5.38131,"is_reserved":false,"is_disabled":false,"rental_uris":{"android":"levelo://app?vid=021c6951-1612-4bb2-9aeb-35977132643c","ios":"levelo://app?vid=021c6951-1612-4bb2-9aeb-35977132643c"},"vehicle_type_id":"4","last_reported":1779043959,"current_range_meters":5600,"station_id":"ce4bh4p2rcd13ifvqe1g","pricing_plan_id":"cebpf4jnsgd1na2vs0mg"},{"bike_id":"6fcf8acc-275b-4901-b471-534112fe731a","system_id":"levelo_inurba_marseille","lat":43.30356,"lon":5.42459,"is_reserved":false,"is_disabled":false,"rental_uris":{"android":"levelo://app?vid=6fcf8acc-275b-4901-b471-534112fe731a","ios":"levelo://app?vid=6fcf8acc-275b-4901-b471-534112fe731a"},"vehicle_type_id":"4","last_reported":1779043959,"current_range_meters":5600,"station_id":"ce4bhoh2rcd13ifvqh6g","pricing_plan_id":"cebpf4jnsgd1na2vs0mg"},{"bike_id":"5e347cc2-0529-405e-855d-858c7d3a2269","system_id":"levelo_inurba_marseille","lat":43.2927,"lon":5.38441,"is_reserved":false,"is_disabled":false,"rental_uris":{"android":"levelo://app?vid=5e347cc2-0529-405e-855d-858c7d3a2269","ios":"levelo://app?vid=5e347cc2-0529-405e-855d-858c7d3a2269"},"vehicle_type_id":"4","last_reported":1779043959,"current_range_meters":5600,"station_id":"ce4bh692rcd13ifvqea0","pricing_plan_id":"cebpf4jnsgd1na2vs0mg"},{"bike_id":"fa6ed3d8-45ff-4cfe-aef4-765624ebe00b","system_id":"levelo_inurba_marseille","lat":43.23783,"lon":5.36633,"is_reserved":false,"is_disabled":false,"rental_uris":{"android":"levelo://app?vid=fa6ed3d8-45ff-4cfe-aef4-765624ebe00b","ios":"levelo://app?vid=fa6ed3d8-45ff-4cfe-aef4-765624ebe00b"},"vehicle_type_id":"4","last_reported":1779043959,"current_range_meters":5600,"station_id":"st_d3nk18o9ro0c73en2l3g","pricing_plan_id":"cebpf4jnsgd1na2vs0mg"},{"bike_id":"97032fd7-f9c7-429f-9d12-faa8e18aacb2","system_id":"levelo_inurba_marseille","lat":43.293901,"lon":5.373335,"is_reserved":false,"is_disabled":false,"rental_uris":{"android":"levelo://app?vid=97032fd7-f9c7-429f-9d12-faa8e18aacb2","ios":"levelo://app?vid=97032fd7-f9c7-429f-9d12-faa8e18aacb2"},"vehicle_type_id":"4","last_reported":1779043959,"current_range_meters":5600,"station_id":"ce4bgip2rcd13ifvqbb0","pricing_plan_id":"cebpf4jnsgd1na2vs0mg"},{"bike_id":"7b95b59e-4def-4ab0-8e20-df5fb5d9df5d","system_id":"levelo_inurba_marseille","lat":43.31123,"lon":5.37772,"is_reserved":false,"is_disabled":false,"rental_uris":{"android":"levelo://app?vid=7b95b59e-4def-4ab0-8e20-df5fb5d9df5d","ios":"levelo://app?vid=7b95b59e-4def-4ab0-8e20-df5fb5d9df5d"},"vehicle_type_id":"4","last_reported":1779043959,"current_range_meters":5600,"station_id":"ce4bgt92rcd13ifvqcg0","pricing_plan_id":"cebpf4jnsgd1na2vs0mg"},{"bike_id":"0f87de74-29dc-4e68-9068-7c8361453535","system_id":"levelo_inurba_marseille","lat":43.286157,"lon":5.351113,"is_reserved":false,"is_disabled":false,"rental_uris":{"android":"levelo://app?vid=0f87de74-29dc-4e68-9068-7c8361453535","ios":"levelo://app?vid=0f87de74-29dc-4e68-9068-7c8361453535"},"vehicle_type_id":"4","last_reported":1779043959,"current_range_meters":6000,"station_id":"ce4bhch2rcd13ifvqeug","pricing_plan_id":"cebpf4jnsgd1na2vs0mg"},{"bike_id":"e7863ee4-5f60-423b-8817-3fb9a1063a2f","system_id":"levelo_inurba_marseille","lat":43.30799,"lon":5.37068,"is_reserved":false,"is_disabled":false,"rental_uris":{"android":"levelo://app?vid=e7863ee4-5f60-423b-8817-3fb9a1063a2f","ios":"levelo://app?vid=e7863ee4-5f60-423b-8817-3fb9a1063a2f"},"vehicle_type_id":"4","last_reported":1779043959,"current_range_meters":6000,"station_id":"","pricing_plan_id":"cebpf4jnsgd1na2vs0mg"},{"bike_id":"85605534-12cb-4b8b-ae81-c18bab62a5d8","system_id":"levelo_inurba_marseille","lat":43.25197,"lon":5.37438,"is_reserved":false,"is_disabled":false,"rental_uris":{"android":"levelo://app?vid=85605534-12cb-4b8b-ae81-c18bab62a5d8","ios":"levelo://app?vid=85605534-12cb-4b8b-ae81-c18bab62a5d8"},"vehicle_type_id":"4","last_reported":1779043959,"current_range_meters":6000,"station_id":"","pricing_plan_id":"cebpf4jnsgd1na2vs0mg"},{"bike_id":"ee7db77b-bae7-4f52-9d06-594aad9c2051","system_id":"levelo_inurba_marseille","lat":43.27308,"lon":5.39077,"is_reserved":false,"is_disabled":false,"rental_uris":{"android":"levelo://app?vid=ee7db77b-bae7-4f52-9d06-594aad9c2051","ios":"levelo://app?vid=ee7db77b-bae7-4f52-9d06-594aad9c2051"},"vehicle_type_id":"4","last_reported":1779043959,"current_range_meters":6000,"station_id":"ce4bhgp2rcd13ifvqfe0","pricing_plan_id":"cebpf4jnsgd1na2vs0mg"},{"bike_id":"5bd92aa3-317d-4b99-a12d-a3a6a414398c","system_id":"levelo_inurba_marseille","lat":43.24066,"lon":5.36401,"is_reserved":false,"is_disabled":false,"rental_uris":{"android":"levelo://app?vid=5bd92aa3-317d-4b99-a12d-a3a6a414398c","ios":"levelo://app?vid=5bd92aa3-317d-4b99-a12d-a3a6a414398c"},"vehicle_type_id":"4","last_reported":1779043959,"current_range_meters":6000,"station_id":"","pricing_plan_id":"cebpf4jnsgd1na2vs0mg"},{"bike_id":"a30c4f60-9288-4152-9a37-65b4641b7552","system_id":"levelo_inurba_marseille","lat":43.29855,"lon":5.3626,"is_reserved":false,"is_disabled":false,"rental_uris":{"android":"levelo://app?vid=a30c4f60-9288-4152-9a37-65b4641b7552","ios":"levelo://app?vid=a30c4f60-9288-4152-9a37-65b4641b7552"},"vehicle_type_id":"4","last_reported":1779043959,"current_range_meters":6000,"station_id":"ce4bgpp2rcd13ifvqc3g","pricing_plan_id":"cebpf4jnsgd1na2vs0mg"},{"bike_id":"d8472712-34e6-4294-a1fa-094c561be0cf","system_id":"levelo_inurba_marseille","lat":43.24946,"lon":5.38912,"is_reserved":false,"is_disabled":false,"rental_uris":{"android":"levelo://app?vid=d8472712-34e6-4294-a1fa-094c561be0cf","ios":"levelo://app?vid=d8472712-34e6-4294-a1fa-094c561be0cf"},"vehicle_type_id":"4","last_reported":1779043959,"current_range_meters":6000,"station_id":"","pricing_plan_id":"cebpf4jnsgd1na2vs0mg"},{"bike_id":"dc25ded8-82bb-4a0b-9703-fc9339f28eae","system_id":"levelo_inurba_marseille","lat":43.27671,"lon":5.38897,"is_reserved":false,"is_disabled":false,"rental_uris":{"android":"levelo://app?vid=dc25ded8-82bb-4a0b-9703-fc9339f28eae","ios":"levelo://app?vid=dc25ded8-82bb-4a0b-9703-fc9339f28eae"},"vehicle_type_id":"4","last_reported":1779043959,"current_range_meters":6000,"station_id":"ce4bhi12rcd13ifvqfo0","pricing_plan_id":"cebpf4jnsgd1na2vs0mg"},{"bike_id":"0d5c2e2c-9e8d-44a4-bda9-d1c6f403857d","system_id":"levelo_inurba_marseille","lat":43.27412,"lon":5.39397,"is_reserved":false,"is_disabled":true,"rental_uris":{"android":"levelo://app?vid=0d5c2e2c-9e8d-44a4-bda9-d1c6f403857d","ios":"levelo://app?vid=0d5c2e2c-9e8d-44a4-bda9-d1c6f403857d"},"vehicle_type_id":"4","last_reported":1779043959,"current_range_meters":6000,"station_id":"ce4bhdp2rcd13ifvqf20","pricing_plan_id":"cebpf4jnsgd1na2vs0mg"},{"bike_id":"2b4d1c8c-c557-4ca2-a9b0-7b251595ac09","system_id":"levelo_inurba_marseille","lat":43.27214,"lon":5.39187,"is_reserved":false,"is_disabled":false,"rental_uris":{"android":"levelo://app?vid=2b4d1c8c-c557-4ca2-a9b0-7b251595ac09","ios":"levelo://app?vid=2b4d1c8c-c557-4ca2-a9b0-7b251595ac09"},"vehicle_type_id":"4","last_reported":1779043959,"current_range_meters":6000,"station_id":"ce4bhhp2rcd13ifvqfm0","pricing_plan_id":"cebpf4jnsgd1na2vs0mg"},{"bike_id":"8303a7b4-418f-48c7-b219-9635d8d57054","system_id":"levelo_inurba_marseille","lat":43.29077,"lon":5.37546,"is_reserved":false,"is_disabled":false,"rental_uris":{"android":"levelo://app?vid=8303a7b4-418f-48c7-b219-9635d8d57054","ios":"levelo://app?vid=8303a7b4-418f-48c7-b219-9635d8d57054"},"vehicle_type_id":"4","last_reported":1779043959,"current_range_meters":6000,"station_id":"","pricing_plan_id":"cebpf4jnsgd1na2vs0mg"},{"bike_id":"1dae63ef-4de2-49ef-8c70-0c66bd3e64af","system_id":"levelo_inurba_marseille","lat":43.24781,"lon":5.37497,"is_reserved":false,"is_disabled":false,"rental_uris":{"android":"levelo://app?vid=1dae63ef-4de2-49ef-8c70-0c66bd3e64af","ios":"levelo://app?vid=1dae63ef-4de2-49ef-8c70-0c66bd3e64af"},"vehicle_type_id":"4","last_reported":1779043959,"current_range_meters":6000,"station_id":"ce4bhgh2rcd13ifvqfb0","pricing_plan_id":"cebpf4jnsgd1na2vs0mg"},{"bike_id":"c0b0e80d-e8d3-4473-aa67-23d6c50b6abb","system_id":"levelo_inurba_marseille","lat":43.2791,"lon":5.38024,"is_reserved":false,"is_disabled":false,"rental_uris":{"android":"levelo://app?vid=c0b0e80d-e8d3-4473-aa67-23d6c50b6abb","ios":"levelo://app?vid=c0b0e80d-e8d3-4473-aa67-23d6c50b6abb"},"vehicle_type_id":"4","last_reported":1779043959,"current_range_meters":6000,"station_id":"ce4bhf92rcd13ifvqf50","pricing_plan_id":"cebpf4jnsgd1na2vs0mg"},{"bike_id":"6cc1ef96-a5ad-49c0-b811-23047d9343ce","system_id":"levelo_inurba_marseille","lat":43.3009,"lon":5.39073,"is_reserved":false,"is_disabled":false,"rental_uris":{"android":"levelo://app?vid=6cc1ef96-a5ad-49c0-b811-23047d9343ce","ios":"levelo://app?vid=6cc1ef96-a5ad-49c0-b811-23047d9343ce"},"vehicle_type_id":"4","last_reported":1779043959,"current_range_meters":6000,"station_id":"ce4bh192rcd13ifvqdb0","pricing_plan_id":"cebpf4jnsgd1na2vs0mg"},{"bike_id":"0352eefe-467c-419c-b455-7caf64ee275f","system_id":"levelo_inurba_marseille","lat":43.31894,"lon":5.36799,"is_reserved":false,"is_disabled":false,"rental_uris":{"android":"levelo://app?vid=0352eefe-467c-419c-b455-7caf64ee275f","ios":"levelo://app?vid=0352eefe-467c-419c-b455-7caf64ee275f"},"vehicle_type_id":"4","last_reported":1779043959,"current_range_meters":6400,"station_id":"st_d6o2h0d0559c73evc1b0","pricing_plan_id":"cebpf4jnsgd1na2vs0mg"},{"bike_id":"4c973194-0cb8-4bb0-88bb-df8e8d1b722b","system_id":"levelo_inurba_marseille","lat":43.29617,"lon":5.37797,"is_reserved":false,"is_disabled":false,"rental_uris":{"android":"levelo://app?vid=4c973194-0cb8-4bb0-88bb-df8e8d1b722b","ios":"levelo://app?vid=4c973194-0cb8-4bb0-88bb-df8e8d1b722b"},"vehicle_type_id":"4","last_reported":1779043959,"current_range_meters":6400,"station_id":"","pricing_plan_id":"cebpf4jnsgd1na2vs0mg"},{"bike_id":"4dbaece0-a3ad-475d-8b05-ae022f5e7bb3","system_id":"levelo_inurba_marseille","lat":43.22573,"lon":5.41617,"is_reserved":false,"is_disabled":false,"rental_uris":{"android":"levelo://app?vid=4dbaece0-a3ad-475d-8b05-ae022f5e7bb3","ios":"levelo://app?vid=4dbaece0-a3ad-475d-8b05-ae022f5e7bb3"},"vehicle_type_id":"4","last_reported":1779043959,"current_range_meters":6400,"station_id":"st_d2o4gvlbi1j2169b742g","pricing_plan_id":"cebpf4jnsgd1na2vs0mg"},{"bike_id":"68b40e57-e116-4f10-afe9-4a48761ea86e","system_id":"levelo_inurba_marseille","lat":43.292801,"lon":5.401149,"is_reserved":false,"is_disabled":true,"rental_uris":{"android":"levelo://app?vid=68b40e57-e116-4f10-afe9-4a48761ea86e","ios":"levelo://app?vid=68b40e57-e116-4f10-afe9-4a48761ea86e"},"vehicle_type_id":"4","last_reported":1779043959,"current_range_meters":6400,"station_id":"ce4bh312rcd13ifvqdk0","pricing_plan_id":"cebpf4jnsgd1na2vs0mg"},{"bike_id":"343a624a-22d8-46cc-8eb7-0d3563a064bd","system_id":"levelo_inurba_marseille","lat":43.27617,"lon":5.361,"is_reserved":false,"is_disabled":false,"rental_uris":{"android":"levelo://app?vid=343a624a-22d8-46cc-8eb7-0d3563a064bd","ios":"levelo://app?vid=343a624a-22d8-46cc-8eb7-0d3563a064bd"},"vehicle_type_id":"4","last_reported":1779043959,"current_range_meters":6400,"station_id":"ce4bhbh2rcd13ifvqeqg","pricing_plan_id":"cebpf4jnsgd1na2vs0mg"},{"bike_id":"d0e54cc1-c946-4f1d-b462-74c31199a59b","system_id":"levelo_inurba_marseille","lat":43.288558,"lon":5.425144,"is_reserved":false,"is_disabled":false,"rental_uris":{"android":"levelo://app?vid=d0e54cc1-c946-4f1d-b462-74c31199a59b","ios":"levelo://app?vid=d0e54cc1-c946-4f1d-b462-74c31199a59b"},"vehicle_type_id":"4","last_reported":1779043959,"current_range_meters":6400,"station_id":"st_d3b462108ojc7389ooeg","pricing_plan_id":"cebpf4jnsgd1na2vs0mg"},{"bike_id":"b4af981f-f721-4e28-b70c-2d8275b8d785","system_id":"levelo_inurba_marseille","lat":43.23957,"lon":5.36628,"is_reserved":false,"is_disabled":false,"rental_uris":{"android":"levelo://app?vid=b4af981f-f721-4e28-b70c-2d8275b8d785","ios":"levelo://app?vid=b4af981f-f721-4e28-b70c-2d8275b8d785"},"vehicle_type_id":"4","last_reported":1779043959,"current_range_meters":6400,"station_id":"ce4bhi12rcd13ifvqfp0","pricing_plan_id":"cebpf4jnsgd1na2vs0mg"},{"bike_id":"871000e2-0cb5-451a-9bc2-ec86a0102adf","system_id":"levelo_inurba_marseille","lat":43.31689,"lon":5.43715,"is_reserved":false,"is_disabled":false,"rental_uris":{"android":"levelo://app?vid=871000e2-0cb5-451a-9bc2-ec86a0102adf","ios":"levelo://app?vid=871000e2-0cb5-451a-9bc2-ec86a0102adf"},"vehicle_type_id":"4","last_reported":1779043959,"current_range_meters":6400,"station_id":"ce4bhp92rcd13ifvqhcg","pricing_plan_id":"cebpf4jnsgd1na2vs0mg"},{"bike_id":"28dd2322-00fd-4c18-a402-f017c0ef0300","system_id":"levelo_inurba_marseille","lat":43.29729,"lon":5.36579,"is_reserved":false,"is_disabled":false,"rental_uris":{"android":"levelo://app?vid=28dd2322-00fd-4c18-a402-f017c0ef0300","ios":"levelo://app?vid=28dd2322-00fd-4c18-a402-f017c0ef0300"},"vehicle_type_id":"4","last_reported":1779043959,"current_range_meters":6400,"station_id":"ce4bgn12rcd13ifvqbt0","pricing_plan_id":"cebpf4jnsgd1na2vs0mg"},{"bike_id":"a72bc221-07df-445b-80d6-005098b48059","system_id":"levelo_inurba_marseille","lat":43.22927,"lon":5.35369,"is_reserved":false,"is_disabled":false,"rental_uris":{"android":"levelo://app?vid=a72bc221-07df-445b-80d6-005098b48059","ios":"levelo://app?vid=a72bc221-07df-445b-80d6-005098b48059"},"vehicle_type_id":"4","last_reported":1779043959,"current_range_meters":6400,"station_id":"cpo3532slgdg3j2ikp40","pricing_plan_id":"cebpf4jnsgd1na2vs0mg"},{"bike_id":"9d8380a6-cdb4-45a5-b033-1ae9d4aa660b","system_id":"levelo_inurba_marseille","lat":43.26798,"lon":5.40276,"is_reserved":false,"is_disabled":false,"rental_uris":{"android":"levelo://app?vid=9d8380a6-cdb4-45a5-b033-1ae9d4aa660b","ios":"levelo://app?vid=9d8380a6-cdb4-45a5-b033-1ae9d4aa660b"},"vehicle_type_id":"4","last_reported":1779043959,"current_range_meters":6400,"station_id":"ce501612rcd8frsf0b60","pricing_plan_id":"cebpf4jnsgd1na2vs0mg"},{"bike_id":"4bd6cc61-2e1c-4984-a986-4585da8a6771","system_id":"levelo_inurba_marseille","lat":43.2416,"lon":5.36392,"is_reserved":false,"is_disabled":false,"rental_uris":{"android":"levelo://app?vid=4bd6cc61-2e1c-4984-a986-4585da8a6771","ios":"levelo://app?vid=4bd6cc61-2e1c-4984-a986-4585da8a6771"},"vehicle_type_id":"4","last_reported":1779043959,"current_range_meters":6400,"station_id":"cpo36qri1sfpv3e86is0","pricing_plan_id":"cebpf4jnsgd1na2vs0mg"},{"bike_id":"0d64b4f5-ab3f-4467-8669-4033fc6be0b9","system_id":"levelo_inurba_marseille","lat":43.29534,"lon":5.38555,"is_reserved":false,"is_disabled":false,"rental_uris":{"android":"levelo://app?vid=0d64b4f5-ab3f-4467-8669-4033fc6be0b9","ios":"levelo://app?vid=0d64b4f5-ab3f-4467-8669-4033fc6be0b9"},"vehicle_type_id":"4","last_reported":1779043959,"current_range_meters":6400,"station_id":"ce4bgih2rcd13ifvqba0","pricing_plan_id":"cebpf4jnsgd1na2vs0mg"},{"bike_id":"95711da2-7823-43c8-a941-1a8f2f502f95","system_id":"levelo_inurba_marseille","lat":43.29265,"lon":5.38435,"is_reserved":false,"is_disabled":false,"rental_uris":{"android":"levelo://app?vid=95711da2-7823-43c8-a941-1a8f2f502f95","ios":"levelo://app?vid=95711da2-7823-43c8-a941-1a8f2f502f95"},"vehicle_type_id":"4","last_reported":1779043959,"current_range_meters":6400,"station_id":"ce4bh692rcd13ifvqea0","pricing_plan_id":"cebpf4jnsgd1na2vs0mg"},{"bike_id":"446ca842-5345-4f9f-b882-878bf06cf634","system_id":"levelo_inurba_marseille","lat":43.30937,"lon":5.40142,"is_reserved":false,"is_disabled":false,"rental_uris":{"android":"levelo://app?vid=446ca842-5345-4f9f-b882-878bf06cf634","ios":"levelo://app?vid=446ca842-5345-4f9f-b882-878bf06cf634"},"vehicle_type_id":"4","last_reported":1779043959,"current_range_meters":6400,"station_id":"ce4bgvp2rcd13ifvqct0","pricing_plan_id":"cebpf4jnsgd1na2vs0mg"},{"bike_id":"8a1b2e51-e2db-41c9-b093-247a1a3cb14e","system_id":"levelo_inurba_marseille","lat":43.29306,"lon":5.40308,"is_reserved":false,"is_disabled":false,"rental_uris":{"android":"levelo://app?vid=8a1b2e51-e2db-41c9-b093-247a1a3cb14e","ios":"levelo://app?vid=8a1b2e51-e2db-41c9-b093-247a1a3cb14e"},"vehicle_type_id":"4","last_reported":1779043959,"current_range_meters":6400,"station_id":"","pricing_plan_id":"cebpf4jnsgd1na2vs0mg"},{"bike_id":"7cd2cee7-a581-4754-8703-0f2952577518","system_id":"levelo_inurba_marseille","lat":43.24467,"lon":5.42532,"is_reserved":false,"is_disabled":false,"rental_uris":{"android":"levelo://app?vid=7cd2cee7-a581-4754-8703-0f2952577518","ios":"levelo://app?vid=7cd2cee7-a581-4754-8703-0f2952577518"},"vehicle_type_id":"4","last_reported":1779043959,"current_range_meters":6400,"station_id":"st_d4a3vfp97mjs738cd8kg","pricing_plan_id":"cebpf4jnsgd1na2vs0mg"},{"bike_id":"74faee65-0f7a-4c49-86b9-8bda319e866b","system_id":"levelo_inurba_marseille","lat":43.29981,"lon":5.37178,"is_reserved":false,"is_disabled":false,"rental_uris":{"android":"levelo://app?vid=74faee65-0f7a-4c49-86b9-8bda319e866b","ios":"levelo://app?vid=74faee65-0f7a-4c49-86b9-8bda319e866b"},"vehicle_type_id":"4","last_reported":1779043959,"current_range_meters":6400,"station_id":"ce4bgr92rcd13ifvqc7g","pricing_plan_id":"cebpf4jnsgd1na2vs0mg"},{"bike_id":"8cb249cd-91bc-4856-a7ed-d77ae870b3bc","system_id":"levelo_inurba_marseille","lat":43.317325,"lon":5.424017,"is_reserved":false,"is_disabled":false,"rental_uris":{"android":"levelo://app?vid=8cb249cd-91bc-4856-a7ed-d77ae870b3bc","ios":"levelo://app?vid=8cb249cd-91bc-4856-a7ed-d77ae870b3bc"},"vehicle_type_id":"4","last_reported":1779043959,"current_range_meters":6400,"station_id":"ce4bhp92rcd13ifvqhbg","pricing_plan_id":"cebpf4jnsgd1na2vs0mg"},{"bike_id":"6d3ad6b9-2b03-4662-ac78-cd9cfba7e00a","system_id":"levelo_inurba_marseille","lat":43.30197,"lon":5.39478,"is_reserved":false,"is_disabled":false,"rental_uris":{"android":"levelo://app?vid=6d3ad6b9-2b03-4662-ac78-cd9cfba7e00a","ios":"levelo://app?vid=6d3ad6b9-2b03-4662-ac78-cd9cfba7e00a"},"vehicle_type_id":"4","last_reported":1779043959,"current_range_meters":6400,"station_id":"ce4bh0p2rcd13ifvqd70","pricing_plan_id":"cebpf4jnsgd1na2vs0mg"},{"bike_id":"6c764c67-7564-4251-a7dc-1422e9306815","system_id":"levelo_inurba_marseille","lat":43.27368,"lon":5.36252,"is_reserved":false,"is_disabled":false,"rental_uris":{"android":"levelo://app?vid=6c764c67-7564-4251-a7dc-1422e9306815","ios":"levelo://app?vid=6c764c67-7564-4251-a7dc-1422e9306815"},"vehicle_type_id":"4","last_reported":1779043959,"current_range_meters":6400,"station_id":"ce4bhbh2rcd13ifvqeo0","pricing_plan_id":"cebpf4jnsgd1na2vs0mg"},{"bike_id":"9dc4d4c6-49bf-4735-a8c9-9cabf224cf2d","system_id":"levelo_inurba_marseille","lat":43.299683,"lon":5.384927,"is_reserved":false,"is_disabled":false,"rental_uris":{"android":"levelo://app?vid=9dc4d4c6-49bf-4735-a8c9-9cabf224cf2d","ios":"levelo://app?vid=9dc4d4c6-49bf-4735-a8c9-9cabf224cf2d"},"vehicle_type_id":"4","last_reported":1779043959,"current_range_meters":6400,"station_id":"ce4bgj92rcd13ifvqbd0","pricing_plan_id":"cebpf4jnsgd1na2vs0mg"},{"bike_id":"b443c751-2d22-4a14-84a6-5fec3f48ab3e","system_id":"levelo_inurba_marseille","lat":43.24074,"lon":5.37765,"is_reserved":false,"is_disabled":false,"rental_uris":{"android":"levelo://app?vid=b443c751-2d22-4a14-84a6-5fec3f48ab3e","ios":"levelo://app?vid=b443c751-2d22-4a14-84a6-5fec3f48ab3e"},"vehicle_type_id":"4","last_reported":1779043959,"current_range_meters":6400,"station_id":"ce4bhnp2rcd13ifvqgvg","pricing_plan_id":"cebpf4jnsgd1na2vs0mg"},{"bike_id":"0a6a0bcd-4397-4a25-b2d7-2011eed1e03d","system_id":"levelo_inurba_marseille","lat":43.314924,"lon":5.372839,"is_reserved":false,"is_disabled":false,"rental_uris":{"android":"levelo://app?vid=0a6a0bcd-4397-4a25-b2d7-2011eed1e03d","ios":"levelo://app?vid=0a6a0bcd-4397-4a25-b2d7-2011eed1e03d"},"vehicle_type_id":"4","last_reported":1779043959,"current_range_meters":6400,"station_id":"ce4bgt12rcd13ifvqcd0","pricing_plan_id":"cebpf4jnsgd1na2vs0mg"},{"bike_id":"debcd401-caf4-427c-ab46-557da66dc721","system_id":"levelo_inurba_marseille","lat":43.29985,"lon":5.37195,"is_reserved":false,"is_disabled":false,"rental_uris":{"android":"levelo://app?vid=debcd401-caf4-427c-ab46-557da66dc721","ios":"levelo://app?vid=debcd401-caf4-427c-ab46-557da66dc721"},"vehicle_type_id":"4","last_reported":1779043959,"current_range_meters":6400,"station_id":"ce4bgr92rcd13ifvqc7g","pricing_plan_id":"cebpf4jnsgd1na2vs0mg"},{"bike_id":"cafddd01-a855-42d2-898c-908a395fa970","system_id":"levelo_inurba_marseille","lat":43.29528,"lon":5.39042,"is_reserved":false,"is_disabled":false,"rental_uris":{"android":"levelo://app?vid=cafddd01-a855-42d2-898c-908a395fa970","ios":"levelo://app?vid=cafddd01-a855-42d2-898c-908a395fa970"},"vehicle_type_id":"4","last_reported":1779043959,"current_range_meters":6400,"station_id":"ce4bh3p2rcd13ifvqdp0","pricing_plan_id":"cebpf4jnsgd1na2vs0mg"},{"bike_id":"03cbf105-cf6b-4651-8454-43ef533cbb5e","system_id":"levelo_inurba_marseille","lat":43.27388,"lon":5.36257,"is_reserved":false,"is_disabled":false,"rental_uris":{"android":"levelo://app?vid=03cbf105-cf6b-4651-8454-43ef533cbb5e","ios":"levelo://app?vid=03cbf105-cf6b-4651-8454-43ef533cbb5e"},"vehicle_type_id":"4","last_reported":1779043959,"current_range_meters":6400,"station_id":"ce4bhbh2rcd13ifvqeo0","pricing_plan_id":"cebpf4jnsgd1na2vs0mg"},{"bike_id":"cecd7925-66de-4ce3-b5d8-bbf5d2310dfa","system_id":"levelo_inurba_marseille","lat":43.25113,"lon":5.40317,"is_reserved":false,"is_disabled":false,"rental_uris":{"android":"levelo://app?vid=cecd7925-66de-4ce3-b5d8-bbf5d2310dfa","ios":"levelo://app?vid=cecd7925-66de-4ce3-b5d8-bbf5d2310dfa"},"vehicle_type_id":"4","last_reported":1779043959,"current_range_meters":6400,"station_id":"ce4bhlh2rcd13ifvqgig","pricing_plan_id":"cebpf4jnsgd1na2vs0mg"},{"bike_id":"e4432a57-0576-47b1-8811-60a72652241f","system_id":"levelo_inurba_marseille","lat":43.25514,"lon":5.3765,"is_reserved":false,"is_disabled":false,"rental_uris":{"android":"levelo://app?vid=e4432a57-0576-47b1-8811-60a72652241f","ios":"levelo://app?vid=e4432a57-0576-47b1-8811-60a72652241f"},"vehicle_type_id":"4","last_reported":1779043959,"current_range_meters":6400,"station_id":"ce4bhh12rcd13ifvqff0","pricing_plan_id":"cebpf4jnsgd1na2vs0mg"},{"bike_id":"09a9f7c4-ab40-4f99-8224-b0bbc16097ef","system_id":"levelo_inurba_marseille","lat":43.258899,"lon":5.394254,"is_reserved":false,"is_disabled":false,"rental_uris":{"android":"levelo://app?vid=09a9f7c4-ab40-4f99-8224-b0bbc16097ef","ios":"levelo://app?vid=09a9f7c4-ab40-4f99-8224-b0bbc16097ef"},"vehicle_type_id":"4","last_reported":1779043959,"current_range_meters":6400,"station_id":"ce4bhip2rcd13ifvqft0","pricing_plan_id":"cebpf4jnsgd1na2vs0mg"},{"bike_id":"56c720ba-bffe-4565-baf2-dce22a3b2511","system_id":"levelo_inurba_marseille","lat":43.2827,"lon":5.35085,"is_reserved":false,"is_disabled":true,"rental_uris":{"android":"levelo://app?vid=56c720ba-bffe-4565-baf2-dce22a3b2511","ios":"levelo://app?vid=56c720ba-bffe-4565-baf2-dce22a3b2511"},"vehicle_type_id":"4","last_reported":1779043959,"current_range_meters":6800,"station_id":"ce4bhbp2rcd13ifvqerg","pricing_plan_id":"cebpf4jnsgd1na2vs0mg"},{"bike_id":"a0d48bfc-0c46-4e18-abed-54a555e2c39a","system_id":"levelo_inurba_marseille","lat":43.27992,"lon":5.38685,"is_reserved":false,"is_disabled":true,"rental_uris":{"android":"levelo://app?vid=a0d48bfc-0c46-4e18-abed-54a555e2c39a","ios":"levelo://app?vid=a0d48bfc-0c46-4e18-abed-54a555e2c39a"},"vehicle_type_id":"4","last_reported":1779043959,"current_range_meters":6800,"station_id":"ce4bhg12rcd13ifvqf80","pricing_plan_id":"cebpf4jnsgd1na2vs0mg"},{"bike_id":"bf6ef11e-a79f-44d0-b2a6-29c5f67dc201","system_id":"levelo_inurba_marseille","lat":43.24702,"lon":5.38877,"is_reserved":false,"is_disabled":false,"rental_uris":{"android":"levelo://app?vid=bf6ef11e-a79f-44d0-b2a6-29c5f67dc201","ios":"levelo://app?vid=bf6ef11e-a79f-44d0-b2a6-29c5f67dc201"},"vehicle_type_id":"4","last_reported":1779043959,"current_range_meters":6800,"station_id":"","pricing_plan_id":"cebpf4jnsgd1na2vs0mg"},{"bike_id":"137b778a-b95c-4eee-800c-547a0fa54ea6","system_id":"levelo_inurba_marseille","lat":43.24334,"lon":5.38436,"is_reserved":false,"is_disabled":false,"rental_uris":{"android":"levelo://app?vid=137b778a-b95c-4eee-800c-547a0fa54ea6","ios":"levelo://app?vid=137b778a-b95c-4eee-800c-547a0fa54ea6"},"vehicle_type_id":"4","last_reported":1779043959,"current_range_meters":6800,"station_id":"","pricing_plan_id":"cebpf4jnsgd1na2vs0mg"},{"bike_id":"8d44d028-7a4e-4b2d-9a91-71920fe5a35d","system_id":"levelo_inurba_marseille","lat":43.21191,"lon":5.35078,"is_reserved":false,"is_disabled":false,"rental_uris":{"android":"levelo://app?vid=8d44d028-7a4e-4b2d-9a91-71920fe5a35d","ios":"levelo://app?vid=8d44d028-7a4e-4b2d-9a91-71920fe5a35d"},"vehicle_type_id":"4","last_reported":1779043959,"current_range_meters":6800,"station_id":"st_cvj6sg6p6f1abm77japg","pricing_plan_id":"cebpf4jnsgd1na2vs0mg"},{"bike_id":"cf4ffac1-8b70-4b56-a15e-a8aa3a708e81","system_id":"levelo_inurba_marseille","lat":43.27301,"lon":5.39095,"is_reserved":false,"is_disabled":false,"rental_uris":{"android":"levelo://app?vid=cf4ffac1-8b70-4b56-a15e-a8aa3a708e81","ios":"levelo://app?vid=cf4ffac1-8b70-4b56-a15e-a8aa3a708e81"},"vehicle_type_id":"4","last_reported":1779043959,"current_range_meters":6800,"station_id":"ce4bhgp2rcd13ifvqfe0","pricing_plan_id":"cebpf4jnsgd1na2vs0mg"},{"bike_id":"442645f2-be4b-4da3-a858-e110ec9f6bc1","system_id":"levelo_inurba_marseille","lat":43.27605,"lon":5.36128,"is_reserved":false,"is_disabled":false,"rental_uris":{"android":"levelo://app?vid=442645f2-be4b-4da3-a858-e110ec9f6bc1","ios":"levelo://app?vid=442645f2-be4b-4da3-a858-e110ec9f6bc1"},"vehicle_type_id":"4","last_reported":1779043959,"current_range_meters":6800,"station_id":"ce4bgj92rcd13ifvqbe0","pricing_plan_id":"cebpf4jnsgd1na2vs0mg"},{"bike_id":"2b074ea8-7a30-45a0-8ba4-dfec0b43bffd","system_id":"levelo_inurba_marseille","lat":43.25,"lon":5.38921,"is_reserved":false,"is_disabled":false,"rental_uris":{"android":"levelo://app?vid=2b074ea8-7a30-45a0-8ba4-dfec0b43bffd","ios":"levelo://app?vid=2b074ea8-7a30-45a0-8ba4-dfec0b43bffd"},"vehicle_type_id":"4","last_reported":1779043959,"current_range_meters":6800,"station_id":"ce4bhgp2rcd13ifvqfd0","pricing_plan_id":"cebpf4jnsgd1na2vs0mg"},{"bike_id":"e641f66c-84a5-4689-a586-bddc83922228","system_id":"levelo_inurba_marseille","lat":43.29538,"lon":5.37498,"is_reserved":false,"is_disabled":false,"rental_uris":{"android":"levelo://app?vid=e641f66c-84a5-4689-a586-bddc83922228","ios":"levelo://app?vid=e641f66c-84a5-4689-a586-bddc83922228"},"vehicle_type_id":"4","last_reported":1779043959,"current_range_meters":6800,"station_id":"ce4bgkp2rcd13ifvqbmg","pricing_plan_id":"cebpf4jnsgd1na2vs0mg"},{"bike_id":"0a264c42-7f47-4c77-b6de-2c5d96855fe3","system_id":"levelo_inurba_marseille","lat":43.26554,"lon":5.42182,"is_reserved":false,"is_disabled":false,"rental_uris":{"android":"levelo://app?vid=0a264c42-7f47-4c77-b6de-2c5d96855fe3","ios":"levelo://app?vid=0a264c42-7f47-4c77-b6de-2c5d96855fe3"},"vehicle_type_id":"4","last_reported":1779043959,"current_range_meters":6800,"station_id":"","pricing_plan_id":"cebpf4jnsgd1na2vs0mg"},{"bike_id":"7bf52e93-3c4a-4f79-92b9-9d58970aba60","system_id":"levelo_inurba_marseille","lat":43.24385,"lon":5.3706,"is_reserved":false,"is_disabled":false,"rental_uris":{"android":"levelo://app?vid=7bf52e93-3c4a-4f79-92b9-9d58970aba60","ios":"levelo://app?vid=7bf52e93-3c4a-4f79-92b9-9d58970aba60"},"vehicle_type_id":"4","last_reported":1779043959,"current_range_meters":6800,"station_id":"ce4bhhh2rcd13ifvqfk0","pricing_plan_id":"cebpf4jnsgd1na2vs0mg"},{"bike_id":"54ada953-ca41-49be-806e-9398c45e74b8","system_id":"levelo_inurba_marseille","lat":43.32093,"lon":5.36766,"is_reserved":false,"is_disabled":false,"rental_uris":{"android":"levelo://app?vid=54ada953-ca41-49be-806e-9398c45e74b8","ios":"levelo://app?vid=54ada953-ca41-49be-806e-9398c45e74b8"},"vehicle_type_id":"4","last_reported":1779043959,"current_range_meters":6800,"station_id":"ce4bhrh2rcd13ifvqhug","pricing_plan_id":"cebpf4jnsgd1na2vs0mg"},{"bike_id":"a40dda42-3edd-4425-ab25-e38db376426a","system_id":"levelo_inurba_marseille","lat":43.3025,"lon":5.40051,"is_reserved":false,"is_disabled":false,"rental_uris":{"android":"levelo://app?vid=a40dda42-3edd-4425-ab25-e38db376426a","ios":"levelo://app?vid=a40dda42-3edd-4425-ab25-e38db376426a"},"vehicle_type_id":"4","last_reported":1779043959,"current_range_meters":6800,"station_id":"ce4bgvh2rcd13ifvqcs0","pricing_plan_id":"cebpf4jnsgd1na2vs0mg"},{"bike_id":"692e4abe-1f18-4270-874e-eb2c02761c07","system_id":"levelo_inurba_marseille","lat":43.251167,"lon":5.40314,"is_reserved":false,"is_disabled":false,"rental_uris":{"android":"levelo://app?vid=692e4abe-1f18-4270-874e-eb2c02761c07","ios":"levelo://app?vid=692e4abe-1f18-4270-874e-eb2c02761c07"},"vehicle_type_id":"4","last_reported":1779043959,"current_range_meters":6800,"station_id":"ce4bhlh2rcd13ifvqgig","pricing_plan_id":"cebpf4jnsgd1na2vs0mg"},{"bike_id":"f92f6fcd-9c41-4496-aa8c-376bbc87dfb4","system_id":"levelo_inurba_marseille","lat":43.23898,"lon":5.37465,"is_reserved":false,"is_disabled":true,"rental_uris":{"android":"levelo://app?vid=f92f6fcd-9c41-4496-aa8c-376bbc87dfb4","ios":"levelo://app?vid=f92f6fcd-9c41-4496-aa8c-376bbc87dfb4"},"vehicle_type_id":"4","last_reported":1779043959,"current_range_meters":6800,"station_id":"st_d6sm7csbq4hs73f8fpjg","pricing_plan_id":"cebpf4jnsgd1na2vs0mg"},{"bike_id":"6a20d0d5-82e6-4dcf-9bfc-f158de1c3c98","system_id":"levelo_inurba_marseille","lat":43.25099,"lon":5.39531,"is_reserved":false,"is_disabled":false,"rental_uris":{"android":"levelo://app?vid=6a20d0d5-82e6-4dcf-9bfc-f158de1c3c98","ios":"levelo://app?vid=6a20d0d5-82e6-4dcf-9bfc-f158de1c3c98"},"vehicle_type_id":"4","last_reported":1779043959,"current_range_meters":6800,"station_id":"ce4bhm12rcd13ifvqgkg","pricing_plan_id":"cebpf4jnsgd1na2vs0mg"},{"bike_id":"d7950f57-2b46-4767-914d-35be4bed065d","system_id":"levelo_inurba_marseille","lat":43.24172,"lon":5.36394,"is_reserved":false,"is_disabled":false,"rental_uris":{"android":"levelo://app?vid=d7950f57-2b46-4767-914d-35be4bed065d","ios":"levelo://app?vid=d7950f57-2b46-4767-914d-35be4bed065d"},"vehicle_type_id":"4","last_reported":1779043959,"current_range_meters":6800,"station_id":"cpo36qri1sfpv3e86is0","pricing_plan_id":"cebpf4jnsgd1na2vs0mg"},{"bike_id":"54d168f4-082e-46e5-ae25-8c28e25db536","system_id":"levelo_inurba_marseille","lat":43.26237,"lon":5.37576,"is_reserved":false,"is_disabled":false,"rental_uris":{"android":"levelo://app?vid=54d168f4-082e-46e5-ae25-8c28e25db536","ios":"levelo://app?vid=54d168f4-082e-46e5-ae25-8c28e25db536"},"vehicle_type_id":"4","last_reported":1779043959,"current_range_meters":6800,"station_id":"","pricing_plan_id":"cebpf4jnsgd1na2vs0mg"},{"bike_id":"c5bbeb6b-975e-4729-bae4-bfe23e3d5f4f","system_id":"levelo_inurba_marseille","lat":43.2931,"lon":5.37162,"is_reserved":false,"is_disabled":false,"rental_uris":{"android":"levelo://app?vid=c5bbeb6b-975e-4729-bae4-bfe23e3d5f4f","ios":"levelo://app?vid=c5bbeb6b-975e-4729-bae4-bfe23e3d5f4f"},"vehicle_type_id":"4","last_reported":1779043959,"current_range_meters":6800,"station_id":"ce4bgh92rcd13ifvqb40","pricing_plan_id":"cebpf4jnsgd1na2vs0mg"},{"bike_id":"182f56d1-c770-4bae-bf7a-b9a3a417c54c","system_id":"levelo_inurba_marseille","lat":43.32118,"lon":5.36741,"is_reserved":false,"is_disabled":false,"rental_uris":{"android":"levelo://app?vid=182f56d1-c770-4bae-bf7a-b9a3a417c54c","ios":"levelo://app?vid=182f56d1-c770-4bae-bf7a-b9a3a417c54c"},"vehicle_type_id":"4","last_reported":1779043959,"current_range_meters":6800,"station_id":"ce4bhrh2rcd13ifvqhug","pricing_plan_id":"cebpf4jnsgd1na2vs0mg"},{"bike_id":"cb24158c-d7a7-4c1a-a56a-9ae2de8d51d6","system_id":"levelo_inurba_marseille","lat":43.27209,"lon":5.39182,"is_reserved":false,"is_disabled":false,"rental_uris":{"android":"levelo://app?vid=cb24158c-d7a7-4c1a-a56a-9ae2de8d51d6","ios":"levelo://app?vid=cb24158c-d7a7-4c1a-a56a-9ae2de8d51d6"},"vehicle_type_id":"4","last_reported":1779043959,"current_range_meters":6800,"station_id":"ce4bhhp2rcd13ifvqfm0","pricing_plan_id":"cebpf4jnsgd1na2vs0mg"},{"bike_id":"8a2b7f55-0ab3-487d-8a34-eda3bac9da9b","system_id":"levelo_inurba_marseille","lat":43.2792,"lon":5.39574,"is_reserved":false,"is_disabled":false,"rental_uris":{"android":"levelo://app?vid=8a2b7f55-0ab3-487d-8a34-eda3bac9da9b","ios":"levelo://app?vid=8a2b7f55-0ab3-487d-8a34-eda3bac9da9b"},"vehicle_type_id":"4","last_reported":1779043959,"current_range_meters":7200,"station_id":"ce4bhf92rcd13ifvqf40","pricing_plan_id":"cebpf4jnsgd1na2vs0mg"},{"bike_id":"1be2e1ea-e6bd-4d8a-a1d1-f02191f22dbe","system_id":"levelo_inurba_marseille","lat":43.29715,"lon":5.36603,"is_reserved":false,"is_disabled":false,"rental_uris":{"android":"levelo://app?vid=1be2e1ea-e6bd-4d8a-a1d1-f02191f22dbe","ios":"levelo://app?vid=1be2e1ea-e6bd-4d8a-a1d1-f02191f22dbe"},"vehicle_type_id":"4","last_reported":1779043959,"current_range_meters":7200,"station_id":"ce4bgn12rcd13ifvqbt0","pricing_plan_id":"cebpf4jnsgd1na2vs0mg"},{"bike_id":"656f7c56-164d-4184-9440-28fab6d55f2d","system_id":"levelo_inurba_marseille","lat":43.244,"lon":5.3705,"is_reserved":false,"is_disabled":false,"rental_uris":{"android":"levelo://app?vid=656f7c56-164d-4184-9440-28fab6d55f2d","ios":"levelo://app?vid=656f7c56-164d-4184-9440-28fab6d55f2d"},"vehicle_type_id":"4","last_reported":1779043959,"current_range_meters":7200,"station_id":"ce4bhhh2rcd13ifvqfk0","pricing_plan_id":"cebpf4jnsgd1na2vs0mg"},{"bike_id":"0ca266b4-e43b-4acc-a0a9-ab242cc7399f","system_id":"levelo_inurba_marseille","lat":43.26581,"lon":5.39644,"is_reserved":false,"is_disabled":false,"rental_uris":{"android":"levelo://app?vid=0ca266b4-e43b-4acc-a0a9-ab242cc7399f","ios":"levelo://app?vid=0ca266b4-e43b-4acc-a0a9-ab242cc7399f"},"vehicle_type_id":"4","last_reported":1779043959,"current_range_meters":7200,"station_id":"","pricing_plan_id":"cebpf4jnsgd1na2vs0mg"},{"bike_id":"b87347bd-0e32-478d-b659-488fdba32135","system_id":"levelo_inurba_marseille","lat":43.2119,"lon":5.35064,"is_reserved":false,"is_disabled":false,"rental_uris":{"android":"levelo://app?vid=b87347bd-0e32-478d-b659-488fdba32135","ios":"levelo://app?vid=b87347bd-0e32-478d-b659-488fdba32135"},"vehicle_type_id":"4","last_reported":1779043959,"current_range_meters":7200,"station_id":"st_cvj6sg6p6f1abm77japg","pricing_plan_id":"cebpf4jnsgd1na2vs0mg"},{"bike_id":"45ea68c0-a4cc-422e-8504-16cfcabfc620","system_id":"levelo_inurba_marseille","lat":43.27815,"lon":5.40714,"is_reserved":false,"is_disabled":false,"rental_uris":{"android":"levelo://app?vid=45ea68c0-a4cc-422e-8504-16cfcabfc620","ios":"levelo://app?vid=45ea68c0-a4cc-422e-8504-16cfcabfc620"},"vehicle_type_id":"4","last_reported":1779043959,"current_range_meters":7200,"station_id":"ce4bhnh2rcd13ifvqgtg","pricing_plan_id":"cebpf4jnsgd1na2vs0mg"},{"bike_id":"091f5e46-a208-4c3a-bf11-e21787972028","system_id":"levelo_inurba_marseille","lat":43.26931,"lon":5.40245,"is_reserved":false,"is_disabled":false,"rental_uris":{"android":"levelo://app?vid=091f5e46-a208-4c3a-bf11-e21787972028","ios":"levelo://app?vid=091f5e46-a208-4c3a-bf11-e21787972028"},"vehicle_type_id":"4","last_reported":1779043959,"current_range_meters":7200,"station_id":"cjm6bp8fraef2m0cb0m0","pricing_plan_id":"cebpf4jnsgd1na2vs0mg"},{"bike_id":"3fc4861f-4002-4f5f-bd05-a8890b5cd8e0","system_id":"levelo_inurba_marseille","lat":43.29577,"lon":5.36737,"is_reserved":false,"is_disabled":false,"rental_uris":{"android":"levelo://app?vid=3fc4861f-4002-4f5f-bd05-a8890b5cd8e0","ios":"levelo://app?vid=3fc4861f-4002-4f5f-bd05-a8890b5cd8e0"},"vehicle_type_id":"4","last_reported":1779043959,"current_range_meters":7200,"station_id":"ce4bgph2rcd13ifvqc2g","pricing_plan_id":"cebpf4jnsgd1na2vs0mg"},{"bike_id":"e181a239-eba9-4cf9-be0b-541c2a83fddf","system_id":"levelo_inurba_marseille","lat":43.28616,"lon":5.39879,"is_reserved":false,"is_disabled":false,"rental_uris":{"android":"levelo://app?vid=e181a239-eba9-4cf9-be0b-541c2a83fddf","ios":"levelo://app?vid=e181a239-eba9-4cf9-be0b-541c2a83fddf"},"vehicle_type_id":"4","last_reported":1779043959,"current_range_meters":7200,"station_id":"st_d4a7ka997mjs738ck50g","pricing_plan_id":"cebpf4jnsgd1na2vs0mg"},{"bike_id":"6eb578a0-2499-4931-b256-efca24c61683","system_id":"levelo_inurba_marseille","lat":43.3095,"lon":5.39038,"is_reserved":false,"is_disabled":true,"rental_uris":{"android":"levelo://app?vid=6eb578a0-2499-4931-b256-efca24c61683","ios":"levelo://app?vid=6eb578a0-2499-4931-b256-efca24c61683"},"vehicle_type_id":"4","last_reported":1779043959,"current_range_meters":7200,"station_id":"ce4bgup2rcd13ifvqco0","pricing_plan_id":"cebpf4jnsgd1na2vs0mg"},{"bike_id":"047f0c75-d9ad-41d2-ac86-c2b1e18da69b","system_id":"levelo_inurba_marseille","lat":43.28608,"lon":5.37068,"is_reserved":false,"is_disabled":false,"rental_uris":{"android":"levelo://app?vid=047f0c75-d9ad-41d2-ac86-c2b1e18da69b","ios":"levelo://app?vid=047f0c75-d9ad-41d2-ac86-c2b1e18da69b"},"vehicle_type_id":"4","last_reported":1779043959,"current_range_meters":7200,"station_id":"ce4bht12rcd13ifvqi60","pricing_plan_id":"cebpf4jnsgd1na2vs0mg"},{"bike_id":"08f2f3de-09e4-4451-8c67-d915318ee445","system_id":"levelo_inurba_marseille","lat":43.29032,"lon":5.37125,"is_reserved":false,"is_disabled":true,"rental_uris":{"android":"levelo://app?vid=08f2f3de-09e4-4451-8c67-d915318ee445","ios":"levelo://app?vid=08f2f3de-09e4-4451-8c67-d915318ee445"},"vehicle_type_id":"4","last_reported":1779043959,"current_range_meters":7200,"station_id":"ce4bh5p2rcd13ifvqe4g","pricing_plan_id":"cebpf4jnsgd1na2vs0mg"},{"bike_id":"d721118e-4169-4f8c-8cb7-94cd8f8380ce","system_id":"levelo_inurba_marseille","lat":43.21212,"lon":5.35054,"is_reserved":false,"is_disabled":false,"rental_uris":{"android":"levelo://app?vid=d721118e-4169-4f8c-8cb7-94cd8f8380ce","ios":"levelo://app?vid=d721118e-4169-4f8c-8cb7-94cd8f8380ce"},"vehicle_type_id":"4","last_reported":1779043959,"current_range_meters":7200,"station_id":"st_cvj6sg6p6f1abm77japg","pricing_plan_id":"cebpf4jnsgd1na2vs0mg"},{"bike_id":"2fa8d4be-dae4-4c3a-9adc-e52d62c1bef4","system_id":"levelo_inurba_marseille","lat":43.32477,"lon":5.36607,"is_reserved":false,"is_disabled":false,"rental_uris":{"android":"levelo://app?vid=2fa8d4be-dae4-4c3a-9adc-e52d62c1bef4","ios":"levelo://app?vid=2fa8d4be-dae4-4c3a-9adc-e52d62c1bef4"},"vehicle_type_id":"4","last_reported":1779043959,"current_range_meters":7200,"station_id":"ce4bhs12rcd13ifvqhvg","pricing_plan_id":"cebpf4jnsgd1na2vs0mg"},{"bike_id":"96d1b7af-f895-4490-be19-b0f3d9010d6e","system_id":"levelo_inurba_marseille","lat":43.26791,"lon":5.40277,"is_reserved":false,"is_disabled":false,"rental_uris":{"android":"levelo://app?vid=96d1b7af-f895-4490-be19-b0f3d9010d6e","ios":"levelo://app?vid=96d1b7af-f895-4490-be19-b0f3d9010d6e"},"vehicle_type_id":"4","last_reported":1779043959,"current_range_meters":7200,"station_id":"ce501612rcd8frsf0b60","pricing_plan_id":"cebpf4jnsgd1na2vs0mg"},{"bike_id":"dd147179-364a-47c0-aa2f-aca423b4d24d","system_id":"levelo_inurba_marseille","lat":43.25564,"lon":5.37529,"is_reserved":false,"is_disabled":false,"rental_uris":{"android":"levelo://app?vid=dd147179-364a-47c0-aa2f-aca423b4d24d","ios":"levelo://app?vid=dd147179-364a-47c0-aa2f-aca423b4d24d"},"vehicle_type_id":"4","last_reported":1779043959,"current_range_meters":7200,"station_id":"ce4bgt12rcd13ifvqcd0","pricing_plan_id":"cebpf4jnsgd1na2vs0mg"},{"bike_id":"aaaf2da1-9790-4af6-9df1-a98f9102aaa6","system_id":"levelo_inurba_marseille","lat":43.2951,"lon":5.394,"is_reserved":false,"is_disabled":false,"rental_uris":{"android":"levelo://app?vid=aaaf2da1-9790-4af6-9df1-a98f9102aaa6","ios":"levelo://app?vid=aaaf2da1-9790-4af6-9df1-a98f9102aaa6"},"vehicle_type_id":"4","last_reported":1779043959,"current_range_meters":7200,"station_id":"ce4bh292rcd13ifvqdf0","pricing_plan_id":"cebpf4jnsgd1na2vs0mg"},{"bike_id":"6aaadbf3-0599-49a3-a6f0-7b081fc3ee28","system_id":"levelo_inurba_marseille","lat":43.26865,"lon":5.3948,"is_reserved":false,"is_disabled":false,"rental_uris":{"android":"levelo://app?vid=6aaadbf3-0599-49a3-a6f0-7b081fc3ee28","ios":"levelo://app?vid=6aaadbf3-0599-49a3-a6f0-7b081fc3ee28"},"vehicle_type_id":"4","last_reported":1779043959,"current_range_meters":7200,"station_id":"","pricing_plan_id":"cebpf4jnsgd1na2vs0mg"},{"bike_id":"221b56b9-48fd-402c-a8a9-e24d99ba3602","system_id":"levelo_inurba_marseille","lat":43.27922,"lon":5.39576,"is_reserved":false,"is_disabled":false,"rental_uris":{"android":"levelo://app?vid=221b56b9-48fd-402c-a8a9-e24d99ba3602","ios":"levelo://app?vid=221b56b9-48fd-402c-a8a9-e24d99ba3602"},"vehicle_type_id":"4","last_reported":1779043959,"current_range_meters":7200,"station_id":"ce4bhf92rcd13ifvqf40","pricing_plan_id":"cebpf4jnsgd1na2vs0mg"},{"bike_id":"7502141e-1348-42ce-91a9-2b17e12831c6","system_id":"levelo_inurba_marseille","lat":43.24939,"lon":5.40501,"is_reserved":false,"is_disabled":false,"rental_uris":{"android":"levelo://app?vid=7502141e-1348-42ce-91a9-2b17e12831c6","ios":"levelo://app?vid=7502141e-1348-42ce-91a9-2b17e12831c6"},"vehicle_type_id":"4","last_reported":1779043959,"current_range_meters":7200,"station_id":"st_d2ngiaodas8pm72gd1h0","pricing_plan_id":"cebpf4jnsgd1na2vs0mg"},{"bike_id":"a0c8d467-3652-4f28-b885-8caa09991022","system_id":"levelo_inurba_marseille","lat":43.29938,"lon":5.36544,"is_reserved":false,"is_disabled":false,"rental_uris":{"android":"levelo://app?vid=a0c8d467-3652-4f28-b885-8caa09991022","ios":"levelo://app?vid=a0c8d467-3652-4f28-b885-8caa09991022"},"vehicle_type_id":"4","last_reported":1779043959,"current_range_meters":7200,"station_id":"ce4bgm92rcd13ifvqbr0","pricing_plan_id":"cebpf4jnsgd1na2vs0mg"},{"bike_id":"5feb3f30-afde-4f82-8771-0ec8bc91deb3","system_id":"levelo_inurba_marseille","lat":43.26369,"lon":5.41065,"is_reserved":false,"is_disabled":false,"rental_uris":{"android":"levelo://app?vid=5feb3f30-afde-4f82-8771-0ec8bc91deb3","ios":"levelo://app?vid=5feb3f30-afde-4f82-8771-0ec8bc91deb3"},"vehicle_type_id":"4","last_reported":1779043959,"current_range_meters":7200,"station_id":"st_d4e5ca6na9uc73bfl5fg","pricing_plan_id":"cebpf4jnsgd1na2vs0mg"},{"bike_id":"9b1c14eb-1059-49d0-a339-499bb0234606","system_id":"levelo_inurba_marseille","lat":43.31725,"lon":5.42397,"is_reserved":false,"is_disabled":false,"rental_uris":{"android":"levelo://app?vid=9b1c14eb-1059-49d0-a339-499bb0234606","ios":"levelo://app?vid=9b1c14eb-1059-49d0-a339-499bb0234606"},"vehicle_type_id":"4","last_reported":1779043959,"current_range_meters":7200,"station_id":"ce4bhp92rcd13ifvqhbg","pricing_plan_id":"cebpf4jnsgd1na2vs0mg"},{"bike_id":"0a0c99b1-62f3-4edd-ace9-bf05198710a7","system_id":"levelo_inurba_marseille","lat":43.26958,"lon":5.36624,"is_reserved":false,"is_disabled":false,"rental_uris":{"android":"levelo://app?vid=0a0c99b1-62f3-4edd-ace9-bf05198710a7","ios":"levelo://app?vid=0a0c99b1-62f3-4edd-ace9-bf05198710a7"},"vehicle_type_id":"4","last_reported":1779043959,"current_range_meters":7200,"station_id":"","pricing_plan_id":"cebpf4jnsgd1na2vs0mg"},{"bike_id":"a7d9bc13-c966-446a-b3a3-6af70bd684c3","system_id":"levelo_inurba_marseille","lat":43.29994,"lon":5.37123,"is_reserved":false,"is_disabled":false,"rental_uris":{"android":"levelo://app?vid=a7d9bc13-c966-446a-b3a3-6af70bd684c3","ios":"levelo://app?vid=a7d9bc13-c966-446a-b3a3-6af70bd684c3"},"vehicle_type_id":"4","last_reported":1779043959,"current_range_meters":7200,"station_id":"","pricing_plan_id":"cebpf4jnsgd1na2vs0mg"},{"bike_id":"549206cc-43eb-4a89-88e0-add192dd5de4","system_id":"levelo_inurba_marseille","lat":43.259397,"lon":5.40883,"is_reserved":false,"is_disabled":false,"rental_uris":{"android":"levelo://app?vid=549206cc-43eb-4a89-88e0-add192dd5de4","ios":"levelo://app?vid=549206cc-43eb-4a89-88e0-add192dd5de4"},"vehicle_type_id":"4","last_reported":1779043959,"current_range_meters":7200,"station_id":"ce4bhm92rcd13ifvqglg","pricing_plan_id":"cebpf4jnsgd1na2vs0mg"},{"bike_id":"35920afa-6ce5-4a7d-9f8d-b69529cc5b56","system_id":"levelo_inurba_marseille","lat":43.2705,"lon":5.40263,"is_reserved":false,"is_disabled":false,"rental_uris":{"android":"levelo://app?vid=35920afa-6ce5-4a7d-9f8d-b69529cc5b56","ios":"levelo://app?vid=35920afa-6ce5-4a7d-9f8d-b69529cc5b56"},"vehicle_type_id":"4","last_reported":1779043959,"current_range_meters":7200,"station_id":"ce4bhk92rcd13ifvqgc0","pricing_plan_id":"cebpf4jnsgd1na2vs0mg"},{"bike_id":"bd23ccdc-a8d4-4dea-829f-3e18aa47c9b8","system_id":"levelo_inurba_marseille","lat":43.26942,"lon":5.40253,"is_reserved":false,"is_disabled":false,"rental_uris":{"android":"levelo://app?vid=bd23ccdc-a8d4-4dea-829f-3e18aa47c9b8","ios":"levelo://app?vid=bd23ccdc-a8d4-4dea-829f-3e18aa47c9b8"},"vehicle_type_id":"4","last_reported":1779043959,"current_range_meters":7200,"station_id":"cjm6bp8fraef2m0cb0m0","pricing_plan_id":"cebpf4jnsgd1na2vs0mg"},{"bike_id":"39da638a-63b0-4c5e-a781-262e1080ed5f","system_id":"levelo_inurba_marseille","lat":43.28006,"lon":5.40027,"is_reserved":false,"is_disabled":false,"rental_uris":{"android":"levelo://app?vid=39da638a-63b0-4c5e-a781-262e1080ed5f","ios":"levelo://app?vid=39da638a-63b0-4c5e-a781-262e1080ed5f"},"vehicle_type_id":"4","last_reported":1779043959,"current_range_meters":8000,"station_id":"ce4bho92rcd13ifvqh4g","pricing_plan_id":"cebpf4jnsgd1na2vs0mg"},{"bike_id":"70d8ca49-ee56-485d-aca6-e0c7a9047024","system_id":"levelo_inurba_marseille","lat":43.28608,"lon":5.39876,"is_reserved":false,"is_disabled":false,"rental_uris":{"android":"levelo://app?vid=70d8ca49-ee56-485d-aca6-e0c7a9047024","ios":"levelo://app?vid=70d8ca49-ee56-485d-aca6-e0c7a9047024"},"vehicle_type_id":"4","last_reported":1779043959,"current_range_meters":8000,"station_id":"st_d4a7ka997mjs738ck50g","pricing_plan_id":"cebpf4jnsgd1na2vs0mg"},{"bike_id":"4b076764-525a-45cc-9e61-75654eaf30f3","system_id":"levelo_inurba_marseille","lat":43.28102,"lon":5.37833,"is_reserved":false,"is_disabled":false,"rental_uris":{"android":"levelo://app?vid=4b076764-525a-45cc-9e61-75654eaf30f3","ios":"levelo://app?vid=4b076764-525a-45cc-9e61-75654eaf30f3"},"vehicle_type_id":"4","last_reported":1779043959,"current_range_meters":8000,"station_id":"ce4bha12rcd13ifvqee0","pricing_plan_id":"cebpf4jnsgd1na2vs0mg"},{"bike_id":"28397d46-487d-4a7c-978b-cdd6041902f6","system_id":"levelo_inurba_marseille","lat":43.29943,"lon":5.36497,"is_reserved":false,"is_disabled":false,"rental_uris":{"android":"levelo://app?vid=28397d46-487d-4a7c-978b-cdd6041902f6","ios":"levelo://app?vid=28397d46-487d-4a7c-978b-cdd6041902f6"},"vehicle_type_id":"4","last_reported":1779043959,"current_range_meters":8000,"station_id":"","pricing_plan_id":"cebpf4jnsgd1na2vs0mg"},{"bike_id":"4b7d5caa-54f3-4f48-98fd-8fca78c54762","system_id":"levelo_inurba_marseille","lat":43.3065,"lon":5.40096,"is_reserved":false,"is_disabled":false,"rental_uris":{"android":"levelo://app?vid=4b7d5caa-54f3-4f48-98fd-8fca78c54762","ios":"levelo://app?vid=4b7d5caa-54f3-4f48-98fd-8fca78c54762"},"vehicle_type_id":"4","last_reported":1779043959,"current_range_meters":8000,"station_id":"ce4bh112rcd13ifvqda0","pricing_plan_id":"cebpf4jnsgd1na2vs0mg"},{"bike_id":"d23c82ba-01a8-4c83-beb0-cf33228ae412","system_id":"levelo_inurba_marseille","lat":43.28929,"lon":5.36646,"is_reserved":false,"is_disabled":false,"rental_uris":{"android":"levelo://app?vid=d23c82ba-01a8-4c83-beb0-cf33228ae412","ios":"levelo://app?vid=d23c82ba-01a8-4c83-beb0-cf33228ae412"},"vehicle_type_id":"4","last_reported":1779043959,"current_range_meters":8000,"station_id":"ce4bhap2rcd13ifvqek0","pricing_plan_id":"cebpf4jnsgd1na2vs0mg"},{"bike_id":"1cc97de6-596f-4dfb-8143-05772e538f98","system_id":"levelo_inurba_marseille","lat":43.27209,"lon":5.39184,"is_reserved":false,"is_disabled":true,"rental_uris":{"android":"levelo://app?vid=1cc97de6-596f-4dfb-8143-05772e538f98","ios":"levelo://app?vid=1cc97de6-596f-4dfb-8143-05772e538f98"},"vehicle_type_id":"4","last_reported":1779043959,"current_range_meters":8000,"station_id":"ce4bhhp2rcd13ifvqfm0","pricing_plan_id":"cebpf4jnsgd1na2vs0mg"},{"bike_id":"96282728-8c30-4705-9f44-b996a4ed3664","system_id":"levelo_inurba_marseille","lat":43.27855,"lon":5.39189,"is_reserved":false,"is_disabled":true,"rental_uris":{"android":"levelo://app?vid=96282728-8c30-4705-9f44-b996a4ed3664","ios":"levelo://app?vid=96282728-8c30-4705-9f44-b996a4ed3664"},"vehicle_type_id":"4","last_reported":1779043959,"current_range_meters":8000,"station_id":"ce4bhjp2rcd13ifvqga0","pricing_plan_id":"cebpf4jnsgd1na2vs0mg"},{"bike_id":"761f4e06-8548-4f23-b7a1-e857d4fa498e","system_id":"levelo_inurba_marseille","lat":43.28647,"lon":5.37793,"is_reserved":false,"is_disabled":false,"rental_uris":{"android":"levelo://app?vid=761f4e06-8548-4f23-b7a1-e857d4fa498e","ios":"levelo://app?vid=761f4e06-8548-4f23-b7a1-e857d4fa498e"},"vehicle_type_id":"4","last_reported":1779043959,"current_range_meters":8000,"station_id":"","pricing_plan_id":"cebpf4jnsgd1na2vs0mg"},{"bike_id":"dd04efa2-455a-424f-9437-7214b6358585","system_id":"levelo_inurba_marseille","lat":43.29937,"lon":5.36519,"is_reserved":false,"is_disabled":false,"rental_uris":{"android":"levelo://app?vid=dd04efa2-455a-424f-9437-7214b6358585","ios":"levelo://app?vid=dd04efa2-455a-424f-9437-7214b6358585"},"vehicle_type_id":"4","last_reported":1779043959,"current_range_meters":8000,"station_id":"ce4bgm92rcd13ifvqbr0","pricing_plan_id":"cebpf4jnsgd1na2vs0mg"},{"bike_id":"1ec12642-728f-4af7-9b5e-69b35826fc34","system_id":"levelo_inurba_marseille","lat":43.27034,"lon":5.38747,"is_reserved":false,"is_disabled":false,"rental_uris":{"android":"levelo://app?vid=1ec12642-728f-4af7-9b5e-69b35826fc34","ios":"levelo://app?vid=1ec12642-728f-4af7-9b5e-69b35826fc34"},"vehicle_type_id":"4","last_reported":1779043959,"current_range_meters":8000,"station_id":"","pricing_plan_id":"cebpf4jnsgd1na2vs0mg"},{"bike_id":"6b9ebdf6-c4cd-49d3-a349-a2e0b5ae29fb","system_id":"levelo_inurba_marseille","lat":43.2731,"lon":5.39083,"is_reserved":false,"is_disabled":false,"rental_uris":{"android":"levelo://app?vid=6b9ebdf6-c4cd-49d3-a349-a2e0b5ae29fb","ios":"levelo://app?vid=6b9ebdf6-c4cd-49d3-a349-a2e0b5ae29fb"},"vehicle_type_id":"4","last_reported":1779043959,"current_range_meters":8000,"station_id":"ce4bhgp2rcd13ifvqfe0","pricing_plan_id":"cebpf4jnsgd1na2vs0mg"},{"bike_id":"97fb9931-5314-41ea-adde-23de71b11757","system_id":"levelo_inurba_marseille","lat":43.27855,"lon":5.3856,"is_reserved":false,"is_disabled":false,"rental_uris":{"android":"levelo://app?vid=97fb9931-5314-41ea-adde-23de71b11757","ios":"levelo://app?vid=97fb9931-5314-41ea-adde-23de71b11757"},"vehicle_type_id":"4","last_reported":1779043959,"current_range_meters":8000,"station_id":"","pricing_plan_id":"cebpf4jnsgd1na2vs0mg"},{"bike_id":"84ae8992-54c6-43b3-8c6d-2292740fee0f","system_id":"levelo_inurba_marseille","lat":43.21178,"lon":5.35101,"is_reserved":false,"is_disabled":false,"rental_uris":{"android":"levelo://app?vid=84ae8992-54c6-43b3-8c6d-2292740fee0f","ios":"levelo://app?vid=84ae8992-54c6-43b3-8c6d-2292740fee0f"},"vehicle_type_id":"4","last_reported":1779043959,"current_range_meters":8000,"station_id":"st_cvj6sg6p6f1abm77japg","pricing_plan_id":"cebpf4jnsgd1na2vs0mg"},{"bike_id":"5f49c5f0-4c69-4cd2-870e-52ae13c28c58","system_id":"levelo_inurba_marseille","lat":43.28277,"lon":5.35059,"is_reserved":false,"is_disabled":true,"rental_uris":{"android":"levelo://app?vid=5f49c5f0-4c69-4cd2-870e-52ae13c28c58","ios":"levelo://app?vid=5f49c5f0-4c69-4cd2-870e-52ae13c28c58"},"vehicle_type_id":"4","last_reported":1779043959,"current_range_meters":8000,"station_id":"ce4bhbp2rcd13ifvqerg","pricing_plan_id":"cebpf4jnsgd1na2vs0mg"},