{"last_updated":1768328358,"ttl":60,"version":"2.2","data":{"bikes":[{"bike_id":"3e6e857e-44a4-43cb-b7bd-1bdbecc8bb0c","system_id":"levelo_inurba_marseille","lat":43.3017,"lon":5.37114,"is_reserved":false,"is_disabled":false,"rental_uris":{"android":"levelo://app?vid=3e6e857e-44a4-43cb-b7bd-1bdbecc8bb0c","ios":"levelo://app?vid=3e6e857e-44a4-43cb-b7bd-1bdbecc8bb0c"},"vehicle_type_id":"4","last_reported":1768328359,"current_range_meters":2800,"station_id":"","pricing_plan_id":"cebpf4jnsgd1na2vs0mg"},{"bike_id":"3b3f1168-ca6a-49e8-aafc-e03eede488ad","system_id":"levelo_inurba_marseille","lat":43.28339,"lon":5.38093,"is_reserved":false,"is_disabled":false,"rental_uris":{"android":"levelo://app?vid=3b3f1168-ca6a-49e8-aafc-e03eede488ad","ios":"levelo://app?vid=3b3f1168-ca6a-49e8-aafc-e03eede488ad"},"vehicle_type_id":"4","last_reported":1768328359,"current_range_meters":2800,"station_id":"ce4bh412rcd13ifvqdr0","pricing_plan_id":"cebpf4jnsgd1na2vs0mg"},{"bike_id":"e64de5c8-c429-4d9e-853a-793e735e5e70","system_id":"levelo_inurba_marseille","lat":43.29962,"lon":5.4133,"is_reserved":false,"is_disabled":false,"rental_uris":{"android":"levelo://app?vid=e64de5c8-c429-4d9e-853a-793e735e5e70","ios":"levelo://app?vid=e64de5c8-c429-4d9e-853a-793e735e5e70"},"vehicle_type_id":"4","last_reported":1768328359,"current_range_meters":2800,"station_id":"ce4bhp12rcd13ifvqh9g","pricing_plan_id":"cebpf4jnsgd1na2vs0mg"},{"bike_id":"232ad3be-6df5-405a-a3b4-07ee6a984dfb","system_id":"levelo_inurba_marseille","lat":43.329015,"lon":5.389523,"is_reserved":false,"is_disabled":false,"rental_uris":{"android":"levelo://app?vid=232ad3be-6df5-405a-a3b4-07ee6a984dfb","ios":"levelo://app?vid=232ad3be-6df5-405a-a3b4-07ee6a984dfb"},"vehicle_type_id":"4","last_reported":1768328359,"current_range_meters":2800,"station_id":"","pricing_plan_id":"cebpf4jnsgd1na2vs0mg"},{"bike_id":"4470ee29-c1d9-4cd5-b86f-e144152a5653","system_id":"levelo_inurba_marseille","lat":43.2821,"lon":5.40373,"is_reserved":false,"is_disabled":false,"rental_uris":{"android":"levelo://app?vid=4470ee29-c1d9-4cd5-b86f-e144152a5653","ios":"levelo://app?vid=4470ee29-c1d9-4cd5-b86f-e144152a5653"},"vehicle_type_id":"4","last_reported":1768328359,"current_range_meters":2800,"station_id":"","pricing_plan_id":"cebpf4jnsgd1na2vs0mg"},{"bike_id":"3ae0c06d-a2ab-49c7-b39f-1a85ce1aa14c","system_id":"levelo_inurba_marseille","lat":43.2886,"lon":5.42511,"is_reserved":false,"is_disabled":false,"rental_uris":{"android":"levelo://app?vid=3ae0c06d-a2ab-49c7-b39f-1a85ce1aa14c","ios":"levelo://app?vid=3ae0c06d-a2ab-49c7-b39f-1a85ce1aa14c"},"vehicle_type_id":"4","last_reported":1768328359,"current_range_meters":2800,"station_id":"st_d3b462108ojc7389ooeg","pricing_plan_id":"cebpf4jnsgd1na2vs0mg"},{"bike_id":"cf48c244-3f01-4eaa-ab25-523de43af30d","system_id":"levelo_inurba_marseille","lat":43.27996,"lon":5.4001,"is_reserved":false,"is_disabled":false,"rental_uris":{"android":"levelo://app?vid=cf48c244-3f01-4eaa-ab25-523de43af30d","ios":"levelo://app?vid=cf48c244-3f01-4eaa-ab25-523de43af30d"},"vehicle_type_id":"4","last_reported":1768328359,"current_range_meters":2800,"station_id":"ce4bho92rcd13ifvqh4g","pricing_plan_id":"cebpf4jnsgd1na2vs0mg"},{"bike_id":"19cf4836-8dc0-4d4b-a30b-cc7133de4342","system_id":"levelo_inurba_marseille","lat":43.26064,"lon":5.39397,"is_reserved":false,"is_disabled":false,"rental_uris":{"android":"levelo://app?vid=19cf4836-8dc0-4d4b-a30b-cc7133de4342","ios":"levelo://app?vid=19cf4836-8dc0-4d4b-a30b-cc7133de4342"},"vehicle_type_id":"4","last_reported":1768328359,"current_range_meters":2800,"station_id":"ce4bhh92rcd13ifvqfj0","pricing_plan_id":"cebpf4jnsgd1na2vs0mg"},{"bike_id":"6fd5ea2a-b784-4e61-aa72-a29b439cc63f","system_id":"levelo_inurba_marseille","lat":43.25337,"lon":5.42172,"is_reserved":false,"is_disabled":false,"rental_uris":{"android":"levelo://app?vid=6fd5ea2a-b784-4e61-aa72-a29b439cc63f","ios":"levelo://app?vid=6fd5ea2a-b784-4e61-aa72-a29b439cc63f"},"vehicle_type_id":"4","last_reported":1768328359,"current_range_meters":2800,"station_id":"st_d2m65c5bi1j21697t3ng","pricing_plan_id":"cebpf4jnsgd1na2vs0mg"},{"bike_id":"fb9f796c-fb12-45e2-b876-3e3a9fa6352d","system_id":"levelo_inurba_marseille","lat":43.27995,"lon":5.41669,"is_reserved":false,"is_disabled":false,"rental_uris":{"android":"levelo://app?vid=fb9f796c-fb12-45e2-b876-3e3a9fa6352d","ios":"levelo://app?vid=fb9f796c-fb12-45e2-b876-3e3a9fa6352d"},"vehicle_type_id":"4","last_reported":1768328359,"current_range_meters":2800,"station_id":"ce4bho12rcd13ifvqh1g","pricing_plan_id":"cebpf4jnsgd1na2vs0mg"},{"bike_id":"4f0ebfc1-6efb-457d-95d5-cb7e3f607e14","system_id":"levelo_inurba_marseille","lat":43.264971,"lon":5.395404,"is_reserved":false,"is_disabled":false,"rental_uris":{"android":"levelo://app?vid=4f0ebfc1-6efb-457d-95d5-cb7e3f607e14","ios":"levelo://app?vid=4f0ebfc1-6efb-457d-95d5-cb7e3f607e14"},"vehicle_type_id":"4","last_reported":1768328359,"current_range_meters":2800,"station_id":"ce4bhi12rcd13ifvqfq0","pricing_plan_id":"cebpf4jnsgd1na2vs0mg"},{"bike_id":"57f44e60-8154-4fa5-ae07-99b975dbea41","system_id":"levelo_inurba_marseille","lat":43.29507,"lon":5.39044,"is_reserved":false,"is_disabled":false,"rental_uris":{"android":"levelo://app?vid=57f44e60-8154-4fa5-ae07-99b975dbea41","ios":"levelo://app?vid=57f44e60-8154-4fa5-ae07-99b975dbea41"},"vehicle_type_id":"4","last_reported":1768328359,"current_range_meters":3200,"station_id":"ce4bh3p2rcd13ifvqdp0","pricing_plan_id":"cebpf4jnsgd1na2vs0mg"},{"bike_id":"ca512b58-0143-4308-b521-6de6ada4b55b","system_id":"levelo_inurba_marseille","lat":43.3055,"lon":5.36521,"is_reserved":false,"is_disabled":false,"rental_uris":{"android":"levelo://app?vid=ca512b58-0143-4308-b521-6de6ada4b55b","ios":"levelo://app?vid=ca512b58-0143-4308-b521-6de6ada4b55b"},"vehicle_type_id":"4","last_reported":1768328359,"current_range_meters":3200,"station_id":"ce4bgs12rcd13ifvqcag","pricing_plan_id":"cebpf4jnsgd1na2vs0mg"},{"bike_id":"57011a74-0c32-42bc-9899-fdfd84c9d05c","system_id":"levelo_inurba_marseille","lat":43.24812,"lon":5.3746,"is_reserved":false,"is_disabled":false,"rental_uris":{"android":"levelo://app?vid=57011a74-0c32-42bc-9899-fdfd84c9d05c","ios":"levelo://app?vid=57011a74-0c32-42bc-9899-fdfd84c9d05c"},"vehicle_type_id":"4","last_reported":1768328359,"current_range_meters":3200,"station_id":"ce4bhgh2rcd13ifvqfb0","pricing_plan_id":"cebpf4jnsgd1na2vs0mg"},{"bike_id":"017368ae-a8ef-4ad6-bc9a-d16935d6312f","system_id":"levelo_inurba_marseille","lat":43.23527,"lon":5.35947,"is_reserved":false,"is_disabled":false,"rental_uris":{"android":"levelo://app?vid=017368ae-a8ef-4ad6-bc9a-d16935d6312f","ios":"levelo://app?vid=017368ae-a8ef-4ad6-bc9a-d16935d6312f"},"vehicle_type_id":"4","last_reported":1768328359,"current_range_meters":3200,"station_id":"","pricing_plan_id":"cebpf4jnsgd1na2vs0mg"},{"bike_id":"618b8797-65b0-468a-bbde-d4f615e3f8a0","system_id":"levelo_inurba_marseille","lat":43.30594,"lon":5.39359,"is_reserved":false,"is_disabled":false,"rental_uris":{"android":"levelo://app?vid=618b8797-65b0-468a-bbde-d4f615e3f8a0","ios":"levelo://app?vid=618b8797-65b0-468a-bbde-d4f615e3f8a0"},"vehicle_type_id":"4","last_reported":1768328359,"current_range_meters":3200,"station_id":"ce4bh0p2rcd13ifvqd80","pricing_plan_id":"cebpf4jnsgd1na2vs0mg"},{"bike_id":"93beefeb-bae2-44e6-b1e7-4e0bc7c2456a","system_id":"levelo_inurba_marseille","lat":43.27628,"lon":5.36111,"is_reserved":false,"is_disabled":false,"rental_uris":{"android":"levelo://app?vid=93beefeb-bae2-44e6-b1e7-4e0bc7c2456a","ios":"levelo://app?vid=93beefeb-bae2-44e6-b1e7-4e0bc7c2456a"},"vehicle_type_id":"4","last_reported":1768328359,"current_range_meters":3200,"station_id":"ce4bgj92rcd13ifvqbe0","pricing_plan_id":"cebpf4jnsgd1na2vs0mg"},{"bike_id":"2dad8955-6910-4131-8def-de70399b7eb8","system_id":"levelo_inurba_marseille","lat":43.29971,"lon":5.37349,"is_reserved":false,"is_disabled":false,"rental_uris":{"android":"levelo://app?vid=2dad8955-6910-4131-8def-de70399b7eb8","ios":"levelo://app?vid=2dad8955-6910-4131-8def-de70399b7eb8"},"vehicle_type_id":"4","last_reported":1768328359,"current_range_meters":3200,"station_id":"","pricing_plan_id":"cebpf4jnsgd1na2vs0mg"},{"bike_id":"24fc37fd-357c-4a91-9e14-c0484892cf8d","system_id":"levelo_inurba_marseille","lat":43.29869,"lon":5.40918,"is_reserved":false,"is_disabled":false,"rental_uris":{"android":"levelo://app?vid=24fc37fd-357c-4a91-9e14-c0484892cf8d","ios":"levelo://app?vid=24fc37fd-357c-4a91-9e14-c0484892cf8d"},"vehicle_type_id":"4","last_reported":1768328359,"current_range_meters":3200,"station_id":"","pricing_plan_id":"cebpf4jnsgd1na2vs0mg"},{"bike_id":"a95f51b4-f0ea-4753-9f15-e2c2ed48d66b","system_id":"levelo_inurba_marseille","lat":43.28552,"lon":5.44078,"is_reserved":false,"is_disabled":false,"rental_uris":{"android":"levelo://app?vid=a95f51b4-f0ea-4753-9f15-e2c2ed48d66b","ios":"levelo://app?vid=a95f51b4-f0ea-4753-9f15-e2c2ed48d66b"},"vehicle_type_id":"4","last_reported":1768328359,"current_range_meters":3200,"station_id":"st_d3j3df2ikq2c7380ej80","pricing_plan_id":"cebpf4jnsgd1na2vs0mg"},{"bike_id":"b1802798-4b17-463d-8002-8c8fb880b367","system_id":"levelo_inurba_marseille","lat":43.24651,"lon":5.38893,"is_reserved":false,"is_disabled":false,"rental_uris":{"android":"levelo://app?vid=b1802798-4b17-463d-8002-8c8fb880b367","ios":"levelo://app?vid=b1802798-4b17-463d-8002-8c8fb880b367"},"vehicle_type_id":"4","last_reported":1768328359,"current_range_meters":3200,"station_id":"ce4bhg12rcd13ifvqf60","pricing_plan_id":"cebpf4jnsgd1na2vs0mg"},{"bike_id":"2cc12c93-d4c2-4ca5-b00b-38f06b9c3e97","system_id":"levelo_inurba_marseille","lat":43.26204,"lon":5.37927,"is_reserved":false,"is_disabled":false,"rental_uris":{"android":"levelo://app?vid=2cc12c93-d4c2-4ca5-b00b-38f06b9c3e97","ios":"levelo://app?vid=2cc12c93-d4c2-4ca5-b00b-38f06b9c3e97"},"vehicle_type_id":"4","last_reported":1768328359,"current_range_meters":3200,"station_id":"ce4bhjp2rcd13ifvqg90","pricing_plan_id":"cebpf4jnsgd1na2vs0mg"},{"bike_id":"73455a44-7d57-4d77-bcda-d7c37d59e819","system_id":"levelo_inurba_marseille","lat":43.28447,"lon":5.35887,"is_reserved":false,"is_disabled":false,"rental_uris":{"android":"levelo://app?vid=73455a44-7d57-4d77-bcda-d7c37d59e819","ios":"levelo://app?vid=73455a44-7d57-4d77-bcda-d7c37d59e819"},"vehicle_type_id":"4","last_reported":1768328359,"current_range_meters":3200,"station_id":"ce4bhah2rcd13ifvqei0","pricing_plan_id":"cebpf4jnsgd1na2vs0mg"},{"bike_id":"a22146b8-4b05-4651-b6b4-a1a63e612e7d","system_id":"levelo_inurba_marseille","lat":43.26062,"lon":5.39397,"is_reserved":false,"is_disabled":false,"rental_uris":{"android":"levelo://app?vid=a22146b8-4b05-4651-b6b4-a1a63e612e7d","ios":"levelo://app?vid=a22146b8-4b05-4651-b6b4-a1a63e612e7d"},"vehicle_type_id":"4","last_reported":1768328359,"current_range_meters":3200,"station_id":"ce4bhh92rcd13ifvqfj0","pricing_plan_id":"cebpf4jnsgd1na2vs0mg"},{"bike_id":"7ec151be-34e4-4456-9017-2d1fd4c02f90","system_id":"levelo_inurba_marseille","lat":43.26581,"lon":5.39008,"is_reserved":false,"is_disabled":false,"rental_uris":{"android":"levelo://app?vid=7ec151be-34e4-4456-9017-2d1fd4c02f90","ios":"levelo://app?vid=7ec151be-34e4-4456-9017-2d1fd4c02f90"},"vehicle_type_id":"4","last_reported":1768328359,"current_range_meters":3200,"station_id":"ce4bhe12rcd13ifvqf30","pricing_plan_id":"cebpf4jnsgd1na2vs0mg"},{"bike_id":"78b5fcef-eb69-4bb9-b995-d031358bd549","system_id":"levelo_inurba_marseille","lat":43.31509,"lon":5.41398,"is_reserved":false,"is_disabled":false,"rental_uris":{"android":"levelo://app?vid=78b5fcef-eb69-4bb9-b995-d031358bd549","ios":"levelo://app?vid=78b5fcef-eb69-4bb9-b995-d031358bd549"},"vehicle_type_id":"4","last_reported":1768328359,"current_range_meters":3200,"station_id":"","pricing_plan_id":"cebpf4jnsgd1na2vs0mg"},{"bike_id":"614a562d-2005-4cf7-9f04-119c8ed3d172","system_id":"levelo_inurba_marseille","lat":43.2929,"lon":5.37252,"is_reserved":false,"is_disabled":false,"rental_uris":{"android":"levelo://app?vid=614a562d-2005-4cf7-9f04-119c8ed3d172","ios":"levelo://app?vid=614a562d-2005-4cf7-9f04-119c8ed3d172"},"vehicle_type_id":"4","last_reported":1768328359,"current_range_meters":3600,"station_id":"","pricing_plan_id":"cebpf4jnsgd1na2vs0mg"},{"bike_id":"4ccf5df6-38fa-46c4-ae58-5671706983df","system_id":"levelo_inurba_marseille","lat":43.32345,"lon":5.36745,"is_reserved":false,"is_disabled":false,"rental_uris":{"android":"levelo://app?vid=4ccf5df6-38fa-46c4-ae58-5671706983df","ios":"levelo://app?vid=4ccf5df6-38fa-46c4-ae58-5671706983df"},"vehicle_type_id":"4","last_reported":1768328359,"current_range_meters":3600,"station_id":"ce4bhsh2rcd13ifvqi2g","pricing_plan_id":"cebpf4jnsgd1na2vs0mg"},{"bike_id":"8da79344-4a94-4a75-9ed3-85feb88e649a","system_id":"levelo_inurba_marseille","lat":43.30489,"lon":5.36547,"is_reserved":false,"is_disabled":false,"rental_uris":{"android":"levelo://app?vid=8da79344-4a94-4a75-9ed3-85feb88e649a","ios":"levelo://app?vid=8da79344-4a94-4a75-9ed3-85feb88e649a"},"vehicle_type_id":"4","last_reported":1768328359,"current_range_meters":3600,"station_id":"","pricing_plan_id":"cebpf4jnsgd1na2vs0mg"},{"bike_id":"829b4dfc-f5b2-4ad0-a42d-896237842994","system_id":"levelo_inurba_marseille","lat":43.28483,"lon":5.48396,"is_reserved":false,"is_disabled":false,"rental_uris":{"android":"levelo://app?vid=829b4dfc-f5b2-4ad0-a42d-896237842994","ios":"levelo://app?vid=829b4dfc-f5b2-4ad0-a42d-896237842994"},"vehicle_type_id":"4","last_reported":1768328359,"current_range_meters":3600,"station_id":"","pricing_plan_id":"cebpf4jnsgd1na2vs0mg"},{"bike_id":"82b87168-267f-432c-a609-70f7b40ac901","system_id":"levelo_inurba_marseille","lat":43.27945,"lon":5.41031,"is_reserved":false,"is_disabled":false,"rental_uris":{"android":"levelo://app?vid=82b87168-267f-432c-a609-70f7b40ac901","ios":"levelo://app?vid=82b87168-267f-432c-a609-70f7b40ac901"},"vehicle_type_id":"4","last_reported":1768328359,"current_range_meters":3600,"station_id":"","pricing_plan_id":"cebpf4jnsgd1na2vs0mg"},{"bike_id":"5cd0348c-c053-42c0-b52c-0fd30637dd40","system_id":"levelo_inurba_marseille","lat":43.29898,"lon":5.37797,"is_reserved":false,"is_disabled":false,"rental_uris":{"android":"levelo://app?vid=5cd0348c-c053-42c0-b52c-0fd30637dd40","ios":"levelo://app?vid=5cd0348c-c053-42c0-b52c-0fd30637dd40"},"vehicle_type_id":"4","last_reported":1768328359,"current_range_meters":3600,"station_id":"","pricing_plan_id":"cebpf4jnsgd1na2vs0mg"},{"bike_id":"98630b74-8807-4e88-bb72-85f3a2fa119b","system_id":"levelo_inurba_marseille","lat":43.29272,"lon":5.36849,"is_reserved":false,"is_disabled":false,"rental_uris":{"android":"levelo://app?vid=98630b74-8807-4e88-bb72-85f3a2fa119b","ios":"levelo://app?vid=98630b74-8807-4e88-bb72-85f3a2fa119b"},"vehicle_type_id":"4","last_reported":1768328359,"current_range_meters":3600,"station_id":"ce4bhbp2rcd13ifvqesg","pricing_plan_id":"cebpf4jnsgd1na2vs0mg"},{"bike_id":"15c1d597-da35-448d-9684-118daf29b5fc","system_id":"levelo_inurba_marseille","lat":43.29868,"lon":5.39737,"is_reserved":false,"is_disabled":false,"rental_uris":{"android":"levelo://app?vid=15c1d597-da35-448d-9684-118daf29b5fc","ios":"levelo://app?vid=15c1d597-da35-448d-9684-118daf29b5fc"},"vehicle_type_id":"4","last_reported":1768328359,"current_range_meters":3600,"station_id":"ce4bh0h2rcd13ifvqd50","pricing_plan_id":"cebpf4jnsgd1na2vs0mg"},{"bike_id":"01945cdd-0088-40c1-b968-9fbb65d75a3a","system_id":"levelo_inurba_marseille","lat":43.32114,"lon":5.36799,"is_reserved":false,"is_disabled":false,"rental_uris":{"android":"levelo://app?vid=01945cdd-0088-40c1-b968-9fbb65d75a3a","ios":"levelo://app?vid=01945cdd-0088-40c1-b968-9fbb65d75a3a"},"vehicle_type_id":"4","last_reported":1768328359,"current_range_meters":3600,"station_id":"ce4bhrh2rcd13ifvqhug","pricing_plan_id":"cebpf4jnsgd1na2vs0mg"},{"bike_id":"053203c3-b50f-44b4-9df5-2a6af082b9e9","system_id":"levelo_inurba_marseille","lat":43.24619,"lon":5.43149,"is_reserved":false,"is_disabled":false,"rental_uris":{"android":"levelo://app?vid=053203c3-b50f-44b4-9df5-2a6af082b9e9","ios":"levelo://app?vid=053203c3-b50f-44b4-9df5-2a6af082b9e9"},"vehicle_type_id":"4","last_reported":1768328359,"current_range_meters":3600,"station_id":"st_d2m6c4gdas8pm72e190g","pricing_plan_id":"cebpf4jnsgd1na2vs0mg"},{"bike_id":"e63df9e0-af8f-4554-a6e1-61250e5af1c1","system_id":"levelo_inurba_marseille","lat":43.23179,"lon":5.39966,"is_reserved":false,"is_disabled":false,"rental_uris":{"android":"levelo://app?vid=e63df9e0-af8f-4554-a6e1-61250e5af1c1","ios":"levelo://app?vid=e63df9e0-af8f-4554-a6e1-61250e5af1c1"},"vehicle_type_id":"4","last_reported":1768328359,"current_range_meters":3600,"station_id":"ce4bhn12rcd13ifvqgqg","pricing_plan_id":"cebpf4jnsgd1na2vs0mg"},{"bike_id":"3230873c-fc31-45b7-9508-aee7786321e1","system_id":"levelo_inurba_marseille","lat":43.3268,"lon":5.39579,"is_reserved":false,"is_disabled":false,"rental_uris":{"android":"levelo://app?vid=3230873c-fc31-45b7-9508-aee7786321e1","ios":"levelo://app?vid=3230873c-fc31-45b7-9508-aee7786321e1"},"vehicle_type_id":"4","last_reported":1768328359,"current_range_meters":3600,"station_id":"","pricing_plan_id":"cebpf4jnsgd1na2vs0mg"},{"bike_id":"d2e92efe-9527-4938-bc6a-630b9b972eac","system_id":"levelo_inurba_marseille","lat":43.2902,"lon":5.38158,"is_reserved":false,"is_disabled":false,"rental_uris":{"android":"levelo://app?vid=d2e92efe-9527-4938-bc6a-630b9b972eac","ios":"levelo://app?vid=d2e92efe-9527-4938-bc6a-630b9b972eac"},"vehicle_type_id":"4","last_reported":1768328359,"current_range_meters":3600,"station_id":"ce4bh4p2rcd13ifvqe1g","pricing_plan_id":"cebpf4jnsgd1na2vs0mg"},{"bike_id":"46152bd7-5aa6-477a-9fcc-6a3940f95a27","system_id":"levelo_inurba_marseille","lat":43.26226,"lon":5.40465,"is_reserved":false,"is_disabled":false,"rental_uris":{"android":"levelo://app?vid=46152bd7-5aa6-477a-9fcc-6a3940f95a27","ios":"levelo://app?vid=46152bd7-5aa6-477a-9fcc-6a3940f95a27"},"vehicle_type_id":"4","last_reported":1768328359,"current_range_meters":3600,"station_id":"ce4bhmh2rcd13ifvqgmg","pricing_plan_id":"cebpf4jnsgd1na2vs0mg"},{"bike_id":"93420a80-8e35-472b-9a22-41b99ae8b801","system_id":"levelo_inurba_marseille","lat":43.2417,"lon":5.36399,"is_reserved":false,"is_disabled":false,"rental_uris":{"android":"levelo://app?vid=93420a80-8e35-472b-9a22-41b99ae8b801","ios":"levelo://app?vid=93420a80-8e35-472b-9a22-41b99ae8b801"},"vehicle_type_id":"4","last_reported":1768328359,"current_range_meters":4000,"station_id":"cpo36qri1sfpv3e86is0","pricing_plan_id":"cebpf4jnsgd1na2vs0mg"},{"bike_id":"91f830b5-135b-4e75-8a53-49de6ef86e8b","system_id":"levelo_inurba_marseille","lat":43.309352,"lon":5.39026,"is_reserved":false,"is_disabled":false,"rental_uris":{"android":"levelo://app?vid=91f830b5-135b-4e75-8a53-49de6ef86e8b","ios":"levelo://app?vid=91f830b5-135b-4e75-8a53-49de6ef86e8b"},"vehicle_type_id":"4","last_reported":1768328359,"current_range_meters":4000,"station_id":"","pricing_plan_id":"cebpf4jnsgd1na2vs0mg"},{"bike_id":"660ea066-19af-45d0-ae13-7b33be1a1641","system_id":"levelo_inurba_marseille","lat":43.279942,"lon":5.400087,"is_reserved":false,"is_disabled":false,"rental_uris":{"android":"levelo://app?vid=660ea066-19af-45d0-ae13-7b33be1a1641","ios":"levelo://app?vid=660ea066-19af-45d0-ae13-7b33be1a1641"},"vehicle_type_id":"4","last_reported":1768328359,"current_range_meters":4000,"station_id":"ce4bho92rcd13ifvqh4g","pricing_plan_id":"cebpf4jnsgd1na2vs0mg"},{"bike_id":"90374415-cbc3-4952-a2cb-bda17d2a3e8f","system_id":"levelo_inurba_marseille","lat":43.31329,"lon":5.38424,"is_reserved":false,"is_disabled":false,"rental_uris":{"android":"levelo://app?vid=90374415-cbc3-4952-a2cb-bda17d2a3e8f","ios":"levelo://app?vid=90374415-cbc3-4952-a2cb-bda17d2a3e8f"},"vehicle_type_id":"4","last_reported":1768328359,"current_range_meters":4000,"station_id":"","pricing_plan_id":"cebpf4jnsgd1na2vs0mg"},{"bike_id":"348a7616-c475-4feb-93b6-e7e3eba9b2e9","system_id":"levelo_inurba_marseille","lat":43.24999,"lon":5.38944,"is_reserved":false,"is_disabled":false,"rental_uris":{"android":"levelo://app?vid=348a7616-c475-4feb-93b6-e7e3eba9b2e9","ios":"levelo://app?vid=348a7616-c475-4feb-93b6-e7e3eba9b2e9"},"vehicle_type_id":"4","last_reported":1768328359,"current_range_meters":4000,"station_id":"ce4bhgp2rcd13ifvqfd0","pricing_plan_id":"cebpf4jnsgd1na2vs0mg"},{"bike_id":"bb9e447c-9f2c-4eac-97ae-dbc9ecef5238","system_id":"levelo_inurba_marseille","lat":43.30265,"lon":5.40082,"is_reserved":false,"is_disabled":false,"rental_uris":{"android":"levelo://app?vid=bb9e447c-9f2c-4eac-97ae-dbc9ecef5238","ios":"levelo://app?vid=bb9e447c-9f2c-4eac-97ae-dbc9ecef5238"},"vehicle_type_id":"4","last_reported":1768328359,"current_range_meters":4000,"station_id":"ce4bgvh2rcd13ifvqcs0","pricing_plan_id":"cebpf4jnsgd1na2vs0mg"},{"bike_id":"533cb83c-e8dd-42bc-9375-30430a43b393","system_id":"levelo_inurba_marseille","lat":43.25513,"lon":5.3766,"is_reserved":false,"is_disabled":false,"rental_uris":{"android":"levelo://app?vid=533cb83c-e8dd-42bc-9375-30430a43b393","ios":"levelo://app?vid=533cb83c-e8dd-42bc-9375-30430a43b393"},"vehicle_type_id":"4","last_reported":1768328359,"current_range_meters":4000,"station_id":"ce4bhh12rcd13ifvqff0","pricing_plan_id":"cebpf4jnsgd1na2vs0mg"},{"bike_id":"e64b15d3-8e26-4e3e-9fbc-a68c4db2b86e","system_id":"levelo_inurba_marseille","lat":43.30784,"lon":5.37649,"is_reserved":false,"is_disabled":false,"rental_uris":{"android":"levelo://app?vid=e64b15d3-8e26-4e3e-9fbc-a68c4db2b86e","ios":"levelo://app?vid=e64b15d3-8e26-4e3e-9fbc-a68c4db2b86e"},"vehicle_type_id":"4","last_reported":1768328359,"current_range_meters":4000,"station_id":"ce4bgv92rcd13ifvqcq0","pricing_plan_id":"cebpf4jnsgd1na2vs0mg"},{"bike_id":"b3365a79-4e93-4ced-801f-9c3754c77da0","system_id":"levelo_inurba_marseille","lat":43.24388,"lon":5.37085,"is_reserved":false,"is_disabled":false,"rental_uris":{"android":"levelo://app?vid=b3365a79-4e93-4ced-801f-9c3754c77da0","ios":"levelo://app?vid=b3365a79-4e93-4ced-801f-9c3754c77da0"},"vehicle_type_id":"4","last_reported":1768328359,"current_range_meters":4000,"station_id":"ce4bhhh2rcd13ifvqfk0","pricing_plan_id":"cebpf4jnsgd1na2vs0mg"},{"bike_id":"1621444e-17e7-4c3c-bee0-067ccd01ec41","system_id":"levelo_inurba_marseille","lat":43.281605,"lon":5.426486,"is_reserved":false,"is_disabled":false,"rental_uris":{"android":"levelo://app?vid=1621444e-17e7-4c3c-bee0-067ccd01ec41","ios":"levelo://app?vid=1621444e-17e7-4c3c-bee0-067ccd01ec41"},"vehicle_type_id":"4","last_reported":1768328359,"current_range_meters":4000,"station_id":"","pricing_plan_id":"cebpf4jnsgd1na2vs0mg"},{"bike_id":"d4303ae3-b545-4cab-b8be-e17096953c04","system_id":"levelo_inurba_marseille","lat":43.30137,"lon":5.37412,"is_reserved":false,"is_disabled":false,"rental_uris":{"android":"levelo://app?vid=d4303ae3-b545-4cab-b8be-e17096953c04","ios":"levelo://app?vid=d4303ae3-b545-4cab-b8be-e17096953c04"},"vehicle_type_id":"4","last_reported":1768328359,"current_range_meters":4000,"station_id":"ce4bgs92rcd13ifvqcc0","pricing_plan_id":"cebpf4jnsgd1na2vs0mg"},{"bike_id":"7f393bed-36d8-402f-8cf3-7aa44c1a4f71","system_id":"levelo_inurba_marseille","lat":43.28408,"lon":5.37513,"is_reserved":false,"is_disabled":false,"rental_uris":{"android":"levelo://app?vid=7f393bed-36d8-402f-8cf3-7aa44c1a4f71","ios":"levelo://app?vid=7f393bed-36d8-402f-8cf3-7aa44c1a4f71"},"vehicle_type_id":"4","last_reported":1768328359,"current_range_meters":4000,"station_id":"ce4bh412rcd13ifvqds0","pricing_plan_id":"cebpf4jnsgd1na2vs0mg"},{"bike_id":"50d6cb25-e8c5-49dd-88b4-e56e19cdc111","system_id":"levelo_inurba_marseille","lat":43.29037,"lon":5.37111,"is_reserved":false,"is_disabled":false,"rental_uris":{"android":"levelo://app?vid=50d6cb25-e8c5-49dd-88b4-e56e19cdc111","ios":"levelo://app?vid=50d6cb25-e8c5-49dd-88b4-e56e19cdc111"},"vehicle_type_id":"4","last_reported":1768328359,"current_range_meters":4000,"station_id":"","pricing_plan_id":"cebpf4jnsgd1na2vs0mg"},{"bike_id":"77648d21-2eba-4733-a182-ee140dc2d61a","system_id":"levelo_inurba_marseille","lat":43.2319,"lon":5.35533,"is_reserved":false,"is_disabled":false,"rental_uris":{"android":"levelo://app?vid=77648d21-2eba-4733-a182-ee140dc2d61a","ios":"levelo://app?vid=77648d21-2eba-4733-a182-ee140dc2d61a"},"vehicle_type_id":"4","last_reported":1768328359,"current_range_meters":4000,"station_id":"ce4bhu92rcd13ifvqi70","pricing_plan_id":"cebpf4jnsgd1na2vs0mg"},{"bike_id":"e550fc9a-3d68-4b17-9669-6894900f7416","system_id":"levelo_inurba_marseille","lat":43.30657,"lon":5.40513,"is_reserved":false,"is_disabled":false,"rental_uris":{"android":"levelo://app?vid=e550fc9a-3d68-4b17-9669-6894900f7416","ios":"levelo://app?vid=e550fc9a-3d68-4b17-9669-6894900f7416"},"vehicle_type_id":"4","last_reported":1768328359,"current_range_meters":4000,"station_id":"ce4bh112rcd13ifvqda0","pricing_plan_id":"cebpf4jnsgd1na2vs0mg"},{"bike_id":"fcc631d1-df94-4f25-9fad-22f1bede125e","system_id":"levelo_inurba_marseille","lat":43.28539,"lon":5.44091,"is_reserved":false,"is_disabled":false,"rental_uris":{"android":"levelo://app?vid=fcc631d1-df94-4f25-9fad-22f1bede125e","ios":"levelo://app?vid=fcc631d1-df94-4f25-9fad-22f1bede125e"},"vehicle_type_id":"4","last_reported":1768328359,"current_range_meters":4000,"station_id":"st_d3j3df2ikq2c7380ej80","pricing_plan_id":"cebpf4jnsgd1na2vs0mg"},{"bike_id":"484a8652-481a-49bd-a0a3-60699b3c94ac","system_id":"levelo_inurba_marseille","lat":43.299832,"lon":5.384928,"is_reserved":false,"is_disabled":false,"rental_uris":{"android":"levelo://app?vid=484a8652-481a-49bd-a0a3-60699b3c94ac","ios":"levelo://app?vid=484a8652-481a-49bd-a0a3-60699b3c94ac"},"vehicle_type_id":"4","last_reported":1768328359,"current_range_meters":4400,"station_id":"ce4bgj92rcd13ifvqbd0","pricing_plan_id":"cebpf4jnsgd1na2vs0mg"},{"bike_id":"71f98371-40da-44b4-917c-a4ea0d96e2fa","system_id":"levelo_inurba_marseille","lat":43.27562,"lon":5.38445,"is_reserved":false,"is_disabled":false,"rental_uris":{"android":"levelo://app?vid=71f98371-40da-44b4-917c-a4ea0d96e2fa","ios":"levelo://app?vid=71f98371-40da-44b4-917c-a4ea0d96e2fa"},"vehicle_type_id":"4","last_reported":1768328359,"current_range_meters":4400,"station_id":"ce4bhh92rcd13ifvqfi0","pricing_plan_id":"cebpf4jnsgd1na2vs0mg"},{"bike_id":"5ad52785-0823-41c2-87b5-2779a76f0e53","system_id":"levelo_inurba_marseille","lat":43.24612,"lon":5.38353,"is_reserved":false,"is_disabled":false,"rental_uris":{"android":"levelo://app?vid=5ad52785-0823-41c2-87b5-2779a76f0e53","ios":"levelo://app?vid=5ad52785-0823-41c2-87b5-2779a76f0e53"},"vehicle_type_id":"4","last_reported":1768328359,"current_range_meters":4400,"station_id":"","pricing_plan_id":"cebpf4jnsgd1na2vs0mg"},{"bike_id":"c7abc581-c1e2-4eb4-888d-9d1cf33dbdd8","system_id":"levelo_inurba_marseille","lat":43.25087,"lon":5.39518,"is_reserved":false,"is_disabled":false,"rental_uris":{"android":"levelo://app?vid=c7abc581-c1e2-4eb4-888d-9d1cf33dbdd8","ios":"levelo://app?vid=c7abc581-c1e2-4eb4-888d-9d1cf33dbdd8"},"vehicle_type_id":"4","last_reported":1768328359,"current_range_meters":4400,"station_id":"ce4bhm12rcd13ifvqgkg","pricing_plan_id":"cebpf4jnsgd1na2vs0mg"},{"bike_id":"0e8bf274-4e41-43de-a66e-ca34f84c602e","system_id":"levelo_inurba_marseille","lat":43.23963,"lon":5.36623,"is_reserved":false,"is_disabled":false,"rental_uris":{"android":"levelo://app?vid=0e8bf274-4e41-43de-a66e-ca34f84c602e","ios":"levelo://app?vid=0e8bf274-4e41-43de-a66e-ca34f84c602e"},"vehicle_type_id":"4","last_reported":1768328359,"current_range_meters":4400,"station_id":"ce4bhi12rcd13ifvqfp0","pricing_plan_id":"cebpf4jnsgd1na2vs0mg"},{"bike_id":"49fb4306-865f-432a-9d22-e1e65c507334","system_id":"levelo_inurba_marseille","lat":43.29537,"lon":5.38547,"is_reserved":false,"is_disabled":false,"rental_uris":{"android":"levelo://app?vid=49fb4306-865f-432a-9d22-e1e65c507334","ios":"levelo://app?vid=49fb4306-865f-432a-9d22-e1e65c507334"},"vehicle_type_id":"4","last_reported":1768328359,"current_range_meters":4400,"station_id":"ce4bgih2rcd13ifvqba0","pricing_plan_id":"cebpf4jnsgd1na2vs0mg"},{"bike_id":"c99e908e-7a32-4d1f-800f-603e38b74fa5","system_id":"levelo_inurba_marseille","lat":43.241593,"lon":5.364043,"is_reserved":false,"is_disabled":false,"rental_uris":{"android":"levelo://app?vid=c99e908e-7a32-4d1f-800f-603e38b74fa5","ios":"levelo://app?vid=c99e908e-7a32-4d1f-800f-603e38b74fa5"},"vehicle_type_id":"4","last_reported":1768328359,"current_range_meters":4400,"station_id":"cpo36qri1sfpv3e86is0","pricing_plan_id":"cebpf4jnsgd1na2vs0mg"},{"bike_id":"5b8302cb-d6a5-4483-b477-0ec5d1c212e3","system_id":"levelo_inurba_marseille","lat":43.25589,"lon":5.38233,"is_reserved":false,"is_disabled":false,"rental_uris":{"android":"levelo://app?vid=5b8302cb-d6a5-4483-b477-0ec5d1c212e3","ios":"levelo://app?vid=5b8302cb-d6a5-4483-b477-0ec5d1c212e3"},"vehicle_type_id":"4","last_reported":1768328359,"current_range_meters":4400,"station_id":"ce4bhih2rcd13ifvqfs0","pricing_plan_id":"cebpf4jnsgd1na2vs0mg"},{"bike_id":"b7b6875f-47aa-4d6f-a704-bd2688711af4","system_id":"levelo_inurba_marseille","lat":43.2705,"lon":5.40258,"is_reserved":false,"is_disabled":false,"rental_uris":{"android":"levelo://app?vid=b7b6875f-47aa-4d6f-a704-bd2688711af4","ios":"levelo://app?vid=b7b6875f-47aa-4d6f-a704-bd2688711af4"},"vehicle_type_id":"4","last_reported":1768328359,"current_range_meters":4400,"station_id":"ce4bhk92rcd13ifvqgc0","pricing_plan_id":"cebpf4jnsgd1na2vs0mg"},{"bike_id":"8fa37cf4-7248-45db-ae74-7b22fc3e8f3b","system_id":"levelo_inurba_marseille","lat":43.29626,"lon":5.40587,"is_reserved":false,"is_disabled":false,"rental_uris":{"android":"levelo://app?vid=8fa37cf4-7248-45db-ae74-7b22fc3e8f3b","ios":"levelo://app?vid=8fa37cf4-7248-45db-ae74-7b22fc3e8f3b"},"vehicle_type_id":"4","last_reported":1768328359,"current_range_meters":4400,"station_id":"ce4bh0h2rcd13ifvqd60","pricing_plan_id":"cebpf4jnsgd1na2vs0mg"},{"bike_id":"d4f3bd37-a943-479b-98c1-66fc15a01b59","system_id":"levelo_inurba_marseille","lat":43.32352,"lon":5.36723,"is_reserved":false,"is_disabled":false,"rental_uris":{"android":"levelo://app?vid=d4f3bd37-a943-479b-98c1-66fc15a01b59","ios":"levelo://app?vid=d4f3bd37-a943-479b-98c1-66fc15a01b59"},"vehicle_type_id":"4","last_reported":1768328359,"current_range_meters":4400,"station_id":"ce4bhsh2rcd13ifvqi2g","pricing_plan_id":"cebpf4jnsgd1na2vs0mg"},{"bike_id":"066c6ede-2e00-4b82-b8c4-c24bdc063f22","system_id":"levelo_inurba_marseille","lat":43.23842,"lon":5.36647,"is_reserved":false,"is_disabled":false,"rental_uris":{"android":"levelo://app?vid=066c6ede-2e00-4b82-b8c4-c24bdc063f22","ios":"levelo://app?vid=066c6ede-2e00-4b82-b8c4-c24bdc063f22"},"vehicle_type_id":"4","last_reported":1768328359,"current_range_meters":4400,"station_id":"","pricing_plan_id":"cebpf4jnsgd1na2vs0mg"},{"bike_id":"ad0e3090-597f-4b37-926c-f745c3cb835b","system_id":"levelo_inurba_marseille","lat":43.27994,"lon":5.40004,"is_reserved":false,"is_disabled":false,"rental_uris":{"android":"levelo://app?vid=ad0e3090-597f-4b37-926c-f745c3cb835b","ios":"levelo://app?vid=ad0e3090-597f-4b37-926c-f745c3cb835b"},"vehicle_type_id":"4","last_reported":1768328359,"current_range_meters":4400,"station_id":"ce4bho92rcd13ifvqh4g","pricing_plan_id":"cebpf4jnsgd1na2vs0mg"},{"bike_id":"d926f6df-bb6d-4c22-9c30-1d92a2769c5e","system_id":"levelo_inurba_marseille","lat":43.22933,"lon":5.35386,"is_reserved":false,"is_disabled":false,"rental_uris":{"android":"levelo://app?vid=d926f6df-bb6d-4c22-9c30-1d92a2769c5e","ios":"levelo://app?vid=d926f6df-bb6d-4c22-9c30-1d92a2769c5e"},"vehicle_type_id":"4","last_reported":1768328359,"current_range_meters":4400,"station_id":"cpo3532slgdg3j2ikp40","pricing_plan_id":"cebpf4jnsgd1na2vs0mg"},{"bike_id":"598c8e98-9d5d-4430-a8fa-3760d11d1e8b","system_id":"levelo_inurba_marseille","lat":43.2924,"lon":5.36057,"is_reserved":false,"is_disabled":false,"rental_uris":{"android":"levelo://app?vid=598c8e98-9d5d-4430-a8fa-3760d11d1e8b","ios":"levelo://app?vid=598c8e98-9d5d-4430-a8fa-3760d11d1e8b"},"vehicle_type_id":"4","last_reported":1768328359,"current_range_meters":4400,"station_id":"ce4bhbh2rcd13ifvqeqg","pricing_plan_id":"cebpf4jnsgd1na2vs0mg"},{"bike_id":"79b7d26a-b25b-4eba-9216-03c39302c739","system_id":"levelo_inurba_marseille","lat":43.26951,"lon":5.4027,"is_reserved":false,"is_disabled":false,"rental_uris":{"android":"levelo://app?vid=79b7d26a-b25b-4eba-9216-03c39302c739","ios":"levelo://app?vid=79b7d26a-b25b-4eba-9216-03c39302c739"},"vehicle_type_id":"4","last_reported":1768328359,"current_range_meters":4400,"station_id":"cjm6bp8fraef2m0cb0m0","pricing_plan_id":"cebpf4jnsgd1na2vs0mg"},{"bike_id":"6aac1802-5991-407d-b832-a098c55fa036","system_id":"levelo_inurba_marseille","lat":43.30413,"lon":5.38889,"is_reserved":false,"is_disabled":false,"rental_uris":{"android":"levelo://app?vid=6aac1802-5991-407d-b832-a098c55fa036","ios":"levelo://app?vid=6aac1802-5991-407d-b832-a098c55fa036"},"vehicle_type_id":"4","last_reported":1768328359,"current_range_meters":4400,"station_id":"ce4bgk12rcd13ifvqbi0","pricing_plan_id":"cebpf4jnsgd1na2vs0mg"},{"bike_id":"cd122465-4bd8-4111-a501-746f52ad2f74","system_id":"levelo_inurba_marseille","lat":43.25484,"lon":5.37693,"is_reserved":false,"is_disabled":false,"rental_uris":{"android":"levelo://app?vid=cd122465-4bd8-4111-a501-746f52ad2f74","ios":"levelo://app?vid=cd122465-4bd8-4111-a501-746f52ad2f74"},"vehicle_type_id":"4","last_reported":1768328359,"current_range_meters":4400,"station_id":"ce4bhh12rcd13ifvqff0","pricing_plan_id":"cebpf4jnsgd1na2vs0mg"},{"bike_id":"84df128e-6b04-4c38-8a90-8476a838a43a","system_id":"levelo_inurba_marseille","lat":43.28162,"lon":5.42644,"is_reserved":false,"is_disabled":false,"rental_uris":{"android":"levelo://app?vid=84df128e-6b04-4c38-8a90-8476a838a43a","ios":"levelo://app?vid=84df128e-6b04-4c38-8a90-8476a838a43a"},"vehicle_type_id":"4","last_reported":1768328359,"current_range_meters":4400,"station_id":"ce4bhnh2rcd13ifvqgug","pricing_plan_id":"cebpf4jnsgd1na2vs0mg"},{"bike_id":"affed72c-cd8c-45cc-a144-46145cf4b5be","system_id":"levelo_inurba_marseille","lat":43.22568,"lon":5.41631,"is_reserved":false,"is_disabled":false,"rental_uris":{"android":"levelo://app?vid=affed72c-cd8c-45cc-a144-46145cf4b5be","ios":"levelo://app?vid=affed72c-cd8c-45cc-a144-46145cf4b5be"},"vehicle_type_id":"4","last_reported":1768328359,"current_range_meters":4400,"station_id":"st_d2o4gvlbi1j2169b742g","pricing_plan_id":"cebpf4jnsgd1na2vs0mg"},{"bike_id":"e5104f30-0e90-4f22-8c18-b760d2036175","system_id":"levelo_inurba_marseille","lat":43.28413,"lon":5.37524,"is_reserved":false,"is_disabled":false,"rental_uris":{"android":"levelo://app?vid=e5104f30-0e90-4f22-8c18-b760d2036175","ios":"levelo://app?vid=e5104f30-0e90-4f22-8c18-b760d2036175"},"vehicle_type_id":"4","last_reported":1768328359,"current_range_meters":4800,"station_id":"ce4bh412rcd13ifvqds0","pricing_plan_id":"cebpf4jnsgd1na2vs0mg"},{"bike_id":"957cb636-bc48-4b50-840f-bd4f72ba1cbd","system_id":"levelo_inurba_marseille","lat":43.30551,"lon":5.3654,"is_reserved":false,"is_disabled":false,"rental_uris":{"android":"levelo://app?vid=957cb636-bc48-4b50-840f-bd4f72ba1cbd","ios":"levelo://app?vid=957cb636-bc48-4b50-840f-bd4f72ba1cbd"},"vehicle_type_id":"4","last_reported":1768328359,"current_range_meters":4800,"station_id":"ce4bgs12rcd13ifvqcag","pricing_plan_id":"cebpf4jnsgd1na2vs0mg"},{"bike_id":"f34ce2e5-33b6-4187-bd26-bd7acd5eae89","system_id":"levelo_inurba_marseille","lat":43.26558,"lon":5.37292,"is_reserved":false,"is_disabled":false,"rental_uris":{"android":"levelo://app?vid=f34ce2e5-33b6-4187-bd26-bd7acd5eae89","ios":"levelo://app?vid=f34ce2e5-33b6-4187-bd26-bd7acd5eae89"},"vehicle_type_id":"4","last_reported":1768328359,"current_range_meters":4800,"station_id":"ce4bhg12rcd13ifvqf70","pricing_plan_id":"cebpf4jnsgd1na2vs0mg"},{"bike_id":"8ccd8fe6-d1da-4b90-9c6d-fb640d0c2618","system_id":"levelo_inurba_marseille","lat":43.2926,"lon":5.38434,"is_reserved":false,"is_disabled":false,"rental_uris":{"android":"levelo://app?vid=8ccd8fe6-d1da-4b90-9c6d-fb640d0c2618","ios":"levelo://app?vid=8ccd8fe6-d1da-4b90-9c6d-fb640d0c2618"},"vehicle_type_id":"4","last_reported":1768328359,"current_range_meters":4800,"station_id":"ce4bh692rcd13ifvqea0","pricing_plan_id":"cebpf4jnsgd1na2vs0mg"},{"bike_id":"4763dffb-4781-44e6-a6eb-0462db44ff27","system_id":"levelo_inurba_marseille","lat":43.31049,"lon":5.37176,"is_reserved":false,"is_disabled":false,"rental_uris":{"android":"levelo://app?vid=4763dffb-4781-44e6-a6eb-0462db44ff27","ios":"levelo://app?vid=4763dffb-4781-44e6-a6eb-0462db44ff27"},"vehicle_type_id":"4","last_reported":1768328359,"current_range_meters":4800,"station_id":"st_d4kl2rp97mjs73e7tdfg","pricing_plan_id":"cebpf4jnsgd1na2vs0mg"},{"bike_id":"c3f40cdd-b686-46d7-8860-c953d0d9d257","system_id":"levelo_inurba_marseille","lat":43.28482,"lon":5.38408,"is_reserved":false,"is_disabled":false,"rental_uris":{"android":"levelo://app?vid=c3f40cdd-b686-46d7-8860-c953d0d9d257","ios":"levelo://app?vid=c3f40cdd-b686-46d7-8860-c953d0d9d257"},"vehicle_type_id":"4","last_reported":1768328359,"current_range_meters":4800,"station_id":"ce4bh512rcd13ifvqe3g","pricing_plan_id":"cebpf4jnsgd1na2vs0mg"},{"bike_id":"20a9aac7-5f21-407c-9582-b4295f08f600","system_id":"levelo_inurba_marseille","lat":43.27812,"lon":5.40721,"is_reserved":false,"is_disabled":false,"rental_uris":{"android":"levelo://app?vid=20a9aac7-5f21-407c-9582-b4295f08f600","ios":"levelo://app?vid=20a9aac7-5f21-407c-9582-b4295f08f600"},"vehicle_type_id":"4","last_reported":1768328359,"current_range_meters":4800,"station_id":"ce4bhnh2rcd13ifvqgtg","pricing_plan_id":"cebpf4jnsgd1na2vs0mg"},{"bike_id":"390b814d-a9b7-4ecc-8bd3-fe77e7e9d459","system_id":"levelo_inurba_marseille","lat":43.30798,"lon":5.38121,"is_reserved":false,"is_disabled":false,"rental_uris":{"android":"levelo://app?vid=390b814d-a9b7-4ecc-8bd3-fe77e7e9d459","ios":"levelo://app?vid=390b814d-a9b7-4ecc-8bd3-fe77e7e9d459"},"vehicle_type_id":"4","last_reported":1768328359,"current_range_meters":4800,"station_id":"ce4bgt12rcd13ifvqce0","pricing_plan_id":"cebpf4jnsgd1na2vs0mg"},{"bike_id":"3c91a548-2cc3-4705-ab80-5230129be485","system_id":"levelo_inurba_marseille","lat":43.29831,"lon":5.37655,"is_reserved":false,"is_disabled":false,"rental_uris":{"android":"levelo://app?vid=3c91a548-2cc3-4705-ab80-5230129be485","ios":"levelo://app?vid=3c91a548-2cc3-4705-ab80-5230129be485"},"vehicle_type_id":"4","last_reported":1768328359,"current_range_meters":4800,"station_id":"","pricing_plan_id":"cebpf4jnsgd1na2vs0mg"},{"bike_id":"9e3f8b43-110a-4683-808c-c8bd643c9f41","system_id":"levelo_inurba_marseille","lat":43.24161,"lon":5.36396,"is_reserved":false,"is_disabled":false,"rental_uris":{"android":"levelo://app?vid=9e3f8b43-110a-4683-808c-c8bd643c9f41","ios":"levelo://app?vid=9e3f8b43-110a-4683-808c-c8bd643c9f41"},"vehicle_type_id":"4","last_reported":1768328359,"current_range_meters":4800,"station_id":"cpo36qri1sfpv3e86is0","pricing_plan_id":"cebpf4jnsgd1na2vs0mg"},{"bike_id":"46176179-a00d-401c-94b5-1c9d9288d47b","system_id":"levelo_inurba_marseille","lat":43.27362,"lon":5.3626,"is_reserved":false,"is_disabled":false,"rental_uris":{"android":"levelo://app?vid=46176179-a00d-401c-94b5-1c9d9288d47b","ios":"levelo://app?vid=46176179-a00d-401c-94b5-1c9d9288d47b"},"vehicle_type_id":"4","last_reported":1768328359,"current_range_meters":4800,"station_id":"ce4bhbh2rcd13ifvqeo0","pricing_plan_id":"cebpf4jnsgd1na2vs0mg"},{"bike_id":"ba7654d7-92e8-4e9b-a5b9-8f820e72ab5d","system_id":"levelo_inurba_marseille","lat":43.32346,"lon":5.36753,"is_reserved":false,"is_disabled":false,"rental_uris":{"android":"levelo://app?vid=ba7654d7-92e8-4e9b-a5b9-8f820e72ab5d","ios":"levelo://app?vid=ba7654d7-92e8-4e9b-a5b9-8f820e72ab5d"},"vehicle_type_id":"4","last_reported":1768328359,"current_range_meters":5600,"station_id":"ce4bhsh2rcd13ifvqi2g","pricing_plan_id":"cebpf4jnsgd1na2vs0mg"},{"bike_id":"173e874a-bef3-47f8-8f65-3e423bb125d3","system_id":"levelo_inurba_marseille","lat":43.25921,"lon":5.40867,"is_reserved":false,"is_disabled":false,"rental_uris":{"android":"levelo://app?vid=173e874a-bef3-47f8-8f65-3e423bb125d3","ios":"levelo://app?vid=173e874a-bef3-47f8-8f65-3e423bb125d3"},"vehicle_type_id":"4","last_reported":1768328359,"current_range_meters":5600,"station_id":"ce4bhm92rcd13ifvqglg","pricing_plan_id":"cebpf4jnsgd1na2vs0mg"},{"bike_id":"020e1e7c-7b3c-4c34-a61d-12f1d28c074e","system_id":"levelo_inurba_marseille","lat":43.28729,"lon":5.37895,"is_reserved":false,"is_disabled":false,"rental_uris":{"android":"levelo://app?vid=020e1e7c-7b3c-4c34-a61d-12f1d28c074e","ios":"levelo://app?vid=020e1e7c-7b3c-4c34-a61d-12f1d28c074e"},"vehicle_type_id":"4","last_reported":1768328359,"current_range_meters":5600,"station_id":"ce4bh9p2rcd13ifvqec0","pricing_plan_id":"cebpf4jnsgd1na2vs0mg"},{"bike_id":"5af3242c-9133-4734-9374-77f1f4f62acf","system_id":"levelo_inurba_marseille","lat":43.2416,"lon":5.36422,"is_reserved":false,"is_disabled":false,"rental_uris":{"android":"levelo://app?vid=5af3242c-9133-4734-9374-77f1f4f62acf","ios":"levelo://app?vid=5af3242c-9133-4734-9374-77f1f4f62acf"},"vehicle_type_id":"4","last_reported":1768328359,"current_range_meters":5600,"station_id":"cpo36qri1sfpv3e86is0","pricing_plan_id":"cebpf4jnsgd1na2vs0mg"},{"bike_id":"8e7f418e-6696-446e-9d90-df6eec612aef","system_id":"levelo_inurba_marseille","lat":43.27309,"lon":5.39128,"is_reserved":false,"is_disabled":false,"rental_uris":{"android":"levelo://app?vid=8e7f418e-6696-446e-9d90-df6eec612aef","ios":"levelo://app?vid=8e7f418e-6696-446e-9d90-df6eec612aef"},"vehicle_type_id":"4","last_reported":1768328359,"current_range_meters":5600,"station_id":"ce4bhgp2rcd13ifvqfe0","pricing_plan_id":"cebpf4jnsgd1na2vs0mg"},{"bike_id":"f5d19579-dfd3-4245-9a3c-40f0995461f4","system_id":"levelo_inurba_marseille","lat":43.32343,"lon":5.36718,"is_reserved":false,"is_disabled":false,"rental_uris":{"android":"levelo://app?vid=f5d19579-dfd3-4245-9a3c-40f0995461f4","ios":"levelo://app?vid=f5d19579-dfd3-4245-9a3c-40f0995461f4"},"vehicle_type_id":"4","last_reported":1768328359,"current_range_meters":5600,"station_id":"ce4bhsh2rcd13ifvqi2g","pricing_plan_id":"cebpf4jnsgd1na2vs0mg"},{"bike_id":"8a7b85d3-c7d2-4196-b1ab-690364287dcf","system_id":"levelo_inurba_marseille","lat":43.31291,"lon":5.36733,"is_reserved":false,"is_disabled":false,"rental_uris":{"android":"levelo://app?vid=8a7b85d3-c7d2-4196-b1ab-690364287dcf","ios":"levelo://app?vid=8a7b85d3-c7d2-4196-b1ab-690364287dcf"},"vehicle_type_id":"4","last_reported":1768328359,"current_range_meters":5600,"station_id":"","pricing_plan_id":"cebpf4jnsgd1na2vs0mg"},{"bike_id":"bf1ed8ba-261f-4b27-99bf-e883bc0fd445","system_id":"levelo_inurba_marseille","lat":43.25336,"lon":5.42166,"is_reserved":false,"is_disabled":false,"rental_uris":{"android":"levelo://app?vid=bf1ed8ba-261f-4b27-99bf-e883bc0fd445","ios":"levelo://app?vid=bf1ed8ba-261f-4b27-99bf-e883bc0fd445"},"vehicle_type_id":"4","last_reported":1768328359,"current_range_meters":5600,"station_id":"st_d2m65c5bi1j21697t3ng","pricing_plan_id":"cebpf4jnsgd1na2vs0mg"},{"bike_id":"a0ffd216-f3e6-4a47-8965-98b2dc3c3d76","system_id":"levelo_inurba_marseille","lat":43.2446,"lon":5.42538,"is_reserved":false,"is_disabled":false,"rental_uris":{"android":"levelo://app?vid=a0ffd216-f3e6-4a47-8965-98b2dc3c3d76","ios":"levelo://app?vid=a0ffd216-f3e6-4a47-8965-98b2dc3c3d76"},"vehicle_type_id":"4","last_reported":1768328359,"current_range_meters":5600,"station_id":"st_d4a3vfp97mjs738cd8kg","pricing_plan_id":"cebpf4jnsgd1na2vs0mg"},{"bike_id":"aa568904-72f1-4bc8-8b86-38b3e31e8f62","system_id":"levelo_inurba_marseille","lat":43.26929,"lon":5.39361,"is_reserved":false,"is_disabled":false,"rental_uris":{"android":"levelo://app?vid=aa568904-72f1-4bc8-8b86-38b3e31e8f62","ios":"levelo://app?vid=aa568904-72f1-4bc8-8b86-38b3e31e8f62"},"vehicle_type_id":"4","last_reported":1768328359,"current_range_meters":5600,"station_id":"","pricing_plan_id":"cebpf4jnsgd1na2vs0mg"},{"bike_id":"383b2479-4503-401f-93ed-feb22cd6912e","system_id":"levelo_inurba_marseille","lat":43.24176,"lon":5.36381,"is_reserved":false,"is_disabled":false,"rental_uris":{"android":"levelo://app?vid=383b2479-4503-401f-93ed-feb22cd6912e","ios":"levelo://app?vid=383b2479-4503-401f-93ed-feb22cd6912e"},"vehicle_type_id":"4","last_reported":1768328359,"current_range_meters":5600,"station_id":"cpo36qri1sfpv3e86is0","pricing_plan_id":"cebpf4jnsgd1na2vs0mg"},{"bike_id":"dd19e9c1-5960-4ffe-b7cb-e6afcd8da926","system_id":"levelo_inurba_marseille","lat":43.30115,"lon":5.37427,"is_reserved":false,"is_disabled":false,"rental_uris":{"android":"levelo://app?vid=dd19e9c1-5960-4ffe-b7cb-e6afcd8da926","ios":"levelo://app?vid=dd19e9c1-5960-4ffe-b7cb-e6afcd8da926"},"vehicle_type_id":"4","last_reported":1768328359,"current_range_meters":5600,"station_id":"ce4bgs92rcd13ifvqcc0","pricing_plan_id":"cebpf4jnsgd1na2vs0mg"},{"bike_id":"4c171aec-60f9-4710-8657-317b51a39b9e","system_id":"levelo_inurba_marseille","lat":43.323451,"lon":5.367273,"is_reserved":false,"is_disabled":false,"rental_uris":{"android":"levelo://app?vid=4c171aec-60f9-4710-8657-317b51a39b9e","ios":"levelo://app?vid=4c171aec-60f9-4710-8657-317b51a39b9e"},"vehicle_type_id":"4","last_reported":1768328359,"current_range_meters":5600,"station_id":"ce4bhsh2rcd13ifvqi2g","pricing_plan_id":"cebpf4jnsgd1na2vs0mg"},{"bike_id":"04ec84f1-706e-4524-95a4-7d82b4caa1ab","system_id":"levelo_inurba_marseille","lat":43.29482,"lon":5.4332,"is_reserved":false,"is_disabled":false,"rental_uris":{"android":"levelo://app?vid=04ec84f1-706e-4524-95a4-7d82b4caa1ab","ios":"levelo://app?vid=04ec84f1-706e-4524-95a4-7d82b4caa1ab"},"vehicle_type_id":"4","last_reported":1768328359,"current_range_meters":6000,"station_id":"st_d3j5ugp08ojc73fj9d10","pricing_plan_id":"cebpf4jnsgd1na2vs0mg"},{"bike_id":"48395e8e-6aaf-45af-8e4f-2e84f998f576","system_id":"levelo_inurba_marseille","lat":43.31636,"lon":5.38298,"is_reserved":false,"is_disabled":false,"rental_uris":{"android":"levelo://app?vid=48395e8e-6aaf-45af-8e4f-2e84f998f576","ios":"levelo://app?vid=48395e8e-6aaf-45af-8e4f-2e84f998f576"},"vehicle_type_id":"4","last_reported":1768328359,"current_range_meters":6000,"station_id":"","pricing_plan_id":"cebpf4jnsgd1na2vs0mg"},{"bike_id":"91dbe188-56c8-4fce-a414-d6e43ed9eb6b","system_id":"levelo_inurba_marseille","lat":43.26694,"lon":5.39943,"is_reserved":false,"is_disabled":false,"rental_uris":{"android":"levelo://app?vid=91dbe188-56c8-4fce-a414-d6e43ed9eb6b","ios":"levelo://app?vid=91dbe188-56c8-4fce-a414-d6e43ed9eb6b"},"vehicle_type_id":"4","last_reported":1768328359,"current_range_meters":6000,"station_id":"","pricing_plan_id":"cebpf4jnsgd1na2vs0mg"},{"bike_id":"b7892a70-5f83-4107-a2a7-638e77c743b4","system_id":"levelo_inurba_marseille","lat":43.28437,"lon":5.39195,"is_reserved":false,"is_disabled":false,"rental_uris":{"android":"levelo://app?vid=b7892a70-5f83-4107-a2a7-638e77c743b4","ios":"levelo://app?vid=b7892a70-5f83-4107-a2a7-638e77c743b4"},"vehicle_type_id":"4","last_reported":1768328359,"current_range_meters":6000,"station_id":"ce4bhoh2rcd13ifvqh5g","pricing_plan_id":"cebpf4jnsgd1na2vs0mg"},{"bike_id":"98cd0d14-7485-4569-bf09-26efd05d5e14","system_id":"levelo_inurba_marseille","lat":43.28497,"lon":5.38531,"is_reserved":false,"is_disabled":false,"rental_uris":{"android":"levelo://app?vid=98cd0d14-7485-4569-bf09-26efd05d5e14","ios":"levelo://app?vid=98cd0d14-7485-4569-bf09-26efd05d5e14"},"vehicle_type_id":"4","last_reported":1768328359,"current_range_meters":6000,"station_id":"ce4bh8p2rcd13ifvqeb0","pricing_plan_id":"cebpf4jnsgd1na2vs0mg"},{"bike_id":"479d04b3-091e-4637-ab2f-f901b6f36a36","system_id":"levelo_inurba_marseille","lat":43.24164,"lon":5.36403,"is_reserved":false,"is_disabled":false,"rental_uris":{"android":"levelo://app?vid=479d04b3-091e-4637-ab2f-f901b6f36a36","ios":"levelo://app?vid=479d04b3-091e-4637-ab2f-f901b6f36a36"},"vehicle_type_id":"4","last_reported":1768328359,"current_range_meters":6000,"station_id":"cpo36qri1sfpv3e86is0","pricing_plan_id":"cebpf4jnsgd1na2vs0mg"},{"bike_id":"abcd74ad-91b3-4bfb-baff-2442ed322096","system_id":"levelo_inurba_marseille","lat":43.315151,"lon":5.380328,"is_reserved":false,"is_disabled":false,"rental_uris":{"android":"levelo://app?vid=abcd74ad-91b3-4bfb-baff-2442ed322096","ios":"levelo://app?vid=abcd74ad-91b3-4bfb-baff-2442ed322096"},"vehicle_type_id":"4","last_reported":1768328359,"current_range_meters":6000,"station_id":"ce4bghh2rcd13ifvqb60","pricing_plan_id":"cebpf4jnsgd1na2vs0mg"},{"bike_id":"dedc092e-5a64-44c2-8d92-91df13a8a88e","system_id":"levelo_inurba_marseille","lat":43.278099,"lon":5.4072,"is_reserved":false,"is_disabled":false,"rental_uris":{"android":"levelo://app?vid=dedc092e-5a64-44c2-8d92-91df13a8a88e","ios":"levelo://app?vid=dedc092e-5a64-44c2-8d92-91df13a8a88e"},"vehicle_type_id":"4","last_reported":1768328359,"current_range_meters":6000,"station_id":"ce4bhnh2rcd13ifvqgtg","pricing_plan_id":"cebpf4jnsgd1na2vs0mg"},{"bike_id":"30857576-aa64-45f3-90ca-084e25281726","system_id":"levelo_inurba_marseille","lat":43.28661,"lon":5.36348,"is_reserved":false,"is_disabled":false,"rental_uris":{"android":"levelo://app?vid=30857576-aa64-45f3-90ca-084e25281726","ios":"levelo://app?vid=30857576-aa64-45f3-90ca-084e25281726"},"vehicle_type_id":"4","last_reported":1768328359,"current_range_meters":6000,"station_id":"ce4bhah2rcd13ifvqej0","pricing_plan_id":"cebpf4jnsgd1na2vs0mg"},{"bike_id":"b8af16a7-cbd4-461a-84d0-84389b8a661d","system_id":"levelo_inurba_marseille","lat":43.317617,"lon":5.376294,"is_reserved":false,"is_disabled":false,"rental_uris":{"android":"levelo://app?vid=b8af16a7-cbd4-461a-84d0-84389b8a661d","ios":"levelo://app?vid=b8af16a7-cbd4-461a-84d0-84389b8a661d"},"vehicle_type_id":"4","last_reported":1768328359,"current_range_meters":6000,"station_id":"ce4bgth2rcd13ifvqch0","pricing_plan_id":"cebpf4jnsgd1na2vs0mg"},{"bike_id":"00ecf178-30a7-43b8-9a77-5308a08cf29e","system_id":"levelo_inurba_marseille","lat":43.24949,"lon":5.40498,"is_reserved":false,"is_disabled":false,"rental_uris":{"android":"levelo://app?vid=00ecf178-30a7-43b8-9a77-5308a08cf29e","ios":"levelo://app?vid=00ecf178-30a7-43b8-9a77-5308a08cf29e"},"vehicle_type_id":"4","last_reported":1768328359,"current_range_meters":6000,"station_id":"st_d2ngiaodas8pm72gd1h0","pricing_plan_id":"cebpf4jnsgd1na2vs0mg"},{"bike_id":"5f559d1c-e9b8-4811-89ed-fd4590972019","system_id":"levelo_inurba_marseille","lat":43.28852,"lon":5.35843,"is_reserved":false,"is_disabled":false,"rental_uris":{"android":"levelo://app?vid=5f559d1c-e9b8-4811-89ed-fd4590972019","ios":"levelo://app?vid=5f559d1c-e9b8-4811-89ed-fd4590972019"},"vehicle_type_id":"4","last_reported":1768328359,"current_range_meters":6000,"station_id":"ce4bhb12rcd13ifvqem0","pricing_plan_id":"cebpf4jnsgd1na2vs0mg"},{"bike_id":"f7edb647-926c-4dfc-a318-e14c8ce272fc","system_id":"levelo_inurba_marseille","lat":43.30548,"lon":5.3652,"is_reserved":false,"is_disabled":false,"rental_uris":{"android":"levelo://app?vid=f7edb647-926c-4dfc-a318-e14c8ce272fc","ios":"levelo://app?vid=f7edb647-926c-4dfc-a318-e14c8ce272fc"},"vehicle_type_id":"4","last_reported":1768328359,"current_range_meters":6000,"station_id":"ce4bgs12rcd13ifvqcag","pricing_plan_id":"cebpf4jnsgd1na2vs0mg"},{"bike_id":"b0591438-4f8b-458b-95d3-396e832bb098","system_id":"levelo_inurba_marseille","lat":43.2255,"lon":5.41627,"is_reserved":false,"is_disabled":false,"rental_uris":{"android":"levelo://app?vid=b0591438-4f8b-458b-95d3-396e832bb098","ios":"levelo://app?vid=b0591438-4f8b-458b-95d3-396e832bb098"},"vehicle_type_id":"4","last_reported":1768328359,"current_range_meters":6000,"station_id":"st_d2o4gvlbi1j2169b742g","pricing_plan_id":"cebpf4jnsgd1na2vs0mg"},{"bike_id":"4c68eacc-2d63-41f4-bcd0-18cc9a25ae57","system_id":"levelo_inurba_marseille","lat":43.24158,"lon":5.36414,"is_reserved":false,"is_disabled":false,"rental_uris":{"android":"levelo://app?vid=4c68eacc-2d63-41f4-bcd0-18cc9a25ae57","ios":"levelo://app?vid=4c68eacc-2d63-41f4-bcd0-18cc9a25ae57"},"vehicle_type_id":"4","last_reported":1768328359,"current_range_meters":6000,"station_id":"cpo36qri1sfpv3e86is0","pricing_plan_id":"cebpf4jnsgd1na2vs0mg"},{"bike_id":"9bf5e46b-0a86-4fe5-a650-b7c3674e19e4","system_id":"levelo_inurba_marseille","lat":43.301406,"lon":5.374222,"is_reserved":false,"is_disabled":false,"rental_uris":{"android":"levelo://app?vid=9bf5e46b-0a86-4fe5-a650-b7c3674e19e4","ios":"levelo://app?vid=9bf5e46b-0a86-4fe5-a650-b7c3674e19e4"},"vehicle_type_id":"4","last_reported":1768328359,"current_range_meters":6000,"station_id":"ce4bhbh2rcd13ifvqeo0","pricing_plan_id":"cebpf4jnsgd1na2vs0mg"},{"bike_id":"3baba2c0-4f24-4a38-b8ab-5c34d0caf874","system_id":"levelo_inurba_marseille","lat":43.30878,"lon":5.396357,"is_reserved":false,"is_disabled":false,"rental_uris":{"android":"levelo://app?vid=3baba2c0-4f24-4a38-b8ab-5c34d0caf874","ios":"levelo://app?vid=3baba2c0-4f24-4a38-b8ab-5c34d0caf874"},"vehicle_type_id":"4","last_reported":1768328359,"current_range_meters":6000,"station_id":"ce4bh012rcd13ifvqcv0","pricing_plan_id":"cebpf4jnsgd1na2vs0mg"},{"bike_id":"bee2231a-aedd-4f8a-ae11-883f123d575e","system_id":"levelo_inurba_marseille","lat":43.31221,"lon":5.38168,"is_reserved":false,"is_disabled":false,"rental_uris":{"android":"levelo://app?vid=bee2231a-aedd-4f8a-ae11-883f123d575e","ios":"levelo://app?vid=bee2231a-aedd-4f8a-ae11-883f123d575e"},"vehicle_type_id":"4","last_reported":1768328359,"current_range_meters":6000,"station_id":"","pricing_plan_id":"cebpf4jnsgd1na2vs0mg"},{"bike_id":"a2d976b2-4930-45bf-896b-10cb61922490","system_id":"levelo_inurba_marseille","lat":43.231896,"lon":5.355609,"is_reserved":false,"is_disabled":false,"rental_uris":{"android":"levelo://app?vid=a2d976b2-4930-45bf-896b-10cb61922490","ios":"levelo://app?vid=a2d976b2-4930-45bf-896b-10cb61922490"},"vehicle_type_id":"4","last_reported":1768328359,"current_range_meters":6000,"station_id":"ce4bhu92rcd13ifvqi70","pricing_plan_id":"cebpf4jnsgd1na2vs0mg"},{"bike_id":"e81eb905-09b1-4753-bb4f-8434dc51b91d","system_id":"levelo_inurba_marseille","lat":43.26935,"lon":5.40257,"is_reserved":false,"is_disabled":false,"rental_uris":{"android":"levelo://app?vid=e81eb905-09b1-4753-bb4f-8434dc51b91d","ios":"levelo://app?vid=e81eb905-09b1-4753-bb4f-8434dc51b91d"},"vehicle_type_id":"4","last_reported":1768328359,"current_range_meters":6400,"station_id":"cjm6bp8fraef2m0cb0m0","pricing_plan_id":"cebpf4jnsgd1na2vs0mg"},{"bike_id":"e2178e60-43ce-428a-92df-da6b04879e3a","system_id":"levelo_inurba_marseille","lat":43.299612,"lon":5.384737,"is_reserved":false,"is_disabled":false,"rental_uris":{"android":"levelo://app?vid=e2178e60-43ce-428a-92df-da6b04879e3a","ios":"levelo://app?vid=e2178e60-43ce-428a-92df-da6b04879e3a"},"vehicle_type_id":"4","last_reported":1768328359,"current_range_meters":6400,"station_id":"","pricing_plan_id":"cebpf4jnsgd1na2vs0mg"},{"bike_id":"9af6439d-78fa-4b0d-a1a0-dc05ff49244a","system_id":"levelo_inurba_marseille","lat":43.23789,"lon":5.366373,"is_reserved":false,"is_disabled":false,"rental_uris":{"android":"levelo://app?vid=9af6439d-78fa-4b0d-a1a0-dc05ff49244a","ios":"levelo://app?vid=9af6439d-78fa-4b0d-a1a0-dc05ff49244a"},"vehicle_type_id":"4","last_reported":1768328359,"current_range_meters":6400,"station_id":"st_d3nk18o9ro0c73en2l3g","pricing_plan_id":"cebpf4jnsgd1na2vs0mg"},{"bike_id":"3db0fcf7-9abc-4be1-b3b7-ce569865437a","system_id":"levelo_inurba_marseille","lat":43.2495,"lon":5.40488,"is_reserved":false,"is_disabled":false,"rental_uris":{"android":"levelo://app?vid=3db0fcf7-9abc-4be1-b3b7-ce569865437a","ios":"levelo://app?vid=3db0fcf7-9abc-4be1-b3b7-ce569865437a"},"vehicle_type_id":"4","last_reported":1768328359,"current_range_meters":6400,"station_id":"st_d2ngiaodas8pm72gd1h0","pricing_plan_id":"cebpf4jnsgd1na2vs0mg"},{"bike_id":"674485da-6375-4a1e-850b-d935815daaad","system_id":"levelo_inurba_marseille","lat":43.23793,"lon":5.36616,"is_reserved":false,"is_disabled":false,"rental_uris":{"android":"levelo://app?vid=674485da-6375-4a1e-850b-d935815daaad","ios":"levelo://app?vid=674485da-6375-4a1e-850b-d935815daaad"},"vehicle_type_id":"4","last_reported":1768328359,"current_range_meters":6400,"station_id":"st_d3nk18o9ro0c73en2l3g","pricing_plan_id":"cebpf4jnsgd1na2vs0mg"},{"bike_id":"08dfb275-c36f-4c4d-8c62-4ebc79c6539a","system_id":"levelo_inurba_marseille","lat":43.29265,"lon":5.38448,"is_reserved":false,"is_disabled":false,"rental_uris":{"android":"levelo://app?vid=08dfb275-c36f-4c4d-8c62-4ebc79c6539a","ios":"levelo://app?vid=08dfb275-c36f-4c4d-8c62-4ebc79c6539a"},"vehicle_type_id":"4","last_reported":1768328359,"current_range_meters":6400,"station_id":"ce4bh692rcd13ifvqea0","pricing_plan_id":"cebpf4jnsgd1na2vs0mg"},{"bike_id":"c1346155-4b64-43a2-9ef6-6578e61f3c33","system_id":"levelo_inurba_marseille","lat":43.28346,"lon":5.381,"is_reserved":false,"is_disabled":false,"rental_uris":{"android":"levelo://app?vid=c1346155-4b64-43a2-9ef6-6578e61f3c33","ios":"levelo://app?vid=c1346155-4b64-43a2-9ef6-6578e61f3c33"},"vehicle_type_id":"4","last_reported":1768328359,"current_range_meters":6400,"station_id":"ce4bh412rcd13ifvqdr0","pricing_plan_id":"cebpf4jnsgd1na2vs0mg"},{"bike_id":"35361d4e-38f0-417d-a5fe-17895b791255","system_id":"levelo_inurba_marseille","lat":43.28007,"lon":5.40005,"is_reserved":false,"is_disabled":false,"rental_uris":{"android":"levelo://app?vid=35361d4e-38f0-417d-a5fe-17895b791255","ios":"levelo://app?vid=35361d4e-38f0-417d-a5fe-17895b791255"},"vehicle_type_id":"4","last_reported":1768328359,"current_range_meters":6400,"station_id":"ce4bho92rcd13ifvqh4g","pricing_plan_id":"cebpf4jnsgd1na2vs0mg"},{"bike_id":"a0ed72f1-dc59-432b-8e70-da903904b93f","system_id":"levelo_inurba_marseille","lat":43.27068,"lon":5.42275,"is_reserved":false,"is_disabled":false,"rental_uris":{"android":"levelo://app?vid=a0ed72f1-dc59-432b-8e70-da903904b93f","ios":"levelo://app?vid=a0ed72f1-dc59-432b-8e70-da903904b93f"},"vehicle_type_id":"4","last_reported":1768328359,"current_range_meters":6400,"station_id":"ce4bhk92rcd13ifvqgb0","pricing_plan_id":"cebpf4jnsgd1na2vs0mg"},{"bike_id":"16c7b47c-1eab-4239-bccd-3bf24c17b031","system_id":"levelo_inurba_marseille","lat":43.29274,"lon":5.38432,"is_reserved":false,"is_disabled":false,"rental_uris":{"android":"levelo://app?vid=16c7b47c-1eab-4239-bccd-3bf24c17b031","ios":"levelo://app?vid=16c7b47c-1eab-4239-bccd-3bf24c17b031"},"vehicle_type_id":"4","last_reported":1768328359,"current_range_meters":6400,"station_id":"ce4bh692rcd13ifvqea0","pricing_plan_id":"cebpf4jnsgd1na2vs0mg"},{"bike_id":"36406dc4-d4db-42ea-9e54-90825aaf3b0b","system_id":"levelo_inurba_marseille","lat":43.25337,"lon":5.42178,"is_reserved":false,"is_disabled":false,"rental_uris":{"android":"levelo://app?vid=36406dc4-d4db-42ea-9e54-90825aaf3b0b","ios":"levelo://app?vid=36406dc4-d4db-42ea-9e54-90825aaf3b0b"},"vehicle_type_id":"4","last_reported":1768328359,"current_range_meters":6400,"station_id":"st_d2m65c5bi1j21697t3ng","pricing_plan_id":"cebpf4jnsgd1na2vs0mg"},{"bike_id":"cb7af7b5-a138-4db4-a330-74ad640aa6ec","system_id":"levelo_inurba_marseille","lat":43.27814,"lon":5.40706,"is_reserved":false,"is_disabled":false,"rental_uris":{"android":"levelo://app?vid=cb7af7b5-a138-4db4-a330-74ad640aa6ec","ios":"levelo://app?vid=cb7af7b5-a138-4db4-a330-74ad640aa6ec"},"vehicle_type_id":"4","last_reported":1768328359,"current_range_meters":6400,"station_id":"ce4bhnh2rcd13ifvqgtg","pricing_plan_id":"cebpf4jnsgd1na2vs0mg"},{"bike_id":"877508b3-9095-4431-8056-dd6da7db4ee4","system_id":"levelo_inurba_marseille","lat":43.28535,"lon":5.44089,"is_reserved":false,"is_disabled":false,"rental_uris":{"android":"levelo://app?vid=877508b3-9095-4431-8056-dd6da7db4ee4","ios":"levelo://app?vid=877508b3-9095-4431-8056-dd6da7db4ee4"},"vehicle_type_id":"4","last_reported":1768328359,"current_range_meters":6400,"station_id":"st_d3j3df2ikq2c7380ej80","pricing_plan_id":"cebpf4jnsgd1na2vs0mg"},{"bike_id":"435db267-3d15-44f5-8420-37d50b585844","system_id":"levelo_inurba_marseille","lat":43.29686,"lon":5.37278,"is_reserved":false,"is_disabled":false,"rental_uris":{"android":"levelo://app?vid=435db267-3d15-44f5-8420-37d50b585844","ios":"levelo://app?vid=435db267-3d15-44f5-8420-37d50b585844"},"vehicle_type_id":"4","last_reported":1768328359,"current_range_meters":6400,"station_id":"ce4bgk12rcd13ifvqbj0","pricing_plan_id":"cebpf4jnsgd1na2vs0mg"},{"bike_id":"6f340d65-8a96-4245-a37f-c84a4e9a1d07","system_id":"levelo_inurba_marseille","lat":43.32416,"lon":5.36711,"is_reserved":false,"is_disabled":false,"rental_uris":{"android":"levelo://app?vid=6f340d65-8a96-4245-a37f-c84a4e9a1d07","ios":"levelo://app?vid=6f340d65-8a96-4245-a37f-c84a4e9a1d07"},"vehicle_type_id":"4","last_reported":1768328359,"current_range_meters":6400,"station_id":"ce4bhsh2rcd13ifvqi2g","pricing_plan_id":"cebpf4jnsgd1na2vs0mg"},{"bike_id":"4027d1cb-ad1c-45a8-bf1d-57fe43f8c304","system_id":"levelo_inurba_marseille","lat":43.28983,"lon":5.39045,"is_reserved":false,"is_disabled":false,"rental_uris":{"android":"levelo://app?vid=4027d1cb-ad1c-45a8-bf1d-57fe43f8c304","ios":"levelo://app?vid=4027d1cb-ad1c-45a8-bf1d-57fe43f8c304"},"vehicle_type_id":"4","last_reported":1768328359,"current_range_meters":6400,"station_id":"","pricing_plan_id":"cebpf4jnsgd1na2vs0mg"},{"bike_id":"d97e0ede-3940-40ea-9e91-339dcd403227","system_id":"levelo_inurba_marseille","lat":43.25725,"lon":5.41107,"is_reserved":false,"is_disabled":false,"rental_uris":{"android":"levelo://app?vid=d97e0ede-3940-40ea-9e91-339dcd403227","ios":"levelo://app?vid=d97e0ede-3940-40ea-9e91-339dcd403227"},"vehicle_type_id":"4","last_reported":1768328359,"current_range_meters":6400,"station_id":"ce4bhkp2rcd13ifvqgd0","pricing_plan_id":"cebpf4jnsgd1na2vs0mg"},{"bike_id":"35849305-954b-4864-bd14-c9f086ede345","system_id":"levelo_inurba_marseille","lat":43.282683,"lon":5.350497,"is_reserved":false,"is_disabled":false,"rental_uris":{"android":"levelo://app?vid=35849305-954b-4864-bd14-c9f086ede345","ios":"levelo://app?vid=35849305-954b-4864-bd14-c9f086ede345"},"vehicle_type_id":"4","last_reported":1768328359,"current_range_meters":6400,"station_id":"ce4bhbp2rcd13ifvqerg","pricing_plan_id":"cebpf4jnsgd1na2vs0mg"},{"bike_id":"e46a3aaf-af2f-42d7-b03a-3879170b20d2","system_id":"levelo_inurba_marseille","lat":43.28349,"lon":5.381,"is_reserved":false,"is_disabled":false,"rental_uris":{"android":"levelo://app?vid=e46a3aaf-af2f-42d7-b03a-3879170b20d2","ios":"levelo://app?vid=e46a3aaf-af2f-42d7-b03a-3879170b20d2"},"vehicle_type_id":"4","last_reported":1768328359,"current_range_meters":6400,"station_id":"ce4bh412rcd13ifvqdr0","pricing_plan_id":"cebpf4jnsgd1na2vs0mg"},{"bike_id":"d2555695-7aa5-4bb5-9dac-815c0d8b9f76","system_id":"levelo_inurba_marseille","lat":43.299449,"lon":5.365463,"is_reserved":false,"is_disabled":false,"rental_uris":{"android":"levelo://app?vid=d2555695-7aa5-4bb5-9dac-815c0d8b9f76","ios":"levelo://app?vid=d2555695-7aa5-4bb5-9dac-815c0d8b9f76"},"vehicle_type_id":"4","last_reported":1768328359,"current_range_meters":6400,"station_id":"ce4bgm92rcd13ifvqbr0","pricing_plan_id":"cebpf4jnsgd1na2vs0mg"},{"bike_id":"b18ac3c9-14e5-4efa-9da9-02ee070d0040","system_id":"levelo_inurba_marseille","lat":43.308833,"lon":5.396378,"is_reserved":false,"is_disabled":false,"rental_uris":{"android":"levelo://app?vid=b18ac3c9-14e5-4efa-9da9-02ee070d0040","ios":"levelo://app?vid=b18ac3c9-14e5-4efa-9da9-02ee070d0040"},"vehicle_type_id":"4","last_reported":1768328359,"current_range_meters":6400,"station_id":"ce4bh012rcd13ifvqcv0","pricing_plan_id":"cebpf4jnsgd1na2vs0mg"},{"bike_id":"f44e7fc0-57ad-4c5c-87c8-d57ce9d37a8a","system_id":"levelo_inurba_marseille","lat":43.261897,"lon":5.374504,"is_reserved":false,"is_disabled":false,"rental_uris":{"android":"levelo://app?vid=f44e7fc0-57ad-4c5c-87c8-d57ce9d37a8a","ios":"levelo://app?vid=f44e7fc0-57ad-4c5c-87c8-d57ce9d37a8a"},"vehicle_type_id":"4","last_reported":1768328359,"current_range_meters":6400,"station_id":"ce4bhgp2rcd13ifvqfc0","pricing_plan_id":"cebpf4jnsgd1na2vs0mg"},{"bike_id":"0c4529d2-9a4f-4a24-adad-ec9494efd665","system_id":"levelo_inurba_marseille","lat":43.29762,"lon":5.42777,"is_reserved":false,"is_disabled":false,"rental_uris":{"android":"levelo://app?vid=0c4529d2-9a4f-4a24-adad-ec9494efd665","ios":"levelo://app?vid=0c4529d2-9a4f-4a24-adad-ec9494efd665"},"vehicle_type_id":"4","last_reported":1768328359,"current_range_meters":6800,"station_id":"st_d3md5207bmas73dh9klg","pricing_plan_id":"cebpf4jnsgd1na2vs0mg"},{"bike_id":"ffcf206e-2a6e-4fc2-8998-7e22064b3e4e","system_id":"levelo_inurba_marseille","lat":43.295294,"lon":5.385488,"is_reserved":false,"is_disabled":false,"rental_uris":{"android":"levelo://app?vid=ffcf206e-2a6e-4fc2-8998-7e22064b3e4e","ios":"levelo://app?vid=ffcf206e-2a6e-4fc2-8998-7e22064b3e4e"},"vehicle_type_id":"4","last_reported":1768328359,"current_range_meters":6800,"station_id":"ce4bgih2rcd13ifvqba0","pricing_plan_id":"cebpf4jnsgd1na2vs0mg"},{"bike_id":"941e813b-e02b-40b3-ae8f-a703ceabdb30","system_id":"levelo_inurba_marseille","lat":43.27755,"lon":5.38877,"is_reserved":false,"is_disabled":false,"rental_uris":{"android":"levelo://app?vid=941e813b-e02b-40b3-ae8f-a703ceabdb30","ios":"levelo://app?vid=941e813b-e02b-40b3-ae8f-a703ceabdb30"},"vehicle_type_id":"4","last_reported":1768328359,"current_range_meters":6800,"station_id":"","pricing_plan_id":"cebpf4jnsgd1na2vs0mg"},{"bike_id":"da31b8c0-f03e-4839-bbe5-c97cf087cea4","system_id":"levelo_inurba_marseille","lat":43.27677,"lon":5.38923,"is_reserved":false,"is_disabled":false,"rental_uris":{"android":"levelo://app?vid=da31b8c0-f03e-4839-bbe5-c97cf087cea4","ios":"levelo://app?vid=da31b8c0-f03e-4839-bbe5-c97cf087cea4"},"vehicle_type_id":"4","last_reported":1768328359,"current_range_meters":6800,"station_id":"ce4bhi12rcd13ifvqfo0","pricing_plan_id":"cebpf4jnsgd1na2vs0mg"},{"bike_id":"34809879-5c78-46b9-8640-8f0f333de3ff","system_id":"levelo_inurba_marseille","lat":43.23192,"lon":5.39978,"is_reserved":false,"is_disabled":false,"rental_uris":{"android":"levelo://app?vid=34809879-5c78-46b9-8640-8f0f333de3ff","ios":"levelo://app?vid=34809879-5c78-46b9-8640-8f0f333de3ff"},"vehicle_type_id":"4","last_reported":1768328359,"current_range_meters":6800,"station_id":"ce4bhn12rcd13ifvqgqg","pricing_plan_id":"cebpf4jnsgd1na2vs0mg"},{"bike_id":"cafe9508-7db5-496a-a0cd-bcd349231be5","system_id":"levelo_inurba_marseille","lat":43.255123,"lon":5.376567,"is_reserved":false,"is_disabled":false,"rental_uris":{"android":"levelo://app?vid=cafe9508-7db5-496a-a0cd-bcd349231be5","ios":"levelo://app?vid=cafe9508-7db5-496a-a0cd-bcd349231be5"},"vehicle_type_id":"4","last_reported":1768328359,"current_range_meters":6800,"station_id":"ce4bhh12rcd13ifvqff0","pricing_plan_id":"cebpf4jnsgd1na2vs0mg"},{"bike_id":"6688a629-7822-4dde-a1b1-aa24df94d1e6","system_id":"levelo_inurba_marseille","lat":43.31341,"lon":5.36716,"is_reserved":false,"is_disabled":true,"rental_uris":{"android":"levelo://app?vid=6688a629-7822-4dde-a1b1-aa24df94d1e6","ios":"levelo://app?vid=6688a629-7822-4dde-a1b1-aa24df94d1e6"},"vehicle_type_id":"4","last_reported":1768328359,"current_range_meters":6800,"station_id":"ce4bgr92rcd13ifvqc6g","pricing_plan_id":"cebpf4jnsgd1na2vs0mg"},{"bike_id":"af70d5d8-cc8e-41b6-9eb9-8713fe60ffd1","system_id":"levelo_inurba_marseille","lat":43.24996,"lon":5.38937,"is_reserved":false,"is_disabled":false,"rental_uris":{"android":"levelo://app?vid=af70d5d8-cc8e-41b6-9eb9-8713fe60ffd1","ios":"levelo://app?vid=af70d5d8-cc8e-41b6-9eb9-8713fe60ffd1"},"vehicle_type_id":"4","last_reported":1768328359,"current_range_meters":6800,"station_id":"ce4bhgp2rcd13ifvqfd0","pricing_plan_id":"cebpf4jnsgd1na2vs0mg"},{"bike_id":"b945bd28-a3b4-4961-a0bf-743fe57cc1a5","system_id":"levelo_inurba_marseille","lat":43.29894,"lon":5.4366,"is_reserved":false,"is_disabled":false,"rental_uris":{"android":"levelo://app?vid=b945bd28-a3b4-4961-a0bf-743fe57cc1a5","ios":"levelo://app?vid=b945bd28-a3b4-4961-a0bf-743fe57cc1a5"},"vehicle_type_id":"4","last_reported":1768328359,"current_range_meters":6800,"station_id":"ce4bhpp2rcd13ifvqhfg","pricing_plan_id":"cebpf4jnsgd1na2vs0mg"},{"bike_id":"237139e5-7cf5-40f4-8479-c845f3ba6a43","system_id":"levelo_inurba_marseille","lat":43.29466,"lon":5.38677,"is_reserved":false,"is_disabled":false,"rental_uris":{"android":"levelo://app?vid=237139e5-7cf5-40f4-8479-c845f3ba6a43","ios":"levelo://app?vid=237139e5-7cf5-40f4-8479-c845f3ba6a43"},"vehicle_type_id":"4","last_reported":1768328359,"current_range_meters":6800,"station_id":"","pricing_plan_id":"cebpf4jnsgd1na2vs0mg"},{"bike_id":"6ca88b20-2344-4ccf-bb87-b4afbdfb8f0a","system_id":"levelo_inurba_marseille","lat":43.29527,"lon":5.38548,"is_reserved":false,"is_disabled":false,"rental_uris":{"android":"levelo://app?vid=6ca88b20-2344-4ccf-bb87-b4afbdfb8f0a","ios":"levelo://app?vid=6ca88b20-2344-4ccf-bb87-b4afbdfb8f0a"},"vehicle_type_id":"4","last_reported":1768328359,"current_range_meters":6800,"station_id":"ce4bgih2rcd13ifvqba0","pricing_plan_id":"cebpf4jnsgd1na2vs0mg"},{"bike_id":"0b7fcce3-5957-4ba3-a942-4767ab10e88d","system_id":"levelo_inurba_marseille","lat":43.30136,"lon":5.39858,"is_reserved":false,"is_disabled":false,"rental_uris":{"android":"levelo://app?vid=0b7fcce3-5957-4ba3-a942-4767ab10e88d","ios":"levelo://app?vid=0b7fcce3-5957-4ba3-a942-4767ab10e88d"},"vehicle_type_id":"4","last_reported":1768328359,"current_range_meters":6800,"station_id":"ce4bh0h2rcd13ifvqd40","pricing_plan_id":"cebpf4jnsgd1na2vs0mg"},{"bike_id":"37f478a4-02ba-45f2-a4d6-fdcdc6b39bc8","system_id":"levelo_inurba_marseille","lat":43.28825,"lon":5.42636,"is_reserved":false,"is_disabled":false,"rental_uris":{"android":"levelo://app?vid=37f478a4-02ba-45f2-a4d6-fdcdc6b39bc8","ios":"levelo://app?vid=37f478a4-02ba-45f2-a4d6-fdcdc6b39bc8"},"vehicle_type_id":"4","last_reported":1768328359,"current_range_meters":6800,"station_id":"","pricing_plan_id":"cebpf4jnsgd1na2vs0mg"},{"bike_id":"39becb68-37d2-4fe5-af83-65d5813b987b","system_id":"levelo_inurba_marseille","lat":43.32524,"lon":5.36877,"is_reserved":false,"is_disabled":false,"rental_uris":{"android":"levelo://app?vid=39becb68-37d2-4fe5-af83-65d5813b987b","ios":"levelo://app?vid=39becb68-37d2-4fe5-af83-65d5813b987b"},"vehicle_type_id":"4","last_reported":1768328359,"current_range_meters":6800,"station_id":"","pricing_plan_id":"cebpf4jnsgd1na2vs0mg"},{"bike_id":"b9a0ebcc-8629-4adc-901d-9fd78ae1ce5e","system_id":"levelo_inurba_marseille","lat":43.292886,"lon":5.401098,"is_reserved":false,"is_disabled":false,"rental_uris":{"android":"levelo://app?vid=b9a0ebcc-8629-4adc-901d-9fd78ae1ce5e","ios":"levelo://app?vid=b9a0ebcc-8629-4adc-901d-9fd78ae1ce5e"},"vehicle_type_id":"4","last_reported":1768328359,"current_range_meters":6800,"station_id":"ce4bh312rcd13ifvqdk0","pricing_plan_id":"cebpf4jnsgd1na2vs0mg"},{"bike_id":"abef1457-2c7f-4b2b-98cd-bb4b5da694eb","system_id":"levelo_inurba_marseille","lat":43.31767,"lon":5.39013,"is_reserved":false,"is_disabled":false,"rental_uris":{"android":"levelo://app?vid=abef1457-2c7f-4b2b-98cd-bb4b5da694eb","ios":"levelo://app?vid=abef1457-2c7f-4b2b-98cd-bb4b5da694eb"},"vehicle_type_id":"4","last_reported":1768328359,"current_range_meters":6800,"station_id":"ce4bhqp2rcd13ifvqhng","pricing_plan_id":"cebpf4jnsgd1na2vs0mg"},{"bike_id":"c85dd203-e1ff-4853-a536-a50f24821caf","system_id":"levelo_inurba_marseille","lat":43.28921,"lon":5.36385,"is_reserved":false,"is_disabled":false,"rental_uris":{"android":"levelo://app?vid=c85dd203-e1ff-4853-a536-a50f24821caf","ios":"levelo://app?vid=c85dd203-e1ff-4853-a536-a50f24821caf"},"vehicle_type_id":"4","last_reported":1768328359,"current_range_meters":6800,"station_id":"ce4bhc92rcd13ifvqetg","pricing_plan_id":"cebpf4jnsgd1na2vs0mg"},{"bike_id":"d12a5c37-df8a-440d-b99b-49d121d9a484","system_id":"levelo_inurba_marseille","lat":43.22932,"lon":5.35384,"is_reserved":false,"is_disabled":false,"rental_uris":{"android":"levelo://app?vid=d12a5c37-df8a-440d-b99b-49d121d9a484","ios":"levelo://app?vid=d12a5c37-df8a-440d-b99b-49d121d9a484"},"vehicle_type_id":"4","last_reported":1768328359,"current_range_meters":6800,"station_id":"cpo3532slgdg3j2ikp40","pricing_plan_id":"cebpf4jnsgd1na2vs0mg"},{"bike_id":"47b3e6b5-e9f6-42fe-8f31-dfb69d76cf69","system_id":"levelo_inurba_marseille","lat":43.25117,"lon":5.40321,"is_reserved":false,"is_disabled":false,"rental_uris":{"android":"levelo://app?vid=47b3e6b5-e9f6-42fe-8f31-dfb69d76cf69","ios":"levelo://app?vid=47b3e6b5-e9f6-42fe-8f31-dfb69d76cf69"},"vehicle_type_id":"4","last_reported":1768328359,"current_range_meters":6800,"station_id":"ce4bhlh2rcd13ifvqgig","pricing_plan_id":"cebpf4jnsgd1na2vs0mg"},{"bike_id":"e2bda0ae-d7cc-4114-8d79-d847eaa3310c","system_id":"levelo_inurba_marseille","lat":43.29515,"lon":5.394,"is_reserved":false,"is_disabled":false,"rental_uris":{"android":"levelo://app?vid=e2bda0ae-d7cc-4114-8d79-d847eaa3310c","ios":"levelo://app?vid=e2bda0ae-d7cc-4114-8d79-d847eaa3310c"},"vehicle_type_id":"4","last_reported":1768328359,"current_range_meters":6800,"station_id":"ce4bh292rcd13ifvqdf0","pricing_plan_id":"cebpf4jnsgd1na2vs0mg"},{"bike_id":"50ba04d8-0a7f-4926-8575-377b958d3bb1","system_id":"levelo_inurba_marseille","lat":43.29007,"lon":5.38609,"is_reserved":false,"is_disabled":false,"rental_uris":{"android":"levelo://app?vid=50ba04d8-0a7f-4926-8575-377b958d3bb1","ios":"levelo://app?vid=50ba04d8-0a7f-4926-8575-377b958d3bb1"},"vehicle_type_id":"4","last_reported":1768328359,"current_range_meters":6800,"station_id":"ce4bh4p2rcd13ifvqe0g","pricing_plan_id":"cebpf4jnsgd1na2vs0mg"},{"bike_id":"a8ecfe7d-195f-47f3-8f55-54974257ce75","system_id":"levelo_inurba_marseille","lat":43.26572,"lon":5.40326,"is_reserved":false,"is_disabled":false,"rental_uris":{"android":"levelo://app?vid=a8ecfe7d-195f-47f3-8f55-54974257ce75","ios":"levelo://app?vid=a8ecfe7d-195f-47f3-8f55-54974257ce75"},"vehicle_type_id":"4","last_reported":1768328359,"current_range_meters":7200,"station_id":"ce4bhmp2rcd13ifvqgng","pricing_plan_id":"cebpf4jnsgd1na2vs0mg"},{"bike_id":"55babbbe-89a8-4f92-96cf-6569fc3f4c24","system_id":"levelo_inurba_marseille","lat":43.24373,"lon":5.37047,"is_reserved":false,"is_disabled":false,"rental_uris":{"android":"levelo://app?vid=55babbbe-89a8-4f92-96cf-6569fc3f4c24","ios":"levelo://app?vid=55babbbe-89a8-4f92-96cf-6569fc3f4c24"},"vehicle_type_id":"4","last_reported":1768328359,"current_range_meters":7200,"station_id":"ce4bhhh2rcd13ifvqfk0","pricing_plan_id":"cebpf4jnsgd1na2vs0mg"},{"bike_id":"a9ceab4f-7363-474c-a0e0-4e83cf033539","system_id":"levelo_inurba_marseille","lat":43.2893,"lon":5.36614,"is_reserved":false,"is_disabled":false,"rental_uris":{"android":"levelo://app?vid=a9ceab4f-7363-474c-a0e0-4e83cf033539","ios":"levelo://app?vid=a9ceab4f-7363-474c-a0e0-4e83cf033539"},"vehicle_type_id":"4","last_reported":1768328359,"current_range_meters":7200,"station_id":"ce4bhap2rcd13ifvqek0","pricing_plan_id":"cebpf4jnsgd1na2vs0mg"},{"bike_id":"7aebede3-29e7-422e-9949-e6406848b636","system_id":"levelo_inurba_marseille","lat":43.2512,"lon":5.40323,"is_reserved":false,"is_disabled":false,"rental_uris":{"android":"levelo://app?vid=7aebede3-29e7-422e-9949-e6406848b636","ios":"levelo://app?vid=7aebede3-29e7-422e-9949-e6406848b636"},"vehicle_type_id":"4","last_reported":1768328359,"current_range_meters":7200,"station_id":"ce4bhlh2rcd13ifvqgig","pricing_plan_id":"cebpf4jnsgd1na2vs0mg"},{"bike_id":"1801c6f9-0c65-4e78-bbf2-c91fed55b8f3","system_id":"levelo_inurba_marseille","lat":43.26201,"lon":5.37437,"is_reserved":false,"is_disabled":false,"rental_uris":{"android":"levelo://app?vid=1801c6f9-0c65-4e78-bbf2-c91fed55b8f3","ios":"levelo://app?vid=1801c6f9-0c65-4e78-bbf2-c91fed55b8f3"},"vehicle_type_id":"4","last_reported":1768328359,"current_range_meters":7200,"station_id":"ce4bhgp2rcd13ifvqfc0","pricing_plan_id":"cebpf4jnsgd1na2vs0mg"},{"bike_id":"e2d48cec-b5a4-48da-8e50-18a73116778d","system_id":"levelo_inurba_marseille","lat":43.29004,"lon":5.35606,"is_reserved":false,"is_disabled":false,"rental_uris":{"android":"levelo://app?vid=e2d48cec-b5a4-48da-8e50-18a73116778d","ios":"levelo://app?vid=e2d48cec-b5a4-48da-8e50-18a73116778d"},"vehicle_type_id":"4","last_reported":1768328359,"current_range_meters":7200,"station_id":"ce4bhb92rcd13ifvqen0","pricing_plan_id":"cebpf4jnsgd1na2vs0mg"},{"bike_id":"ea9769ab-39d8-4325-b701-f75eef547046","system_id":"levelo_inurba_marseille","lat":43.22537,"lon":5.34831,"is_reserved":false,"is_disabled":false,"rental_uris":{"android":"levelo://app?vid=ea9769ab-39d8-4325-b701-f75eef547046","ios":"levelo://app?vid=ea9769ab-39d8-4325-b701-f75eef547046"},"vehicle_type_id":"4","last_reported":1768328359,"current_range_meters":7200,"station_id":"st_cvj5dfep6f1abm77gieg","pricing_plan_id":"cebpf4jnsgd1na2vs0mg"},{"bike_id":"af684c98-b0c6-41d3-8b6e-ca7ba297669f","system_id":"levelo_inurba_marseille","lat":43.30589,"lon":5.37225,"is_reserved":false,"is_disabled":false,"rental_uris":{"android":"levelo://app?vid=af684c98-b0c6-41d3-8b6e-ca7ba297669f","ios":"levelo://app?vid=af684c98-b0c6-41d3-8b6e-ca7ba297669f"},"vehicle_type_id":"4","last_reported":1768328359,"current_range_meters":7200,"station_id":"ce4bgqh2rcd13ifvqc4g","pricing_plan_id":"cebpf4jnsgd1na2vs0mg"},{"bike_id":"a7cfbd20-f164-49e6-9f87-847432bce4ed","system_id":"levelo_inurba_marseille","lat":43.30113,"lon":5.37441,"is_reserved":false,"is_disabled":false,"rental_uris":{"android":"levelo://app?vid=a7cfbd20-f164-49e6-9f87-847432bce4ed","ios":"levelo://app?vid=a7cfbd20-f164-49e6-9f87-847432bce4ed"},"vehicle_type_id":"4","last_reported":1768328359,"current_range_meters":7200,"station_id":"ce4bgs92rcd13ifvqcc0","pricing_plan_id":"cebpf4jnsgd1na2vs0mg"},{"bike_id":"b41f9551-ae47-4da7-a60d-f3352e00b4ad","system_id":"levelo_inurba_marseille","lat":43.28482,"lon":5.48382,"is_reserved":false,"is_disabled":false,"rental_uris":{"android":"levelo://app?vid=b41f9551-ae47-4da7-a60d-f3352e00b4ad","ios":"levelo://app?vid=b41f9551-ae47-4da7-a60d-f3352e00b4ad"},"vehicle_type_id":"4","last_reported":1768328359,"current_range_meters":7200,"station_id":"","pricing_plan_id":"cebpf4jnsgd1na2vs0mg"},{"bike_id":"19acb0d9-5641-4610-b2b2-7ba868c5f563","system_id":"levelo_inurba_marseille","lat":43.23952,"lon":5.36643,"is_reserved":false,"is_disabled":false,"rental_uris":{"android":"levelo://app?vid=19acb0d9-5641-4610-b2b2-7ba868c5f563","ios":"levelo://app?vid=19acb0d9-5641-4610-b2b2-7ba868c5f563"},"vehicle_type_id":"4","last_reported":1768328359,"current_range_meters":7200,"station_id":"ce4bhi12rcd13ifvqfp0","pricing_plan_id":"cebpf4jnsgd1na2vs0mg"},{"bike_id":"edcf3188-4a6b-46e2-aa32-dc6a17ca3c7d","system_id":"levelo_inurba_marseille","lat":43.25583,"lon":5.38231,"is_reserved":false,"is_disabled":false,"rental_uris":{"android":"levelo://app?vid=edcf3188-4a6b-46e2-aa32-dc6a17ca3c7d","ios":"levelo://app?vid=edcf3188-4a6b-46e2-aa32-dc6a17ca3c7d"},"vehicle_type_id":"4","last_reported":1768328359,"current_range_meters":7200,"station_id":"ce4bhih2rcd13ifvqfs0","pricing_plan_id":"cebpf4jnsgd1na2vs0mg"},{"bike_id":"47d96b8b-14c3-457a-a882-a3b41481dc99","system_id":"levelo_inurba_marseille","lat":43.280762,"lon":5.39663,"is_reserved":false,"is_disabled":false,"rental_uris":{"android":"levelo://app?vid=47d96b8b-14c3-457a-a882-a3b41481dc99","ios":"levelo://app?vid=47d96b8b-14c3-457a-a882-a3b41481dc99"},"vehicle_type_id":"4","last_reported":1768328359,"current_range_meters":7200,"station_id":"ce4bho12rcd13ifvqh2g","pricing_plan_id":"cebpf4jnsgd1na2vs0mg"},{"bike_id":"a08bf140-6939-4812-abac-19b0965106e7","system_id":"levelo_inurba_marseille","lat":43.2927,"lon":5.38442,"is_reserved":false,"is_disabled":false,"rental_uris":{"android":"levelo://app?vid=a08bf140-6939-4812-abac-19b0965106e7","ios":"levelo://app?vid=a08bf140-6939-4812-abac-19b0965106e7"},"vehicle_type_id":"4","last_reported":1768328359,"current_range_meters":7200,"station_id":"ce4bh692rcd13ifvqea0","pricing_plan_id":"cebpf4jnsgd1na2vs0mg"},{"bike_id":"cfe81093-69a9-492e-9820-bd1d48eb57ea","system_id":"levelo_inurba_marseille","lat":43.262107,"lon":5.37444,"is_reserved":false,"is_disabled":false,"rental_uris":{"android":"levelo://app?vid=cfe81093-69a9-492e-9820-bd1d48eb57ea","ios":"levelo://app?vid=cfe81093-69a9-492e-9820-bd1d48eb57ea"},"vehicle_type_id":"4","last_reported":1768328359,"current_range_meters":7200,"station_id":"ce4bhgp2rcd13ifvqfc0","pricing_plan_id":"cebpf4jnsgd1na2vs0mg"},{"bike_id":"99eb6c51-7f0f-4137-8b85-23f4caea2333","system_id":"levelo_inurba_marseille","lat":43.298937,"lon":5.396654,"is_reserved":false,"is_disabled":false,"rental_uris":{"android":"levelo://app?vid=99eb6c51-7f0f-4137-8b85-23f4caea2333","ios":"levelo://app?vid=99eb6c51-7f0f-4137-8b85-23f4caea2333"},"vehicle_type_id":"4","last_reported":1768328359,"current_range_meters":7200,"station_id":"","pricing_plan_id":"cebpf4jnsgd1na2vs0mg"},{"bike_id":"3655a9f7-901b-4885-8038-e7046951f14d","system_id":"levelo_inurba_marseille","lat":43.29761,"lon":5.42771,"is_reserved":false,"is_disabled":false,"rental_uris":{"android":"levelo://app?vid=3655a9f7-901b-4885-8038-e7046951f14d","ios":"levelo://app?vid=3655a9f7-901b-4885-8038-e7046951f14d"},"vehicle_type_id":"4","last_reported":1768328359,"current_range_meters":7200,"station_id":"st_d3md5207bmas73dh9klg","pricing_plan_id":"cebpf4jnsgd1na2vs0mg"},{"bike_id":"1f93f595-e601-4fc1-8ef1-644d261550d1","system_id":"levelo_inurba_marseille","lat":43.28434,"lon":5.3918,"is_reserved":false,"is_disabled":false,"rental_uris":{"android":"levelo://app?vid=1f93f595-e601-4fc1-8ef1-644d261550d1","ios":"levelo://app?vid=1f93f595-e601-4fc1-8ef1-644d261550d1"},"vehicle_type_id":"4","last_reported":1768328359,"current_range_meters":7200,"station_id":"ce4bhoh2rcd13ifvqh5g","pricing_plan_id":"cebpf4jnsgd1na2vs0mg"},{"bike_id":"ff13c423-eb50-46f7-aeaf-f502bcb8ed08","system_id":"levelo_inurba_marseille","lat":43.23153,"lon":5.43703,"is_reserved":false,"is_disabled":false,"rental_uris":{"android":"levelo://app?vid=ff13c423-eb50-46f7-aeaf-f502bcb8ed08","ios":"levelo://app?vid=ff13c423-eb50-46f7-aeaf-f502bcb8ed08"},"vehicle_type_id":"4","last_reported":1768328359,"current_range_meters":7200,"station_id":"ce4bhmp2rcd13ifvqgog","pricing_plan_id":"cebpf4jnsgd1na2vs0mg"},{"bike_id":"803af568-1370-4a0b-bfc8-bc3f2517c4d4","system_id":"levelo_inurba_marseille","lat":43.30413,"lon":5.38897,"is_reserved":false,"is_disabled":false,"rental_uris":{"android":"levelo://app?vid=803af568-1370-4a0b-bfc8-bc3f2517c4d4","ios":"levelo://app?vid=803af568-1370-4a0b-bfc8-bc3f2517c4d4"},"vehicle_type_id":"4","last_reported":1768328359,"current_range_meters":7200,"station_id":"ce4bgk12rcd13ifvqbi0","pricing_plan_id":"cebpf4jnsgd1na2vs0mg"},{"bike_id":"368b6d95-d7de-400c-b024-6ef2c19dc58e","system_id":"levelo_inurba_marseille","lat":43.27999,"lon":5.40011,"is_reserved":false,"is_disabled":false,"rental_uris":{"android":"levelo://app?vid=368b6d95-d7de-400c-b024-6ef2c19dc58e","ios":"levelo://app?vid=368b6d95-d7de-400c-b024-6ef2c19dc58e"},"vehicle_type_id":"4","last_reported":1768328359,"current_range_meters":8000,"station_id":"ce4bho92rcd13ifvqh4g","pricing_plan_id":"cebpf4jnsgd1na2vs0mg"},{"bike_id":"18e7aed4-7cab-4e5f-b147-5c98f8a1e192","system_id":"levelo_inurba_marseille","lat":43.32353,"lon":5.367431,"is_reserved":false,"is_disabled":false,"rental_uris":{"android":"levelo://app?vid=18e7aed4-7cab-4e5f-b147-5c98f8a1e192","ios":"levelo://app?vid=18e7aed4-7cab-4e5f-b147-5c98f8a1e192"},"vehicle_type_id":"4","last_reported":1768328359,"current_range_meters":8000,"station_id":"ce4bhsh2rcd13ifvqi2g","pricing_plan_id":"cebpf4jnsgd1na2vs0mg"},{"bike_id":"794f162f-97ce-41a5-a715-29d2690bc658","system_id":"levelo_inurba_marseille","lat":43.28688,"lon":5.38649,"is_reserved":false,"is_disabled":false,"rental_uris":{"android":"levelo://app?vid=794f162f-97ce-41a5-a715-29d2690bc658","ios":"levelo://app?vid=794f162f-97ce-41a5-a715-29d2690bc658"},"vehicle_type_id":"4","last_reported":1768328359,"current_range_meters":8000,"station_id":"ce4bh492rcd13ifvqdug","pricing_plan_id":"cebpf4jnsgd1na2vs0mg"},{"bike_id":"0ca727f1-22a9-4d29-b4b0-403b274e760f","system_id":"levelo_inurba_marseille","lat":43.29088,"lon":5.39886,"is_reserved":false,"is_disabled":false,"rental_uris":{"android":"levelo://app?vid=0ca727f1-22a9-4d29-b4b0-403b274e760f","ios":"levelo://app?vid=0ca727f1-22a9-4d29-b4b0-403b274e760f"},"vehicle_type_id":"4","last_reported":1768328359,"current_range_meters":8000,"station_id":"","pricing_plan_id":"cebpf4jnsgd1na2vs0mg"},{"bike_id":"7aaa5463-7c58-4e08-89ff-e62dd5259471","system_id":"levelo_inurba_marseille","lat":43.24806,"lon":5.37455,"is_reserved":false,"is_disabled":false,"rental_uris":{"android":"levelo://app?vid=7aaa5463-7c58-4e08-89ff-e62dd5259471","ios":"levelo://app?vid=7aaa5463-7c58-4e08-89ff-e62dd5259471"},"vehicle_type_id":"4","last_reported":1768328359,"current_range_meters":8000,"station_id":"ce4bhgh2rcd13ifvqfb0","pricing_plan_id":"cebpf4jnsgd1na2vs0mg"},{"bike_id":"880db173-6d4b-4613-b35d-e485f90a0a47","system_id":"levelo_inurba_marseille","lat":43.26942,"lon":5.40249,"is_reserved":false,"is_disabled":false,"rental_uris":{"android":"levelo://app?vid=880db173-6d4b-4613-b35d-e485f90a0a47","ios":"levelo://app?vid=880db173-6d4b-4613-b35d-e485f90a0a47"},"vehicle_type_id":"4","last_reported":1768328359,"current_range_meters":8000,"station_id":"cjm6bp8fraef2m0cb0m0","pricing_plan_id":"cebpf4jnsgd1na2vs0mg"},{"bike_id":"23f90f90-4766-44cf-a3ad-ecda2307978a","system_id":"levelo_inurba_marseille","lat":43.26066,"lon":5.39399,"is_reserved":false,"is_disabled":false,"rental_uris":{"android":"levelo://app?vid=23f90f90-4766-44cf-a3ad-ecda2307978a","ios":"levelo://app?vid=23f90f90-4766-44cf-a3ad-ecda2307978a"},"vehicle_type_id":"4","last_reported":1768328359,"current_range_meters":8000,"station_id":"ce4bhh92rcd13ifvqfj0","pricing_plan_id":"cebpf4jnsgd1na2vs0mg"},{"bike_id":"8a689e49-1449-46e9-9d9f-6cee66305474","system_id":"levelo_inurba_marseille","lat":43.2925,"lon":5.40926,"is_reserved":false,"is_disabled":true,"rental_uris":{"android":"levelo://app?vid=8a689e49-1449-46e9-9d9f-6cee66305474","ios":"levelo://app?vid=8a689e49-1449-46e9-9d9f-6cee66305474"},"vehicle_type_id":"4","last_reported":1768328359,"current_range_meters":8000,"station_id":"ce4bh192rcd13ifvqdc0","pricing_plan_id":"cebpf4jnsgd1na2vs0mg"},{"bike_id":"0b0bd9e8-0e91-4cd7-8087-c13549508128","system_id":"levelo_inurba_marseille","lat":43.28516,"lon":5.44055,"is_reserved":false,"is_disabled":false,"rental_uris":{"android":"levelo://app?vid=0b0bd9e8-0e91-4cd7-8087-c13549508128","ios":"levelo://app?vid=0b0bd9e8-0e91-4cd7-8087-c13549508128"},"vehicle_type_id":"4","last_reported":1768328359,"current_range_meters":8000,"station_id":"st_d3j3df2ikq2c7380ej80","pricing_plan_id":"cebpf4jnsgd1na2vs0mg"},{"bike_id":"0c71a562-cbcf-4050-b00a-b12187d55c57","system_id":"levelo_inurba_marseille","lat":43.30914,"lon":5.3685,"is_reserved":false,"is_disabled":false,"rental_uris":{"android":"levelo://app?vid=0c71a562-cbcf-4050-b00a-b12187d55c57","ios":"levelo://app?vid=0c71a562-cbcf-4050-b00a-b12187d55c57"},"vehicle_type_id":"4","last_reported":1768328359,"current_range_meters":8000,"station_id":"ce4bgn92rcd13ifvqbvg","pricing_plan_id":"cebpf4jnsgd1na2vs0mg"},{"bike_id":"3dd7b7d9-0b0e-4881-8d48-ebe3f32e1b84","system_id":"levelo_inurba_marseille","lat":43.2987,"lon":5.39733,"is_reserved":false,"is_disabled":false,"rental_uris":{"android":"levelo://app?vid=3dd7b7d9-0b0e-4881-8d48-ebe3f32e1b84","ios":"levelo://app?vid=3dd7b7d9-0b0e-4881-8d48-ebe3f32e1b84"},"vehicle_type_id":"4","last_reported":1768328359,"current_range_meters":8000,"station_id":"ce4bh0h2rcd13ifvqd50","pricing_plan_id":"cebpf4jnsgd1na2vs0mg"},{"bike_id":"a54e918c-ca7c-42a8-b45c-baae649c1450","system_id":"levelo_inurba_marseille","lat":43.26929,"lon":5.40261,"is_reserved":false,"is_disabled":false,"rental_uris":{"android":"levelo://app?vid=a54e918c-ca7c-42a8-b45c-baae649c1450","ios":"levelo://app?vid=a54e918c-ca7c-42a8-b45c-baae649c1450"},"vehicle_type_id":"4","last_reported":1768328359,"current_range_meters":8000,"station_id":"cjm6bp8fraef2m0cb0m0","pricing_plan_id":"cebpf4jnsgd1na2vs0mg"},{"bike_id":"5288709e-7bab-420c-ba8b-418afff6b8a4","system_id":"levelo_inurba_marseille","lat":43.302783,"lon":5.372657,"is_reserved":false,"is_disabled":false,"rental_uris":{"android":"levelo://app?vid=5288709e-7bab-420c-ba8b-418afff6b8a4","ios":"levelo://app?vid=5288709e-7bab-420c-ba8b-418afff6b8a4"},"vehicle_type_id":"4","last_reported":1768328359,"current_range_meters":8000,"station_id":"","pricing_plan_id":"cebpf4jnsgd1na2vs0mg"},{"bike_id":"7565d9e4-5737-444e-a6cb-70b726a9685a","system_id":"levelo_inurba_marseille","lat":43.24397,"lon":5.37066,"is_reserved":false,"is_disabled":false,"rental_uris":{"android":"levelo://app?vid=7565d9e4-5737-444e-a6cb-70b726a9685a","ios":"levelo://app?vid=7565d9e4-5737-444e-a6cb-70b726a9685a"},"vehicle_type_id":"4","last_reported":1768328359,"current_range_meters":8000,"station_id":"ce4bhhh2rcd13ifvqfk0","pricing_plan_id":"cebpf4jnsgd1na2vs0mg"},{"bike_id":"d9e8d64d-749f-4ce9-b275-b723d4415519","system_id":"levelo_inurba_marseille","lat":43.23179,"lon":5.3999,"is_reserved":false,"is_disabled":false,"rental_uris":{"android":"levelo://app?vid=d9e8d64d-749f-4ce9-b275-b723d4415519","ios":"levelo://app?vid=d9e8d64d-749f-4ce9-b275-b723d4415519"},"vehicle_type_id":"4","last_reported":1768328359,"current_range_meters":8000,"station_id":"ce4bhn12rcd13ifvqgqg","pricing_plan_id":"cebpf4jnsgd1na2vs0mg"},{"bike_id":"956f2f43-0da9-4646-be7d-418ca296dc4d","system_id":"levelo_inurba_marseille","lat":43.29761,"lon":5.42775,"is_reserved":false,"is_disabled":false,"rental_uris":{"android":"levelo://app?vid=956f2f43-0da9-4646-be7d-418ca296dc4d","ios":"levelo://app?vid=956f2f43-0da9-4646-be7d-418ca296dc4d"},"vehicle_type_id":"4","last_reported":1768328359,"current_range_meters":8000,"station_id":"st_d3md5207bmas73dh9klg","pricing_plan_id":"cebpf4jnsgd1na2vs0mg"},{"bike_id":"044904e6-6ec3-47f0-b1a4-257658429d8e","system_id":"levelo_inurba_marseille","lat":43.2903,"lon":5.38129,"is_reserved":false,"is_disabled":false,"rental_uris":{"android":"levelo://app?vid=044904e6-6ec3-47f0-b1a4-257658429d8e","ios":"levelo://app?vid=044904e6-6ec3-47f0-b1a4-257658429d8e"},"vehicle_type_id":"4","last_reported":1768328359,"current_range_meters":8000,"station_id":"ce4bh4p2rcd13ifvqe1g","pricing_plan_id":"cebpf4jnsgd1na2vs0mg"},{"bike_id":"5d21c596-50a9-4a98-8678-377ed372531b","system_id":"levelo_inurba_marseille","lat":43.23777,"lon":5.36634,"is_reserved":false,"is_disabled":false,"rental_uris":{"android":"levelo://app?vid=5d21c596-50a9-4a98-8678-377ed372531b","ios":"levelo://app?vid=5d21c596-50a9-4a98-8678-377ed372531b"},"vehicle_type_id":"4","last_reported":1768328359,"current_range_meters":8000,"station_id":"st_d3nk18o9ro0c73en2l3g","pricing_plan_id":"cebpf4jnsgd1na2vs0mg"},{"bike_id":"e7d49db7-9f51-4d73-976d-952ba0206a7d","system_id":"levelo_inurba_marseille","lat":43.28468,"lon":5.35879,"is_reserved":false,"is_disabled":false,"rental_uris":{"android":"levelo://app?vid=e7d49db7-9f51-4d73-976d-952ba0206a7d","ios":"levelo://app?vid=e7d49db7-9f51-4d73-976d-952ba0206a7d"},"vehicle_type_id":"4","last_reported":1768328359,"current_range_meters":8000,"station_id":"ce4bhah2rcd13ifvqei0","pricing_plan_id":"cebpf4jnsgd1na2vs0mg"},{"bike_id":"dce34ae9-6b54-4567-9cc3-a453de46352f","system_id":"levelo_inurba_marseille","lat":43.23778,"lon":5.36618,"is_reserved":false,"is_disabled":false,"rental_uris":{"android":"levelo://app?vid=dce34ae9-6b54-4567-9cc3-a453de46352f","ios":"levelo://app?vid=dce34ae9-6b54-4567-9cc3-a453de46352f"},"vehicle_type_id":"4","last_reported":1768328359,"current_range_meters":8000,"station_id":"st_d3nk18o9ro0c73en2l3g","pricing_plan_id":"cebpf4jnsgd1na2vs0mg"},{"bike_id":"ec6556c0-8771-44be-b1ce-12b0d62b8bfb","system_id":"levelo_inurba_marseille","lat":43.32911,"lon":5.39135,"is_reserved":false,"is_disabled":false,"rental_uris":{"android":"levelo://app?vid=ec6556c0-8771-44be-b1ce-12b0d62b8bfb","ios":"levelo://app?vid=ec6556c0-8771-44be-b1ce-12b0d62b8bfb"},"vehicle_type_id":"4","last_reported":1768328359,"current_range_meters":8000,"station_id":"","pricing_plan_id":"cebpf4jnsgd1na2vs0mg"},{"bike_id":"b523c110-d25e-4af1-b7ea-2ae80dfe757b","system_id":"levelo_inurba_marseille","lat":43.23811,"lon":5.36587,"is_reserved":false,"is_disabled":false,"rental_uris":{"android":"levelo://app?vid=b523c110-d25e-4af1-b7ea-2ae80dfe757b","ios":"levelo://app?vid=b523c110-d25e-4af1-b7ea-2ae80dfe757b"},"vehicle_type_id":"4","last_reported":1768328359,"current_range_meters":8400,"station_id":"st_d3nk18o9ro0c73en2l3g","pricing_plan_id":"cebpf4jnsgd1na2vs0mg"},{"bike_id":"c2e56ede-8619-42fc-9c58-bde17da5089e","system_id":"levelo_inurba_marseille","lat":43.30933,"lon":5.40149,"is_reserved":false,"is_disabled":false,"rental_uris":{"android":"levelo://app?vid=c2e56ede-8619-42fc-9c58-bde17da5089e","ios":"levelo://app?vid=c2e56ede-8619-42fc-9c58-bde17da5089e"},"vehicle_type_id":"4","last_reported":1768328359,"current_range_meters":8400,"station_id":"ce4bgvp2rcd13ifvqct0","pricing_plan_id":"cebpf4jnsgd1na2vs0mg"},{"bike_id":"4abcb135-c51e-4157-8613-45802047af77","system_id":"levelo_inurba_marseille","lat":43.28146,"lon":5.42632,"is_reserved":false,"is_disabled":false,"rental_uris":{"android":"levelo://app?vid=4abcb135-c51e-4157-8613-45802047af77","ios":"levelo://app?vid=4abcb135-c51e-4157-8613-45802047af77"},"vehicle_type_id":"4","last_reported":1768328359,"current_range_meters":8400,"station_id":"ce4bhnh2rcd13ifvqgug","pricing_plan_id":"cebpf4jnsgd1na2vs0mg"},{"bike_id":"e495eb23-96b0-4afa-a6fd-13a04b5007b0","system_id":"levelo_inurba_marseille","lat":43.290632,"lon":5.371839,"is_reserved":false,"is_disabled":false,"rental_uris":{"android":"levelo://app?vid=e495eb23-96b0-4afa-a6fd-13a04b5007b0","ios":"levelo://app?vid=e495eb23-96b0-4afa-a6fd-13a04b5007b0"},"vehicle_type_id":"4","last_reported":1768328359,"current_range_meters":8400,"station_id":"ce4bh5p2rcd13ifvqe4g","pricing_plan_id":"cebpf4jnsgd1na2vs0mg"},{"bike_id":"5bf0944c-5eb9-4021-9226-344e9953c183","system_id":"levelo_inurba_marseille","lat":43.23195,"lon":5.39997,"is_reserved":false,"is_disabled":false,"rental_uris":{"android":"levelo://app?vid=5bf0944c-5eb9-4021-9226-344e9953c183","ios":"levelo://app?vid=5bf0944c-5eb9-4021-9226-344e9953c183"},"vehicle_type_id":"4","last_reported":1768328359,"current_range_meters":8400,"station_id":"ce4bhn12rcd13ifvqgqg","pricing_plan_id":"cebpf4jnsgd1na2vs0mg"},{"bike_id":"4da4b9b5-8e34-4a21-a7eb-76e6a1792527","system_id":"levelo_inurba_marseille","lat":43.28237,"lon":5.43031,"is_reserved":false,"is_disabled":false,"rental_uris":{"android":"levelo://app?vid=4da4b9b5-8e34-4a21-a7eb-76e6a1792527","ios":"levelo://app?vid=4da4b9b5-8e34-4a21-a7eb-76e6a1792527"},"vehicle_type_id":"4","last_reported":1768328359,"current_range_meters":8400,"station_id":"","pricing_plan_id":"cebpf4jnsgd1na2vs0mg"},{"bike_id":"984953dd-4d3f-44ad-bb8d-cee2582bab23","system_id":"levelo_inurba_marseille","lat":43.27808,"lon":5.40707,"is_reserved":false,"is_disabled":false,"rental_uris":{"android":"levelo://app?vid=984953dd-4d3f-44ad-bb8d-cee2582bab23","ios":"levelo://app?vid=984953dd-4d3f-44ad-bb8d-cee2582bab23"},"vehicle_type_id":"4","last_reported":1768328359,"current_range_meters":8400,"station_id":"ce4bhnh2rcd13ifvqgtg","pricing_plan_id":"cebpf4jnsgd1na2vs0mg"},{"bike_id":"fe6123ce-8610-4cb9-b1ff-1692a3d2a5f9","system_id":"levelo_inurba_marseille","lat":43.28452,"lon":5.38419,"is_reserved":false,"is_disabled":false,"rental_uris":{"android":"levelo://app?vid=fe6123ce-8610-4cb9-b1ff-1692a3d2a5f9","ios":"levelo://app?vid=fe6123ce-8610-4cb9-b1ff-1692a3d2a5f9"},"vehicle_type_id":"4","last_reported":1768328359,"current_range_meters":8400,"station_id":"ce4bh512rcd13ifvqe3g","pricing_plan_id":"cebpf4jnsgd1na2vs0mg"},{"bike_id":"6423c531-f71d-4187-8a3b-ef4662748a30","system_id":"levelo_inurba_marseille","lat":43.297,"lon":5.36641,"is_reserved":false,"is_disabled":false,"rental_uris":{"android":"levelo://app?vid=6423c531-f71d-4187-8a3b-ef4662748a30","ios":"levelo://app?vid=6423c531-f71d-4187-8a3b-ef4662748a30"},"vehicle_type_id":"4","last_reported":1768328359,"current_range_meters":8400,"station_id":"ce4bgn12rcd13ifvqbt0","pricing_plan_id":"cebpf4jnsgd1na2vs0mg"},{"bike_id":"9600ee7f-c134-429a-9b6a-b4eda8311a3e","system_id":"levelo_inurba_marseille","lat":43.24672,"lon":5.38171,"is_reserved":false,"is_disabled":true,"rental_uris":{"android":"levelo://app?vid=9600ee7f-c134-429a-9b6a-b4eda8311a3e","ios":"levelo://app?vid=9600ee7f-c134-429a-9b6a-b4eda8311a3e"},"vehicle_type_id":"4","last_reported":1768328359,"current_range_meters":8400,"station_id":"ce4bhih2rcd13ifvqfr0","pricing_plan_id":"cebpf4jnsgd1na2vs0mg"},{"bike_id":"92cdc27f-4766-48a4-a329-ea7a52a05a32","system_id":"levelo_inurba_marseille","lat":43.26945,"lon":5.40258,"is_reserved":false,"is_disabled":false,"rental_uris":{"android":"levelo://app?vid=92cdc27f-4766-48a4-a329-ea7a52a05a32","ios":"levelo://app?vid=92cdc27f-4766-48a4-a329-ea7a52a05a32"},"vehicle_type_id":"4","last_reported":1768328359,"current_range_meters":8400,"station_id":"cjm6bp8fraef2m0cb0m0","pricing_plan_id":"cebpf4jnsgd1na2vs0mg"},{"bike_id":"5d753472-8af1-40a8-b93c-6901afeb049e","system_id":"levelo_inurba_marseille","lat":43.23746,"lon":5.3664,"is_reserved":false,"is_disabled":false,"rental_uris":{"android":"levelo://app?vid=5d753472-8af1-40a8-b93c-6901afeb049e","ios":"levelo://app?vid=5d753472-8af1-40a8-b93c-6901afeb049e"},"vehicle_type_id":"4","last_reported":1768328359,"current_range_meters":8400,"station_id":"st_d3nk18o9ro0c73en2l3g","pricing_plan_id":"cebpf4jnsgd1na2vs0mg"},{"bike_id":"e4ceba95-9874-4924-9fa5-96771066b0ef","system_id":"levelo_inurba_marseille","lat":43.239611,"lon":5.366251,"is_reserved":false,"is_disabled":false,"rental_uris":{"android":"levelo://app?vid=e4ceba95-9874-4924-9fa5-96771066b0ef","ios":"levelo://app?vid=e4ceba95-9874-4924-9fa5-96771066b0ef"},"vehicle_type_id":"4","last_reported":1768328359,"current_range_meters":8400,"station_id":"ce4bhi12rcd13ifvqfp0","pricing_plan_id":"cebpf4jnsgd1na2vs0mg"},{"bike_id":"7cb71b2a-cdcb-4df1-8b45-14f0946816db","system_id":"levelo_inurba_marseille","lat":43.29544,"lon":5.38556,"is_reserved":false,"is_disabled":false,"rental_uris":{"android":"levelo://app?vid=7cb71b2a-cdcb-4df1-8b45-14f0946816db","ios":"levelo://app?vid=7cb71b2a-cdcb-4df1-8b45-14f0946816db"},"vehicle_type_id":"4","last_reported":1768328359,"current_range_meters":8400,"station_id":"ce4bgih2rcd13ifvqba0","pricing_plan_id":"cebpf4jnsgd1na2vs0mg"},{"bike_id":"4c84701a-cb02-4dae-af95-dad8377c7314","system_id":"levelo_inurba_marseille","lat":43.2815,"lon":5.42633,"is_reserved":false,"is_disabled":false,"rental_uris":{"android":"levelo://app?vid=4c84701a-cb02-4dae-af95-dad8377c7314","ios":"levelo://app?vid=4c84701a-cb02-4dae-af95-dad8377c7314"},"vehicle_type_id":"4","last_reported":1768328359,"current_range_meters":8400,"station_id":"ce4bhnh2rcd13ifvqgug","pricing_plan_id":"cebpf4jnsgd1na2vs0mg"},{"bike_id":"6d57f812-15ba-4444-9c0c-dbbe3143382e","system_id":"levelo_inurba_marseille","lat":43.27065,"lon":5.40257,"is_reserved":false,"is_disabled":true,"rental_uris":{"android":"levelo://app?vid=6d57f812-15ba-4444-9c0c-dbbe3143382e","ios":"levelo://app?vid=6d57f812-15ba-4444-9c0c-dbbe3143382e"},"vehicle_type_id":"4","last_reported":1768328359,"current_range_meters":8400,"station_id":"ce4bhk92rcd13ifvqgc0","pricing_plan_id":"cebpf4jnsgd1na2vs0mg"},{"bike_id":"8d8991c2-b7a5-408c-8480-5cec87d700c8","system_id":"levelo_inurba_marseille","lat":43.27811,"lon":5.40726,"is_reserved":false,"is_disabled":false,"rental_uris":{"android":"levelo://app?vid=8d8991c2-b7a5-408c-8480-5cec87d700c8","ios":"levelo://app?vid=8d8991c2-b7a5-408c-8480-5cec87d700c8"},"vehicle_type_id":"4","last_reported":1768328359,"current_range_meters":8400,"station_id":"ce4bhnh2rcd13ifvqgtg","pricing_plan_id":"cebpf4jnsgd1na2vs0mg"},