{"last_updated":1739822995,"ttl":60,"version":"2.2","data":{"bikes":[{"bike_id":"fec3a4f9-f159-423f-bd65-ce354a6b7246","system_id":"levelo_inurba_marseille","lat":43.26681,"lon":5.38274,"is_reserved":false,"is_disabled":false,"rental_uris":{"android":"levelo://app?vid=fec3a4f9-f159-423f-bd65-ce354a6b7246","ios":"levelo://app?vid=fec3a4f9-f159-423f-bd65-ce354a6b7246"},"vehicle_type_id":"4","last_reported":1739822996,"current_range_meters":1200,"station_id":"","pricing_plan_id":"cebpf4jnsgd1na2vs0mg"},{"bike_id":"90eec891-c4ed-43ed-ad9e-d172f1607b93","system_id":"levelo_inurba_marseille","lat":43.299,"lon":5.39763,"is_reserved":false,"is_disabled":true,"rental_uris":{"android":"levelo://app?vid=90eec891-c4ed-43ed-ad9e-d172f1607b93","ios":"levelo://app?vid=90eec891-c4ed-43ed-ad9e-d172f1607b93"},"vehicle_type_id":"4","last_reported":1739822996,"current_range_meters":2800,"station_id":"ce4bh0h2rcd13ifvqd50","pricing_plan_id":"cebpf4jnsgd1na2vs0mg"},{"bike_id":"102eb857-77e6-48ad-ad26-3baf90ff87f9","system_id":"levelo_inurba_marseille","lat":43.30306,"lon":5.3689,"is_reserved":false,"is_disabled":false,"rental_uris":{"android":"levelo://app?vid=102eb857-77e6-48ad-ad26-3baf90ff87f9","ios":"levelo://app?vid=102eb857-77e6-48ad-ad26-3baf90ff87f9"},"vehicle_type_id":"4","last_reported":1739822996,"current_range_meters":3200,"station_id":"ce4bgqh2rcd13ifvqc5g","pricing_plan_id":"cebpf4jnsgd1na2vs0mg"},{"bike_id":"08cd6744-10bc-4525-8709-c0c9eaae2b7d","system_id":"levelo_inurba_marseille","lat":43.24661,"lon":5.38905,"is_reserved":false,"is_disabled":true,"rental_uris":{"android":"levelo://app?vid=08cd6744-10bc-4525-8709-c0c9eaae2b7d","ios":"levelo://app?vid=08cd6744-10bc-4525-8709-c0c9eaae2b7d"},"vehicle_type_id":"4","last_reported":1739822996,"current_range_meters":3200,"station_id":"ce4bhg12rcd13ifvqf60","pricing_plan_id":"cebpf4jnsgd1na2vs0mg"},{"bike_id":"a138a840-0a46-4e4d-a390-66b58ff5c643","system_id":"levelo_inurba_marseille","lat":43.2944,"lon":5.39761,"is_reserved":false,"is_disabled":false,"rental_uris":{"android":"levelo://app?vid=a138a840-0a46-4e4d-a390-66b58ff5c643","ios":"levelo://app?vid=a138a840-0a46-4e4d-a390-66b58ff5c643"},"vehicle_type_id":"4","last_reported":1739822996,"current_range_meters":3200,"station_id":"","pricing_plan_id":"cebpf4jnsgd1na2vs0mg"},{"bike_id":"4e7beed8-3f51-4c59-a37c-0ac46140a818","system_id":"levelo_inurba_marseille","lat":43.26948,"lon":5.38628,"is_reserved":false,"is_disabled":true,"rental_uris":{"android":"levelo://app?vid=4e7beed8-3f51-4c59-a37c-0ac46140a818","ios":"levelo://app?vid=4e7beed8-3f51-4c59-a37c-0ac46140a818"},"vehicle_type_id":"4","last_reported":1739822996,"current_range_meters":3200,"station_id":"","pricing_plan_id":"cebpf4jnsgd1na2vs0mg"},{"bike_id":"a9fd9175-c18f-454e-be07-71b849dcf07b","system_id":"levelo_inurba_marseille","lat":43.31275,"lon":5.40164,"is_reserved":false,"is_disabled":false,"rental_uris":{"android":"levelo://app?vid=a9fd9175-c18f-454e-be07-71b849dcf07b","ios":"levelo://app?vid=a9fd9175-c18f-454e-be07-71b849dcf07b"},"vehicle_type_id":"4","last_reported":1739822996,"current_range_meters":3600,"station_id":"ce4bh092rcd13ifvqd30","pricing_plan_id":"cebpf4jnsgd1na2vs0mg"},{"bike_id":"0cb81751-6b87-4eca-b575-156c95cfa1eb","system_id":"levelo_inurba_marseille","lat":43.32286,"lon":5.38278,"is_reserved":false,"is_disabled":false,"rental_uris":{"android":"levelo://app?vid=0cb81751-6b87-4eca-b575-156c95cfa1eb","ios":"levelo://app?vid=0cb81751-6b87-4eca-b575-156c95cfa1eb"},"vehicle_type_id":"4","last_reported":1739822996,"current_range_meters":3600,"station_id":"ce4bhr12rcd13ifvqhqg","pricing_plan_id":"cebpf4jnsgd1na2vs0mg"},{"bike_id":"7f6deaa1-1959-4401-8e20-65aab7326fd4","system_id":"levelo_inurba_marseille","lat":43.29418,"lon":5.3863,"is_reserved":false,"is_disabled":false,"rental_uris":{"android":"levelo://app?vid=7f6deaa1-1959-4401-8e20-65aab7326fd4","ios":"levelo://app?vid=7f6deaa1-1959-4401-8e20-65aab7326fd4"},"vehicle_type_id":"4","last_reported":1739822996,"current_range_meters":3600,"station_id":"","pricing_plan_id":"cebpf4jnsgd1na2vs0mg"},{"bike_id":"2e534440-e771-4d12-9d5c-a84163676ffe","system_id":"levelo_inurba_marseille","lat":43.31865,"lon":5.40746,"is_reserved":false,"is_disabled":false,"rental_uris":{"android":"levelo://app?vid=2e534440-e771-4d12-9d5c-a84163676ffe","ios":"levelo://app?vid=2e534440-e771-4d12-9d5c-a84163676ffe"},"vehicle_type_id":"4","last_reported":1739822996,"current_range_meters":4000,"station_id":"","pricing_plan_id":"cebpf4jnsgd1na2vs0mg"},{"bike_id":"458f44e2-37dd-48dd-8470-babd18691b9c","system_id":"levelo_inurba_marseille","lat":43.24629,"lon":5.3891,"is_reserved":false,"is_disabled":true,"rental_uris":{"android":"levelo://app?vid=458f44e2-37dd-48dd-8470-babd18691b9c","ios":"levelo://app?vid=458f44e2-37dd-48dd-8470-babd18691b9c"},"vehicle_type_id":"4","last_reported":1739822996,"current_range_meters":4000,"station_id":"ce4bhg12rcd13ifvqf60","pricing_plan_id":"cebpf4jnsgd1na2vs0mg"},{"bike_id":"fdb4d625-32da-4d34-9480-3a0853efe45b","system_id":"levelo_inurba_marseille","lat":43.241488,"lon":5.396028,"is_reserved":false,"is_disabled":false,"rental_uris":{"android":"levelo://app?vid=fdb4d625-32da-4d34-9480-3a0853efe45b","ios":"levelo://app?vid=fdb4d625-32da-4d34-9480-3a0853efe45b"},"vehicle_type_id":"4","last_reported":1739822996,"current_range_meters":4400,"station_id":"ce4bhn12rcd13ifvqgpg","pricing_plan_id":"cebpf4jnsgd1na2vs0mg"},{"bike_id":"958ed81b-f6fd-4182-a500-df71e3bfb2b1","system_id":"levelo_inurba_marseille","lat":43.29931,"lon":5.36499,"is_reserved":false,"is_disabled":false,"rental_uris":{"android":"levelo://app?vid=958ed81b-f6fd-4182-a500-df71e3bfb2b1","ios":"levelo://app?vid=958ed81b-f6fd-4182-a500-df71e3bfb2b1"},"vehicle_type_id":"4","last_reported":1739822996,"current_range_meters":4400,"station_id":"ce4bgm92rcd13ifvqbr0","pricing_plan_id":"cebpf4jnsgd1na2vs0mg"},{"bike_id":"449e24a9-d58f-4b1d-aeba-5fab857a86f8","system_id":"levelo_inurba_marseille","lat":43.265512,"lon":5.390135,"is_reserved":false,"is_disabled":false,"rental_uris":{"android":"levelo://app?vid=449e24a9-d58f-4b1d-aeba-5fab857a86f8","ios":"levelo://app?vid=449e24a9-d58f-4b1d-aeba-5fab857a86f8"},"vehicle_type_id":"4","last_reported":1739822996,"current_range_meters":4400,"station_id":"ce4bh412rcd13ifvqds0","pricing_plan_id":"cebpf4jnsgd1na2vs0mg"},{"bike_id":"b6b1f5f4-d744-4db4-8635-c92a10458bc0","system_id":"levelo_inurba_marseille","lat":43.31529,"lon":5.38025,"is_reserved":false,"is_disabled":false,"rental_uris":{"android":"levelo://app?vid=b6b1f5f4-d744-4db4-8635-c92a10458bc0","ios":"levelo://app?vid=b6b1f5f4-d744-4db4-8635-c92a10458bc0"},"vehicle_type_id":"4","last_reported":1739822996,"current_range_meters":4400,"station_id":"ce4bhsp2rcd13ifvqi50","pricing_plan_id":"cebpf4jnsgd1na2vs0mg"},{"bike_id":"b87cb6a5-cf63-4b15-83a4-03a98611e72a","system_id":"levelo_inurba_marseille","lat":43.2815,"lon":5.44286,"is_reserved":false,"is_disabled":true,"rental_uris":{"android":"levelo://app?vid=b87cb6a5-cf63-4b15-83a4-03a98611e72a","ios":"levelo://app?vid=b87cb6a5-cf63-4b15-83a4-03a98611e72a"},"vehicle_type_id":"4","last_reported":1739822996,"current_range_meters":4800,"station_id":"ce4bhnh2rcd13ifvqgtg","pricing_plan_id":"cebpf4jnsgd1na2vs0mg"},{"bike_id":"a46a9181-f005-4869-9670-47a4ec3fa7df","system_id":"levelo_inurba_marseille","lat":43.28437,"lon":5.39188,"is_reserved":false,"is_disabled":false,"rental_uris":{"android":"levelo://app?vid=a46a9181-f005-4869-9670-47a4ec3fa7df","ios":"levelo://app?vid=a46a9181-f005-4869-9670-47a4ec3fa7df"},"vehicle_type_id":"4","last_reported":1739822996,"current_range_meters":4800,"station_id":"ce4bhoh2rcd13ifvqh5g","pricing_plan_id":"cebpf4jnsgd1na2vs0mg"},{"bike_id":"c94008d7-2bf2-4693-b144-c5f559982cba","system_id":"levelo_inurba_marseille","lat":43.2987,"lon":5.39733,"is_reserved":false,"is_disabled":false,"rental_uris":{"android":"levelo://app?vid=c94008d7-2bf2-4693-b144-c5f559982cba","ios":"levelo://app?vid=c94008d7-2bf2-4693-b144-c5f559982cba"},"vehicle_type_id":"4","last_reported":1739822996,"current_range_meters":4800,"station_id":"ce4bh0h2rcd13ifvqd50","pricing_plan_id":"cebpf4jnsgd1na2vs0mg"},{"bike_id":"6b21d320-52d0-422d-a96b-25dc166ffb72","system_id":"levelo_inurba_marseille","lat":43.30414,"lon":5.41281,"is_reserved":false,"is_disabled":true,"rental_uris":{"android":"levelo://app?vid=6b21d320-52d0-422d-a96b-25dc166ffb72","ios":"levelo://app?vid=6b21d320-52d0-422d-a96b-25dc166ffb72"},"vehicle_type_id":"4","last_reported":1739822996,"current_range_meters":4800,"station_id":"ce4bhop2rcd13ifvqh8g","pricing_plan_id":"cebpf4jnsgd1na2vs0mg"},{"bike_id":"d0e0a89a-0d81-4148-ba85-59442b59d06e","system_id":"levelo_inurba_marseille","lat":43.28628,"lon":5.351,"is_reserved":false,"is_disabled":false,"rental_uris":{"android":"levelo://app?vid=d0e0a89a-0d81-4148-ba85-59442b59d06e","ios":"levelo://app?vid=d0e0a89a-0d81-4148-ba85-59442b59d06e"},"vehicle_type_id":"4","last_reported":1739822996,"current_range_meters":5600,"station_id":"","pricing_plan_id":"cebpf4jnsgd1na2vs0mg"},{"bike_id":"0e7e7ec9-bd14-40e0-8e23-a3285cbd39f4","system_id":"levelo_inurba_marseille","lat":43.27958,"lon":5.38733,"is_reserved":false,"is_disabled":false,"rental_uris":{"android":"levelo://app?vid=0e7e7ec9-bd14-40e0-8e23-a3285cbd39f4","ios":"levelo://app?vid=0e7e7ec9-bd14-40e0-8e23-a3285cbd39f4"},"vehicle_type_id":"4","last_reported":1739822996,"current_range_meters":5600,"station_id":"ce4bhg12rcd13ifvqf60","pricing_plan_id":"cebpf4jnsgd1na2vs0mg"},{"bike_id":"1d6f5a5a-bf78-4d12-91e4-6dc8a2b7ed98","system_id":"levelo_inurba_marseille","lat":43.2749,"lon":5.42469,"is_reserved":false,"is_disabled":true,"rental_uris":{"android":"levelo://app?vid=1d6f5a5a-bf78-4d12-91e4-6dc8a2b7ed98","ios":"levelo://app?vid=1d6f5a5a-bf78-4d12-91e4-6dc8a2b7ed98"},"vehicle_type_id":"4","last_reported":1739822996,"current_range_meters":5600,"station_id":"ce4bhn92rcd13ifvqgrg","pricing_plan_id":"cebpf4jnsgd1na2vs0mg"},{"bike_id":"50fe64bb-2a63-41e4-a812-2d48128654a1","system_id":"levelo_inurba_marseille","lat":43.28412,"lon":5.34983,"is_reserved":false,"is_disabled":false,"rental_uris":{"android":"levelo://app?vid=50fe64bb-2a63-41e4-a812-2d48128654a1","ios":"levelo://app?vid=50fe64bb-2a63-41e4-a812-2d48128654a1"},"vehicle_type_id":"4","last_reported":1739822996,"current_range_meters":6000,"station_id":"ce4bhbh2rcd13ifvqepg","pricing_plan_id":"cebpf4jnsgd1na2vs0mg"},{"bike_id":"d13405e5-6dbc-4edd-9577-e3f59a2b8e12","system_id":"levelo_inurba_marseille","lat":43.30881,"lon":5.39617,"is_reserved":false,"is_disabled":false,"rental_uris":{"android":"levelo://app?vid=d13405e5-6dbc-4edd-9577-e3f59a2b8e12","ios":"levelo://app?vid=d13405e5-6dbc-4edd-9577-e3f59a2b8e12"},"vehicle_type_id":"4","last_reported":1739822996,"current_range_meters":6000,"station_id":"ce4bh012rcd13ifvqcv0","pricing_plan_id":"cebpf4jnsgd1na2vs0mg"},{"bike_id":"ce61429a-686f-445d-80d9-4b10876ed4ef","system_id":"levelo_inurba_marseille","lat":43.337444,"lon":5.374475,"is_reserved":false,"is_disabled":true,"rental_uris":{"android":"levelo://app?vid=ce61429a-686f-445d-80d9-4b10876ed4ef","ios":"levelo://app?vid=ce61429a-686f-445d-80d9-4b10876ed4ef"},"vehicle_type_id":"4","last_reported":1739822996,"current_range_meters":6000,"station_id":"","pricing_plan_id":"cebpf4jnsgd1na2vs0mg"},{"bike_id":"77dacd84-ef17-4d4e-8471-49b4ea4075a8","system_id":"levelo_inurba_marseille","lat":43.28269,"lon":5.35066,"is_reserved":false,"is_disabled":false,"rental_uris":{"android":"levelo://app?vid=77dacd84-ef17-4d4e-8471-49b4ea4075a8","ios":"levelo://app?vid=77dacd84-ef17-4d4e-8471-49b4ea4075a8"},"vehicle_type_id":"4","last_reported":1739822996,"current_range_meters":6000,"station_id":"ce4bhbp2rcd13ifvqerg","pricing_plan_id":"cebpf4jnsgd1na2vs0mg"},{"bike_id":"b5d51719-c1bb-48d2-8389-d66332973310","system_id":"levelo_inurba_marseille","lat":43.23952,"lon":5.3662,"is_reserved":false,"is_disabled":true,"rental_uris":{"android":"levelo://app?vid=b5d51719-c1bb-48d2-8389-d66332973310","ios":"levelo://app?vid=b5d51719-c1bb-48d2-8389-d66332973310"},"vehicle_type_id":"4","last_reported":1739822996,"current_range_meters":6400,"station_id":"ce4bhi12rcd13ifvqfp0","pricing_plan_id":"cebpf4jnsgd1na2vs0mg"},{"bike_id":"a4413d93-aceb-47df-9edf-870ce631380e","system_id":"levelo_inurba_marseille","lat":43.24392,"lon":5.37054,"is_reserved":false,"is_disabled":true,"rental_uris":{"android":"levelo://app?vid=a4413d93-aceb-47df-9edf-870ce631380e","ios":"levelo://app?vid=a4413d93-aceb-47df-9edf-870ce631380e"},"vehicle_type_id":"4","last_reported":1739822996,"current_range_meters":6400,"station_id":"ce4bhhh2rcd13ifvqfk0","pricing_plan_id":"cebpf4jnsgd1na2vs0mg"},{"bike_id":"8f2b0aef-e2a7-47a2-bfd4-c34d4ba0caca","system_id":"levelo_inurba_marseille","lat":43.28623,"lon":5.351,"is_reserved":false,"is_disabled":false,"rental_uris":{"android":"levelo://app?vid=8f2b0aef-e2a7-47a2-bfd4-c34d4ba0caca","ios":"levelo://app?vid=8f2b0aef-e2a7-47a2-bfd4-c34d4ba0caca"},"vehicle_type_id":"4","last_reported":1739822996,"current_range_meters":6400,"station_id":"","pricing_plan_id":"cebpf4jnsgd1na2vs0mg"},{"bike_id":"96a96649-77a9-44c4-824f-d3e92f79f91f","system_id":"levelo_inurba_marseille","lat":43.23964,"lon":5.3666,"is_reserved":false,"is_disabled":false,"rental_uris":{"android":"levelo://app?vid=96a96649-77a9-44c4-824f-d3e92f79f91f","ios":"levelo://app?vid=96a96649-77a9-44c4-824f-d3e92f79f91f"},"vehicle_type_id":"4","last_reported":1739822996,"current_range_meters":6400,"station_id":"ce4bhi12rcd13ifvqfp0","pricing_plan_id":"cebpf4jnsgd1na2vs0mg"},{"bike_id":"ed1d6250-edeb-42f4-ac1a-00f7330bbf06","system_id":"levelo_inurba_marseille","lat":43.31888,"lon":5.4073,"is_reserved":false,"is_disabled":false,"rental_uris":{"android":"levelo://app?vid=ed1d6250-edeb-42f4-ac1a-00f7330bbf06","ios":"levelo://app?vid=ed1d6250-edeb-42f4-ac1a-00f7330bbf06"},"vehicle_type_id":"4","last_reported":1739822996,"current_range_meters":6400,"station_id":"","pricing_plan_id":"cebpf4jnsgd1na2vs0mg"},{"bike_id":"c4916927-7d10-4eb6-bf80-df6fa900d439","system_id":"levelo_inurba_marseille","lat":43.29548,"lon":5.42313,"is_reserved":false,"is_disabled":true,"rental_uris":{"android":"levelo://app?vid=c4916927-7d10-4eb6-bf80-df6fa900d439","ios":"levelo://app?vid=c4916927-7d10-4eb6-bf80-df6fa900d439"},"vehicle_type_id":"4","last_reported":1739822996,"current_range_meters":6400,"station_id":"ce4bhph2rcd13ifvqhdg","pricing_plan_id":"cebpf4jnsgd1na2vs0mg"},{"bike_id":"aac7ef75-6810-4e53-9da5-b36e43886f51","system_id":"levelo_inurba_marseille","lat":43.25081,"lon":5.40376,"is_reserved":false,"is_disabled":false,"rental_uris":{"android":"levelo://app?vid=aac7ef75-6810-4e53-9da5-b36e43886f51","ios":"levelo://app?vid=aac7ef75-6810-4e53-9da5-b36e43886f51"},"vehicle_type_id":"4","last_reported":1739822996,"current_range_meters":6400,"station_id":"","pricing_plan_id":"cebpf4jnsgd1na2vs0mg"},{"bike_id":"1ccb8148-d5a9-45e8-a79b-603264947ba2","system_id":"levelo_inurba_marseille","lat":43.22933,"lon":5.35381,"is_reserved":false,"is_disabled":false,"rental_uris":{"android":"levelo://app?vid=1ccb8148-d5a9-45e8-a79b-603264947ba2","ios":"levelo://app?vid=1ccb8148-d5a9-45e8-a79b-603264947ba2"},"vehicle_type_id":"4","last_reported":1739822996,"current_range_meters":6400,"station_id":"cpo3532slgdg3j2ikp40","pricing_plan_id":"cebpf4jnsgd1na2vs0mg"},{"bike_id":"f206266f-bb9f-443a-8521-7cc97a6d54b8","system_id":"levelo_inurba_marseille","lat":43.32723,"lon":5.39257,"is_reserved":false,"is_disabled":false,"rental_uris":{"android":"levelo://app?vid=f206266f-bb9f-443a-8521-7cc97a6d54b8","ios":"levelo://app?vid=f206266f-bb9f-443a-8521-7cc97a6d54b8"},"vehicle_type_id":"4","last_reported":1739822996,"current_range_meters":6400,"station_id":"ce4bhr92rcd13ifvqhrg","pricing_plan_id":"cebpf4jnsgd1na2vs0mg"},{"bike_id":"8c75056a-7815-4dc4-bac4-c86fcaddfb3c","system_id":"levelo_inurba_marseille","lat":43.248052,"lon":5.374568,"is_reserved":false,"is_disabled":false,"rental_uris":{"android":"levelo://app?vid=8c75056a-7815-4dc4-bac4-c86fcaddfb3c","ios":"levelo://app?vid=8c75056a-7815-4dc4-bac4-c86fcaddfb3c"},"vehicle_type_id":"4","last_reported":1739822996,"current_range_meters":6400,"station_id":"ce4bhgh2rcd13ifvqfb0","pricing_plan_id":"cebpf4jnsgd1na2vs0mg"},{"bike_id":"4b62baaf-0754-47c4-8b8f-37c6001aae0a","system_id":"levelo_inurba_marseille","lat":43.29583,"lon":5.37494,"is_reserved":false,"is_disabled":false,"rental_uris":{"android":"levelo://app?vid=4b62baaf-0754-47c4-8b8f-37c6001aae0a","ios":"levelo://app?vid=4b62baaf-0754-47c4-8b8f-37c6001aae0a"},"vehicle_type_id":"4","last_reported":1739822996,"current_range_meters":6400,"station_id":"ce4bgh92rcd13ifvqb50","pricing_plan_id":"cebpf4jnsgd1na2vs0mg"},{"bike_id":"926e1642-8b0d-4269-911f-e7668b60f23d","system_id":"levelo_inurba_marseille","lat":43.24811,"lon":5.37448,"is_reserved":false,"is_disabled":false,"rental_uris":{"android":"levelo://app?vid=926e1642-8b0d-4269-911f-e7668b60f23d","ios":"levelo://app?vid=926e1642-8b0d-4269-911f-e7668b60f23d"},"vehicle_type_id":"4","last_reported":1739822996,"current_range_meters":6400,"station_id":"","pricing_plan_id":"cebpf4jnsgd1na2vs0mg"},{"bike_id":"f4791b27-9cba-4fd3-bc68-9dc41074e271","system_id":"levelo_inurba_marseille","lat":43.29785,"lon":5.37106,"is_reserved":false,"is_disabled":false,"rental_uris":{"android":"levelo://app?vid=f4791b27-9cba-4fd3-bc68-9dc41074e271","ios":"levelo://app?vid=f4791b27-9cba-4fd3-bc68-9dc41074e271"},"vehicle_type_id":"4","last_reported":1739822996,"current_range_meters":6800,"station_id":"ce4bgop2rcd13ifvqc1g","pricing_plan_id":"cebpf4jnsgd1na2vs0mg"},{"bike_id":"68c9ec09-efa3-42b7-9d9b-298456b6ded4","system_id":"levelo_inurba_marseille","lat":43.30473,"lon":5.36955,"is_reserved":false,"is_disabled":false,"rental_uris":{"android":"levelo://app?vid=68c9ec09-efa3-42b7-9d9b-298456b6ded4","ios":"levelo://app?vid=68c9ec09-efa3-42b7-9d9b-298456b6ded4"},"vehicle_type_id":"4","last_reported":1739822996,"current_range_meters":6800,"station_id":"","pricing_plan_id":"cebpf4jnsgd1na2vs0mg"},{"bike_id":"324c900e-5cb2-4ca6-932a-28ceba0385c4","system_id":"levelo_inurba_marseille","lat":43.3108,"lon":5.4244,"is_reserved":false,"is_disabled":false,"rental_uris":{"android":"levelo://app?vid=324c900e-5cb2-4ca6-932a-28ceba0385c4","ios":"levelo://app?vid=324c900e-5cb2-4ca6-932a-28ceba0385c4"},"vehicle_type_id":"4","last_reported":1739822996,"current_range_meters":6800,"station_id":"ce4bhp92rcd13ifvqhag","pricing_plan_id":"cebpf4jnsgd1na2vs0mg"},{"bike_id":"b36b3903-9bda-4c2d-8b67-4a1d1e1cf026","system_id":"levelo_inurba_marseille","lat":43.28158,"lon":5.42635,"is_reserved":false,"is_disabled":false,"rental_uris":{"android":"levelo://app?vid=b36b3903-9bda-4c2d-8b67-4a1d1e1cf026","ios":"levelo://app?vid=b36b3903-9bda-4c2d-8b67-4a1d1e1cf026"},"vehicle_type_id":"4","last_reported":1739822996,"current_range_meters":6800,"station_id":"ce4bhnh2rcd13ifvqgug","pricing_plan_id":"cebpf4jnsgd1na2vs0mg"},{"bike_id":"3a9a968d-dcc9-4ffb-90af-aadcb8469a1d","system_id":"levelo_inurba_marseille","lat":43.32242,"lon":5.39416,"is_reserved":false,"is_disabled":false,"rental_uris":{"android":"levelo://app?vid=3a9a968d-dcc9-4ffb-90af-aadcb8469a1d","ios":"levelo://app?vid=3a9a968d-dcc9-4ffb-90af-aadcb8469a1d"},"vehicle_type_id":"4","last_reported":1739822996,"current_range_meters":6800,"station_id":"","pricing_plan_id":"cebpf4jnsgd1na2vs0mg"},{"bike_id":"87391072-fcac-4aa4-a59a-70f85ae50cbe","system_id":"levelo_inurba_marseille","lat":43.2455,"lon":5.39536,"is_reserved":false,"is_disabled":false,"rental_uris":{"android":"levelo://app?vid=87391072-fcac-4aa4-a59a-70f85ae50cbe","ios":"levelo://app?vid=87391072-fcac-4aa4-a59a-70f85ae50cbe"},"vehicle_type_id":"4","last_reported":1739822996,"current_range_meters":6800,"station_id":"ce4bhlp2rcd13ifvqgjg","pricing_plan_id":"cebpf4jnsgd1na2vs0mg"},{"bike_id":"33a2f713-59cf-4dee-bd5e-cf5438338de0","system_id":"levelo_inurba_marseille","lat":43.30456,"lon":5.36981,"is_reserved":false,"is_disabled":false,"rental_uris":{"android":"levelo://app?vid=33a2f713-59cf-4dee-bd5e-cf5438338de0","ios":"levelo://app?vid=33a2f713-59cf-4dee-bd5e-cf5438338de0"},"vehicle_type_id":"4","last_reported":1739822996,"current_range_meters":6800,"station_id":"","pricing_plan_id":"cebpf4jnsgd1na2vs0mg"},{"bike_id":"f0b1c981-e56e-4a9a-88af-2607b2470583","system_id":"levelo_inurba_marseille","lat":43.31118,"lon":5.37757,"is_reserved":false,"is_disabled":false,"rental_uris":{"android":"levelo://app?vid=f0b1c981-e56e-4a9a-88af-2607b2470583","ios":"levelo://app?vid=f0b1c981-e56e-4a9a-88af-2607b2470583"},"vehicle_type_id":"4","last_reported":1739822996,"current_range_meters":6800,"station_id":"ce4bgt92rcd13ifvqcg0","pricing_plan_id":"cebpf4jnsgd1na2vs0mg"},{"bike_id":"e2a40e08-4a05-4254-862b-b58cc14c7904","system_id":"levelo_inurba_marseille","lat":43.25083,"lon":5.3954,"is_reserved":false,"is_disabled":false,"rental_uris":{"android":"levelo://app?vid=e2a40e08-4a05-4254-862b-b58cc14c7904","ios":"levelo://app?vid=e2a40e08-4a05-4254-862b-b58cc14c7904"},"vehicle_type_id":"4","last_reported":1739822996,"current_range_meters":7200,"station_id":"ce4bhm12rcd13ifvqgkg","pricing_plan_id":"cebpf4jnsgd1na2vs0mg"},{"bike_id":"014d981f-966e-4078-ae1f-ce3c089009b7","system_id":"levelo_inurba_marseille","lat":43.30206,"lon":5.39478,"is_reserved":false,"is_disabled":false,"rental_uris":{"android":"levelo://app?vid=014d981f-966e-4078-ae1f-ce3c089009b7","ios":"levelo://app?vid=014d981f-966e-4078-ae1f-ce3c089009b7"},"vehicle_type_id":"4","last_reported":1739822996,"current_range_meters":7200,"station_id":"","pricing_plan_id":"cebpf4jnsgd1na2vs0mg"},{"bike_id":"b6aacc82-ef98-4dfa-865c-1d2aec93a303","system_id":"levelo_inurba_marseille","lat":43.28857,"lon":5.39345,"is_reserved":false,"is_disabled":false,"rental_uris":{"android":"levelo://app?vid=b6aacc82-ef98-4dfa-865c-1d2aec93a303","ios":"levelo://app?vid=b6aacc82-ef98-4dfa-865c-1d2aec93a303"},"vehicle_type_id":"4","last_reported":1739822996,"current_range_meters":7200,"station_id":"ce4bh2p2rcd13ifvqdi0","pricing_plan_id":"cebpf4jnsgd1na2vs0mg"},{"bike_id":"614dbafa-0769-47cc-835d-47386f8076ba","system_id":"levelo_inurba_marseille","lat":43.27567,"lon":5.38427,"is_reserved":false,"is_disabled":false,"rental_uris":{"android":"levelo://app?vid=614dbafa-0769-47cc-835d-47386f8076ba","ios":"levelo://app?vid=614dbafa-0769-47cc-835d-47386f8076ba"},"vehicle_type_id":"4","last_reported":1739822996,"current_range_meters":7200,"station_id":"ce4bhh92rcd13ifvqfi0","pricing_plan_id":"cebpf4jnsgd1na2vs0mg"},{"bike_id":"951b4d3f-8001-4a07-94d2-7c087d9f5ec2","system_id":"levelo_inurba_marseille","lat":43.26054,"lon":5.39379,"is_reserved":false,"is_disabled":false,"rental_uris":{"android":"levelo://app?vid=951b4d3f-8001-4a07-94d2-7c087d9f5ec2","ios":"levelo://app?vid=951b4d3f-8001-4a07-94d2-7c087d9f5ec2"},"vehicle_type_id":"4","last_reported":1739822996,"current_range_meters":7200,"station_id":"ce4bhh92rcd13ifvqfj0","pricing_plan_id":"cebpf4jnsgd1na2vs0mg"},{"bike_id":"e471ec00-2246-4950-bd78-6d29903ae48a","system_id":"levelo_inurba_marseille","lat":43.32395,"lon":5.37002,"is_reserved":false,"is_disabled":false,"rental_uris":{"android":"levelo://app?vid=e471ec00-2246-4950-bd78-6d29903ae48a","ios":"levelo://app?vid=e471ec00-2246-4950-bd78-6d29903ae48a"},"vehicle_type_id":"4","last_reported":1739822996,"current_range_meters":7200,"station_id":"ce4bhsh2rcd13ifvqi2g","pricing_plan_id":"cebpf4jnsgd1na2vs0mg"},{"bike_id":"2b278cf2-594f-4230-8154-882e1df047f2","system_id":"levelo_inurba_marseille","lat":43.24078,"lon":5.37742,"is_reserved":false,"is_disabled":false,"rental_uris":{"android":"levelo://app?vid=2b278cf2-594f-4230-8154-882e1df047f2","ios":"levelo://app?vid=2b278cf2-594f-4230-8154-882e1df047f2"},"vehicle_type_id":"4","last_reported":1739822996,"current_range_meters":7200,"station_id":"ce4bhnp2rcd13ifvqgvg","pricing_plan_id":"cebpf4jnsgd1na2vs0mg"},{"bike_id":"96a8a8cd-63f3-4d1c-b2cb-f267c0071f42","system_id":"levelo_inurba_marseille","lat":43.2482,"lon":5.37472,"is_reserved":false,"is_disabled":false,"rental_uris":{"android":"levelo://app?vid=96a8a8cd-63f3-4d1c-b2cb-f267c0071f42","ios":"levelo://app?vid=96a8a8cd-63f3-4d1c-b2cb-f267c0071f42"},"vehicle_type_id":"4","last_reported":1739822996,"current_range_meters":7200,"station_id":"","pricing_plan_id":"cebpf4jnsgd1na2vs0mg"},{"bike_id":"f8c7c3bc-d714-4c3a-90d7-fb7b3543bd22","system_id":"levelo_inurba_marseille","lat":43.30099,"lon":5.39075,"is_reserved":false,"is_disabled":false,"rental_uris":{"android":"levelo://app?vid=f8c7c3bc-d714-4c3a-90d7-fb7b3543bd22","ios":"levelo://app?vid=f8c7c3bc-d714-4c3a-90d7-fb7b3543bd22"},"vehicle_type_id":"4","last_reported":1739822996,"current_range_meters":7200,"station_id":"","pricing_plan_id":"cebpf4jnsgd1na2vs0mg"},{"bike_id":"8bdd4438-90c3-4ca2-bc31-85114c08f79e","system_id":"levelo_inurba_marseille","lat":43.287,"lon":5.37388,"is_reserved":false,"is_disabled":false,"rental_uris":{"android":"levelo://app?vid=8bdd4438-90c3-4ca2-bc31-85114c08f79e","ios":"levelo://app?vid=8bdd4438-90c3-4ca2-bc31-85114c08f79e"},"vehicle_type_id":"4","last_reported":1739822996,"current_range_meters":8000,"station_id":"ce4bh3p2rcd13ifvqdq0","pricing_plan_id":"cebpf4jnsgd1na2vs0mg"},{"bike_id":"07fcfbbd-fc40-4726-bcce-bbc10c3cde69","system_id":"levelo_inurba_marseille","lat":43.28106,"lon":5.3783,"is_reserved":false,"is_disabled":false,"rental_uris":{"android":"levelo://app?vid=07fcfbbd-fc40-4726-bcce-bbc10c3cde69","ios":"levelo://app?vid=07fcfbbd-fc40-4726-bcce-bbc10c3cde69"},"vehicle_type_id":"4","last_reported":1739822996,"current_range_meters":8000,"station_id":"ce4bha12rcd13ifvqee0","pricing_plan_id":"cebpf4jnsgd1na2vs0mg"},{"bike_id":"e3d6353b-0087-4531-ab55-520477030435","system_id":"levelo_inurba_marseille","lat":43.30122,"lon":5.38788,"is_reserved":false,"is_disabled":false,"rental_uris":{"android":"levelo://app?vid=e3d6353b-0087-4531-ab55-520477030435","ios":"levelo://app?vid=e3d6353b-0087-4531-ab55-520477030435"},"vehicle_type_id":"4","last_reported":1739822996,"current_range_meters":8000,"station_id":"","pricing_plan_id":"cebpf4jnsgd1na2vs0mg"},{"bike_id":"ed8a70fc-9185-4d37-8891-aab88825340a","system_id":"levelo_inurba_marseille","lat":43.3026,"lon":5.40083,"is_reserved":false,"is_disabled":false,"rental_uris":{"android":"levelo://app?vid=ed8a70fc-9185-4d37-8891-aab88825340a","ios":"levelo://app?vid=ed8a70fc-9185-4d37-8891-aab88825340a"},"vehicle_type_id":"4","last_reported":1739822996,"current_range_meters":8000,"station_id":"ce4bgvh2rcd13ifvqcs0","pricing_plan_id":"cebpf4jnsgd1na2vs0mg"},{"bike_id":"fc81b538-1b3e-40ea-aa1b-dd9cbd3e0fea","system_id":"levelo_inurba_marseille","lat":43.31692,"lon":5.37832,"is_reserved":false,"is_disabled":false,"rental_uris":{"android":"levelo://app?vid=fc81b538-1b3e-40ea-aa1b-dd9cbd3e0fea","ios":"levelo://app?vid=fc81b538-1b3e-40ea-aa1b-dd9cbd3e0fea"},"vehicle_type_id":"4","last_reported":1739822996,"current_range_meters":8000,"station_id":"ce4bgth2rcd13ifvqch0","pricing_plan_id":"cebpf4jnsgd1na2vs0mg"},{"bike_id":"cbe20c45-938f-40af-a879-ecc5b18a088b","system_id":"levelo_inurba_marseille","lat":43.2842,"lon":5.37506,"is_reserved":false,"is_disabled":false,"rental_uris":{"android":"levelo://app?vid=cbe20c45-938f-40af-a879-ecc5b18a088b","ios":"levelo://app?vid=cbe20c45-938f-40af-a879-ecc5b18a088b"},"vehicle_type_id":"4","last_reported":1739822996,"current_range_meters":8000,"station_id":"","pricing_plan_id":"cebpf4jnsgd1na2vs0mg"},{"bike_id":"719440cf-49d6-467d-83b4-f8177f30e991","system_id":"levelo_inurba_marseille","lat":43.2814,"lon":5.42652,"is_reserved":false,"is_disabled":false,"rental_uris":{"android":"levelo://app?vid=719440cf-49d6-467d-83b4-f8177f30e991","ios":"levelo://app?vid=719440cf-49d6-467d-83b4-f8177f30e991"},"vehicle_type_id":"4","last_reported":1739822996,"current_range_meters":8000,"station_id":"","pricing_plan_id":"cebpf4jnsgd1na2vs0mg"},{"bike_id":"9f72b035-42cd-4ed2-9def-93c83a040988","system_id":"levelo_inurba_marseille","lat":43.24077,"lon":5.37763,"is_reserved":false,"is_disabled":false,"rental_uris":{"android":"levelo://app?vid=9f72b035-42cd-4ed2-9def-93c83a040988","ios":"levelo://app?vid=9f72b035-42cd-4ed2-9def-93c83a040988"},"vehicle_type_id":"4","last_reported":1739822996,"current_range_meters":8000,"station_id":"ce4bhnp2rcd13ifvqgvg","pricing_plan_id":"cebpf4jnsgd1na2vs0mg"},{"bike_id":"2af45b9a-8c0d-4f01-a654-0c80764127bf","system_id":"levelo_inurba_marseille","lat":43.28723,"lon":5.36091,"is_reserved":false,"is_disabled":true,"rental_uris":{"android":"levelo://app?vid=2af45b9a-8c0d-4f01-a654-0c80764127bf","ios":"levelo://app?vid=2af45b9a-8c0d-4f01-a654-0c80764127bf"},"vehicle_type_id":"4","last_reported":1739822996,"current_range_meters":8000,"station_id":"cki0cbj6b192h4jlfktg","pricing_plan_id":"cebpf4jnsgd1na2vs0mg"},{"bike_id":"2026fe3f-65a8-4038-ba84-b3acc82ea882","system_id":"levelo_inurba_marseille","lat":43.320515,"lon":5.415308,"is_reserved":false,"is_disabled":false,"rental_uris":{"android":"levelo://app?vid=2026fe3f-65a8-4038-ba84-b3acc82ea882","ios":"levelo://app?vid=2026fe3f-65a8-4038-ba84-b3acc82ea882"},"vehicle_type_id":"4","last_reported":1739822996,"current_range_meters":8000,"station_id":"ce4bhq92rcd13ifvqhkg","pricing_plan_id":"cebpf4jnsgd1na2vs0mg"},{"bike_id":"978eaaf2-6b61-4ed0-bca9-4924592d3303","system_id":"levelo_inurba_marseille","lat":43.2871,"lon":5.37386,"is_reserved":false,"is_disabled":false,"rental_uris":{"android":"levelo://app?vid=978eaaf2-6b61-4ed0-bca9-4924592d3303","ios":"levelo://app?vid=978eaaf2-6b61-4ed0-bca9-4924592d3303"},"vehicle_type_id":"4","last_reported":1739822996,"current_range_meters":8000,"station_id":"","pricing_plan_id":"cebpf4jnsgd1na2vs0mg"},{"bike_id":"1028d825-a809-400b-a433-b2f52b266986","system_id":"levelo_inurba_marseille","lat":43.30923,"lon":5.37906,"is_reserved":false,"is_disabled":false,"rental_uris":{"android":"levelo://app?vid=1028d825-a809-400b-a433-b2f52b266986","ios":"levelo://app?vid=1028d825-a809-400b-a433-b2f52b266986"},"vehicle_type_id":"4","last_reported":1739822996,"current_range_meters":8000,"station_id":"","pricing_plan_id":"cebpf4jnsgd1na2vs0mg"},{"bike_id":"5971354e-a649-46da-aa95-0938610f3ebc","system_id":"levelo_inurba_marseille","lat":43.30102,"lon":5.3908,"is_reserved":false,"is_disabled":false,"rental_uris":{"android":"levelo://app?vid=5971354e-a649-46da-aa95-0938610f3ebc","ios":"levelo://app?vid=5971354e-a649-46da-aa95-0938610f3ebc"},"vehicle_type_id":"4","last_reported":1739822996,"current_range_meters":8400,"station_id":"","pricing_plan_id":"cebpf4jnsgd1na2vs0mg"},{"bike_id":"ecf94a46-896a-477b-9072-efe33284489c","system_id":"levelo_inurba_marseille","lat":43.28859,"lon":5.39293,"is_reserved":false,"is_disabled":false,"rental_uris":{"android":"levelo://app?vid=ecf94a46-896a-477b-9072-efe33284489c","ios":"levelo://app?vid=ecf94a46-896a-477b-9072-efe33284489c"},"vehicle_type_id":"4","last_reported":1739822996,"current_range_meters":8400,"station_id":"ce4bh2p2rcd13ifvqdi0","pricing_plan_id":"cebpf4jnsgd1na2vs0mg"},{"bike_id":"47b43428-baa8-4f17-b113-3f79a1469e0a","system_id":"levelo_inurba_marseille","lat":43.27958,"lon":5.41049,"is_reserved":false,"is_disabled":false,"rental_uris":{"android":"levelo://app?vid=47b43428-baa8-4f17-b113-3f79a1469e0a","ios":"levelo://app?vid=47b43428-baa8-4f17-b113-3f79a1469e0a"},"vehicle_type_id":"4","last_reported":1739822996,"current_range_meters":8400,"station_id":"ce4bhnp2rcd13ifvqh0g","pricing_plan_id":"cebpf4jnsgd1na2vs0mg"},{"bike_id":"2e5e89c3-0e0e-4cca-b25a-7707cb6d7c5d","system_id":"levelo_inurba_marseille","lat":43.27676,"lon":5.40848,"is_reserved":false,"is_disabled":false,"rental_uris":{"android":"levelo://app?vid=2e5e89c3-0e0e-4cca-b25a-7707cb6d7c5d","ios":"levelo://app?vid=2e5e89c3-0e0e-4cca-b25a-7707cb6d7c5d"},"vehicle_type_id":"4","last_reported":1739822996,"current_range_meters":8400,"station_id":"","pricing_plan_id":"cebpf4jnsgd1na2vs0mg"},{"bike_id":"01bec25a-ce9b-41ff-8b8e-4879fb269a23","system_id":"levelo_inurba_marseille","lat":43.24162,"lon":5.36409,"is_reserved":false,"is_disabled":false,"rental_uris":{"android":"levelo://app?vid=01bec25a-ce9b-41ff-8b8e-4879fb269a23","ios":"levelo://app?vid=01bec25a-ce9b-41ff-8b8e-4879fb269a23"},"vehicle_type_id":"4","last_reported":1739822996,"current_range_meters":8400,"station_id":"","pricing_plan_id":"cebpf4jnsgd1na2vs0mg"},{"bike_id":"0e100a33-eafb-4d74-bfcb-df30a048ca1f","system_id":"levelo_inurba_marseille","lat":43.25188,"lon":5.40476,"is_reserved":false,"is_disabled":false,"rental_uris":{"android":"levelo://app?vid=0e100a33-eafb-4d74-bfcb-df30a048ca1f","ios":"levelo://app?vid=0e100a33-eafb-4d74-bfcb-df30a048ca1f"},"vehicle_type_id":"4","last_reported":1739822996,"current_range_meters":8400,"station_id":"ce4bhlh2rcd13ifvqgig","pricing_plan_id":"cebpf4jnsgd1na2vs0mg"},{"bike_id":"35761b38-c311-46ce-99f8-a2a03925d646","system_id":"levelo_inurba_marseille","lat":43.27621,"lon":5.36104,"is_reserved":false,"is_disabled":false,"rental_uris":{"android":"levelo://app?vid=35761b38-c311-46ce-99f8-a2a03925d646","ios":"levelo://app?vid=35761b38-c311-46ce-99f8-a2a03925d646"},"vehicle_type_id":"4","last_reported":1739822996,"current_range_meters":8000,"station_id":"ce4bgj92rcd13ifvqbe0","pricing_plan_id":"cebpf4jnsgd1na2vs0mg"},{"bike_id":"a2e53d4e-b4c3-48cb-a38b-60984c05c209","system_id":"levelo_inurba_marseille","lat":43.29557,"lon":5.37508,"is_reserved":false,"is_disabled":false,"rental_uris":{"android":"levelo://app?vid=a2e53d4e-b4c3-48cb-a38b-60984c05c209","ios":"levelo://app?vid=a2e53d4e-b4c3-48cb-a38b-60984c05c209"},"vehicle_type_id":"4","last_reported":1739822996,"current_range_meters":8400,"station_id":"ce4bgh92rcd13ifvqb50","pricing_plan_id":"cebpf4jnsgd1na2vs0mg"},{"bike_id":"aeb146d7-9a7c-4f17-afb8-eb73e5fe637d","system_id":"levelo_inurba_marseille","lat":43.24805,"lon":5.37457,"is_reserved":false,"is_disabled":false,"rental_uris":{"android":"levelo://app?vid=aeb146d7-9a7c-4f17-afb8-eb73e5fe637d","ios":"levelo://app?vid=aeb146d7-9a7c-4f17-afb8-eb73e5fe637d"},"vehicle_type_id":"4","last_reported":1739822996,"current_range_meters":8400,"station_id":"","pricing_plan_id":"cebpf4jnsgd1na2vs0mg"},{"bike_id":"357ed3a3-7e37-4e37-a2fd-f22972be35a3","system_id":"levelo_inurba_marseille","lat":43.30136,"lon":5.38758,"is_reserved":false,"is_disabled":false,"rental_uris":{"android":"levelo://app?vid=357ed3a3-7e37-4e37-a2fd-f22972be35a3","ios":"levelo://app?vid=357ed3a3-7e37-4e37-a2fd-f22972be35a3"},"vehicle_type_id":"4","last_reported":1739822996,"current_range_meters":8400,"station_id":"ce4bhoh2rcd13ifvqh6g","pricing_plan_id":"cebpf4jnsgd1na2vs0mg"},{"bike_id":"fc404722-a79a-40d0-8e0a-e58382575551","system_id":"levelo_inurba_marseille","lat":43.27995,"lon":5.40064,"is_reserved":false,"is_disabled":false,"rental_uris":{"android":"levelo://app?vid=fc404722-a79a-40d0-8e0a-e58382575551","ios":"levelo://app?vid=fc404722-a79a-40d0-8e0a-e58382575551"},"vehicle_type_id":"4","last_reported":1739822996,"current_range_meters":8400,"station_id":"ce4bho92rcd13ifvqh4g","pricing_plan_id":"cebpf4jnsgd1na2vs0mg"},{"bike_id":"b2adfa86-5626-4c80-b6a4-718caf1b0c58","system_id":"levelo_inurba_marseille","lat":43.28625,"lon":5.35097,"is_reserved":false,"is_disabled":false,"rental_uris":{"android":"levelo://app?vid=b2adfa86-5626-4c80-b6a4-718caf1b0c58","ios":"levelo://app?vid=b2adfa86-5626-4c80-b6a4-718caf1b0c58"},"vehicle_type_id":"4","last_reported":1739822996,"current_range_meters":8800,"station_id":"","pricing_plan_id":"cebpf4jnsgd1na2vs0mg"},{"bike_id":"45e65164-741c-42c0-a9dc-b211cdd2a33f","system_id":"levelo_inurba_marseille","lat":43.30147,"lon":5.38064,"is_reserved":false,"is_disabled":false,"rental_uris":{"android":"levelo://app?vid=45e65164-741c-42c0-a9dc-b211cdd2a33f","ios":"levelo://app?vid=45e65164-741c-42c0-a9dc-b211cdd2a33f"},"vehicle_type_id":"4","last_reported":1739822996,"current_range_meters":8400,"station_id":"ce4bgjp2rcd13ifvqbh0","pricing_plan_id":"cebpf4jnsgd1na2vs0mg"},{"bike_id":"7529b7d3-3386-4c69-b82f-12a292d850ae","system_id":"levelo_inurba_marseille","lat":43.27943,"lon":5.41061,"is_reserved":false,"is_disabled":false,"rental_uris":{"android":"levelo://app?vid=7529b7d3-3386-4c69-b82f-12a292d850ae","ios":"levelo://app?vid=7529b7d3-3386-4c69-b82f-12a292d850ae"},"vehicle_type_id":"4","last_reported":1739822996,"current_range_meters":8800,"station_id":"ce4bhnp2rcd13ifvqh0g","pricing_plan_id":"cebpf4jnsgd1na2vs0mg"},{"bike_id":"8a49e737-2dba-437e-b0e4-c61d64b4fa11","system_id":"levelo_inurba_marseille","lat":43.24561,"lon":5.39524,"is_reserved":false,"is_disabled":false,"rental_uris":{"android":"levelo://app?vid=8a49e737-2dba-437e-b0e4-c61d64b4fa11","ios":"levelo://app?vid=8a49e737-2dba-437e-b0e4-c61d64b4fa11"},"vehicle_type_id":"4","last_reported":1739822996,"current_range_meters":8800,"station_id":"ce4bhlp2rcd13ifvqgjg","pricing_plan_id":"cebpf4jnsgd1na2vs0mg"},{"bike_id":"5d39d2d7-f0ca-42dc-882b-bba26e125fdd","system_id":"levelo_inurba_marseille","lat":43.26555,"lon":5.37283,"is_reserved":false,"is_disabled":false,"rental_uris":{"android":"levelo://app?vid=5d39d2d7-f0ca-42dc-882b-bba26e125fdd","ios":"levelo://app?vid=5d39d2d7-f0ca-42dc-882b-bba26e125fdd"},"vehicle_type_id":"4","last_reported":1739822996,"current_range_meters":8800,"station_id":"ce4bhg12rcd13ifvqf70","pricing_plan_id":"cebpf4jnsgd1na2vs0mg"},{"bike_id":"e7c6ff93-3017-44e4-9070-611fabfc5bfc","system_id":"levelo_inurba_marseille","lat":43.28417,"lon":5.34988,"is_reserved":false,"is_disabled":false,"rental_uris":{"android":"levelo://app?vid=e7c6ff93-3017-44e4-9070-611fabfc5bfc","ios":"levelo://app?vid=e7c6ff93-3017-44e4-9070-611fabfc5bfc"},"vehicle_type_id":"4","last_reported":1739822996,"current_range_meters":8800,"station_id":"ce4bhbh2rcd13ifvqepg","pricing_plan_id":"cebpf4jnsgd1na2vs0mg"},{"bike_id":"4c7fa70c-e0fb-4e98-8349-3dd589c1f692","system_id":"levelo_inurba_marseille","lat":43.25108,"lon":5.40336,"is_reserved":false,"is_disabled":false,"rental_uris":{"android":"levelo://app?vid=4c7fa70c-e0fb-4e98-8349-3dd589c1f692","ios":"levelo://app?vid=4c7fa70c-e0fb-4e98-8349-3dd589c1f692"},"vehicle_type_id":"4","last_reported":1739822996,"current_range_meters":9200,"station_id":"ce4bhlh2rcd13ifvqgig","pricing_plan_id":"cebpf4jnsgd1na2vs0mg"},{"bike_id":"58ccda7a-a7ea-4fd0-85a2-aaffebd84961","system_id":"levelo_inurba_marseille","lat":43.24998,"lon":5.38927,"is_reserved":false,"is_disabled":false,"rental_uris":{"android":"levelo://app?vid=58ccda7a-a7ea-4fd0-85a2-aaffebd84961","ios":"levelo://app?vid=58ccda7a-a7ea-4fd0-85a2-aaffebd84961"},"vehicle_type_id":"4","last_reported":1739822996,"current_range_meters":9200,"station_id":"ce4bhgp2rcd13ifvqfd0","pricing_plan_id":"cebpf4jnsgd1na2vs0mg"},{"bike_id":"542d681f-a9f9-4b66-8519-5295b3261dc9","system_id":"levelo_inurba_marseille","lat":43.300938,"lon":5.390792,"is_reserved":false,"is_disabled":false,"rental_uris":{"android":"levelo://app?vid=542d681f-a9f9-4b66-8519-5295b3261dc9","ios":"levelo://app?vid=542d681f-a9f9-4b66-8519-5295b3261dc9"},"vehicle_type_id":"4","last_reported":1739822996,"current_range_meters":9200,"station_id":"","pricing_plan_id":"cebpf4jnsgd1na2vs0mg"},{"bike_id":"cf88743b-ec29-46d2-8b88-961b886f8b2a","system_id":"levelo_inurba_marseille","lat":43.26592,"lon":5.38983,"is_reserved":false,"is_disabled":true,"rental_uris":{"android":"levelo://app?vid=cf88743b-ec29-46d2-8b88-961b886f8b2a","ios":"levelo://app?vid=cf88743b-ec29-46d2-8b88-961b886f8b2a"},"vehicle_type_id":"4","last_reported":1739822996,"current_range_meters":9200,"station_id":"ce4bhe12rcd13ifvqf30","pricing_plan_id":"cebpf4jnsgd1na2vs0mg"},{"bike_id":"fc9c7cc8-6acb-4dbf-b2d2-323565e1aa3d","system_id":"levelo_inurba_marseille","lat":43.29965,"lon":5.38486,"is_reserved":false,"is_disabled":false,"rental_uris":{"android":"levelo://app?vid=fc9c7cc8-6acb-4dbf-b2d2-323565e1aa3d","ios":"levelo://app?vid=fc9c7cc8-6acb-4dbf-b2d2-323565e1aa3d"},"vehicle_type_id":"4","last_reported":1739822996,"current_range_meters":9200,"station_id":"ce4bgj92rcd13ifvqbd0","pricing_plan_id":"cebpf4jnsgd1na2vs0mg"},{"bike_id":"a39cb526-3cbe-4af0-9bb2-1e4674997b82","system_id":"levelo_inurba_marseille","lat":43.29795,"lon":5.38102,"is_reserved":false,"is_disabled":false,"rental_uris":{"android":"levelo://app?vid=a39cb526-3cbe-4af0-9bb2-1e4674997b82","ios":"levelo://app?vid=a39cb526-3cbe-4af0-9bb2-1e4674997b82"},"vehicle_type_id":"4","last_reported":1739822996,"current_range_meters":9200,"station_id":"ce4bgip2rcd13ifvqbb0","pricing_plan_id":"cebpf4jnsgd1na2vs0mg"},{"bike_id":"98dafedc-f25b-409d-b3e2-803b47ffb900","system_id":"levelo_inurba_marseille","lat":43.2449,"lon":5.37264,"is_reserved":false,"is_disabled":false,"rental_uris":{"android":"levelo://app?vid=98dafedc-f25b-409d-b3e2-803b47ffb900","ios":"levelo://app?vid=98dafedc-f25b-409d-b3e2-803b47ffb900"},"vehicle_type_id":"4","last_reported":1739822996,"current_range_meters":9200,"station_id":"","pricing_plan_id":"cebpf4jnsgd1na2vs0mg"},{"bike_id":"1adbfbc2-d659-4291-b1f9-80e0a05cd487","system_id":"levelo_inurba_marseille","lat":43.29438,"lon":5.39763,"is_reserved":false,"is_disabled":false,"rental_uris":{"android":"levelo://app?vid=1adbfbc2-d659-4291-b1f9-80e0a05cd487","ios":"levelo://app?vid=1adbfbc2-d659-4291-b1f9-80e0a05cd487"},"vehicle_type_id":"4","last_reported":1739822996,"current_range_meters":8800,"station_id":"ce4bh3h2rcd13ifvqdo0","pricing_plan_id":"cebpf4jnsgd1na2vs0mg"},{"bike_id":"eb7327fd-672e-4c19-a810-f4aa8a6d8207","system_id":"levelo_inurba_marseille","lat":43.30002,"lon":5.37354,"is_reserved":false,"is_disabled":false,"rental_uris":{"android":"levelo://app?vid=eb7327fd-672e-4c19-a810-f4aa8a6d8207","ios":"levelo://app?vid=eb7327fd-672e-4c19-a810-f4aa8a6d8207"},"vehicle_type_id":"4","last_reported":1739822996,"current_range_meters":9600,"station_id":"","pricing_plan_id":"cebpf4jnsgd1na2vs0mg"},{"bike_id":"447d9f1c-310c-4b2f-97ed-a1b2f18d13ea","system_id":"levelo_inurba_marseille","lat":43.29427,"lon":5.38639,"is_reserved":false,"is_disabled":false,"rental_uris":{"android":"levelo://app?vid=447d9f1c-310c-4b2f-97ed-a1b2f18d13ea","ios":"levelo://app?vid=447d9f1c-310c-4b2f-97ed-a1b2f18d13ea"},"vehicle_type_id":"4","last_reported":1739822996,"current_range_meters":9600,"station_id":"ce4bh2h2rcd13ifvqdh0","pricing_plan_id":"cebpf4jnsgd1na2vs0mg"},{"bike_id":"c72dd471-889d-41d7-939b-cdf433bd5acf","system_id":"levelo_inurba_marseille","lat":43.26216,"lon":5.37433,"is_reserved":false,"is_disabled":false,"rental_uris":{"android":"levelo://app?vid=c72dd471-889d-41d7-939b-cdf433bd5acf","ios":"levelo://app?vid=c72dd471-889d-41d7-939b-cdf433bd5acf"},"vehicle_type_id":"4","last_reported":1739822996,"current_range_meters":9600,"station_id":"ce4bhgp2rcd13ifvqfc0","pricing_plan_id":"cebpf4jnsgd1na2vs0mg"},{"bike_id":"7f6b860c-f94e-4637-b301-c0d86757f1fa","system_id":"levelo_inurba_marseille","lat":43.284907,"lon":5.38409,"is_reserved":false,"is_disabled":false,"rental_uris":{"android":"levelo://app?vid=7f6b860c-f94e-4637-b301-c0d86757f1fa","ios":"levelo://app?vid=7f6b860c-f94e-4637-b301-c0d86757f1fa"},"vehicle_type_id":"4","last_reported":1739822996,"current_range_meters":9600,"station_id":"ce4bh0h2rcd13ifvqd40","pricing_plan_id":"cebpf4jnsgd1na2vs0mg"},{"bike_id":"8dbe617a-73bb-43b1-955a-f0b57c2f6fa2","system_id":"levelo_inurba_marseille","lat":43.27385,"lon":5.36278,"is_reserved":false,"is_disabled":false,"rental_uris":{"android":"levelo://app?vid=8dbe617a-73bb-43b1-955a-f0b57c2f6fa2","ios":"levelo://app?vid=8dbe617a-73bb-43b1-955a-f0b57c2f6fa2"},"vehicle_type_id":"4","last_reported":1739822996,"current_range_meters":9600,"station_id":"ce4bhbh2rcd13ifvqeo0","pricing_plan_id":"cebpf4jnsgd1na2vs0mg"},{"bike_id":"d7f5a6fe-ccef-4fa8-9660-769eb9e2899e","system_id":"levelo_inurba_marseille","lat":43.23958,"lon":5.3663,"is_reserved":false,"is_disabled":false,"rental_uris":{"android":"levelo://app?vid=d7f5a6fe-ccef-4fa8-9660-769eb9e2899e","ios":"levelo://app?vid=d7f5a6fe-ccef-4fa8-9660-769eb9e2899e"},"vehicle_type_id":"4","last_reported":1739822996,"current_range_meters":9600,"station_id":"ce4bhi12rcd13ifvqfp0","pricing_plan_id":"cebpf4jnsgd1na2vs0mg"},{"bike_id":"5a526824-0a51-426c-bf69-def735343d26","system_id":"levelo_inurba_marseille","lat":43.24814,"lon":5.37483,"is_reserved":false,"is_disabled":false,"rental_uris":{"android":"levelo://app?vid=5a526824-0a51-426c-bf69-def735343d26","ios":"levelo://app?vid=5a526824-0a51-426c-bf69-def735343d26"},"vehicle_type_id":"4","last_reported":1739822996,"current_range_meters":10000,"station_id":"ce4bhgh2rcd13ifvqfb0","pricing_plan_id":"cebpf4jnsgd1na2vs0mg"},{"bike_id":"9945348e-4dc9-48da-9d8f-f496721a8f8f","system_id":"levelo_inurba_marseille","lat":43.330133,"lon":5.39029,"is_reserved":false,"is_disabled":false,"rental_uris":{"android":"levelo://app?vid=9945348e-4dc9-48da-9d8f-f496721a8f8f","ios":"levelo://app?vid=9945348e-4dc9-48da-9d8f-f496721a8f8f"},"vehicle_type_id":"4","last_reported":1739822996,"current_range_meters":10000,"station_id":"ce4bhr92rcd13ifvqhrg","pricing_plan_id":"cebpf4jnsgd1na2vs0mg"},{"bike_id":"d86dfb12-e53b-4663-b0b1-0753b604c6ce","system_id":"levelo_inurba_marseille","lat":43.29268,"lon":5.40122,"is_reserved":false,"is_disabled":true,"rental_uris":{"android":"levelo://app?vid=d86dfb12-e53b-4663-b0b1-0753b604c6ce","ios":"levelo://app?vid=d86dfb12-e53b-4663-b0b1-0753b604c6ce"},"vehicle_type_id":"4","last_reported":1739822996,"current_range_meters":10000,"station_id":"ce4bh312rcd13ifvqdk0","pricing_plan_id":"cebpf4jnsgd1na2vs0mg"},{"bike_id":"a0dfaaa5-2564-40a0-a720-c6022c8dbdf6","system_id":"levelo_inurba_marseille","lat":43.25501,"lon":5.37654,"is_reserved":false,"is_disabled":false,"rental_uris":{"android":"levelo://app?vid=a0dfaaa5-2564-40a0-a720-c6022c8dbdf6","ios":"levelo://app?vid=a0dfaaa5-2564-40a0-a720-c6022c8dbdf6"},"vehicle_type_id":"4","last_reported":1739822996,"current_range_meters":10000,"station_id":"ce4bhh12rcd13ifvqff0","pricing_plan_id":"cebpf4jnsgd1na2vs0mg"},{"bike_id":"b2eb9521-66ab-42ef-b99e-25163d1a8c42","system_id":"levelo_inurba_marseille","lat":43.3189,"lon":5.40731,"is_reserved":false,"is_disabled":false,"rental_uris":{"android":"levelo://app?vid=b2eb9521-66ab-42ef-b99e-25163d1a8c42","ios":"levelo://app?vid=b2eb9521-66ab-42ef-b99e-25163d1a8c42"},"vehicle_type_id":"4","last_reported":1739822996,"current_range_meters":10000,"station_id":"","pricing_plan_id":"cebpf4jnsgd1na2vs0mg"},{"bike_id":"809cf213-6737-468b-b233-c26bf016ca47","system_id":"levelo_inurba_marseille","lat":43.28152,"lon":5.42641,"is_reserved":false,"is_disabled":false,"rental_uris":{"android":"levelo://app?vid=809cf213-6737-468b-b233-c26bf016ca47","ios":"levelo://app?vid=809cf213-6737-468b-b233-c26bf016ca47"},"vehicle_type_id":"4","last_reported":1739822996,"current_range_meters":10000,"station_id":"ce4bhnh2rcd13ifvqgug","pricing_plan_id":"cebpf4jnsgd1na2vs0mg"},{"bike_id":"66ed469b-d93d-4f02-8303-f89abc30ac46","system_id":"levelo_inurba_marseille","lat":43.290363,"lon":5.375674,"is_reserved":false,"is_disabled":false,"rental_uris":{"android":"levelo://app?vid=66ed469b-d93d-4f02-8303-f89abc30ac46","ios":"levelo://app?vid=66ed469b-d93d-4f02-8303-f89abc30ac46"},"vehicle_type_id":"4","last_reported":1739822996,"current_range_meters":10000,"station_id":"ce4bhah2rcd13ifvqej0","pricing_plan_id":"cebpf4jnsgd1na2vs0mg"},{"bike_id":"9b539641-d6fc-4e56-8744-46151aa98684","system_id":"levelo_inurba_marseille","lat":43.26479,"lon":5.39559,"is_reserved":false,"is_disabled":false,"rental_uris":{"android":"levelo://app?vid=9b539641-d6fc-4e56-8744-46151aa98684","ios":"levelo://app?vid=9b539641-d6fc-4e56-8744-46151aa98684"},"vehicle_type_id":"4","last_reported":1739822996,"current_range_meters":10000,"station_id":"ce4bhi12rcd13ifvqfq0","pricing_plan_id":"cebpf4jnsgd1na2vs0mg"},{"bike_id":"8d365853-1905-4307-bde4-c65df14d248d","system_id":"levelo_inurba_marseille","lat":43.28436,"lon":5.39187,"is_reserved":false,"is_disabled":false,"rental_uris":{"android":"levelo://app?vid=8d365853-1905-4307-bde4-c65df14d248d","ios":"levelo://app?vid=8d365853-1905-4307-bde4-c65df14d248d"},"vehicle_type_id":"4","last_reported":1739822996,"current_range_meters":10000,"station_id":"ce4bhoh2rcd13ifvqh5g","pricing_plan_id":"cebpf4jnsgd1na2vs0mg"},{"bike_id":"bc4f591c-5520-4012-8c42-ce2e7ef9c7b3","system_id":"levelo_inurba_marseille","lat":43.30107,"lon":5.39071,"is_reserved":false,"is_disabled":false,"rental_uris":{"android":"levelo://app?vid=bc4f591c-5520-4012-8c42-ce2e7ef9c7b3","ios":"levelo://app?vid=bc4f591c-5520-4012-8c42-ce2e7ef9c7b3"},"vehicle_type_id":"4","last_reported":1739822996,"current_range_meters":10800,"station_id":"ce4bh192rcd13ifvqdb0","pricing_plan_id":"cebpf4jnsgd1na2vs0mg"},{"bike_id":"811901b7-6a39-4b98-9209-f363e05c2482","system_id":"levelo_inurba_marseille","lat":43.28154,"lon":5.42633,"is_reserved":false,"is_disabled":false,"rental_uris":{"android":"levelo://app?vid=811901b7-6a39-4b98-9209-f363e05c2482","ios":"levelo://app?vid=811901b7-6a39-4b98-9209-f363e05c2482"},"vehicle_type_id":"4","last_reported":1739822996,"current_range_meters":10800,"station_id":"ce4bhnh2rcd13ifvqgug","pricing_plan_id":"cebpf4jnsgd1na2vs0mg"},{"bike_id":"ade2713e-6359-472f-81d7-1c487882d280","system_id":"levelo_inurba_marseille","lat":43.288517,"lon":5.358603,"is_reserved":false,"is_disabled":false,"rental_uris":{"android":"levelo://app?vid=ade2713e-6359-472f-81d7-1c487882d280","ios":"levelo://app?vid=ade2713e-6359-472f-81d7-1c487882d280"},"vehicle_type_id":"4","last_reported":1739822996,"current_range_meters":10800,"station_id":"ce4bhb12rcd13ifvqem0","pricing_plan_id":"cebpf4jnsgd1na2vs0mg"},{"bike_id":"b47411c6-8c7d-477c-8857-3de25b957c84","system_id":"levelo_inurba_marseille","lat":43.25082,"lon":5.39495,"is_reserved":false,"is_disabled":false,"rental_uris":{"android":"levelo://app?vid=b47411c6-8c7d-477c-8857-3de25b957c84","ios":"levelo://app?vid=b47411c6-8c7d-477c-8857-3de25b957c84"},"vehicle_type_id":"4","last_reported":1739822996,"current_range_meters":10800,"station_id":"ce4bhm12rcd13ifvqgkg","pricing_plan_id":"cebpf4jnsgd1na2vs0mg"},{"bike_id":"2aef7b3e-6346-4c25-8736-5f49d9749908","system_id":"levelo_inurba_marseille","lat":43.32361,"lon":5.38882,"is_reserved":false,"is_disabled":false,"rental_uris":{"android":"levelo://app?vid=2aef7b3e-6346-4c25-8736-5f49d9749908","ios":"levelo://app?vid=2aef7b3e-6346-4c25-8736-5f49d9749908"},"vehicle_type_id":"4","last_reported":1739822996,"current_range_meters":10800,"station_id":"","pricing_plan_id":"cebpf4jnsgd1na2vs0mg"},{"bike_id":"63213ce8-ab3b-490e-8b8e-c1a55a68b2ca","system_id":"levelo_inurba_marseille","lat":43.2951,"lon":5.38198,"is_reserved":false,"is_disabled":true,"rental_uris":{"android":"levelo://app?vid=63213ce8-ab3b-490e-8b8e-c1a55a68b2ca","ios":"levelo://app?vid=63213ce8-ab3b-490e-8b8e-c1a55a68b2ca"},"vehicle_type_id":"4","last_reported":1739822996,"current_range_meters":10800,"station_id":"","pricing_plan_id":"cebpf4jnsgd1na2vs0mg"},{"bike_id":"6712a9e1-c428-4991-a16e-c35bd007885f","system_id":"levelo_inurba_marseille","lat":43.30225,"lon":5.39434,"is_reserved":false,"is_disabled":false,"rental_uris":{"android":"levelo://app?vid=6712a9e1-c428-4991-a16e-c35bd007885f","ios":"levelo://app?vid=6712a9e1-c428-4991-a16e-c35bd007885f"},"vehicle_type_id":"4","last_reported":1739822996,"current_range_meters":11200,"station_id":"ce4bh0p2rcd13ifvqd70","pricing_plan_id":"cebpf4jnsgd1na2vs0mg"},{"bike_id":"d34fb92a-af04-4ce4-bc7f-267fe4fe0f97","system_id":"levelo_inurba_marseille","lat":43.2841,"lon":5.34986,"is_reserved":false,"is_disabled":false,"rental_uris":{"android":"levelo://app?vid=d34fb92a-af04-4ce4-bc7f-267fe4fe0f97","ios":"levelo://app?vid=d34fb92a-af04-4ce4-bc7f-267fe4fe0f97"},"vehicle_type_id":"4","last_reported":1739822996,"current_range_meters":11200,"station_id":"ce4bhbh2rcd13ifvqepg","pricing_plan_id":"cebpf4jnsgd1na2vs0mg"},{"bike_id":"cbeeec47-b04c-4cb8-b7a9-e4f95942daf7","system_id":"levelo_inurba_marseille","lat":43.31992,"lon":5.38159,"is_reserved":false,"is_disabled":false,"rental_uris":{"android":"levelo://app?vid=cbeeec47-b04c-4cb8-b7a9-e4f95942daf7","ios":"levelo://app?vid=cbeeec47-b04c-4cb8-b7a9-e4f95942daf7"},"vehicle_type_id":"4","last_reported":1739822996,"current_range_meters":11200,"station_id":"ce4bhr12rcd13ifvqhpg","pricing_plan_id":"cebpf4jnsgd1na2vs0mg"},{"bike_id":"dcf310c5-15ca-498b-bf9c-cd6c77922408","system_id":"levelo_inurba_marseille","lat":43.23962,"lon":5.36635,"is_reserved":false,"is_disabled":false,"rental_uris":{"android":"levelo://app?vid=dcf310c5-15ca-498b-bf9c-cd6c77922408","ios":"levelo://app?vid=dcf310c5-15ca-498b-bf9c-cd6c77922408"},"vehicle_type_id":"4","last_reported":1739822996,"current_range_meters":11200,"station_id":"ce4bhi12rcd13ifvqfp0","pricing_plan_id":"cebpf4jnsgd1na2vs0mg"},{"bike_id":"0d1f0db9-7c7b-4d5e-8377-1a7972666229","system_id":"levelo_inurba_marseille","lat":43.29443,"lon":5.39744,"is_reserved":false,"is_disabled":false,"rental_uris":{"android":"levelo://app?vid=0d1f0db9-7c7b-4d5e-8377-1a7972666229","ios":"levelo://app?vid=0d1f0db9-7c7b-4d5e-8377-1a7972666229"},"vehicle_type_id":"4","last_reported":1739822996,"current_range_meters":11200,"station_id":"ce4bh3h2rcd13ifvqdo0","pricing_plan_id":"cebpf4jnsgd1na2vs0mg"},{"bike_id":"6528e792-6c2b-41ab-b102-37d30001a0e7","system_id":"levelo_inurba_marseille","lat":43.27229,"lon":5.40026,"is_reserved":false,"is_disabled":false,"rental_uris":{"android":"levelo://app?vid=6528e792-6c2b-41ab-b102-37d30001a0e7","ios":"levelo://app?vid=6528e792-6c2b-41ab-b102-37d30001a0e7"},"vehicle_type_id":"4","last_reported":1739822996,"current_range_meters":11600,"station_id":"","pricing_plan_id":"cebpf4jnsgd1na2vs0mg"},{"bike_id":"983e2b89-c8bc-4dfc-9422-c71705605267","system_id":"levelo_inurba_marseille","lat":43.28709,"lon":5.37386,"is_reserved":false,"is_disabled":false,"rental_uris":{"android":"levelo://app?vid=983e2b89-c8bc-4dfc-9422-c71705605267","ios":"levelo://app?vid=983e2b89-c8bc-4dfc-9422-c71705605267"},"vehicle_type_id":"4","last_reported":1739822996,"current_range_meters":11600,"station_id":"ce4bh3p2rcd13ifvqdq0","pricing_plan_id":"cebpf4jnsgd1na2vs0mg"},{"bike_id":"88e19c27-4aeb-4fab-933a-798ae751447d","system_id":"levelo_inurba_marseille","lat":43.30959,"lon":5.39026,"is_reserved":false,"is_disabled":false,"rental_uris":{"android":"levelo://app?vid=88e19c27-4aeb-4fab-933a-798ae751447d","ios":"levelo://app?vid=88e19c27-4aeb-4fab-933a-798ae751447d"},"vehicle_type_id":"4","last_reported":1739822996,"current_range_meters":11200,"station_id":"ce4bgup2rcd13ifvqco0","pricing_plan_id":"cebpf4jnsgd1na2vs0mg"},{"bike_id":"bf073de4-b114-4aa7-bcc7-d89e9f7d6ca6","system_id":"levelo_inurba_marseille","lat":43.29416,"lon":5.38616,"is_reserved":false,"is_disabled":false,"rental_uris":{"android":"levelo://app?vid=bf073de4-b114-4aa7-bcc7-d89e9f7d6ca6","ios":"levelo://app?vid=bf073de4-b114-4aa7-bcc7-d89e9f7d6ca6"},"vehicle_type_id":"4","last_reported":1739822996,"current_range_meters":11600,"station_id":"ce4bh2h2rcd13ifvqdh0","pricing_plan_id":"cebpf4jnsgd1na2vs0mg"},{"bike_id":"ff8ead88-2b4e-4dc7-9c75-13ec9e7fbdf8","system_id":"levelo_inurba_marseille","lat":43.30108,"lon":5.38791,"is_reserved":false,"is_disabled":false,"rental_uris":{"android":"levelo://app?vid=ff8ead88-2b4e-4dc7-9c75-13ec9e7fbdf8","ios":"levelo://app?vid=ff8ead88-2b4e-4dc7-9c75-13ec9e7fbdf8"},"vehicle_type_id":"4","last_reported":1739822996,"current_range_meters":11600,"station_id":"ce4bghh2rcd13ifvqb60","pricing_plan_id":"cebpf4jnsgd1na2vs0mg"},{"bike_id":"b796de25-656b-4e77-ba9a-b530d11f58f6","system_id":"levelo_inurba_marseille","lat":43.2941,"lon":5.38643,"is_reserved":false,"is_disabled":false,"rental_uris":{"android":"levelo://app?vid=b796de25-656b-4e77-ba9a-b530d11f58f6","ios":"levelo://app?vid=b796de25-656b-4e77-ba9a-b530d11f58f6"},"vehicle_type_id":"4","last_reported":1739822996,"current_range_meters":12000,"station_id":"","pricing_plan_id":"cebpf4jnsgd1na2vs0mg"},{"bike_id":"4e2b468f-8f4a-4d73-8517-62fa28d3fb4c","system_id":"levelo_inurba_marseille","lat":43.24821,"lon":5.37468,"is_reserved":false,"is_disabled":false,"rental_uris":{"android":"levelo://app?vid=4e2b468f-8f4a-4d73-8517-62fa28d3fb4c","ios":"levelo://app?vid=4e2b468f-8f4a-4d73-8517-62fa28d3fb4c"},"vehicle_type_id":"4","last_reported":1739822996,"current_range_meters":12000,"station_id":"ce4bhgh2rcd13ifvqfb0","pricing_plan_id":"cebpf4jnsgd1na2vs0mg"},{"bike_id":"954492f0-f4af-4b44-9e7f-f059066f51c7","system_id":"levelo_inurba_marseille","lat":43.298498,"lon":5.362848,"is_reserved":false,"is_disabled":false,"rental_uris":{"android":"levelo://app?vid=954492f0-f4af-4b44-9e7f-f059066f51c7","ios":"levelo://app?vid=954492f0-f4af-4b44-9e7f-f059066f51c7"},"vehicle_type_id":"4","last_reported":1739822996,"current_range_meters":11600,"station_id":"ce4bgjp2rcd13ifvqbh0","pricing_plan_id":"cebpf4jnsgd1na2vs0mg"},{"bike_id":"d0991bf7-9c1b-4f88-947e-cca686a15eb6","system_id":"levelo_inurba_marseille","lat":43.2462,"lon":5.38244,"is_reserved":false,"is_disabled":false,"rental_uris":{"android":"levelo://app?vid=d0991bf7-9c1b-4f88-947e-cca686a15eb6","ios":"levelo://app?vid=d0991bf7-9c1b-4f88-947e-cca686a15eb6"},"vehicle_type_id":"4","last_reported":1739822996,"current_range_meters":12000,"station_id":"ce4bhih2rcd13ifvqfr0","pricing_plan_id":"cebpf4jnsgd1na2vs0mg"},{"bike_id":"e74fef04-4797-4a8d-83a6-0b69a0bb01fb","system_id":"levelo_inurba_marseille","lat":43.27947,"lon":5.41067,"is_reserved":false,"is_disabled":false,"rental_uris":{"android":"levelo://app?vid=e74fef04-4797-4a8d-83a6-0b69a0bb01fb","ios":"levelo://app?vid=e74fef04-4797-4a8d-83a6-0b69a0bb01fb"},"vehicle_type_id":"4","last_reported":1739822996,"current_range_meters":12000,"station_id":"ce4bhnp2rcd13ifvqh0g","pricing_plan_id":"cebpf4jnsgd1na2vs0mg"},{"bike_id":"51412dc6-c40f-4da4-a3a9-768c7d440222","system_id":"levelo_inurba_marseille","lat":43.28364,"lon":5.38633,"is_reserved":false,"is_disabled":false,"rental_uris":{"android":"levelo://app?vid=51412dc6-c40f-4da4-a3a9-768c7d440222","ios":"levelo://app?vid=51412dc6-c40f-4da4-a3a9-768c7d440222"},"vehicle_type_id":"4","last_reported":1739822996,"current_range_meters":12000,"station_id":"ce4bh492rcd13ifvqdvg","pricing_plan_id":"cebpf4jnsgd1na2vs0mg"},{"bike_id":"b64381ab-e3b5-42e1-be3c-9a64ed5aed1d","system_id":"levelo_inurba_marseille","lat":43.24078,"lon":5.37754,"is_reserved":false,"is_disabled":false,"rental_uris":{"android":"levelo://app?vid=b64381ab-e3b5-42e1-be3c-9a64ed5aed1d","ios":"levelo://app?vid=b64381ab-e3b5-42e1-be3c-9a64ed5aed1d"},"vehicle_type_id":"4","last_reported":1739822996,"current_range_meters":12000,"station_id":"ce4bhnp2rcd13ifvqgvg","pricing_plan_id":"cebpf4jnsgd1na2vs0mg"},{"bike_id":"6fddf1f6-1c8d-42ee-8ab3-6a8f9fa20ffa","system_id":"levelo_inurba_marseille","lat":43.24806,"lon":5.37459,"is_reserved":false,"is_disabled":false,"rental_uris":{"android":"levelo://app?vid=6fddf1f6-1c8d-42ee-8ab3-6a8f9fa20ffa","ios":"levelo://app?vid=6fddf1f6-1c8d-42ee-8ab3-6a8f9fa20ffa"},"vehicle_type_id":"4","last_reported":1739822996,"current_range_meters":12000,"station_id":"","pricing_plan_id":"cebpf4jnsgd1na2vs0mg"},{"bike_id":"8609f732-3293-4e7f-8793-991e8d54ae9e","system_id":"levelo_inurba_marseille","lat":43.30648,"lon":5.40076,"is_reserved":false,"is_disabled":false,"rental_uris":{"android":"levelo://app?vid=8609f732-3293-4e7f-8793-991e8d54ae9e","ios":"levelo://app?vid=8609f732-3293-4e7f-8793-991e8d54ae9e"},"vehicle_type_id":"4","last_reported":1739822996,"current_range_meters":12000,"station_id":"","pricing_plan_id":"cebpf4jnsgd1na2vs0mg"},{"bike_id":"2e33e36a-6f1d-4142-9043-324a3e6807a8","system_id":"levelo_inurba_marseille","lat":43.28672,"lon":5.38667,"is_reserved":false,"is_disabled":false,"rental_uris":{"android":"levelo://app?vid=2e33e36a-6f1d-4142-9043-324a3e6807a8","ios":"levelo://app?vid=2e33e36a-6f1d-4142-9043-324a3e6807a8"},"vehicle_type_id":"4","last_reported":1739822996,"current_range_meters":12400,"station_id":"ce4bh492rcd13ifvqdug","pricing_plan_id":"cebpf4jnsgd1na2vs0mg"},{"bike_id":"93599609-d562-4ff5-93b7-f1e1050d8e10","system_id":"levelo_inurba_marseille","lat":43.2998,"lon":5.3848,"is_reserved":false,"is_disabled":false,"rental_uris":{"android":"levelo://app?vid=93599609-d562-4ff5-93b7-f1e1050d8e10","ios":"levelo://app?vid=93599609-d562-4ff5-93b7-f1e1050d8e10"},"vehicle_type_id":"4","last_reported":1739822996,"current_range_meters":12000,"station_id":"ce4bgj92rcd13ifvqbd0","pricing_plan_id":"cebpf4jnsgd1na2vs0mg"},{"bike_id":"cb8372d6-bad2-4555-89ad-5b495afb0b59","system_id":"levelo_inurba_marseille","lat":43.24823,"lon":5.37504,"is_reserved":false,"is_disabled":false,"rental_uris":{"android":"levelo://app?vid=cb8372d6-bad2-4555-89ad-5b495afb0b59","ios":"levelo://app?vid=cb8372d6-bad2-4555-89ad-5b495afb0b59"},"vehicle_type_id":"4","last_reported":1739822996,"current_range_meters":12400,"station_id":"ce4bhgh2rcd13ifvqfb0","pricing_plan_id":"cebpf4jnsgd1na2vs0mg"},{"bike_id":"c10d62d7-fc9c-4fc4-a819-66c4604b7faa","system_id":"levelo_inurba_marseille","lat":43.31172,"lon":5.38707,"is_reserved":false,"is_disabled":false,"rental_uris":{"android":"levelo://app?vid=c10d62d7-fc9c-4fc4-a819-66c4604b7faa","ios":"levelo://app?vid=c10d62d7-fc9c-4fc4-a819-66c4604b7faa"},"vehicle_type_id":"4","last_reported":1739822996,"current_range_meters":12400,"station_id":"ce4bgv12rcd13ifvqcp0","pricing_plan_id":"cebpf4jnsgd1na2vs0mg"},{"bike_id":"37e2f382-4e5f-4068-ac65-99779f2fa91a","system_id":"levelo_inurba_marseille","lat":43.31062,"lon":5.40097,"is_reserved":false,"is_disabled":false,"rental_uris":{"android":"levelo://app?vid=37e2f382-4e5f-4068-ac65-99779f2fa91a","ios":"levelo://app?vid=37e2f382-4e5f-4068-ac65-99779f2fa91a"},"vehicle_type_id":"4","last_reported":1739822996,"current_range_meters":12400,"station_id":"","pricing_plan_id":"cebpf4jnsgd1na2vs0mg"},{"bike_id":"2d4cbea9-00e5-469a-85a9-be951967011d","system_id":"levelo_inurba_marseille","lat":43.2927,"lon":5.38433,"is_reserved":false,"is_disabled":false,"rental_uris":{"android":"levelo://app?vid=2d4cbea9-00e5-469a-85a9-be951967011d","ios":"levelo://app?vid=2d4cbea9-00e5-469a-85a9-be951967011d"},"vehicle_type_id":"4","last_reported":1739822996,"current_range_meters":12400,"station_id":"","pricing_plan_id":"cebpf4jnsgd1na2vs0mg"},{"bike_id":"21964b29-3452-4ba4-919e-80c8fd238b96","system_id":"levelo_inurba_marseille","lat":43.24642,"lon":5.38928,"is_reserved":false,"is_disabled":false,"rental_uris":{"android":"levelo://app?vid=21964b29-3452-4ba4-919e-80c8fd238b96","ios":"levelo://app?vid=21964b29-3452-4ba4-919e-80c8fd238b96"},"vehicle_type_id":"4","last_reported":1739822996,"current_range_meters":12000,"station_id":"ce4bhg12rcd13ifvqf60","pricing_plan_id":"cebpf4jnsgd1na2vs0mg"},{"bike_id":"020f9db3-6048-4a83-8c59-4acc533112c8","system_id":"levelo_inurba_marseille","lat":43.28166,"lon":5.42614,"is_reserved":false,"is_disabled":false,"rental_uris":{"android":"levelo://app?vid=020f9db3-6048-4a83-8c59-4acc533112c8","ios":"levelo://app?vid=020f9db3-6048-4a83-8c59-4acc533112c8"},"vehicle_type_id":"4","last_reported":1739822996,"current_range_meters":12400,"station_id":"ce4bhnh2rcd13ifvqgug","pricing_plan_id":"cebpf4jnsgd1na2vs0mg"},{"bike_id":"43e58a6d-2a17-41bb-bd75-661bed22a62b","system_id":"levelo_inurba_marseille","lat":43.3118,"lon":5.38731,"is_reserved":false,"is_disabled":false,"rental_uris":{"android":"levelo://app?vid=43e58a6d-2a17-41bb-bd75-661bed22a62b","ios":"levelo://app?vid=43e58a6d-2a17-41bb-bd75-661bed22a62b"},"vehicle_type_id":"4","last_reported":1739822996,"current_range_meters":12800,"station_id":"","pricing_plan_id":"cebpf4jnsgd1na2vs0mg"},{"bike_id":"0210a921-fd0e-4f1a-bef1-f3ed4787823d","system_id":"levelo_inurba_marseille","lat":43.28936,"lon":5.36402,"is_reserved":false,"is_disabled":false,"rental_uris":{"android":"levelo://app?vid=0210a921-fd0e-4f1a-bef1-f3ed4787823d","ios":"levelo://app?vid=0210a921-fd0e-4f1a-bef1-f3ed4787823d"},"vehicle_type_id":"4","last_reported":1739822996,"current_range_meters":12800,"station_id":"ce4bhc92rcd13ifvqetg","pricing_plan_id":"cebpf4jnsgd1na2vs0mg"},{"bike_id":"64627059-f94e-4aa2-a301-7dfa05f02d32","system_id":"levelo_inurba_marseille","lat":43.28846,"lon":5.35872,"is_reserved":false,"is_disabled":false,"rental_uris":{"android":"levelo://app?vid=64627059-f94e-4aa2-a301-7dfa05f02d32","ios":"levelo://app?vid=64627059-f94e-4aa2-a301-7dfa05f02d32"},"vehicle_type_id":"4","last_reported":1739822996,"current_range_meters":13600,"station_id":"ce4bhb12rcd13ifvqem0","pricing_plan_id":"cebpf4jnsgd1na2vs0mg"},{"bike_id":"c5c59f41-6de9-4286-8e47-0b749ef897bc","system_id":"levelo_inurba_marseille","lat":43.28622,"lon":5.35104,"is_reserved":false,"is_disabled":false,"rental_uris":{"android":"levelo://app?vid=c5c59f41-6de9-4286-8e47-0b749ef897bc","ios":"levelo://app?vid=c5c59f41-6de9-4286-8e47-0b749ef897bc"},"vehicle_type_id":"4","last_reported":1739822996,"current_range_meters":13600,"station_id":"ce4bhch2rcd13ifvqeug","pricing_plan_id":"cebpf4jnsgd1na2vs0mg"},{"bike_id":"8c89a559-f560-4488-86c3-8858949da2cf","system_id":"levelo_inurba_marseille","lat":43.2799,"lon":5.41662,"is_reserved":false,"is_disabled":false,"rental_uris":{"android":"levelo://app?vid=8c89a559-f560-4488-86c3-8858949da2cf","ios":"levelo://app?vid=8c89a559-f560-4488-86c3-8858949da2cf"},"vehicle_type_id":"4","last_reported":1739822996,"current_range_meters":13600,"station_id":"ce4bho12rcd13ifvqh1g","pricing_plan_id":"cebpf4jnsgd1na2vs0mg"},{"bike_id":"b0fc4ee7-b366-47b1-9db5-87f9ab849753","system_id":"levelo_inurba_marseille","lat":43.30134,"lon":5.3986,"is_reserved":false,"is_disabled":false,"rental_uris":{"android":"levelo://app?vid=b0fc4ee7-b366-47b1-9db5-87f9ab849753","ios":"levelo://app?vid=b0fc4ee7-b366-47b1-9db5-87f9ab849753"},"vehicle_type_id":"4","last_reported":1739822996,"current_range_meters":13600,"station_id":"ce4bh0h2rcd13ifvqd40","pricing_plan_id":"cebpf4jnsgd1na2vs0mg"},{"bike_id":"44f4612a-2167-4206-9bde-4bd81e8ddbcd","system_id":"levelo_inurba_marseille","lat":43.29201,"lon":5.39328,"is_reserved":false,"is_disabled":false,"rental_uris":{"android":"levelo://app?vid=44f4612a-2167-4206-9bde-4bd81e8ddbcd","ios":"levelo://app?vid=44f4612a-2167-4206-9bde-4bd81e8ddbcd"},"vehicle_type_id":"4","last_reported":1739822996,"current_range_meters":14000,"station_id":"ce4bh192rcd13ifvqdd0","pricing_plan_id":"cebpf4jnsgd1na2vs0mg"},{"bike_id":"9084f880-c05c-41d9-962e-1ab7add2848e","system_id":"levelo_inurba_marseille","lat":43.24068,"lon":5.37774,"is_reserved":false,"is_disabled":false,"rental_uris":{"android":"levelo://app?vid=9084f880-c05c-41d9-962e-1ab7add2848e","ios":"levelo://app?vid=9084f880-c05c-41d9-962e-1ab7add2848e"},"vehicle_type_id":"4","last_reported":1739822996,"current_range_meters":14000,"station_id":"ce4bhnp2rcd13ifvqgvg","pricing_plan_id":"cebpf4jnsgd1na2vs0mg"},{"bike_id":"81a3ec43-f5b3-4625-8b09-e5347b4debed","system_id":"levelo_inurba_marseille","lat":43.28106,"lon":5.37841,"is_reserved":false,"is_disabled":false,"rental_uris":{"android":"levelo://app?vid=81a3ec43-f5b3-4625-8b09-e5347b4debed","ios":"levelo://app?vid=81a3ec43-f5b3-4625-8b09-e5347b4debed"},"vehicle_type_id":"4","last_reported":1739822996,"current_range_meters":14000,"station_id":"ce4bha12rcd13ifvqee0","pricing_plan_id":"cebpf4jnsgd1na2vs0mg"},{"bike_id":"185d84b6-f0b6-4aee-a234-7c1c168f49db","system_id":"levelo_inurba_marseille","lat":43.29527,"lon":5.39401,"is_reserved":false,"is_disabled":false,"rental_uris":{"android":"levelo://app?vid=185d84b6-f0b6-4aee-a234-7c1c168f49db","ios":"levelo://app?vid=185d84b6-f0b6-4aee-a234-7c1c168f49db"},"vehicle_type_id":"4","last_reported":1739822996,"current_range_meters":14400,"station_id":"ce4bh292rcd13ifvqdf0","pricing_plan_id":"cebpf4jnsgd1na2vs0mg"},{"bike_id":"e57f9313-8443-49d5-820a-e3f0c205b6f2","system_id":"levelo_inurba_marseille","lat":43.24078,"lon":5.37767,"is_reserved":false,"is_disabled":false,"rental_uris":{"android":"levelo://app?vid=e57f9313-8443-49d5-820a-e3f0c205b6f2","ios":"levelo://app?vid=e57f9313-8443-49d5-820a-e3f0c205b6f2"},"vehicle_type_id":"4","last_reported":1739822996,"current_range_meters":14400,"station_id":"","pricing_plan_id":"cebpf4jnsgd1na2vs0mg"},{"bike_id":"127c050c-6151-462e-9b5c-e895e08ceb84","system_id":"levelo_inurba_marseille","lat":43.28458,"lon":5.35901,"is_reserved":false,"is_disabled":false,"rental_uris":{"android":"levelo://app?vid=127c050c-6151-462e-9b5c-e895e08ceb84","ios":"levelo://app?vid=127c050c-6151-462e-9b5c-e895e08ceb84"},"vehicle_type_id":"4","last_reported":1739822996,"current_range_meters":14400,"station_id":"ce4bhah2rcd13ifvqei0","pricing_plan_id":"cebpf4jnsgd1na2vs0mg"},{"bike_id":"f8e06fc7-00b7-4831-828e-752a95e98412","system_id":"levelo_inurba_marseille","lat":43.28823,"lon":5.35765,"is_reserved":false,"is_disabled":false,"rental_uris":{"android":"levelo://app?vid=f8e06fc7-00b7-4831-828e-752a95e98412","ios":"levelo://app?vid=f8e06fc7-00b7-4831-828e-752a95e98412"},"vehicle_type_id":"4","last_reported":1739822996,"current_range_meters":14400,"station_id":"ce4bhb12rcd13ifvqem0","pricing_plan_id":"cebpf4jnsgd1na2vs0mg"},{"bike_id":"7e1bcd16-719a-4da9-aa93-fa68923adaea","system_id":"levelo_inurba_marseille","lat":43.24072,"lon":5.37758,"is_reserved":false,"is_disabled":false,"rental_uris":{"android":"levelo://app?vid=7e1bcd16-719a-4da9-aa93-fa68923adaea","ios":"levelo://app?vid=7e1bcd16-719a-4da9-aa93-fa68923adaea"},"vehicle_type_id":"4","last_reported":1739822996,"current_range_meters":14400,"station_id":"ce4bhnp2rcd13ifvqgvg","pricing_plan_id":"cebpf4jnsgd1na2vs0mg"},{"bike_id":"80842653-0916-4e4e-96ac-1b8b526d2858","system_id":"levelo_inurba_marseille","lat":43.29259,"lon":5.40916,"is_reserved":false,"is_disabled":false,"rental_uris":{"android":"levelo://app?vid=80842653-0916-4e4e-96ac-1b8b526d2858","ios":"levelo://app?vid=80842653-0916-4e4e-96ac-1b8b526d2858"},"vehicle_type_id":"4","last_reported":1739822996,"current_range_meters":14800,"station_id":"","pricing_plan_id":"cebpf4jnsgd1na2vs0mg"},{"bike_id":"7c21b9af-ec8a-4973-bb0a-4c2cf86b4985","system_id":"levelo_inurba_marseille","lat":43.30585,"lon":5.39354,"is_reserved":false,"is_disabled":false,"rental_uris":{"android":"levelo://app?vid=7c21b9af-ec8a-4973-bb0a-4c2cf86b4985","ios":"levelo://app?vid=7c21b9af-ec8a-4973-bb0a-4c2cf86b4985"},"vehicle_type_id":"4","last_reported":1739822996,"current_range_meters":14800,"station_id":"ce4bh0p2rcd13ifvqd80","pricing_plan_id":"cebpf4jnsgd1na2vs0mg"},{"bike_id":"b4f7951e-a8d9-4f42-b03f-b06ba82daa83","system_id":"levelo_inurba_marseille","lat":43.27179,"lon":5.41003,"is_reserved":false,"is_disabled":false,"rental_uris":{"android":"levelo://app?vid=b4f7951e-a8d9-4f42-b03f-b06ba82daa83","ios":"levelo://app?vid=b4f7951e-a8d9-4f42-b03f-b06ba82daa83"},"vehicle_type_id":"4","last_reported":1739822996,"current_range_meters":14800,"station_id":"ce4bhl12rcd13ifvqgf0","pricing_plan_id":"cebpf4jnsgd1na2vs0mg"},{"bike_id":"6cea39d1-143a-437a-be7c-4155e2811eca","system_id":"levelo_inurba_marseille","lat":43.25096,"lon":5.39501,"is_reserved":false,"is_disabled":false,"rental_uris":{"android":"levelo://app?vid=6cea39d1-143a-437a-be7c-4155e2811eca","ios":"levelo://app?vid=6cea39d1-143a-437a-be7c-4155e2811eca"},"vehicle_type_id":"4","last_reported":1739822996,"current_range_meters":14800,"station_id":"ce4bhm12rcd13ifvqgkg","pricing_plan_id":"cebpf4jnsgd1na2vs0mg"},{"bike_id":"e70271b9-6da6-41aa-9025-850c7abf1379","system_id":"levelo_inurba_marseille","lat":43.27841,"lon":5.39204,"is_reserved":false,"is_disabled":false,"rental_uris":{"android":"levelo://app?vid=e70271b9-6da6-41aa-9025-850c7abf1379","ios":"levelo://app?vid=e70271b9-6da6-41aa-9025-850c7abf1379"},"vehicle_type_id":"4","last_reported":1739822996,"current_range_meters":14800,"station_id":"ce4bhjp2rcd13ifvqga0","pricing_plan_id":"cebpf4jnsgd1na2vs0mg"},{"bike_id":"855e00a6-9e8c-4de0-bc87-12b351c5db28","system_id":"levelo_inurba_marseille","lat":43.2843,"lon":5.34998,"is_reserved":false,"is_disabled":false,"rental_uris":{"android":"levelo://app?vid=855e00a6-9e8c-4de0-bc87-12b351c5db28","ios":"levelo://app?vid=855e00a6-9e8c-4de0-bc87-12b351c5db28"},"vehicle_type_id":"4","last_reported":1739822996,"current_range_meters":14800,"station_id":"ce4bhbh2rcd13ifvqepg","pricing_plan_id":"cebpf4jnsgd1na2vs0mg"},{"bike_id":"66f0e7c9-e4a7-4d93-8413-23fd8841eec6","system_id":"levelo_inurba_marseille","lat":43.25717,"lon":5.41112,"is_reserved":false,"is_disabled":false,"rental_uris":{"android":"levelo://app?vid=66f0e7c9-e4a7-4d93-8413-23fd8841eec6","ios":"levelo://app?vid=66f0e7c9-e4a7-4d93-8413-23fd8841eec6"},"vehicle_type_id":"4","last_reported":1739822996,"current_range_meters":14400,"station_id":"ce4bhkp2rcd13ifvqgd0","pricing_plan_id":"cebpf4jnsgd1na2vs0mg"},{"bike_id":"c6d403ef-af42-41ae-9312-3a948449b260","system_id":"levelo_inurba_marseille","lat":43.27615,"lon":5.36107,"is_reserved":false,"is_disabled":false,"rental_uris":{"android":"levelo://app?vid=c6d403ef-af42-41ae-9312-3a948449b260","ios":"levelo://app?vid=c6d403ef-af42-41ae-9312-3a948449b260"},"vehicle_type_id":"4","last_reported":1739822996,"current_range_meters":14800,"station_id":"ce4bgj92rcd13ifvqbe0","pricing_plan_id":"cebpf4jnsgd1na2vs0mg"},{"bike_id":"ae150bdd-3d2a-4f9e-967f-89386cd94b17","system_id":"levelo_inurba_marseille","lat":43.30205,"lon":5.39484,"is_reserved":false,"is_disabled":false,"rental_uris":{"android":"levelo://app?vid=ae150bdd-3d2a-4f9e-967f-89386cd94b17","ios":"levelo://app?vid=ae150bdd-3d2a-4f9e-967f-89386cd94b17"},"vehicle_type_id":"4","last_reported":1739822996,"current_range_meters":15200,"station_id":"","pricing_plan_id":"cebpf4jnsgd1na2vs0mg"},{"bike_id":"91bf3218-0a05-4226-acc9-b3131b7d5a8d","system_id":"levelo_inurba_marseille","lat":43.23935,"lon":5.36669,"is_reserved":false,"is_disabled":false,"rental_uris":{"android":"levelo://app?vid=91bf3218-0a05-4226-acc9-b3131b7d5a8d","ios":"levelo://app?vid=91bf3218-0a05-4226-acc9-b3131b7d5a8d"},"vehicle_type_id":"4","last_reported":1739822996,"current_range_meters":15200,"station_id":"ce4bhi12rcd13ifvqfp0","pricing_plan_id":"cebpf4jnsgd1na2vs0mg"},{"bike_id":"9513c14d-d35f-4f74-91aa-e7d0eab7a530","system_id":"levelo_inurba_marseille","lat":43.29914,"lon":5.36543,"is_reserved":false,"is_disabled":false,"rental_uris":{"android":"levelo://app?vid=9513c14d-d35f-4f74-91aa-e7d0eab7a530","ios":"levelo://app?vid=9513c14d-d35f-4f74-91aa-e7d0eab7a530"},"vehicle_type_id":"4","last_reported":1739822996,"current_range_meters":15200,"station_id":"ce4bgm92rcd13ifvqbr0","pricing_plan_id":"cebpf4jnsgd1na2vs0mg"},{"bike_id":"36d97c00-4591-459c-bad3-ddaf8137da9e","system_id":"levelo_inurba_marseille","lat":43.28061,"lon":5.36927,"is_reserved":false,"is_disabled":false,"rental_uris":{"android":"levelo://app?vid=36d97c00-4591-459c-bad3-ddaf8137da9e","ios":"levelo://app?vid=36d97c00-4591-459c-bad3-ddaf8137da9e"},"vehicle_type_id":"4","last_reported":1739822996,"current_range_meters":15200,"station_id":"ce4bha12rcd13ifvqef0","pricing_plan_id":"cebpf4jnsgd1na2vs0mg"},{"bike_id":"d1dec037-ee4c-4db9-a655-1087d8ee1f4f","system_id":"levelo_inurba_marseille","lat":43.28443,"lon":5.39154,"is_reserved":false,"is_disabled":true,"rental_uris":{"android":"levelo://app?vid=d1dec037-ee4c-4db9-a655-1087d8ee1f4f","ios":"levelo://app?vid=d1dec037-ee4c-4db9-a655-1087d8ee1f4f"},"vehicle_type_id":"4","last_reported":1739822996,"current_range_meters":15200,"station_id":"","pricing_plan_id":"cebpf4jnsgd1na2vs0mg"},{"bike_id":"95f5e919-baa8-449e-bade-84f6b121c83d","system_id":"levelo_inurba_marseille","lat":43.26198,"lon":5.37441,"is_reserved":false,"is_disabled":false,"rental_uris":{"android":"levelo://app?vid=95f5e919-baa8-449e-bade-84f6b121c83d","ios":"levelo://app?vid=95f5e919-baa8-449e-bade-84f6b121c83d"},"vehicle_type_id":"4","last_reported":1739822996,"current_range_meters":15200,"station_id":"ce4bhgp2rcd13ifvqfc0","pricing_plan_id":"cebpf4jnsgd1na2vs0mg"},{"bike_id":"772e5d73-e78f-47a1-9755-63448f7ea7a3","system_id":"levelo_inurba_marseille","lat":43.28713,"lon":5.37398,"is_reserved":false,"is_disabled":false,"rental_uris":{"android":"levelo://app?vid=772e5d73-e78f-47a1-9755-63448f7ea7a3","ios":"levelo://app?vid=772e5d73-e78f-47a1-9755-63448f7ea7a3"},"vehicle_type_id":"4","last_reported":1739822996,"current_range_meters":16000,"station_id":"ce4bh3p2rcd13ifvqdq0","pricing_plan_id":"cebpf4jnsgd1na2vs0mg"},{"bike_id":"bfcd5735-e47b-480f-b20c-80d6ffee51c2","system_id":"levelo_inurba_marseille","lat":43.2903,"lon":5.3865,"is_reserved":false,"is_disabled":false,"rental_uris":{"android":"levelo://app?vid=bfcd5735-e47b-480f-b20c-80d6ffee51c2","ios":"levelo://app?vid=bfcd5735-e47b-480f-b20c-80d6ffee51c2"},"vehicle_type_id":"4","last_reported":1739822996,"current_range_meters":16000,"station_id":"ce4bh4p2rcd13ifvqe0g","pricing_plan_id":"cebpf4jnsgd1na2vs0mg"},{"bike_id":"fa26596f-385b-467a-983c-09a503967e29","system_id":"levelo_inurba_marseille","lat":43.28271,"lon":5.3506,"is_reserved":false,"is_disabled":true,"rental_uris":{"android":"levelo://app?vid=fa26596f-385b-467a-983c-09a503967e29","ios":"levelo://app?vid=fa26596f-385b-467a-983c-09a503967e29"},"vehicle_type_id":"4","last_reported":1739822996,"current_range_meters":16000,"station_id":"","pricing_plan_id":"cebpf4jnsgd1na2vs0mg"},{"bike_id":"2925d872-7877-4b1f-89a7-e112a91d35d3","system_id":"levelo_inurba_marseille","lat":43.28456,"lon":5.35917,"is_reserved":false,"is_disabled":true,"rental_uris":{"android":"levelo://app?vid=2925d872-7877-4b1f-89a7-e112a91d35d3","ios":"levelo://app?vid=2925d872-7877-4b1f-89a7-e112a91d35d3"},"vehicle_type_id":"4","last_reported":1739822996,"current_range_meters":16000,"station_id":"ce4bhah2rcd13ifvqei0","pricing_plan_id":"cebpf4jnsgd1na2vs0mg"},{"bike_id":"c095829e-fb26-4b76-9d56-c459933e1ed9","system_id":"levelo_inurba_marseille","lat":43.28348,"lon":5.3811,"is_reserved":false,"is_disabled":false,"rental_uris":{"android":"levelo://app?vid=c095829e-fb26-4b76-9d56-c459933e1ed9","ios":"levelo://app?vid=c095829e-fb26-4b76-9d56-c459933e1ed9"},"vehicle_type_id":"4","last_reported":1739822996,"current_range_meters":16000,"station_id":"ce4bh412rcd13ifvqdr0","pricing_plan_id":"cebpf4jnsgd1na2vs0mg"},{"bike_id":"c46925fe-6da4-4769-9725-cdfac3858a5b","system_id":"levelo_inurba_marseille","lat":43.28608,"lon":5.37065,"is_reserved":false,"is_disabled":false,"rental_uris":{"android":"levelo://app?vid=c46925fe-6da4-4769-9725-cdfac3858a5b","ios":"levelo://app?vid=c46925fe-6da4-4769-9725-cdfac3858a5b"},"vehicle_type_id":"4","last_reported":1739822996,"current_range_meters":16000,"station_id":"ce4bht12rcd13ifvqi60","pricing_plan_id":"cebpf4jnsgd1na2vs0mg"},{"bike_id":"1a593f97-80e0-4ab5-99e3-1042da8fe8d9","system_id":"levelo_inurba_marseille","lat":43.23192,"lon":5.39985,"is_reserved":false,"is_disabled":false,"rental_uris":{"android":"levelo://app?vid=1a593f97-80e0-4ab5-99e3-1042da8fe8d9","ios":"levelo://app?vid=1a593f97-80e0-4ab5-99e3-1042da8fe8d9"},"vehicle_type_id":"4","last_reported":1739822996,"current_range_meters":16000,"station_id":"","pricing_plan_id":"cebpf4jnsgd1na2vs0mg"},{"bike_id":"65f2f7cf-fd6d-4eaf-800a-b91cf1e810c3","system_id":"levelo_inurba_marseille","lat":43.27949,"lon":5.35334,"is_reserved":false,"is_disabled":false,"rental_uris":{"android":"levelo://app?vid=65f2f7cf-fd6d-4eaf-800a-b91cf1e810c3","ios":"levelo://app?vid=65f2f7cf-fd6d-4eaf-800a-b91cf1e810c3"},"vehicle_type_id":"4","last_reported":1739822996,"current_range_meters":16000,"station_id":"ce4bhbh2rcd13ifvqeo0","pricing_plan_id":"cebpf4jnsgd1na2vs0mg"},{"bike_id":"f0b1bcc6-ec25-4888-a3ae-f9cd133d3662","system_id":"levelo_inurba_marseille","lat":43.24647,"lon":5.38892,"is_reserved":false,"is_disabled":false,"rental_uris":{"android":"levelo://app?vid=f0b1bcc6-ec25-4888-a3ae-f9cd133d3662","ios":"levelo://app?vid=f0b1bcc6-ec25-4888-a3ae-f9cd133d3662"},"vehicle_type_id":"4","last_reported":1739822996,"current_range_meters":16000,"station_id":"ce4bhg12rcd13ifvqf60","pricing_plan_id":"cebpf4jnsgd1na2vs0mg"},{"bike_id":"e493d32f-c7df-48a8-8644-e6c67b333882","system_id":"levelo_inurba_marseille","lat":43.30134,"lon":5.3715,"is_reserved":false,"is_disabled":false,"rental_uris":{"android":"levelo://app?vid=e493d32f-c7df-48a8-8644-e6c67b333882","ios":"levelo://app?vid=e493d32f-c7df-48a8-8644-e6c67b333882"},"vehicle_type_id":"4","last_reported":1739822996,"current_range_meters":16000,"station_id":"","pricing_plan_id":"cebpf4jnsgd1na2vs0mg"},{"bike_id":"6c60b5ea-0d16-45a8-aed9-718e51e279eb","system_id":"levelo_inurba_marseille","lat":43.30253,"lon":5.40068,"is_reserved":false,"is_disabled":false,"rental_uris":{"android":"levelo://app?vid=6c60b5ea-0d16-45a8-aed9-718e51e279eb","ios":"levelo://app?vid=6c60b5ea-0d16-45a8-aed9-718e51e279eb"},"vehicle_type_id":"4","last_reported":1739822996,"current_range_meters":16400,"station_id":"ce4bgvh2rcd13ifvqcs0","pricing_plan_id":"cebpf4jnsgd1na2vs0mg"},{"bike_id":"a799a60b-3c75-45fb-ac00-220d507c3482","system_id":"levelo_inurba_marseille","lat":43.24826,"lon":5.37469,"is_reserved":false,"is_disabled":false,"rental_uris":{"android":"levelo://app?vid=a799a60b-3c75-45fb-ac00-220d507c3482","ios":"levelo://app?vid=a799a60b-3c75-45fb-ac00-220d507c3482"},"vehicle_type_id":"4","last_reported":1739822996,"current_range_meters":16400,"station_id":"ce4bhgh2rcd13ifvqfb0","pricing_plan_id":"cebpf4jnsgd1na2vs0mg"},{"bike_id":"7b5ffc48-b2b8-4c7c-9076-b36aa6011a00","system_id":"levelo_inurba_marseille","lat":43.30256,"lon":5.40089,"is_reserved":false,"is_disabled":false,"rental_uris":{"android":"levelo://app?vid=7b5ffc48-b2b8-4c7c-9076-b36aa6011a00","ios":"levelo://app?vid=7b5ffc48-b2b8-4c7c-9076-b36aa6011a00"},"vehicle_type_id":"4","last_reported":1739822996,"current_range_meters":16400,"station_id":"ce4bgvh2rcd13ifvqcs0","pricing_plan_id":"cebpf4jnsgd1na2vs0mg"},{"bike_id":"1c4ab1c1-f8e5-4ceb-8507-e3b252ef908b","system_id":"levelo_inurba_marseille","lat":43.24152,"lon":5.36414,"is_reserved":false,"is_disabled":false,"rental_uris":{"android":"levelo://app?vid=1c4ab1c1-f8e5-4ceb-8507-e3b252ef908b","ios":"levelo://app?vid=1c4ab1c1-f8e5-4ceb-8507-e3b252ef908b"},"vehicle_type_id":"4","last_reported":1739822996,"current_range_meters":16400,"station_id":"cpo36qri1sfpv3e86is0","pricing_plan_id":"cebpf4jnsgd1na2vs0mg"},{"bike_id":"e46ad52b-d861-4d04-a2c4-ea45df01633c","system_id":"levelo_inurba_marseille","lat":43.26796,"lon":5.40283,"is_reserved":false,"is_disabled":true,"rental_uris":{"android":"levelo://app?vid=e46ad52b-d861-4d04-a2c4-ea45df01633c","ios":"levelo://app?vid=e46ad52b-d861-4d04-a2c4-ea45df01633c"},"vehicle_type_id":"4","last_reported":1739822996,"current_range_meters":16400,"station_id":"ce501612rcd8frsf0b60","pricing_plan_id":"cebpf4jnsgd1na2vs0mg"},{"bike_id":"d9df7ef9-270b-4e65-99b8-1bf4a6a966db","system_id":"levelo_inurba_marseille","lat":43.29797,"lon":5.40407,"is_reserved":false,"is_disabled":false,"rental_uris":{"android":"levelo://app?vid=d9df7ef9-270b-4e65-99b8-1bf4a6a966db","ios":"levelo://app?vid=d9df7ef9-270b-4e65-99b8-1bf4a6a966db"},"vehicle_type_id":"4","last_reported":1739822996,"current_range_meters":16000,"station_id":"ce4bh112rcd13ifvqd90","pricing_plan_id":"cebpf4jnsgd1na2vs0mg"},{"bike_id":"bb4a3648-09cb-4cc2-9947-bf380533d03f","system_id":"levelo_inurba_marseille","lat":43.31669,"lon":5.37252,"is_reserved":false,"is_disabled":true,"rental_uris":{"android":"levelo://app?vid=bb4a3648-09cb-4cc2-9947-bf380533d03f","ios":"levelo://app?vid=bb4a3648-09cb-4cc2-9947-bf380533d03f"},"vehicle_type_id":"4","last_reported":1739822996,"current_range_meters":16400,"station_id":"","pricing_plan_id":"cebpf4jnsgd1na2vs0mg"},{"bike_id":"a81f047e-2602-4d29-8821-508c11538471","system_id":"levelo_inurba_marseille","lat":43.2293,"lon":5.35381,"is_reserved":false,"is_disabled":false,"rental_uris":{"android":"levelo://app?vid=a81f047e-2602-4d29-8821-508c11538471","ios":"levelo://app?vid=a81f047e-2602-4d29-8821-508c11538471"},"vehicle_type_id":"4","last_reported":1739822996,"current_range_meters":16800,"station_id":"cpo3532slgdg3j2ikp40","pricing_plan_id":"cebpf4jnsgd1na2vs0mg"},{"bike_id":"a0d6d5a0-c616-4c50-b79e-af5849f07aae","system_id":"levelo_inurba_marseille","lat":43.30806,"lon":5.37224,"is_reserved":false,"is_disabled":false,"rental_uris":{"android":"levelo://app?vid=a0d6d5a0-c616-4c50-b79e-af5849f07aae","ios":"levelo://app?vid=a0d6d5a0-c616-4c50-b79e-af5849f07aae"},"vehicle_type_id":"4","last_reported":1739822996,"current_range_meters":16800,"station_id":"ce4bguh2rcd13ifvqckg","pricing_plan_id":"cebpf4jnsgd1na2vs0mg"},{"bike_id":"029b99e9-77bb-4611-bbfd-d7c37a5629a5","system_id":"levelo_inurba_marseille","lat":43.29512,"lon":5.39104,"is_reserved":false,"is_disabled":false,"rental_uris":{"android":"levelo://app?vid=029b99e9-77bb-4611-bbfd-d7c37a5629a5","ios":"levelo://app?vid=029b99e9-77bb-4611-bbfd-d7c37a5629a5"},"vehicle_type_id":"4","last_reported":1739822996,"current_range_meters":16800,"station_id":"ce4bh3p2rcd13ifvqdp0","pricing_plan_id":"cebpf4jnsgd1na2vs0mg"},{"bike_id":"04bcda49-bd07-41d8-a3cd-4207f79327d2","system_id":"levelo_inurba_marseille","lat":43.30431,"lon":5.39742,"is_reserved":false,"is_disabled":false,"rental_uris":{"android":"levelo://app?vid=04bcda49-bd07-41d8-a3cd-4207f79327d2","ios":"levelo://app?vid=04bcda49-bd07-41d8-a3cd-4207f79327d2"},"vehicle_type_id":"4","last_reported":1739822996,"current_range_meters":16800,"station_id":"ce4bh092rcd13ifvqd20","pricing_plan_id":"cebpf4jnsgd1na2vs0mg"},{"bike_id":"c74b4dbc-e6ae-47cb-9ea7-91e74f12ab36","system_id":"levelo_inurba_marseille","lat":43.28354,"lon":5.38155,"is_reserved":false,"is_disabled":false,"rental_uris":{"android":"levelo://app?vid=c74b4dbc-e6ae-47cb-9ea7-91e74f12ab36","ios":"levelo://app?vid=c74b4dbc-e6ae-47cb-9ea7-91e74f12ab36"},"vehicle_type_id":"4","last_reported":1739822996,"current_range_meters":16800,"station_id":"ce4bh412rcd13ifvqdr0","pricing_plan_id":"cebpf4jnsgd1na2vs0mg"},{"bike_id":"15ad0ad5-f350-4d66-b392-f676b4cfecb2","system_id":"levelo_inurba_marseille","lat":43.29625,"lon":5.37164,"is_reserved":false,"is_disabled":false,"rental_uris":{"android":"levelo://app?vid=15ad0ad5-f350-4d66-b392-f676b4cfecb2","ios":"levelo://app?vid=15ad0ad5-f350-4d66-b392-f676b4cfecb2"},"vehicle_type_id":"4","last_reported":1739822996,"current_range_meters":16800,"station_id":"","pricing_plan_id":"cebpf4jnsgd1na2vs0mg"},{"bike_id":"5fed333a-fea3-49c3-ac73-dff75f83da89","system_id":"levelo_inurba_marseille","lat":43.28402,"lon":5.37518,"is_reserved":false,"is_disabled":false,"rental_uris":{"android":"levelo://app?vid=5fed333a-fea3-49c3-ac73-dff75f83da89","ios":"levelo://app?vid=5fed333a-fea3-49c3-ac73-dff75f83da89"},"vehicle_type_id":"4","last_reported":1739822996,"current_range_meters":16800,"station_id":"ce4bh412rcd13ifvqds0","pricing_plan_id":"cebpf4jnsgd1na2vs0mg"},{"bike_id":"691852ea-1113-4c47-9853-b0165c35be16","system_id":"levelo_inurba_marseille","lat":43.28108,"lon":5.37834,"is_reserved":false,"is_disabled":false,"rental_uris":{"android":"levelo://app?vid=691852ea-1113-4c47-9853-b0165c35be16","ios":"levelo://app?vid=691852ea-1113-4c47-9853-b0165c35be16"},"vehicle_type_id":"4","last_reported":1739822996,"current_range_meters":16800,"station_id":"ce4bha12rcd13ifvqee0","pricing_plan_id":"cebpf4jnsgd1na2vs0mg"},{"bike_id":"5fc08369-93d6-4c07-97be-10cb8352d964","system_id":"levelo_inurba_marseille","lat":43.29568,"lon":5.37502,"is_reserved":false,"is_disabled":false,"rental_uris":{"android":"levelo://app?vid=5fc08369-93d6-4c07-97be-10cb8352d964","ios":"levelo://app?vid=5fc08369-93d6-4c07-97be-10cb8352d964"},"vehicle_type_id":"4","last_reported":1739822996,"current_range_meters":17200,"station_id":"","pricing_plan_id":"cebpf4jnsgd1na2vs0mg"},{"bike_id":"71a53407-5f2a-4d58-ac05-75c2be551a04","system_id":"levelo_inurba_marseille","lat":43.28559,"lon":5.39495,"is_reserved":false,"is_disabled":false,"rental_uris":{"android":"levelo://app?vid=71a53407-5f2a-4d58-ac05-75c2be551a04","ios":"levelo://app?vid=71a53407-5f2a-4d58-ac05-75c2be551a04"},"vehicle_type_id":"4","last_reported":1739822996,"current_range_meters":17200,"station_id":"ce4bh292rcd13ifvqdg0","pricing_plan_id":"cebpf4jnsgd1na2vs0mg"},{"bike_id":"42c7cfa8-bce6-4834-be4f-e8fd7551245d","system_id":"levelo_inurba_marseille","lat":43.28596,"lon":5.42613,"is_reserved":false,"is_disabled":false,"rental_uris":{"android":"levelo://app?vid=42c7cfa8-bce6-4834-be4f-e8fd7551245d","ios":"levelo://app?vid=42c7cfa8-bce6-4834-be4f-e8fd7551245d"},"vehicle_type_id":"4","last_reported":1739822996,"current_range_meters":17200,"station_id":"","pricing_plan_id":"cebpf4jnsgd1na2vs0mg"},{"bike_id":"f27ee93d-4eb8-4f4f-9eed-2a18d7889d00","system_id":"levelo_inurba_marseille","lat":43.29256,"lon":5.40902,"is_reserved":false,"is_disabled":false,"rental_uris":{"android":"levelo://app?vid=f27ee93d-4eb8-4f4f-9eed-2a18d7889d00","ios":"levelo://app?vid=f27ee93d-4eb8-4f4f-9eed-2a18d7889d00"},"vehicle_type_id":"4","last_reported":1739822996,"current_range_meters":16800,"station_id":"ce4bh192rcd13ifvqdc0","pricing_plan_id":"cebpf4jnsgd1na2vs0mg"},{"bike_id":"fee603b7-47b0-48fc-b0dc-01e8f1c24d15","system_id":"levelo_inurba_marseille","lat":43.29598,"lon":5.38082,"is_reserved":false,"is_disabled":false,"rental_uris":{"android":"levelo://app?vid=fee603b7-47b0-48fc-b0dc-01e8f1c24d15","ios":"levelo://app?vid=fee603b7-47b0-48fc-b0dc-01e8f1c24d15"},"vehicle_type_id":"4","last_reported":1739822996,"current_range_meters":17200,"station_id":"ce4bgl12rcd13ifvqbo0","pricing_plan_id":"cebpf4jnsgd1na2vs0mg"},{"bike_id":"15e407c8-3f41-4127-9508-07750dc117f5","system_id":"levelo_inurba_marseille","lat":43.29103,"lon":5.38131,"is_reserved":false,"is_disabled":false,"rental_uris":{"android":"levelo://app?vid=15e407c8-3f41-4127-9508-07750dc117f5","ios":"levelo://app?vid=15e407c8-3f41-4127-9508-07750dc117f5"},"vehicle_type_id":"4","last_reported":1739822996,"current_range_meters":16800,"station_id":"ce4bh512rcd13ifvqe2g","pricing_plan_id":"cebpf4jnsgd1na2vs0mg"},{"bike_id":"58a5c712-9d46-4329-afac-796b4051eca6","system_id":"levelo_inurba_marseille","lat":43.25005,"lon":5.38912,"is_reserved":false,"is_disabled":true,"rental_uris":{"android":"levelo://app?vid=58a5c712-9d46-4329-afac-796b4051eca6","ios":"levelo://app?vid=58a5c712-9d46-4329-afac-796b4051eca6"},"vehicle_type_id":"4","last_reported":1739822996,"current_range_meters":17600,"station_id":"ce4bhgp2rcd13ifvqfd0","pricing_plan_id":"cebpf4jnsgd1na2vs0mg"},{"bike_id":"9c83cdcf-1bba-4409-a544-1ea9671744a2","system_id":"levelo_inurba_marseille","lat":43.2848,"lon":5.38426,"is_reserved":false,"is_disabled":false,"rental_uris":{"android":"levelo://app?vid=9c83cdcf-1bba-4409-a544-1ea9671744a2","ios":"levelo://app?vid=9c83cdcf-1bba-4409-a544-1ea9671744a2"},"vehicle_type_id":"4","last_reported":1739822996,"current_range_meters":17200,"station_id":"ce4bh512rcd13ifvqe3g","pricing_plan_id":"cebpf4jnsgd1na2vs0mg"},{"bike_id":"b6c8ef64-7a9f-4d03-8f6a-54b917e9c30f","system_id":"levelo_inurba_marseille","lat":43.28701,"lon":5.37373,"is_reserved":false,"is_disabled":false,"rental_uris":{"android":"levelo://app?vid=b6c8ef64-7a9f-4d03-8f6a-54b917e9c30f","ios":"levelo://app?vid=b6c8ef64-7a9f-4d03-8f6a-54b917e9c30f"},"vehicle_type_id":"4","last_reported":1739822996,"current_range_meters":17200,"station_id":"ce4bh3p2rcd13ifvqdq0","pricing_plan_id":"cebpf4jnsgd1na2vs0mg"},{"bike_id":"c5481d8c-801f-4868-b9a0-d493af370dcc","system_id":"levelo_inurba_marseille","lat":43.29187,"lon":5.39331,"is_reserved":false,"is_disabled":false,"rental_uris":{"android":"levelo://app?vid=c5481d8c-801f-4868-b9a0-d493af370dcc","ios":"levelo://app?vid=c5481d8c-801f-4868-b9a0-d493af370dcc"},"vehicle_type_id":"4","last_reported":1739822996,"current_range_meters":17200,"station_id":"ce4bh192rcd13ifvqdd0","pricing_plan_id":"cebpf4jnsgd1na2vs0mg"},{"bike_id":"a18d790d-07a5-49e7-9126-9be5347c108c","system_id":"levelo_inurba_marseille","lat":43.28271,"lon":5.35067,"is_reserved":false,"is_disabled":false,"rental_uris":{"android":"levelo://app?vid=a18d790d-07a5-49e7-9126-9be5347c108c","ios":"levelo://app?vid=a18d790d-07a5-49e7-9126-9be5347c108c"},"vehicle_type_id":"4","last_reported":1739822996,"current_range_meters":17200,"station_id":"ce4bhbp2rcd13ifvqerg","pricing_plan_id":"cebpf4jnsgd1na2vs0mg"},{"bike_id":"84dc2dc8-69f2-4813-a36e-4d36b9136b36","system_id":"levelo_inurba_marseille","lat":43.32288,"lon":5.38262,"is_reserved":false,"is_disabled":false,"rental_uris":{"android":"levelo://app?vid=84dc2dc8-69f2-4813-a36e-4d36b9136b36","ios":"levelo://app?vid=84dc2dc8-69f2-4813-a36e-4d36b9136b36"},"vehicle_type_id":"4","last_reported":1739822996,"current_range_meters":17200,"station_id":"ce4bhr12rcd13ifvqhqg","pricing_plan_id":"cebpf4jnsgd1na2vs0mg"},{"bike_id":"f9402578-d07b-45fc-90f7-829d99db374f","system_id":"levelo_inurba_marseille","lat":43.29783,"lon":5.39337,"is_reserved":false,"is_disabled":false,"rental_uris":{"android":"levelo://app?vid=f9402578-d07b-45fc-90f7-829d99db374f","ios":"levelo://app?vid=f9402578-d07b-45fc-90f7-829d99db374f"},"vehicle_type_id":"4","last_reported":1739822996,"current_range_meters":17200,"station_id":"chh1huq6cuj3fo74tm60","pricing_plan_id":"cebpf4jnsgd1na2vs0mg"},{"bike_id":"47571b7b-5f27-43dd-a2cc-d48926c58063","system_id":"levelo_inurba_marseille","lat":43.30154,"lon":5.399,"is_reserved":false,"is_disabled":false,"rental_uris":{"android":"levelo://app?vid=47571b7b-5f27-43dd-a2cc-d48926c58063","ios":"levelo://app?vid=47571b7b-5f27-43dd-a2cc-d48926c58063"},"vehicle_type_id":"4","last_reported":1739822996,"current_range_meters":17600,"station_id":"ce4bh0h2rcd13ifvqd40","pricing_plan_id":"cebpf4jnsgd1na2vs0mg"},{"bike_id":"cb943006-3d49-4d28-a996-061563694221","system_id":"levelo_inurba_marseille","lat":43.23956,"lon":5.36639,"is_reserved":false,"is_disabled":false,"rental_uris":{"android":"levelo://app?vid=cb943006-3d49-4d28-a996-061563694221","ios":"levelo://app?vid=cb943006-3d49-4d28-a996-061563694221"},"vehicle_type_id":"4","last_reported":1739822996,"current_range_meters":17600,"station_id":"ce4bhi12rcd13ifvqfp0","pricing_plan_id":"cebpf4jnsgd1na2vs0mg"},{"bike_id":"9885c601-2cbe-4ea7-9b6c-479dc416387c","system_id":"levelo_inurba_marseille","lat":43.29898,"lon":5.4364,"is_reserved":false,"is_disabled":false,"rental_uris":{"android":"levelo://app?vid=9885c601-2cbe-4ea7-9b6c-479dc416387c","ios":"levelo://app?vid=9885c601-2cbe-4ea7-9b6c-479dc416387c"},"vehicle_type_id":"4","last_reported":1739822996,"current_range_meters":17600,"station_id":"ce4bhpp2rcd13ifvqhfg","pricing_plan_id":"cebpf4jnsgd1na2vs0mg"},{"bike_id":"408d22a9-6563-4b4f-a23f-223be49b8117","system_id":"levelo_inurba_marseille","lat":43.30333,"lon":5.40432,"is_reserved":false,"is_disabled":false,"rental_uris":{"android":"levelo://app?vid=408d22a9-6563-4b4f-a23f-223be49b8117","ios":"levelo://app?vid=408d22a9-6563-4b4f-a23f-223be49b8117"},"vehicle_type_id":"4","last_reported":1739822996,"current_range_meters":17200,"station_id":"ce4bh012rcd13ifvqd10","pricing_plan_id":"cebpf4jnsgd1na2vs0mg"},{"bike_id":"eccd8f50-0d44-405a-897c-7354c541adab","system_id":"levelo_inurba_marseille","lat":43.23189,"lon":5.39979,"is_reserved":false,"is_disabled":false,"rental_uris":{"android":"levelo://app?vid=eccd8f50-0d44-405a-897c-7354c541adab","ios":"levelo://app?vid=eccd8f50-0d44-405a-897c-7354c541adab"},"vehicle_type_id":"4","last_reported":1739822996,"current_range_meters":17600,"station_id":"ce4bhn12rcd13ifvqgqg","pricing_plan_id":"cebpf4jnsgd1na2vs0mg"},{"bike_id":"9794d763-e929-4197-82ba-1b6d84cc7b2e","system_id":"levelo_inurba_marseille","lat":43.31282,"lon":5.40186,"is_reserved":false,"is_disabled":false,"rental_uris":{"android":"levelo://app?vid=9794d763-e929-4197-82ba-1b6d84cc7b2e","ios":"levelo://app?vid=9794d763-e929-4197-82ba-1b6d84cc7b2e"},"vehicle_type_id":"4","last_reported":1739822996,"current_range_meters":17600,"station_id":"ce4bh092rcd13ifvqd30","pricing_plan_id":"cebpf4jnsgd1na2vs0mg"},{"bike_id":"9212f55b-2ef0-4417-a698-ed5dcd551dc2","system_id":"levelo_inurba_marseille","lat":43.26562,"lon":5.38998,"is_reserved":false,"is_disabled":false,"rental_uris":{"android":"levelo://app?vid=9212f55b-2ef0-4417-a698-ed5dcd551dc2","ios":"levelo://app?vid=9212f55b-2ef0-4417-a698-ed5dcd551dc2"},"vehicle_type_id":"4","last_reported":1739822996,"current_range_meters":17600,"station_id":"ce4bhe12rcd13ifvqf30","pricing_plan_id":"cebpf4jnsgd1na2vs0mg"},{"bike_id":"6c96a73f-ff01-463f-bd8c-14885ee904b6","system_id":"levelo_inurba_marseille","lat":43.29067,"lon":5.35752,"is_reserved":false,"is_disabled":false,"rental_uris":{"android":"levelo://app?vid=6c96a73f-ff01-463f-bd8c-14885ee904b6","ios":"levelo://app?vid=6c96a73f-ff01-463f-bd8c-14885ee904b6"},"vehicle_type_id":"4","last_reported":1739822996,"current_range_meters":17600,"station_id":"ce4bhb92rcd13ifvqen0","pricing_plan_id":"cebpf4jnsgd1na2vs0mg"},{"bike_id":"00842a34-2d9e-4918-8894-dad720c206be","system_id":"levelo_inurba_marseille","lat":43.30922,"lon":5.4016,"is_reserved":false,"is_disabled":false,"rental_uris":{"android":"levelo://app?vid=00842a34-2d9e-4918-8894-dad720c206be","ios":"levelo://app?vid=00842a34-2d9e-4918-8894-dad720c206be"},"vehicle_type_id":"4","last_reported":1739822996,"current_range_meters":17200,"station_id":"ce4bgvp2rcd13ifvqct0","pricing_plan_id":"cebpf4jnsgd1na2vs0mg"},{"bike_id":"0b2680da-7c5b-4aed-a130-96935f84eced","system_id":"levelo_inurba_marseille","lat":43.31174,"lon":5.38706,"is_reserved":false,"is_disabled":false,"rental_uris":{"android":"levelo://app?vid=0b2680da-7c5b-4aed-a130-96935f84eced","ios":"levelo://app?vid=0b2680da-7c5b-4aed-a130-96935f84eced"},"vehicle_type_id":"4","last_reported":1739822996,"current_range_meters":18000,"station_id":"ce4bgv12rcd13ifvqcp0","pricing_plan_id":"cebpf4jnsgd1na2vs0mg"},{"bike_id":"87e4e3d9-887e-4f25-bf58-279367bc8327","system_id":"levelo_inurba_marseille","lat":43.30659,"lon":5.40055,"is_reserved":false,"is_disabled":true,"rental_uris":{"android":"levelo://app?vid=87e4e3d9-887e-4f25-bf58-279367bc8327","ios":"levelo://app?vid=87e4e3d9-887e-4f25-bf58-279367bc8327"},"vehicle_type_id":"4","last_reported":1739822996,"current_range_meters":18000,"station_id":"ce4bh112rcd13ifvqda0","pricing_plan_id":"cebpf4jnsgd1na2vs0mg"},{"bike_id":"407e5944-557a-481f-9c3c-c2024ce7925a","system_id":"levelo_inurba_marseille","lat":43.2761,"lon":5.36133,"is_reserved":false,"is_disabled":false,"rental_uris":{"android":"levelo://app?vid=407e5944-557a-481f-9c3c-c2024ce7925a","ios":"levelo://app?vid=407e5944-557a-481f-9c3c-c2024ce7925a"},"vehicle_type_id":"4","last_reported":1739822996,"current_range_meters":18000,"station_id":"","pricing_plan_id":"cebpf4jnsgd1na2vs0mg"},{"bike_id":"c0bbfb62-faac-4bdc-ad49-21c384d9f883","system_id":"levelo_inurba_marseille","lat":43.27948,"lon":5.41045,"is_reserved":false,"is_disabled":false,"rental_uris":{"android":"levelo://app?vid=c0bbfb62-faac-4bdc-ad49-21c384d9f883","ios":"levelo://app?vid=c0bbfb62-faac-4bdc-ad49-21c384d9f883"},"vehicle_type_id":"4","last_reported":1739822996,"current_range_meters":18000,"station_id":"ce4bhnp2rcd13ifvqh0g","pricing_plan_id":"cebpf4jnsgd1na2vs0mg"},{"bike_id":"8796c4a1-cf69-4acb-819d-b56299eee9b7","system_id":"levelo_inurba_marseille","lat":43.33249,"lon":5.37913,"is_reserved":false,"is_disabled":false,"rental_uris":{"android":"levelo://app?vid=8796c4a1-cf69-4acb-819d-b56299eee9b7","ios":"levelo://app?vid=8796c4a1-cf69-4acb-819d-b56299eee9b7"},"vehicle_type_id":"4","last_reported":1739822996,"current_range_meters":18000,"station_id":"","pricing_plan_id":"cebpf4jnsgd1na2vs0mg"},{"bike_id":"efb6b4a0-de1c-4f69-bd8b-ff07ea46a8fd","system_id":"levelo_inurba_marseille","lat":43.28841,"lon":5.35848,"is_reserved":false,"is_disabled":false,"rental_uris":{"android":"levelo://app?vid=efb6b4a0-de1c-4f69-bd8b-ff07ea46a8fd","ios":"levelo://app?vid=efb6b4a0-de1c-4f69-bd8b-ff07ea46a8fd"},"vehicle_type_id":"4","last_reported":1739822996,"current_range_meters":18000,"station_id":"ce4bhb12rcd13ifvqem0","pricing_plan_id":"cebpf4jnsgd1na2vs0mg"},