{"last_updated":1768883770,"ttl":60,"version":"2.2","data":{"bikes":[{"bike_id":"9a165d8b-2ee8-46b2-a05c-0bfc0b495a56","system_id":"levelo_inurba_marseille","lat":43.2884,"lon":5.3584,"is_reserved":false,"is_disabled":false,"rental_uris":{"android":"levelo://app?vid=9a165d8b-2ee8-46b2-a05c-0bfc0b495a56","ios":"levelo://app?vid=9a165d8b-2ee8-46b2-a05c-0bfc0b495a56"},"vehicle_type_id":"4","last_reported":1768883771,"current_range_meters":2800,"station_id":"ce4bhb12rcd13ifvqem0","pricing_plan_id":"cebpf4jnsgd1na2vs0mg"},{"bike_id":"e7866689-ccae-434e-9735-0e85445c0a9a","system_id":"levelo_inurba_marseille","lat":43.28036,"lon":5.38486,"is_reserved":false,"is_disabled":false,"rental_uris":{"android":"levelo://app?vid=e7866689-ccae-434e-9735-0e85445c0a9a","ios":"levelo://app?vid=e7866689-ccae-434e-9735-0e85445c0a9a"},"vehicle_type_id":"4","last_reported":1768883771,"current_range_meters":2800,"station_id":"","pricing_plan_id":"cebpf4jnsgd1na2vs0mg"},{"bike_id":"a85307e7-55a6-493f-b75d-6dc070935e20","system_id":"levelo_inurba_marseille","lat":43.27897,"lon":5.38015,"is_reserved":false,"is_disabled":false,"rental_uris":{"android":"levelo://app?vid=a85307e7-55a6-493f-b75d-6dc070935e20","ios":"levelo://app?vid=a85307e7-55a6-493f-b75d-6dc070935e20"},"vehicle_type_id":"4","last_reported":1768883771,"current_range_meters":2800,"station_id":"ce4bhf92rcd13ifvqf50","pricing_plan_id":"cebpf4jnsgd1na2vs0mg"},{"bike_id":"4d9635fb-63a8-4fed-8445-6853e971fca6","system_id":"levelo_inurba_marseille","lat":43.27935,"lon":5.41047,"is_reserved":false,"is_disabled":false,"rental_uris":{"android":"levelo://app?vid=4d9635fb-63a8-4fed-8445-6853e971fca6","ios":"levelo://app?vid=4d9635fb-63a8-4fed-8445-6853e971fca6"},"vehicle_type_id":"4","last_reported":1768883771,"current_range_meters":2800,"station_id":"ce4bhnp2rcd13ifvqh0g","pricing_plan_id":"cebpf4jnsgd1na2vs0mg"},{"bike_id":"3c55a52c-ae39-4c58-9ae1-be2a58c6b7ad","system_id":"levelo_inurba_marseille","lat":43.28888,"lon":5.35807,"is_reserved":false,"is_disabled":false,"rental_uris":{"android":"levelo://app?vid=3c55a52c-ae39-4c58-9ae1-be2a58c6b7ad","ios":"levelo://app?vid=3c55a52c-ae39-4c58-9ae1-be2a58c6b7ad"},"vehicle_type_id":"4","last_reported":1768883771,"current_range_meters":2800,"station_id":"ce4bhb12rcd13ifvqem0","pricing_plan_id":"cebpf4jnsgd1na2vs0mg"},{"bike_id":"9149b9bf-0379-4933-8d49-fb09fb074be2","system_id":"levelo_inurba_marseille","lat":43.23189,"lon":5.35553,"is_reserved":false,"is_disabled":false,"rental_uris":{"android":"levelo://app?vid=9149b9bf-0379-4933-8d49-fb09fb074be2","ios":"levelo://app?vid=9149b9bf-0379-4933-8d49-fb09fb074be2"},"vehicle_type_id":"4","last_reported":1768883771,"current_range_meters":2800,"station_id":"ce4bhu92rcd13ifvqi70","pricing_plan_id":"cebpf4jnsgd1na2vs0mg"},{"bike_id":"362a0ae8-a2e7-42cc-abd5-2ef869d92a77","system_id":"levelo_inurba_marseille","lat":43.28485,"lon":5.48385,"is_reserved":false,"is_disabled":false,"rental_uris":{"android":"levelo://app?vid=362a0ae8-a2e7-42cc-abd5-2ef869d92a77","ios":"levelo://app?vid=362a0ae8-a2e7-42cc-abd5-2ef869d92a77"},"vehicle_type_id":"4","last_reported":1768883771,"current_range_meters":2800,"station_id":"","pricing_plan_id":"cebpf4jnsgd1na2vs0mg"},{"bike_id":"ea7284ef-5752-442c-9367-26c5dcd07bb3","system_id":"levelo_inurba_marseille","lat":43.24654,"lon":5.38159,"is_reserved":false,"is_disabled":false,"rental_uris":{"android":"levelo://app?vid=ea7284ef-5752-442c-9367-26c5dcd07bb3","ios":"levelo://app?vid=ea7284ef-5752-442c-9367-26c5dcd07bb3"},"vehicle_type_id":"4","last_reported":1768883771,"current_range_meters":2800,"station_id":"ce4bhih2rcd13ifvqfr0","pricing_plan_id":"cebpf4jnsgd1na2vs0mg"},{"bike_id":"db7ef3fe-8042-458f-98f0-bf32c553e4f2","system_id":"levelo_inurba_marseille","lat":43.30218,"lon":5.40012,"is_reserved":false,"is_disabled":false,"rental_uris":{"android":"levelo://app?vid=db7ef3fe-8042-458f-98f0-bf32c553e4f2","ios":"levelo://app?vid=db7ef3fe-8042-458f-98f0-bf32c553e4f2"},"vehicle_type_id":"4","last_reported":1768883771,"current_range_meters":2800,"station_id":"ce4bgvh2rcd13ifvqcs0","pricing_plan_id":"cebpf4jnsgd1na2vs0mg"},{"bike_id":"2fbfe62a-db06-4932-8158-ef1d0b78abf4","system_id":"levelo_inurba_marseille","lat":43.252217,"lon":5.380359,"is_reserved":false,"is_disabled":false,"rental_uris":{"android":"levelo://app?vid=2fbfe62a-db06-4932-8158-ef1d0b78abf4","ios":"levelo://app?vid=2fbfe62a-db06-4932-8158-ef1d0b78abf4"},"vehicle_type_id":"4","last_reported":1768883771,"current_range_meters":2800,"station_id":"","pricing_plan_id":"cebpf4jnsgd1na2vs0mg"},{"bike_id":"2e44fc02-404d-4c56-9bc6-3ccf2db7f515","system_id":"levelo_inurba_marseille","lat":43.29907,"lon":5.4366,"is_reserved":false,"is_disabled":false,"rental_uris":{"android":"levelo://app?vid=2e44fc02-404d-4c56-9bc6-3ccf2db7f515","ios":"levelo://app?vid=2e44fc02-404d-4c56-9bc6-3ccf2db7f515"},"vehicle_type_id":"4","last_reported":1768883771,"current_range_meters":2800,"station_id":"ce4bhpp2rcd13ifvqhfg","pricing_plan_id":"cebpf4jnsgd1na2vs0mg"},{"bike_id":"1efd8771-c3d5-49d2-a669-045ea31d0385","system_id":"levelo_inurba_marseille","lat":43.28462,"lon":5.39244,"is_reserved":false,"is_disabled":false,"rental_uris":{"android":"levelo://app?vid=1efd8771-c3d5-49d2-a669-045ea31d0385","ios":"levelo://app?vid=1efd8771-c3d5-49d2-a669-045ea31d0385"},"vehicle_type_id":"4","last_reported":1768883771,"current_range_meters":2800,"station_id":"ce4bhoh2rcd13ifvqh5g","pricing_plan_id":"cebpf4jnsgd1na2vs0mg"},{"bike_id":"35df58ab-77a3-4070-9ec0-1c9995a3f5b6","system_id":"levelo_inurba_marseille","lat":43.25329,"lon":5.4216,"is_reserved":false,"is_disabled":false,"rental_uris":{"android":"levelo://app?vid=35df58ab-77a3-4070-9ec0-1c9995a3f5b6","ios":"levelo://app?vid=35df58ab-77a3-4070-9ec0-1c9995a3f5b6"},"vehicle_type_id":"4","last_reported":1768883771,"current_range_meters":3200,"station_id":"st_d2m65c5bi1j21697t3ng","pricing_plan_id":"cebpf4jnsgd1na2vs0mg"},{"bike_id":"e388c5ad-ef2e-4c97-8cf2-ae29827a5ebf","system_id":"levelo_inurba_marseille","lat":43.29032,"lon":5.39968,"is_reserved":false,"is_disabled":false,"rental_uris":{"android":"levelo://app?vid=e388c5ad-ef2e-4c97-8cf2-ae29827a5ebf","ios":"levelo://app?vid=e388c5ad-ef2e-4c97-8cf2-ae29827a5ebf"},"vehicle_type_id":"4","last_reported":1768883771,"current_range_meters":3200,"station_id":"ce4bh392rcd13ifvqdm0","pricing_plan_id":"cebpf4jnsgd1na2vs0mg"},{"bike_id":"946882e2-1c7c-41d9-af64-47c95d7833f4","system_id":"levelo_inurba_marseille","lat":43.317576,"lon":5.390083,"is_reserved":false,"is_disabled":false,"rental_uris":{"android":"levelo://app?vid=946882e2-1c7c-41d9-af64-47c95d7833f4","ios":"levelo://app?vid=946882e2-1c7c-41d9-af64-47c95d7833f4"},"vehicle_type_id":"4","last_reported":1768883771,"current_range_meters":3200,"station_id":"ce4bhqp2rcd13ifvqhng","pricing_plan_id":"cebpf4jnsgd1na2vs0mg"},{"bike_id":"0c80884c-9c03-40f4-a5db-26696ff4abea","system_id":"levelo_inurba_marseille","lat":43.30564,"lon":5.3651,"is_reserved":false,"is_disabled":false,"rental_uris":{"android":"levelo://app?vid=0c80884c-9c03-40f4-a5db-26696ff4abea","ios":"levelo://app?vid=0c80884c-9c03-40f4-a5db-26696ff4abea"},"vehicle_type_id":"4","last_reported":1768883771,"current_range_meters":3200,"station_id":"ce4bgs12rcd13ifvqcag","pricing_plan_id":"cebpf4jnsgd1na2vs0mg"},{"bike_id":"40a51611-9c8e-4d07-89e8-8531c33c355b","system_id":"levelo_inurba_marseille","lat":43.279115,"lon":5.395834,"is_reserved":false,"is_disabled":false,"rental_uris":{"android":"levelo://app?vid=40a51611-9c8e-4d07-89e8-8531c33c355b","ios":"levelo://app?vid=40a51611-9c8e-4d07-89e8-8531c33c355b"},"vehicle_type_id":"4","last_reported":1768883771,"current_range_meters":3200,"station_id":"ce4bhf92rcd13ifvqf40","pricing_plan_id":"cebpf4jnsgd1na2vs0mg"},{"bike_id":"b7ea749c-3197-42e7-ad82-9df6abef728a","system_id":"levelo_inurba_marseille","lat":43.28523,"lon":5.44083,"is_reserved":false,"is_disabled":false,"rental_uris":{"android":"levelo://app?vid=b7ea749c-3197-42e7-ad82-9df6abef728a","ios":"levelo://app?vid=b7ea749c-3197-42e7-ad82-9df6abef728a"},"vehicle_type_id":"4","last_reported":1768883771,"current_range_meters":3200,"station_id":"st_d3j3df2ikq2c7380ej80","pricing_plan_id":"cebpf4jnsgd1na2vs0mg"},{"bike_id":"65d540a3-6b25-4335-8357-ca6e40a2c0bf","system_id":"levelo_inurba_marseille","lat":43.28485,"lon":5.38536,"is_reserved":false,"is_disabled":false,"rental_uris":{"android":"levelo://app?vid=65d540a3-6b25-4335-8357-ca6e40a2c0bf","ios":"levelo://app?vid=65d540a3-6b25-4335-8357-ca6e40a2c0bf"},"vehicle_type_id":"4","last_reported":1768883771,"current_range_meters":3200,"station_id":"ce4bh8p2rcd13ifvqeb0","pricing_plan_id":"cebpf4jnsgd1na2vs0mg"},{"bike_id":"82a972ff-c30f-4326-8a02-4f8fe3b37884","system_id":"levelo_inurba_marseille","lat":43.23789,"lon":5.36634,"is_reserved":false,"is_disabled":false,"rental_uris":{"android":"levelo://app?vid=82a972ff-c30f-4326-8a02-4f8fe3b37884","ios":"levelo://app?vid=82a972ff-c30f-4326-8a02-4f8fe3b37884"},"vehicle_type_id":"4","last_reported":1768883771,"current_range_meters":3200,"station_id":"st_d3nk18o9ro0c73en2l3g","pricing_plan_id":"cebpf4jnsgd1na2vs0mg"},{"bike_id":"5eaccc9d-2b69-4116-b8f4-6671095c29ff","system_id":"levelo_inurba_marseille","lat":43.28761,"lon":5.37151,"is_reserved":false,"is_disabled":false,"rental_uris":{"android":"levelo://app?vid=5eaccc9d-2b69-4116-b8f4-6671095c29ff","ios":"levelo://app?vid=5eaccc9d-2b69-4116-b8f4-6671095c29ff"},"vehicle_type_id":"4","last_reported":1768883771,"current_range_meters":3200,"station_id":"","pricing_plan_id":"cebpf4jnsgd1na2vs0mg"},{"bike_id":"98831236-6741-4339-9875-3df8d0608896","system_id":"levelo_inurba_marseille","lat":43.265563,"lon":5.390145,"is_reserved":false,"is_disabled":false,"rental_uris":{"android":"levelo://app?vid=98831236-6741-4339-9875-3df8d0608896","ios":"levelo://app?vid=98831236-6741-4339-9875-3df8d0608896"},"vehicle_type_id":"4","last_reported":1768883771,"current_range_meters":3200,"station_id":"ce4bhe12rcd13ifvqf30","pricing_plan_id":"cebpf4jnsgd1na2vs0mg"},{"bike_id":"920c26d8-8ebc-4174-b996-b489c0a23e3d","system_id":"levelo_inurba_marseille","lat":43.24182,"lon":5.39717,"is_reserved":false,"is_disabled":false,"rental_uris":{"android":"levelo://app?vid=920c26d8-8ebc-4174-b996-b489c0a23e3d","ios":"levelo://app?vid=920c26d8-8ebc-4174-b996-b489c0a23e3d"},"vehicle_type_id":"4","last_reported":1768883771,"current_range_meters":3200,"station_id":"ce4bhn12rcd13ifvqgpg","pricing_plan_id":"cebpf4jnsgd1na2vs0mg"},{"bike_id":"eaa3d88b-d58a-4126-b680-cb7365fc49f6","system_id":"levelo_inurba_marseille","lat":43.31158,"lon":5.38704,"is_reserved":false,"is_disabled":false,"rental_uris":{"android":"levelo://app?vid=eaa3d88b-d58a-4126-b680-cb7365fc49f6","ios":"levelo://app?vid=eaa3d88b-d58a-4126-b680-cb7365fc49f6"},"vehicle_type_id":"4","last_reported":1768883771,"current_range_meters":3200,"station_id":"ce4bgv12rcd13ifvqcp0","pricing_plan_id":"cebpf4jnsgd1na2vs0mg"},{"bike_id":"8ad38f65-7061-4db4-ab81-a3b040098a9a","system_id":"levelo_inurba_marseille","lat":43.27817,"lon":5.40691,"is_reserved":false,"is_disabled":false,"rental_uris":{"android":"levelo://app?vid=8ad38f65-7061-4db4-ab81-a3b040098a9a","ios":"levelo://app?vid=8ad38f65-7061-4db4-ab81-a3b040098a9a"},"vehicle_type_id":"4","last_reported":1768883771,"current_range_meters":3200,"station_id":"ce4bhnh2rcd13ifvqgtg","pricing_plan_id":"cebpf4jnsgd1na2vs0mg"},{"bike_id":"c0627a81-edf3-4c76-87d5-5fc1946102fe","system_id":"levelo_inurba_marseille","lat":43.28617,"lon":5.35104,"is_reserved":false,"is_disabled":false,"rental_uris":{"android":"levelo://app?vid=c0627a81-edf3-4c76-87d5-5fc1946102fe","ios":"levelo://app?vid=c0627a81-edf3-4c76-87d5-5fc1946102fe"},"vehicle_type_id":"4","last_reported":1768883771,"current_range_meters":3200,"station_id":"ce4bhch2rcd13ifvqeug","pricing_plan_id":"cebpf4jnsgd1na2vs0mg"},{"bike_id":"5f120a86-cc0b-40c7-9c31-6878b214f823","system_id":"levelo_inurba_marseille","lat":43.248,"lon":5.37443,"is_reserved":false,"is_disabled":false,"rental_uris":{"android":"levelo://app?vid=5f120a86-cc0b-40c7-9c31-6878b214f823","ios":"levelo://app?vid=5f120a86-cc0b-40c7-9c31-6878b214f823"},"vehicle_type_id":"4","last_reported":1768883771,"current_range_meters":3600,"station_id":"ce4bhgh2rcd13ifvqfb0","pricing_plan_id":"cebpf4jnsgd1na2vs0mg"},{"bike_id":"50c47a6e-8921-4008-8c5d-86f87ed06be3","system_id":"levelo_inurba_marseille","lat":43.279941,"lon":5.400221,"is_reserved":false,"is_disabled":false,"rental_uris":{"android":"levelo://app?vid=50c47a6e-8921-4008-8c5d-86f87ed06be3","ios":"levelo://app?vid=50c47a6e-8921-4008-8c5d-86f87ed06be3"},"vehicle_type_id":"4","last_reported":1768883771,"current_range_meters":3600,"station_id":"ce4bho92rcd13ifvqh4g","pricing_plan_id":"cebpf4jnsgd1na2vs0mg"},{"bike_id":"8faa5eec-1572-4730-991d-d243800d03ee","system_id":"levelo_inurba_marseille","lat":43.30113,"lon":5.43117,"is_reserved":false,"is_disabled":false,"rental_uris":{"android":"levelo://app?vid=8faa5eec-1572-4730-991d-d243800d03ee","ios":"levelo://app?vid=8faa5eec-1572-4730-991d-d243800d03ee"},"vehicle_type_id":"4","last_reported":1768883771,"current_range_meters":3600,"station_id":"st_d3js3co5814s73ftftug","pricing_plan_id":"cebpf4jnsgd1na2vs0mg"},{"bike_id":"07d71416-deb7-4cc7-9f86-0f69e2a32773","system_id":"levelo_inurba_marseille","lat":43.24178,"lon":5.39712,"is_reserved":false,"is_disabled":false,"rental_uris":{"android":"levelo://app?vid=07d71416-deb7-4cc7-9f86-0f69e2a32773","ios":"levelo://app?vid=07d71416-deb7-4cc7-9f86-0f69e2a32773"},"vehicle_type_id":"4","last_reported":1768883771,"current_range_meters":3600,"station_id":"ce4bhn12rcd13ifvqgpg","pricing_plan_id":"cebpf4jnsgd1na2vs0mg"},{"bike_id":"f18bc030-feac-4290-98f5-ef3dbe2dffcf","system_id":"levelo_inurba_marseille","lat":43.26503,"lon":5.39571,"is_reserved":false,"is_disabled":false,"rental_uris":{"android":"levelo://app?vid=f18bc030-feac-4290-98f5-ef3dbe2dffcf","ios":"levelo://app?vid=f18bc030-feac-4290-98f5-ef3dbe2dffcf"},"vehicle_type_id":"4","last_reported":1768883771,"current_range_meters":3600,"station_id":"ce4bhi12rcd13ifvqfq0","pricing_plan_id":"cebpf4jnsgd1na2vs0mg"},{"bike_id":"0ffa3a37-1efe-4773-9c0c-0281daa15b60","system_id":"levelo_inurba_marseille","lat":43.25313,"lon":5.38015,"is_reserved":false,"is_disabled":false,"rental_uris":{"android":"levelo://app?vid=0ffa3a37-1efe-4773-9c0c-0281daa15b60","ios":"levelo://app?vid=0ffa3a37-1efe-4773-9c0c-0281daa15b60"},"vehicle_type_id":"4","last_reported":1768883771,"current_range_meters":3600,"station_id":"","pricing_plan_id":"cebpf4jnsgd1na2vs0mg"},{"bike_id":"6c7011e5-414c-4f5e-abe7-ae2f824bd5bd","system_id":"levelo_inurba_marseille","lat":43.2588,"lon":5.39888,"is_reserved":false,"is_disabled":false,"rental_uris":{"android":"levelo://app?vid=6c7011e5-414c-4f5e-abe7-ae2f824bd5bd","ios":"levelo://app?vid=6c7011e5-414c-4f5e-abe7-ae2f824bd5bd"},"vehicle_type_id":"4","last_reported":1768883771,"current_range_meters":3600,"station_id":"ce4bhl92rcd13ifvqghg","pricing_plan_id":"cebpf4jnsgd1na2vs0mg"},{"bike_id":"92030df9-3983-40dd-ae8e-c537cab0af80","system_id":"levelo_inurba_marseille","lat":43.2649,"lon":5.39551,"is_reserved":false,"is_disabled":false,"rental_uris":{"android":"levelo://app?vid=92030df9-3983-40dd-ae8e-c537cab0af80","ios":"levelo://app?vid=92030df9-3983-40dd-ae8e-c537cab0af80"},"vehicle_type_id":"4","last_reported":1768883771,"current_range_meters":4000,"station_id":"ce4bhi12rcd13ifvqfq0","pricing_plan_id":"cebpf4jnsgd1na2vs0mg"},{"bike_id":"0be1b7c2-2a16-4cfb-b6c6-31dc9a4a8cf1","system_id":"levelo_inurba_marseille","lat":43.27815,"lon":5.40711,"is_reserved":false,"is_disabled":false,"rental_uris":{"android":"levelo://app?vid=0be1b7c2-2a16-4cfb-b6c6-31dc9a4a8cf1","ios":"levelo://app?vid=0be1b7c2-2a16-4cfb-b6c6-31dc9a4a8cf1"},"vehicle_type_id":"4","last_reported":1768883771,"current_range_meters":4000,"station_id":"ce4bhnh2rcd13ifvqgtg","pricing_plan_id":"cebpf4jnsgd1na2vs0mg"},{"bike_id":"d94b0719-67c8-4a98-823a-17ee81ceae99","system_id":"levelo_inurba_marseille","lat":43.27996,"lon":5.39972,"is_reserved":false,"is_disabled":false,"rental_uris":{"android":"levelo://app?vid=d94b0719-67c8-4a98-823a-17ee81ceae99","ios":"levelo://app?vid=d94b0719-67c8-4a98-823a-17ee81ceae99"},"vehicle_type_id":"4","last_reported":1768883771,"current_range_meters":4000,"station_id":"ce4bho92rcd13ifvqh4g","pricing_plan_id":"cebpf4jnsgd1na2vs0mg"},{"bike_id":"7203e830-a3e8-48b3-874d-a33c2d2d3056","system_id":"levelo_inurba_marseille","lat":43.33753,"lon":5.37462,"is_reserved":false,"is_disabled":false,"rental_uris":{"android":"levelo://app?vid=7203e830-a3e8-48b3-874d-a33c2d2d3056","ios":"levelo://app?vid=7203e830-a3e8-48b3-874d-a33c2d2d3056"},"vehicle_type_id":"4","last_reported":1768883771,"current_range_meters":4000,"station_id":"","pricing_plan_id":"cebpf4jnsgd1na2vs0mg"},{"bike_id":"53d7389e-67e7-4845-ae5c-1cd339660b50","system_id":"levelo_inurba_marseille","lat":43.26568,"lon":5.40324,"is_reserved":false,"is_disabled":false,"rental_uris":{"android":"levelo://app?vid=53d7389e-67e7-4845-ae5c-1cd339660b50","ios":"levelo://app?vid=53d7389e-67e7-4845-ae5c-1cd339660b50"},"vehicle_type_id":"4","last_reported":1768883771,"current_range_meters":4000,"station_id":"ce4bhmp2rcd13ifvqgng","pricing_plan_id":"cebpf4jnsgd1na2vs0mg"},{"bike_id":"601c2709-22a4-464b-ac88-e378165071d7","system_id":"levelo_inurba_marseille","lat":43.25352,"lon":5.42157,"is_reserved":false,"is_disabled":false,"rental_uris":{"android":"levelo://app?vid=601c2709-22a4-464b-ac88-e378165071d7","ios":"levelo://app?vid=601c2709-22a4-464b-ac88-e378165071d7"},"vehicle_type_id":"4","last_reported":1768883771,"current_range_meters":4400,"station_id":"st_d2m65c5bi1j21697t3ng","pricing_plan_id":"cebpf4jnsgd1na2vs0mg"},{"bike_id":"aa734ba7-ce92-4c1b-86f8-f1622bce223c","system_id":"levelo_inurba_marseille","lat":43.29825,"lon":5.44056,"is_reserved":false,"is_disabled":true,"rental_uris":{"android":"levelo://app?vid=aa734ba7-ce92-4c1b-86f8-f1622bce223c","ios":"levelo://app?vid=aa734ba7-ce92-4c1b-86f8-f1622bce223c"},"vehicle_type_id":"4","last_reported":1768883771,"current_range_meters":4400,"station_id":"","pricing_plan_id":"cebpf4jnsgd1na2vs0mg"},{"bike_id":"4b5aa404-a223-4202-a9b4-4364010f0fb4","system_id":"levelo_inurba_marseille","lat":43.33758,"lon":5.37493,"is_reserved":false,"is_disabled":false,"rental_uris":{"android":"levelo://app?vid=4b5aa404-a223-4202-a9b4-4364010f0fb4","ios":"levelo://app?vid=4b5aa404-a223-4202-a9b4-4364010f0fb4"},"vehicle_type_id":"4","last_reported":1768883771,"current_range_meters":4400,"station_id":"","pricing_plan_id":"cebpf4jnsgd1na2vs0mg"},{"bike_id":"58922b42-b0dc-43fd-bf81-dd6ae427768e","system_id":"levelo_inurba_marseille","lat":43.25195,"lon":5.4008,"is_reserved":false,"is_disabled":false,"rental_uris":{"android":"levelo://app?vid=58922b42-b0dc-43fd-bf81-dd6ae427768e","ios":"levelo://app?vid=58922b42-b0dc-43fd-bf81-dd6ae427768e"},"vehicle_type_id":"4","last_reported":1768883771,"current_range_meters":4400,"station_id":"","pricing_plan_id":"cebpf4jnsgd1na2vs0mg"},{"bike_id":"24c89c87-4e34-4758-98ab-4279f78b4108","system_id":"levelo_inurba_marseille","lat":43.25831,"lon":5.39453,"is_reserved":false,"is_disabled":false,"rental_uris":{"android":"levelo://app?vid=24c89c87-4e34-4758-98ab-4279f78b4108","ios":"levelo://app?vid=24c89c87-4e34-4758-98ab-4279f78b4108"},"vehicle_type_id":"4","last_reported":1768883771,"current_range_meters":4400,"station_id":"ce4bhip2rcd13ifvqft0","pricing_plan_id":"cebpf4jnsgd1na2vs0mg"},{"bike_id":"8dfecfa0-ec72-455b-b619-297a93aa96b9","system_id":"levelo_inurba_marseille","lat":43.26775,"lon":5.39416,"is_reserved":false,"is_disabled":false,"rental_uris":{"android":"levelo://app?vid=8dfecfa0-ec72-455b-b619-297a93aa96b9","ios":"levelo://app?vid=8dfecfa0-ec72-455b-b619-297a93aa96b9"},"vehicle_type_id":"4","last_reported":1768883771,"current_range_meters":4400,"station_id":"ce4bhh12rcd13ifvqfg0","pricing_plan_id":"cebpf4jnsgd1na2vs0mg"},{"bike_id":"55a93059-46da-4326-b3f6-eca54949cf8d","system_id":"levelo_inurba_marseille","lat":43.278123,"lon":5.407161,"is_reserved":false,"is_disabled":false,"rental_uris":{"android":"levelo://app?vid=55a93059-46da-4326-b3f6-eca54949cf8d","ios":"levelo://app?vid=55a93059-46da-4326-b3f6-eca54949cf8d"},"vehicle_type_id":"4","last_reported":1768883771,"current_range_meters":4800,"station_id":"ce4bhnh2rcd13ifvqgtg","pricing_plan_id":"cebpf4jnsgd1na2vs0mg"},{"bike_id":"d16668c1-3494-42a0-89aa-a7fc6a4a19f9","system_id":"levelo_inurba_marseille","lat":43.22931,"lon":5.35375,"is_reserved":false,"is_disabled":false,"rental_uris":{"android":"levelo://app?vid=d16668c1-3494-42a0-89aa-a7fc6a4a19f9","ios":"levelo://app?vid=d16668c1-3494-42a0-89aa-a7fc6a4a19f9"},"vehicle_type_id":"4","last_reported":1768883771,"current_range_meters":4800,"station_id":"cpo3532slgdg3j2ikp40","pricing_plan_id":"cebpf4jnsgd1na2vs0mg"},{"bike_id":"a2e52012-295b-4081-ba41-4daf4a0dd9bd","system_id":"levelo_inurba_marseille","lat":43.229364,"lon":5.353713,"is_reserved":false,"is_disabled":false,"rental_uris":{"android":"levelo://app?vid=a2e52012-295b-4081-ba41-4daf4a0dd9bd","ios":"levelo://app?vid=a2e52012-295b-4081-ba41-4daf4a0dd9bd"},"vehicle_type_id":"4","last_reported":1768883771,"current_range_meters":4800,"station_id":"cpo3532slgdg3j2ikp40","pricing_plan_id":"cebpf4jnsgd1na2vs0mg"},{"bike_id":"e2f6574a-f43e-478f-903c-079a1ec9eb36","system_id":"levelo_inurba_marseille","lat":43.28218,"lon":5.39106,"is_reserved":false,"is_disabled":false,"rental_uris":{"android":"levelo://app?vid=e2f6574a-f43e-478f-903c-079a1ec9eb36","ios":"levelo://app?vid=e2f6574a-f43e-478f-903c-079a1ec9eb36"},"vehicle_type_id":"4","last_reported":1768883771,"current_range_meters":4800,"station_id":"ce4bhn92rcd13ifvqgsg","pricing_plan_id":"cebpf4jnsgd1na2vs0mg"},{"bike_id":"1f98d89c-8dec-45fe-8489-d4b0908ef42d","system_id":"levelo_inurba_marseille","lat":43.2655,"lon":5.38989,"is_reserved":false,"is_disabled":false,"rental_uris":{"android":"levelo://app?vid=1f98d89c-8dec-45fe-8489-d4b0908ef42d","ios":"levelo://app?vid=1f98d89c-8dec-45fe-8489-d4b0908ef42d"},"vehicle_type_id":"4","last_reported":1768883771,"current_range_meters":4800,"station_id":"ce4bhe12rcd13ifvqf30","pricing_plan_id":"cebpf4jnsgd1na2vs0mg"},{"bike_id":"0f04e703-1d97-4ec9-9d78-4934dc51f36a","system_id":"levelo_inurba_marseille","lat":43.311187,"lon":5.377587,"is_reserved":false,"is_disabled":false,"rental_uris":{"android":"levelo://app?vid=0f04e703-1d97-4ec9-9d78-4934dc51f36a","ios":"levelo://app?vid=0f04e703-1d97-4ec9-9d78-4934dc51f36a"},"vehicle_type_id":"4","last_reported":1768883771,"current_range_meters":4800,"station_id":"ce4bgt92rcd13ifvqcg0","pricing_plan_id":"cebpf4jnsgd1na2vs0mg"},{"bike_id":"5a47b597-eb88-4d0f-a0cc-dc9cf6057637","system_id":"levelo_inurba_marseille","lat":43.24658,"lon":5.38892,"is_reserved":false,"is_disabled":false,"rental_uris":{"android":"levelo://app?vid=5a47b597-eb88-4d0f-a0cc-dc9cf6057637","ios":"levelo://app?vid=5a47b597-eb88-4d0f-a0cc-dc9cf6057637"},"vehicle_type_id":"4","last_reported":1768883771,"current_range_meters":4800,"station_id":"ce4bhg12rcd13ifvqf60","pricing_plan_id":"cebpf4jnsgd1na2vs0mg"},{"bike_id":"e5afdae1-8536-48ae-affe-93a7f04d1b80","system_id":"levelo_inurba_marseille","lat":43.28373,"lon":5.39424,"is_reserved":false,"is_disabled":false,"rental_uris":{"android":"levelo://app?vid=e5afdae1-8536-48ae-affe-93a7f04d1b80","ios":"levelo://app?vid=e5afdae1-8536-48ae-affe-93a7f04d1b80"},"vehicle_type_id":"4","last_reported":1768883771,"current_range_meters":4800,"station_id":"","pricing_plan_id":"cebpf4jnsgd1na2vs0mg"},{"bike_id":"29e6c1a2-3a47-44d6-a741-48ea0de23ee0","system_id":"levelo_inurba_marseille","lat":43.297122,"lon":5.366011,"is_reserved":false,"is_disabled":false,"rental_uris":{"android":"levelo://app?vid=29e6c1a2-3a47-44d6-a741-48ea0de23ee0","ios":"levelo://app?vid=29e6c1a2-3a47-44d6-a741-48ea0de23ee0"},"vehicle_type_id":"4","last_reported":1768883771,"current_range_meters":5600,"station_id":"ce4bgn12rcd13ifvqbt0","pricing_plan_id":"cebpf4jnsgd1na2vs0mg"},{"bike_id":"4f2dd164-7013-43b2-a24e-bc13e5296f6a","system_id":"levelo_inurba_marseille","lat":43.24174,"lon":5.39728,"is_reserved":false,"is_disabled":false,"rental_uris":{"android":"levelo://app?vid=4f2dd164-7013-43b2-a24e-bc13e5296f6a","ios":"levelo://app?vid=4f2dd164-7013-43b2-a24e-bc13e5296f6a"},"vehicle_type_id":"4","last_reported":1768883771,"current_range_meters":5600,"station_id":"ce4bhn12rcd13ifvqgpg","pricing_plan_id":"cebpf4jnsgd1na2vs0mg"},{"bike_id":"0352f83e-42c9-4b95-aab1-5eb895fe3a3d","system_id":"levelo_inurba_marseille","lat":43.225621,"lon":5.416349,"is_reserved":false,"is_disabled":false,"rental_uris":{"android":"levelo://app?vid=0352f83e-42c9-4b95-aab1-5eb895fe3a3d","ios":"levelo://app?vid=0352f83e-42c9-4b95-aab1-5eb895fe3a3d"},"vehicle_type_id":"4","last_reported":1768883771,"current_range_meters":5600,"station_id":"st_d2o4gvlbi1j2169b742g","pricing_plan_id":"cebpf4jnsgd1na2vs0mg"},{"bike_id":"87215d6f-3947-4696-a23e-a77a1cd2aaf9","system_id":"levelo_inurba_marseille","lat":43.2972,"lon":5.36618,"is_reserved":false,"is_disabled":false,"rental_uris":{"android":"levelo://app?vid=87215d6f-3947-4696-a23e-a77a1cd2aaf9","ios":"levelo://app?vid=87215d6f-3947-4696-a23e-a77a1cd2aaf9"},"vehicle_type_id":"4","last_reported":1768883771,"current_range_meters":5600,"station_id":"ce4bgn12rcd13ifvqbt0","pricing_plan_id":"cebpf4jnsgd1na2vs0mg"},{"bike_id":"ca08b23d-b54d-456f-9dc9-e5cc35a08fcc","system_id":"levelo_inurba_marseille","lat":43.28684,"lon":5.38662,"is_reserved":false,"is_disabled":false,"rental_uris":{"android":"levelo://app?vid=ca08b23d-b54d-456f-9dc9-e5cc35a08fcc","ios":"levelo://app?vid=ca08b23d-b54d-456f-9dc9-e5cc35a08fcc"},"vehicle_type_id":"4","last_reported":1768883771,"current_range_meters":5600,"station_id":"ce4bh492rcd13ifvqdug","pricing_plan_id":"cebpf4jnsgd1na2vs0mg"},{"bike_id":"d8bfb2e5-5baa-4794-9f56-3108e552202f","system_id":"levelo_inurba_marseille","lat":43.278143,"lon":5.407176,"is_reserved":false,"is_disabled":false,"rental_uris":{"android":"levelo://app?vid=d8bfb2e5-5baa-4794-9f56-3108e552202f","ios":"levelo://app?vid=d8bfb2e5-5baa-4794-9f56-3108e552202f"},"vehicle_type_id":"4","last_reported":1768883771,"current_range_meters":5600,"station_id":"ce4bhnh2rcd13ifvqgtg","pricing_plan_id":"cebpf4jnsgd1na2vs0mg"},{"bike_id":"032aecd2-ec21-44b6-8a45-d6109505bbde","system_id":"levelo_inurba_marseille","lat":43.24667,"lon":5.38136,"is_reserved":false,"is_disabled":false,"rental_uris":{"android":"levelo://app?vid=032aecd2-ec21-44b6-8a45-d6109505bbde","ios":"levelo://app?vid=032aecd2-ec21-44b6-8a45-d6109505bbde"},"vehicle_type_id":"4","last_reported":1768883771,"current_range_meters":5600,"station_id":"ce4bhih2rcd13ifvqfr0","pricing_plan_id":"cebpf4jnsgd1na2vs0mg"},{"bike_id":"3ca81cfa-8a3e-48fa-a409-545ea74d9f21","system_id":"levelo_inurba_marseille","lat":43.25325,"lon":5.42156,"is_reserved":false,"is_disabled":false,"rental_uris":{"android":"levelo://app?vid=3ca81cfa-8a3e-48fa-a409-545ea74d9f21","ios":"levelo://app?vid=3ca81cfa-8a3e-48fa-a409-545ea74d9f21"},"vehicle_type_id":"4","last_reported":1768883771,"current_range_meters":5600,"station_id":"st_d2m65c5bi1j21697t3ng","pricing_plan_id":"cebpf4jnsgd1na2vs0mg"},{"bike_id":"72531f71-d042-483c-a024-3dc9ad4c3b33","system_id":"levelo_inurba_marseille","lat":43.27999,"lon":5.40015,"is_reserved":false,"is_disabled":false,"rental_uris":{"android":"levelo://app?vid=72531f71-d042-483c-a024-3dc9ad4c3b33","ios":"levelo://app?vid=72531f71-d042-483c-a024-3dc9ad4c3b33"},"vehicle_type_id":"4","last_reported":1768883771,"current_range_meters":6000,"station_id":"ce4bho92rcd13ifvqh4g","pricing_plan_id":"cebpf4jnsgd1na2vs0mg"},{"bike_id":"65fa859c-fd52-4fc1-bf24-0348f651f61b","system_id":"levelo_inurba_marseille","lat":43.279832,"lon":5.400243,"is_reserved":false,"is_disabled":false,"rental_uris":{"android":"levelo://app?vid=65fa859c-fd52-4fc1-bf24-0348f651f61b","ios":"levelo://app?vid=65fa859c-fd52-4fc1-bf24-0348f651f61b"},"vehicle_type_id":"4","last_reported":1768883771,"current_range_meters":6000,"station_id":"ce4bho92rcd13ifvqh4g","pricing_plan_id":"cebpf4jnsgd1na2vs0mg"},{"bike_id":"b551ef05-f836-4853-960c-473fc7e36c29","system_id":"levelo_inurba_marseille","lat":43.28431,"lon":5.39193,"is_reserved":false,"is_disabled":false,"rental_uris":{"android":"levelo://app?vid=b551ef05-f836-4853-960c-473fc7e36c29","ios":"levelo://app?vid=b551ef05-f836-4853-960c-473fc7e36c29"},"vehicle_type_id":"4","last_reported":1768883771,"current_range_meters":6000,"station_id":"ce4bhoh2rcd13ifvqh5g","pricing_plan_id":"cebpf4jnsgd1na2vs0mg"},{"bike_id":"4c18c049-62ae-469f-b2ed-484231c5fbdf","system_id":"levelo_inurba_marseille","lat":43.310736,"lon":5.383527,"is_reserved":false,"is_disabled":false,"rental_uris":{"android":"levelo://app?vid=4c18c049-62ae-469f-b2ed-484231c5fbdf","ios":"levelo://app?vid=4c18c049-62ae-469f-b2ed-484231c5fbdf"},"vehicle_type_id":"4","last_reported":1768883771,"current_range_meters":6000,"station_id":"ce4bgv92rcd13ifvqcr0","pricing_plan_id":"cebpf4jnsgd1na2vs0mg"},{"bike_id":"160762cb-b0be-4eb4-9c86-0c44f320ab1f","system_id":"levelo_inurba_marseille","lat":43.24952,"lon":5.40485,"is_reserved":false,"is_disabled":false,"rental_uris":{"android":"levelo://app?vid=160762cb-b0be-4eb4-9c86-0c44f320ab1f","ios":"levelo://app?vid=160762cb-b0be-4eb4-9c86-0c44f320ab1f"},"vehicle_type_id":"4","last_reported":1768883771,"current_range_meters":6000,"station_id":"st_d2ngiaodas8pm72gd1h0","pricing_plan_id":"cebpf4jnsgd1na2vs0mg"},{"bike_id":"ab3a9e9d-2538-4ee2-a227-c8d3d1721c50","system_id":"levelo_inurba_marseille","lat":43.30886,"lon":5.39639,"is_reserved":false,"is_disabled":false,"rental_uris":{"android":"levelo://app?vid=ab3a9e9d-2538-4ee2-a227-c8d3d1721c50","ios":"levelo://app?vid=ab3a9e9d-2538-4ee2-a227-c8d3d1721c50"},"vehicle_type_id":"4","last_reported":1768883771,"current_range_meters":6000,"station_id":"ce4bh012rcd13ifvqcv0","pricing_plan_id":"cebpf4jnsgd1na2vs0mg"},{"bike_id":"fac4e5af-2e82-475c-bc31-9567019eded6","system_id":"levelo_inurba_marseille","lat":43.25857,"lon":5.39894,"is_reserved":false,"is_disabled":false,"rental_uris":{"android":"levelo://app?vid=fac4e5af-2e82-475c-bc31-9567019eded6","ios":"levelo://app?vid=fac4e5af-2e82-475c-bc31-9567019eded6"},"vehicle_type_id":"4","last_reported":1768883771,"current_range_meters":6000,"station_id":"ce4bhl92rcd13ifvqghg","pricing_plan_id":"cebpf4jnsgd1na2vs0mg"},{"bike_id":"d9b02a63-6749-4e7c-a41c-f66a10e0384e","system_id":"levelo_inurba_marseille","lat":43.231977,"lon":5.399769,"is_reserved":false,"is_disabled":false,"rental_uris":{"android":"levelo://app?vid=d9b02a63-6749-4e7c-a41c-f66a10e0384e","ios":"levelo://app?vid=d9b02a63-6749-4e7c-a41c-f66a10e0384e"},"vehicle_type_id":"4","last_reported":1768883771,"current_range_meters":6000,"station_id":"ce4bhn12rcd13ifvqgqg","pricing_plan_id":"cebpf4jnsgd1na2vs0mg"},{"bike_id":"b8fcd8cb-0594-4218-bff2-939b2eaa3365","system_id":"levelo_inurba_marseille","lat":43.279417,"lon":5.41039,"is_reserved":false,"is_disabled":false,"rental_uris":{"android":"levelo://app?vid=b8fcd8cb-0594-4218-bff2-939b2eaa3365","ios":"levelo://app?vid=b8fcd8cb-0594-4218-bff2-939b2eaa3365"},"vehicle_type_id":"4","last_reported":1768883771,"current_range_meters":6400,"station_id":"ce4bhnp2rcd13ifvqh0g","pricing_plan_id":"cebpf4jnsgd1na2vs0mg"},{"bike_id":"e696390d-8036-4f59-a8b6-4285efe55098","system_id":"levelo_inurba_marseille","lat":43.246522,"lon":5.388933,"is_reserved":false,"is_disabled":false,"rental_uris":{"android":"levelo://app?vid=e696390d-8036-4f59-a8b6-4285efe55098","ios":"levelo://app?vid=e696390d-8036-4f59-a8b6-4285efe55098"},"vehicle_type_id":"4","last_reported":1768883771,"current_range_meters":6400,"station_id":"ce4bhg12rcd13ifvqf60","pricing_plan_id":"cebpf4jnsgd1na2vs0mg"},{"bike_id":"526b8503-7faf-448a-b0f6-00cc94ab5971","system_id":"levelo_inurba_marseille","lat":43.24486,"lon":5.42572,"is_reserved":false,"is_disabled":false,"rental_uris":{"android":"levelo://app?vid=526b8503-7faf-448a-b0f6-00cc94ab5971","ios":"levelo://app?vid=526b8503-7faf-448a-b0f6-00cc94ab5971"},"vehicle_type_id":"4","last_reported":1768883771,"current_range_meters":6400,"station_id":"st_d4a3vfp97mjs738cd8kg","pricing_plan_id":"cebpf4jnsgd1na2vs0mg"},{"bike_id":"dc8c1109-459c-4368-859d-186168c2462d","system_id":"levelo_inurba_marseille","lat":43.2417,"lon":5.36393,"is_reserved":false,"is_disabled":false,"rental_uris":{"android":"levelo://app?vid=dc8c1109-459c-4368-859d-186168c2462d","ios":"levelo://app?vid=dc8c1109-459c-4368-859d-186168c2462d"},"vehicle_type_id":"4","last_reported":1768883771,"current_range_meters":6400,"station_id":"cpo36qri1sfpv3e86is0","pricing_plan_id":"cebpf4jnsgd1na2vs0mg"},{"bike_id":"cf5cb808-f9d1-4427-acc0-79b66b4dbb3c","system_id":"levelo_inurba_marseille","lat":43.29921,"lon":5.38149,"is_reserved":false,"is_disabled":false,"rental_uris":{"android":"levelo://app?vid=cf5cb808-f9d1-4427-acc0-79b66b4dbb3c","ios":"levelo://app?vid=cf5cb808-f9d1-4427-acc0-79b66b4dbb3c"},"vehicle_type_id":"4","last_reported":1768883771,"current_range_meters":6400,"station_id":"ce4bgj12rcd13ifvqbc0","pricing_plan_id":"cebpf4jnsgd1na2vs0mg"},{"bike_id":"c97fb824-00a3-4490-920b-04c35b80521d","system_id":"levelo_inurba_marseille","lat":43.26603,"lon":5.39037,"is_reserved":false,"is_disabled":false,"rental_uris":{"android":"levelo://app?vid=c97fb824-00a3-4490-920b-04c35b80521d","ios":"levelo://app?vid=c97fb824-00a3-4490-920b-04c35b80521d"},"vehicle_type_id":"4","last_reported":1768883771,"current_range_meters":6400,"station_id":"","pricing_plan_id":"cebpf4jnsgd1na2vs0mg"},{"bike_id":"e30883dd-96d3-4b00-8b5d-c5c36c37f796","system_id":"levelo_inurba_marseille","lat":43.25578,"lon":5.3823,"is_reserved":false,"is_disabled":false,"rental_uris":{"android":"levelo://app?vid=e30883dd-96d3-4b00-8b5d-c5c36c37f796","ios":"levelo://app?vid=e30883dd-96d3-4b00-8b5d-c5c36c37f796"},"vehicle_type_id":"4","last_reported":1768883771,"current_range_meters":6400,"station_id":"ce4bhih2rcd13ifvqfs0","pricing_plan_id":"cebpf4jnsgd1na2vs0mg"},{"bike_id":"26fa87a8-64e8-4574-88ad-3ef617745c36","system_id":"levelo_inurba_marseille","lat":43.27789,"lon":5.4067,"is_reserved":false,"is_disabled":false,"rental_uris":{"android":"levelo://app?vid=26fa87a8-64e8-4574-88ad-3ef617745c36","ios":"levelo://app?vid=26fa87a8-64e8-4574-88ad-3ef617745c36"},"vehicle_type_id":"4","last_reported":1768883771,"current_range_meters":6400,"station_id":"ce4bhnh2rcd13ifvqgtg","pricing_plan_id":"cebpf4jnsgd1na2vs0mg"},{"bike_id":"b9127574-6b1e-4043-9224-ebb8aeabb571","system_id":"levelo_inurba_marseille","lat":43.30125,"lon":5.38779,"is_reserved":false,"is_disabled":true,"rental_uris":{"android":"levelo://app?vid=b9127574-6b1e-4043-9224-ebb8aeabb571","ios":"levelo://app?vid=b9127574-6b1e-4043-9224-ebb8aeabb571"},"vehicle_type_id":"4","last_reported":1768883771,"current_range_meters":6400,"station_id":"ce4bghh2rcd13ifvqb60","pricing_plan_id":"cebpf4jnsgd1na2vs0mg"},{"bike_id":"f949b1a8-0099-4897-af1c-b4c1c497f28f","system_id":"levelo_inurba_marseille","lat":43.25823,"lon":5.3943,"is_reserved":false,"is_disabled":false,"rental_uris":{"android":"levelo://app?vid=f949b1a8-0099-4897-af1c-b4c1c497f28f","ios":"levelo://app?vid=f949b1a8-0099-4897-af1c-b4c1c497f28f"},"vehicle_type_id":"4","last_reported":1768883771,"current_range_meters":6400,"station_id":"ce4bhip2rcd13ifvqft0","pricing_plan_id":"cebpf4jnsgd1na2vs0mg"},{"bike_id":"bbbc15e4-7c35-4950-8bed-9924a57fa0d7","system_id":"levelo_inurba_marseille","lat":43.29273,"lon":5.36842,"is_reserved":false,"is_disabled":false,"rental_uris":{"android":"levelo://app?vid=bbbc15e4-7c35-4950-8bed-9924a57fa0d7","ios":"levelo://app?vid=bbbc15e4-7c35-4950-8bed-9924a57fa0d7"},"vehicle_type_id":"4","last_reported":1768883771,"current_range_meters":6400,"station_id":"ce4bhbp2rcd13ifvqesg","pricing_plan_id":"cebpf4jnsgd1na2vs0mg"},{"bike_id":"82bc016e-ea5f-4e74-95db-96f538282223","system_id":"levelo_inurba_marseille","lat":43.29842,"lon":5.36281,"is_reserved":false,"is_disabled":false,"rental_uris":{"android":"levelo://app?vid=82bc016e-ea5f-4e74-95db-96f538282223","ios":"levelo://app?vid=82bc016e-ea5f-4e74-95db-96f538282223"},"vehicle_type_id":"4","last_reported":1768883771,"current_range_meters":6400,"station_id":"ce4bgpp2rcd13ifvqc3g","pricing_plan_id":"cebpf4jnsgd1na2vs0mg"},{"bike_id":"d0a70439-b068-41ba-bc8d-4fbe10ec4141","system_id":"levelo_inurba_marseille","lat":43.281459,"lon":5.426301,"is_reserved":false,"is_disabled":false,"rental_uris":{"android":"levelo://app?vid=d0a70439-b068-41ba-bc8d-4fbe10ec4141","ios":"levelo://app?vid=d0a70439-b068-41ba-bc8d-4fbe10ec4141"},"vehicle_type_id":"4","last_reported":1768883771,"current_range_meters":6400,"station_id":"ce4bhnh2rcd13ifvqgug","pricing_plan_id":"cebpf4jnsgd1na2vs0mg"},{"bike_id":"90e30c61-c606-4ba6-adb5-183cc649b959","system_id":"levelo_inurba_marseille","lat":43.27952,"lon":5.41038,"is_reserved":false,"is_disabled":false,"rental_uris":{"android":"levelo://app?vid=90e30c61-c606-4ba6-adb5-183cc649b959","ios":"levelo://app?vid=90e30c61-c606-4ba6-adb5-183cc649b959"},"vehicle_type_id":"4","last_reported":1768883771,"current_range_meters":6400,"station_id":"ce4bhnp2rcd13ifvqh0g","pricing_plan_id":"cebpf4jnsgd1na2vs0mg"},{"bike_id":"bff75e7f-4a1a-426a-b08e-395e935c089a","system_id":"levelo_inurba_marseille","lat":43.24163,"lon":5.39719,"is_reserved":false,"is_disabled":false,"rental_uris":{"android":"levelo://app?vid=bff75e7f-4a1a-426a-b08e-395e935c089a","ios":"levelo://app?vid=bff75e7f-4a1a-426a-b08e-395e935c089a"},"vehicle_type_id":"4","last_reported":1768883771,"current_range_meters":6400,"station_id":"ce4bhn12rcd13ifvqgpg","pricing_plan_id":"cebpf4jnsgd1na2vs0mg"},{"bike_id":"b9eb4abf-1e15-4e70-9433-4b17890b2dca","system_id":"levelo_inurba_marseille","lat":43.26026,"lon":5.41741,"is_reserved":false,"is_disabled":false,"rental_uris":{"android":"levelo://app?vid=b9eb4abf-1e15-4e70-9433-4b17890b2dca","ios":"levelo://app?vid=b9eb4abf-1e15-4e70-9433-4b17890b2dca"},"vehicle_type_id":"4","last_reported":1768883771,"current_range_meters":6400,"station_id":"","pricing_plan_id":"cebpf4jnsgd1na2vs0mg"},{"bike_id":"7076ad1c-bbff-48c3-9c29-7cf2070247de","system_id":"levelo_inurba_marseille","lat":43.31728,"lon":5.40453,"is_reserved":false,"is_disabled":false,"rental_uris":{"android":"levelo://app?vid=7076ad1c-bbff-48c3-9c29-7cf2070247de","ios":"levelo://app?vid=7076ad1c-bbff-48c3-9c29-7cf2070247de"},"vehicle_type_id":"4","last_reported":1768883771,"current_range_meters":6400,"station_id":"","pricing_plan_id":"cebpf4jnsgd1na2vs0mg"},{"bike_id":"5a6fe4a6-b493-4624-af1b-5293739df8a0","system_id":"levelo_inurba_marseille","lat":43.30597,"lon":5.37219,"is_reserved":false,"is_disabled":false,"rental_uris":{"android":"levelo://app?vid=5a6fe4a6-b493-4624-af1b-5293739df8a0","ios":"levelo://app?vid=5a6fe4a6-b493-4624-af1b-5293739df8a0"},"vehicle_type_id":"4","last_reported":1768883771,"current_range_meters":6400,"station_id":"ce4bgqh2rcd13ifvqc4g","pricing_plan_id":"cebpf4jnsgd1na2vs0mg"},{"bike_id":"1d96bc89-a55a-4036-8519-21c71a49b3da","system_id":"levelo_inurba_marseille","lat":43.31148,"lon":5.37996,"is_reserved":false,"is_disabled":false,"rental_uris":{"android":"levelo://app?vid=1d96bc89-a55a-4036-8519-21c71a49b3da","ios":"levelo://app?vid=1d96bc89-a55a-4036-8519-21c71a49b3da"},"vehicle_type_id":"4","last_reported":1768883771,"current_range_meters":6400,"station_id":"","pricing_plan_id":"cebpf4jnsgd1na2vs0mg"},{"bike_id":"b0053a98-c599-4582-81c9-ac854676c8b2","system_id":"levelo_inurba_marseille","lat":43.23178,"lon":5.39966,"is_reserved":false,"is_disabled":false,"rental_uris":{"android":"levelo://app?vid=b0053a98-c599-4582-81c9-ac854676c8b2","ios":"levelo://app?vid=b0053a98-c599-4582-81c9-ac854676c8b2"},"vehicle_type_id":"4","last_reported":1768883771,"current_range_meters":6400,"station_id":"ce4bhn12rcd13ifvqgqg","pricing_plan_id":"cebpf4jnsgd1na2vs0mg"},{"bike_id":"756d14e8-2c6b-4a78-909a-3065166b7627","system_id":"levelo_inurba_marseille","lat":43.30154,"lon":5.43097,"is_reserved":false,"is_disabled":false,"rental_uris":{"android":"levelo://app?vid=756d14e8-2c6b-4a78-909a-3065166b7627","ios":"levelo://app?vid=756d14e8-2c6b-4a78-909a-3065166b7627"},"vehicle_type_id":"4","last_reported":1768883771,"current_range_meters":6800,"station_id":"st_d3js3co5814s73ftftug","pricing_plan_id":"cebpf4jnsgd1na2vs0mg"},{"bike_id":"77a1140a-0d3b-41a6-b6b0-7d28a908c6be","system_id":"levelo_inurba_marseille","lat":43.24375,"lon":5.37103,"is_reserved":false,"is_disabled":false,"rental_uris":{"android":"levelo://app?vid=77a1140a-0d3b-41a6-b6b0-7d28a908c6be","ios":"levelo://app?vid=77a1140a-0d3b-41a6-b6b0-7d28a908c6be"},"vehicle_type_id":"4","last_reported":1768883771,"current_range_meters":6800,"station_id":"ce4bhhh2rcd13ifvqfk0","pricing_plan_id":"cebpf4jnsgd1na2vs0mg"},{"bike_id":"2a7e72c7-7fdf-46b5-8e98-fbe8666dc7c0","system_id":"levelo_inurba_marseille","lat":43.24811,"lon":5.37459,"is_reserved":false,"is_disabled":false,"rental_uris":{"android":"levelo://app?vid=2a7e72c7-7fdf-46b5-8e98-fbe8666dc7c0","ios":"levelo://app?vid=2a7e72c7-7fdf-46b5-8e98-fbe8666dc7c0"},"vehicle_type_id":"4","last_reported":1768883771,"current_range_meters":6800,"station_id":"ce4bhgh2rcd13ifvqfb0","pricing_plan_id":"cebpf4jnsgd1na2vs0mg"},{"bike_id":"d0ea3d7e-cc79-42a4-9061-fc893e8d00b8","system_id":"levelo_inurba_marseille","lat":43.2651,"lon":5.39535,"is_reserved":false,"is_disabled":false,"rental_uris":{"android":"levelo://app?vid=d0ea3d7e-cc79-42a4-9061-fc893e8d00b8","ios":"levelo://app?vid=d0ea3d7e-cc79-42a4-9061-fc893e8d00b8"},"vehicle_type_id":"4","last_reported":1768883771,"current_range_meters":6800,"station_id":"ce4bhi12rcd13ifvqfq0","pricing_plan_id":"cebpf4jnsgd1na2vs0mg"},{"bike_id":"cda89745-8f54-4bf5-8360-8da5fc0056d3","system_id":"levelo_inurba_marseille","lat":43.31073,"lon":5.383572,"is_reserved":false,"is_disabled":false,"rental_uris":{"android":"levelo://app?vid=cda89745-8f54-4bf5-8360-8da5fc0056d3","ios":"levelo://app?vid=cda89745-8f54-4bf5-8360-8da5fc0056d3"},"vehicle_type_id":"4","last_reported":1768883771,"current_range_meters":6800,"station_id":"ce4bgv92rcd13ifvqcr0","pricing_plan_id":"cebpf4jnsgd1na2vs0mg"},{"bike_id":"110752dd-fcb0-4a44-8352-90ba14512a7e","system_id":"levelo_inurba_marseille","lat":43.28607,"lon":5.39863,"is_reserved":false,"is_disabled":false,"rental_uris":{"android":"levelo://app?vid=110752dd-fcb0-4a44-8352-90ba14512a7e","ios":"levelo://app?vid=110752dd-fcb0-4a44-8352-90ba14512a7e"},"vehicle_type_id":"4","last_reported":1768883771,"current_range_meters":6800,"station_id":"st_d4a7ka997mjs738ck50g","pricing_plan_id":"cebpf4jnsgd1na2vs0mg"},{"bike_id":"01fdea96-cc9e-4a72-844a-f5f0bc7d1d6d","system_id":"levelo_inurba_marseille","lat":43.31337,"lon":5.39705,"is_reserved":false,"is_disabled":false,"rental_uris":{"android":"levelo://app?vid=01fdea96-cc9e-4a72-844a-f5f0bc7d1d6d","ios":"levelo://app?vid=01fdea96-cc9e-4a72-844a-f5f0bc7d1d6d"},"vehicle_type_id":"4","last_reported":1768883771,"current_range_meters":6800,"station_id":"ce4bgvp2rcd13ifvqcu0","pricing_plan_id":"cebpf4jnsgd1na2vs0mg"},{"bike_id":"d52747e8-8d11-49e5-85ba-c7fb86be12dd","system_id":"levelo_inurba_marseille","lat":43.27814,"lon":5.40697,"is_reserved":false,"is_disabled":false,"rental_uris":{"android":"levelo://app?vid=d52747e8-8d11-49e5-85ba-c7fb86be12dd","ios":"levelo://app?vid=d52747e8-8d11-49e5-85ba-c7fb86be12dd"},"vehicle_type_id":"4","last_reported":1768883771,"current_range_meters":6800,"station_id":"ce4bhnh2rcd13ifvqgtg","pricing_plan_id":"cebpf4jnsgd1na2vs0mg"},{"bike_id":"31b1970f-2a57-46c8-b9c7-d56938a89ee0","system_id":"levelo_inurba_marseille","lat":43.29075,"lon":5.37152,"is_reserved":false,"is_disabled":false,"rental_uris":{"android":"levelo://app?vid=31b1970f-2a57-46c8-b9c7-d56938a89ee0","ios":"levelo://app?vid=31b1970f-2a57-46c8-b9c7-d56938a89ee0"},"vehicle_type_id":"4","last_reported":1768883771,"current_range_meters":6800,"station_id":"ce4bh5p2rcd13ifvqe4g","pricing_plan_id":"cebpf4jnsgd1na2vs0mg"},{"bike_id":"f650aff8-e742-48ca-8e77-f4fd3b3eebb9","system_id":"levelo_inurba_marseille","lat":43.26882,"lon":5.39522,"is_reserved":false,"is_disabled":false,"rental_uris":{"android":"levelo://app?vid=f650aff8-e742-48ca-8e77-f4fd3b3eebb9","ios":"levelo://app?vid=f650aff8-e742-48ca-8e77-f4fd3b3eebb9"},"vehicle_type_id":"4","last_reported":1768883771,"current_range_meters":6800,"station_id":"","pricing_plan_id":"cebpf4jnsgd1na2vs0mg"},{"bike_id":"a2853d7e-9f09-429d-bb18-d81aadd54a33","system_id":"levelo_inurba_marseille","lat":43.31535,"lon":5.38023,"is_reserved":false,"is_disabled":false,"rental_uris":{"android":"levelo://app?vid=a2853d7e-9f09-429d-bb18-d81aadd54a33","ios":"levelo://app?vid=a2853d7e-9f09-429d-bb18-d81aadd54a33"},"vehicle_type_id":"4","last_reported":1768883771,"current_range_meters":6800,"station_id":"ce4bhsp2rcd13ifvqi50","pricing_plan_id":"cebpf4jnsgd1na2vs0mg"},{"bike_id":"c945f0ba-a485-4dbc-9c7e-745da3aefd34","system_id":"levelo_inurba_marseille","lat":43.27822,"lon":5.40731,"is_reserved":false,"is_disabled":false,"rental_uris":{"android":"levelo://app?vid=c945f0ba-a485-4dbc-9c7e-745da3aefd34","ios":"levelo://app?vid=c945f0ba-a485-4dbc-9c7e-745da3aefd34"},"vehicle_type_id":"4","last_reported":1768883771,"current_range_meters":6800,"station_id":"ce4bhnh2rcd13ifvqgtg","pricing_plan_id":"cebpf4jnsgd1na2vs0mg"},{"bike_id":"f9521f2f-ef1d-4474-82c2-4520713c5b63","system_id":"levelo_inurba_marseille","lat":43.27974,"lon":5.41673,"is_reserved":false,"is_disabled":false,"rental_uris":{"android":"levelo://app?vid=f9521f2f-ef1d-4474-82c2-4520713c5b63","ios":"levelo://app?vid=f9521f2f-ef1d-4474-82c2-4520713c5b63"},"vehicle_type_id":"4","last_reported":1768883771,"current_range_meters":6800,"station_id":"ce4bho12rcd13ifvqh1g","pricing_plan_id":"cebpf4jnsgd1na2vs0mg"},{"bike_id":"30a4fec0-552e-4f59-a219-04b536436fc8","system_id":"levelo_inurba_marseille","lat":43.23784,"lon":5.36622,"is_reserved":false,"is_disabled":false,"rental_uris":{"android":"levelo://app?vid=30a4fec0-552e-4f59-a219-04b536436fc8","ios":"levelo://app?vid=30a4fec0-552e-4f59-a219-04b536436fc8"},"vehicle_type_id":"4","last_reported":1768883771,"current_range_meters":6800,"station_id":"st_d3nk18o9ro0c73en2l3g","pricing_plan_id":"cebpf4jnsgd1na2vs0mg"},{"bike_id":"9e5998a3-e8ec-4ff6-bdc2-90c25f4c041f","system_id":"levelo_inurba_marseille","lat":43.25798,"lon":5.39403,"is_reserved":false,"is_disabled":false,"rental_uris":{"android":"levelo://app?vid=9e5998a3-e8ec-4ff6-bdc2-90c25f4c041f","ios":"levelo://app?vid=9e5998a3-e8ec-4ff6-bdc2-90c25f4c041f"},"vehicle_type_id":"4","last_reported":1768883771,"current_range_meters":6800,"station_id":"ce4bhip2rcd13ifvqft0","pricing_plan_id":"cebpf4jnsgd1na2vs0mg"},{"bike_id":"d1656b93-1b71-4e85-bf98-22a1e92bb468","system_id":"levelo_inurba_marseille","lat":43.28882,"lon":5.42484,"is_reserved":false,"is_disabled":false,"rental_uris":{"android":"levelo://app?vid=d1656b93-1b71-4e85-bf98-22a1e92bb468","ios":"levelo://app?vid=d1656b93-1b71-4e85-bf98-22a1e92bb468"},"vehicle_type_id":"4","last_reported":1768883771,"current_range_meters":6800,"station_id":"st_d3b462108ojc7389ooeg","pricing_plan_id":"cebpf4jnsgd1na2vs0mg"},{"bike_id":"b28e54cf-f835-45ba-a450-83f1208e8952","system_id":"levelo_inurba_marseille","lat":43.28114,"lon":5.37847,"is_reserved":false,"is_disabled":false,"rental_uris":{"android":"levelo://app?vid=b28e54cf-f835-45ba-a450-83f1208e8952","ios":"levelo://app?vid=b28e54cf-f835-45ba-a450-83f1208e8952"},"vehicle_type_id":"4","last_reported":1768883771,"current_range_meters":7200,"station_id":"ce4bha12rcd13ifvqee0","pricing_plan_id":"cebpf4jnsgd1na2vs0mg"},{"bike_id":"a8d2063b-b136-4ccb-ad44-f4ea411c2cb1","system_id":"levelo_inurba_marseille","lat":43.24624,"lon":5.43161,"is_reserved":false,"is_disabled":false,"rental_uris":{"android":"levelo://app?vid=a8d2063b-b136-4ccb-ad44-f4ea411c2cb1","ios":"levelo://app?vid=a8d2063b-b136-4ccb-ad44-f4ea411c2cb1"},"vehicle_type_id":"4","last_reported":1768883771,"current_range_meters":7200,"station_id":"st_d2m6c4gdas8pm72e190g","pricing_plan_id":"cebpf4jnsgd1na2vs0mg"},{"bike_id":"d98680e2-8519-4eb7-88a9-6aba4c293400","system_id":"levelo_inurba_marseille","lat":43.27988,"lon":5.40009,"is_reserved":false,"is_disabled":false,"rental_uris":{"android":"levelo://app?vid=d98680e2-8519-4eb7-88a9-6aba4c293400","ios":"levelo://app?vid=d98680e2-8519-4eb7-88a9-6aba4c293400"},"vehicle_type_id":"4","last_reported":1768883771,"current_range_meters":7200,"station_id":"ce4bho92rcd13ifvqh4g","pricing_plan_id":"cebpf4jnsgd1na2vs0mg"},{"bike_id":"b4d4d78b-c7ae-46d1-84aa-0c58c638c8ea","system_id":"levelo_inurba_marseille","lat":43.27992,"lon":5.41652,"is_reserved":false,"is_disabled":false,"rental_uris":{"android":"levelo://app?vid=b4d4d78b-c7ae-46d1-84aa-0c58c638c8ea","ios":"levelo://app?vid=b4d4d78b-c7ae-46d1-84aa-0c58c638c8ea"},"vehicle_type_id":"4","last_reported":1768883771,"current_range_meters":7200,"station_id":"ce4bho12rcd13ifvqh1g","pricing_plan_id":"cebpf4jnsgd1na2vs0mg"},{"bike_id":"6e7007a4-50a4-410a-b7bd-d0ebb7830797","system_id":"levelo_inurba_marseille","lat":43.24183,"lon":5.39728,"is_reserved":false,"is_disabled":false,"rental_uris":{"android":"levelo://app?vid=6e7007a4-50a4-410a-b7bd-d0ebb7830797","ios":"levelo://app?vid=6e7007a4-50a4-410a-b7bd-d0ebb7830797"},"vehicle_type_id":"4","last_reported":1768883771,"current_range_meters":7200,"station_id":"ce4bhn12rcd13ifvqgpg","pricing_plan_id":"cebpf4jnsgd1na2vs0mg"},{"bike_id":"2351e1c9-97c0-42ed-8ba7-93d168c64106","system_id":"levelo_inurba_marseille","lat":43.297594,"lon":5.427911,"is_reserved":false,"is_disabled":false,"rental_uris":{"android":"levelo://app?vid=2351e1c9-97c0-42ed-8ba7-93d168c64106","ios":"levelo://app?vid=2351e1c9-97c0-42ed-8ba7-93d168c64106"},"vehicle_type_id":"4","last_reported":1768883771,"current_range_meters":7200,"station_id":"st_d3md5207bmas73dh9klg","pricing_plan_id":"cebpf4jnsgd1na2vs0mg"},{"bike_id":"18af9eee-a946-4752-9d9d-709d962f533d","system_id":"levelo_inurba_marseille","lat":43.31713,"lon":5.43704,"is_reserved":false,"is_disabled":false,"rental_uris":{"android":"levelo://app?vid=18af9eee-a946-4752-9d9d-709d962f533d","ios":"levelo://app?vid=18af9eee-a946-4752-9d9d-709d962f533d"},"vehicle_type_id":"4","last_reported":1768883771,"current_range_meters":7200,"station_id":"ce4bhp92rcd13ifvqhcg","pricing_plan_id":"cebpf4jnsgd1na2vs0mg"},{"bike_id":"73a4e6a5-0c0f-409b-a59b-671187d7eeb4","system_id":"levelo_inurba_marseille","lat":43.24179,"lon":5.39712,"is_reserved":false,"is_disabled":false,"rental_uris":{"android":"levelo://app?vid=73a4e6a5-0c0f-409b-a59b-671187d7eeb4","ios":"levelo://app?vid=73a4e6a5-0c0f-409b-a59b-671187d7eeb4"},"vehicle_type_id":"4","last_reported":1768883771,"current_range_meters":7200,"station_id":"ce4bhn12rcd13ifvqgpg","pricing_plan_id":"cebpf4jnsgd1na2vs0mg"},{"bike_id":"fc17e8b9-2adb-4e96-bbab-76941e2577c9","system_id":"levelo_inurba_marseille","lat":43.2574,"lon":5.38967,"is_reserved":false,"is_disabled":false,"rental_uris":{"android":"levelo://app?vid=fc17e8b9-2adb-4e96-bbab-76941e2577c9","ios":"levelo://app?vid=fc17e8b9-2adb-4e96-bbab-76941e2577c9"},"vehicle_type_id":"4","last_reported":1768883771,"current_range_meters":7200,"station_id":"","pricing_plan_id":"cebpf4jnsgd1na2vs0mg"},{"bike_id":"71f428f0-7078-4b8c-ac98-cf141cac017d","system_id":"levelo_inurba_marseille","lat":43.24999,"lon":5.38935,"is_reserved":false,"is_disabled":false,"rental_uris":{"android":"levelo://app?vid=71f428f0-7078-4b8c-ac98-cf141cac017d","ios":"levelo://app?vid=71f428f0-7078-4b8c-ac98-cf141cac017d"},"vehicle_type_id":"4","last_reported":1768883771,"current_range_meters":7200,"station_id":"ce4bhgp2rcd13ifvqfd0","pricing_plan_id":"cebpf4jnsgd1na2vs0mg"},{"bike_id":"42b5ad2d-acd8-454f-95e3-acdb00543462","system_id":"levelo_inurba_marseille","lat":43.2605,"lon":5.39389,"is_reserved":false,"is_disabled":false,"rental_uris":{"android":"levelo://app?vid=42b5ad2d-acd8-454f-95e3-acdb00543462","ios":"levelo://app?vid=42b5ad2d-acd8-454f-95e3-acdb00543462"},"vehicle_type_id":"4","last_reported":1768883771,"current_range_meters":7200,"station_id":"ce4bhh92rcd13ifvqfj0","pricing_plan_id":"cebpf4jnsgd1na2vs0mg"},{"bike_id":"50fd212e-ce28-44a2-a988-f38d3c531358","system_id":"levelo_inurba_marseille","lat":43.29444,"lon":5.39749,"is_reserved":false,"is_disabled":false,"rental_uris":{"android":"levelo://app?vid=50fd212e-ce28-44a2-a988-f38d3c531358","ios":"levelo://app?vid=50fd212e-ce28-44a2-a988-f38d3c531358"},"vehicle_type_id":"4","last_reported":1768883771,"current_range_meters":7200,"station_id":"ce4bh3h2rcd13ifvqdo0","pricing_plan_id":"cebpf4jnsgd1na2vs0mg"},{"bike_id":"bbca3cac-f4e5-474b-9f41-abeadf4dcf10","system_id":"levelo_inurba_marseille","lat":43.31337,"lon":5.39693,"is_reserved":false,"is_disabled":false,"rental_uris":{"android":"levelo://app?vid=bbca3cac-f4e5-474b-9f41-abeadf4dcf10","ios":"levelo://app?vid=bbca3cac-f4e5-474b-9f41-abeadf4dcf10"},"vehicle_type_id":"4","last_reported":1768883771,"current_range_meters":7200,"station_id":"ce4bgvp2rcd13ifvqcu0","pricing_plan_id":"cebpf4jnsgd1na2vs0mg"},{"bike_id":"97096676-429c-4f07-9652-1523f48f5442","system_id":"levelo_inurba_marseille","lat":43.30266,"lon":5.43429,"is_reserved":false,"is_disabled":false,"rental_uris":{"android":"levelo://app?vid=97096676-429c-4f07-9652-1523f48f5442","ios":"levelo://app?vid=97096676-429c-4f07-9652-1523f48f5442"},"vehicle_type_id":"4","last_reported":1768883771,"current_range_meters":7200,"station_id":"","pricing_plan_id":"cebpf4jnsgd1na2vs0mg"},{"bike_id":"aaff8d94-1fa8-4cba-bdbc-2775e2b840f4","system_id":"levelo_inurba_marseille","lat":43.30919,"lon":5.38035,"is_reserved":false,"is_disabled":false,"rental_uris":{"android":"levelo://app?vid=aaff8d94-1fa8-4cba-bdbc-2775e2b840f4","ios":"levelo://app?vid=aaff8d94-1fa8-4cba-bdbc-2775e2b840f4"},"vehicle_type_id":"4","last_reported":1768883771,"current_range_meters":7200,"station_id":"","pricing_plan_id":"cebpf4jnsgd1na2vs0mg"},{"bike_id":"3cf4f121-47f1-4ab7-8209-fc71d72f0a66","system_id":"levelo_inurba_marseille","lat":43.31449,"lon":5.3809,"is_reserved":false,"is_disabled":false,"rental_uris":{"android":"levelo://app?vid=3cf4f121-47f1-4ab7-8209-fc71d72f0a66","ios":"levelo://app?vid=3cf4f121-47f1-4ab7-8209-fc71d72f0a66"},"vehicle_type_id":"4","last_reported":1768883771,"current_range_meters":7200,"station_id":"","pricing_plan_id":"cebpf4jnsgd1na2vs0mg"},{"bike_id":"aaef3ec1-41c8-4c84-860e-bea41a8299bc","system_id":"levelo_inurba_marseille","lat":43.2256,"lon":5.41608,"is_reserved":false,"is_disabled":false,"rental_uris":{"android":"levelo://app?vid=aaef3ec1-41c8-4c84-860e-bea41a8299bc","ios":"levelo://app?vid=aaef3ec1-41c8-4c84-860e-bea41a8299bc"},"vehicle_type_id":"4","last_reported":1768883771,"current_range_meters":7200,"station_id":"st_d2o4gvlbi1j2169b742g","pricing_plan_id":"cebpf4jnsgd1na2vs0mg"},{"bike_id":"dc7f2cde-f394-4ae1-b0e4-a51d66aa1255","system_id":"levelo_inurba_marseille","lat":43.28136,"lon":5.43136,"is_reserved":false,"is_disabled":false,"rental_uris":{"android":"levelo://app?vid=dc7f2cde-f394-4ae1-b0e4-a51d66aa1255","ios":"levelo://app?vid=dc7f2cde-f394-4ae1-b0e4-a51d66aa1255"},"vehicle_type_id":"4","last_reported":1768883771,"current_range_meters":7200,"station_id":"","pricing_plan_id":"cebpf4jnsgd1na2vs0mg"},{"bike_id":"a3ef314e-17ff-4b63-a41e-7a5b0c184673","system_id":"levelo_inurba_marseille","lat":43.29006,"lon":5.35618,"is_reserved":false,"is_disabled":false,"rental_uris":{"android":"levelo://app?vid=a3ef314e-17ff-4b63-a41e-7a5b0c184673","ios":"levelo://app?vid=a3ef314e-17ff-4b63-a41e-7a5b0c184673"},"vehicle_type_id":"4","last_reported":1768883771,"current_range_meters":7200,"station_id":"ce4bhb92rcd13ifvqen0","pricing_plan_id":"cebpf4jnsgd1na2vs0mg"},{"bike_id":"cc08d2b6-69fb-4c32-9f0f-91f88c556b74","system_id":"levelo_inurba_marseille","lat":43.22941,"lon":5.35381,"is_reserved":false,"is_disabled":false,"rental_uris":{"android":"levelo://app?vid=cc08d2b6-69fb-4c32-9f0f-91f88c556b74","ios":"levelo://app?vid=cc08d2b6-69fb-4c32-9f0f-91f88c556b74"},"vehicle_type_id":"4","last_reported":1768883771,"current_range_meters":7200,"station_id":"cpo3532slgdg3j2ikp40","pricing_plan_id":"cebpf4jnsgd1na2vs0mg"},{"bike_id":"501af402-049c-4d8e-a54b-109c75680834","system_id":"levelo_inurba_marseille","lat":43.29297,"lon":5.36834,"is_reserved":false,"is_disabled":false,"rental_uris":{"android":"levelo://app?vid=501af402-049c-4d8e-a54b-109c75680834","ios":"levelo://app?vid=501af402-049c-4d8e-a54b-109c75680834"},"vehicle_type_id":"4","last_reported":1768883771,"current_range_meters":7200,"station_id":"ce4bhbp2rcd13ifvqesg","pricing_plan_id":"cebpf4jnsgd1na2vs0mg"},{"bike_id":"3c0bb7d7-7ea2-4502-a02e-c86beaa596bf","system_id":"levelo_inurba_marseille","lat":43.28924,"lon":5.38386,"is_reserved":false,"is_disabled":true,"rental_uris":{"android":"levelo://app?vid=3c0bb7d7-7ea2-4502-a02e-c86beaa596bf","ios":"levelo://app?vid=3c0bb7d7-7ea2-4502-a02e-c86beaa596bf"},"vehicle_type_id":"4","last_reported":1768883771,"current_range_meters":7200,"station_id":"ce4bh612rcd13ifvqe6g","pricing_plan_id":"cebpf4jnsgd1na2vs0mg"},{"bike_id":"97e436b8-3eef-4c73-b985-d29dc864839f","system_id":"levelo_inurba_marseille","lat":43.31331,"lon":5.39685,"is_reserved":false,"is_disabled":false,"rental_uris":{"android":"levelo://app?vid=97e436b8-3eef-4c73-b985-d29dc864839f","ios":"levelo://app?vid=97e436b8-3eef-4c73-b985-d29dc864839f"},"vehicle_type_id":"4","last_reported":1768883771,"current_range_meters":8000,"station_id":"ce4bgvp2rcd13ifvqcu0","pricing_plan_id":"cebpf4jnsgd1na2vs0mg"},{"bike_id":"b1f78ccd-995d-439c-aa8d-78ea0214a8e8","system_id":"levelo_inurba_marseille","lat":43.3066,"lon":5.40052,"is_reserved":false,"is_disabled":false,"rental_uris":{"android":"levelo://app?vid=b1f78ccd-995d-439c-aa8d-78ea0214a8e8","ios":"levelo://app?vid=b1f78ccd-995d-439c-aa8d-78ea0214a8e8"},"vehicle_type_id":"4","last_reported":1768883771,"current_range_meters":8000,"station_id":"ce4bh112rcd13ifvqda0","pricing_plan_id":"cebpf4jnsgd1na2vs0mg"},{"bike_id":"0295f9ba-4e73-430a-9e09-5c8e9c5ec835","system_id":"levelo_inurba_marseille","lat":43.27966,"lon":5.41033,"is_reserved":false,"is_disabled":false,"rental_uris":{"android":"levelo://app?vid=0295f9ba-4e73-430a-9e09-5c8e9c5ec835","ios":"levelo://app?vid=0295f9ba-4e73-430a-9e09-5c8e9c5ec835"},"vehicle_type_id":"4","last_reported":1768883771,"current_range_meters":8000,"station_id":"ce4bhnp2rcd13ifvqh0g","pricing_plan_id":"cebpf4jnsgd1na2vs0mg"},{"bike_id":"9a6fa9d6-bd85-41a0-a1be-8f3bc0337c0a","system_id":"levelo_inurba_marseille","lat":43.2446,"lon":5.4253,"is_reserved":false,"is_disabled":false,"rental_uris":{"android":"levelo://app?vid=9a6fa9d6-bd85-41a0-a1be-8f3bc0337c0a","ios":"levelo://app?vid=9a6fa9d6-bd85-41a0-a1be-8f3bc0337c0a"},"vehicle_type_id":"4","last_reported":1768883771,"current_range_meters":8000,"station_id":"st_d4a3vfp97mjs738cd8kg","pricing_plan_id":"cebpf4jnsgd1na2vs0mg"},{"bike_id":"3a73d29d-19a3-4829-b646-774a893045f4","system_id":"levelo_inurba_marseille","lat":43.24448,"lon":5.42523,"is_reserved":false,"is_disabled":false,"rental_uris":{"android":"levelo://app?vid=3a73d29d-19a3-4829-b646-774a893045f4","ios":"levelo://app?vid=3a73d29d-19a3-4829-b646-774a893045f4"},"vehicle_type_id":"4","last_reported":1768883771,"current_range_meters":8000,"station_id":"st_d4a3vfp97mjs738cd8kg","pricing_plan_id":"cebpf4jnsgd1na2vs0mg"},{"bike_id":"d22ed065-4fe2-4b60-bef2-0ac8d0ec8e32","system_id":"levelo_inurba_marseille","lat":43.295198,"lon":5.394006,"is_reserved":false,"is_disabled":false,"rental_uris":{"android":"levelo://app?vid=d22ed065-4fe2-4b60-bef2-0ac8d0ec8e32","ios":"levelo://app?vid=d22ed065-4fe2-4b60-bef2-0ac8d0ec8e32"},"vehicle_type_id":"4","last_reported":1768883771,"current_range_meters":8000,"station_id":"ce4bh292rcd13ifvqdf0","pricing_plan_id":"cebpf4jnsgd1na2vs0mg"},{"bike_id":"1c627648-2539-4e77-b3cb-910983a33aca","system_id":"levelo_inurba_marseille","lat":43.258662,"lon":5.399002,"is_reserved":false,"is_disabled":false,"rental_uris":{"android":"levelo://app?vid=1c627648-2539-4e77-b3cb-910983a33aca","ios":"levelo://app?vid=1c627648-2539-4e77-b3cb-910983a33aca"},"vehicle_type_id":"4","last_reported":1768883771,"current_range_meters":8000,"station_id":"ce4bhl92rcd13ifvqghg","pricing_plan_id":"cebpf4jnsgd1na2vs0mg"},{"bike_id":"826aeb2d-9384-4062-9da4-ff770f5b59dd","system_id":"levelo_inurba_marseille","lat":43.2606,"lon":5.39398,"is_reserved":false,"is_disabled":false,"rental_uris":{"android":"levelo://app?vid=826aeb2d-9384-4062-9da4-ff770f5b59dd","ios":"levelo://app?vid=826aeb2d-9384-4062-9da4-ff770f5b59dd"},"vehicle_type_id":"4","last_reported":1768883771,"current_range_meters":8000,"station_id":"ce4bhh92rcd13ifvqfj0","pricing_plan_id":"cebpf4jnsgd1na2vs0mg"},{"bike_id":"21af5764-4865-41d2-abcd-e9a740f91eb4","system_id":"levelo_inurba_marseille","lat":43.26582,"lon":5.40317,"is_reserved":false,"is_disabled":false,"rental_uris":{"android":"levelo://app?vid=21af5764-4865-41d2-abcd-e9a740f91eb4","ios":"levelo://app?vid=21af5764-4865-41d2-abcd-e9a740f91eb4"},"vehicle_type_id":"4","last_reported":1768883771,"current_range_meters":8000,"station_id":"ce4bhmp2rcd13ifvqgng","pricing_plan_id":"cebpf4jnsgd1na2vs0mg"},{"bike_id":"9cff5037-b95f-4160-aed4-0c6a74c5919b","system_id":"levelo_inurba_marseille","lat":43.28476,"lon":5.48403,"is_reserved":false,"is_disabled":false,"rental_uris":{"android":"levelo://app?vid=9cff5037-b95f-4160-aed4-0c6a74c5919b","ios":"levelo://app?vid=9cff5037-b95f-4160-aed4-0c6a74c5919b"},"vehicle_type_id":"4","last_reported":1768883771,"current_range_meters":8000,"station_id":"","pricing_plan_id":"cebpf4jnsgd1na2vs0mg"},{"bike_id":"4a54421e-c705-4c8b-9b98-a1c176516748","system_id":"levelo_inurba_marseille","lat":43.30602,"lon":5.37223,"is_reserved":false,"is_disabled":false,"rental_uris":{"android":"levelo://app?vid=4a54421e-c705-4c8b-9b98-a1c176516748","ios":"levelo://app?vid=4a54421e-c705-4c8b-9b98-a1c176516748"},"vehicle_type_id":"4","last_reported":1768883771,"current_range_meters":8000,"station_id":"ce4bgqh2rcd13ifvqc4g","pricing_plan_id":"cebpf4jnsgd1na2vs0mg"},{"bike_id":"801303f1-cf94-4013-b35a-0d38a90415b0","system_id":"levelo_inurba_marseille","lat":43.25826,"lon":5.39422,"is_reserved":false,"is_disabled":false,"rental_uris":{"android":"levelo://app?vid=801303f1-cf94-4013-b35a-0d38a90415b0","ios":"levelo://app?vid=801303f1-cf94-4013-b35a-0d38a90415b0"},"vehicle_type_id":"4","last_reported":1768883771,"current_range_meters":8000,"station_id":"ce4bhip2rcd13ifvqft0","pricing_plan_id":"cebpf4jnsgd1na2vs0mg"},{"bike_id":"16ce393c-0a0b-4807-8031-904c4658b2b9","system_id":"levelo_inurba_marseille","lat":43.28602,"lon":5.39878,"is_reserved":false,"is_disabled":false,"rental_uris":{"android":"levelo://app?vid=16ce393c-0a0b-4807-8031-904c4658b2b9","ios":"levelo://app?vid=16ce393c-0a0b-4807-8031-904c4658b2b9"},"vehicle_type_id":"4","last_reported":1768883771,"current_range_meters":8000,"station_id":"st_d4a7ka997mjs738ck50g","pricing_plan_id":"cebpf4jnsgd1na2vs0mg"},{"bike_id":"f1d4233d-2911-4edf-a268-ad1589486129","system_id":"levelo_inurba_marseille","lat":43.24177,"lon":5.39725,"is_reserved":false,"is_disabled":false,"rental_uris":{"android":"levelo://app?vid=f1d4233d-2911-4edf-a268-ad1589486129","ios":"levelo://app?vid=f1d4233d-2911-4edf-a268-ad1589486129"},"vehicle_type_id":"4","last_reported":1768883771,"current_range_meters":8000,"station_id":"ce4bhn12rcd13ifvqgpg","pricing_plan_id":"cebpf4jnsgd1na2vs0mg"},{"bike_id":"3eb8859d-ffef-4784-9e54-eefc1b1513e9","system_id":"levelo_inurba_marseille","lat":43.33142,"lon":5.37697,"is_reserved":false,"is_disabled":false,"rental_uris":{"android":"levelo://app?vid=3eb8859d-ffef-4784-9e54-eefc1b1513e9","ios":"levelo://app?vid=3eb8859d-ffef-4784-9e54-eefc1b1513e9"},"vehicle_type_id":"4","last_reported":1768883771,"current_range_meters":8000,"station_id":"st_d46cu089ee8s73dldbu0","pricing_plan_id":"cebpf4jnsgd1na2vs0mg"},{"bike_id":"806e4957-1a5f-4c53-95df-29433d7f8877","system_id":"levelo_inurba_marseille","lat":43.302487,"lon":5.400766,"is_reserved":false,"is_disabled":true,"rental_uris":{"android":"levelo://app?vid=806e4957-1a5f-4c53-95df-29433d7f8877","ios":"levelo://app?vid=806e4957-1a5f-4c53-95df-29433d7f8877"},"vehicle_type_id":"4","last_reported":1768883771,"current_range_meters":8000,"station_id":"ce4bgvh2rcd13ifvqcs0","pricing_plan_id":"cebpf4jnsgd1na2vs0mg"},{"bike_id":"efa38cb7-a84d-49d1-a1ea-367fe8bf17b7","system_id":"levelo_inurba_marseille","lat":43.303155,"lon":5.369119,"is_reserved":false,"is_disabled":false,"rental_uris":{"android":"levelo://app?vid=efa38cb7-a84d-49d1-a1ea-367fe8bf17b7","ios":"levelo://app?vid=efa38cb7-a84d-49d1-a1ea-367fe8bf17b7"},"vehicle_type_id":"4","last_reported":1768883771,"current_range_meters":8000,"station_id":"ce4bgqh2rcd13ifvqc5g","pricing_plan_id":"cebpf4jnsgd1na2vs0mg"},{"bike_id":"40d061fc-8e22-42c9-87ca-2ac9a5aee0a1","system_id":"levelo_inurba_marseille","lat":43.29033,"lon":5.37142,"is_reserved":false,"is_disabled":false,"rental_uris":{"android":"levelo://app?vid=40d061fc-8e22-42c9-87ca-2ac9a5aee0a1","ios":"levelo://app?vid=40d061fc-8e22-42c9-87ca-2ac9a5aee0a1"},"vehicle_type_id":"4","last_reported":1768883771,"current_range_meters":8000,"station_id":"","pricing_plan_id":"cebpf4jnsgd1na2vs0mg"},{"bike_id":"6c3a5c15-7423-4a25-87ba-05f3c8d2d87e","system_id":"levelo_inurba_marseille","lat":43.32355,"lon":5.36708,"is_reserved":false,"is_disabled":false,"rental_uris":{"android":"levelo://app?vid=6c3a5c15-7423-4a25-87ba-05f3c8d2d87e","ios":"levelo://app?vid=6c3a5c15-7423-4a25-87ba-05f3c8d2d87e"},"vehicle_type_id":"4","last_reported":1768883771,"current_range_meters":8000,"station_id":"ce4bhsh2rcd13ifvqi2g","pricing_plan_id":"cebpf4jnsgd1na2vs0mg"},{"bike_id":"cc511aa0-e6fb-4905-8f82-be27912c4374","system_id":"levelo_inurba_marseille","lat":43.28428,"lon":5.37526,"is_reserved":false,"is_disabled":false,"rental_uris":{"android":"levelo://app?vid=cc511aa0-e6fb-4905-8f82-be27912c4374","ios":"levelo://app?vid=cc511aa0-e6fb-4905-8f82-be27912c4374"},"vehicle_type_id":"4","last_reported":1768883771,"current_range_meters":8000,"station_id":"ce4bh412rcd13ifvqds0","pricing_plan_id":"cebpf4jnsgd1na2vs0mg"},{"bike_id":"ea1b6251-046e-45fa-99ed-c6d51993189a","system_id":"levelo_inurba_marseille","lat":43.23963,"lon":5.36615,"is_reserved":false,"is_disabled":false,"rental_uris":{"android":"levelo://app?vid=ea1b6251-046e-45fa-99ed-c6d51993189a","ios":"levelo://app?vid=ea1b6251-046e-45fa-99ed-c6d51993189a"},"vehicle_type_id":"4","last_reported":1768883771,"current_range_meters":8000,"station_id":"ce4bhi12rcd13ifvqfp0","pricing_plan_id":"cebpf4jnsgd1na2vs0mg"},{"bike_id":"8dd29d92-f002-43aa-9b1f-4ab297c82f6b","system_id":"levelo_inurba_marseille","lat":43.2668,"lon":5.38268,"is_reserved":false,"is_disabled":false,"rental_uris":{"android":"levelo://app?vid=8dd29d92-f002-43aa-9b1f-4ab297c82f6b","ios":"levelo://app?vid=8dd29d92-f002-43aa-9b1f-4ab297c82f6b"},"vehicle_type_id":"4","last_reported":1768883771,"current_range_meters":8000,"station_id":"ce4bhg92rcd13ifvqf90","pricing_plan_id":"cebpf4jnsgd1na2vs0mg"},{"bike_id":"3cafd785-9cf7-426b-9fd0-6acd4fc7ba5e","system_id":"levelo_inurba_marseille","lat":43.25495,"lon":5.3765,"is_reserved":false,"is_disabled":false,"rental_uris":{"android":"levelo://app?vid=3cafd785-9cf7-426b-9fd0-6acd4fc7ba5e","ios":"levelo://app?vid=3cafd785-9cf7-426b-9fd0-6acd4fc7ba5e"},"vehicle_type_id":"4","last_reported":1768883771,"current_range_meters":8000,"station_id":"ce4bhh12rcd13ifvqff0","pricing_plan_id":"cebpf4jnsgd1na2vs0mg"},{"bike_id":"3f680614-dd7c-4fe9-b7de-068f4f336545","system_id":"levelo_inurba_marseille","lat":43.28871,"lon":5.42503,"is_reserved":false,"is_disabled":false,"rental_uris":{"android":"levelo://app?vid=3f680614-dd7c-4fe9-b7de-068f4f336545","ios":"levelo://app?vid=3f680614-dd7c-4fe9-b7de-068f4f336545"},"vehicle_type_id":"4","last_reported":1768883771,"current_range_meters":8000,"station_id":"st_d3b462108ojc7389ooeg","pricing_plan_id":"cebpf4jnsgd1na2vs0mg"},{"bike_id":"0634eda3-5170-4755-998a-c89a73b107a3","system_id":"levelo_inurba_marseille","lat":43.30131,"lon":5.38788,"is_reserved":false,"is_disabled":true,"rental_uris":{"android":"levelo://app?vid=0634eda3-5170-4755-998a-c89a73b107a3","ios":"levelo://app?vid=0634eda3-5170-4755-998a-c89a73b107a3"},"vehicle_type_id":"4","last_reported":1768883771,"current_range_meters":8000,"station_id":"ce4bghh2rcd13ifvqb60","pricing_plan_id":"cebpf4jnsgd1na2vs0mg"},{"bike_id":"91aac711-3b13-41d5-bd63-64d53fef3efc","system_id":"levelo_inurba_marseille","lat":43.28675,"lon":5.38653,"is_reserved":false,"is_disabled":false,"rental_uris":{"android":"levelo://app?vid=91aac711-3b13-41d5-bd63-64d53fef3efc","ios":"levelo://app?vid=91aac711-3b13-41d5-bd63-64d53fef3efc"},"vehicle_type_id":"4","last_reported":1768883771,"current_range_meters":8000,"station_id":"ce4bh492rcd13ifvqdug","pricing_plan_id":"cebpf4jnsgd1na2vs0mg"},{"bike_id":"bf66c107-c039-4c1f-baa4-9d07a07597ae","system_id":"levelo_inurba_marseille","lat":43.290005,"lon":5.355989,"is_reserved":false,"is_disabled":false,"rental_uris":{"android":"levelo://app?vid=bf66c107-c039-4c1f-baa4-9d07a07597ae","ios":"levelo://app?vid=bf66c107-c039-4c1f-baa4-9d07a07597ae"},"vehicle_type_id":"4","last_reported":1768883771,"current_range_meters":8000,"station_id":"ce4bhb92rcd13ifvqen0","pricing_plan_id":"cebpf4jnsgd1na2vs0mg"},{"bike_id":"3541ef95-ce05-4a4b-b3fd-478ab53437f6","system_id":"levelo_inurba_marseille","lat":43.29588,"lon":5.38105,"is_reserved":false,"is_disabled":false,"rental_uris":{"android":"levelo://app?vid=3541ef95-ce05-4a4b-b3fd-478ab53437f6","ios":"levelo://app?vid=3541ef95-ce05-4a4b-b3fd-478ab53437f6"},"vehicle_type_id":"4","last_reported":1768883771,"current_range_meters":8000,"station_id":"ce4bgl12rcd13ifvqbo0","pricing_plan_id":"cebpf4jnsgd1na2vs0mg"},{"bike_id":"fd7c52ae-2854-499c-ab04-e6c3779b4cfc","system_id":"levelo_inurba_marseille","lat":43.2798,"lon":5.40031,"is_reserved":false,"is_disabled":false,"rental_uris":{"android":"levelo://app?vid=fd7c52ae-2854-499c-ab04-e6c3779b4cfc","ios":"levelo://app?vid=fd7c52ae-2854-499c-ab04-e6c3779b4cfc"},"vehicle_type_id":"4","last_reported":1768883771,"current_range_meters":8000,"station_id":"ce4bho92rcd13ifvqh4g","pricing_plan_id":"cebpf4jnsgd1na2vs0mg"},{"bike_id":"108b0029-d01a-4933-8e88-16292523c45d","system_id":"levelo_inurba_marseille","lat":43.24642,"lon":5.38884,"is_reserved":false,"is_disabled":false,"rental_uris":{"android":"levelo://app?vid=108b0029-d01a-4933-8e88-16292523c45d","ios":"levelo://app?vid=108b0029-d01a-4933-8e88-16292523c45d"},"vehicle_type_id":"4","last_reported":1768883771,"current_range_meters":8000,"station_id":"ce4bhg12rcd13ifvqf60","pricing_plan_id":"cebpf4jnsgd1na2vs0mg"},{"bike_id":"5d6ec190-4e3f-4728-8145-239caf53150f","system_id":"levelo_inurba_marseille","lat":43.30684,"lon":5.40284,"is_reserved":false,"is_disabled":false,"rental_uris":{"android":"levelo://app?vid=5d6ec190-4e3f-4728-8145-239caf53150f","ios":"levelo://app?vid=5d6ec190-4e3f-4728-8145-239caf53150f"},"vehicle_type_id":"4","last_reported":1768883771,"current_range_meters":8000,"station_id":"","pricing_plan_id":"cebpf4jnsgd1na2vs0mg"},{"bike_id":"b324d521-7604-4b08-b8ad-7a460feb6a95","system_id":"levelo_inurba_marseille","lat":43.29284,"lon":5.3688,"is_reserved":false,"is_disabled":false,"rental_uris":{"android":"levelo://app?vid=b324d521-7604-4b08-b8ad-7a460feb6a95","ios":"levelo://app?vid=b324d521-7604-4b08-b8ad-7a460feb6a95"},"vehicle_type_id":"4","last_reported":1768883771,"current_range_meters":8400,"station_id":"ce4bhbp2rcd13ifvqesg","pricing_plan_id":"cebpf4jnsgd1na2vs0mg"},{"bike_id":"eeb4124d-aafe-49bb-acb7-c35c8637d2d9","system_id":"levelo_inurba_marseille","lat":43.31351,"lon":5.39725,"is_reserved":false,"is_disabled":false,"rental_uris":{"android":"levelo://app?vid=eeb4124d-aafe-49bb-acb7-c35c8637d2d9","ios":"levelo://app?vid=eeb4124d-aafe-49bb-acb7-c35c8637d2d9"},"vehicle_type_id":"4","last_reported":1768883771,"current_range_meters":8400,"station_id":"ce4bgvp2rcd13ifvqcu0","pricing_plan_id":"cebpf4jnsgd1na2vs0mg"},{"bike_id":"9a551d67-bceb-4208-884e-34ede4178bc0","system_id":"levelo_inurba_marseille","lat":43.31259,"lon":5.36842,"is_reserved":false,"is_disabled":false,"rental_uris":{"android":"levelo://app?vid=9a551d67-bceb-4208-884e-34ede4178bc0","ios":"levelo://app?vid=9a551d67-bceb-4208-884e-34ede4178bc0"},"vehicle_type_id":"4","last_reported":1768883771,"current_range_meters":8400,"station_id":"ce4bgl92rcd13ifvqbq0","pricing_plan_id":"cebpf4jnsgd1na2vs0mg"},{"bike_id":"c7344772-1d82-45a6-8b80-bf254e451eef","system_id":"levelo_inurba_marseille","lat":43.31278,"lon":5.37743,"is_reserved":false,"is_disabled":true,"rental_uris":{"android":"levelo://app?vid=c7344772-1d82-45a6-8b80-bf254e451eef","ios":"levelo://app?vid=c7344772-1d82-45a6-8b80-bf254e451eef"},"vehicle_type_id":"4","last_reported":1768883771,"current_range_meters":8400,"station_id":"","pricing_plan_id":"cebpf4jnsgd1na2vs0mg"},{"bike_id":"c1428cc1-a4b0-4747-bfbd-fc33f0773fca","system_id":"levelo_inurba_marseille","lat":43.31073,"lon":5.38343,"is_reserved":false,"is_disabled":false,"rental_uris":{"android":"levelo://app?vid=c1428cc1-a4b0-4747-bfbd-fc33f0773fca","ios":"levelo://app?vid=c1428cc1-a4b0-4747-bfbd-fc33f0773fca"},"vehicle_type_id":"4","last_reported":1768883771,"current_range_meters":8400,"station_id":"ce4bgv92rcd13ifvqcr0","pricing_plan_id":"cebpf4jnsgd1na2vs0mg"},{"bike_id":"87324946-5ce2-42c8-907b-e4826726f53b","system_id":"levelo_inurba_marseille","lat":43.30675,"lon":5.40051,"is_reserved":false,"is_disabled":false,"rental_uris":{"android":"levelo://app?vid=87324946-5ce2-42c8-907b-e4826726f53b","ios":"levelo://app?vid=87324946-5ce2-42c8-907b-e4826726f53b"},"vehicle_type_id":"4","last_reported":1768883771,"current_range_meters":8400,"station_id":"","pricing_plan_id":"cebpf4jnsgd1na2vs0mg"},{"bike_id":"7a90f0b5-efb2-4f9b-b145-8cb8cb6e532b","system_id":"levelo_inurba_marseille","lat":43.31133,"lon":5.37761,"is_reserved":false,"is_disabled":false,"rental_uris":{"android":"levelo://app?vid=7a90f0b5-efb2-4f9b-b145-8cb8cb6e532b","ios":"levelo://app?vid=7a90f0b5-efb2-4f9b-b145-8cb8cb6e532b"},"vehicle_type_id":"4","last_reported":1768883771,"current_range_meters":8400,"station_id":"ce4bgt92rcd13ifvqcg0","pricing_plan_id":"cebpf4jnsgd1na2vs0mg"},{"bike_id":"944690ea-f3d7-4e77-b795-63c34d099868","system_id":"levelo_inurba_marseille","lat":43.2448,"lon":5.42561,"is_reserved":false,"is_disabled":false,"rental_uris":{"android":"levelo://app?vid=944690ea-f3d7-4e77-b795-63c34d099868","ios":"levelo://app?vid=944690ea-f3d7-4e77-b795-63c34d099868"},"vehicle_type_id":"4","last_reported":1768883771,"current_range_meters":8400,"station_id":"st_d4a3vfp97mjs738cd8kg","pricing_plan_id":"cebpf4jnsgd1na2vs0mg"},{"bike_id":"fb399f5a-106d-4e4e-b0b6-eb700dad2449","system_id":"levelo_inurba_marseille","lat":43.28597,"lon":5.39917,"is_reserved":false,"is_disabled":true,"rental_uris":{"android":"levelo://app?vid=fb399f5a-106d-4e4e-b0b6-eb700dad2449","ios":"levelo://app?vid=fb399f5a-106d-4e4e-b0b6-eb700dad2449"},"vehicle_type_id":"4","last_reported":1768883771,"current_range_meters":8400,"station_id":"ce4bho92rcd13ifvqh3g","pricing_plan_id":"cebpf4jnsgd1na2vs0mg"},{"bike_id":"40e2667e-f23a-4ded-8ddb-fef4d5eb0dfe","system_id":"levelo_inurba_marseille","lat":43.25521,"lon":5.37652,"is_reserved":false,"is_disabled":false,"rental_uris":{"android":"levelo://app?vid=40e2667e-f23a-4ded-8ddb-fef4d5eb0dfe","ios":"levelo://app?vid=40e2667e-f23a-4ded-8ddb-fef4d5eb0dfe"},"vehicle_type_id":"4","last_reported":1768883771,"current_range_meters":8400,"station_id":"ce4bhh12rcd13ifvqff0","pricing_plan_id":"cebpf4jnsgd1na2vs0mg"},{"bike_id":"4d9fb050-4361-4bab-ba3c-960b4264587c","system_id":"levelo_inurba_marseille","lat":43.33048,"lon":5.39066,"is_reserved":false,"is_disabled":false,"rental_uris":{"android":"levelo://app?vid=4d9fb050-4361-4bab-ba3c-960b4264587c","ios":"levelo://app?vid=4d9fb050-4361-4bab-ba3c-960b4264587c"},"vehicle_type_id":"4","last_reported":1768883771,"current_range_meters":8400,"station_id":"ce4bhr92rcd13ifvqhrg","pricing_plan_id":"cebpf4jnsgd1na2vs0mg"},{"bike_id":"f58dc067-4dd9-4635-8ae5-365aced9c977","system_id":"levelo_inurba_marseille","lat":43.26227,"lon":5.4042,"is_reserved":false,"is_disabled":false,"rental_uris":{"android":"levelo://app?vid=f58dc067-4dd9-4635-8ae5-365aced9c977","ios":"levelo://app?vid=f58dc067-4dd9-4635-8ae5-365aced9c977"},"vehicle_type_id":"4","last_reported":1768883771,"current_range_meters":8400,"station_id":"ce4bhmh2rcd13ifvqgmg","pricing_plan_id":"cebpf4jnsgd1na2vs0mg"},{"bike_id":"2560fc6f-d31f-42c0-980f-6141b2721bdd","system_id":"levelo_inurba_marseille","lat":43.28858,"lon":5.42515,"is_reserved":false,"is_disabled":false,"rental_uris":{"android":"levelo://app?vid=2560fc6f-d31f-42c0-980f-6141b2721bdd","ios":"levelo://app?vid=2560fc6f-d31f-42c0-980f-6141b2721bdd"},"vehicle_type_id":"4","last_reported":1768883771,"current_range_meters":8400,"station_id":"st_d3b462108ojc7389ooeg","pricing_plan_id":"cebpf4jnsgd1na2vs0mg"},{"bike_id":"e3caaaee-f8d9-44b6-b3d8-e04b5e8c88ba","system_id":"levelo_inurba_marseille","lat":43.278269,"lon":5.407086,"is_reserved":false,"is_disabled":false,"rental_uris":{"android":"levelo://app?vid=e3caaaee-f8d9-44b6-b3d8-e04b5e8c88ba","ios":"levelo://app?vid=e3caaaee-f8d9-44b6-b3d8-e04b5e8c88ba"},"vehicle_type_id":"4","last_reported":1768883771,"current_range_meters":8400,"station_id":"ce4bhnh2rcd13ifvqgtg","pricing_plan_id":"cebpf4jnsgd1na2vs0mg"},{"bike_id":"07ea42a8-40d9-4c26-b1ad-4a8dfcb6fb9b","system_id":"levelo_inurba_marseille","lat":43.30571,"lon":5.36585,"is_reserved":false,"is_disabled":true,"rental_uris":{"android":"levelo://app?vid=07ea42a8-40d9-4c26-b1ad-4a8dfcb6fb9b","ios":"levelo://app?vid=07ea42a8-40d9-4c26-b1ad-4a8dfcb6fb9b"},"vehicle_type_id":"4","last_reported":1768883771,"current_range_meters":8400,"station_id":"ce4bgs12rcd13ifvqcag","pricing_plan_id":"cebpf4jnsgd1na2vs0mg"},{"bike_id":"66dff76f-c98b-4c43-b772-851e3d046df4","system_id":"levelo_inurba_marseille","lat":43.27996,"lon":5.41666,"is_reserved":false,"is_disabled":false,"rental_uris":{"android":"levelo://app?vid=66dff76f-c98b-4c43-b772-851e3d046df4","ios":"levelo://app?vid=66dff76f-c98b-4c43-b772-851e3d046df4"},"vehicle_type_id":"4","last_reported":1768883771,"current_range_meters":8400,"station_id":"ce4bho12rcd13ifvqh1g","pricing_plan_id":"cebpf4jnsgd1na2vs0mg"},{"bike_id":"738ceb7a-1006-4c61-95a5-08832c94eb35","system_id":"levelo_inurba_marseille","lat":43.23966,"lon":5.36615,"is_reserved":false,"is_disabled":false,"rental_uris":{"android":"levelo://app?vid=738ceb7a-1006-4c61-95a5-08832c94eb35","ios":"levelo://app?vid=738ceb7a-1006-4c61-95a5-08832c94eb35"},"vehicle_type_id":"4","last_reported":1768883771,"current_range_meters":8400,"station_id":"ce4bhi12rcd13ifvqfp0","pricing_plan_id":"cebpf4jnsgd1na2vs0mg"},{"bike_id":"a7b9b0ec-83f6-40df-aa25-854c700427e8","system_id":"levelo_inurba_marseille","lat":43.24804,"lon":5.3745,"is_reserved":false,"is_disabled":false,"rental_uris":{"android":"levelo://app?vid=a7b9b0ec-83f6-40df-aa25-854c700427e8","ios":"levelo://app?vid=a7b9b0ec-83f6-40df-aa25-854c700427e8"},"vehicle_type_id":"4","last_reported":1768883771,"current_range_meters":8400,"station_id":"ce4bhgh2rcd13ifvqfb0","pricing_plan_id":"cebpf4jnsgd1na2vs0mg"},{"bike_id":"75cfcbff-729c-4a91-a5ba-be119068c2dd","system_id":"levelo_inurba_marseille","lat":43.23966,"lon":5.36625,"is_reserved":false,"is_disabled":false,"rental_uris":{"android":"levelo://app?vid=75cfcbff-729c-4a91-a5ba-be119068c2dd","ios":"levelo://app?vid=75cfcbff-729c-4a91-a5ba-be119068c2dd"},"vehicle_type_id":"4","last_reported":1768883771,"current_range_meters":8400,"station_id":"ce4bhi12rcd13ifvqfp0","pricing_plan_id":"cebpf4jnsgd1na2vs0mg"},{"bike_id":"5762cc16-5ef1-4f87-8d69-3f8323f2739a","system_id":"levelo_inurba_marseille","lat":43.28272,"lon":5.35074,"is_reserved":false,"is_disabled":false,"rental_uris":{"android":"levelo://app?vid=5762cc16-5ef1-4f87-8d69-3f8323f2739a","ios":"levelo://app?vid=5762cc16-5ef1-4f87-8d69-3f8323f2739a"},"vehicle_type_id":"4","last_reported":1768883771,"current_range_meters":8400,"station_id":"ce4bhbp2rcd13ifvqerg","pricing_plan_id":"cebpf4jnsgd1na2vs0mg"},{"bike_id":"a7ee6ea7-e2f9-43c7-955e-7125c73ea0be","system_id":"levelo_inurba_marseille","lat":43.31076,"lon":5.38336,"is_reserved":false,"is_disabled":false,"rental_uris":{"android":"levelo://app?vid=a7ee6ea7-e2f9-43c7-955e-7125c73ea0be","ios":"levelo://app?vid=a7ee6ea7-e2f9-43c7-955e-7125c73ea0be"},"vehicle_type_id":"4","last_reported":1768883771,"current_range_meters":8400,"station_id":"ce4bgv92rcd13ifvqcr0","pricing_plan_id":"cebpf4jnsgd1na2vs0mg"},{"bike_id":"9301d8e0-a074-4a72-a5e6-2c3547935f4f","system_id":"levelo_inurba_marseille","lat":43.27826,"lon":5.39204,"is_reserved":false,"is_disabled":false,"rental_uris":{"android":"levelo://app?vid=9301d8e0-a074-4a72-a5e6-2c3547935f4f","ios":"levelo://app?vid=9301d8e0-a074-4a72-a5e6-2c3547935f4f"},"vehicle_type_id":"4","last_reported":1768883771,"current_range_meters":8400,"station_id":"ce4bhjp2rcd13ifvqga0","pricing_plan_id":"cebpf4jnsgd1na2vs0mg"},{"bike_id":"5061baf0-9869-438a-938f-a0ff2b78a8d8","system_id":"levelo_inurba_marseille","lat":43.27999,"lon":5.41659,"is_reserved":false,"is_disabled":false,"rental_uris":{"android":"levelo://app?vid=5061baf0-9869-438a-938f-a0ff2b78a8d8","ios":"levelo://app?vid=5061baf0-9869-438a-938f-a0ff2b78a8d8"},"vehicle_type_id":"4","last_reported":1768883771,"current_range_meters":8400,"station_id":"ce4bho12rcd13ifvqh1g","pricing_plan_id":"cebpf4jnsgd1na2vs0mg"},{"bike_id":"bc7ccd1b-bfee-4869-a3d2-39dfa3a48fb2","system_id":"levelo_inurba_marseille","lat":43.2843,"lon":5.37501,"is_reserved":false,"is_disabled":false,"rental_uris":{"android":"levelo://app?vid=bc7ccd1b-bfee-4869-a3d2-39dfa3a48fb2","ios":"levelo://app?vid=bc7ccd1b-bfee-4869-a3d2-39dfa3a48fb2"},"vehicle_type_id":"4","last_reported":1768883771,"current_range_meters":8800,"station_id":"ce4bh412rcd13ifvqds0","pricing_plan_id":"cebpf4jnsgd1na2vs0mg"},{"bike_id":"c90f8d49-c464-4abb-b50f-a6f2833250ba","system_id":"levelo_inurba_marseille","lat":43.2604,"lon":5.39381,"is_reserved":false,"is_disabled":false,"rental_uris":{"android":"levelo://app?vid=c90f8d49-c464-4abb-b50f-a6f2833250ba","ios":"levelo://app?vid=c90f8d49-c464-4abb-b50f-a6f2833250ba"},"vehicle_type_id":"4","last_reported":1768883771,"current_range_meters":8800,"station_id":"ce4bhh92rcd13ifvqfj0","pricing_plan_id":"cebpf4jnsgd1na2vs0mg"},{"bike_id":"de773d31-c0ae-4fe9-90d5-b0353b585a1e","system_id":"levelo_inurba_marseille","lat":43.26494,"lon":5.39537,"is_reserved":false,"is_disabled":false,"rental_uris":{"android":"levelo://app?vid=de773d31-c0ae-4fe9-90d5-b0353b585a1e","ios":"levelo://app?vid=de773d31-c0ae-4fe9-90d5-b0353b585a1e"},"vehicle_type_id":"4","last_reported":1768883771,"current_range_meters":8800,"station_id":"ce4bhi12rcd13ifvqfq0","pricing_plan_id":"cebpf4jnsgd1na2vs0mg"},{"bike_id":"19da54de-4602-49e5-a196-11068ea61238","system_id":"levelo_inurba_marseille","lat":43.30706,"lon":5.36541,"is_reserved":false,"is_disabled":false,"rental_uris":{"android":"levelo://app?vid=19da54de-4602-49e5-a196-11068ea61238","ios":"levelo://app?vid=19da54de-4602-49e5-a196-11068ea61238"},"vehicle_type_id":"4","last_reported":1768883771,"current_range_meters":8800,"station_id":"","pricing_plan_id":"cebpf4jnsgd1na2vs0mg"},{"bike_id":"3c05e630-d357-45dc-aca1-778ca0fc296f","system_id":"levelo_inurba_marseille","lat":43.306002,"lon":5.393536,"is_reserved":false,"is_disabled":false,"rental_uris":{"android":"levelo://app?vid=3c05e630-d357-45dc-aca1-778ca0fc296f","ios":"levelo://app?vid=3c05e630-d357-45dc-aca1-778ca0fc296f"},"vehicle_type_id":"4","last_reported":1768883771,"current_range_meters":8800,"station_id":"ce4bh0p2rcd13ifvqd80","pricing_plan_id":"cebpf4jnsgd1na2vs0mg"},{"bike_id":"2a4022df-d5bb-4ca3-9cd7-966e322f8e19","system_id":"levelo_inurba_marseille","lat":43.29851,"lon":5.38891,"is_reserved":false,"is_disabled":false,"rental_uris":{"android":"levelo://app?vid=2a4022df-d5bb-4ca3-9cd7-966e322f8e19","ios":"levelo://app?vid=2a4022df-d5bb-4ca3-9cd7-966e322f8e19"},"vehicle_type_id":"4","last_reported":1768883771,"current_range_meters":8800,"station_id":"ce4bh392rcd13ifvqdl0","pricing_plan_id":"cebpf4jnsgd1na2vs0mg"},{"bike_id":"b98748e0-bf9f-4b4d-a11b-4ee38619842d","system_id":"levelo_inurba_marseille","lat":43.28277,"lon":5.35079,"is_reserved":false,"is_disabled":false,"rental_uris":{"android":"levelo://app?vid=b98748e0-bf9f-4b4d-a11b-4ee38619842d","ios":"levelo://app?vid=b98748e0-bf9f-4b4d-a11b-4ee38619842d"},"vehicle_type_id":"4","last_reported":1768883771,"current_range_meters":8800,"station_id":"ce4bhbp2rcd13ifvqerg","pricing_plan_id":"cebpf4jnsgd1na2vs0mg"},{"bike_id":"cdbbe17f-42ee-42a0-8933-76317592653c","system_id":"levelo_inurba_marseille","lat":43.31324,"lon":5.39715,"is_reserved":false,"is_disabled":false,"rental_uris":{"android":"levelo://app?vid=cdbbe17f-42ee-42a0-8933-76317592653c","ios":"levelo://app?vid=cdbbe17f-42ee-42a0-8933-76317592653c"},"vehicle_type_id":"4","last_reported":1768883771,"current_range_meters":8800,"station_id":"ce4bgvp2rcd13ifvqcu0","pricing_plan_id":"cebpf4jnsgd1na2vs0mg"},{"bike_id":"3f2ae978-6d4a-4f24-84ad-6c63c5079754","system_id":"levelo_inurba_marseille","lat":43.24067,"lon":5.37748,"is_reserved":false,"is_disabled":false,"rental_uris":{"android":"levelo://app?vid=3f2ae978-6d4a-4f24-84ad-6c63c5079754","ios":"levelo://app?vid=3f2ae978-6d4a-4f24-84ad-6c63c5079754"},"vehicle_type_id":"4","last_reported":1768883771,"current_range_meters":8800,"station_id":"ce4bhnp2rcd13ifvqgvg","pricing_plan_id":"cebpf4jnsgd1na2vs0mg"},{"bike_id":"26c32585-1ce4-4f1a-b32e-1e0f0a70922d","system_id":"levelo_inurba_marseille","lat":43.30112,"lon":5.43132,"is_reserved":false,"is_disabled":false,"rental_uris":{"android":"levelo://app?vid=26c32585-1ce4-4f1a-b32e-1e0f0a70922d","ios":"levelo://app?vid=26c32585-1ce4-4f1a-b32e-1e0f0a70922d"},"vehicle_type_id":"4","last_reported":1768883771,"current_range_meters":8800,"station_id":"st_d3js3co5814s73ftftug","pricing_plan_id":"cebpf4jnsgd1na2vs0mg"},{"bike_id":"1cd68235-0dd0-4a18-b47e-f8a039dc8288","system_id":"levelo_inurba_marseille","lat":43.2639,"lon":5.41082,"is_reserved":false,"is_disabled":false,"rental_uris":{"android":"levelo://app?vid=1cd68235-0dd0-4a18-b47e-f8a039dc8288","ios":"levelo://app?vid=1cd68235-0dd0-4a18-b47e-f8a039dc8288"},"vehicle_type_id":"4","last_reported":1768883771,"current_range_meters":8800,"station_id":"st_d4e5ca6na9uc73bfl5fg","pricing_plan_id":"cebpf4jnsgd1na2vs0mg"},{"bike_id":"10483c0a-1726-407f-8492-2530493c0d67","system_id":"levelo_inurba_marseille","lat":43.25009,"lon":5.38869,"is_reserved":false,"is_disabled":false,"rental_uris":{"android":"levelo://app?vid=10483c0a-1726-407f-8492-2530493c0d67","ios":"levelo://app?vid=10483c0a-1726-407f-8492-2530493c0d67"},"vehicle_type_id":"4","last_reported":1768883771,"current_range_meters":8800,"station_id":"ce4bhgp2rcd13ifvqfd0","pricing_plan_id":"cebpf4jnsgd1na2vs0mg"},{"bike_id":"64564d81-7fa9-470c-84f7-e881a2d2d1a5","system_id":"levelo_inurba_marseille","lat":43.24461,"lon":5.42525,"is_reserved":false,"is_disabled":false,"rental_uris":{"android":"levelo://app?vid=64564d81-7fa9-470c-84f7-e881a2d2d1a5","ios":"levelo://app?vid=64564d81-7fa9-470c-84f7-e881a2d2d1a5"},"vehicle_type_id":"4","last_reported":1768883771,"current_range_meters":8800,"station_id":"st_d4a3vfp97mjs738cd8kg","pricing_plan_id":"cebpf4jnsgd1na2vs0mg"},{"bike_id":"7556d810-a815-493d-a5bf-f3939b5a06d1","system_id":"levelo_inurba_marseille","lat":43.29914,"lon":5.37467,"is_reserved":false,"is_disabled":false,"rental_uris":{"android":"levelo://app?vid=7556d810-a815-493d-a5bf-f3939b5a06d1","ios":"levelo://app?vid=7556d810-a815-493d-a5bf-f3939b5a06d1"},"vehicle_type_id":"4","last_reported":1768883771,"current_range_meters":8800,"station_id":"ce4bgjh2rcd13ifvqbg0","pricing_plan_id":"cebpf4jnsgd1na2vs0mg"},{"bike_id":"bbacaa50-4995-4fb9-a030-ae920cf166c7","system_id":"levelo_inurba_marseille","lat":43.30688,"lon":5.40047,"is_reserved":false,"is_disabled":false,"rental_uris":{"android":"levelo://app?vid=bbacaa50-4995-4fb9-a030-ae920cf166c7","ios":"levelo://app?vid=bbacaa50-4995-4fb9-a030-ae920cf166c7"},"vehicle_type_id":"4","last_reported":1768883771,"current_range_meters":8800,"station_id":"","pricing_plan_id":"cebpf4jnsgd1na2vs0mg"},{"bike_id":"b045ae8f-af30-4c2d-a483-657d04e3a4ee","system_id":"levelo_inurba_marseille","lat":43.285991,"lon":5.399153,"is_reserved":false,"is_disabled":false,"rental_uris":{"android":"levelo://app?vid=b045ae8f-af30-4c2d-a483-657d04e3a4ee","ios":"levelo://app?vid=b045ae8f-af30-4c2d-a483-657d04e3a4ee"},"vehicle_type_id":"4","last_reported":1768883771,"current_range_meters":8800,"station_id":"st_d4a7ka997mjs738ck50g","pricing_plan_id":"cebpf4jnsgd1na2vs0mg"},{"bike_id":"3f155f0c-a1bd-400f-8289-4fd480af1e73","system_id":"levelo_inurba_marseille","lat":43.29124,"lon":5.38263,"is_reserved":false,"is_disabled":false,"rental_uris":{"android":"levelo://app?vid=3f155f0c-a1bd-400f-8289-4fd480af1e73","ios":"levelo://app?vid=3f155f0c-a1bd-400f-8289-4fd480af1e73"},"vehicle_type_id":"4","last_reported":1768883771,"current_range_meters":8800,"station_id":"","pricing_plan_id":"cebpf4jnsgd1na2vs0mg"},{"bike_id":"544ad0c6-321a-4014-a5c3-ffb32ae71cca","system_id":"levelo_inurba_marseille","lat":43.284806,"lon":5.483778,"is_reserved":false,"is_disabled":false,"rental_uris":{"android":"levelo://app?vid=544ad0c6-321a-4014-a5c3-ffb32ae71cca","ios":"levelo://app?vid=544ad0c6-321a-4014-a5c3-ffb32ae71cca"},"vehicle_type_id":"4","last_reported":1768883771,"current_range_meters":8800,"station_id":"","pricing_plan_id":"cebpf4jnsgd1na2vs0mg"},{"bike_id":"37bce8ff-e978-41d9-b036-84ab06c9528c","system_id":"levelo_inurba_marseille","lat":43.265588,"lon":5.372846,"is_reserved":false,"is_disabled":false,"rental_uris":{"android":"levelo://app?vid=37bce8ff-e978-41d9-b036-84ab06c9528c","ios":"levelo://app?vid=37bce8ff-e978-41d9-b036-84ab06c9528c"},"vehicle_type_id":"4","last_reported":1768883771,"current_range_meters":8800,"station_id":"ce4bhg12rcd13ifvqf70","pricing_plan_id":"cebpf4jnsgd1na2vs0mg"},{"bike_id":"fdc6c686-a63e-42ac-8637-afd5d70ee598","system_id":"levelo_inurba_marseille","lat":43.29385,"lon":5.40206,"is_reserved":false,"is_disabled":true,"rental_uris":{"android":"levelo://app?vid=fdc6c686-a63e-42ac-8637-afd5d70ee598","ios":"levelo://app?vid=fdc6c686-a63e-42ac-8637-afd5d70ee598"},"vehicle_type_id":"4","last_reported":1768883771,"current_range_meters":8800,"station_id":"ce4bh312rcd13ifvqdk0","pricing_plan_id":"cebpf4jnsgd1na2vs0mg"},{"bike_id":"00926366-40d2-4692-a7fe-1fb3b69e53b6","system_id":"levelo_inurba_marseille","lat":43.324762,"lon":5.365639,"is_reserved":false,"is_disabled":false,"rental_uris":{"android":"levelo://app?vid=00926366-40d2-4692-a7fe-1fb3b69e53b6","ios":"levelo://app?vid=00926366-40d2-4692-a7fe-1fb3b69e53b6"},"vehicle_type_id":"4","last_reported":1768883771,"current_range_meters":9200,"station_id":"ce4bhs12rcd13ifvqhvg","pricing_plan_id":"cebpf4jnsgd1na2vs0mg"},{"bike_id":"07e70a72-1e6c-4a89-915f-d162952b92d4","system_id":"levelo_inurba_marseille","lat":43.31318,"lon":5.39708,"is_reserved":false,"is_disabled":false,"rental_uris":{"android":"levelo://app?vid=07e70a72-1e6c-4a89-915f-d162952b92d4","ios":"levelo://app?vid=07e70a72-1e6c-4a89-915f-d162952b92d4"},"vehicle_type_id":"4","last_reported":1768883771,"current_range_meters":9200,"station_id":"ce4bgvp2rcd13ifvqcu0","pricing_plan_id":"cebpf4jnsgd1na2vs0mg"},{"bike_id":"65f2e28d-b6c3-4183-a528-4abf22dd5335","system_id":"levelo_inurba_marseille","lat":43.23962,"lon":5.36615,"is_reserved":false,"is_disabled":false,"rental_uris":{"android":"levelo://app?vid=65f2e28d-b6c3-4183-a528-4abf22dd5335","ios":"levelo://app?vid=65f2e28d-b6c3-4183-a528-4abf22dd5335"},"vehicle_type_id":"4","last_reported":1768883771,"current_range_meters":9200,"station_id":"ce4bhi12rcd13ifvqfp0","pricing_plan_id":"cebpf4jnsgd1na2vs0mg"},{"bike_id":"8efbdb10-eb0f-4039-9764-62e3343cfd03","system_id":"levelo_inurba_marseille","lat":43.24968,"lon":5.40494,"is_reserved":false,"is_disabled":false,"rental_uris":{"android":"levelo://app?vid=8efbdb10-eb0f-4039-9764-62e3343cfd03","ios":"levelo://app?vid=8efbdb10-eb0f-4039-9764-62e3343cfd03"},"vehicle_type_id":"4","last_reported":1768883771,"current_range_meters":9200,"station_id":"st_d2ngiaodas8pm72gd1h0","pricing_plan_id":"cebpf4jnsgd1na2vs0mg"},{"bike_id":"b413f672-6f60-41b8-8f68-1814f77da456","system_id":"levelo_inurba_marseille","lat":43.241622,"lon":5.363934,"is_reserved":false,"is_disabled":false,"rental_uris":{"android":"levelo://app?vid=b413f672-6f60-41b8-8f68-1814f77da456","ios":"levelo://app?vid=b413f672-6f60-41b8-8f68-1814f77da456"},"vehicle_type_id":"4","last_reported":1768883771,"current_range_meters":9200,"station_id":"cpo36qri1sfpv3e86is0","pricing_plan_id":"cebpf4jnsgd1na2vs0mg"},{"bike_id":"a832e334-5c40-4e17-b872-0f0d4cd7d838","system_id":"levelo_inurba_marseille","lat":43.24969,"lon":5.40504,"is_reserved":false,"is_disabled":false,"rental_uris":{"android":"levelo://app?vid=a832e334-5c40-4e17-b872-0f0d4cd7d838","ios":"levelo://app?vid=a832e334-5c40-4e17-b872-0f0d4cd7d838"},"vehicle_type_id":"4","last_reported":1768883771,"current_range_meters":9200,"station_id":"st_d2ngiaodas8pm72gd1h0","pricing_plan_id":"cebpf4jnsgd1na2vs0mg"},{"bike_id":"7d2f250a-191b-441d-876b-7325dd6245a6","system_id":"levelo_inurba_marseille","lat":43.25001,"lon":5.38916,"is_reserved":false,"is_disabled":false,"rental_uris":{"android":"levelo://app?vid=7d2f250a-191b-441d-876b-7325dd6245a6","ios":"levelo://app?vid=7d2f250a-191b-441d-876b-7325dd6245a6"},"vehicle_type_id":"4","last_reported":1768883771,"current_range_meters":9200,"station_id":"ce4bhgp2rcd13ifvqfd0","pricing_plan_id":"cebpf4jnsgd1na2vs0mg"},{"bike_id":"4ca32394-f8f1-4623-8df9-31249aca63fc","system_id":"levelo_inurba_marseille","lat":43.23179,"lon":5.39984,"is_reserved":false,"is_disabled":false,"rental_uris":{"android":"levelo://app?vid=4ca32394-f8f1-4623-8df9-31249aca63fc","ios":"levelo://app?vid=4ca32394-f8f1-4623-8df9-31249aca63fc"},"vehicle_type_id":"4","last_reported":1768883771,"current_range_meters":9200,"station_id":"ce4bhn12rcd13ifvqgqg","pricing_plan_id":"cebpf4jnsgd1na2vs0mg"},{"bike_id":"350a79a1-2120-443a-849c-814a0e198d1b","system_id":"levelo_inurba_marseille","lat":43.25534,"lon":5.37681,"is_reserved":false,"is_disabled":false,"rental_uris":{"android":"levelo://app?vid=350a79a1-2120-443a-849c-814a0e198d1b","ios":"levelo://app?vid=350a79a1-2120-443a-849c-814a0e198d1b"},"vehicle_type_id":"4","last_reported":1768883771,"current_range_meters":9200,"station_id":"","pricing_plan_id":"cebpf4jnsgd1na2vs0mg"},{"bike_id":"c766203c-fe51-459b-bf74-dd6b3df74629","system_id":"levelo_inurba_marseille","lat":43.23197,"lon":5.39979,"is_reserved":false,"is_disabled":false,"rental_uris":{"android":"levelo://app?vid=c766203c-fe51-459b-bf74-dd6b3df74629","ios":"levelo://app?vid=c766203c-fe51-459b-bf74-dd6b3df74629"},"vehicle_type_id":"4","last_reported":1768883771,"current_range_meters":9200,"station_id":"ce4bhn12rcd13ifvqgqg","pricing_plan_id":"cebpf4jnsgd1na2vs0mg"},{"bike_id":"35eb0f0f-42a8-4fd5-956e-bec6aa3f7ee3","system_id":"levelo_inurba_marseille","lat":43.231864,"lon":5.400019,"is_reserved":false,"is_disabled":false,"rental_uris":{"android":"levelo://app?vid=35eb0f0f-42a8-4fd5-956e-bec6aa3f7ee3","ios":"levelo://app?vid=35eb0f0f-42a8-4fd5-956e-bec6aa3f7ee3"},"vehicle_type_id":"4","last_reported":1768883771,"current_range_meters":9200,"station_id":"ce4bhn12rcd13ifvqgqg","pricing_plan_id":"cebpf4jnsgd1na2vs0mg"},{"bike_id":"e775e37a-88b9-408c-8364-888bc63e91d3","system_id":"levelo_inurba_marseille","lat":43.24395,"lon":5.37073,"is_reserved":false,"is_disabled":false,"rental_uris":{"android":"levelo://app?vid=e775e37a-88b9-408c-8364-888bc63e91d3","ios":"levelo://app?vid=e775e37a-88b9-408c-8364-888bc63e91d3"},"vehicle_type_id":"4","last_reported":1768883771,"current_range_meters":9200,"station_id":"ce4bhhh2rcd13ifvqfk0","pricing_plan_id":"cebpf4jnsgd1na2vs0mg"},{"bike_id":"140ef66f-1809-4aa9-ae41-2cb54192576b","system_id":"levelo_inurba_marseille","lat":43.3052,"lon":5.36523,"is_reserved":false,"is_disabled":false,"rental_uris":{"android":"levelo://app?vid=140ef66f-1809-4aa9-ae41-2cb54192576b","ios":"levelo://app?vid=140ef66f-1809-4aa9-ae41-2cb54192576b"},"vehicle_type_id":"4","last_reported":1768883771,"current_range_meters":9200,"station_id":"ce4bgs12rcd13ifvqcag","pricing_plan_id":"cebpf4jnsgd1na2vs0mg"},{"bike_id":"ce65da15-5103-4c08-86e5-b4783ea2b238","system_id":"levelo_inurba_marseille","lat":43.29313,"lon":5.37181,"is_reserved":false,"is_disabled":false,"rental_uris":{"android":"levelo://app?vid=ce65da15-5103-4c08-86e5-b4783ea2b238","ios":"levelo://app?vid=ce65da15-5103-4c08-86e5-b4783ea2b238"},"vehicle_type_id":"4","last_reported":1768883771,"current_range_meters":9200,"station_id":"ce4bgh92rcd13ifvqb40","pricing_plan_id":"cebpf4jnsgd1na2vs0mg"},{"bike_id":"f345bf10-703d-4789-8ba8-4f9a7db97dc2","system_id":"levelo_inurba_marseille","lat":43.29885,"lon":5.39723,"is_reserved":false,"is_disabled":false,"rental_uris":{"android":"levelo://app?vid=f345bf10-703d-4789-8ba8-4f9a7db97dc2","ios":"levelo://app?vid=f345bf10-703d-4789-8ba8-4f9a7db97dc2"},"vehicle_type_id":"4","last_reported":1768883771,"current_range_meters":9200,"station_id":"ce4bh0h2rcd13ifvqd50","pricing_plan_id":"cebpf4jnsgd1na2vs0mg"},{"bike_id":"c9632c24-d4ba-453f-a643-952c5a012a8a","system_id":"levelo_inurba_marseille","lat":43.22566,"lon":5.41632,"is_reserved":false,"is_disabled":false,"rental_uris":{"android":"levelo://app?vid=c9632c24-d4ba-453f-a643-952c5a012a8a","ios":"levelo://app?vid=c9632c24-d4ba-453f-a643-952c5a012a8a"},"vehicle_type_id":"4","last_reported":1768883771,"current_range_meters":9600,"station_id":"st_d2o4gvlbi1j2169b742g","pricing_plan_id":"cebpf4jnsgd1na2vs0mg"},{"bike_id":"39a52642-404d-4701-8673-889262efc09b","system_id":"levelo_inurba_marseille","lat":43.30328,"lon":5.40437,"is_reserved":false,"is_disabled":false,"rental_uris":{"android":"levelo://app?vid=39a52642-404d-4701-8673-889262efc09b","ios":"levelo://app?vid=39a52642-404d-4701-8673-889262efc09b"},"vehicle_type_id":"4","last_reported":1768883771,"current_range_meters":9600,"station_id":"ce4bh012rcd13ifvqd10","pricing_plan_id":"cebpf4jnsgd1na2vs0mg"},{"bike_id":"21463ebe-85fd-4ba6-a61f-3d41c75a1911","system_id":"levelo_inurba_marseille","lat":43.31096,"lon":5.37744,"is_reserved":false,"is_disabled":false,"rental_uris":{"android":"levelo://app?vid=21463ebe-85fd-4ba6-a61f-3d41c75a1911","ios":"levelo://app?vid=21463ebe-85fd-4ba6-a61f-3d41c75a1911"},"vehicle_type_id":"4","last_reported":1768883771,"current_range_meters":9600,"station_id":"ce4bgt92rcd13ifvqcg0","pricing_plan_id":"cebpf4jnsgd1na2vs0mg"},{"bike_id":"c648ce05-faa1-4b25-b283-bb371b3c83ac","system_id":"levelo_inurba_marseille","lat":43.28899,"lon":5.38193,"is_reserved":false,"is_disabled":false,"rental_uris":{"android":"levelo://app?vid=c648ce05-faa1-4b25-b283-bb371b3c83ac","ios":"levelo://app?vid=c648ce05-faa1-4b25-b283-bb371b3c83ac"},"vehicle_type_id":"4","last_reported":1768883771,"current_range_meters":9600,"station_id":"","pricing_plan_id":"cebpf4jnsgd1na2vs0mg"},{"bike_id":"ddc940e6-8976-48cb-b5fe-aaf170a35bda","system_id":"levelo_inurba_marseille","lat":43.279906,"lon":5.416638,"is_reserved":false,"is_disabled":false,"rental_uris":{"android":"levelo://app?vid=ddc940e6-8976-48cb-b5fe-aaf170a35bda","ios":"levelo://app?vid=ddc940e6-8976-48cb-b5fe-aaf170a35bda"},"vehicle_type_id":"4","last_reported":1768883771,"current_range_meters":9600,"station_id":"ce4bho12rcd13ifvqh1g","pricing_plan_id":"cebpf4jnsgd1na2vs0mg"},