{"last_updated":1726474371,"ttl":30,"version":"2.2","data":{"bikes":[{"bike_id":"d66dddba-8df1-4f06-bb27-e2c9c7bd447e","system_id":"levelo_inurba_marseille","lat":43.30471,"lon":5.37928,"is_reserved":false,"is_disabled":false,"rental_uris":{"android":"levelo://app?vid=d66dddba-8df1-4f06-bb27-e2c9c7bd447e","ios":"levelo://app?vid=d66dddba-8df1-4f06-bb27-e2c9c7bd447e"},"vehicle_type_id":"4","last_reported":1726474371,"current_range_meters":38800,"station_id":"ce4bgup2rcd13ifvqcn0","pricing_plan_id":"cebpf4jnsgd1na2vs0mg"},{"bike_id":"2251ec2c-c99e-4854-ae0e-c7ddfba2f82e","system_id":"levelo_inurba_marseille","lat":43.31081,"lon":5.4244,"is_reserved":false,"is_disabled":false,"rental_uris":{"android":"levelo://app?vid=2251ec2c-c99e-4854-ae0e-c7ddfba2f82e","ios":"levelo://app?vid=2251ec2c-c99e-4854-ae0e-c7ddfba2f82e"},"vehicle_type_id":"4","last_reported":1726474371,"current_range_meters":27600,"station_id":"ce4bhp92rcd13ifvqhag","pricing_plan_id":"cebpf4jnsgd1na2vs0mg"},{"bike_id":"402cdd76-7cba-43c1-a35d-f5c70722646f","system_id":"levelo_inurba_marseille","lat":43.28276,"lon":5.35064,"is_reserved":false,"is_disabled":false,"rental_uris":{"android":"levelo://app?vid=402cdd76-7cba-43c1-a35d-f5c70722646f","ios":"levelo://app?vid=402cdd76-7cba-43c1-a35d-f5c70722646f"},"vehicle_type_id":"4","last_reported":1726474371,"current_range_meters":3200,"station_id":"ce4bhbp2rcd13ifvqerg","pricing_plan_id":"cebpf4jnsgd1na2vs0mg"},{"bike_id":"2e3ba5c1-38d6-4f14-b26b-55d0838c2cf7","system_id":"levelo_inurba_marseille","lat":43.29854,"lon":5.36283,"is_reserved":false,"is_disabled":false,"rental_uris":{"android":"levelo://app?vid=2e3ba5c1-38d6-4f14-b26b-55d0838c2cf7","ios":"levelo://app?vid=2e3ba5c1-38d6-4f14-b26b-55d0838c2cf7"},"vehicle_type_id":"4","last_reported":1726474371,"current_range_meters":34800,"station_id":"ce4bgpp2rcd13ifvqc3g","pricing_plan_id":"cebpf4jnsgd1na2vs0mg"},{"bike_id":"23a85296-0e05-465d-8c60-2533b332185a","system_id":"levelo_inurba_marseille","lat":43.28724,"lon":5.37942,"is_reserved":false,"is_disabled":false,"rental_uris":{"android":"levelo://app?vid=23a85296-0e05-465d-8c60-2533b332185a","ios":"levelo://app?vid=23a85296-0e05-465d-8c60-2533b332185a"},"vehicle_type_id":"4","last_reported":1726474371,"current_range_meters":40000,"station_id":"ce4bh9p2rcd13ifvqec0","pricing_plan_id":"cebpf4jnsgd1na2vs0mg"},{"bike_id":"6c05122d-13cb-47b4-b822-049b96e5922a","system_id":"levelo_inurba_marseille","lat":43.31358,"lon":5.36704,"is_reserved":false,"is_disabled":false,"rental_uris":{"android":"levelo://app?vid=6c05122d-13cb-47b4-b822-049b96e5922a","ios":"levelo://app?vid=6c05122d-13cb-47b4-b822-049b96e5922a"},"vehicle_type_id":"4","last_reported":1726474371,"current_range_meters":23200,"station_id":"ce4bgr92rcd13ifvqc6g","pricing_plan_id":"cebpf4jnsgd1na2vs0mg"},{"bike_id":"48a82de2-7872-40cb-b1bf-43e70b76834b","system_id":"levelo_inurba_marseille","lat":43.31294,"lon":5.37812,"is_reserved":false,"is_disabled":false,"rental_uris":{"android":"levelo://app?vid=48a82de2-7872-40cb-b1bf-43e70b76834b","ios":"levelo://app?vid=48a82de2-7872-40cb-b1bf-43e70b76834b"},"vehicle_type_id":"4","last_reported":1726474371,"current_range_meters":30400,"station_id":"","pricing_plan_id":"cebpf4jnsgd1na2vs0mg"},{"bike_id":"dbcac64b-23d5-4ed1-b3a2-1ac46e6ecbc2","system_id":"levelo_inurba_marseille","lat":43.304602,"lon":5.379144,"is_reserved":false,"is_disabled":false,"rental_uris":{"android":"levelo://app?vid=dbcac64b-23d5-4ed1-b3a2-1ac46e6ecbc2","ios":"levelo://app?vid=dbcac64b-23d5-4ed1-b3a2-1ac46e6ecbc2"},"vehicle_type_id":"4","last_reported":1726474371,"current_range_meters":38000,"station_id":"ce4bgup2rcd13ifvqcn0","pricing_plan_id":"cebpf4jnsgd1na2vs0mg"},{"bike_id":"f39416b3-59e3-4809-bfdd-0e0d87ecd086","system_id":"levelo_inurba_marseille","lat":43.287031,"lon":5.373654,"is_reserved":false,"is_disabled":false,"rental_uris":{"android":"levelo://app?vid=f39416b3-59e3-4809-bfdd-0e0d87ecd086","ios":"levelo://app?vid=f39416b3-59e3-4809-bfdd-0e0d87ecd086"},"vehicle_type_id":"4","last_reported":1726474371,"current_range_meters":27200,"station_id":"ce4bh3p2rcd13ifvqdq0","pricing_plan_id":"cebpf4jnsgd1na2vs0mg"},{"bike_id":"8661cdbd-539b-4736-96ae-3b29c9f34a0b","system_id":"levelo_inurba_marseille","lat":43.24075,"lon":5.37753,"is_reserved":false,"is_disabled":false,"rental_uris":{"android":"levelo://app?vid=8661cdbd-539b-4736-96ae-3b29c9f34a0b","ios":"levelo://app?vid=8661cdbd-539b-4736-96ae-3b29c9f34a0b"},"vehicle_type_id":"4","last_reported":1726474371,"current_range_meters":4000,"station_id":"ce4bhnp2rcd13ifvqgvg","pricing_plan_id":"cebpf4jnsgd1na2vs0mg"},{"bike_id":"f71c5a6a-6336-4f0c-bb87-c555293170d8","system_id":"levelo_inurba_marseille","lat":43.30472,"lon":5.37898,"is_reserved":false,"is_disabled":false,"rental_uris":{"android":"levelo://app?vid=f71c5a6a-6336-4f0c-bb87-c555293170d8","ios":"levelo://app?vid=f71c5a6a-6336-4f0c-bb87-c555293170d8"},"vehicle_type_id":"4","last_reported":1726474371,"current_range_meters":36000,"station_id":"ce4bgup2rcd13ifvqcn0","pricing_plan_id":"cebpf4jnsgd1na2vs0mg"},{"bike_id":"b23cf016-0a0a-4065-8116-ed6e4853597f","system_id":"levelo_inurba_marseille","lat":43.22934,"lon":5.35378,"is_reserved":false,"is_disabled":false,"rental_uris":{"android":"levelo://app?vid=b23cf016-0a0a-4065-8116-ed6e4853597f","ios":"levelo://app?vid=b23cf016-0a0a-4065-8116-ed6e4853597f"},"vehicle_type_id":"4","last_reported":1726474371,"current_range_meters":34000,"station_id":"cpo3532slgdg3j2ikp40","pricing_plan_id":"cebpf4jnsgd1na2vs0mg"},{"bike_id":"399d5ca3-f4a1-4813-bcb2-424bd1414aa0","system_id":"levelo_inurba_marseille","lat":43.24078,"lon":5.37757,"is_reserved":false,"is_disabled":false,"rental_uris":{"android":"levelo://app?vid=399d5ca3-f4a1-4813-bcb2-424bd1414aa0","ios":"levelo://app?vid=399d5ca3-f4a1-4813-bcb2-424bd1414aa0"},"vehicle_type_id":"4","last_reported":1726474371,"current_range_meters":16800,"station_id":"ce4bhnp2rcd13ifvqgvg","pricing_plan_id":"cebpf4jnsgd1na2vs0mg"},{"bike_id":"7c475990-5c91-40de-8e97-2ed5070be005","system_id":"levelo_inurba_marseille","lat":43.23032,"lon":5.401,"is_reserved":false,"is_disabled":false,"rental_uris":{"android":"levelo://app?vid=7c475990-5c91-40de-8e97-2ed5070be005","ios":"levelo://app?vid=7c475990-5c91-40de-8e97-2ed5070be005"},"vehicle_type_id":"4","last_reported":1726474371,"current_range_meters":35200,"station_id":"","pricing_plan_id":"cebpf4jnsgd1na2vs0mg"},{"bike_id":"29dc0f10-2c57-400b-b070-cd99038ea032","system_id":"levelo_inurba_marseille","lat":43.23152,"lon":5.43725,"is_reserved":false,"is_disabled":false,"rental_uris":{"android":"levelo://app?vid=29dc0f10-2c57-400b-b070-cd99038ea032","ios":"levelo://app?vid=29dc0f10-2c57-400b-b070-cd99038ea032"},"vehicle_type_id":"4","last_reported":1726474371,"current_range_meters":24000,"station_id":"ce4bhmp2rcd13ifvqgog","pricing_plan_id":"cebpf4jnsgd1na2vs0mg"},{"bike_id":"13ec4916-f0ea-4897-8afc-596425b42c42","system_id":"levelo_inurba_marseille","lat":43.23194,"lon":5.35559,"is_reserved":false,"is_disabled":false,"rental_uris":{"android":"levelo://app?vid=13ec4916-f0ea-4897-8afc-596425b42c42","ios":"levelo://app?vid=13ec4916-f0ea-4897-8afc-596425b42c42"},"vehicle_type_id":"4","last_reported":1726474371,"current_range_meters":17200,"station_id":"ce4bhu92rcd13ifvqi70","pricing_plan_id":"cebpf4jnsgd1na2vs0mg"},{"bike_id":"e8549387-9deb-4f66-b733-a7cdaa0db866","system_id":"levelo_inurba_marseille","lat":43.33023,"lon":5.39039,"is_reserved":false,"is_disabled":false,"rental_uris":{"android":"levelo://app?vid=e8549387-9deb-4f66-b733-a7cdaa0db866","ios":"levelo://app?vid=e8549387-9deb-4f66-b733-a7cdaa0db866"},"vehicle_type_id":"4","last_reported":1726474371,"current_range_meters":10800,"station_id":"ce4bhr92rcd13ifvqhrg","pricing_plan_id":"cebpf4jnsgd1na2vs0mg"},{"bike_id":"bf881f84-1ceb-4933-928f-0e749e329d22","system_id":"levelo_inurba_marseille","lat":43.24084,"lon":5.37744,"is_reserved":false,"is_disabled":false,"rental_uris":{"android":"levelo://app?vid=bf881f84-1ceb-4933-928f-0e749e329d22","ios":"levelo://app?vid=bf881f84-1ceb-4933-928f-0e749e329d22"},"vehicle_type_id":"4","last_reported":1726474371,"current_range_meters":28000,"station_id":"ce4bhnp2rcd13ifvqgvg","pricing_plan_id":"cebpf4jnsgd1na2vs0mg"},{"bike_id":"5949ce40-ff52-43cb-b040-aa6e22f1a4ea","system_id":"levelo_inurba_marseille","lat":43.30466,"lon":5.37901,"is_reserved":false,"is_disabled":false,"rental_uris":{"android":"levelo://app?vid=5949ce40-ff52-43cb-b040-aa6e22f1a4ea","ios":"levelo://app?vid=5949ce40-ff52-43cb-b040-aa6e22f1a4ea"},"vehicle_type_id":"4","last_reported":1726474371,"current_range_meters":24400,"station_id":"ce4bgup2rcd13ifvqcn0","pricing_plan_id":"cebpf4jnsgd1na2vs0mg"},{"bike_id":"57b87d5c-c819-4ef6-97b0-dab8fd8c8e55","system_id":"levelo_inurba_marseille","lat":43.24083,"lon":5.37745,"is_reserved":false,"is_disabled":false,"rental_uris":{"android":"levelo://app?vid=57b87d5c-c819-4ef6-97b0-dab8fd8c8e55","ios":"levelo://app?vid=57b87d5c-c819-4ef6-97b0-dab8fd8c8e55"},"vehicle_type_id":"4","last_reported":1726474371,"current_range_meters":36800,"station_id":"ce4bhnp2rcd13ifvqgvg","pricing_plan_id":"cebpf4jnsgd1na2vs0mg"},{"bike_id":"ba5766e2-e9ff-4571-95a0-04988fd7fe6c","system_id":"levelo_inurba_marseille","lat":43.32484,"lon":5.36562,"is_reserved":false,"is_disabled":false,"rental_uris":{"android":"levelo://app?vid=ba5766e2-e9ff-4571-95a0-04988fd7fe6c","ios":"levelo://app?vid=ba5766e2-e9ff-4571-95a0-04988fd7fe6c"},"vehicle_type_id":"4","last_reported":1726474371,"current_range_meters":38000,"station_id":"ce4bhs12rcd13ifvqhvg","pricing_plan_id":"cebpf4jnsgd1na2vs0mg"},{"bike_id":"4721625d-cf54-48b5-87ba-2bbd9e031c70","system_id":"levelo_inurba_marseille","lat":43.24075,"lon":5.37759,"is_reserved":false,"is_disabled":false,"rental_uris":{"android":"levelo://app?vid=4721625d-cf54-48b5-87ba-2bbd9e031c70","ios":"levelo://app?vid=4721625d-cf54-48b5-87ba-2bbd9e031c70"},"vehicle_type_id":"4","last_reported":1726474371,"current_range_meters":29600,"station_id":"ce4bhnp2rcd13ifvqgvg","pricing_plan_id":"cebpf4jnsgd1na2vs0mg"},{"bike_id":"831dd52a-7adf-48a5-ba37-8bb767d9bc38","system_id":"levelo_inurba_marseille","lat":43.27493,"lon":5.42453,"is_reserved":false,"is_disabled":false,"rental_uris":{"android":"levelo://app?vid=831dd52a-7adf-48a5-ba37-8bb767d9bc38","ios":"levelo://app?vid=831dd52a-7adf-48a5-ba37-8bb767d9bc38"},"vehicle_type_id":"4","last_reported":1726474371,"current_range_meters":37600,"station_id":"ce4bhn92rcd13ifvqgrg","pricing_plan_id":"cebpf4jnsgd1na2vs0mg"},{"bike_id":"74c67d55-8a5f-40c9-8066-d68354718f8c","system_id":"levelo_inurba_marseille","lat":43.23192,"lon":5.35558,"is_reserved":false,"is_disabled":false,"rental_uris":{"android":"levelo://app?vid=74c67d55-8a5f-40c9-8066-d68354718f8c","ios":"levelo://app?vid=74c67d55-8a5f-40c9-8066-d68354718f8c"},"vehicle_type_id":"4","last_reported":1726474371,"current_range_meters":14400,"station_id":"ce4bhu92rcd13ifvqi70","pricing_plan_id":"cebpf4jnsgd1na2vs0mg"},{"bike_id":"26cf6a6a-6235-43b9-adfd-7ee5a73ba4c4","system_id":"levelo_inurba_marseille","lat":43.30893,"lon":5.37193,"is_reserved":false,"is_disabled":false,"rental_uris":{"android":"levelo://app?vid=26cf6a6a-6235-43b9-adfd-7ee5a73ba4c4","ios":"levelo://app?vid=26cf6a6a-6235-43b9-adfd-7ee5a73ba4c4"},"vehicle_type_id":"4","last_reported":1726474371,"current_range_meters":32800,"station_id":"ce4bguh2rcd13ifvqckg","pricing_plan_id":"cebpf4jnsgd1na2vs0mg"},{"bike_id":"347c4d00-be62-486d-946b-513151545bf3","system_id":"levelo_inurba_marseille","lat":43.24082,"lon":5.37754,"is_reserved":false,"is_disabled":false,"rental_uris":{"android":"levelo://app?vid=347c4d00-be62-486d-946b-513151545bf3","ios":"levelo://app?vid=347c4d00-be62-486d-946b-513151545bf3"},"vehicle_type_id":"4","last_reported":1726474371,"current_range_meters":24000,"station_id":"ce4bhnp2rcd13ifvqgvg","pricing_plan_id":"cebpf4jnsgd1na2vs0mg"},{"bike_id":"abed3885-d33d-469f-be3f-0a340877ea7b","system_id":"levelo_inurba_marseille","lat":43.30151,"lon":5.38086,"is_reserved":false,"is_disabled":false,"rental_uris":{"android":"levelo://app?vid=abed3885-d33d-469f-be3f-0a340877ea7b","ios":"levelo://app?vid=abed3885-d33d-469f-be3f-0a340877ea7b"},"vehicle_type_id":"4","last_reported":1726474371,"current_range_meters":22800,"station_id":"ce4bgjp2rcd13ifvqbh0","pricing_plan_id":"cebpf4jnsgd1na2vs0mg"},{"bike_id":"1f502a85-50c7-49be-a8fd-ba6156c001aa","system_id":"levelo_inurba_marseille","lat":43.31355,"lon":5.36721,"is_reserved":false,"is_disabled":false,"rental_uris":{"android":"levelo://app?vid=1f502a85-50c7-49be-a8fd-ba6156c001aa","ios":"levelo://app?vid=1f502a85-50c7-49be-a8fd-ba6156c001aa"},"vehicle_type_id":"4","last_reported":1726474371,"current_range_meters":34800,"station_id":"ce4bgr92rcd13ifvqc6g","pricing_plan_id":"cebpf4jnsgd1na2vs0mg"},{"bike_id":"212c501b-a753-4c1a-ba0c-b560582af171","system_id":"levelo_inurba_marseille","lat":43.29564,"lon":5.42289,"is_reserved":false,"is_disabled":false,"rental_uris":{"android":"levelo://app?vid=212c501b-a753-4c1a-ba0c-b560582af171","ios":"levelo://app?vid=212c501b-a753-4c1a-ba0c-b560582af171"},"vehicle_type_id":"4","last_reported":1726474371,"current_range_meters":28800,"station_id":"ce4bhph2rcd13ifvqhdg","pricing_plan_id":"cebpf4jnsgd1na2vs0mg"},{"bike_id":"7cfcff24-fc87-4f86-a01a-fcaf09b6b441","system_id":"levelo_inurba_marseille","lat":43.25495,"lon":5.37656,"is_reserved":false,"is_disabled":false,"rental_uris":{"android":"levelo://app?vid=7cfcff24-fc87-4f86-a01a-fcaf09b6b441","ios":"levelo://app?vid=7cfcff24-fc87-4f86-a01a-fcaf09b6b441"},"vehicle_type_id":"4","last_reported":1726474371,"current_range_meters":30400,"station_id":"ce4bhh12rcd13ifvqff0","pricing_plan_id":"cebpf4jnsgd1na2vs0mg"},{"bike_id":"3976eae9-3483-4309-aa46-8caeee84ae41","system_id":"levelo_inurba_marseille","lat":43.29738,"lon":5.37688,"is_reserved":false,"is_disabled":false,"rental_uris":{"android":"levelo://app?vid=3976eae9-3483-4309-aa46-8caeee84ae41","ios":"levelo://app?vid=3976eae9-3483-4309-aa46-8caeee84ae41"},"vehicle_type_id":"4","last_reported":1726474371,"current_range_meters":28800,"station_id":"ce4bgkh2rcd13ifvqbl0","pricing_plan_id":"cebpf4jnsgd1na2vs0mg"},{"bike_id":"72d5011a-6abb-4cb1-aa4c-ba38bd79d90d","system_id":"levelo_inurba_marseille","lat":43.284182,"lon":5.384315,"is_reserved":false,"is_disabled":false,"rental_uris":{"android":"levelo://app?vid=72d5011a-6abb-4cb1-aa4c-ba38bd79d90d","ios":"levelo://app?vid=72d5011a-6abb-4cb1-aa4c-ba38bd79d90d"},"vehicle_type_id":"4","last_reported":1726474371,"current_range_meters":16400,"station_id":"ce4bh512rcd13ifvqe3g","pricing_plan_id":"cebpf4jnsgd1na2vs0mg"},{"bike_id":"de926bf7-1295-43c0-8367-941524b67039","system_id":"levelo_inurba_marseille","lat":43.24077,"lon":5.37755,"is_reserved":false,"is_disabled":false,"rental_uris":{"android":"levelo://app?vid=de926bf7-1295-43c0-8367-941524b67039","ios":"levelo://app?vid=de926bf7-1295-43c0-8367-941524b67039"},"vehicle_type_id":"4","last_reported":1726474371,"current_range_meters":5600,"station_id":"ce4bhnp2rcd13ifvqgvg","pricing_plan_id":"cebpf4jnsgd1na2vs0mg"},{"bike_id":"5a849e39-0db5-4635-b6d5-e911dfb89aff","system_id":"levelo_inurba_marseille","lat":43.28571,"lon":5.39503,"is_reserved":false,"is_disabled":false,"rental_uris":{"android":"levelo://app?vid=5a849e39-0db5-4635-b6d5-e911dfb89aff","ios":"levelo://app?vid=5a849e39-0db5-4635-b6d5-e911dfb89aff"},"vehicle_type_id":"4","last_reported":1726474371,"current_range_meters":17600,"station_id":"ce4bh292rcd13ifvqdg0","pricing_plan_id":"cebpf4jnsgd1na2vs0mg"},{"bike_id":"cd225d70-6caa-40f5-b0a6-233eb91ea039","system_id":"levelo_inurba_marseille","lat":43.34094,"lon":5.39106,"is_reserved":false,"is_disabled":false,"rental_uris":{"android":"levelo://app?vid=cd225d70-6caa-40f5-b0a6-233eb91ea039","ios":"levelo://app?vid=cd225d70-6caa-40f5-b0a6-233eb91ea039"},"vehicle_type_id":"4","last_reported":1726474371,"current_range_meters":35200,"station_id":"","pricing_plan_id":"cebpf4jnsgd1na2vs0mg"},{"bike_id":"0aa75f12-c942-44d1-92b7-0b3badf3bf13","system_id":"levelo_inurba_marseille","lat":43.27494,"lon":5.42457,"is_reserved":false,"is_disabled":false,"rental_uris":{"android":"levelo://app?vid=0aa75f12-c942-44d1-92b7-0b3badf3bf13","ios":"levelo://app?vid=0aa75f12-c942-44d1-92b7-0b3badf3bf13"},"vehicle_type_id":"4","last_reported":1726474371,"current_range_meters":30400,"station_id":"ce4bhn92rcd13ifvqgrg","pricing_plan_id":"cebpf4jnsgd1na2vs0mg"},{"bike_id":"e75bdf37-6017-4dd9-8183-f2edc970ca06","system_id":"levelo_inurba_marseille","lat":43.23191,"lon":5.35557,"is_reserved":false,"is_disabled":false,"rental_uris":{"android":"levelo://app?vid=e75bdf37-6017-4dd9-8183-f2edc970ca06","ios":"levelo://app?vid=e75bdf37-6017-4dd9-8183-f2edc970ca06"},"vehicle_type_id":"4","last_reported":1726474371,"current_range_meters":36800,"station_id":"ce4bhu92rcd13ifvqi70","pricing_plan_id":"cebpf4jnsgd1na2vs0mg"},{"bike_id":"b8ae096d-0625-4a15-b0d0-1e55adea2f10","system_id":"levelo_inurba_marseille","lat":43.30903,"lon":5.36853,"is_reserved":false,"is_disabled":false,"rental_uris":{"android":"levelo://app?vid=b8ae096d-0625-4a15-b0d0-1e55adea2f10","ios":"levelo://app?vid=b8ae096d-0625-4a15-b0d0-1e55adea2f10"},"vehicle_type_id":"4","last_reported":1726474371,"current_range_meters":27200,"station_id":"ce4bgn92rcd13ifvqbvg","pricing_plan_id":"cebpf4jnsgd1na2vs0mg"},{"bike_id":"12a15066-97b8-4577-9cc3-57dd54c40f4e","system_id":"levelo_inurba_marseille","lat":43.29174,"lon":5.37163,"is_reserved":false,"is_disabled":false,"rental_uris":{"android":"levelo://app?vid=12a15066-97b8-4577-9cc3-57dd54c40f4e","ios":"levelo://app?vid=12a15066-97b8-4577-9cc3-57dd54c40f4e"},"vehicle_type_id":"4","last_reported":1726474371,"current_range_meters":36800,"station_id":"ce4bha92rcd13ifvqeh0","pricing_plan_id":"cebpf4jnsgd1na2vs0mg"},{"bike_id":"3e1bed70-23ec-4e39-aac3-29d1cd5e655c","system_id":"levelo_inurba_marseille","lat":43.29791,"lon":5.38125,"is_reserved":false,"is_disabled":false,"rental_uris":{"android":"levelo://app?vid=3e1bed70-23ec-4e39-aac3-29d1cd5e655c","ios":"levelo://app?vid=3e1bed70-23ec-4e39-aac3-29d1cd5e655c"},"vehicle_type_id":"4","last_reported":1726474371,"current_range_meters":36000,"station_id":"ce4bgip2rcd13ifvqbb0","pricing_plan_id":"cebpf4jnsgd1na2vs0mg"},{"bike_id":"519b8719-4413-4907-95e6-c423974a1da9","system_id":"levelo_inurba_marseille","lat":43.30466,"lon":5.37909,"is_reserved":false,"is_disabled":false,"rental_uris":{"android":"levelo://app?vid=519b8719-4413-4907-95e6-c423974a1da9","ios":"levelo://app?vid=519b8719-4413-4907-95e6-c423974a1da9"},"vehicle_type_id":"4","last_reported":1726474371,"current_range_meters":36400,"station_id":"ce4bgup2rcd13ifvqcn0","pricing_plan_id":"cebpf4jnsgd1na2vs0mg"},{"bike_id":"09d590c0-3a63-4093-8a46-e43fdbed6022","system_id":"levelo_inurba_marseille","lat":43.23151,"lon":5.43718,"is_reserved":false,"is_disabled":false,"rental_uris":{"android":"levelo://app?vid=09d590c0-3a63-4093-8a46-e43fdbed6022","ios":"levelo://app?vid=09d590c0-3a63-4093-8a46-e43fdbed6022"},"vehicle_type_id":"4","last_reported":1726474371,"current_range_meters":16400,"station_id":"ce4bhmp2rcd13ifvqgog","pricing_plan_id":"cebpf4jnsgd1na2vs0mg"},{"bike_id":"b4abe33d-fa1e-4e9d-aa66-dfff93f37cdc","system_id":"levelo_inurba_marseille","lat":43.26948,"lon":5.38633,"is_reserved":false,"is_disabled":false,"rental_uris":{"android":"levelo://app?vid=b4abe33d-fa1e-4e9d-aa66-dfff93f37cdc","ios":"levelo://app?vid=b4abe33d-fa1e-4e9d-aa66-dfff93f37cdc"},"vehicle_type_id":"4","last_reported":1726474371,"current_range_meters":38400,"station_id":"ce4bhh92rcd13ifvqfh0","pricing_plan_id":"cebpf4jnsgd1na2vs0mg"},{"bike_id":"be25fcd9-3799-4df8-bc23-1b59426b40b4","system_id":"levelo_inurba_marseille","lat":43.26608,"lon":5.37916,"is_reserved":false,"is_disabled":false,"rental_uris":{"android":"levelo://app?vid=be25fcd9-3799-4df8-bc23-1b59426b40b4","ios":"levelo://app?vid=be25fcd9-3799-4df8-bc23-1b59426b40b4"},"vehicle_type_id":"4","last_reported":1726474371,"current_range_meters":29600,"station_id":"ce4bhnp2rcd13ifvqgvg","pricing_plan_id":"cebpf4jnsgd1na2vs0mg"},{"bike_id":"b16e7411-15d1-4824-8f6d-5bfb987cbd53","system_id":"levelo_inurba_marseille","lat":43.26686,"lon":5.38276,"is_reserved":false,"is_disabled":false,"rental_uris":{"android":"levelo://app?vid=b16e7411-15d1-4824-8f6d-5bfb987cbd53","ios":"levelo://app?vid=b16e7411-15d1-4824-8f6d-5bfb987cbd53"},"vehicle_type_id":"4","last_reported":1726474371,"current_range_meters":2800,"station_id":"ce4bhg92rcd13ifvqf90","pricing_plan_id":"cebpf4jnsgd1na2vs0mg"},{"bike_id":"89fc692e-d80f-4316-8959-5ac50a6a4d07","system_id":"levelo_inurba_marseille","lat":43.26948,"lon":5.40248,"is_reserved":false,"is_disabled":false,"rental_uris":{"android":"levelo://app?vid=89fc692e-d80f-4316-8959-5ac50a6a4d07","ios":"levelo://app?vid=89fc692e-d80f-4316-8959-5ac50a6a4d07"},"vehicle_type_id":"4","last_reported":1726474371,"current_range_meters":33600,"station_id":"cjm6bp8fraef2m0cb0m0","pricing_plan_id":"cebpf4jnsgd1na2vs0mg"},{"bike_id":"4baa530e-2dc3-4195-9f58-94970d3e2534","system_id":"levelo_inurba_marseille","lat":43.265565,"lon":5.372785,"is_reserved":false,"is_disabled":false,"rental_uris":{"android":"levelo://app?vid=4baa530e-2dc3-4195-9f58-94970d3e2534","ios":"levelo://app?vid=4baa530e-2dc3-4195-9f58-94970d3e2534"},"vehicle_type_id":"4","last_reported":1726474371,"current_range_meters":17200,"station_id":"ce4bhg12rcd13ifvqf70","pricing_plan_id":"cebpf4jnsgd1na2vs0mg"},{"bike_id":"3b7172c5-1ed3-4a2e-84bc-ff50641c119e","system_id":"levelo_inurba_marseille","lat":43.30145,"lon":5.3742,"is_reserved":false,"is_disabled":false,"rental_uris":{"android":"levelo://app?vid=3b7172c5-1ed3-4a2e-84bc-ff50641c119e","ios":"levelo://app?vid=3b7172c5-1ed3-4a2e-84bc-ff50641c119e"},"vehicle_type_id":"4","last_reported":1726474371,"current_range_meters":38800,"station_id":"ce4bgs92rcd13ifvqcc0","pricing_plan_id":"cebpf4jnsgd1na2vs0mg"},{"bike_id":"78ce8ec1-09aa-4c40-b31a-1edf999a6219","system_id":"levelo_inurba_marseille","lat":43.29843,"lon":5.3627,"is_reserved":false,"is_disabled":false,"rental_uris":{"android":"levelo://app?vid=78ce8ec1-09aa-4c40-b31a-1edf999a6219","ios":"levelo://app?vid=78ce8ec1-09aa-4c40-b31a-1edf999a6219"},"vehicle_type_id":"4","last_reported":1726474371,"current_range_meters":22800,"station_id":"ce4bgpp2rcd13ifvqc3g","pricing_plan_id":"cebpf4jnsgd1na2vs0mg"},{"bike_id":"45e684ad-b81b-48c3-b25a-d1d6fa50f78d","system_id":"levelo_inurba_marseille","lat":43.26684,"lon":5.38266,"is_reserved":false,"is_disabled":false,"rental_uris":{"android":"levelo://app?vid=45e684ad-b81b-48c3-b25a-d1d6fa50f78d","ios":"levelo://app?vid=45e684ad-b81b-48c3-b25a-d1d6fa50f78d"},"vehicle_type_id":"4","last_reported":1726474371,"current_range_meters":30000,"station_id":"ce4bhg92rcd13ifvqf90","pricing_plan_id":"cebpf4jnsgd1na2vs0mg"},{"bike_id":"47b91095-5ba8-4a6c-aa9c-0350d707dda9","system_id":"levelo_inurba_marseille","lat":43.28727,"lon":5.3794,"is_reserved":false,"is_disabled":false,"rental_uris":{"android":"levelo://app?vid=47b91095-5ba8-4a6c-aa9c-0350d707dda9","ios":"levelo://app?vid=47b91095-5ba8-4a6c-aa9c-0350d707dda9"},"vehicle_type_id":"4","last_reported":1726474371,"current_range_meters":37600,"station_id":"ce4bh9p2rcd13ifvqec0","pricing_plan_id":"cebpf4jnsgd1na2vs0mg"},{"bike_id":"f6de159d-4c6c-4425-84f5-9282f9227f7c","system_id":"levelo_inurba_marseille","lat":43.33731,"lon":5.37459,"is_reserved":false,"is_disabled":false,"rental_uris":{"android":"levelo://app?vid=f6de159d-4c6c-4425-84f5-9282f9227f7c","ios":"levelo://app?vid=f6de159d-4c6c-4425-84f5-9282f9227f7c"},"vehicle_type_id":"4","last_reported":1726474371,"current_range_meters":38000,"station_id":"","pricing_plan_id":"cebpf4jnsgd1na2vs0mg"},{"bike_id":"75598a79-9792-4be4-99b7-99e694daa8dd","system_id":"levelo_inurba_marseille","lat":43.276101,"lon":5.361032,"is_reserved":false,"is_disabled":false,"rental_uris":{"android":"levelo://app?vid=75598a79-9792-4be4-99b7-99e694daa8dd","ios":"levelo://app?vid=75598a79-9792-4be4-99b7-99e694daa8dd"},"vehicle_type_id":"4","last_reported":1726474371,"current_range_meters":22400,"station_id":"ce4bgj92rcd13ifvqbe0","pricing_plan_id":"cebpf4jnsgd1na2vs0mg"},{"bike_id":"79c79963-63a8-46d5-b335-f0780c338991","system_id":"levelo_inurba_marseille","lat":43.28357,"lon":5.38107,"is_reserved":false,"is_disabled":false,"rental_uris":{"android":"levelo://app?vid=79c79963-63a8-46d5-b335-f0780c338991","ios":"levelo://app?vid=79c79963-63a8-46d5-b335-f0780c338991"},"vehicle_type_id":"4","last_reported":1726474371,"current_range_meters":23200,"station_id":"ce4bh412rcd13ifvqdr0","pricing_plan_id":"cebpf4jnsgd1na2vs0mg"},{"bike_id":"b9698a86-1ec3-4eed-ac6f-4fc5121a02f0","system_id":"levelo_inurba_marseille","lat":43.30549,"lon":5.36703,"is_reserved":false,"is_disabled":false,"rental_uris":{"android":"levelo://app?vid=b9698a86-1ec3-4eed-ac6f-4fc5121a02f0","ios":"levelo://app?vid=b9698a86-1ec3-4eed-ac6f-4fc5121a02f0"},"vehicle_type_id":"4","last_reported":1726474371,"current_range_meters":8000,"station_id":"ce4bgrp2rcd13ifvqc9g","pricing_plan_id":"cebpf4jnsgd1na2vs0mg"},{"bike_id":"f79ff168-7c1f-43a6-9a48-819ae1e3b151","system_id":"levelo_inurba_marseille","lat":43.24076,"lon":5.3775,"is_reserved":false,"is_disabled":false,"rental_uris":{"android":"levelo://app?vid=f79ff168-7c1f-43a6-9a48-819ae1e3b151","ios":"levelo://app?vid=f79ff168-7c1f-43a6-9a48-819ae1e3b151"},"vehicle_type_id":"4","last_reported":1726474371,"current_range_meters":8400,"station_id":"ce4bhnp2rcd13ifvqgvg","pricing_plan_id":"cebpf4jnsgd1na2vs0mg"},{"bike_id":"2e3fa3c1-55aa-4e86-bd3e-7bdc4a6b47ac","system_id":"levelo_inurba_marseille","lat":43.27499,"lon":5.42458,"is_reserved":false,"is_disabled":false,"rental_uris":{"android":"levelo://app?vid=2e3fa3c1-55aa-4e86-bd3e-7bdc4a6b47ac","ios":"levelo://app?vid=2e3fa3c1-55aa-4e86-bd3e-7bdc4a6b47ac"},"vehicle_type_id":"4","last_reported":1726474371,"current_range_meters":33600,"station_id":"ce4bhn92rcd13ifvqgrg","pricing_plan_id":"cebpf4jnsgd1na2vs0mg"},{"bike_id":"a036541e-7ac3-4a9c-ac5b-c2376dce0ae7","system_id":"levelo_inurba_marseille","lat":43.28362,"lon":5.38104,"is_reserved":false,"is_disabled":false,"rental_uris":{"android":"levelo://app?vid=a036541e-7ac3-4a9c-ac5b-c2376dce0ae7","ios":"levelo://app?vid=a036541e-7ac3-4a9c-ac5b-c2376dce0ae7"},"vehicle_type_id":"4","last_reported":1726474371,"current_range_meters":22400,"station_id":"ce4bh412rcd13ifvqdr0","pricing_plan_id":"cebpf4jnsgd1na2vs0mg"},{"bike_id":"d15bcab0-96f2-4c93-bd73-89788bf15dbb","system_id":"levelo_inurba_marseille","lat":43.32481,"lon":5.36563,"is_reserved":false,"is_disabled":false,"rental_uris":{"android":"levelo://app?vid=d15bcab0-96f2-4c93-bd73-89788bf15dbb","ios":"levelo://app?vid=d15bcab0-96f2-4c93-bd73-89788bf15dbb"},"vehicle_type_id":"4","last_reported":1726474371,"current_range_meters":30000,"station_id":"ce4bhs12rcd13ifvqhvg","pricing_plan_id":"cebpf4jnsgd1na2vs0mg"},{"bike_id":"0722f48e-022b-45d8-884d-08e67b9146db","system_id":"levelo_inurba_marseille","lat":43.31997,"lon":5.38162,"is_reserved":false,"is_disabled":false,"rental_uris":{"android":"levelo://app?vid=0722f48e-022b-45d8-884d-08e67b9146db","ios":"levelo://app?vid=0722f48e-022b-45d8-884d-08e67b9146db"},"vehicle_type_id":"4","last_reported":1726474371,"current_range_meters":19600,"station_id":"ce4bhr12rcd13ifvqhpg","pricing_plan_id":"cebpf4jnsgd1na2vs0mg"},{"bike_id":"13fdb722-2ea5-4063-bbf8-8e3830014be1","system_id":"levelo_inurba_marseille","lat":43.2594,"lon":5.40904,"is_reserved":false,"is_disabled":false,"rental_uris":{"android":"levelo://app?vid=13fdb722-2ea5-4063-bbf8-8e3830014be1","ios":"levelo://app?vid=13fdb722-2ea5-4063-bbf8-8e3830014be1"},"vehicle_type_id":"4","last_reported":1726474371,"current_range_meters":14400,"station_id":"ce4bhm92rcd13ifvqglg","pricing_plan_id":"cebpf4jnsgd1na2vs0mg"},{"bike_id":"8467fa1b-8acf-4d04-a337-e4e4709a185b","system_id":"levelo_inurba_marseille","lat":43.23152,"lon":5.43723,"is_reserved":false,"is_disabled":false,"rental_uris":{"android":"levelo://app?vid=8467fa1b-8acf-4d04-a337-e4e4709a185b","ios":"levelo://app?vid=8467fa1b-8acf-4d04-a337-e4e4709a185b"},"vehicle_type_id":"4","last_reported":1726474371,"current_range_meters":36800,"station_id":"ce4bhmp2rcd13ifvqgog","pricing_plan_id":"cebpf4jnsgd1na2vs0mg"},{"bike_id":"cbacf406-e04e-4215-8caa-3e92b3069462","system_id":"levelo_inurba_marseille","lat":43.24076,"lon":5.37755,"is_reserved":false,"is_disabled":false,"rental_uris":{"android":"levelo://app?vid=cbacf406-e04e-4215-8caa-3e92b3069462","ios":"levelo://app?vid=cbacf406-e04e-4215-8caa-3e92b3069462"},"vehicle_type_id":"4","last_reported":1726474371,"current_range_meters":36800,"station_id":"ce4bhnp2rcd13ifvqgvg","pricing_plan_id":"cebpf4jnsgd1na2vs0mg"},{"bike_id":"e5f00a14-dff4-44a8-93db-b62a037fe306","system_id":"levelo_inurba_marseille","lat":43.30552,"lon":5.36703,"is_reserved":false,"is_disabled":false,"rental_uris":{"android":"levelo://app?vid=e5f00a14-dff4-44a8-93db-b62a037fe306","ios":"levelo://app?vid=e5f00a14-dff4-44a8-93db-b62a037fe306"},"vehicle_type_id":"4","last_reported":1726474371,"current_range_meters":26000,"station_id":"ce4bgrp2rcd13ifvqc9g","pricing_plan_id":"cebpf4jnsgd1na2vs0mg"},{"bike_id":"d0516b95-8ecb-43c8-b44b-3a518c942beb","system_id":"levelo_inurba_marseille","lat":43.25004,"lon":5.38924,"is_reserved":false,"is_disabled":false,"rental_uris":{"android":"levelo://app?vid=d0516b95-8ecb-43c8-b44b-3a518c942beb","ios":"levelo://app?vid=d0516b95-8ecb-43c8-b44b-3a518c942beb"},"vehicle_type_id":"4","last_reported":1726474371,"current_range_meters":32400,"station_id":"ce4bhgp2rcd13ifvqfd0","pricing_plan_id":"cebpf4jnsgd1na2vs0mg"},{"bike_id":"5a0a2ff0-59a8-452a-94a5-150c70d86bb2","system_id":"levelo_inurba_marseille","lat":43.24547,"lon":5.3953,"is_reserved":false,"is_disabled":false,"rental_uris":{"android":"levelo://app?vid=5a0a2ff0-59a8-452a-94a5-150c70d86bb2","ios":"levelo://app?vid=5a0a2ff0-59a8-452a-94a5-150c70d86bb2"},"vehicle_type_id":"4","last_reported":1726474371,"current_range_meters":19600,"station_id":"ce4bhlp2rcd13ifvqgjg","pricing_plan_id":"cebpf4jnsgd1na2vs0mg"},{"bike_id":"9e65d539-6c66-44a3-a08b-39d6eded0d67","system_id":"levelo_inurba_marseille","lat":43.29379,"lon":5.37864,"is_reserved":false,"is_disabled":false,"rental_uris":{"android":"levelo://app?vid=9e65d539-6c66-44a3-a08b-39d6eded0d67","ios":"levelo://app?vid=9e65d539-6c66-44a3-a08b-39d6eded0d67"},"vehicle_type_id":"4","last_reported":1726474371,"current_range_meters":38400,"station_id":"ce4bgjh2rcd13ifvqbf0","pricing_plan_id":"cebpf4jnsgd1na2vs0mg"},{"bike_id":"9bc64dcb-de81-40e6-a29b-9269116d9d31","system_id":"levelo_inurba_marseille","lat":43.25829,"lon":5.39443,"is_reserved":false,"is_disabled":false,"rental_uris":{"android":"levelo://app?vid=9bc64dcb-de81-40e6-a29b-9269116d9d31","ios":"levelo://app?vid=9bc64dcb-de81-40e6-a29b-9269116d9d31"},"vehicle_type_id":"4","last_reported":1726474371,"current_range_meters":38800,"station_id":"ce4bhip2rcd13ifvqft0","pricing_plan_id":"cebpf4jnsgd1na2vs0mg"},{"bike_id":"26db0265-0a91-4c66-8aa8-67a94f7eef0d","system_id":"levelo_inurba_marseille","lat":43.26937,"lon":5.40049,"is_reserved":false,"is_disabled":false,"rental_uris":{"android":"levelo://app?vid=26db0265-0a91-4c66-8aa8-67a94f7eef0d","ios":"levelo://app?vid=26db0265-0a91-4c66-8aa8-67a94f7eef0d"},"vehicle_type_id":"4","last_reported":1726474371,"current_range_meters":6000,"station_id":"","pricing_plan_id":"cebpf4jnsgd1na2vs0mg"},{"bike_id":"7e09cfc8-acc0-40a6-95a5-90a7f4709cc0","system_id":"levelo_inurba_marseille","lat":43.29218,"lon":5.36064,"is_reserved":false,"is_disabled":false,"rental_uris":{"android":"levelo://app?vid=7e09cfc8-acc0-40a6-95a5-90a7f4709cc0","ios":"levelo://app?vid=7e09cfc8-acc0-40a6-95a5-90a7f4709cc0"},"vehicle_type_id":"4","last_reported":1726474371,"current_range_meters":35200,"station_id":"ce4bhbh2rcd13ifvqeqg","pricing_plan_id":"cebpf4jnsgd1na2vs0mg"},{"bike_id":"ef224e2f-1b00-42a5-bc18-222af109bf7c","system_id":"levelo_inurba_marseille","lat":43.30148,"lon":5.37428,"is_reserved":false,"is_disabled":false,"rental_uris":{"android":"levelo://app?vid=ef224e2f-1b00-42a5-bc18-222af109bf7c","ios":"levelo://app?vid=ef224e2f-1b00-42a5-bc18-222af109bf7c"},"vehicle_type_id":"4","last_reported":1726474371,"current_range_meters":28800,"station_id":"ce4bgs92rcd13ifvqcc0","pricing_plan_id":"cebpf4jnsgd1na2vs0mg"},{"bike_id":"ae8e8cf7-81be-4014-b876-75573e4c8bb0","system_id":"levelo_inurba_marseille","lat":43.29219,"lon":5.36069,"is_reserved":false,"is_disabled":false,"rental_uris":{"android":"levelo://app?vid=ae8e8cf7-81be-4014-b876-75573e4c8bb0","ios":"levelo://app?vid=ae8e8cf7-81be-4014-b876-75573e4c8bb0"},"vehicle_type_id":"4","last_reported":1726474371,"current_range_meters":26000,"station_id":"ce4bhbh2rcd13ifvqeqg","pricing_plan_id":"cebpf4jnsgd1na2vs0mg"},{"bike_id":"b6ec5df3-1607-4730-b326-a448fb5df6d2","system_id":"levelo_inurba_marseille","lat":43.31353,"lon":5.36709,"is_reserved":false,"is_disabled":false,"rental_uris":{"android":"levelo://app?vid=b6ec5df3-1607-4730-b326-a448fb5df6d2","ios":"levelo://app?vid=b6ec5df3-1607-4730-b326-a448fb5df6d2"},"vehicle_type_id":"4","last_reported":1726474371,"current_range_meters":20800,"station_id":"ce4bgr92rcd13ifvqc6g","pricing_plan_id":"cebpf4jnsgd1na2vs0mg"},{"bike_id":"ef858472-caee-4283-8efb-4c9cba39b509","system_id":"levelo_inurba_marseille","lat":43.29615,"lon":5.37733,"is_reserved":false,"is_disabled":false,"rental_uris":{"android":"levelo://app?vid=ef858472-caee-4283-8efb-4c9cba39b509","ios":"levelo://app?vid=ef858472-caee-4283-8efb-4c9cba39b509"},"vehicle_type_id":"4","last_reported":1726474371,"current_range_meters":6400,"station_id":"ce4bgi92rcd13ifvqb90","pricing_plan_id":"cebpf4jnsgd1na2vs0mg"},{"bike_id":"8cb592d9-f82f-4171-894f-8d7ffa6525e5","system_id":"levelo_inurba_marseille","lat":43.232,"lon":5.35547,"is_reserved":false,"is_disabled":false,"rental_uris":{"android":"levelo://app?vid=8cb592d9-f82f-4171-894f-8d7ffa6525e5","ios":"levelo://app?vid=8cb592d9-f82f-4171-894f-8d7ffa6525e5"},"vehicle_type_id":"4","last_reported":1726474371,"current_range_meters":25600,"station_id":"ce4bhu92rcd13ifvqi70","pricing_plan_id":"cebpf4jnsgd1na2vs0mg"},{"bike_id":"79752fd1-c487-410d-a206-6bc206b43c4f","system_id":"levelo_inurba_marseille","lat":43.30145,"lon":5.37416,"is_reserved":false,"is_disabled":false,"rental_uris":{"android":"levelo://app?vid=79752fd1-c487-410d-a206-6bc206b43c4f","ios":"levelo://app?vid=79752fd1-c487-410d-a206-6bc206b43c4f"},"vehicle_type_id":"4","last_reported":1726474371,"current_range_meters":12800,"station_id":"ce4bgs92rcd13ifvqcc0","pricing_plan_id":"cebpf4jnsgd1na2vs0mg"},{"bike_id":"7bc7fe3c-4367-4ee6-9cce-9c63586e2c2c","system_id":"levelo_inurba_marseille","lat":43.31342,"lon":5.36723,"is_reserved":false,"is_disabled":false,"rental_uris":{"android":"levelo://app?vid=7bc7fe3c-4367-4ee6-9cce-9c63586e2c2c","ios":"levelo://app?vid=7bc7fe3c-4367-4ee6-9cce-9c63586e2c2c"},"vehicle_type_id":"4","last_reported":1726474371,"current_range_meters":19200,"station_id":"ce4bgr92rcd13ifvqc6g","pricing_plan_id":"cebpf4jnsgd1na2vs0mg"},{"bike_id":"bef8c51a-7016-432f-9556-8f959c58d2e9","system_id":"levelo_inurba_marseille","lat":43.31354,"lon":5.36716,"is_reserved":false,"is_disabled":false,"rental_uris":{"android":"levelo://app?vid=bef8c51a-7016-432f-9556-8f959c58d2e9","ios":"levelo://app?vid=bef8c51a-7016-432f-9556-8f959c58d2e9"},"vehicle_type_id":"4","last_reported":1726474371,"current_range_meters":11600,"station_id":"ce4bgr92rcd13ifvqc6g","pricing_plan_id":"cebpf4jnsgd1na2vs0mg"},{"bike_id":"7861d110-425b-4fa7-90ad-db8dc904e41e","system_id":"levelo_inurba_marseille","lat":43.33609,"lon":5.41022,"is_reserved":false,"is_disabled":false,"rental_uris":{"android":"levelo://app?vid=7861d110-425b-4fa7-90ad-db8dc904e41e","ios":"levelo://app?vid=7861d110-425b-4fa7-90ad-db8dc904e41e"},"vehicle_type_id":"4","last_reported":1726474371,"current_range_meters":22800,"station_id":"ce4bhqh2rcd13ifvqhmg","pricing_plan_id":"cebpf4jnsgd1na2vs0mg"},{"bike_id":"35a1320d-9a70-47d2-a0b0-494340d7b236","system_id":"levelo_inurba_marseille","lat":43.26217,"lon":5.39702,"is_reserved":false,"is_disabled":false,"rental_uris":{"android":"levelo://app?vid=35a1320d-9a70-47d2-a0b0-494340d7b236","ios":"levelo://app?vid=35a1320d-9a70-47d2-a0b0-494340d7b236"},"vehicle_type_id":"4","last_reported":1726474371,"current_range_meters":30800,"station_id":"ce4bhl92rcd13ifvqghg","pricing_plan_id":"cebpf4jnsgd1na2vs0mg"},{"bike_id":"f4e21541-cfe5-494b-b62b-57b811b05280","system_id":"levelo_inurba_marseille","lat":43.24081,"lon":5.37751,"is_reserved":false,"is_disabled":false,"rental_uris":{"android":"levelo://app?vid=f4e21541-cfe5-494b-b62b-57b811b05280","ios":"levelo://app?vid=f4e21541-cfe5-494b-b62b-57b811b05280"},"vehicle_type_id":"4","last_reported":1726474371,"current_range_meters":30400,"station_id":"ce4bhnp2rcd13ifvqgvg","pricing_plan_id":"cebpf4jnsgd1na2vs0mg"},{"bike_id":"23af3e5f-c4dd-433e-9385-25485af76f31","system_id":"levelo_inurba_marseille","lat":43.32483,"lon":5.36566,"is_reserved":false,"is_disabled":false,"rental_uris":{"android":"levelo://app?vid=23af3e5f-c4dd-433e-9385-25485af76f31","ios":"levelo://app?vid=23af3e5f-c4dd-433e-9385-25485af76f31"},"vehicle_type_id":"4","last_reported":1726474371,"current_range_meters":20000,"station_id":"ce4bhs12rcd13ifvqhvg","pricing_plan_id":"cebpf4jnsgd1na2vs0mg"},{"bike_id":"9c25d7f9-3117-44f1-acec-713cdafffebf","system_id":"levelo_inurba_marseille","lat":43.34141,"lon":5.40915,"is_reserved":false,"is_disabled":false,"rental_uris":{"android":"levelo://app?vid=9c25d7f9-3117-44f1-acec-713cdafffebf","ios":"levelo://app?vid=9c25d7f9-3117-44f1-acec-713cdafffebf"},"vehicle_type_id":"4","last_reported":1726474371,"current_range_meters":34000,"station_id":"ce4bhqh2rcd13ifvqhlg","pricing_plan_id":"cebpf4jnsgd1na2vs0mg"},{"bike_id":"8f979555-d0d6-4c8f-9fce-0747a350b182","system_id":"levelo_inurba_marseille","lat":43.28715,"lon":5.37947,"is_reserved":false,"is_disabled":false,"rental_uris":{"android":"levelo://app?vid=8f979555-d0d6-4c8f-9fce-0747a350b182","ios":"levelo://app?vid=8f979555-d0d6-4c8f-9fce-0747a350b182"},"vehicle_type_id":"4","last_reported":1726474371,"current_range_meters":36800,"station_id":"ce4bh9p2rcd13ifvqec0","pricing_plan_id":"cebpf4jnsgd1na2vs0mg"},{"bike_id":"ee61d895-0129-4f56-b53c-6162a3381582","system_id":"levelo_inurba_marseille","lat":43.32549,"lon":5.41437,"is_reserved":false,"is_disabled":false,"rental_uris":{"android":"levelo://app?vid=ee61d895-0129-4f56-b53c-6162a3381582","ios":"levelo://app?vid=ee61d895-0129-4f56-b53c-6162a3381582"},"vehicle_type_id":"4","last_reported":1726474371,"current_range_meters":27600,"station_id":"ce4bhq12rcd13ifvqhhg","pricing_plan_id":"cebpf4jnsgd1na2vs0mg"},{"bike_id":"b1db6496-7d7b-4acc-a88c-e5406d38e100","system_id":"levelo_inurba_marseille","lat":43.23191,"lon":5.35552,"is_reserved":false,"is_disabled":false,"rental_uris":{"android":"levelo://app?vid=b1db6496-7d7b-4acc-a88c-e5406d38e100","ios":"levelo://app?vid=b1db6496-7d7b-4acc-a88c-e5406d38e100"},"vehicle_type_id":"4","last_reported":1726474371,"current_range_meters":32800,"station_id":"ce4bhu92rcd13ifvqi70","pricing_plan_id":"cebpf4jnsgd1na2vs0mg"},{"bike_id":"96709300-0211-4b29-8fad-153835142d8f","system_id":"levelo_inurba_marseille","lat":43.27498,"lon":5.42449,"is_reserved":false,"is_disabled":false,"rental_uris":{"android":"levelo://app?vid=96709300-0211-4b29-8fad-153835142d8f","ios":"levelo://app?vid=96709300-0211-4b29-8fad-153835142d8f"},"vehicle_type_id":"4","last_reported":1726474371,"current_range_meters":28000,"station_id":"ce4bhn92rcd13ifvqgrg","pricing_plan_id":"cebpf4jnsgd1na2vs0mg"},{"bike_id":"ee721f16-71d0-49c8-9da4-858f78b55bcb","system_id":"levelo_inurba_marseille","lat":43.25948,"lon":5.40905,"is_reserved":false,"is_disabled":false,"rental_uris":{"android":"levelo://app?vid=ee721f16-71d0-49c8-9da4-858f78b55bcb","ios":"levelo://app?vid=ee721f16-71d0-49c8-9da4-858f78b55bcb"},"vehicle_type_id":"4","last_reported":1726474371,"current_range_meters":21600,"station_id":"ce4bhm92rcd13ifvqglg","pricing_plan_id":"cebpf4jnsgd1na2vs0mg"},{"bike_id":"58ad92c2-082a-47a4-869d-70b15ab6c444","system_id":"levelo_inurba_marseille","lat":43.26688,"lon":5.3827,"is_reserved":false,"is_disabled":false,"rental_uris":{"android":"levelo://app?vid=58ad92c2-082a-47a4-869d-70b15ab6c444","ios":"levelo://app?vid=58ad92c2-082a-47a4-869d-70b15ab6c444"},"vehicle_type_id":"4","last_reported":1726474371,"current_range_meters":15200,"station_id":"ce4bhg92rcd13ifvqf90","pricing_plan_id":"cebpf4jnsgd1na2vs0mg"},{"bike_id":"673c1b5e-9443-4dc4-bb54-52e29ea0abc7","system_id":"levelo_inurba_marseille","lat":43.2315,"lon":5.43733,"is_reserved":false,"is_disabled":false,"rental_uris":{"android":"levelo://app?vid=673c1b5e-9443-4dc4-bb54-52e29ea0abc7","ios":"levelo://app?vid=673c1b5e-9443-4dc4-bb54-52e29ea0abc7"},"vehicle_type_id":"4","last_reported":1726474371,"current_range_meters":25600,"station_id":"ce4bhmp2rcd13ifvqgog","pricing_plan_id":"cebpf4jnsgd1na2vs0mg"},{"bike_id":"5cf4c2f1-f092-4550-b8cf-369099ebc3bc","system_id":"levelo_inurba_marseille","lat":43.24563,"lon":5.41552,"is_reserved":false,"is_disabled":false,"rental_uris":{"android":"levelo://app?vid=5cf4c2f1-f092-4550-b8cf-369099ebc3bc","ios":"levelo://app?vid=5cf4c2f1-f092-4550-b8cf-369099ebc3bc"},"vehicle_type_id":"4","last_reported":1726474371,"current_range_meters":9200,"station_id":"ce4bhlh2rcd13ifvqgig","pricing_plan_id":"cebpf4jnsgd1na2vs0mg"},{"bike_id":"49630cfd-2369-4ecd-9ab1-a39878c6fb40","system_id":"levelo_inurba_marseille","lat":43.28719,"lon":5.37938,"is_reserved":false,"is_disabled":false,"rental_uris":{"android":"levelo://app?vid=49630cfd-2369-4ecd-9ab1-a39878c6fb40","ios":"levelo://app?vid=49630cfd-2369-4ecd-9ab1-a39878c6fb40"},"vehicle_type_id":"4","last_reported":1726474371,"current_range_meters":36400,"station_id":"ce4bh9p2rcd13ifvqec0","pricing_plan_id":"cebpf4jnsgd1na2vs0mg"},{"bike_id":"4721e0a5-8c0a-4c61-91fb-10c3ba183135","system_id":"levelo_inurba_marseille","lat":43.24079,"lon":5.3776,"is_reserved":false,"is_disabled":false,"rental_uris":{"android":"levelo://app?vid=4721e0a5-8c0a-4c61-91fb-10c3ba183135","ios":"levelo://app?vid=4721e0a5-8c0a-4c61-91fb-10c3ba183135"},"vehicle_type_id":"4","last_reported":1726474371,"current_range_meters":9600,"station_id":"ce4bhnp2rcd13ifvqgvg","pricing_plan_id":"cebpf4jnsgd1na2vs0mg"},{"bike_id":"738dc884-b3f0-4c47-a6a6-5399037f42a5","system_id":"levelo_inurba_marseille","lat":43.28723,"lon":5.37947,"is_reserved":false,"is_disabled":false,"rental_uris":{"android":"levelo://app?vid=738dc884-b3f0-4c47-a6a6-5399037f42a5","ios":"levelo://app?vid=738dc884-b3f0-4c47-a6a6-5399037f42a5"},"vehicle_type_id":"4","last_reported":1726474371,"current_range_meters":31200,"station_id":"ce4bh9p2rcd13ifvqec0","pricing_plan_id":"cebpf4jnsgd1na2vs0mg"},{"bike_id":"85b9015c-5ee0-4712-a4c3-64ded6187dea","system_id":"levelo_inurba_marseille","lat":43.24547,"lon":5.39521,"is_reserved":false,"is_disabled":false,"rental_uris":{"android":"levelo://app?vid=85b9015c-5ee0-4712-a4c3-64ded6187dea","ios":"levelo://app?vid=85b9015c-5ee0-4712-a4c3-64ded6187dea"},"vehicle_type_id":"4","last_reported":1726474371,"current_range_meters":9600,"station_id":"ce4bhlp2rcd13ifvqgjg","pricing_plan_id":"cebpf4jnsgd1na2vs0mg"},{"bike_id":"223bcd1f-bde5-46f7-ab5f-e5751f9d998e","system_id":"levelo_inurba_marseille","lat":43.3055,"lon":5.367,"is_reserved":false,"is_disabled":false,"rental_uris":{"android":"levelo://app?vid=223bcd1f-bde5-46f7-ab5f-e5751f9d998e","ios":"levelo://app?vid=223bcd1f-bde5-46f7-ab5f-e5751f9d998e"},"vehicle_type_id":"4","last_reported":1726474371,"current_range_meters":20800,"station_id":"ce4bgrp2rcd13ifvqc9g","pricing_plan_id":"cebpf4jnsgd1na2vs0mg"},{"bike_id":"b08950ba-02a0-46d4-8c68-863f0b3477e8","system_id":"levelo_inurba_marseille","lat":43.32483,"lon":5.36559,"is_reserved":false,"is_disabled":false,"rental_uris":{"android":"levelo://app?vid=b08950ba-02a0-46d4-8c68-863f0b3477e8","ios":"levelo://app?vid=b08950ba-02a0-46d4-8c68-863f0b3477e8"},"vehicle_type_id":"4","last_reported":1726474371,"current_range_meters":37600,"station_id":"ce4bhs12rcd13ifvqhvg","pricing_plan_id":"cebpf4jnsgd1na2vs0mg"},{"bike_id":"d4c0c4b1-6108-47a7-ae35-34cea5c9ebd4","system_id":"levelo_inurba_marseille","lat":43.32542,"lon":5.41452,"is_reserved":false,"is_disabled":false,"rental_uris":{"android":"levelo://app?vid=d4c0c4b1-6108-47a7-ae35-34cea5c9ebd4","ios":"levelo://app?vid=d4c0c4b1-6108-47a7-ae35-34cea5c9ebd4"},"vehicle_type_id":"4","last_reported":1726474371,"current_range_meters":27200,"station_id":"ce4bhq12rcd13ifvqhhg","pricing_plan_id":"cebpf4jnsgd1na2vs0mg"},{"bike_id":"b645ac77-0d58-4fa9-8ad3-947af8bdb1d9","system_id":"levelo_inurba_marseille","lat":43.299,"lon":5.43658,"is_reserved":false,"is_disabled":false,"rental_uris":{"android":"levelo://app?vid=b645ac77-0d58-4fa9-8ad3-947af8bdb1d9","ios":"levelo://app?vid=b645ac77-0d58-4fa9-8ad3-947af8bdb1d9"},"vehicle_type_id":"4","last_reported":1726474371,"current_range_meters":29600,"station_id":"ce4bhpp2rcd13ifvqhfg","pricing_plan_id":"cebpf4jnsgd1na2vs0mg"},{"bike_id":"03515e55-0de8-4f6d-953a-abbf71a9cce4","system_id":"levelo_inurba_marseille","lat":43.24075,"lon":5.37758,"is_reserved":false,"is_disabled":false,"rental_uris":{"android":"levelo://app?vid=03515e55-0de8-4f6d-953a-abbf71a9cce4","ios":"levelo://app?vid=03515e55-0de8-4f6d-953a-abbf71a9cce4"},"vehicle_type_id":"4","last_reported":1726474371,"current_range_meters":12000,"station_id":"ce4bhnp2rcd13ifvqgvg","pricing_plan_id":"cebpf4jnsgd1na2vs0mg"},{"bike_id":"207b02ad-e408-471a-b11e-a1585f32eb31","system_id":"levelo_inurba_marseille","lat":43.289734,"lon":5.378414,"is_reserved":false,"is_disabled":false,"rental_uris":{"android":"levelo://app?vid=207b02ad-e408-471a-b11e-a1585f32eb31","ios":"levelo://app?vid=207b02ad-e408-471a-b11e-a1585f32eb31"},"vehicle_type_id":"4","last_reported":1726474371,"current_range_meters":7200,"station_id":"ce4bh9p2rcd13ifvqed0","pricing_plan_id":"cebpf4jnsgd1na2vs0mg"},{"bike_id":"45315653-cae3-4101-b0d6-68b28af2d1ce","system_id":"levelo_inurba_marseille","lat":43.28709,"lon":5.39982,"is_reserved":false,"is_disabled":false,"rental_uris":{"android":"levelo://app?vid=45315653-cae3-4101-b0d6-68b28af2d1ce","ios":"levelo://app?vid=45315653-cae3-4101-b0d6-68b28af2d1ce"},"vehicle_type_id":"4","last_reported":1726474371,"current_range_meters":16800,"station_id":"ce4bho92rcd13ifvqh3g","pricing_plan_id":"cebpf4jnsgd1na2vs0mg"},{"bike_id":"8e04ad42-4fb7-46a5-8bdd-901fc987436f","system_id":"levelo_inurba_marseille","lat":43.31021,"lon":5.38068,"is_reserved":false,"is_disabled":false,"rental_uris":{"android":"levelo://app?vid=8e04ad42-4fb7-46a5-8bdd-901fc987436f","ios":"levelo://app?vid=8e04ad42-4fb7-46a5-8bdd-901fc987436f"},"vehicle_type_id":"4","last_reported":1726474371,"current_range_meters":34800,"station_id":"","pricing_plan_id":"cebpf4jnsgd1na2vs0mg"},{"bike_id":"cd0265d7-5b93-4c0e-801d-d933c5cf6fe5","system_id":"levelo_inurba_marseille","lat":43.29227,"lon":5.36069,"is_reserved":false,"is_disabled":false,"rental_uris":{"android":"levelo://app?vid=cd0265d7-5b93-4c0e-801d-d933c5cf6fe5","ios":"levelo://app?vid=cd0265d7-5b93-4c0e-801d-d933c5cf6fe5"},"vehicle_type_id":"4","last_reported":1726474371,"current_range_meters":28400,"station_id":"ce4bhbh2rcd13ifvqeqg","pricing_plan_id":"cebpf4jnsgd1na2vs0mg"},{"bike_id":"eb0ae831-7c34-4786-8c18-b1a24fd069cb","system_id":"levelo_inurba_marseille","lat":43.31348,"lon":5.36717,"is_reserved":false,"is_disabled":false,"rental_uris":{"android":"levelo://app?vid=eb0ae831-7c34-4786-8c18-b1a24fd069cb","ios":"levelo://app?vid=eb0ae831-7c34-4786-8c18-b1a24fd069cb"},"vehicle_type_id":"4","last_reported":1726474371,"current_range_meters":19600,"station_id":"ce4bgr92rcd13ifvqc6g","pricing_plan_id":"cebpf4jnsgd1na2vs0mg"},{"bike_id":"7abc2a25-404a-4f70-a7c0-c89315b5c4bc","system_id":"levelo_inurba_marseille","lat":43.29237,"lon":5.39944,"is_reserved":false,"is_disabled":false,"rental_uris":{"android":"levelo://app?vid=7abc2a25-404a-4f70-a7c0-c89315b5c4bc","ios":"levelo://app?vid=7abc2a25-404a-4f70-a7c0-c89315b5c4bc"},"vehicle_type_id":"4","last_reported":1726474371,"current_range_meters":27600,"station_id":"","pricing_plan_id":"cebpf4jnsgd1na2vs0mg"},{"bike_id":"a5306699-aa7b-4204-b727-7976ba1e747b","system_id":"levelo_inurba_marseille","lat":43.25935,"lon":5.40915,"is_reserved":false,"is_disabled":false,"rental_uris":{"android":"levelo://app?vid=a5306699-aa7b-4204-b727-7976ba1e747b","ios":"levelo://app?vid=a5306699-aa7b-4204-b727-7976ba1e747b"},"vehicle_type_id":"4","last_reported":1726474371,"current_range_meters":36000,"station_id":"ce4bhm92rcd13ifvqglg","pricing_plan_id":"cebpf4jnsgd1na2vs0mg"},{"bike_id":"a7ecd9db-1a38-4e10-86f1-89622c55a8f6","system_id":"levelo_inurba_marseille","lat":43.28466,"lon":5.38432,"is_reserved":false,"is_disabled":false,"rental_uris":{"android":"levelo://app?vid=a7ecd9db-1a38-4e10-86f1-89622c55a8f6","ios":"levelo://app?vid=a7ecd9db-1a38-4e10-86f1-89622c55a8f6"},"vehicle_type_id":"4","last_reported":1726474371,"current_range_meters":39200,"station_id":"ce4bh512rcd13ifvqe3g","pricing_plan_id":"cebpf4jnsgd1na2vs0mg"},{"bike_id":"677498c9-746b-4650-9a8e-2c7479635944","system_id":"levelo_inurba_marseille","lat":43.33022,"lon":5.3905,"is_reserved":false,"is_disabled":false,"rental_uris":{"android":"levelo://app?vid=677498c9-746b-4650-9a8e-2c7479635944","ios":"levelo://app?vid=677498c9-746b-4650-9a8e-2c7479635944"},"vehicle_type_id":"4","last_reported":1726474371,"current_range_meters":28000,"station_id":"ce4bhr92rcd13ifvqhrg","pricing_plan_id":"cebpf4jnsgd1na2vs0mg"},{"bike_id":"0c5268db-dfe0-4430-9479-92a45a7e6162","system_id":"levelo_inurba_marseille","lat":43.29381,"lon":5.37863,"is_reserved":false,"is_disabled":false,"rental_uris":{"android":"levelo://app?vid=0c5268db-dfe0-4430-9479-92a45a7e6162","ios":"levelo://app?vid=0c5268db-dfe0-4430-9479-92a45a7e6162"},"vehicle_type_id":"4","last_reported":1726474371,"current_range_meters":38400,"station_id":"ce4bgjh2rcd13ifvqbf0","pricing_plan_id":"cebpf4jnsgd1na2vs0mg"},{"bike_id":"3f5b63b5-9f49-4a52-a4be-0b706a026622","system_id":"levelo_inurba_marseille","lat":43.3302,"lon":5.39039,"is_reserved":false,"is_disabled":false,"rental_uris":{"android":"levelo://app?vid=3f5b63b5-9f49-4a52-a4be-0b706a026622","ios":"levelo://app?vid=3f5b63b5-9f49-4a52-a4be-0b706a026622"},"vehicle_type_id":"4","last_reported":1726474371,"current_range_meters":39200,"station_id":"ce4bhr92rcd13ifvqhrg","pricing_plan_id":"cebpf4jnsgd1na2vs0mg"},{"bike_id":"7e84a3ad-b6e2-47cb-a879-414e01b71399","system_id":"levelo_inurba_marseille","lat":43.27496,"lon":5.42449,"is_reserved":false,"is_disabled":false,"rental_uris":{"android":"levelo://app?vid=7e84a3ad-b6e2-47cb-a879-414e01b71399","ios":"levelo://app?vid=7e84a3ad-b6e2-47cb-a879-414e01b71399"},"vehicle_type_id":"4","last_reported":1726474371,"current_range_meters":36800,"station_id":"ce4bhn92rcd13ifvqgrg","pricing_plan_id":"cebpf4jnsgd1na2vs0mg"},{"bike_id":"4c5a207f-988e-4661-bba5-2b3c0a5349c9","system_id":"levelo_inurba_marseille","lat":43.29576,"lon":5.39964,"is_reserved":false,"is_disabled":false,"rental_uris":{"android":"levelo://app?vid=4c5a207f-988e-4661-bba5-2b3c0a5349c9","ios":"levelo://app?vid=4c5a207f-988e-4661-bba5-2b3c0a5349c9"},"vehicle_type_id":"4","last_reported":1726474371,"current_range_meters":28400,"station_id":"ce4bh312rcd13ifvqdj0","pricing_plan_id":"cebpf4jnsgd1na2vs0mg"},{"bike_id":"e7822cab-f620-407a-8b43-c1e54a63c3a7","system_id":"levelo_inurba_marseille","lat":43.29045,"lon":5.39968,"is_reserved":false,"is_disabled":false,"rental_uris":{"android":"levelo://app?vid=e7822cab-f620-407a-8b43-c1e54a63c3a7","ios":"levelo://app?vid=e7822cab-f620-407a-8b43-c1e54a63c3a7"},"vehicle_type_id":"4","last_reported":1726474371,"current_range_meters":8400,"station_id":"ce4bh392rcd13ifvqdm0","pricing_plan_id":"cebpf4jnsgd1na2vs0mg"},{"bike_id":"a3d0c5f5-3775-49be-aba5-48b65b48b5d2","system_id":"levelo_inurba_marseille","lat":43.25,"lon":5.38931,"is_reserved":false,"is_disabled":false,"rental_uris":{"android":"levelo://app?vid=a3d0c5f5-3775-49be-aba5-48b65b48b5d2","ios":"levelo://app?vid=a3d0c5f5-3775-49be-aba5-48b65b48b5d2"},"vehicle_type_id":"4","last_reported":1726474371,"current_range_meters":30000,"station_id":"ce4bhgp2rcd13ifvqfd0","pricing_plan_id":"cebpf4jnsgd1na2vs0mg"},{"bike_id":"05128204-7475-4978-ada7-4b9b3aaae58e","system_id":"levelo_inurba_marseille","lat":43.24668,"lon":5.38168,"is_reserved":false,"is_disabled":false,"rental_uris":{"android":"levelo://app?vid=05128204-7475-4978-ada7-4b9b3aaae58e","ios":"levelo://app?vid=05128204-7475-4978-ada7-4b9b3aaae58e"},"vehicle_type_id":"4","last_reported":1726474371,"current_range_meters":38800,"station_id":"ce4bhih2rcd13ifvqfr0","pricing_plan_id":"cebpf4jnsgd1na2vs0mg"},{"bike_id":"30426e05-5dfb-42da-81ed-0e7fe0847d8d","system_id":"levelo_inurba_marseille","lat":43.30565,"lon":5.36533,"is_reserved":false,"is_disabled":false,"rental_uris":{"android":"levelo://app?vid=30426e05-5dfb-42da-81ed-0e7fe0847d8d","ios":"levelo://app?vid=30426e05-5dfb-42da-81ed-0e7fe0847d8d"},"vehicle_type_id":"4","last_reported":1726474371,"current_range_meters":35200,"station_id":"ce4bgs12rcd13ifvqcag","pricing_plan_id":"cebpf4jnsgd1na2vs0mg"},{"bike_id":"8f733da8-974b-48c5-991b-191ad38cc2ec","system_id":"levelo_inurba_marseille","lat":43.25122,"lon":5.40315,"is_reserved":false,"is_disabled":false,"rental_uris":{"android":"levelo://app?vid=8f733da8-974b-48c5-991b-191ad38cc2ec","ios":"levelo://app?vid=8f733da8-974b-48c5-991b-191ad38cc2ec"},"vehicle_type_id":"4","last_reported":1726474371,"current_range_meters":40000,"station_id":"ce4bhlh2rcd13ifvqgig","pricing_plan_id":"cebpf4jnsgd1na2vs0mg"},{"bike_id":"d026a83b-f22d-4a8c-b2f2-7730a6b16272","system_id":"levelo_inurba_marseille","lat":43.23153,"lon":5.43722,"is_reserved":false,"is_disabled":false,"rental_uris":{"android":"levelo://app?vid=d026a83b-f22d-4a8c-b2f2-7730a6b16272","ios":"levelo://app?vid=d026a83b-f22d-4a8c-b2f2-7730a6b16272"},"vehicle_type_id":"4","last_reported":1726474371,"current_range_meters":6000,"station_id":"ce4bhmp2rcd13ifvqgog","pricing_plan_id":"cebpf4jnsgd1na2vs0mg"},{"bike_id":"38128036-4bb0-4b63-8898-9b90658f870c","system_id":"levelo_inurba_marseille","lat":43.29046,"lon":5.39957,"is_reserved":false,"is_disabled":false,"rental_uris":{"android":"levelo://app?vid=38128036-4bb0-4b63-8898-9b90658f870c","ios":"levelo://app?vid=38128036-4bb0-4b63-8898-9b90658f870c"},"vehicle_type_id":"4","last_reported":1726474371,"current_range_meters":28000,"station_id":"ce4bh392rcd13ifvqdm0","pricing_plan_id":"cebpf4jnsgd1na2vs0mg"},{"bike_id":"34d94a26-ec93-4e8d-a6c6-3d558ea2d4e4","system_id":"levelo_inurba_marseille","lat":43.25941,"lon":5.40902,"is_reserved":false,"is_disabled":false,"rental_uris":{"android":"levelo://app?vid=34d94a26-ec93-4e8d-a6c6-3d558ea2d4e4","ios":"levelo://app?vid=34d94a26-ec93-4e8d-a6c6-3d558ea2d4e4"},"vehicle_type_id":"4","last_reported":1726474371,"current_range_meters":18000,"station_id":"ce4bhm92rcd13ifvqglg","pricing_plan_id":"cebpf4jnsgd1na2vs0mg"},{"bike_id":"4b2ba85a-29ad-44c1-a157-f219369e26f8","system_id":"levelo_inurba_marseille","lat":43.27499,"lon":5.42454,"is_reserved":false,"is_disabled":false,"rental_uris":{"android":"levelo://app?vid=4b2ba85a-29ad-44c1-a157-f219369e26f8","ios":"levelo://app?vid=4b2ba85a-29ad-44c1-a157-f219369e26f8"},"vehicle_type_id":"4","last_reported":1726474371,"current_range_meters":35600,"station_id":"ce4bhn92rcd13ifvqgrg","pricing_plan_id":"cebpf4jnsgd1na2vs0mg"},{"bike_id":"99684f50-b398-427b-a4e9-7ca0a0382c79","system_id":"levelo_inurba_marseille","lat":43.23198,"lon":5.35551,"is_reserved":false,"is_disabled":false,"rental_uris":{"android":"levelo://app?vid=99684f50-b398-427b-a4e9-7ca0a0382c79","ios":"levelo://app?vid=99684f50-b398-427b-a4e9-7ca0a0382c79"},"vehicle_type_id":"4","last_reported":1726474371,"current_range_meters":40000,"station_id":"ce4bhu92rcd13ifvqi70","pricing_plan_id":"cebpf4jnsgd1na2vs0mg"},{"bike_id":"3ba6f9c8-b20c-46f3-9d99-2d3426b186bb","system_id":"levelo_inurba_marseille","lat":43.2926,"lon":5.38434,"is_reserved":false,"is_disabled":false,"rental_uris":{"android":"levelo://app?vid=3ba6f9c8-b20c-46f3-9d99-2d3426b186bb","ios":"levelo://app?vid=3ba6f9c8-b20c-46f3-9d99-2d3426b186bb"},"vehicle_type_id":"4","last_reported":1726474371,"current_range_meters":10800,"station_id":"ce4bh392rcd13ifvqdl0","pricing_plan_id":"cebpf4jnsgd1na2vs0mg"},{"bike_id":"0f808d02-6df2-4fb7-b534-a56f3c6d6147","system_id":"levelo_inurba_marseille","lat":43.32492,"lon":5.36564,"is_reserved":false,"is_disabled":false,"rental_uris":{"android":"levelo://app?vid=0f808d02-6df2-4fb7-b534-a56f3c6d6147","ios":"levelo://app?vid=0f808d02-6df2-4fb7-b534-a56f3c6d6147"},"vehicle_type_id":"4","last_reported":1726474371,"current_range_meters":32000,"station_id":"ce4bhs12rcd13ifvqhvg","pricing_plan_id":"cebpf4jnsgd1na2vs0mg"},{"bike_id":"5c06497f-1680-497d-bb52-b03bd82e70e8","system_id":"levelo_inurba_marseille","lat":43.31723,"lon":5.42401,"is_reserved":false,"is_disabled":false,"rental_uris":{"android":"levelo://app?vid=5c06497f-1680-497d-bb52-b03bd82e70e8","ios":"levelo://app?vid=5c06497f-1680-497d-bb52-b03bd82e70e8"},"vehicle_type_id":"4","last_reported":1726474371,"current_range_meters":37600,"station_id":"ce4bhp92rcd13ifvqhbg","pricing_plan_id":"cebpf4jnsgd1na2vs0mg"},{"bike_id":"01289228-e32a-4fb5-b1a0-f13af088b5ba","system_id":"levelo_inurba_marseille","lat":43.31506,"lon":5.37296,"is_reserved":false,"is_disabled":false,"rental_uris":{"android":"levelo://app?vid=01289228-e32a-4fb5-b1a0-f13af088b5ba","ios":"levelo://app?vid=01289228-e32a-4fb5-b1a0-f13af088b5ba"},"vehicle_type_id":"4","last_reported":1726474371,"current_range_meters":39200,"station_id":"ce4bgt12rcd13ifvqcd0","pricing_plan_id":"cebpf4jnsgd1na2vs0mg"},{"bike_id":"7b4c1b47-f717-4b17-afb3-b677728cc8c3","system_id":"levelo_inurba_marseille","lat":43.24553,"lon":5.3953,"is_reserved":false,"is_disabled":false,"rental_uris":{"android":"levelo://app?vid=7b4c1b47-f717-4b17-afb3-b677728cc8c3","ios":"levelo://app?vid=7b4c1b47-f717-4b17-afb3-b677728cc8c3"},"vehicle_type_id":"4","last_reported":1726474371,"current_range_meters":28400,"station_id":"ce4bhlp2rcd13ifvqgjg","pricing_plan_id":"cebpf4jnsgd1na2vs0mg"},{"bike_id":"2800424a-f09d-49ff-8dba-446d56f56b06","system_id":"levelo_inurba_marseille","lat":43.29519,"lon":5.37494,"is_reserved":false,"is_disabled":false,"rental_uris":{"android":"levelo://app?vid=2800424a-f09d-49ff-8dba-446d56f56b06","ios":"levelo://app?vid=2800424a-f09d-49ff-8dba-446d56f56b06"},"vehicle_type_id":"4","last_reported":1726474371,"current_range_meters":39200,"station_id":"ce4bgkp2rcd13ifvqbmg","pricing_plan_id":"cebpf4jnsgd1na2vs0mg"},{"bike_id":"c1fcd153-5567-4765-9736-73a42ed0d935","system_id":"levelo_inurba_marseille","lat":43.33607,"lon":5.41033,"is_reserved":false,"is_disabled":false,"rental_uris":{"android":"levelo://app?vid=c1fcd153-5567-4765-9736-73a42ed0d935","ios":"levelo://app?vid=c1fcd153-5567-4765-9736-73a42ed0d935"},"vehicle_type_id":"4","last_reported":1726474371,"current_range_meters":24000,"station_id":"ce4bhqh2rcd13ifvqhmg","pricing_plan_id":"cebpf4jnsgd1na2vs0mg"},{"bike_id":"da8bc522-4b93-4ef8-8f76-bad542168828","system_id":"levelo_inurba_marseille","lat":43.26684,"lon":5.38266,"is_reserved":false,"is_disabled":false,"rental_uris":{"android":"levelo://app?vid=da8bc522-4b93-4ef8-8f76-bad542168828","ios":"levelo://app?vid=da8bc522-4b93-4ef8-8f76-bad542168828"},"vehicle_type_id":"4","last_reported":1726474371,"current_range_meters":18800,"station_id":"ce4bhg92rcd13ifvqf90","pricing_plan_id":"cebpf4jnsgd1na2vs0mg"},{"bike_id":"2b86fce5-6d0e-444e-90fd-8a49109e1def","system_id":"levelo_inurba_marseille","lat":43.27494,"lon":5.42457,"is_reserved":false,"is_disabled":false,"rental_uris":{"android":"levelo://app?vid=2b86fce5-6d0e-444e-90fd-8a49109e1def","ios":"levelo://app?vid=2b86fce5-6d0e-444e-90fd-8a49109e1def"},"vehicle_type_id":"4","last_reported":1726474371,"current_range_meters":30000,"station_id":"ce4bhn92rcd13ifvqgrg","pricing_plan_id":"cebpf4jnsgd1na2vs0mg"},{"bike_id":"0a2e1c3b-f8e0-4541-91a6-a4751989ba76","system_id":"levelo_inurba_marseille","lat":43.31357,"lon":5.36719,"is_reserved":false,"is_disabled":false,"rental_uris":{"android":"levelo://app?vid=0a2e1c3b-f8e0-4541-91a6-a4751989ba76","ios":"levelo://app?vid=0a2e1c3b-f8e0-4541-91a6-a4751989ba76"},"vehicle_type_id":"4","last_reported":1726474371,"current_range_meters":34000,"station_id":"ce4bgr92rcd13ifvqc6g","pricing_plan_id":"cebpf4jnsgd1na2vs0mg"},{"bike_id":"3eee56a4-ab86-4636-9ecf-6e5054ef407e","system_id":"levelo_inurba_marseille","lat":43.289215,"lon":5.39613,"is_reserved":false,"is_disabled":false,"rental_uris":{"android":"levelo://app?vid=3eee56a4-ab86-4636-9ecf-6e5054ef407e","ios":"levelo://app?vid=3eee56a4-ab86-4636-9ecf-6e5054ef407e"},"vehicle_type_id":"4","last_reported":1726474371,"current_range_meters":29600,"station_id":"ce4bh492rcd13ifvqdug","pricing_plan_id":"cebpf4jnsgd1na2vs0mg"},{"bike_id":"be6a7145-0791-40f8-a3e4-321fb362448d","system_id":"levelo_inurba_marseille","lat":43.27493,"lon":5.42453,"is_reserved":false,"is_disabled":false,"rental_uris":{"android":"levelo://app?vid=be6a7145-0791-40f8-a3e4-321fb362448d","ios":"levelo://app?vid=be6a7145-0791-40f8-a3e4-321fb362448d"},"vehicle_type_id":"4","last_reported":1726474371,"current_range_meters":4400,"station_id":"ce4bhn92rcd13ifvqgrg","pricing_plan_id":"cebpf4jnsgd1na2vs0mg"},{"bike_id":"52264f07-4846-4d45-acc7-5c4f3b041600","system_id":"levelo_inurba_marseille","lat":43.290313,"lon":5.378967,"is_reserved":false,"is_disabled":false,"rental_uris":{"android":"levelo://app?vid=52264f07-4846-4d45-acc7-5c4f3b041600","ios":"levelo://app?vid=52264f07-4846-4d45-acc7-5c4f3b041600"},"vehicle_type_id":"4","last_reported":1726474371,"current_range_meters":20400,"station_id":"ce4bh9p2rcd13ifvqed0","pricing_plan_id":"cebpf4jnsgd1na2vs0mg"},{"bike_id":"a94fa08f-82ce-4b49-abdb-b11aeb333e8d","system_id":"levelo_inurba_marseille","lat":43.28721,"lon":5.37937,"is_reserved":false,"is_disabled":false,"rental_uris":{"android":"levelo://app?vid=a94fa08f-82ce-4b49-abdb-b11aeb333e8d","ios":"levelo://app?vid=a94fa08f-82ce-4b49-abdb-b11aeb333e8d"},"vehicle_type_id":"4","last_reported":1726474371,"current_range_meters":36800,"station_id":"ce4bh9p2rcd13ifvqec0","pricing_plan_id":"cebpf4jnsgd1na2vs0mg"},{"bike_id":"32ac598a-0cac-4501-b01d-8057766652a7","system_id":"levelo_inurba_marseille","lat":43.27574,"lon":5.38417,"is_reserved":false,"is_disabled":false,"rental_uris":{"android":"levelo://app?vid=32ac598a-0cac-4501-b01d-8057766652a7","ios":"levelo://app?vid=32ac598a-0cac-4501-b01d-8057766652a7"},"vehicle_type_id":"4","last_reported":1726474371,"current_range_meters":38000,"station_id":"ce4bhh92rcd13ifvqfi0","pricing_plan_id":"cebpf4jnsgd1na2vs0mg"},{"bike_id":"178d26a0-641d-4bd2-b355-e6bbf632c7de","system_id":"levelo_inurba_marseille","lat":43.30549,"lon":5.36539,"is_reserved":false,"is_disabled":false,"rental_uris":{"android":"levelo://app?vid=178d26a0-641d-4bd2-b355-e6bbf632c7de","ios":"levelo://app?vid=178d26a0-641d-4bd2-b355-e6bbf632c7de"},"vehicle_type_id":"4","last_reported":1726474371,"current_range_meters":32000,"station_id":"ce4bgs12rcd13ifvqcag","pricing_plan_id":"cebpf4jnsgd1na2vs0mg"},{"bike_id":"963be3bf-c0b8-4a11-aaff-3bbb65bf021e","system_id":"levelo_inurba_marseille","lat":43.31715,"lon":5.37768,"is_reserved":false,"is_disabled":false,"rental_uris":{"android":"levelo://app?vid=963be3bf-c0b8-4a11-aaff-3bbb65bf021e","ios":"levelo://app?vid=963be3bf-c0b8-4a11-aaff-3bbb65bf021e"},"vehicle_type_id":"4","last_reported":1726474371,"current_range_meters":10800,"station_id":"ce4bgth2rcd13ifvqch0","pricing_plan_id":"cebpf4jnsgd1na2vs0mg"},{"bike_id":"ce703cb4-aa06-4ca3-9d0d-9d78109ec482","system_id":"levelo_inurba_marseille","lat":43.31253,"lon":5.3693,"is_reserved":false,"is_disabled":false,"rental_uris":{"android":"levelo://app?vid=ce703cb4-aa06-4ca3-9d0d-9d78109ec482","ios":"levelo://app?vid=ce703cb4-aa06-4ca3-9d0d-9d78109ec482"},"vehicle_type_id":"4","last_reported":1726474371,"current_range_meters":28400,"station_id":"ce4bgl92rcd13ifvqbq0","pricing_plan_id":"cebpf4jnsgd1na2vs0mg"},{"bike_id":"6ad2fe94-195b-4d58-9ac6-d3a9675a4c80","system_id":"levelo_inurba_marseille","lat":43.23063,"lon":5.3549,"is_reserved":false,"is_disabled":false,"rental_uris":{"android":"levelo://app?vid=6ad2fe94-195b-4d58-9ac6-d3a9675a4c80","ios":"levelo://app?vid=6ad2fe94-195b-4d58-9ac6-d3a9675a4c80"},"vehicle_type_id":"4","last_reported":1726474371,"current_range_meters":17200,"station_id":"cpo3342slgdg3j2ifvpg","pricing_plan_id":"cebpf4jnsgd1na2vs0mg"},{"bike_id":"6dd17a2f-59bb-4453-859d-2c09ab795824","system_id":"levelo_inurba_marseille","lat":43.33021,"lon":5.39047,"is_reserved":false,"is_disabled":false,"rental_uris":{"android":"levelo://app?vid=6dd17a2f-59bb-4453-859d-2c09ab795824","ios":"levelo://app?vid=6dd17a2f-59bb-4453-859d-2c09ab795824"},"vehicle_type_id":"4","last_reported":1726474371,"current_range_meters":37600,"station_id":"ce4bhr92rcd13ifvqhrg","pricing_plan_id":"cebpf4jnsgd1na2vs0mg"},{"bike_id":"ed395158-49bb-4ed0-a30f-caaeb4a15a1c","system_id":"levelo_inurba_marseille","lat":43.24083,"lon":5.3775,"is_reserved":false,"is_disabled":false,"rental_uris":{"android":"levelo://app?vid=ed395158-49bb-4ed0-a30f-caaeb4a15a1c","ios":"levelo://app?vid=ed395158-49bb-4ed0-a30f-caaeb4a15a1c"},"vehicle_type_id":"4","last_reported":1726474371,"current_range_meters":8800,"station_id":"ce4bhnp2rcd13ifvqgvg","pricing_plan_id":"cebpf4jnsgd1na2vs0mg"},{"bike_id":"ce06579c-1d43-4f1c-9d0b-0d6f8b4a7ff5","system_id":"levelo_inurba_marseille","lat":43.23155,"lon":5.4372,"is_reserved":false,"is_disabled":false,"rental_uris":{"android":"levelo://app?vid=ce06579c-1d43-4f1c-9d0b-0d6f8b4a7ff5","ios":"levelo://app?vid=ce06579c-1d43-4f1c-9d0b-0d6f8b4a7ff5"},"vehicle_type_id":"4","last_reported":1726474371,"current_range_meters":18800,"station_id":"ce4bhmp2rcd13ifvqgog","pricing_plan_id":"cebpf4jnsgd1na2vs0mg"},{"bike_id":"be70b63a-c764-4fe4-944c-ea7e338d1412","system_id":"levelo_inurba_marseille","lat":43.26209,"lon":5.37925,"is_reserved":false,"is_disabled":false,"rental_uris":{"android":"levelo://app?vid=be70b63a-c764-4fe4-944c-ea7e338d1412","ios":"levelo://app?vid=be70b63a-c764-4fe4-944c-ea7e338d1412"},"vehicle_type_id":"4","last_reported":1726474371,"current_range_meters":36400,"station_id":"ce4bhjp2rcd13ifvqg90","pricing_plan_id":"cebpf4jnsgd1na2vs0mg"},{"bike_id":"106f8cd4-f234-4c16-b891-2f43432485f0","system_id":"levelo_inurba_marseille","lat":43.29032,"lon":5.37552,"is_reserved":false,"is_disabled":false,"rental_uris":{"android":"levelo://app?vid=106f8cd4-f234-4c16-b891-2f43432485f0","ios":"levelo://app?vid=106f8cd4-f234-4c16-b891-2f43432485f0"},"vehicle_type_id":"4","last_reported":1726474371,"current_range_meters":10800,"station_id":"ce4bh692rcd13ifvqe90","pricing_plan_id":"cebpf4jnsgd1na2vs0mg"},{"bike_id":"1c79db96-5e4d-4cfe-b310-bde8716f7bfd","system_id":"levelo_inurba_marseille","lat":43.30546,"lon":5.36708,"is_reserved":false,"is_disabled":false,"rental_uris":{"android":"levelo://app?vid=1c79db96-5e4d-4cfe-b310-bde8716f7bfd","ios":"levelo://app?vid=1c79db96-5e4d-4cfe-b310-bde8716f7bfd"},"vehicle_type_id":"4","last_reported":1726474371,"current_range_meters":16800,"station_id":"ce4bgrp2rcd13ifvqc9g","pricing_plan_id":"cebpf4jnsgd1na2vs0mg"},{"bike_id":"68f080ad-fe6d-4d9f-9deb-bbd5b56e5f73","system_id":"levelo_inurba_marseille","lat":43.30139,"lon":5.37418,"is_reserved":false,"is_disabled":false,"rental_uris":{"android":"levelo://app?vid=68f080ad-fe6d-4d9f-9deb-bbd5b56e5f73","ios":"levelo://app?vid=68f080ad-fe6d-4d9f-9deb-bbd5b56e5f73"},"vehicle_type_id":"4","last_reported":1726474371,"current_range_meters":37600,"station_id":"ce4bgs92rcd13ifvqcc0","pricing_plan_id":"cebpf4jnsgd1na2vs0mg"},{"bike_id":"14deafc5-a716-454d-858f-d4247d57d26c","system_id":"levelo_inurba_marseille","lat":43.33608,"lon":5.41027,"is_reserved":false,"is_disabled":false,"rental_uris":{"android":"levelo://app?vid=14deafc5-a716-454d-858f-d4247d57d26c","ios":"levelo://app?vid=14deafc5-a716-454d-858f-d4247d57d26c"},"vehicle_type_id":"4","last_reported":1726474371,"current_range_meters":33600,"station_id":"ce4bhqh2rcd13ifvqhmg","pricing_plan_id":"cebpf4jnsgd1na2vs0mg"},{"bike_id":"ee96fd0b-2e8e-46a7-9a56-213f944d9ccc","system_id":"levelo_inurba_marseille","lat":43.32481,"lon":5.36562,"is_reserved":false,"is_disabled":false,"rental_uris":{"android":"levelo://app?vid=ee96fd0b-2e8e-46a7-9a56-213f944d9ccc","ios":"levelo://app?vid=ee96fd0b-2e8e-46a7-9a56-213f944d9ccc"},"vehicle_type_id":"4","last_reported":1726474371,"current_range_meters":32800,"station_id":"ce4bhs12rcd13ifvqhvg","pricing_plan_id":"cebpf4jnsgd1na2vs0mg"},{"bike_id":"354ca7f6-13a5-4117-9386-dbeabc33ce1c","system_id":"levelo_inurba_marseille","lat":43.27501,"lon":5.42459,"is_reserved":false,"is_disabled":false,"rental_uris":{"android":"levelo://app?vid=354ca7f6-13a5-4117-9386-dbeabc33ce1c","ios":"levelo://app?vid=354ca7f6-13a5-4117-9386-dbeabc33ce1c"},"vehicle_type_id":"4","last_reported":1726474371,"current_range_meters":30400,"station_id":"ce4bhn92rcd13ifvqgrg","pricing_plan_id":"cebpf4jnsgd1na2vs0mg"},{"bike_id":"e51b9e8d-f534-4258-9f49-6c985427c9d1","system_id":"levelo_inurba_marseille","lat":43.26559,"lon":5.37287,"is_reserved":false,"is_disabled":false,"rental_uris":{"android":"levelo://app?vid=e51b9e8d-f534-4258-9f49-6c985427c9d1","ios":"levelo://app?vid=e51b9e8d-f534-4258-9f49-6c985427c9d1"},"vehicle_type_id":"4","last_reported":1726474371,"current_range_meters":20000,"station_id":"ce4bhg12rcd13ifvqf70","pricing_plan_id":"cebpf4jnsgd1na2vs0mg"},{"bike_id":"1d9e1491-b23e-4bf0-8fd9-0df60581da66","system_id":"levelo_inurba_marseille","lat":43.30282,"lon":5.37712,"is_reserved":false,"is_disabled":false,"rental_uris":{"android":"levelo://app?vid=1d9e1491-b23e-4bf0-8fd9-0df60581da66","ios":"levelo://app?vid=1d9e1491-b23e-4bf0-8fd9-0df60581da66"},"vehicle_type_id":"4","last_reported":1726474371,"current_range_meters":23200,"station_id":"ce4bguh2rcd13ifvqcj0","pricing_plan_id":"cebpf4jnsgd1na2vs0mg"},{"bike_id":"ae0d01ac-5339-49a5-bc90-5ec17569a9fc","system_id":"levelo_inurba_marseille","lat":43.275116,"lon":5.42422,"is_reserved":false,"is_disabled":false,"rental_uris":{"android":"levelo://app?vid=ae0d01ac-5339-49a5-bc90-5ec17569a9fc","ios":"levelo://app?vid=ae0d01ac-5339-49a5-bc90-5ec17569a9fc"},"vehicle_type_id":"4","last_reported":1726474371,"current_range_meters":11600,"station_id":"ce4bhn92rcd13ifvqgrg","pricing_plan_id":"cebpf4jnsgd1na2vs0mg"},{"bike_id":"07a83925-dfef-4b2a-93ed-dfa02e7819ee","system_id":"levelo_inurba_marseille","lat":43.34143,"lon":5.409,"is_reserved":false,"is_disabled":false,"rental_uris":{"android":"levelo://app?vid=07a83925-dfef-4b2a-93ed-dfa02e7819ee","ios":"levelo://app?vid=07a83925-dfef-4b2a-93ed-dfa02e7819ee"},"vehicle_type_id":"4","last_reported":1726474371,"current_range_meters":28400,"station_id":"ce4bhqh2rcd13ifvqhlg","pricing_plan_id":"cebpf4jnsgd1na2vs0mg"},{"bike_id":"b25912c1-807e-44b0-b3aa-0a312445828e","system_id":"levelo_inurba_marseille","lat":43.31713,"lon":5.37748,"is_reserved":false,"is_disabled":false,"rental_uris":{"android":"levelo://app?vid=b25912c1-807e-44b0-b3aa-0a312445828e","ios":"levelo://app?vid=b25912c1-807e-44b0-b3aa-0a312445828e"},"vehicle_type_id":"4","last_reported":1726474371,"current_range_meters":35200,"station_id":"ce4bgth2rcd13ifvqch0","pricing_plan_id":"cebpf4jnsgd1na2vs0mg"},{"bike_id":"b3628e93-2abd-4717-8c63-6e885b078e62","system_id":"levelo_inurba_marseille","lat":43.25825,"lon":5.39433,"is_reserved":false,"is_disabled":false,"rental_uris":{"android":"levelo://app?vid=b3628e93-2abd-4717-8c63-6e885b078e62","ios":"levelo://app?vid=b3628e93-2abd-4717-8c63-6e885b078e62"},"vehicle_type_id":"4","last_reported":1726474371,"current_range_meters":5600,"station_id":"ce4bhip2rcd13ifvqft0","pricing_plan_id":"cebpf4jnsgd1na2vs0mg"},{"bike_id":"a6d8bde0-f131-4561-b946-08445d5104f4","system_id":"levelo_inurba_marseille","lat":43.34141,"lon":5.40907,"is_reserved":false,"is_disabled":false,"rental_uris":{"android":"levelo://app?vid=a6d8bde0-f131-4561-b946-08445d5104f4","ios":"levelo://app?vid=a6d8bde0-f131-4561-b946-08445d5104f4"},"vehicle_type_id":"4","last_reported":1726474371,"current_range_meters":39200,"station_id":"ce4bhqh2rcd13ifvqhlg","pricing_plan_id":"cebpf4jnsgd1na2vs0mg"},{"bike_id":"0756e688-644c-4608-98e2-d868362fcc09","system_id":"levelo_inurba_marseille","lat":43.27068,"lon":5.42279,"is_reserved":false,"is_disabled":false,"rental_uris":{"android":"levelo://app?vid=0756e688-644c-4608-98e2-d868362fcc09","ios":"levelo://app?vid=0756e688-644c-4608-98e2-d868362fcc09"},"vehicle_type_id":"4","last_reported":1726474371,"current_range_meters":39200,"station_id":"ce4bhk92rcd13ifvqgb0","pricing_plan_id":"cebpf4jnsgd1na2vs0mg"},{"bike_id":"65eecb51-7024-4f30-af20-d65f809bce2b","system_id":"levelo_inurba_marseille","lat":43.31562,"lon":5.39254,"is_reserved":false,"is_disabled":false,"rental_uris":{"android":"levelo://app?vid=65eecb51-7024-4f30-af20-d65f809bce2b","ios":"levelo://app?vid=65eecb51-7024-4f30-af20-d65f809bce2b"},"vehicle_type_id":"4","last_reported":1726474371,"current_range_meters":14400,"station_id":"ce4bgvp2rcd13ifvqcu0","pricing_plan_id":"cebpf4jnsgd1na2vs0mg"},{"bike_id":"469db101-b067-4b54-8808-100ede4026a7","system_id":"levelo_inurba_marseille","lat":43.30911,"lon":5.36837,"is_reserved":false,"is_disabled":false,"rental_uris":{"android":"levelo://app?vid=469db101-b067-4b54-8808-100ede4026a7","ios":"levelo://app?vid=469db101-b067-4b54-8808-100ede4026a7"},"vehicle_type_id":"4","last_reported":1726474371,"current_range_meters":17600,"station_id":"ce4bgn92rcd13ifvqbvg","pricing_plan_id":"cebpf4jnsgd1na2vs0mg"},{"bike_id":"d13330bb-66ab-42c4-9101-22a542a335d2","system_id":"levelo_inurba_marseille","lat":43.26682,"lon":5.38267,"is_reserved":false,"is_disabled":false,"rental_uris":{"android":"levelo://app?vid=d13330bb-66ab-42c4-9101-22a542a335d2","ios":"levelo://app?vid=d13330bb-66ab-42c4-9101-22a542a335d2"},"vehicle_type_id":"4","last_reported":1726474371,"current_range_meters":40000,"station_id":"ce4bhg92rcd13ifvqf90","pricing_plan_id":"cebpf4jnsgd1na2vs0mg"},{"bike_id":"50deafc8-acbf-4a9d-b8f2-72d17760fdf0","system_id":"levelo_inurba_marseille","lat":43.27497,"lon":5.42451,"is_reserved":false,"is_disabled":false,"rental_uris":{"android":"levelo://app?vid=50deafc8-acbf-4a9d-b8f2-72d17760fdf0","ios":"levelo://app?vid=50deafc8-acbf-4a9d-b8f2-72d17760fdf0"},"vehicle_type_id":"4","last_reported":1726474371,"current_range_meters":8000,"station_id":"ce4bhn92rcd13ifvqgrg","pricing_plan_id":"cebpf4jnsgd1na2vs0mg"},{"bike_id":"913ffe43-b98e-4f29-bac7-971467aac18c","system_id":"levelo_inurba_marseille","lat":43.27208,"lon":5.39186,"is_reserved":false,"is_disabled":false,"rental_uris":{"android":"levelo://app?vid=913ffe43-b98e-4f29-bac7-971467aac18c","ios":"levelo://app?vid=913ffe43-b98e-4f29-bac7-971467aac18c"},"vehicle_type_id":"4","last_reported":1726474371,"current_range_meters":16000,"station_id":"ce4bhhp2rcd13ifvqfm0","pricing_plan_id":"cebpf4jnsgd1na2vs0mg"},{"bike_id":"d1f38fcd-be46-4877-a9ac-34b365272c30","system_id":"levelo_inurba_marseille","lat":43.27099,"lon":5.43323,"is_reserved":false,"is_disabled":false,"rental_uris":{"android":"levelo://app?vid=d1f38fcd-be46-4877-a9ac-34b365272c30","ios":"levelo://app?vid=d1f38fcd-be46-4877-a9ac-34b365272c30"},"vehicle_type_id":"4","last_reported":1726474371,"current_range_meters":9600,"station_id":"","pricing_plan_id":"cebpf4jnsgd1na2vs0mg"},{"bike_id":"f6ccf8ee-a5d0-43ba-a7dd-9b5ed202fb2e","system_id":"levelo_inurba_marseille","lat":43.297022,"lon":5.376746,"is_reserved":false,"is_disabled":false,"rental_uris":{"android":"levelo://app?vid=f6ccf8ee-a5d0-43ba-a7dd-9b5ed202fb2e","ios":"levelo://app?vid=f6ccf8ee-a5d0-43ba-a7dd-9b5ed202fb2e"},"vehicle_type_id":"4","last_reported":1726474371,"current_range_meters":33200,"station_id":"ce4bgkh2rcd13ifvqbl0","pricing_plan_id":"cebpf4jnsgd1na2vs0mg"},{"bike_id":"aee8d9b2-4245-4647-a622-21f705eb869f","system_id":"levelo_inurba_marseille","lat":43.29599,"lon":5.38108,"is_reserved":false,"is_disabled":false,"rental_uris":{"android":"levelo://app?vid=aee8d9b2-4245-4647-a622-21f705eb869f","ios":"levelo://app?vid=aee8d9b2-4245-4647-a622-21f705eb869f"},"vehicle_type_id":"4","last_reported":1726474371,"current_range_meters":18800,"station_id":"ce4bgl12rcd13ifvqbo0","pricing_plan_id":"cebpf4jnsgd1na2vs0mg"},{"bike_id":"d85e24f9-62ed-4f5e-abf7-0247e2bc476b","system_id":"levelo_inurba_marseille","lat":43.29556,"lon":5.42291,"is_reserved":false,"is_disabled":false,"rental_uris":{"android":"levelo://app?vid=d85e24f9-62ed-4f5e-abf7-0247e2bc476b","ios":"levelo://app?vid=d85e24f9-62ed-4f5e-abf7-0247e2bc476b"},"vehicle_type_id":"4","last_reported":1726474371,"current_range_meters":39200,"station_id":"ce4bhph2rcd13ifvqhdg","pricing_plan_id":"cebpf4jnsgd1na2vs0mg"},{"bike_id":"ab96a143-aefc-4330-a0a7-d8effedc264d","system_id":"levelo_inurba_marseille","lat":43.29038,"lon":5.37574,"is_reserved":false,"is_disabled":false,"rental_uris":{"android":"levelo://app?vid=ab96a143-aefc-4330-a0a7-d8effedc264d","ios":"levelo://app?vid=ab96a143-aefc-4330-a0a7-d8effedc264d"},"vehicle_type_id":"4","last_reported":1726474371,"current_range_meters":32000,"station_id":"ce4bh692rcd13ifvqe90","pricing_plan_id":"cebpf4jnsgd1na2vs0mg"},{"bike_id":"ca2957de-69fb-4977-87fd-ebd7d7c4717b","system_id":"levelo_inurba_marseille","lat":43.30466,"lon":5.37892,"is_reserved":false,"is_disabled":false,"rental_uris":{"android":"levelo://app?vid=ca2957de-69fb-4977-87fd-ebd7d7c4717b","ios":"levelo://app?vid=ca2957de-69fb-4977-87fd-ebd7d7c4717b"},"vehicle_type_id":"4","last_reported":1726474371,"current_range_meters":37600,"station_id":"ce4bgup2rcd13ifvqcn0","pricing_plan_id":"cebpf4jnsgd1na2vs0mg"},{"bike_id":"77be640b-ac4b-4617-be22-5763d79d29be","system_id":"levelo_inurba_marseille","lat":43.32481,"lon":5.36558,"is_reserved":false,"is_disabled":false,"rental_uris":{"android":"levelo://app?vid=77be640b-ac4b-4617-be22-5763d79d29be","ios":"levelo://app?vid=77be640b-ac4b-4617-be22-5763d79d29be"},"vehicle_type_id":"4","last_reported":1726474371,"current_range_meters":28400,"station_id":"ce4bhs12rcd13ifvqhvg","pricing_plan_id":"cebpf4jnsgd1na2vs0mg"},{"bike_id":"679aec94-126d-49cd-aed0-23374011b607","system_id":"levelo_inurba_marseille","lat":43.29525,"lon":5.39043,"is_reserved":false,"is_disabled":false,"rental_uris":{"android":"levelo://app?vid=679aec94-126d-49cd-aed0-23374011b607","ios":"levelo://app?vid=679aec94-126d-49cd-aed0-23374011b607"},"vehicle_type_id":"4","last_reported":1726474371,"current_range_meters":24000,"station_id":"ce4bh3p2rcd13ifvqdp0","pricing_plan_id":"cebpf4jnsgd1na2vs0mg"},{"bike_id":"fabeab7a-0433-421c-9a6f-195b5712dd6a","system_id":"levelo_inurba_marseille","lat":43.28702,"lon":5.37947,"is_reserved":false,"is_disabled":false,"rental_uris":{"android":"levelo://app?vid=fabeab7a-0433-421c-9a6f-195b5712dd6a","ios":"levelo://app?vid=fabeab7a-0433-421c-9a6f-195b5712dd6a"},"vehicle_type_id":"4","last_reported":1726474371,"current_range_meters":24000,"station_id":"ce4bh9p2rcd13ifvqec0","pricing_plan_id":"cebpf4jnsgd1na2vs0mg"},{"bike_id":"c0e157ab-9a98-49d3-80d2-d1c7e49643d9","system_id":"levelo_inurba_marseille","lat":43.254974,"lon":5.376495,"is_reserved":false,"is_disabled":false,"rental_uris":{"android":"levelo://app?vid=c0e157ab-9a98-49d3-80d2-d1c7e49643d9","ios":"levelo://app?vid=c0e157ab-9a98-49d3-80d2-d1c7e49643d9"},"vehicle_type_id":"4","last_reported":1726474371,"current_range_meters":38000,"station_id":"ce4bhh12rcd13ifvqff0","pricing_plan_id":"cebpf4jnsgd1na2vs0mg"},{"bike_id":"321f0a0d-0768-4872-96e0-43ddba979ecf","system_id":"levelo_inurba_marseille","lat":43.27494,"lon":5.42458,"is_reserved":false,"is_disabled":false,"rental_uris":{"android":"levelo://app?vid=321f0a0d-0768-4872-96e0-43ddba979ecf","ios":"levelo://app?vid=321f0a0d-0768-4872-96e0-43ddba979ecf"},"vehicle_type_id":"4","last_reported":1726474371,"current_range_meters":30800,"station_id":"ce4bhn92rcd13ifvqgrg","pricing_plan_id":"cebpf4jnsgd1na2vs0mg"},{"bike_id":"b21d2257-7561-4bf2-9fe4-78a0da813756","system_id":"levelo_inurba_marseille","lat":43.28714,"lon":5.3795,"is_reserved":false,"is_disabled":false,"rental_uris":{"android":"levelo://app?vid=b21d2257-7561-4bf2-9fe4-78a0da813756","ios":"levelo://app?vid=b21d2257-7561-4bf2-9fe4-78a0da813756"},"vehicle_type_id":"4","last_reported":1726474371,"current_range_meters":28800,"station_id":"ce4bh9p2rcd13ifvqec0","pricing_plan_id":"cebpf4jnsgd1na2vs0mg"},{"bike_id":"452739ec-d8c7-414b-b91b-bac56c7eebbc","system_id":"levelo_inurba_marseille","lat":43.24188,"lon":5.39733,"is_reserved":false,"is_disabled":false,"rental_uris":{"android":"levelo://app?vid=452739ec-d8c7-414b-b91b-bac56c7eebbc","ios":"levelo://app?vid=452739ec-d8c7-414b-b91b-bac56c7eebbc"},"vehicle_type_id":"4","last_reported":1726474371,"current_range_meters":20400,"station_id":"ce4bhn12rcd13ifvqgpg","pricing_plan_id":"cebpf4jnsgd1na2vs0mg"},{"bike_id":"6da566a6-1c56-4830-ad07-012b26ffeade","system_id":"levelo_inurba_marseille","lat":43.32478,"lon":5.36563,"is_reserved":false,"is_disabled":false,"rental_uris":{"android":"levelo://app?vid=6da566a6-1c56-4830-ad07-012b26ffeade","ios":"levelo://app?vid=6da566a6-1c56-4830-ad07-012b26ffeade"},"vehicle_type_id":"4","last_reported":1726474371,"current_range_meters":38000,"station_id":"ce4bhs12rcd13ifvqhvg","pricing_plan_id":"cebpf4jnsgd1na2vs0mg"},{"bike_id":"5ce3c22b-1a1d-4f74-98d5-ad1712c6cc8c","system_id":"levelo_inurba_marseille","lat":43.30551,"lon":5.3671,"is_reserved":false,"is_disabled":false,"rental_uris":{"android":"levelo://app?vid=5ce3c22b-1a1d-4f74-98d5-ad1712c6cc8c","ios":"levelo://app?vid=5ce3c22b-1a1d-4f74-98d5-ad1712c6cc8c"},"vehicle_type_id":"4","last_reported":1726474371,"current_range_meters":36400,"station_id":"ce4bgrp2rcd13ifvqc9g","pricing_plan_id":"cebpf4jnsgd1na2vs0mg"},{"bike_id":"e48ba151-42d6-43be-9700-3c2348eb1465","system_id":"levelo_inurba_marseille","lat":43.26944,"lon":5.40251,"is_reserved":false,"is_disabled":false,"rental_uris":{"android":"levelo://app?vid=e48ba151-42d6-43be-9700-3c2348eb1465","ios":"levelo://app?vid=e48ba151-42d6-43be-9700-3c2348eb1465"},"vehicle_type_id":"4","last_reported":1726474371,"current_range_meters":32400,"station_id":"ce4bhg12rcd13ifvqf80","pricing_plan_id":"cebpf4jnsgd1na2vs0mg"},{"bike_id":"5ebdd68a-f09d-411a-96b9-9ef48d91c982","system_id":"levelo_inurba_marseille","lat":43.28929,"lon":5.38407,"is_reserved":false,"is_disabled":false,"rental_uris":{"android":"levelo://app?vid=5ebdd68a-f09d-411a-96b9-9ef48d91c982","ios":"levelo://app?vid=5ebdd68a-f09d-411a-96b9-9ef48d91c982"},"vehicle_type_id":"4","last_reported":1726474371,"current_range_meters":6800,"station_id":"ce4bh612rcd13ifvqe6g","pricing_plan_id":"cebpf4jnsgd1na2vs0mg"},{"bike_id":"7efa35fb-11c3-4d1d-a5bd-59f57f6a763b","system_id":"levelo_inurba_marseille","lat":43.33607,"lon":5.41035,"is_reserved":false,"is_disabled":false,"rental_uris":{"android":"levelo://app?vid=7efa35fb-11c3-4d1d-a5bd-59f57f6a763b","ios":"levelo://app?vid=7efa35fb-11c3-4d1d-a5bd-59f57f6a763b"},"vehicle_type_id":"4","last_reported":1726474371,"current_range_meters":16000,"station_id":"ce4bhqh2rcd13ifvqhmg","pricing_plan_id":"cebpf4jnsgd1na2vs0mg"},{"bike_id":"75417d24-4b39-449c-882e-8233b5223741","system_id":"levelo_inurba_marseille","lat":43.27321,"lon":5.39087,"is_reserved":false,"is_disabled":false,"rental_uris":{"android":"levelo://app?vid=75417d24-4b39-449c-882e-8233b5223741","ios":"levelo://app?vid=75417d24-4b39-449c-882e-8233b5223741"},"vehicle_type_id":"4","last_reported":1726474371,"current_range_meters":18800,"station_id":"ce4bhgp2rcd13ifvqfe0","pricing_plan_id":"cebpf4jnsgd1na2vs0mg"},{"bike_id":"d919000c-5aae-4fe3-9444-cda057a56741","system_id":"levelo_inurba_marseille","lat":43.30144,"lon":5.37428,"is_reserved":false,"is_disabled":false,"rental_uris":{"android":"levelo://app?vid=d919000c-5aae-4fe3-9444-cda057a56741","ios":"levelo://app?vid=d919000c-5aae-4fe3-9444-cda057a56741"},"vehicle_type_id":"4","last_reported":1726474371,"current_range_meters":31200,"station_id":"ce4bgs92rcd13ifvqcc0","pricing_plan_id":"cebpf4jnsgd1na2vs0mg"},{"bike_id":"4d7677ab-d948-4854-92d7-3cbb0e5f0a7e","system_id":"levelo_inurba_marseille","lat":43.31486,"lon":5.37306,"is_reserved":false,"is_disabled":false,"rental_uris":{"android":"levelo://app?vid=4d7677ab-d948-4854-92d7-3cbb0e5f0a7e","ios":"levelo://app?vid=4d7677ab-d948-4854-92d7-3cbb0e5f0a7e"},"vehicle_type_id":"4","last_reported":1726474371,"current_range_meters":33200,"station_id":"ce4bgt12rcd13ifvqcd0","pricing_plan_id":"cebpf4jnsgd1na2vs0mg"},{"bike_id":"75703296-7f59-4b8f-a38a-80537d3bdaa2","system_id":"levelo_inurba_marseille","lat":43.33613,"lon":5.41021,"is_reserved":false,"is_disabled":false,"rental_uris":{"android":"levelo://app?vid=75703296-7f59-4b8f-a38a-80537d3bdaa2","ios":"levelo://app?vid=75703296-7f59-4b8f-a38a-80537d3bdaa2"},"vehicle_type_id":"4","last_reported":1726474371,"current_range_meters":9200,"station_id":"ce4bhqh2rcd13ifvqhmg","pricing_plan_id":"cebpf4jnsgd1na2vs0mg"},{"bike_id":"99962020-3a4b-415f-a2da-0facbf85be35","system_id":"levelo_inurba_marseille","lat":43.30294,"lon":5.3768,"is_reserved":false,"is_disabled":false,"rental_uris":{"android":"levelo://app?vid=99962020-3a4b-415f-a2da-0facbf85be35","ios":"levelo://app?vid=99962020-3a4b-415f-a2da-0facbf85be35"},"vehicle_type_id":"4","last_reported":1726474371,"current_range_meters":39200,"station_id":"ce4bguh2rcd13ifvqcj0","pricing_plan_id":"cebpf4jnsgd1na2vs0mg"},{"bike_id":"84fb6fdc-a5a6-442f-8771-6079a3b1d051","system_id":"levelo_inurba_marseille","lat":43.31242,"lon":5.36848,"is_reserved":false,"is_disabled":false,"rental_uris":{"android":"levelo://app?vid=84fb6fdc-a5a6-442f-8771-6079a3b1d051","ios":"levelo://app?vid=84fb6fdc-a5a6-442f-8771-6079a3b1d051"},"vehicle_type_id":"4","last_reported":1726474371,"current_range_meters":37600,"station_id":"ce4bgl92rcd13ifvqbq0","pricing_plan_id":"cebpf4jnsgd1na2vs0mg"},{"bike_id":"36fb5a90-731c-4d66-930e-845e8899dbab","system_id":"levelo_inurba_marseille","lat":43.24182,"lon":5.3973,"is_reserved":false,"is_disabled":false,"rental_uris":{"android":"levelo://app?vid=36fb5a90-731c-4d66-930e-845e8899dbab","ios":"levelo://app?vid=36fb5a90-731c-4d66-930e-845e8899dbab"},"vehicle_type_id":"4","last_reported":1726474371,"current_range_meters":18000,"station_id":"ce4bhn12rcd13ifvqgpg","pricing_plan_id":"cebpf4jnsgd1na2vs0mg"},{"bike_id":"7396290a-0a75-4043-9ecd-91c962b33da0","system_id":"levelo_inurba_marseille","lat":43.26202,"lon":5.37935,"is_reserved":false,"is_disabled":false,"rental_uris":{"android":"levelo://app?vid=7396290a-0a75-4043-9ecd-91c962b33da0","ios":"levelo://app?vid=7396290a-0a75-4043-9ecd-91c962b33da0"},"vehicle_type_id":"4","last_reported":1726474371,"current_range_meters":27600,"station_id":"ce4bhjp2rcd13ifvqg90","pricing_plan_id":"cebpf4jnsgd1na2vs0mg"},{"bike_id":"103368f7-6cf9-4f61-a9f7-0e638a4ed99a","system_id":"levelo_inurba_marseille","lat":43.24079,"lon":5.37756,"is_reserved":false,"is_disabled":false,"rental_uris":{"android":"levelo://app?vid=103368f7-6cf9-4f61-a9f7-0e638a4ed99a","ios":"levelo://app?vid=103368f7-6cf9-4f61-a9f7-0e638a4ed99a"},"vehicle_type_id":"4","last_reported":1726474371,"current_range_meters":8400,"station_id":"ce4bhnp2rcd13ifvqgvg","pricing_plan_id":"cebpf4jnsgd1na2vs0mg"},{"bike_id":"88fde75b-6efc-4bee-8c6f-b7e2af592ff0","system_id":"levelo_inurba_marseille","lat":43.29583,"lon":5.37506,"is_reserved":false,"is_disabled":false,"rental_uris":{"android":"levelo://app?vid=88fde75b-6efc-4bee-8c6f-b7e2af592ff0","ios":"levelo://app?vid=88fde75b-6efc-4bee-8c6f-b7e2af592ff0"},"vehicle_type_id":"4","last_reported":1726474371,"current_range_meters":21600,"station_id":"","pricing_plan_id":"cebpf4jnsgd1na2vs0mg"},{"bike_id":"af78b383-cb47-4a8e-8a00-34ed69efc3a0","system_id":"levelo_inurba_marseille","lat":43.24086,"lon":5.3775,"is_reserved":false,"is_disabled":false,"rental_uris":{"android":"levelo://app?vid=af78b383-cb47-4a8e-8a00-34ed69efc3a0","ios":"levelo://app?vid=af78b383-cb47-4a8e-8a00-34ed69efc3a0"},"vehicle_type_id":"4","last_reported":1726474371,"current_range_meters":6400,"station_id":"ce4bhnp2rcd13ifvqgvg","pricing_plan_id":"cebpf4jnsgd1na2vs0mg"},{"bike_id":"887c2f0c-fcbb-43a9-8c04-83fbade28866","system_id":"levelo_inurba_marseille","lat":43.28359,"lon":5.38095,"is_reserved":false,"is_disabled":false,"rental_uris":{"android":"levelo://app?vid=887c2f0c-fcbb-43a9-8c04-83fbade28866","ios":"levelo://app?vid=887c2f0c-fcbb-43a9-8c04-83fbade28866"},"vehicle_type_id":"4","last_reported":1726474371,"current_range_meters":32800,"station_id":"ce4bh412rcd13ifvqdr0","pricing_plan_id":"cebpf4jnsgd1na2vs0mg"},{"bike_id":"ff4410f1-5fcd-4fb0-82c3-382d6d9363f9","system_id":"levelo_inurba_marseille","lat":43.30545,"lon":5.36702,"is_reserved":false,"is_disabled":false,"rental_uris":{"android":"levelo://app?vid=ff4410f1-5fcd-4fb0-82c3-382d6d9363f9","ios":"levelo://app?vid=ff4410f1-5fcd-4fb0-82c3-382d6d9363f9"},"vehicle_type_id":"4","last_reported":1726474371,"current_range_meters":32800,"station_id":"ce4bgrp2rcd13ifvqc9g","pricing_plan_id":"cebpf4jnsgd1na2vs0mg"},{"bike_id":"49ceb476-dade-4a9f-9f56-92179ff978df","system_id":"levelo_inurba_marseille","lat":43.28676,"lon":5.38667,"is_reserved":false,"is_disabled":false,"rental_uris":{"android":"levelo://app?vid=49ceb476-dade-4a9f-9f56-92179ff978df","ios":"levelo://app?vid=49ceb476-dade-4a9f-9f56-92179ff978df"},"vehicle_type_id":"4","last_reported":1726474371,"current_range_meters":38400,"station_id":"ce4bh492rcd13ifvqdug","pricing_plan_id":"cebpf4jnsgd1na2vs0mg"},{"bike_id":"317b1c87-625b-45e8-9d26-e93a02570555","system_id":"levelo_inurba_marseille","lat":43.311716,"lon":5.387266,"is_reserved":false,"is_disabled":false,"rental_uris":{"android":"levelo://app?vid=317b1c87-625b-45e8-9d26-e93a02570555","ios":"levelo://app?vid=317b1c87-625b-45e8-9d26-e93a02570555"},"vehicle_type_id":"4","last_reported":1726474371,"current_range_meters":14800,"station_id":"ce4bgr92rcd13ifvqc7g","pricing_plan_id":"cebpf4jnsgd1na2vs0mg"},{"bike_id":"7b5a067f-2447-4a17-8a0a-4f31d25d743b","system_id":"levelo_inurba_marseille","lat":43.304602,"lon":5.379144,"is_reserved":false,"is_disabled":false,"rental_uris":{"android":"levelo://app?vid=7b5a067f-2447-4a17-8a0a-4f31d25d743b","ios":"levelo://app?vid=7b5a067f-2447-4a17-8a0a-4f31d25d743b"},"vehicle_type_id":"4","last_reported":1726474371,"current_range_meters":32400,"station_id":"ce4bgup2rcd13ifvqcn0","pricing_plan_id":"cebpf4jnsgd1na2vs0mg"},{"bike_id":"2bac1b13-feef-419c-8bcf-01a3bd8c1e73","system_id":"levelo_inurba_marseille","lat":43.29045,"lon":5.37564,"is_reserved":false,"is_disabled":false,"rental_uris":{"android":"levelo://app?vid=2bac1b13-feef-419c-8bcf-01a3bd8c1e73","ios":"levelo://app?vid=2bac1b13-feef-419c-8bcf-01a3bd8c1e73"},"vehicle_type_id":"4","last_reported":1726474371,"current_range_meters":36000,"station_id":"ce4bh692rcd13ifvqe90","pricing_plan_id":"cebpf4jnsgd1na2vs0mg"},{"bike_id":"66ea54e7-1bd9-4448-8a07-af9ffe63df0a","system_id":"levelo_inurba_marseille","lat":43.31355,"lon":5.36726,"is_reserved":false,"is_disabled":false,"rental_uris":{"android":"levelo://app?vid=66ea54e7-1bd9-4448-8a07-af9ffe63df0a","ios":"levelo://app?vid=66ea54e7-1bd9-4448-8a07-af9ffe63df0a"},"vehicle_type_id":"4","last_reported":1726474371,"current_range_meters":20400,"station_id":"ce4bgr92rcd13ifvqc6g","pricing_plan_id":"cebpf4jnsgd1na2vs0mg"},{"bike_id":"fe426680-a2a6-4f3e-ba3b-19e9def34c48","system_id":"levelo_inurba_marseille","lat":43.28846,"lon":5.35858,"is_reserved":false,"is_disabled":false,"rental_uris":{"android":"levelo://app?vid=fe426680-a2a6-4f3e-ba3b-19e9def34c48","ios":"levelo://app?vid=fe426680-a2a6-4f3e-ba3b-19e9def34c48"},"vehicle_type_id":"4","last_reported":1726474371,"current_range_meters":33200,"station_id":"ce4bhb12rcd13ifvqem0","pricing_plan_id":"cebpf4jnsgd1na2vs0mg"},{"bike_id":"328d45f9-980e-4811-97c0-47d761861509","system_id":"levelo_inurba_marseille","lat":43.29847,"lon":5.37836,"is_reserved":false,"is_disabled":false,"rental_uris":{"android":"levelo://app?vid=328d45f9-980e-4811-97c0-47d761861509","ios":"levelo://app?vid=328d45f9-980e-4811-97c0-47d761861509"},"vehicle_type_id":"4","last_reported":1726474371,"current_range_meters":24400,"station_id":"ce4bgkh2rcd13ifvqbl0","pricing_plan_id":"cebpf4jnsgd1na2vs0mg"},{"bike_id":"d42d550f-9846-4873-9813-e2e6db3f0870","system_id":"levelo_inurba_marseille","lat":43.2678,"lon":5.3942,"is_reserved":false,"is_disabled":false,"rental_uris":{"android":"levelo://app?vid=d42d550f-9846-4873-9813-e2e6db3f0870","ios":"levelo://app?vid=d42d550f-9846-4873-9813-e2e6db3f0870"},"vehicle_type_id":"4","last_reported":1726474371,"current_range_meters":26000,"station_id":"ce4bhh12rcd13ifvqfg0","pricing_plan_id":"cebpf4jnsgd1na2vs0mg"},{"bike_id":"5dca32f4-1cc6-4ff0-a332-523701b8421c","system_id":"levelo_inurba_marseille","lat":43.30471,"lon":5.37913,"is_reserved":false,"is_disabled":false,"rental_uris":{"android":"levelo://app?vid=5dca32f4-1cc6-4ff0-a332-523701b8421c","ios":"levelo://app?vid=5dca32f4-1cc6-4ff0-a332-523701b8421c"},"vehicle_type_id":"4","last_reported":1726474371,"current_range_meters":3600,"station_id":"ce4bgup2rcd13ifvqcn0","pricing_plan_id":"cebpf4jnsgd1na2vs0mg"},{"bike_id":"faf816e6-4e87-4e93-88d4-5861eae33b5c","system_id":"levelo_inurba_marseille","lat":43.24083,"lon":5.37749,"is_reserved":false,"is_disabled":false,"rental_uris":{"android":"levelo://app?vid=faf816e6-4e87-4e93-88d4-5861eae33b5c","ios":"levelo://app?vid=faf816e6-4e87-4e93-88d4-5861eae33b5c"},"vehicle_type_id":"4","last_reported":1726474371,"current_range_meters":21600,"station_id":"ce4bhnp2rcd13ifvqgvg","pricing_plan_id":"cebpf4jnsgd1na2vs0mg"},{"bike_id":"a7201d69-01a4-43e5-a1fc-fc4ebf7009b8","system_id":"levelo_inurba_marseille","lat":43.31891,"lon":5.40727,"is_reserved":false,"is_disabled":false,"rental_uris":{"android":"levelo://app?vid=a7201d69-01a4-43e5-a1fc-fc4ebf7009b8","ios":"levelo://app?vid=a7201d69-01a4-43e5-a1fc-fc4ebf7009b8"},"vehicle_type_id":"4","last_reported":1726474371,"current_range_meters":2800,"station_id":"ce4bhq12rcd13ifvqhig","pricing_plan_id":"cebpf4jnsgd1na2vs0mg"},{"bike_id":"d1bc1a92-c34f-45bd-b470-2fca788491ee","system_id":"levelo_inurba_marseille","lat":43.32486,"lon":5.36563,"is_reserved":false,"is_disabled":false,"rental_uris":{"android":"levelo://app?vid=d1bc1a92-c34f-45bd-b470-2fca788491ee","ios":"levelo://app?vid=d1bc1a92-c34f-45bd-b470-2fca788491ee"},"vehicle_type_id":"4","last_reported":1726474371,"current_range_meters":38000,"station_id":"ce4bhs12rcd13ifvqhvg","pricing_plan_id":"cebpf4jnsgd1na2vs0mg"},{"bike_id":"0c8ff943-246f-43a8-94fe-40ec76f60a83","system_id":"levelo_inurba_marseille","lat":43.29802,"lon":5.38084,"is_reserved":false,"is_disabled":false,"rental_uris":{"android":"levelo://app?vid=0c8ff943-246f-43a8-94fe-40ec76f60a83","ios":"levelo://app?vid=0c8ff943-246f-43a8-94fe-40ec76f60a83"},"vehicle_type_id":"4","last_reported":1726474371,"current_range_meters":30400,"station_id":"ce4bgip2rcd13ifvqbb0","pricing_plan_id":"cebpf4jnsgd1na2vs0mg"},{"bike_id":"009c7e0a-a052-421a-8cf8-bac7ad9b461e","system_id":"levelo_inurba_marseille","lat":43.26684,"lon":5.38268,"is_reserved":false,"is_disabled":false,"rental_uris":{"android":"levelo://app?vid=009c7e0a-a052-421a-8cf8-bac7ad9b461e","ios":"levelo://app?vid=009c7e0a-a052-421a-8cf8-bac7ad9b461e"},"vehicle_type_id":"4","last_reported":1726474371,"current_range_meters":31200,"station_id":"ce4bhg92rcd13ifvqf90","pricing_plan_id":"cebpf4jnsgd1na2vs0mg"},{"bike_id":"e1c5a5b2-4c74-471d-8451-d04f52f82987","system_id":"levelo_inurba_marseille","lat":43.32546,"lon":5.41453,"is_reserved":false,"is_disabled":false,"rental_uris":{"android":"levelo://app?vid=e1c5a5b2-4c74-471d-8451-d04f52f82987","ios":"levelo://app?vid=e1c5a5b2-4c74-471d-8451-d04f52f82987"},"vehicle_type_id":"4","last_reported":1726474371,"current_range_meters":39200,"station_id":"ce4bhq12rcd13ifvqhhg","pricing_plan_id":"cebpf4jnsgd1na2vs0mg"},{"bike_id":"8b608b96-fedf-4511-8d4b-09bad2606e1a","system_id":"levelo_inurba_marseille","lat":43.27736,"lon":5.41131,"is_reserved":false,"is_disabled":false,"rental_uris":{"android":"levelo://app?vid=8b608b96-fedf-4511-8d4b-09bad2606e1a","ios":"levelo://app?vid=8b608b96-fedf-4511-8d4b-09bad2606e1a"},"vehicle_type_id":"4","last_reported":1726474371,"current_range_meters":16400,"station_id":"","pricing_plan_id":"cebpf4jnsgd1na2vs0mg"},{"bike_id":"d687a8dc-c1c6-418b-a078-1f315f5fdb26","system_id":"levelo_inurba_marseille","lat":43.32481,"lon":5.36579,"is_reserved":false,"is_disabled":false,"rental_uris":{"android":"levelo://app?vid=d687a8dc-c1c6-418b-a078-1f315f5fdb26","ios":"levelo://app?vid=d687a8dc-c1c6-418b-a078-1f315f5fdb26"},"vehicle_type_id":"4","last_reported":1726474371,"current_range_meters":24000,"station_id":"ce4bhs12rcd13ifvqhvg","pricing_plan_id":"cebpf4jnsgd1na2vs0mg"},{"bike_id":"557f94c9-08c3-4971-8fa6-543c3d081224","system_id":"levelo_inurba_marseille","lat":43.33606,"lon":5.41031,"is_reserved":false,"is_disabled":false,"rental_uris":{"android":"levelo://app?vid=557f94c9-08c3-4971-8fa6-543c3d081224","ios":"levelo://app?vid=557f94c9-08c3-4971-8fa6-543c3d081224"},"vehicle_type_id":"4","last_reported":1726474371,"current_range_meters":30400,"station_id":"ce4bhqh2rcd13ifvqhmg","pricing_plan_id":"cebpf4jnsgd1na2vs0mg"},{"bike_id":"33753529-8602-4ed6-811b-69a508500558","system_id":"levelo_inurba_marseille","lat":43.26706,"lon":5.38269,"is_reserved":false,"is_disabled":false,"rental_uris":{"android":"levelo://app?vid=33753529-8602-4ed6-811b-69a508500558","ios":"levelo://app?vid=33753529-8602-4ed6-811b-69a508500558"},"vehicle_type_id":"4","last_reported":1726474371,"current_range_meters":18800,"station_id":"ce4bhg92rcd13ifvqf90","pricing_plan_id":"cebpf4jnsgd1na2vs0mg"},{"bike_id":"fa2b0a9f-66ad-4cd1-b7bb-93b9cffdc904","system_id":"levelo_inurba_marseille","lat":43.25934,"lon":5.40916,"is_reserved":false,"is_disabled":false,"rental_uris":{"android":"levelo://app?vid=fa2b0a9f-66ad-4cd1-b7bb-93b9cffdc904","ios":"levelo://app?vid=fa2b0a9f-66ad-4cd1-b7bb-93b9cffdc904"},"vehicle_type_id":"4","last_reported":1726474371,"current_range_meters":28400,"station_id":"ce4bhm92rcd13ifvqglg","pricing_plan_id":"cebpf4jnsgd1na2vs0mg"},{"bike_id":"0765e549-6483-41b2-9c4f-508c91efaba8","system_id":"levelo_inurba_marseille","lat":43.30465,"lon":5.37899,"is_reserved":false,"is_disabled":false,"rental_uris":{"android":"levelo://app?vid=0765e549-6483-41b2-9c4f-508c91efaba8","ios":"levelo://app?vid=0765e549-6483-41b2-9c4f-508c91efaba8"},"vehicle_type_id":"4","last_reported":1726474371,"current_range_meters":32400,"station_id":"ce4bgup2rcd13ifvqcn0","pricing_plan_id":"cebpf4jnsgd1na2vs0mg"},{"bike_id":"28c6d943-5531-4458-8f95-af9087750f51","system_id":"levelo_inurba_marseille","lat":43.3055,"lon":5.36702,"is_reserved":false,"is_disabled":false,"rental_uris":{"android":"levelo://app?vid=28c6d943-5531-4458-8f95-af9087750f51","ios":"levelo://app?vid=28c6d943-5531-4458-8f95-af9087750f51"},"vehicle_type_id":"4","last_reported":1726474371,"current_range_meters":10000,"station_id":"ce4bgrp2rcd13ifvqc9g","pricing_plan_id":"cebpf4jnsgd1na2vs0mg"},{"bike_id":"6cbe2b6f-24b3-4fba-af6d-2414c6cd7083","system_id":"levelo_inurba_marseille","lat":43.29845,"lon":5.36271,"is_reserved":false,"is_disabled":false,"rental_uris":{"android":"levelo://app?vid=6cbe2b6f-24b3-4fba-af6d-2414c6cd7083","ios":"levelo://app?vid=6cbe2b6f-24b3-4fba-af6d-2414c6cd7083"},"vehicle_type_id":"4","last_reported":1726474371,"current_range_meters":23200,"station_id":"ce4bgpp2rcd13ifvqc3g","pricing_plan_id":"cebpf4jnsgd1na2vs0mg"},