{"last_updated":1702037606,"ttl":30,"version":"2.2","data":{"bikes":[{"bike_id":"e1e22c5b-1bae-4cd0-bf45-78079d5ce94d","system_id":"levelo_inurba_marseille","lat":43.283998,"lon":5.375062,"is_reserved":false,"is_disabled":false,"rental_uris":{"android":"levelo://app?vid=e1e22c5b-1bae-4cd0-bf45-78079d5ce94d","ios":"levelo://app?vid=e1e22c5b-1bae-4cd0-bf45-78079d5ce94d"},"vehicle_type_id":"4","last_reported":1702037606,"current_range_meters":30800,"station_id":"ce4bh412rcd13ifvqds0","pricing_plan_id":"free"},{"bike_id":"c37c0055-09da-4096-8503-3700065cb51d","system_id":"levelo_inurba_marseille","lat":43.305714,"lon":5.365633,"is_reserved":false,"is_disabled":false,"rental_uris":{"android":"levelo://app?vid=c37c0055-09da-4096-8503-3700065cb51d","ios":"levelo://app?vid=c37c0055-09da-4096-8503-3700065cb51d"},"vehicle_type_id":"4","last_reported":1702037606,"current_range_meters":30000,"station_id":"ce4bgs12rcd13ifvqcag","pricing_plan_id":"free"},{"bike_id":"9072f971-3247-40fe-83dc-a43df809814f","system_id":"levelo_inurba_marseille","lat":43.305368,"lon":5.367343,"is_reserved":false,"is_disabled":false,"rental_uris":{"android":"levelo://app?vid=9072f971-3247-40fe-83dc-a43df809814f","ios":"levelo://app?vid=9072f971-3247-40fe-83dc-a43df809814f"},"vehicle_type_id":"4","last_reported":1702037606,"current_range_meters":24800,"station_id":"ce4bgrp2rcd13ifvqc9g","pricing_plan_id":"free"},{"bike_id":"b4115f18-e580-4ade-b520-2d59fdd1eab8","system_id":"levelo_inurba_marseille","lat":43.305714,"lon":5.365633,"is_reserved":false,"is_disabled":false,"rental_uris":{"android":"levelo://app?vid=b4115f18-e580-4ade-b520-2d59fdd1eab8","ios":"levelo://app?vid=b4115f18-e580-4ade-b520-2d59fdd1eab8"},"vehicle_type_id":"4","last_reported":1702037606,"current_range_meters":20400,"station_id":"ce4bgs12rcd13ifvqcag","pricing_plan_id":"free"},{"bike_id":"f709b092-c7e6-4527-8a93-fbcb6723986f","system_id":"levelo_inurba_marseille","lat":43.305706,"lon":5.365654,"is_reserved":false,"is_disabled":false,"rental_uris":{"android":"levelo://app?vid=f709b092-c7e6-4527-8a93-fbcb6723986f","ios":"levelo://app?vid=f709b092-c7e6-4527-8a93-fbcb6723986f"},"vehicle_type_id":"4","last_reported":1702037606,"current_range_meters":18800,"station_id":"ce4bgs12rcd13ifvqcag","pricing_plan_id":"free"},{"bike_id":"c8f43378-0be1-4d20-b865-b2182ee9ea80","system_id":"levelo_inurba_marseille","lat":43.305706,"lon":5.365654,"is_reserved":false,"is_disabled":false,"rental_uris":{"android":"levelo://app?vid=c8f43378-0be1-4d20-b865-b2182ee9ea80","ios":"levelo://app?vid=c8f43378-0be1-4d20-b865-b2182ee9ea80"},"vehicle_type_id":"4","last_reported":1702037606,"current_range_meters":24400,"station_id":"ce4bgs12rcd13ifvqcag","pricing_plan_id":"free"},{"bike_id":"803a51d0-3f37-470e-a1f5-e29c906011b9","system_id":"levelo_inurba_marseille","lat":43.305706,"lon":5.365654,"is_reserved":false,"is_disabled":false,"rental_uris":{"android":"levelo://app?vid=803a51d0-3f37-470e-a1f5-e29c906011b9","ios":"levelo://app?vid=803a51d0-3f37-470e-a1f5-e29c906011b9"},"vehicle_type_id":"4","last_reported":1702037606,"current_range_meters":30000,"station_id":"ce4bgs12rcd13ifvqcag","pricing_plan_id":"free"},{"bike_id":"4e1bbe27-f08d-4eac-9e84-100ef30833d5","system_id":"levelo_inurba_marseille","lat":43.311131,"lon":5.377651,"is_reserved":false,"is_disabled":false,"rental_uris":{"android":"levelo://app?vid=4e1bbe27-f08d-4eac-9e84-100ef30833d5","ios":"levelo://app?vid=4e1bbe27-f08d-4eac-9e84-100ef30833d5"},"vehicle_type_id":"4","last_reported":1702037606,"current_range_meters":10800,"station_id":"ce4bgt92rcd13ifvqcg0","pricing_plan_id":"free"},{"bike_id":"48baf451-4bf3-4284-b2a5-ea64629cee8a","system_id":"levelo_inurba_marseille","lat":43.308102,"lon":5.376627,"is_reserved":false,"is_disabled":false,"rental_uris":{"android":"levelo://app?vid=48baf451-4bf3-4284-b2a5-ea64629cee8a","ios":"levelo://app?vid=48baf451-4bf3-4284-b2a5-ea64629cee8a"},"vehicle_type_id":"4","last_reported":1702037606,"current_range_meters":15200,"station_id":"ce4bgv92rcd13ifvqcq0","pricing_plan_id":"free"},{"bike_id":"710c207f-9326-4d55-805c-8a023241d144","system_id":"levelo_inurba_marseille","lat":43.307945,"lon":5.376487,"is_reserved":false,"is_disabled":false,"rental_uris":{"android":"levelo://app?vid=710c207f-9326-4d55-805c-8a023241d144","ios":"levelo://app?vid=710c207f-9326-4d55-805c-8a023241d144"},"vehicle_type_id":"4","last_reported":1702037606,"current_range_meters":26400,"station_id":"ce4bgv92rcd13ifvqcq0","pricing_plan_id":"free"},{"bike_id":"61487b60-756a-462b-a832-2b5b71359092","system_id":"levelo_inurba_marseille","lat":43.317075,"lon":5.377367,"is_reserved":false,"is_disabled":false,"rental_uris":{"android":"levelo://app?vid=61487b60-756a-462b-a832-2b5b71359092","ios":"levelo://app?vid=61487b60-756a-462b-a832-2b5b71359092"},"vehicle_type_id":"4","last_reported":1702037606,"current_range_meters":26800,"station_id":"ce4bgth2rcd13ifvqch0","pricing_plan_id":"free"},{"bike_id":"2f72653c-77b3-41ca-a34a-d30950e5bc7a","system_id":"levelo_inurba_marseille","lat":43.317075,"lon":5.377367,"is_reserved":false,"is_disabled":false,"rental_uris":{"android":"levelo://app?vid=2f72653c-77b3-41ca-a34a-d30950e5bc7a","ios":"levelo://app?vid=2f72653c-77b3-41ca-a34a-d30950e5bc7a"},"vehicle_type_id":"4","last_reported":1702037606,"current_range_meters":27200,"station_id":"ce4bgth2rcd13ifvqch0","pricing_plan_id":"free"},{"bike_id":"adf146c5-e4e1-4668-9a33-042940925130","system_id":"levelo_inurba_marseille","lat":43.31351,"lon":5.37909,"is_reserved":false,"is_disabled":false,"rental_uris":{"android":"levelo://app?vid=adf146c5-e4e1-4668-9a33-042940925130","ios":"levelo://app?vid=adf146c5-e4e1-4668-9a33-042940925130"},"vehicle_type_id":"4","last_reported":1702037606,"current_range_meters":0,"station_id":"","pricing_plan_id":"free"},{"bike_id":"90cb5542-64cf-4d19-baf9-004569cd859b","system_id":"levelo_inurba_marseille","lat":43.301939,"lon":5.366286,"is_reserved":false,"is_disabled":false,"rental_uris":{"android":"levelo://app?vid=90cb5542-64cf-4d19-baf9-004569cd859b","ios":"levelo://app?vid=90cb5542-64cf-4d19-baf9-004569cd859b"},"vehicle_type_id":"4","last_reported":1702037606,"current_range_meters":23600,"station_id":"ce4bgrh2rcd13ifvqc8g","pricing_plan_id":"free"},{"bike_id":"c03d79ec-2066-43cc-a295-94689d4059b3","system_id":"levelo_inurba_marseille","lat":43.301939,"lon":5.366286,"is_reserved":false,"is_disabled":false,"rental_uris":{"android":"levelo://app?vid=c03d79ec-2066-43cc-a295-94689d4059b3","ios":"levelo://app?vid=c03d79ec-2066-43cc-a295-94689d4059b3"},"vehicle_type_id":"4","last_reported":1702037606,"current_range_meters":25200,"station_id":"ce4bgrh2rcd13ifvqc8g","pricing_plan_id":"free"},{"bike_id":"1ea60f58-75f7-4484-b705-1156df4b02ad","system_id":"levelo_inurba_marseille","lat":43.30284,"lon":5.37329,"is_reserved":false,"is_disabled":false,"rental_uris":{"android":"levelo://app?vid=1ea60f58-75f7-4484-b705-1156df4b02ad","ios":"levelo://app?vid=1ea60f58-75f7-4484-b705-1156df4b02ad"},"vehicle_type_id":"4","last_reported":1702037606,"current_range_meters":800,"station_id":"","pricing_plan_id":"free"},{"bike_id":"176d9939-8bf9-42de-8ad2-23bb74b7db9d","system_id":"levelo_inurba_marseille","lat":43.304606,"lon":5.379026,"is_reserved":false,"is_disabled":false,"rental_uris":{"android":"levelo://app?vid=176d9939-8bf9-42de-8ad2-23bb74b7db9d","ios":"levelo://app?vid=176d9939-8bf9-42de-8ad2-23bb74b7db9d"},"vehicle_type_id":"4","last_reported":1702037606,"current_range_meters":16000,"station_id":"ce4bgup2rcd13ifvqcn0","pricing_plan_id":"free"},{"bike_id":"f09bf9f8-d9b1-4730-987b-a0c919ec9bb4","system_id":"levelo_inurba_marseille","lat":43.304606,"lon":5.379026,"is_reserved":false,"is_disabled":false,"rental_uris":{"android":"levelo://app?vid=f09bf9f8-d9b1-4730-987b-a0c919ec9bb4","ios":"levelo://app?vid=f09bf9f8-d9b1-4730-987b-a0c919ec9bb4"},"vehicle_type_id":"4","last_reported":1702037606,"current_range_meters":14800,"station_id":"ce4bgup2rcd13ifvqcn0","pricing_plan_id":"free"},{"bike_id":"bdf7f841-1ac7-4eed-b40b-4ff3167f9b14","system_id":"levelo_inurba_marseille","lat":43.304638,"lon":5.378971,"is_reserved":false,"is_disabled":false,"rental_uris":{"android":"levelo://app?vid=bdf7f841-1ac7-4eed-b40b-4ff3167f9b14","ios":"levelo://app?vid=bdf7f841-1ac7-4eed-b40b-4ff3167f9b14"},"vehicle_type_id":"4","last_reported":1702037606,"current_range_meters":27200,"station_id":"ce4bgup2rcd13ifvqcn0","pricing_plan_id":"free"},{"bike_id":"ac7ee7d2-d817-49fa-8f7e-8117b3485147","system_id":"levelo_inurba_marseille","lat":43.304606,"lon":5.379026,"is_reserved":false,"is_disabled":false,"rental_uris":{"android":"levelo://app?vid=ac7ee7d2-d817-49fa-8f7e-8117b3485147","ios":"levelo://app?vid=ac7ee7d2-d817-49fa-8f7e-8117b3485147"},"vehicle_type_id":"4","last_reported":1702037606,"current_range_meters":24000,"station_id":"ce4bgup2rcd13ifvqcn0","pricing_plan_id":"free"},{"bike_id":"005feb20-62e2-440f-88ed-7b81ba968c36","system_id":"levelo_inurba_marseille","lat":43.304606,"lon":5.379026,"is_reserved":false,"is_disabled":false,"rental_uris":{"android":"levelo://app?vid=005feb20-62e2-440f-88ed-7b81ba968c36","ios":"levelo://app?vid=005feb20-62e2-440f-88ed-7b81ba968c36"},"vehicle_type_id":"4","last_reported":1702037606,"current_range_meters":24000,"station_id":"ce4bgup2rcd13ifvqcn0","pricing_plan_id":"free"},{"bike_id":"5d211e44-48b9-4432-afb5-94e30fdaaffd","system_id":"levelo_inurba_marseille","lat":43.304606,"lon":5.379026,"is_reserved":false,"is_disabled":false,"rental_uris":{"android":"levelo://app?vid=5d211e44-48b9-4432-afb5-94e30fdaaffd","ios":"levelo://app?vid=5d211e44-48b9-4432-afb5-94e30fdaaffd"},"vehicle_type_id":"4","last_reported":1702037606,"current_range_meters":24000,"station_id":"ce4bgup2rcd13ifvqcn0","pricing_plan_id":"free"},{"bike_id":"b78972b0-3226-4bc7-9371-afcf5547305e","system_id":"levelo_inurba_marseille","lat":43.304606,"lon":5.379026,"is_reserved":false,"is_disabled":false,"rental_uris":{"android":"levelo://app?vid=b78972b0-3226-4bc7-9371-afcf5547305e","ios":"levelo://app?vid=b78972b0-3226-4bc7-9371-afcf5547305e"},"vehicle_type_id":"4","last_reported":1702037606,"current_range_meters":26800,"station_id":"ce4bgup2rcd13ifvqcn0","pricing_plan_id":"free"},{"bike_id":"d5532a42-6c35-4f68-9d4c-842ad605947a","system_id":"levelo_inurba_marseille","lat":43.301429,"lon":5.37413,"is_reserved":false,"is_disabled":false,"rental_uris":{"android":"levelo://app?vid=d5532a42-6c35-4f68-9d4c-842ad605947a","ios":"levelo://app?vid=d5532a42-6c35-4f68-9d4c-842ad605947a"},"vehicle_type_id":"4","last_reported":1702037606,"current_range_meters":30000,"station_id":"ce4bgs92rcd13ifvqcc0","pricing_plan_id":"free"},{"bike_id":"9ee0ef7a-8d9c-4d78-8ae5-64e12b708d26","system_id":"levelo_inurba_marseille","lat":43.319997,"lon":5.381594,"is_reserved":false,"is_disabled":false,"rental_uris":{"android":"levelo://app?vid=9ee0ef7a-8d9c-4d78-8ae5-64e12b708d26","ios":"levelo://app?vid=9ee0ef7a-8d9c-4d78-8ae5-64e12b708d26"},"vehicle_type_id":"4","last_reported":1702037606,"current_range_meters":0,"station_id":"ce4bhr12rcd13ifvqhpg","pricing_plan_id":"free"},{"bike_id":"a49b99ee-38eb-49b5-978d-00cf198fff08","system_id":"levelo_inurba_marseille","lat":43.299619,"lon":5.366326,"is_reserved":false,"is_disabled":false,"rental_uris":{"android":"levelo://app?vid=a49b99ee-38eb-49b5-978d-00cf198fff08","ios":"levelo://app?vid=a49b99ee-38eb-49b5-978d-00cf198fff08"},"vehicle_type_id":"4","last_reported":1702037606,"current_range_meters":20000,"station_id":"","pricing_plan_id":"free"},{"bike_id":"2ff5860c-4c7f-4788-b937-eebbd48d80b6","system_id":"levelo_inurba_marseille","lat":43.311722,"lon":5.387247,"is_reserved":false,"is_disabled":false,"rental_uris":{"android":"levelo://app?vid=2ff5860c-4c7f-4788-b937-eebbd48d80b6","ios":"levelo://app?vid=2ff5860c-4c7f-4788-b937-eebbd48d80b6"},"vehicle_type_id":"4","last_reported":1702037606,"current_range_meters":14800,"station_id":"ce4bgv12rcd13ifvqcp0","pricing_plan_id":"free"},{"bike_id":"3dcd4a73-468d-493a-bf11-93ceddd109f8","system_id":"levelo_inurba_marseille","lat":43.322872,"lon":5.382756,"is_reserved":false,"is_disabled":false,"rental_uris":{"android":"levelo://app?vid=3dcd4a73-468d-493a-bf11-93ceddd109f8","ios":"levelo://app?vid=3dcd4a73-468d-493a-bf11-93ceddd109f8"},"vehicle_type_id":"4","last_reported":1702037606,"current_range_meters":29600,"station_id":"ce4bhr12rcd13ifvqhqg","pricing_plan_id":"free"},{"bike_id":"9c864df5-f9be-4056-bac7-88739790c8b6","system_id":"levelo_inurba_marseille","lat":43.297163,"lon":5.365866,"is_reserved":false,"is_disabled":false,"rental_uris":{"android":"levelo://app?vid=9c864df5-f9be-4056-bac7-88739790c8b6","ios":"levelo://app?vid=9c864df5-f9be-4056-bac7-88739790c8b6"},"vehicle_type_id":"4","last_reported":1702037606,"current_range_meters":20400,"station_id":"ce4bgn12rcd13ifvqbt0","pricing_plan_id":"free"},{"bike_id":"7579423d-f3b8-4e7f-be59-2ba9da91b549","system_id":"levelo_inurba_marseille","lat":43.32752,"lon":5.37489,"is_reserved":false,"is_disabled":false,"rental_uris":{"android":"levelo://app?vid=7579423d-f3b8-4e7f-be59-2ba9da91b549","ios":"levelo://app?vid=7579423d-f3b8-4e7f-be59-2ba9da91b549"},"vehicle_type_id":"4","last_reported":1702037606,"current_range_meters":5200,"station_id":"","pricing_plan_id":"free"},{"bike_id":"745c09c7-4b4d-4f79-aefe-48e6b1e2b5e3","system_id":"levelo_inurba_marseille","lat":43.296131,"lon":5.370791,"is_reserved":false,"is_disabled":false,"rental_uris":{"android":"levelo://app?vid=745c09c7-4b4d-4f79-aefe-48e6b1e2b5e3","ios":"levelo://app?vid=745c09c7-4b4d-4f79-aefe-48e6b1e2b5e3"},"vehicle_type_id":"4","last_reported":1702037606,"current_range_meters":26800,"station_id":"ce4bgnh2rcd13ifvqc0g","pricing_plan_id":"free"},{"bike_id":"92dc65d6-6823-4de3-93d4-056f738f090c","system_id":"levelo_inurba_marseille","lat":43.316538,"lon":5.38954,"is_reserved":false,"is_disabled":false,"rental_uris":{"android":"levelo://app?vid=92dc65d6-6823-4de3-93d4-056f738f090c","ios":"levelo://app?vid=92dc65d6-6823-4de3-93d4-056f738f090c"},"vehicle_type_id":"4","last_reported":1702037606,"current_range_meters":2000,"station_id":"","pricing_plan_id":"free"},{"bike_id":"d0234ba9-2cda-4a1e-a9ec-2b95c8fb018f","system_id":"levelo_inurba_marseille","lat":43.29912,"lon":5.38152,"is_reserved":false,"is_disabled":false,"rental_uris":{"android":"levelo://app?vid=d0234ba9-2cda-4a1e-a9ec-2b95c8fb018f","ios":"levelo://app?vid=d0234ba9-2cda-4a1e-a9ec-2b95c8fb018f"},"vehicle_type_id":"4","last_reported":1702037606,"current_range_meters":16000,"station_id":"ce4bgj12rcd13ifvqbc0","pricing_plan_id":"free"},{"bike_id":"ffcc81f5-40fc-43ab-a88b-201ee618e360","system_id":"levelo_inurba_marseille","lat":43.309589,"lon":5.390258,"is_reserved":false,"is_disabled":false,"rental_uris":{"android":"levelo://app?vid=ffcc81f5-40fc-43ab-a88b-201ee618e360","ios":"levelo://app?vid=ffcc81f5-40fc-43ab-a88b-201ee618e360"},"vehicle_type_id":"4","last_reported":1702037606,"current_range_meters":22000,"station_id":"ce4bgup2rcd13ifvqco0","pricing_plan_id":"free"},{"bike_id":"0eff80ae-56b3-415f-a55c-ffb7060807e9","system_id":"levelo_inurba_marseille","lat":43.31756,"lon":5.39012,"is_reserved":false,"is_disabled":false,"rental_uris":{"android":"levelo://app?vid=0eff80ae-56b3-415f-a55c-ffb7060807e9","ios":"levelo://app?vid=0eff80ae-56b3-415f-a55c-ffb7060807e9"},"vehicle_type_id":"4","last_reported":1702037606,"current_range_meters":15600,"station_id":"ce4bhqp2rcd13ifvqhng","pricing_plan_id":"free"},{"bike_id":"b778f428-f32e-408b-a39d-b1733fbd4a39","system_id":"levelo_inurba_marseille","lat":43.298037,"lon":5.381066,"is_reserved":false,"is_disabled":false,"rental_uris":{"android":"levelo://app?vid=b778f428-f32e-408b-a39d-b1733fbd4a39","ios":"levelo://app?vid=b778f428-f32e-408b-a39d-b1733fbd4a39"},"vehicle_type_id":"4","last_reported":1702037606,"current_range_meters":12000,"station_id":"ce4bgip2rcd13ifvqbb0","pricing_plan_id":"free"},{"bike_id":"3905f076-baf9-4f25-91c6-44d9f7df14af","system_id":"levelo_inurba_marseille","lat":43.304274,"lon":5.388873,"is_reserved":false,"is_disabled":false,"rental_uris":{"android":"levelo://app?vid=3905f076-baf9-4f25-91c6-44d9f7df14af","ios":"levelo://app?vid=3905f076-baf9-4f25-91c6-44d9f7df14af"},"vehicle_type_id":"4","last_reported":1702037606,"current_range_meters":24400,"station_id":"ce4bgk12rcd13ifvqbi0","pricing_plan_id":"free"},{"bike_id":"6182a68d-fb48-4e4e-a80e-a7d7f926e551","system_id":"levelo_inurba_marseille","lat":43.295279,"lon":5.375048,"is_reserved":false,"is_disabled":false,"rental_uris":{"android":"levelo://app?vid=6182a68d-fb48-4e4e-a80e-a7d7f926e551","ios":"levelo://app?vid=6182a68d-fb48-4e4e-a80e-a7d7f926e551"},"vehicle_type_id":"4","last_reported":1702037606,"current_range_meters":4800,"station_id":"ce4bgkp2rcd13ifvqbmg","pricing_plan_id":"free"},{"bike_id":"cb5e323e-208c-46fa-81e2-649f54b5e0f6","system_id":"levelo_inurba_marseille","lat":43.32367,"lon":5.388836,"is_reserved":false,"is_disabled":false,"rental_uris":{"android":"levelo://app?vid=cb5e323e-208c-46fa-81e2-649f54b5e0f6","ios":"levelo://app?vid=cb5e323e-208c-46fa-81e2-649f54b5e0f6"},"vehicle_type_id":"4","last_reported":1702037606,"current_range_meters":12000,"station_id":"ce4bhqp2rcd13ifvqhog","pricing_plan_id":"free"},{"bike_id":"e37ac621-b119-47db-a4a0-b01f262c7bd9","system_id":"levelo_inurba_marseille","lat":43.32367,"lon":5.388836,"is_reserved":false,"is_disabled":false,"rental_uris":{"android":"levelo://app?vid=e37ac621-b119-47db-a4a0-b01f262c7bd9","ios":"levelo://app?vid=e37ac621-b119-47db-a4a0-b01f262c7bd9"},"vehicle_type_id":"4","last_reported":1702037606,"current_range_meters":22000,"station_id":"ce4bhqp2rcd13ifvqhog","pricing_plan_id":"free"},{"bike_id":"edb65791-72fd-4efe-a1f5-46dfb8da63e8","system_id":"levelo_inurba_marseille","lat":43.32362,"lon":5.38887,"is_reserved":false,"is_disabled":false,"rental_uris":{"android":"levelo://app?vid=edb65791-72fd-4efe-a1f5-46dfb8da63e8","ios":"levelo://app?vid=edb65791-72fd-4efe-a1f5-46dfb8da63e8"},"vehicle_type_id":"4","last_reported":1702037606,"current_range_meters":30000,"station_id":"ce4bhqp2rcd13ifvqhog","pricing_plan_id":"free"},{"bike_id":"72a0f98b-28e6-400e-8afa-e36247e3e3c7","system_id":"levelo_inurba_marseille","lat":43.299028,"lon":5.381509,"is_reserved":false,"is_disabled":false,"rental_uris":{"android":"levelo://app?vid=72a0f98b-28e6-400e-8afa-e36247e3e3c7","ios":"levelo://app?vid=72a0f98b-28e6-400e-8afa-e36247e3e3c7"},"vehicle_type_id":"4","last_reported":1702037606,"current_range_meters":14400,"station_id":"ce4bgj12rcd13ifvqbc0","pricing_plan_id":"free"},{"bike_id":"f2e491ed-0827-42a1-919c-94d5c6efabb9","system_id":"levelo_inurba_marseille","lat":43.29276,"lon":5.368562,"is_reserved":false,"is_disabled":false,"rental_uris":{"android":"levelo://app?vid=f2e491ed-0827-42a1-919c-94d5c6efabb9","ios":"levelo://app?vid=f2e491ed-0827-42a1-919c-94d5c6efabb9"},"vehicle_type_id":"4","last_reported":1702037606,"current_range_meters":25600,"station_id":"","pricing_plan_id":"free"},{"bike_id":"075dec1a-afcc-4c78-b2f4-6c3de7bd9145","system_id":"levelo_inurba_marseille","lat":43.305994,"lon":5.393687,"is_reserved":false,"is_disabled":false,"rental_uris":{"android":"levelo://app?vid=075dec1a-afcc-4c78-b2f4-6c3de7bd9145","ios":"levelo://app?vid=075dec1a-afcc-4c78-b2f4-6c3de7bd9145"},"vehicle_type_id":"4","last_reported":1702037606,"current_range_meters":27600,"station_id":"ce4bh0p2rcd13ifvqd80","pricing_plan_id":"free"},{"bike_id":"4c631d0d-4ecd-45f7-8bb4-df728dc423bf","system_id":"levelo_inurba_marseille","lat":43.305994,"lon":5.393687,"is_reserved":false,"is_disabled":false,"rental_uris":{"android":"levelo://app?vid=4c631d0d-4ecd-45f7-8bb4-df728dc423bf","ios":"levelo://app?vid=4c631d0d-4ecd-45f7-8bb4-df728dc423bf"},"vehicle_type_id":"4","last_reported":1702037606,"current_range_meters":30400,"station_id":"ce4bh0p2rcd13ifvqd80","pricing_plan_id":"free"},{"bike_id":"09b87425-9c31-48c4-ac72-6389c921df16","system_id":"levelo_inurba_marseille","lat":43.305994,"lon":5.393687,"is_reserved":false,"is_disabled":false,"rental_uris":{"android":"levelo://app?vid=09b87425-9c31-48c4-ac72-6389c921df16","ios":"levelo://app?vid=09b87425-9c31-48c4-ac72-6389c921df16"},"vehicle_type_id":"4","last_reported":1702037606,"current_range_meters":27200,"station_id":"ce4bh0p2rcd13ifvqd80","pricing_plan_id":"free"},{"bike_id":"d23dcc0a-abfe-4795-b2df-643eabe8964a","system_id":"levelo_inurba_marseille","lat":43.33277,"lon":5.37527,"is_reserved":false,"is_disabled":false,"rental_uris":{"android":"levelo://app?vid=d23dcc0a-abfe-4795-b2df-643eabe8964a","ios":"levelo://app?vid=d23dcc0a-abfe-4795-b2df-643eabe8964a"},"vehicle_type_id":"4","last_reported":1702037606,"current_range_meters":0,"station_id":"","pricing_plan_id":"free"},{"bike_id":"5ea657db-da24-4d82-9737-075b74cc8bce","system_id":"levelo_inurba_marseille","lat":43.300852,"lon":5.390859,"is_reserved":false,"is_disabled":false,"rental_uris":{"android":"levelo://app?vid=5ea657db-da24-4d82-9737-075b74cc8bce","ios":"levelo://app?vid=5ea657db-da24-4d82-9737-075b74cc8bce"},"vehicle_type_id":"4","last_reported":1702037606,"current_range_meters":4800,"station_id":"ce4bh192rcd13ifvqdb0","pricing_plan_id":"free"},{"bike_id":"e4c7ab43-dfc0-4d46-8207-2cf5f69986a8","system_id":"levelo_inurba_marseille","lat":43.29187,"lon":5.35797,"is_reserved":false,"is_disabled":false,"rental_uris":{"android":"levelo://app?vid=e4c7ab43-dfc0-4d46-8207-2cf5f69986a8","ios":"levelo://app?vid=e4c7ab43-dfc0-4d46-8207-2cf5f69986a8"},"vehicle_type_id":"4","last_reported":1702037606,"current_range_meters":20800,"station_id":"ce4bhb12rcd13ifvqel0","pricing_plan_id":"free"},{"bike_id":"46c9e93e-b7fc-4f7a-a21c-14fbdbc394dd","system_id":"levelo_inurba_marseille","lat":43.309038,"lon":5.396546,"is_reserved":false,"is_disabled":false,"rental_uris":{"android":"levelo://app?vid=46c9e93e-b7fc-4f7a-a21c-14fbdbc394dd","ios":"levelo://app?vid=46c9e93e-b7fc-4f7a-a21c-14fbdbc394dd"},"vehicle_type_id":"4","last_reported":1702037606,"current_range_meters":16000,"station_id":"ce4bh012rcd13ifvqcv0","pricing_plan_id":"free"},{"bike_id":"a297f2f8-8057-4099-8880-b277d120b84e","system_id":"levelo_inurba_marseille","lat":43.290631,"lon":5.359244,"is_reserved":false,"is_disabled":false,"rental_uris":{"android":"levelo://app?vid=a297f2f8-8057-4099-8880-b277d120b84e","ios":"levelo://app?vid=a297f2f8-8057-4099-8880-b277d120b84e"},"vehicle_type_id":"4","last_reported":1702037606,"current_range_meters":29200,"station_id":"ce4bha92rcd13ifvqeg0","pricing_plan_id":"free"},{"bike_id":"47503af7-5bb2-44d5-bf3e-f9874a945ae2","system_id":"levelo_inurba_marseille","lat":43.294153,"lon":5.386305,"is_reserved":false,"is_disabled":false,"rental_uris":{"android":"levelo://app?vid=47503af7-5bb2-44d5-bf3e-f9874a945ae2","ios":"levelo://app?vid=47503af7-5bb2-44d5-bf3e-f9874a945ae2"},"vehicle_type_id":"4","last_reported":1702037606,"current_range_meters":26800,"station_id":"ce4bh2h2rcd13ifvqdh0","pricing_plan_id":"free"},{"bike_id":"bb4af82b-29ef-44ca-baac-9099077e880f","system_id":"levelo_inurba_marseille","lat":43.290161,"lon":5.375651,"is_reserved":false,"is_disabled":false,"rental_uris":{"android":"levelo://app?vid=bb4af82b-29ef-44ca-baac-9099077e880f","ios":"levelo://app?vid=bb4af82b-29ef-44ca-baac-9099077e880f"},"vehicle_type_id":"4","last_reported":1702037606,"current_range_meters":17600,"station_id":"","pricing_plan_id":"free"},{"bike_id":"a02a1b20-1fb1-4951-988a-77389649024d","system_id":"levelo_inurba_marseille","lat":43.289259,"lon":5.366364,"is_reserved":false,"is_disabled":false,"rental_uris":{"android":"levelo://app?vid=a02a1b20-1fb1-4951-988a-77389649024d","ios":"levelo://app?vid=a02a1b20-1fb1-4951-988a-77389649024d"},"vehicle_type_id":"4","last_reported":1702037606,"current_range_meters":16000,"station_id":"","pricing_plan_id":"free"},{"bike_id":"9771dfd8-017b-477e-9f38-39c8dec9c905","system_id":"levelo_inurba_marseille","lat":43.28899,"lon":5.36665,"is_reserved":false,"is_disabled":false,"rental_uris":{"android":"levelo://app?vid=9771dfd8-017b-477e-9f38-39c8dec9c905","ios":"levelo://app?vid=9771dfd8-017b-477e-9f38-39c8dec9c905"},"vehicle_type_id":"4","last_reported":1702037606,"current_range_meters":31600,"station_id":"","pricing_plan_id":"free"},{"bike_id":"bd66ac50-4a5f-4810-8e10-82bbe5e9ddb0","system_id":"levelo_inurba_marseille","lat":43.290104,"lon":5.356111,"is_reserved":false,"is_disabled":false,"rental_uris":{"android":"levelo://app?vid=bd66ac50-4a5f-4810-8e10-82bbe5e9ddb0","ios":"levelo://app?vid=bd66ac50-4a5f-4810-8e10-82bbe5e9ddb0"},"vehicle_type_id":"4","last_reported":1702037606,"current_range_meters":21200,"station_id":"ce4bhb92rcd13ifvqen0","pricing_plan_id":"free"},{"bike_id":"8ca78430-9188-4e50-b220-199be11c314a","system_id":"levelo_inurba_marseille","lat":43.290995,"lon":5.381361,"is_reserved":false,"is_disabled":false,"rental_uris":{"android":"levelo://app?vid=8ca78430-9188-4e50-b220-199be11c314a","ios":"levelo://app?vid=8ca78430-9188-4e50-b220-199be11c314a"},"vehicle_type_id":"4","last_reported":1702037606,"current_range_meters":26400,"station_id":"ce4bh512rcd13ifvqe2g","pricing_plan_id":"free"},{"bike_id":"1a8241de-5e9e-4654-bbac-b17fef114f75","system_id":"levelo_inurba_marseille","lat":43.290995,"lon":5.381361,"is_reserved":false,"is_disabled":false,"rental_uris":{"android":"levelo://app?vid=1a8241de-5e9e-4654-bbac-b17fef114f75","ios":"levelo://app?vid=1a8241de-5e9e-4654-bbac-b17fef114f75"},"vehicle_type_id":"4","last_reported":1702037606,"current_range_meters":18400,"station_id":"ce4bh512rcd13ifvqe2g","pricing_plan_id":"free"},{"bike_id":"55bd147a-7408-43dc-a6d8-15971015e2a1","system_id":"levelo_inurba_marseille","lat":43.295169,"lon":5.390426,"is_reserved":false,"is_disabled":false,"rental_uris":{"android":"levelo://app?vid=55bd147a-7408-43dc-a6d8-15971015e2a1","ios":"levelo://app?vid=55bd147a-7408-43dc-a6d8-15971015e2a1"},"vehicle_type_id":"4","last_reported":1702037606,"current_range_meters":15200,"station_id":"ce4bh3p2rcd13ifvqdp0","pricing_plan_id":"free"},{"bike_id":"0d0b2c91-b50c-48cc-b15e-8703731080bb","system_id":"levelo_inurba_marseille","lat":43.295169,"lon":5.390426,"is_reserved":false,"is_disabled":false,"rental_uris":{"android":"levelo://app?vid=0d0b2c91-b50c-48cc-b15e-8703731080bb","ios":"levelo://app?vid=0d0b2c91-b50c-48cc-b15e-8703731080bb"},"vehicle_type_id":"4","last_reported":1702037606,"current_range_meters":12000,"station_id":"ce4bh3p2rcd13ifvqdp0","pricing_plan_id":"free"},{"bike_id":"0997f12e-6468-4789-837b-ed196a88d8d8","system_id":"levelo_inurba_marseille","lat":43.289741,"lon":5.378306,"is_reserved":false,"is_disabled":false,"rental_uris":{"android":"levelo://app?vid=0997f12e-6468-4789-837b-ed196a88d8d8","ios":"levelo://app?vid=0997f12e-6468-4789-837b-ed196a88d8d8"},"vehicle_type_id":"4","last_reported":1702037606,"current_range_meters":22000,"station_id":"ce4bh9p2rcd13ifvqed0","pricing_plan_id":"free"},{"bike_id":"4d731b30-23cb-4c4a-acdd-a6230a375696","system_id":"levelo_inurba_marseille","lat":43.30926,"lon":5.40143,"is_reserved":false,"is_disabled":false,"rental_uris":{"android":"levelo://app?vid=4d731b30-23cb-4c4a-acdd-a6230a375696","ios":"levelo://app?vid=4d731b30-23cb-4c4a-acdd-a6230a375696"},"vehicle_type_id":"4","last_reported":1702037606,"current_range_meters":31200,"station_id":"ce4bgvp2rcd13ifvqct0","pricing_plan_id":"free"},{"bike_id":"cf7fbb98-319d-4379-ad66-b0fed8e348d1","system_id":"levelo_inurba_marseille","lat":43.30927,"lon":5.40145,"is_reserved":false,"is_disabled":false,"rental_uris":{"android":"levelo://app?vid=cf7fbb98-319d-4379-ad66-b0fed8e348d1","ios":"levelo://app?vid=cf7fbb98-319d-4379-ad66-b0fed8e348d1"},"vehicle_type_id":"4","last_reported":1702037606,"current_range_meters":27600,"station_id":"ce4bgvp2rcd13ifvqct0","pricing_plan_id":"free"},{"bike_id":"e14e4d04-2996-46e2-b674-64965853f6bf","system_id":"levelo_inurba_marseille","lat":43.30642,"lon":5.401031,"is_reserved":false,"is_disabled":false,"rental_uris":{"android":"levelo://app?vid=e14e4d04-2996-46e2-b674-64965853f6bf","ios":"levelo://app?vid=e14e4d04-2996-46e2-b674-64965853f6bf"},"vehicle_type_id":"4","last_reported":1702037606,"current_range_meters":16000,"station_id":"ce4bh112rcd13ifvqda0","pricing_plan_id":"free"},{"bike_id":"378085b0-2812-4ef0-a861-f5e204836cde","system_id":"levelo_inurba_marseille","lat":43.301117,"lon":5.398795,"is_reserved":false,"is_disabled":false,"rental_uris":{"android":"levelo://app?vid=378085b0-2812-4ef0-a861-f5e204836cde","ios":"levelo://app?vid=378085b0-2812-4ef0-a861-f5e204836cde"},"vehicle_type_id":"4","last_reported":1702037606,"current_range_meters":21200,"station_id":"ce4bh0h2rcd13ifvqd40","pricing_plan_id":"free"},{"bike_id":"1254e6d8-11fb-43f8-9a4a-375cab48fbfa","system_id":"levelo_inurba_marseille","lat":43.301117,"lon":5.398795,"is_reserved":false,"is_disabled":false,"rental_uris":{"android":"levelo://app?vid=1254e6d8-11fb-43f8-9a4a-375cab48fbfa","ios":"levelo://app?vid=1254e6d8-11fb-43f8-9a4a-375cab48fbfa"},"vehicle_type_id":"4","last_reported":1702037606,"current_range_meters":22400,"station_id":"ce4bh0h2rcd13ifvqd40","pricing_plan_id":"free"},{"bike_id":"51e66480-3878-4c9a-bfbb-0d1a5159f890","system_id":"levelo_inurba_marseille","lat":43.289307,"lon":5.38406,"is_reserved":false,"is_disabled":false,"rental_uris":{"android":"levelo://app?vid=51e66480-3878-4c9a-bfbb-0d1a5159f890","ios":"levelo://app?vid=51e66480-3878-4c9a-bfbb-0d1a5159f890"},"vehicle_type_id":"4","last_reported":1702037606,"current_range_meters":30000,"station_id":"ce4bh612rcd13ifvqe6g","pricing_plan_id":"free"},{"bike_id":"e4a53184-265d-4094-b889-414af9e57ace","system_id":"levelo_inurba_marseille","lat":43.302759,"lon":5.400793,"is_reserved":false,"is_disabled":false,"rental_uris":{"android":"levelo://app?vid=e4a53184-265d-4094-b889-414af9e57ace","ios":"levelo://app?vid=e4a53184-265d-4094-b889-414af9e57ace"},"vehicle_type_id":"4","last_reported":1702037606,"current_range_meters":30400,"station_id":"ce4bgvh2rcd13ifvqcs0","pricing_plan_id":"free"},{"bike_id":"edff62a5-831a-487a-badc-cb272cd55293","system_id":"levelo_inurba_marseille","lat":43.302759,"lon":5.400793,"is_reserved":false,"is_disabled":false,"rental_uris":{"android":"levelo://app?vid=edff62a5-831a-487a-badc-cb272cd55293","ios":"levelo://app?vid=edff62a5-831a-487a-badc-cb272cd55293"},"vehicle_type_id":"4","last_reported":1702037606,"current_range_meters":6000,"station_id":"ce4bgvh2rcd13ifvqcs0","pricing_plan_id":"free"},{"bike_id":"53b61c47-6196-43da-8a2e-2b7f0f88826d","system_id":"levelo_inurba_marseille","lat":43.286039,"lon":5.370679,"is_reserved":false,"is_disabled":false,"rental_uris":{"android":"levelo://app?vid=53b61c47-6196-43da-8a2e-2b7f0f88826d","ios":"levelo://app?vid=53b61c47-6196-43da-8a2e-2b7f0f88826d"},"vehicle_type_id":"4","last_reported":1702037606,"current_range_meters":0,"station_id":"ce4bht12rcd13ifvqi60","pricing_plan_id":"free"},{"bike_id":"d638f1b0-1284-4736-ba98-63c227c2981b","system_id":"levelo_inurba_marseille","lat":43.29203,"lon":5.39325,"is_reserved":false,"is_disabled":false,"rental_uris":{"android":"levelo://app?vid=d638f1b0-1284-4736-ba98-63c227c2981b","ios":"levelo://app?vid=d638f1b0-1284-4736-ba98-63c227c2981b"},"vehicle_type_id":"4","last_reported":1702037606,"current_range_meters":18800,"station_id":"ce4bh192rcd13ifvqdd0","pricing_plan_id":"free"},{"bike_id":"2fbe1060-8908-40a2-a26b-939fd3ab2a95","system_id":"levelo_inurba_marseille","lat":43.291994,"lon":5.392907,"is_reserved":false,"is_disabled":false,"rental_uris":{"android":"levelo://app?vid=2fbe1060-8908-40a2-a26b-939fd3ab2a95","ios":"levelo://app?vid=2fbe1060-8908-40a2-a26b-939fd3ab2a95"},"vehicle_type_id":"4","last_reported":1702037606,"current_range_meters":24000,"station_id":"ce4bh192rcd13ifvqdd0","pricing_plan_id":"free"},{"bike_id":"62be4821-a3dc-4bf9-a23e-f09dba2e5d9c","system_id":"levelo_inurba_marseille","lat":43.283998,"lon":5.375062,"is_reserved":false,"is_disabled":false,"rental_uris":{"android":"levelo://app?vid=62be4821-a3dc-4bf9-a23e-f09dba2e5d9c","ios":"levelo://app?vid=62be4821-a3dc-4bf9-a23e-f09dba2e5d9c"},"vehicle_type_id":"4","last_reported":1702037606,"current_range_meters":19200,"station_id":"ce4bh412rcd13ifvqds0","pricing_plan_id":"free"},{"bike_id":"8b3fafd5-331b-4890-ab1a-79a960bd4b7a","system_id":"levelo_inurba_marseille","lat":43.283998,"lon":5.375062,"is_reserved":false,"is_disabled":false,"rental_uris":{"android":"levelo://app?vid=8b3fafd5-331b-4890-ab1a-79a960bd4b7a","ios":"levelo://app?vid=8b3fafd5-331b-4890-ab1a-79a960bd4b7a"},"vehicle_type_id":"4","last_reported":1702037606,"current_range_meters":24400,"station_id":"ce4bh412rcd13ifvqds0","pricing_plan_id":"free"},{"bike_id":"cf4fe96b-bf20-4a3a-b8f7-e23e57e9a818","system_id":"levelo_inurba_marseille","lat":43.283998,"lon":5.375062,"is_reserved":false,"is_disabled":false,"rental_uris":{"android":"levelo://app?vid=cf4fe96b-bf20-4a3a-b8f7-e23e57e9a818","ios":"levelo://app?vid=cf4fe96b-bf20-4a3a-b8f7-e23e57e9a818"},"vehicle_type_id":"4","last_reported":1702037606,"current_range_meters":2800,"station_id":"ce4bh412rcd13ifvqds0","pricing_plan_id":"free"},{"bike_id":"10fc081b-0f8a-4c77-bae3-90d09bccc687","system_id":"levelo_inurba_marseille","lat":43.28432,"lon":5.37829,"is_reserved":false,"is_disabled":false,"rental_uris":{"android":"levelo://app?vid=10fc081b-0f8a-4c77-bae3-90d09bccc687","ios":"levelo://app?vid=10fc081b-0f8a-4c77-bae3-90d09bccc687"},"vehicle_type_id":"4","last_reported":1702037606,"current_range_meters":28400,"station_id":"","pricing_plan_id":"free"},{"bike_id":"2062f313-5989-4c5d-85fe-3bf0a07bb4a4","system_id":"levelo_inurba_marseille","lat":43.286595,"lon":5.386795,"is_reserved":false,"is_disabled":false,"rental_uris":{"android":"levelo://app?vid=2062f313-5989-4c5d-85fe-3bf0a07bb4a4","ios":"levelo://app?vid=2062f313-5989-4c5d-85fe-3bf0a07bb4a4"},"vehicle_type_id":"4","last_reported":1702037606,"current_range_meters":17600,"station_id":"ce4bh492rcd13ifvqdug","pricing_plan_id":"free"},{"bike_id":"a467677d-92df-4d97-9e52-e6780c760738","system_id":"levelo_inurba_marseille","lat":43.319179,"lon":5.407725,"is_reserved":false,"is_disabled":false,"rental_uris":{"android":"levelo://app?vid=a467677d-92df-4d97-9e52-e6780c760738","ios":"levelo://app?vid=a467677d-92df-4d97-9e52-e6780c760738"},"vehicle_type_id":"4","last_reported":1702037606,"current_range_meters":8400,"station_id":"ce4bhq12rcd13ifvqhig","pricing_plan_id":"free"},{"bike_id":"391c6299-bb20-4ac9-a22f-2143c8795b24","system_id":"levelo_inurba_marseille","lat":43.337168,"lon":5.391825,"is_reserved":false,"is_disabled":false,"rental_uris":{"android":"levelo://app?vid=391c6299-bb20-4ac9-a22f-2143c8795b24","ios":"levelo://app?vid=391c6299-bb20-4ac9-a22f-2143c8795b24"},"vehicle_type_id":"4","last_reported":1702037606,"current_range_meters":27600,"station_id":"ce4bhr92rcd13ifvqhsg","pricing_plan_id":"free"},{"bike_id":"56ac9cc9-bb61-47d5-bb32-c23299a9fd93","system_id":"levelo_inurba_marseille","lat":43.3225,"lon":5.4069,"is_reserved":false,"is_disabled":false,"rental_uris":{"android":"levelo://app?vid=56ac9cc9-bb61-47d5-bb32-c23299a9fd93","ios":"levelo://app?vid=56ac9cc9-bb61-47d5-bb32-c23299a9fd93"},"vehicle_type_id":"4","last_reported":1702037606,"current_range_meters":24000,"station_id":"","pricing_plan_id":"free"},{"bike_id":"3f09a0d0-0ea2-44d6-9af1-03885bb0fd35","system_id":"levelo_inurba_marseille","lat":43.283498,"lon":5.380948,"is_reserved":false,"is_disabled":false,"rental_uris":{"android":"levelo://app?vid=3f09a0d0-0ea2-44d6-9af1-03885bb0fd35","ios":"levelo://app?vid=3f09a0d0-0ea2-44d6-9af1-03885bb0fd35"},"vehicle_type_id":"4","last_reported":1702037606,"current_range_meters":17200,"station_id":"ce4bh412rcd13ifvqdr0","pricing_plan_id":"free"},{"bike_id":"b9587647-1ce4-4b86-a392-867d01986546","system_id":"levelo_inurba_marseille","lat":43.284219,"lon":5.3497,"is_reserved":false,"is_disabled":false,"rental_uris":{"android":"levelo://app?vid=b9587647-1ce4-4b86-a392-867d01986546","ios":"levelo://app?vid=b9587647-1ce4-4b86-a392-867d01986546"},"vehicle_type_id":"4","last_reported":1702037606,"current_range_meters":26800,"station_id":"ce4bhbh2rcd13ifvqepg","pricing_plan_id":"free"},{"bike_id":"6a1c1323-1c5c-410d-a28c-38f79b37e227","system_id":"levelo_inurba_marseille","lat":43.284793,"lon":5.384113,"is_reserved":false,"is_disabled":false,"rental_uris":{"android":"levelo://app?vid=6a1c1323-1c5c-410d-a28c-38f79b37e227","ios":"levelo://app?vid=6a1c1323-1c5c-410d-a28c-38f79b37e227"},"vehicle_type_id":"4","last_reported":1702037606,"current_range_meters":26400,"station_id":"ce4bh512rcd13ifvqe3g","pricing_plan_id":"free"},{"bike_id":"f202e23c-7c59-419e-9b6c-9ae6035bd01c","system_id":"levelo_inurba_marseille","lat":43.28039,"lon":5.369297,"is_reserved":false,"is_disabled":false,"rental_uris":{"android":"levelo://app?vid=f202e23c-7c59-419e-9b6c-9ae6035bd01c","ios":"levelo://app?vid=f202e23c-7c59-419e-9b6c-9ae6035bd01c"},"vehicle_type_id":"4","last_reported":1702037606,"current_range_meters":26400,"station_id":"ce4bha12rcd13ifvqef0","pricing_plan_id":"free"},{"bike_id":"48ea568c-1a24-42e5-a172-c97af0518fcc","system_id":"levelo_inurba_marseille","lat":43.281044,"lon":5.378308,"is_reserved":false,"is_disabled":false,"rental_uris":{"android":"levelo://app?vid=48ea568c-1a24-42e5-a172-c97af0518fcc","ios":"levelo://app?vid=48ea568c-1a24-42e5-a172-c97af0518fcc"},"vehicle_type_id":"4","last_reported":1702037606,"current_range_meters":26000,"station_id":"ce4bha12rcd13ifvqee0","pricing_plan_id":"free"},{"bike_id":"18042a15-56ee-40e1-80a8-bf6eafedf451","system_id":"levelo_inurba_marseille","lat":43.281044,"lon":5.378308,"is_reserved":false,"is_disabled":false,"rental_uris":{"android":"levelo://app?vid=18042a15-56ee-40e1-80a8-bf6eafedf451","ios":"levelo://app?vid=18042a15-56ee-40e1-80a8-bf6eafedf451"},"vehicle_type_id":"4","last_reported":1702037606,"current_range_meters":1600,"station_id":"ce4bha12rcd13ifvqee0","pricing_plan_id":"free"},{"bike_id":"e06c4ceb-42cd-4e91-9260-95f93e652f70","system_id":"levelo_inurba_marseille","lat":43.284462,"lon":5.392121,"is_reserved":false,"is_disabled":false,"rental_uris":{"android":"levelo://app?vid=e06c4ceb-42cd-4e91-9260-95f93e652f70","ios":"levelo://app?vid=e06c4ceb-42cd-4e91-9260-95f93e652f70"},"vehicle_type_id":"4","last_reported":1702037606,"current_range_meters":10000,"station_id":"ce4bhoh2rcd13ifvqh5g","pricing_plan_id":"free"},{"bike_id":"f14ead39-4f41-4599-9321-f960783c1e12","system_id":"levelo_inurba_marseille","lat":43.326605,"lon":5.409903,"is_reserved":false,"is_disabled":false,"rental_uris":{"android":"levelo://app?vid=f14ead39-4f41-4599-9321-f960783c1e12","ios":"levelo://app?vid=f14ead39-4f41-4599-9321-f960783c1e12"},"vehicle_type_id":"4","last_reported":1702037606,"current_range_meters":28400,"station_id":"ce4bhpp2rcd13ifvqhgg","pricing_plan_id":"free"},{"bike_id":"46faea07-14b6-4776-a454-ec051dbfb7d8","system_id":"levelo_inurba_marseille","lat":43.326605,"lon":5.409903,"is_reserved":false,"is_disabled":false,"rental_uris":{"android":"levelo://app?vid=46faea07-14b6-4776-a454-ec051dbfb7d8","ios":"levelo://app?vid=46faea07-14b6-4776-a454-ec051dbfb7d8"},"vehicle_type_id":"4","last_reported":1702037606,"current_range_meters":22400,"station_id":"ce4bhpp2rcd13ifvqhgg","pricing_plan_id":"free"},{"bike_id":"070a260d-ecc1-46d1-afab-6774750cd900","system_id":"levelo_inurba_marseille","lat":43.326605,"lon":5.409903,"is_reserved":false,"is_disabled":false,"rental_uris":{"android":"levelo://app?vid=070a260d-ecc1-46d1-afab-6774750cd900","ios":"levelo://app?vid=070a260d-ecc1-46d1-afab-6774750cd900"},"vehicle_type_id":"4","last_reported":1702037606,"current_range_meters":31600,"station_id":"ce4bhpp2rcd13ifvqhgg","pricing_plan_id":"free"},{"bike_id":"bf9c0286-54ca-458d-a58a-9d0d9c0353fb","system_id":"levelo_inurba_marseille","lat":43.279087,"lon":5.380114,"is_reserved":false,"is_disabled":false,"rental_uris":{"android":"levelo://app?vid=bf9c0286-54ca-458d-a58a-9d0d9c0353fb","ios":"levelo://app?vid=bf9c0286-54ca-458d-a58a-9d0d9c0353fb"},"vehicle_type_id":"4","last_reported":1702037606,"current_range_meters":31200,"station_id":"ce4bhf92rcd13ifvqf50","pricing_plan_id":"free"},{"bike_id":"202c200e-a556-4ddc-86be-5bfd39b25071","system_id":"levelo_inurba_marseille","lat":43.320045,"lon":5.415046,"is_reserved":false,"is_disabled":false,"rental_uris":{"android":"levelo://app?vid=202c200e-a556-4ddc-86be-5bfd39b25071","ios":"levelo://app?vid=202c200e-a556-4ddc-86be-5bfd39b25071"},"vehicle_type_id":"4","last_reported":1702037606,"current_range_meters":30000,"station_id":"ce4bhq92rcd13ifvqhkg","pricing_plan_id":"free"},{"bike_id":"736a495f-1b3a-43fe-b0c8-0781e65a5f08","system_id":"levelo_inurba_marseille","lat":43.325233,"lon":5.414318,"is_reserved":false,"is_disabled":false,"rental_uris":{"android":"levelo://app?vid=736a495f-1b3a-43fe-b0c8-0781e65a5f08","ios":"levelo://app?vid=736a495f-1b3a-43fe-b0c8-0781e65a5f08"},"vehicle_type_id":"4","last_reported":1702037606,"current_range_meters":24000,"station_id":"ce4bhq12rcd13ifvqhhg","pricing_plan_id":"free"},{"bike_id":"f129d00a-9097-43b2-b2ae-cd2ff2ba5d24","system_id":"levelo_inurba_marseille","lat":43.325243,"lon":5.414326,"is_reserved":false,"is_disabled":false,"rental_uris":{"android":"levelo://app?vid=f129d00a-9097-43b2-b2ae-cd2ff2ba5d24","ios":"levelo://app?vid=f129d00a-9097-43b2-b2ae-cd2ff2ba5d24"},"vehicle_type_id":"4","last_reported":1702037606,"current_range_meters":26800,"station_id":"ce4bhq12rcd13ifvqhhg","pricing_plan_id":"free"},{"bike_id":"1e655623-956c-4fe1-bde6-bf74c7d94ab1","system_id":"levelo_inurba_marseille","lat":43.325233,"lon":5.414318,"is_reserved":false,"is_disabled":false,"rental_uris":{"android":"levelo://app?vid=1e655623-956c-4fe1-bde6-bf74c7d94ab1","ios":"levelo://app?vid=1e655623-956c-4fe1-bde6-bf74c7d94ab1"},"vehicle_type_id":"4","last_reported":1702037606,"current_range_meters":17600,"station_id":"ce4bhq12rcd13ifvqhhg","pricing_plan_id":"free"},{"bike_id":"3b81d7ce-2b7e-4751-bdc5-5b1bd2e6cb00","system_id":"levelo_inurba_marseille","lat":43.292569,"lon":5.409107,"is_reserved":false,"is_disabled":false,"rental_uris":{"android":"levelo://app?vid=3b81d7ce-2b7e-4751-bdc5-5b1bd2e6cb00","ios":"levelo://app?vid=3b81d7ce-2b7e-4751-bdc5-5b1bd2e6cb00"},"vehicle_type_id":"4","last_reported":1702037606,"current_range_meters":18000,"station_id":"ce4bh192rcd13ifvqdc0","pricing_plan_id":"free"},{"bike_id":"21353717-0ebc-4941-8111-34c7a0b5fb53","system_id":"levelo_inurba_marseille","lat":43.280765,"lon":5.396504,"is_reserved":false,"is_disabled":false,"rental_uris":{"android":"levelo://app?vid=21353717-0ebc-4941-8111-34c7a0b5fb53","ios":"levelo://app?vid=21353717-0ebc-4941-8111-34c7a0b5fb53"},"vehicle_type_id":"4","last_reported":1702037606,"current_range_meters":19600,"station_id":"ce4bho12rcd13ifvqh2g","pricing_plan_id":"free"},{"bike_id":"e62f8b5d-394e-44ec-869a-18461e7fffe7","system_id":"levelo_inurba_marseille","lat":43.33612,"lon":5.410321,"is_reserved":false,"is_disabled":false,"rental_uris":{"android":"levelo://app?vid=e62f8b5d-394e-44ec-869a-18461e7fffe7","ios":"levelo://app?vid=e62f8b5d-394e-44ec-869a-18461e7fffe7"},"vehicle_type_id":"4","last_reported":1702037606,"current_range_meters":6400,"station_id":"ce4bhqh2rcd13ifvqhmg","pricing_plan_id":"free"},{"bike_id":"4aa74ef3-9baf-4e0a-ba09-aeaa1d39d2b3","system_id":"levelo_inurba_marseille","lat":43.278401,"lon":5.392152,"is_reserved":false,"is_disabled":false,"rental_uris":{"android":"levelo://app?vid=4aa74ef3-9baf-4e0a-ba09-aeaa1d39d2b3","ios":"levelo://app?vid=4aa74ef3-9baf-4e0a-ba09-aeaa1d39d2b3"},"vehicle_type_id":"4","last_reported":1702037606,"current_range_meters":27600,"station_id":"ce4bhjp2rcd13ifvqga0","pricing_plan_id":"free"},{"bike_id":"8e944af9-15d9-4586-9d58-f006d092ee17","system_id":"levelo_inurba_marseille","lat":43.278399,"lon":5.392139,"is_reserved":false,"is_disabled":false,"rental_uris":{"android":"levelo://app?vid=8e944af9-15d9-4586-9d58-f006d092ee17","ios":"levelo://app?vid=8e944af9-15d9-4586-9d58-f006d092ee17"},"vehicle_type_id":"4","last_reported":1702037606,"current_range_meters":28000,"station_id":"ce4bhjp2rcd13ifvqga0","pricing_plan_id":"free"},{"bike_id":"3aeccb90-6e2d-4004-8f31-fdf205ef65b7","system_id":"levelo_inurba_marseille","lat":43.27829,"lon":5.391907,"is_reserved":false,"is_disabled":false,"rental_uris":{"android":"levelo://app?vid=3aeccb90-6e2d-4004-8f31-fdf205ef65b7","ios":"levelo://app?vid=3aeccb90-6e2d-4004-8f31-fdf205ef65b7"},"vehicle_type_id":"4","last_reported":1702037606,"current_range_meters":400,"station_id":"ce4bhjp2rcd13ifvqga0","pricing_plan_id":"free"},{"bike_id":"92288d4e-db85-49a0-8d44-3c330313b612","system_id":"levelo_inurba_marseille","lat":43.278399,"lon":5.392139,"is_reserved":false,"is_disabled":false,"rental_uris":{"android":"levelo://app?vid=92288d4e-db85-49a0-8d44-3c330313b612","ios":"levelo://app?vid=92288d4e-db85-49a0-8d44-3c330313b612"},"vehicle_type_id":"4","last_reported":1702037606,"current_range_meters":29200,"station_id":"ce4bhjp2rcd13ifvqga0","pricing_plan_id":"free"},{"bike_id":"e96821f8-691f-4feb-ba28-88192fe8e487","system_id":"levelo_inurba_marseille","lat":43.276769,"lon":5.388787,"is_reserved":false,"is_disabled":false,"rental_uris":{"android":"levelo://app?vid=e96821f8-691f-4feb-ba28-88192fe8e487","ios":"levelo://app?vid=e96821f8-691f-4feb-ba28-88192fe8e487"},"vehicle_type_id":"4","last_reported":1702037606,"current_range_meters":2000,"station_id":"ce4bhi12rcd13ifvqfo0","pricing_plan_id":"free"},{"bike_id":"cf69335c-3830-4298-97e6-91cd2c790914","system_id":"levelo_inurba_marseille","lat":43.276771,"lon":5.388799,"is_reserved":false,"is_disabled":false,"rental_uris":{"android":"levelo://app?vid=cf69335c-3830-4298-97e6-91cd2c790914","ios":"levelo://app?vid=cf69335c-3830-4298-97e6-91cd2c790914"},"vehicle_type_id":"4","last_reported":1702037606,"current_range_meters":12400,"station_id":"ce4bhi12rcd13ifvqfo0","pricing_plan_id":"free"},{"bike_id":"5cc7b054-7f74-4799-ba27-acd88dcc15ab","system_id":"levelo_inurba_marseille","lat":43.27643,"lon":5.391885,"is_reserved":false,"is_disabled":false,"rental_uris":{"android":"levelo://app?vid=5cc7b054-7f74-4799-ba27-acd88dcc15ab","ios":"levelo://app?vid=5cc7b054-7f74-4799-ba27-acd88dcc15ab"},"vehicle_type_id":"4","last_reported":1702037606,"current_range_meters":19600,"station_id":"","pricing_plan_id":"free"},{"bike_id":"07fb60d7-d620-4490-9a03-fddbb621ec0c","system_id":"levelo_inurba_marseille","lat":43.279975,"lon":5.40009,"is_reserved":false,"is_disabled":false,"rental_uris":{"android":"levelo://app?vid=07fb60d7-d620-4490-9a03-fddbb621ec0c","ios":"levelo://app?vid=07fb60d7-d620-4490-9a03-fddbb621ec0c"},"vehicle_type_id":"4","last_reported":1702037606,"current_range_meters":20400,"station_id":"ce4bho92rcd13ifvqh4g","pricing_plan_id":"free"},{"bike_id":"986e2640-07f1-4aaf-ae9d-a0bb0a20f26c","system_id":"levelo_inurba_marseille","lat":43.279975,"lon":5.40009,"is_reserved":false,"is_disabled":false,"rental_uris":{"android":"levelo://app?vid=986e2640-07f1-4aaf-ae9d-a0bb0a20f26c","ios":"levelo://app?vid=986e2640-07f1-4aaf-ae9d-a0bb0a20f26c"},"vehicle_type_id":"4","last_reported":1702037606,"current_range_meters":24000,"station_id":"ce4bho92rcd13ifvqh4g","pricing_plan_id":"free"},{"bike_id":"200eafbf-d9f3-4a6e-935c-b56619044876","system_id":"levelo_inurba_marseille","lat":43.28761,"lon":5.41208,"is_reserved":false,"is_disabled":false,"rental_uris":{"android":"levelo://app?vid=200eafbf-d9f3-4a6e-935c-b56619044876","ios":"levelo://app?vid=200eafbf-d9f3-4a6e-935c-b56619044876"},"vehicle_type_id":"4","last_reported":1702037606,"current_range_meters":24000,"station_id":"","pricing_plan_id":"free"},{"bike_id":"7777002e-5813-436f-aaf3-5560b01b82cf","system_id":"levelo_inurba_marseille","lat":43.310785,"lon":5.424305,"is_reserved":false,"is_disabled":false,"rental_uris":{"android":"levelo://app?vid=7777002e-5813-436f-aaf3-5560b01b82cf","ios":"levelo://app?vid=7777002e-5813-436f-aaf3-5560b01b82cf"},"vehicle_type_id":"4","last_reported":1702037606,"current_range_meters":19600,"station_id":"ce4bhp92rcd13ifvqhag","pricing_plan_id":"free"},{"bike_id":"63133364-316e-458e-b234-bbd4926c63fc","system_id":"levelo_inurba_marseille","lat":43.27583,"lon":5.39474,"is_reserved":false,"is_disabled":false,"rental_uris":{"android":"levelo://app?vid=63133364-316e-458e-b234-bbd4926c63fc","ios":"levelo://app?vid=63133364-316e-458e-b234-bbd4926c63fc"},"vehicle_type_id":"4","last_reported":1702037606,"current_range_meters":12800,"station_id":"","pricing_plan_id":"free"},{"bike_id":"22de4af3-0d06-42f9-a551-fd364940a6b0","system_id":"levelo_inurba_marseille","lat":43.304096,"lon":5.425385,"is_reserved":false,"is_disabled":false,"rental_uris":{"android":"levelo://app?vid=22de4af3-0d06-42f9-a551-fd364940a6b0","ios":"levelo://app?vid=22de4af3-0d06-42f9-a551-fd364940a6b0"},"vehicle_type_id":"4","last_reported":1702037606,"current_range_meters":30400,"station_id":"ce4bhoh2rcd13ifvqh6g","pricing_plan_id":"free"},{"bike_id":"abd0188d-5296-4fd8-b0e7-5e7d18169c46","system_id":"levelo_inurba_marseille","lat":43.304096,"lon":5.425385,"is_reserved":false,"is_disabled":false,"rental_uris":{"android":"levelo://app?vid=abd0188d-5296-4fd8-b0e7-5e7d18169c46","ios":"levelo://app?vid=abd0188d-5296-4fd8-b0e7-5e7d18169c46"},"vehicle_type_id":"4","last_reported":1702037606,"current_range_meters":24000,"station_id":"ce4bhoh2rcd13ifvqh6g","pricing_plan_id":"free"},{"bike_id":"4ee84928-30de-467c-8215-de7b5558b7ed","system_id":"levelo_inurba_marseille","lat":43.295511,"lon":5.422926,"is_reserved":false,"is_disabled":false,"rental_uris":{"android":"levelo://app?vid=4ee84928-30de-467c-8215-de7b5558b7ed","ios":"levelo://app?vid=4ee84928-30de-467c-8215-de7b5558b7ed"},"vehicle_type_id":"4","last_reported":1702037606,"current_range_meters":31200,"station_id":"ce4bhph2rcd13ifvqhdg","pricing_plan_id":"free"},{"bike_id":"c9a354e1-cd47-4a73-9444-d6227e3bfab5","system_id":"levelo_inurba_marseille","lat":43.295511,"lon":5.422926,"is_reserved":false,"is_disabled":false,"rental_uris":{"android":"levelo://app?vid=c9a354e1-cd47-4a73-9444-d6227e3bfab5","ios":"levelo://app?vid=c9a354e1-cd47-4a73-9444-d6227e3bfab5"},"vehicle_type_id":"4","last_reported":1702037606,"current_range_meters":29200,"station_id":"ce4bhph2rcd13ifvqhdg","pricing_plan_id":"free"},{"bike_id":"8f021145-48f8-459b-aef0-f8921e18b0a0","system_id":"levelo_inurba_marseille","lat":43.27214,"lon":5.3925,"is_reserved":false,"is_disabled":false,"rental_uris":{"android":"levelo://app?vid=8f021145-48f8-459b-aef0-f8921e18b0a0","ios":"levelo://app?vid=8f021145-48f8-459b-aef0-f8921e18b0a0"},"vehicle_type_id":"4","last_reported":1702037606,"current_range_meters":5600,"station_id":"","pricing_plan_id":"free"},{"bike_id":"4595e785-a865-404e-ba17-c7681f2ce7cb","system_id":"levelo_inurba_marseille","lat":43.278128,"lon":5.407195,"is_reserved":false,"is_disabled":false,"rental_uris":{"android":"levelo://app?vid=4595e785-a865-404e-ba17-c7681f2ce7cb","ios":"levelo://app?vid=4595e785-a865-404e-ba17-c7681f2ce7cb"},"vehicle_type_id":"4","last_reported":1702037606,"current_range_meters":7600,"station_id":"ce4bhnh2rcd13ifvqgtg","pricing_plan_id":"free"},{"bike_id":"2e85e846-8324-4813-8d3e-dfa625a93eaa","system_id":"levelo_inurba_marseille","lat":43.278128,"lon":5.407195,"is_reserved":false,"is_disabled":false,"rental_uris":{"android":"levelo://app?vid=2e85e846-8324-4813-8d3e-dfa625a93eaa","ios":"levelo://app?vid=2e85e846-8324-4813-8d3e-dfa625a93eaa"},"vehicle_type_id":"4","last_reported":1702037606,"current_range_meters":30800,"station_id":"ce4bhnh2rcd13ifvqgtg","pricing_plan_id":"free"},{"bike_id":"958e6c89-fee0-4e04-ac15-f4eafb2a9c27","system_id":"levelo_inurba_marseille","lat":43.27813,"lon":5.40712,"is_reserved":false,"is_disabled":false,"rental_uris":{"android":"levelo://app?vid=958e6c89-fee0-4e04-ac15-f4eafb2a9c27","ios":"levelo://app?vid=958e6c89-fee0-4e04-ac15-f4eafb2a9c27"},"vehicle_type_id":"4","last_reported":1702037606,"current_range_meters":15200,"station_id":"ce4bhnh2rcd13ifvqgtg","pricing_plan_id":"free"},{"bike_id":"96b32429-8056-45ef-8a81-5a563d63416c","system_id":"levelo_inurba_marseille","lat":43.278128,"lon":5.407195,"is_reserved":false,"is_disabled":false,"rental_uris":{"android":"levelo://app?vid=96b32429-8056-45ef-8a81-5a563d63416c","ios":"levelo://app?vid=96b32429-8056-45ef-8a81-5a563d63416c"},"vehicle_type_id":"4","last_reported":1702037606,"current_range_meters":8800,"station_id":"ce4bhnh2rcd13ifvqgtg","pricing_plan_id":"free"},{"bike_id":"53e7aff5-d8ad-4bdd-8a18-a1b511539446","system_id":"levelo_inurba_marseille","lat":43.27812,"lon":5.40711,"is_reserved":false,"is_disabled":false,"rental_uris":{"android":"levelo://app?vid=53e7aff5-d8ad-4bdd-8a18-a1b511539446","ios":"levelo://app?vid=53e7aff5-d8ad-4bdd-8a18-a1b511539446"},"vehicle_type_id":"4","last_reported":1702037606,"current_range_meters":12400,"station_id":"ce4bhnh2rcd13ifvqgtg","pricing_plan_id":"free"},{"bike_id":"2eb7b164-467e-49b0-a554-29c177f95c2a","system_id":"levelo_inurba_marseille","lat":43.278128,"lon":5.407195,"is_reserved":false,"is_disabled":false,"rental_uris":{"android":"levelo://app?vid=2eb7b164-467e-49b0-a554-29c177f95c2a","ios":"levelo://app?vid=2eb7b164-467e-49b0-a554-29c177f95c2a"},"vehicle_type_id":"4","last_reported":1702037606,"current_range_meters":26000,"station_id":"ce4bhnh2rcd13ifvqgtg","pricing_plan_id":"free"},{"bike_id":"4b0b0fab-bd69-436d-a201-3b8f42410276","system_id":"levelo_inurba_marseille","lat":43.278128,"lon":5.407195,"is_reserved":false,"is_disabled":false,"rental_uris":{"android":"levelo://app?vid=4b0b0fab-bd69-436d-a201-3b8f42410276","ios":"levelo://app?vid=4b0b0fab-bd69-436d-a201-3b8f42410276"},"vehicle_type_id":"4","last_reported":1702037606,"current_range_meters":26000,"station_id":"ce4bhnh2rcd13ifvqgtg","pricing_plan_id":"free"},{"bike_id":"3770299f-f07b-42e4-8d8f-2742b5e04589","system_id":"levelo_inurba_marseille","lat":43.27811,"lon":5.40715,"is_reserved":false,"is_disabled":false,"rental_uris":{"android":"levelo://app?vid=3770299f-f07b-42e4-8d8f-2742b5e04589","ios":"levelo://app?vid=3770299f-f07b-42e4-8d8f-2742b5e04589"},"vehicle_type_id":"4","last_reported":1702037606,"current_range_meters":18000,"station_id":"ce4bhnh2rcd13ifvqgtg","pricing_plan_id":"free"},{"bike_id":"0919e87c-4337-45ca-a2e8-a7b2006ec699","system_id":"levelo_inurba_marseille","lat":43.27803,"lon":5.40706,"is_reserved":false,"is_disabled":false,"rental_uris":{"android":"levelo://app?vid=0919e87c-4337-45ca-a2e8-a7b2006ec699","ios":"levelo://app?vid=0919e87c-4337-45ca-a2e8-a7b2006ec699"},"vehicle_type_id":"4","last_reported":1702037606,"current_range_meters":24400,"station_id":"ce4bhnh2rcd13ifvqgtg","pricing_plan_id":"free"},{"bike_id":"4d081a24-b2dc-4157-b8de-f8109de736e9","system_id":"levelo_inurba_marseille","lat":43.278128,"lon":5.407195,"is_reserved":false,"is_disabled":false,"rental_uris":{"android":"levelo://app?vid=4d081a24-b2dc-4157-b8de-f8109de736e9","ios":"levelo://app?vid=4d081a24-b2dc-4157-b8de-f8109de736e9"},"vehicle_type_id":"4","last_reported":1702037606,"current_range_meters":3600,"station_id":"ce4bhnh2rcd13ifvqgtg","pricing_plan_id":"free"},{"bike_id":"69a49203-13f3-40eb-bea8-3a94f70e8668","system_id":"levelo_inurba_marseille","lat":43.269467,"lon":5.386439,"is_reserved":false,"is_disabled":false,"rental_uris":{"android":"levelo://app?vid=69a49203-13f3-40eb-bea8-3a94f70e8668","ios":"levelo://app?vid=69a49203-13f3-40eb-bea8-3a94f70e8668"},"vehicle_type_id":"4","last_reported":1702037606,"current_range_meters":19600,"station_id":"ce4bhh92rcd13ifvqfh0","pricing_plan_id":"free"},{"bike_id":"fa47f06e-4fc7-41c1-941f-bcb20e227d8e","system_id":"levelo_inurba_marseille","lat":43.2794,"lon":5.41048,"is_reserved":false,"is_disabled":false,"rental_uris":{"android":"levelo://app?vid=fa47f06e-4fc7-41c1-941f-bcb20e227d8e","ios":"levelo://app?vid=fa47f06e-4fc7-41c1-941f-bcb20e227d8e"},"vehicle_type_id":"4","last_reported":1702037606,"current_range_meters":7600,"station_id":"ce4bhnp2rcd13ifvqh0g","pricing_plan_id":"free"},{"bike_id":"aefcadae-0d2a-40cf-bcf0-43f3544e4085","system_id":"levelo_inurba_marseille","lat":43.279465,"lon":5.410561,"is_reserved":false,"is_disabled":false,"rental_uris":{"android":"levelo://app?vid=aefcadae-0d2a-40cf-bcf0-43f3544e4085","ios":"levelo://app?vid=aefcadae-0d2a-40cf-bcf0-43f3544e4085"},"vehicle_type_id":"4","last_reported":1702037606,"current_range_meters":15200,"station_id":"ce4bhnp2rcd13ifvqh0g","pricing_plan_id":"free"},{"bike_id":"cad2b187-7cbb-49e9-bdb4-f68e59a8200b","system_id":"levelo_inurba_marseille","lat":43.269319,"lon":5.389397,"is_reserved":false,"is_disabled":false,"rental_uris":{"android":"levelo://app?vid=cad2b187-7cbb-49e9-bdb4-f68e59a8200b","ios":"levelo://app?vid=cad2b187-7cbb-49e9-bdb4-f68e59a8200b"},"vehicle_type_id":"4","last_reported":1702037606,"current_range_meters":31200,"station_id":"ce4bhhh2rcd13ifvqfl0","pricing_plan_id":"free"},{"bike_id":"cbf3a8e8-ea42-4ad0-ab20-c9347882a4a4","system_id":"levelo_inurba_marseille","lat":43.26681,"lon":5.382694,"is_reserved":false,"is_disabled":false,"rental_uris":{"android":"levelo://app?vid=cbf3a8e8-ea42-4ad0-ab20-c9347882a4a4","ios":"levelo://app?vid=cbf3a8e8-ea42-4ad0-ab20-c9347882a4a4"},"vehicle_type_id":"4","last_reported":1702037606,"current_range_meters":13200,"station_id":"ce4bhg92rcd13ifvqf90","pricing_plan_id":"free"},{"bike_id":"69cf0675-0b26-4e62-9580-22f1eaf1e028","system_id":"levelo_inurba_marseille","lat":43.26681,"lon":5.382694,"is_reserved":false,"is_disabled":false,"rental_uris":{"android":"levelo://app?vid=69cf0675-0b26-4e62-9580-22f1eaf1e028","ios":"levelo://app?vid=69cf0675-0b26-4e62-9580-22f1eaf1e028"},"vehicle_type_id":"4","last_reported":1702037606,"current_range_meters":31600,"station_id":"ce4bhg92rcd13ifvqf90","pricing_plan_id":"free"},{"bike_id":"278d3881-2a72-4b9f-b073-2914ce67f608","system_id":"levelo_inurba_marseille","lat":43.26681,"lon":5.382694,"is_reserved":false,"is_disabled":false,"rental_uris":{"android":"levelo://app?vid=278d3881-2a72-4b9f-b073-2914ce67f608","ios":"levelo://app?vid=278d3881-2a72-4b9f-b073-2914ce67f608"},"vehicle_type_id":"4","last_reported":1702037606,"current_range_meters":30400,"station_id":"ce4bhg92rcd13ifvqf90","pricing_plan_id":"free"},{"bike_id":"64205017-117b-49da-8a8d-7d36ff1d6f75","system_id":"levelo_inurba_marseille","lat":43.26681,"lon":5.382694,"is_reserved":false,"is_disabled":false,"rental_uris":{"android":"levelo://app?vid=64205017-117b-49da-8a8d-7d36ff1d6f75","ios":"levelo://app?vid=64205017-117b-49da-8a8d-7d36ff1d6f75"},"vehicle_type_id":"4","last_reported":1702037606,"current_range_meters":31200,"station_id":"ce4bhg92rcd13ifvqf90","pricing_plan_id":"free"},{"bike_id":"7a17f604-634f-49b3-aa9c-3f2ac6350454","system_id":"levelo_inurba_marseille","lat":43.27996,"lon":5.416624,"is_reserved":false,"is_disabled":false,"rental_uris":{"android":"levelo://app?vid=7a17f604-634f-49b3-aa9c-3f2ac6350454","ios":"levelo://app?vid=7a17f604-634f-49b3-aa9c-3f2ac6350454"},"vehicle_type_id":"4","last_reported":1702037606,"current_range_meters":21600,"station_id":"ce4bho12rcd13ifvqh1g","pricing_plan_id":"free"},{"bike_id":"5c62f0fe-2a68-4f0e-8c5e-1c3be35b64ff","system_id":"levelo_inurba_marseille","lat":43.2917,"lon":5.427893,"is_reserved":false,"is_disabled":false,"rental_uris":{"android":"levelo://app?vid=5c62f0fe-2a68-4f0e-8c5e-1c3be35b64ff","ios":"levelo://app?vid=5c62f0fe-2a68-4f0e-8c5e-1c3be35b64ff"},"vehicle_type_id":"4","last_reported":1702037606,"current_range_meters":11200,"station_id":"","pricing_plan_id":"free"},{"bike_id":"3952081a-41d6-4c83-88c5-7fdb5a289bf4","system_id":"levelo_inurba_marseille","lat":43.26569,"lon":5.39014,"is_reserved":false,"is_disabled":false,"rental_uris":{"android":"levelo://app?vid=3952081a-41d6-4c83-88c5-7fdb5a289bf4","ios":"levelo://app?vid=3952081a-41d6-4c83-88c5-7fdb5a289bf4"},"vehicle_type_id":"4","last_reported":1702037606,"current_range_meters":16800,"station_id":"ce4bhe12rcd13ifvqf30","pricing_plan_id":"free"},{"bike_id":"e5644a5f-5504-4a46-b10e-232a5302c1cf","system_id":"levelo_inurba_marseille","lat":43.261782,"lon":5.374515,"is_reserved":false,"is_disabled":false,"rental_uris":{"android":"levelo://app?vid=e5644a5f-5504-4a46-b10e-232a5302c1cf","ios":"levelo://app?vid=e5644a5f-5504-4a46-b10e-232a5302c1cf"},"vehicle_type_id":"4","last_reported":1702037606,"current_range_meters":27200,"station_id":"ce4bhgp2rcd13ifvqfc0","pricing_plan_id":"free"},{"bike_id":"3304d659-2172-4c05-95b9-9ce22aa618b6","system_id":"levelo_inurba_marseille","lat":43.271388,"lon":5.409269,"is_reserved":false,"is_disabled":false,"rental_uris":{"android":"levelo://app?vid=3304d659-2172-4c05-95b9-9ce22aa618b6","ios":"levelo://app?vid=3304d659-2172-4c05-95b9-9ce22aa618b6"},"vehicle_type_id":"4","last_reported":1702037606,"current_range_meters":31200,"station_id":"ce4bhl12rcd13ifvqgf0","pricing_plan_id":"free"},{"bike_id":"efa24303-85ca-4cb7-8ca4-9a01f478b899","system_id":"levelo_inurba_marseille","lat":43.267959,"lon":5.402687,"is_reserved":false,"is_disabled":false,"rental_uris":{"android":"levelo://app?vid=efa24303-85ca-4cb7-8ca4-9a01f478b899","ios":"levelo://app?vid=efa24303-85ca-4cb7-8ca4-9a01f478b899"},"vehicle_type_id":"4","last_reported":1702037606,"current_range_meters":27200,"station_id":"ce501612rcd8frsf0b60","pricing_plan_id":"free"},{"bike_id":"ce882525-25f0-4497-8745-e9042bf5e9ad","system_id":"levelo_inurba_marseille","lat":43.267959,"lon":5.402687,"is_reserved":false,"is_disabled":false,"rental_uris":{"android":"levelo://app?vid=ce882525-25f0-4497-8745-e9042bf5e9ad","ios":"levelo://app?vid=ce882525-25f0-4497-8745-e9042bf5e9ad"},"vehicle_type_id":"4","last_reported":1702037606,"current_range_meters":16000,"station_id":"ce501612rcd8frsf0b60","pricing_plan_id":"free"},{"bike_id":"8a8bc4d6-0029-4fbf-9728-a692a0316877","system_id":"levelo_inurba_marseille","lat":43.27557,"lon":5.41681,"is_reserved":false,"is_disabled":false,"rental_uris":{"android":"levelo://app?vid=8a8bc4d6-0029-4fbf-9728-a692a0316877","ios":"levelo://app?vid=8a8bc4d6-0029-4fbf-9728-a692a0316877"},"vehicle_type_id":"4","last_reported":1702037606,"current_range_meters":2400,"station_id":"","pricing_plan_id":"free"},{"bike_id":"6b17b896-99f2-456b-929e-df3811eeb274","system_id":"levelo_inurba_marseille","lat":43.298768,"lon":5.43643,"is_reserved":false,"is_disabled":false,"rental_uris":{"android":"levelo://app?vid=6b17b896-99f2-456b-929e-df3811eeb274","ios":"levelo://app?vid=6b17b896-99f2-456b-929e-df3811eeb274"},"vehicle_type_id":"4","last_reported":1702037606,"current_range_meters":26800,"station_id":"ce4bhpp2rcd13ifvqhfg","pricing_plan_id":"free"},{"bike_id":"ca4db8a8-5b98-4b78-bc3d-514f38028a3d","system_id":"levelo_inurba_marseille","lat":43.298768,"lon":5.43643,"is_reserved":false,"is_disabled":false,"rental_uris":{"android":"levelo://app?vid=ca4db8a8-5b98-4b78-bc3d-514f38028a3d","ios":"levelo://app?vid=ca4db8a8-5b98-4b78-bc3d-514f38028a3d"},"vehicle_type_id":"4","last_reported":1702037606,"current_range_meters":30400,"station_id":"ce4bhpp2rcd13ifvqhfg","pricing_plan_id":"free"},{"bike_id":"4f68f183-a711-4386-a731-e8ea8e2f115e","system_id":"levelo_inurba_marseille","lat":43.298768,"lon":5.43643,"is_reserved":false,"is_disabled":false,"rental_uris":{"android":"levelo://app?vid=4f68f183-a711-4386-a731-e8ea8e2f115e","ios":"levelo://app?vid=4f68f183-a711-4386-a731-e8ea8e2f115e"},"vehicle_type_id":"4","last_reported":1702037606,"current_range_meters":25600,"station_id":"ce4bhpp2rcd13ifvqhfg","pricing_plan_id":"free"},{"bike_id":"83e2018e-7127-4415-8bbf-2e347a9c6750","system_id":"levelo_inurba_marseille","lat":43.298966,"lon":5.436688,"is_reserved":false,"is_disabled":false,"rental_uris":{"android":"levelo://app?vid=83e2018e-7127-4415-8bbf-2e347a9c6750","ios":"levelo://app?vid=83e2018e-7127-4415-8bbf-2e347a9c6750"},"vehicle_type_id":"4","last_reported":1702037606,"current_range_meters":3600,"station_id":"ce4bhpp2rcd13ifvqhfg","pricing_plan_id":"free"},{"bike_id":"e67365a7-a50c-41a8-9dce-0cc95a15ad79","system_id":"levelo_inurba_marseille","lat":43.28154,"lon":5.42695,"is_reserved":false,"is_disabled":false,"rental_uris":{"android":"levelo://app?vid=e67365a7-a50c-41a8-9dce-0cc95a15ad79","ios":"levelo://app?vid=e67365a7-a50c-41a8-9dce-0cc95a15ad79"},"vehicle_type_id":"4","last_reported":1702037606,"current_range_meters":31200,"station_id":"ce4bhnh2rcd13ifvqgug","pricing_plan_id":"free"},{"bike_id":"2ed26566-a4d1-4446-a79f-ac4cd03e66b0","system_id":"levelo_inurba_marseille","lat":43.2607,"lon":5.393983,"is_reserved":false,"is_disabled":false,"rental_uris":{"android":"levelo://app?vid=2ed26566-a4d1-4446-a79f-ac4cd03e66b0","ios":"levelo://app?vid=2ed26566-a4d1-4446-a79f-ac4cd03e66b0"},"vehicle_type_id":"4","last_reported":1702037606,"current_range_meters":20000,"station_id":"ce4bhh92rcd13ifvqfj0","pricing_plan_id":"free"},{"bike_id":"c90d4f1f-c031-4bfa-9513-341cda3df957","system_id":"levelo_inurba_marseille","lat":43.2607,"lon":5.393983,"is_reserved":false,"is_disabled":false,"rental_uris":{"android":"levelo://app?vid=c90d4f1f-c031-4bfa-9513-341cda3df957","ios":"levelo://app?vid=c90d4f1f-c031-4bfa-9513-341cda3df957"},"vehicle_type_id":"4","last_reported":1702037606,"current_range_meters":30000,"station_id":"ce4bhh92rcd13ifvqfj0","pricing_plan_id":"free"},{"bike_id":"0176657a-7181-4f36-b11a-1feb6ea2ffe6","system_id":"levelo_inurba_marseille","lat":43.2607,"lon":5.393983,"is_reserved":false,"is_disabled":false,"rental_uris":{"android":"levelo://app?vid=0176657a-7181-4f36-b11a-1feb6ea2ffe6","ios":"levelo://app?vid=0176657a-7181-4f36-b11a-1feb6ea2ffe6"},"vehicle_type_id":"4","last_reported":1702037606,"current_range_meters":22000,"station_id":"ce4bhh92rcd13ifvqfj0","pricing_plan_id":"free"},{"bike_id":"dd5f200e-bc1c-434b-a520-c89ec355acbd","system_id":"levelo_inurba_marseille","lat":43.255756,"lon":5.382303,"is_reserved":false,"is_disabled":false,"rental_uris":{"android":"levelo://app?vid=dd5f200e-bc1c-434b-a520-c89ec355acbd","ios":"levelo://app?vid=dd5f200e-bc1c-434b-a520-c89ec355acbd"},"vehicle_type_id":"4","last_reported":1702037606,"current_range_meters":800,"station_id":"ce4bhih2rcd13ifvqfs0","pricing_plan_id":"free"},{"bike_id":"d3f8d42e-7148-47c9-80b9-54e0739fd8b2","system_id":"levelo_inurba_marseille","lat":43.254947,"lon":5.376454,"is_reserved":false,"is_disabled":false,"rental_uris":{"android":"levelo://app?vid=d3f8d42e-7148-47c9-80b9-54e0739fd8b2","ios":"levelo://app?vid=d3f8d42e-7148-47c9-80b9-54e0739fd8b2"},"vehicle_type_id":"4","last_reported":1702037606,"current_range_meters":25600,"station_id":"ce4bhh12rcd13ifvqff0","pricing_plan_id":"free"},{"bike_id":"15ba3189-93b7-4432-ad39-1cf62a2856d8","system_id":"levelo_inurba_marseille","lat":43.270721,"lon":5.422764,"is_reserved":false,"is_disabled":false,"rental_uris":{"android":"levelo://app?vid=15ba3189-93b7-4432-ad39-1cf62a2856d8","ios":"levelo://app?vid=15ba3189-93b7-4432-ad39-1cf62a2856d8"},"vehicle_type_id":"4","last_reported":1702037606,"current_range_meters":11600,"station_id":"ce4bhk92rcd13ifvqgb0","pricing_plan_id":"free"},{"bike_id":"99ed3478-c00b-412f-9028-c40dcdb3278d","system_id":"levelo_inurba_marseille","lat":43.25729,"lon":5.41107,"is_reserved":false,"is_disabled":false,"rental_uris":{"android":"levelo://app?vid=99ed3478-c00b-412f-9028-c40dcdb3278d","ios":"levelo://app?vid=99ed3478-c00b-412f-9028-c40dcdb3278d"},"vehicle_type_id":"4","last_reported":1702037606,"current_range_meters":29200,"station_id":"ce4bhkp2rcd13ifvqgd0","pricing_plan_id":"free"},{"bike_id":"96e5ac0f-afda-4af3-bf53-4427bff6b8f8","system_id":"levelo_inurba_marseille","lat":43.25006,"lon":5.38909,"is_reserved":false,"is_disabled":false,"rental_uris":{"android":"levelo://app?vid=96e5ac0f-afda-4af3-bf53-4427bff6b8f8","ios":"levelo://app?vid=96e5ac0f-afda-4af3-bf53-4427bff6b8f8"},"vehicle_type_id":"4","last_reported":1702037606,"current_range_meters":23200,"station_id":"ce4bhgp2rcd13ifvqfd0","pricing_plan_id":"free"},{"bike_id":"ddf2951b-2b04-424f-9ef1-6d8217c9e48c","system_id":"levelo_inurba_marseille","lat":43.250009,"lon":5.389195,"is_reserved":false,"is_disabled":false,"rental_uris":{"android":"levelo://app?vid=ddf2951b-2b04-424f-9ef1-6d8217c9e48c","ios":"levelo://app?vid=ddf2951b-2b04-424f-9ef1-6d8217c9e48c"},"vehicle_type_id":"4","last_reported":1702037606,"current_range_meters":31200,"station_id":"ce4bhgp2rcd13ifvqfd0","pricing_plan_id":"free"},{"bike_id":"edb444dc-2efe-4df9-b284-a7027743e237","system_id":"levelo_inurba_marseille","lat":43.250023,"lon":5.38919,"is_reserved":false,"is_disabled":false,"rental_uris":{"android":"levelo://app?vid=edb444dc-2efe-4df9-b284-a7027743e237","ios":"levelo://app?vid=edb444dc-2efe-4df9-b284-a7027743e237"},"vehicle_type_id":"4","last_reported":1702037606,"current_range_meters":26400,"station_id":"ce4bhgp2rcd13ifvqfd0","pricing_plan_id":"free"},{"bike_id":"eb2bdca4-c898-4cb6-a6a2-2c4fe876e1d1","system_id":"levelo_inurba_marseille","lat":43.24995,"lon":5.3893,"is_reserved":false,"is_disabled":false,"rental_uris":{"android":"levelo://app?vid=eb2bdca4-c898-4cb6-a6a2-2c4fe876e1d1","ios":"levelo://app?vid=eb2bdca4-c898-4cb6-a6a2-2c4fe876e1d1"},"vehicle_type_id":"4","last_reported":1702037606,"current_range_meters":0,"station_id":"ce4bhgp2rcd13ifvqfd0","pricing_plan_id":"free"},{"bike_id":"e6f8ba9b-a1b2-4a23-ba44-34ffce85f3d8","system_id":"levelo_inurba_marseille","lat":43.24693,"lon":5.382096,"is_reserved":false,"is_disabled":false,"rental_uris":{"android":"levelo://app?vid=e6f8ba9b-a1b2-4a23-ba44-34ffce85f3d8","ios":"levelo://app?vid=e6f8ba9b-a1b2-4a23-ba44-34ffce85f3d8"},"vehicle_type_id":"4","last_reported":1702037606,"current_range_meters":5600,"station_id":"ce4bhih2rcd13ifvqfr0","pricing_plan_id":"free"},{"bike_id":"27dded44-3579-44fa-b3b5-b2d35b27616a","system_id":"levelo_inurba_marseille","lat":43.25102,"lon":5.403214,"is_reserved":false,"is_disabled":false,"rental_uris":{"android":"levelo://app?vid=27dded44-3579-44fa-b3b5-b2d35b27616a","ios":"levelo://app?vid=27dded44-3579-44fa-b3b5-b2d35b27616a"},"vehicle_type_id":"4","last_reported":1702037606,"current_range_meters":24400,"station_id":"ce4bhlh2rcd13ifvqgig","pricing_plan_id":"free"},{"bike_id":"55d4cda2-7880-44c8-8815-1b2f87dd305f","system_id":"levelo_inurba_marseille","lat":43.25107,"lon":5.4032,"is_reserved":false,"is_disabled":false,"rental_uris":{"android":"levelo://app?vid=55d4cda2-7880-44c8-8815-1b2f87dd305f","ios":"levelo://app?vid=55d4cda2-7880-44c8-8815-1b2f87dd305f"},"vehicle_type_id":"4","last_reported":1702037606,"current_range_meters":21200,"station_id":"ce4bhlh2rcd13ifvqgig","pricing_plan_id":"free"},{"bike_id":"0dec1a5f-db13-42a4-9d87-f17fb3d470f8","system_id":"levelo_inurba_marseille","lat":43.246467,"lon":5.388984,"is_reserved":false,"is_disabled":false,"rental_uris":{"android":"levelo://app?vid=0dec1a5f-db13-42a4-9d87-f17fb3d470f8","ios":"levelo://app?vid=0dec1a5f-db13-42a4-9d87-f17fb3d470f8"},"vehicle_type_id":"4","last_reported":1702037606,"current_range_meters":29200,"station_id":"ce4bhg12rcd13ifvqf60","pricing_plan_id":"free"},{"bike_id":"2ee3d9c4-4972-4e95-9aee-470fd68e876e","system_id":"levelo_inurba_marseille","lat":43.245581,"lon":5.395069,"is_reserved":false,"is_disabled":false,"rental_uris":{"android":"levelo://app?vid=2ee3d9c4-4972-4e95-9aee-470fd68e876e","ios":"levelo://app?vid=2ee3d9c4-4972-4e95-9aee-470fd68e876e"},"vehicle_type_id":"4","last_reported":1702037606,"current_range_meters":31200,"station_id":"ce4bhlp2rcd13ifvqgjg","pricing_plan_id":"free"},{"bike_id":"b3705516-da65-4902-b345-4cc53e261fdf","system_id":"levelo_inurba_marseille","lat":43.2408,"lon":5.37759,"is_reserved":false,"is_disabled":false,"rental_uris":{"android":"levelo://app?vid=b3705516-da65-4902-b345-4cc53e261fdf","ios":"levelo://app?vid=b3705516-da65-4902-b345-4cc53e261fdf"},"vehicle_type_id":"4","last_reported":1702037606,"current_range_meters":22000,"station_id":"","pricing_plan_id":"free"},{"bike_id":"6084096c-589b-4ba6-bd9d-6d547fd35b59","system_id":"levelo_inurba_marseille","lat":43.239588,"lon":5.366238,"is_reserved":false,"is_disabled":false,"rental_uris":{"android":"levelo://app?vid=6084096c-589b-4ba6-bd9d-6d547fd35b59","ios":"levelo://app?vid=6084096c-589b-4ba6-bd9d-6d547fd35b59"},"vehicle_type_id":"4","last_reported":1702037606,"current_range_meters":27200,"station_id":"ce4bhi12rcd13ifvqfp0","pricing_plan_id":"free"},{"bike_id":"fc623e0b-becb-46a1-8413-cde3edd2bcef","system_id":"levelo_inurba_marseille","lat":43.239588,"lon":5.366238,"is_reserved":false,"is_disabled":false,"rental_uris":{"android":"levelo://app?vid=fc623e0b-becb-46a1-8413-cde3edd2bcef","ios":"levelo://app?vid=fc623e0b-becb-46a1-8413-cde3edd2bcef"},"vehicle_type_id":"4","last_reported":1702037606,"current_range_meters":24000,"station_id":"ce4bhi12rcd13ifvqfp0","pricing_plan_id":"free"},{"bike_id":"133d3a41-7ecd-44e9-a633-5c47e502f0e0","system_id":"levelo_inurba_marseille","lat":43.239588,"lon":5.366238,"is_reserved":false,"is_disabled":false,"rental_uris":{"android":"levelo://app?vid=133d3a41-7ecd-44e9-a633-5c47e502f0e0","ios":"levelo://app?vid=133d3a41-7ecd-44e9-a633-5c47e502f0e0"},"vehicle_type_id":"4","last_reported":1702037606,"current_range_meters":31200,"station_id":"ce4bhi12rcd13ifvqfp0","pricing_plan_id":"free"},{"bike_id":"b3aedcf8-a68f-4aa7-a7d4-9df74f5be85b","system_id":"levelo_inurba_marseille","lat":43.239588,"lon":5.366238,"is_reserved":false,"is_disabled":false,"rental_uris":{"android":"levelo://app?vid=b3aedcf8-a68f-4aa7-a7d4-9df74f5be85b","ios":"levelo://app?vid=b3aedcf8-a68f-4aa7-a7d4-9df74f5be85b"},"vehicle_type_id":"4","last_reported":1702037606,"current_range_meters":25200,"station_id":"ce4bhi12rcd13ifvqfp0","pricing_plan_id":"free"},{"bike_id":"91bfdc1c-8279-4701-a912-f78a96f6871b","system_id":"levelo_inurba_marseille","lat":43.239588,"lon":5.366238,"is_reserved":false,"is_disabled":false,"rental_uris":{"android":"levelo://app?vid=91bfdc1c-8279-4701-a912-f78a96f6871b","ios":"levelo://app?vid=91bfdc1c-8279-4701-a912-f78a96f6871b"},"vehicle_type_id":"4","last_reported":1702037606,"current_range_meters":20800,"station_id":"ce4bhi12rcd13ifvqfp0","pricing_plan_id":"free"},{"bike_id":"19de1d90-0ef7-4697-bd3a-3e98bd2bf2e7","system_id":"levelo_inurba_marseille","lat":43.239588,"lon":5.366238,"is_reserved":false,"is_disabled":false,"rental_uris":{"android":"levelo://app?vid=19de1d90-0ef7-4697-bd3a-3e98bd2bf2e7","ios":"levelo://app?vid=19de1d90-0ef7-4697-bd3a-3e98bd2bf2e7"},"vehicle_type_id":"4","last_reported":1702037606,"current_range_meters":30800,"station_id":"ce4bhi12rcd13ifvqfp0","pricing_plan_id":"free"},{"bike_id":"755ff53b-2d55-4f3c-8d3f-120eaf73916b","system_id":"levelo_inurba_marseille","lat":43.241782,"lon":5.397261,"is_reserved":false,"is_disabled":false,"rental_uris":{"android":"levelo://app?vid=755ff53b-2d55-4f3c-8d3f-120eaf73916b","ios":"levelo://app?vid=755ff53b-2d55-4f3c-8d3f-120eaf73916b"},"vehicle_type_id":"4","last_reported":1702037606,"current_range_meters":0,"station_id":"ce4bhn12rcd13ifvqgpg","pricing_plan_id":"free"},{"bike_id":"8346b147-502b-44db-a7a8-769a0c598fad","system_id":"levelo_inurba_marseille","lat":43.241782,"lon":5.397261,"is_reserved":false,"is_disabled":false,"rental_uris":{"android":"levelo://app?vid=8346b147-502b-44db-a7a8-769a0c598fad","ios":"levelo://app?vid=8346b147-502b-44db-a7a8-769a0c598fad"},"vehicle_type_id":"4","last_reported":1702037606,"current_range_meters":25200,"station_id":"ce4bhn12rcd13ifvqgpg","pricing_plan_id":"free"},{"bike_id":"486def36-f166-45ca-96f9-513a966ba0dc","system_id":"levelo_inurba_marseille","lat":43.231919,"lon":5.355532,"is_reserved":false,"is_disabled":false,"rental_uris":{"android":"levelo://app?vid=486def36-f166-45ca-96f9-513a966ba0dc","ios":"levelo://app?vid=486def36-f166-45ca-96f9-513a966ba0dc"},"vehicle_type_id":"4","last_reported":1702037606,"current_range_meters":26000,"station_id":"ce4bhu92rcd13ifvqi70","pricing_plan_id":"free"},{"bike_id":"6c4620c0-0d4d-493f-9950-4fd3c4457696","system_id":"levelo_inurba_marseille","lat":43.231794,"lon":5.400052,"is_reserved":false,"is_disabled":false,"rental_uris":{"android":"levelo://app?vid=6c4620c0-0d4d-493f-9950-4fd3c4457696","ios":"levelo://app?vid=6c4620c0-0d4d-493f-9950-4fd3c4457696"},"vehicle_type_id":"4","last_reported":1702037606,"current_range_meters":31600,"station_id":"ce4bhn12rcd13ifvqgqg","pricing_plan_id":"free"},{"bike_id":"be845917-f52e-4a9f-83ff-909546a09332","system_id":"levelo_inurba_marseille","lat":43.231794,"lon":5.400052,"is_reserved":false,"is_disabled":false,"rental_uris":{"android":"levelo://app?vid=be845917-f52e-4a9f-83ff-909546a09332","ios":"levelo://app?vid=be845917-f52e-4a9f-83ff-909546a09332"},"vehicle_type_id":"4","last_reported":1702037606,"current_range_meters":31600,"station_id":"ce4bhn12rcd13ifvqgqg","pricing_plan_id":"free"},{"bike_id":"1edcf9cf-ae8b-4eec-9a3d-e25ae99e20c5","system_id":"levelo_inurba_marseille","lat":43.2318,"lon":5.39987,"is_reserved":false,"is_disabled":false,"rental_uris":{"android":"levelo://app?vid=1edcf9cf-ae8b-4eec-9a3d-e25ae99e20c5","ios":"levelo://app?vid=1edcf9cf-ae8b-4eec-9a3d-e25ae99e20c5"},"vehicle_type_id":"4","last_reported":1702037606,"current_range_meters":22000,"station_id":"ce4bhn12rcd13ifvqgqg","pricing_plan_id":"free"},{"bike_id":"0c9e4fd3-9c53-4bea-aba4-d64b549cc6d5","system_id":"levelo_inurba_marseille","lat":43.231562,"lon":5.436933,"is_reserved":false,"is_disabled":false,"rental_uris":{"android":"levelo://app?vid=0c9e4fd3-9c53-4bea-aba4-d64b549cc6d5","ios":"levelo://app?vid=0c9e4fd3-9c53-4bea-aba4-d64b549cc6d5"},"vehicle_type_id":"4","last_reported":1702037606,"current_range_meters":2000,"station_id":"ce4bhmp2rcd13ifvqgog","pricing_plan_id":"free"},{"bike_id":"52185dc8-f8c9-4df9-8092-bb2437fd062c","system_id":"levelo_inurba_marseille","lat":43.231562,"lon":5.436933,"is_reserved":false,"is_disabled":false,"rental_uris":{"android":"levelo://app?vid=52185dc8-f8c9-4df9-8092-bb2437fd062c","ios":"levelo://app?vid=52185dc8-f8c9-4df9-8092-bb2437fd062c"},"vehicle_type_id":"4","last_reported":1702037606,"current_range_meters":31200,"station_id":"ce4bhmp2rcd13ifvqgog","pricing_plan_id":"free"},{"bike_id":"1452ec47-af56-406b-b3ce-667e99ad18fc","system_id":"levelo_inurba_marseille","lat":43.231562,"lon":5.436933,"is_reserved":false,"is_disabled":false,"rental_uris":{"android":"levelo://app?vid=1452ec47-af56-406b-b3ce-667e99ad18fc","ios":"levelo://app?vid=1452ec47-af56-406b-b3ce-667e99ad18fc"},"vehicle_type_id":"4","last_reported":1702037606,"current_range_meters":27200,"station_id":"ce4bhmp2rcd13ifvqgog","pricing_plan_id":"free"},{"bike_id":"ff8b630f-28ea-4dbc-bd83-69f80e79cc61","system_id":"levelo_inurba_marseille","lat":43.231562,"lon":5.436933,"is_reserved":false,"is_disabled":false,"rental_uris":{"android":"levelo://app?vid=ff8b630f-28ea-4dbc-bd83-69f80e79cc61","ios":"levelo://app?vid=ff8b630f-28ea-4dbc-bd83-69f80e79cc61"},"vehicle_type_id":"4","last_reported":1702037606,"current_range_meters":18400,"station_id":"ce4bhmp2rcd13ifvqgog","pricing_plan_id":"free"},{"bike_id":"6c3e3c9e-4b18-4000-ba39-0358b7d7d901","system_id":"levelo_inurba_marseille","lat":43.231562,"lon":5.436933,"is_reserved":false,"is_disabled":false,"rental_uris":{"android":"levelo://app?vid=6c3e3c9e-4b18-4000-ba39-0358b7d7d901","ios":"levelo://app?vid=6c3e3c9e-4b18-4000-ba39-0358b7d7d901"},"vehicle_type_id":"4","last_reported":1702037606,"current_range_meters":30000,"station_id":"ce4bhmp2rcd13ifvqgog","pricing_plan_id":"free"},{"bike_id":"b541fc35-af29-477f-a39a-2a5090fd4d28","system_id":"levelo_inurba_marseille","lat":43.231562,"lon":5.436933,"is_reserved":false,"is_disabled":false,"rental_uris":{"android":"levelo://app?vid=b541fc35-af29-477f-a39a-2a5090fd4d28","ios":"levelo://app?vid=b541fc35-af29-477f-a39a-2a5090fd4d28"},"vehicle_type_id":"4","last_reported":1702037606,"current_range_meters":31200,"station_id":"ce4bhmp2rcd13ifvqgog","pricing_plan_id":"free"},{"bike_id":"f56c954e-02f9-49e9-b80d-c1e3823f54f8","system_id":"levelo_inurba_marseille","lat":43.231562,"lon":5.436933,"is_reserved":false,"is_disabled":false,"rental_uris":{"android":"levelo://app?vid=f56c954e-02f9-49e9-b80d-c1e3823f54f8","ios":"levelo://app?vid=f56c954e-02f9-49e9-b80d-c1e3823f54f8"},"vehicle_type_id":"4","last_reported":1702037606,"current_range_meters":21200,"station_id":"ce4bhmp2rcd13ifvqgog","pricing_plan_id":"free"}]}}