{"last_updated":1768490146,"ttl":60,"version":"2.2","data":{"bikes":[{"bike_id":"660f8d3d-996c-4d0c-a098-476ebc30f600","system_id":"levelo_inurba_marseille","lat":43.22564,"lon":5.41642,"is_reserved":false,"is_disabled":false,"rental_uris":{"android":"levelo://app?vid=660f8d3d-996c-4d0c-a098-476ebc30f600","ios":"levelo://app?vid=660f8d3d-996c-4d0c-a098-476ebc30f600"},"vehicle_type_id":"4","last_reported":1768490147,"current_range_meters":2800,"station_id":"st_d2o4gvlbi1j2169b742g","pricing_plan_id":"cebpf4jnsgd1na2vs0mg"},{"bike_id":"7e7c59fe-953c-4d41-8bd8-2cfdc1f30a95","system_id":"levelo_inurba_marseille","lat":43.31487,"lon":5.37306,"is_reserved":false,"is_disabled":false,"rental_uris":{"android":"levelo://app?vid=7e7c59fe-953c-4d41-8bd8-2cfdc1f30a95","ios":"levelo://app?vid=7e7c59fe-953c-4d41-8bd8-2cfdc1f30a95"},"vehicle_type_id":"4","last_reported":1768490147,"current_range_meters":2800,"station_id":"ce4bgt12rcd13ifvqcd0","pricing_plan_id":"cebpf4jnsgd1na2vs0mg"},{"bike_id":"54fca5cc-2de5-4f5e-b18d-72ff2710c299","system_id":"levelo_inurba_marseille","lat":43.27806,"lon":5.40712,"is_reserved":false,"is_disabled":false,"rental_uris":{"android":"levelo://app?vid=54fca5cc-2de5-4f5e-b18d-72ff2710c299","ios":"levelo://app?vid=54fca5cc-2de5-4f5e-b18d-72ff2710c299"},"vehicle_type_id":"4","last_reported":1768490147,"current_range_meters":2800,"station_id":"","pricing_plan_id":"cebpf4jnsgd1na2vs0mg"},{"bike_id":"091c8081-61de-43ac-bb2c-74077a5d4149","system_id":"levelo_inurba_marseille","lat":43.22556,"lon":5.41623,"is_reserved":false,"is_disabled":false,"rental_uris":{"android":"levelo://app?vid=091c8081-61de-43ac-bb2c-74077a5d4149","ios":"levelo://app?vid=091c8081-61de-43ac-bb2c-74077a5d4149"},"vehicle_type_id":"4","last_reported":1768490147,"current_range_meters":2800,"station_id":"st_d2o4gvlbi1j2169b742g","pricing_plan_id":"cebpf4jnsgd1na2vs0mg"},{"bike_id":"f462e936-749b-4584-8105-dd7f2d3dcdd5","system_id":"levelo_inurba_marseille","lat":43.29803,"lon":5.38068,"is_reserved":false,"is_disabled":false,"rental_uris":{"android":"levelo://app?vid=f462e936-749b-4584-8105-dd7f2d3dcdd5","ios":"levelo://app?vid=f462e936-749b-4584-8105-dd7f2d3dcdd5"},"vehicle_type_id":"4","last_reported":1768490147,"current_range_meters":2800,"station_id":"ce4bgip2rcd13ifvqbb0","pricing_plan_id":"cebpf4jnsgd1na2vs0mg"},{"bike_id":"9a5fbf1f-0437-41c2-b6e1-9b4f9884e63d","system_id":"levelo_inurba_marseille","lat":43.24058,"lon":5.37815,"is_reserved":false,"is_disabled":false,"rental_uris":{"android":"levelo://app?vid=9a5fbf1f-0437-41c2-b6e1-9b4f9884e63d","ios":"levelo://app?vid=9a5fbf1f-0437-41c2-b6e1-9b4f9884e63d"},"vehicle_type_id":"4","last_reported":1768490147,"current_range_meters":2800,"station_id":"ce4bhnp2rcd13ifvqgvg","pricing_plan_id":"cebpf4jnsgd1na2vs0mg"},{"bike_id":"c75b139b-6977-457c-8fab-86c172554976","system_id":"levelo_inurba_marseille","lat":43.25103,"lon":5.40455,"is_reserved":false,"is_disabled":false,"rental_uris":{"android":"levelo://app?vid=c75b139b-6977-457c-8fab-86c172554976","ios":"levelo://app?vid=c75b139b-6977-457c-8fab-86c172554976"},"vehicle_type_id":"4","last_reported":1768490147,"current_range_meters":3200,"station_id":"","pricing_plan_id":"cebpf4jnsgd1na2vs0mg"},{"bike_id":"25b85b18-57fc-41e9-9a16-dc90f53ce58a","system_id":"levelo_inurba_marseille","lat":43.25572,"lon":5.38232,"is_reserved":false,"is_disabled":false,"rental_uris":{"android":"levelo://app?vid=25b85b18-57fc-41e9-9a16-dc90f53ce58a","ios":"levelo://app?vid=25b85b18-57fc-41e9-9a16-dc90f53ce58a"},"vehicle_type_id":"4","last_reported":1768490147,"current_range_meters":3200,"station_id":"ce4bhih2rcd13ifvqfs0","pricing_plan_id":"cebpf4jnsgd1na2vs0mg"},{"bike_id":"458b8111-0b4f-47b4-a25e-904a27733d5e","system_id":"levelo_inurba_marseille","lat":43.24176,"lon":5.39729,"is_reserved":false,"is_disabled":false,"rental_uris":{"android":"levelo://app?vid=458b8111-0b4f-47b4-a25e-904a27733d5e","ios":"levelo://app?vid=458b8111-0b4f-47b4-a25e-904a27733d5e"},"vehicle_type_id":"4","last_reported":1768490147,"current_range_meters":3200,"station_id":"","pricing_plan_id":"cebpf4jnsgd1na2vs0mg"},{"bike_id":"6e1f8e79-9b0c-4b28-bfd0-400ba8ef59c9","system_id":"levelo_inurba_marseille","lat":43.30642,"lon":5.40092,"is_reserved":false,"is_disabled":false,"rental_uris":{"android":"levelo://app?vid=6e1f8e79-9b0c-4b28-bfd0-400ba8ef59c9","ios":"levelo://app?vid=6e1f8e79-9b0c-4b28-bfd0-400ba8ef59c9"},"vehicle_type_id":"4","last_reported":1768490147,"current_range_meters":3200,"station_id":"ce4bh112rcd13ifvqda0","pricing_plan_id":"cebpf4jnsgd1na2vs0mg"},{"bike_id":"ae1d99b1-82a1-460d-bd96-dc1d194fe893","system_id":"levelo_inurba_marseille","lat":43.29823,"lon":5.37648,"is_reserved":false,"is_disabled":false,"rental_uris":{"android":"levelo://app?vid=ae1d99b1-82a1-460d-bd96-dc1d194fe893","ios":"levelo://app?vid=ae1d99b1-82a1-460d-bd96-dc1d194fe893"},"vehicle_type_id":"4","last_reported":1768490147,"current_range_meters":3200,"station_id":"","pricing_plan_id":"cebpf4jnsgd1na2vs0mg"},{"bike_id":"d6a60adc-a552-4611-9d6b-ad411077d2c3","system_id":"levelo_inurba_marseille","lat":43.29618,"lon":5.37711,"is_reserved":false,"is_disabled":false,"rental_uris":{"android":"levelo://app?vid=d6a60adc-a552-4611-9d6b-ad411077d2c3","ios":"levelo://app?vid=d6a60adc-a552-4611-9d6b-ad411077d2c3"},"vehicle_type_id":"4","last_reported":1768490147,"current_range_meters":3200,"station_id":"ce4bgi92rcd13ifvqb90","pricing_plan_id":"cebpf4jnsgd1na2vs0mg"},{"bike_id":"bd4b15a9-002c-4633-885a-3535a5835aff","system_id":"levelo_inurba_marseille","lat":43.27306,"lon":5.39943,"is_reserved":false,"is_disabled":false,"rental_uris":{"android":"levelo://app?vid=bd4b15a9-002c-4633-885a-3535a5835aff","ios":"levelo://app?vid=bd4b15a9-002c-4633-885a-3535a5835aff"},"vehicle_type_id":"4","last_reported":1768490147,"current_range_meters":3200,"station_id":"","pricing_plan_id":"cebpf4jnsgd1na2vs0mg"},{"bike_id":"c38ce724-bdd8-4fc0-a3d2-a15a2487cee1","system_id":"levelo_inurba_marseille","lat":43.25578,"lon":5.3821,"is_reserved":false,"is_disabled":false,"rental_uris":{"android":"levelo://app?vid=c38ce724-bdd8-4fc0-a3d2-a15a2487cee1","ios":"levelo://app?vid=c38ce724-bdd8-4fc0-a3d2-a15a2487cee1"},"vehicle_type_id":"4","last_reported":1768490147,"current_range_meters":3600,"station_id":"ce4bhih2rcd13ifvqfs0","pricing_plan_id":"cebpf4jnsgd1na2vs0mg"},{"bike_id":"a50c7459-5599-4a58-8d9b-08fca700f66b","system_id":"levelo_inurba_marseille","lat":43.29166,"lon":5.37136,"is_reserved":false,"is_disabled":false,"rental_uris":{"android":"levelo://app?vid=a50c7459-5599-4a58-8d9b-08fca700f66b","ios":"levelo://app?vid=a50c7459-5599-4a58-8d9b-08fca700f66b"},"vehicle_type_id":"4","last_reported":1768490147,"current_range_meters":3600,"station_id":"ce4bha92rcd13ifvqeh0","pricing_plan_id":"cebpf4jnsgd1na2vs0mg"},{"bike_id":"2a682e48-4901-4884-af44-aaa6a8d2add6","system_id":"levelo_inurba_marseille","lat":43.24071,"lon":5.37761,"is_reserved":false,"is_disabled":false,"rental_uris":{"android":"levelo://app?vid=2a682e48-4901-4884-af44-aaa6a8d2add6","ios":"levelo://app?vid=2a682e48-4901-4884-af44-aaa6a8d2add6"},"vehicle_type_id":"4","last_reported":1768490147,"current_range_meters":3600,"station_id":"ce4bhnp2rcd13ifvqgvg","pricing_plan_id":"cebpf4jnsgd1na2vs0mg"},{"bike_id":"52dc7a23-02b1-49ea-88fe-a1d65ef8f548","system_id":"levelo_inurba_marseille","lat":43.22927,"lon":5.35383,"is_reserved":false,"is_disabled":false,"rental_uris":{"android":"levelo://app?vid=52dc7a23-02b1-49ea-88fe-a1d65ef8f548","ios":"levelo://app?vid=52dc7a23-02b1-49ea-88fe-a1d65ef8f548"},"vehicle_type_id":"4","last_reported":1768490147,"current_range_meters":3600,"station_id":"cpo3532slgdg3j2ikp40","pricing_plan_id":"cebpf4jnsgd1na2vs0mg"},{"bike_id":"ab4c7e8d-c082-49f2-ad38-3b04b1436978","system_id":"levelo_inurba_marseille","lat":43.22565,"lon":5.41619,"is_reserved":false,"is_disabled":false,"rental_uris":{"android":"levelo://app?vid=ab4c7e8d-c082-49f2-ad38-3b04b1436978","ios":"levelo://app?vid=ab4c7e8d-c082-49f2-ad38-3b04b1436978"},"vehicle_type_id":"4","last_reported":1768490147,"current_range_meters":3600,"station_id":"st_d2o4gvlbi1j2169b742g","pricing_plan_id":"cebpf4jnsgd1na2vs0mg"},{"bike_id":"86aaef4b-aac1-4248-ac79-0d9f37b8c62f","system_id":"levelo_inurba_marseille","lat":43.27317,"lon":5.41682,"is_reserved":false,"is_disabled":false,"rental_uris":{"android":"levelo://app?vid=86aaef4b-aac1-4248-ac79-0d9f37b8c62f","ios":"levelo://app?vid=86aaef4b-aac1-4248-ac79-0d9f37b8c62f"},"vehicle_type_id":"4","last_reported":1768490147,"current_range_meters":3600,"station_id":"","pricing_plan_id":"cebpf4jnsgd1na2vs0mg"},{"bike_id":"b54d7711-f055-409c-950d-e2c8bc74d3bc","system_id":"levelo_inurba_marseille","lat":43.24804,"lon":5.37446,"is_reserved":false,"is_disabled":false,"rental_uris":{"android":"levelo://app?vid=b54d7711-f055-409c-950d-e2c8bc74d3bc","ios":"levelo://app?vid=b54d7711-f055-409c-950d-e2c8bc74d3bc"},"vehicle_type_id":"4","last_reported":1768490147,"current_range_meters":3600,"station_id":"ce4bhgh2rcd13ifvqfb0","pricing_plan_id":"cebpf4jnsgd1na2vs0mg"},{"bike_id":"699c6bb0-1655-47f0-86fb-78256d649744","system_id":"levelo_inurba_marseille","lat":43.27795,"lon":5.40692,"is_reserved":false,"is_disabled":false,"rental_uris":{"android":"levelo://app?vid=699c6bb0-1655-47f0-86fb-78256d649744","ios":"levelo://app?vid=699c6bb0-1655-47f0-86fb-78256d649744"},"vehicle_type_id":"4","last_reported":1768490147,"current_range_meters":3600,"station_id":"ce4bhnh2rcd13ifvqgtg","pricing_plan_id":"cebpf4jnsgd1na2vs0mg"},{"bike_id":"7ddc019f-3b6c-4d98-9573-ac3f63f075de","system_id":"levelo_inurba_marseille","lat":43.29366,"lon":5.37845,"is_reserved":false,"is_disabled":false,"rental_uris":{"android":"levelo://app?vid=7ddc019f-3b6c-4d98-9573-ac3f63f075de","ios":"levelo://app?vid=7ddc019f-3b6c-4d98-9573-ac3f63f075de"},"vehicle_type_id":"4","last_reported":1768490147,"current_range_meters":4000,"station_id":"ce4bgjh2rcd13ifvqbf0","pricing_plan_id":"cebpf4jnsgd1na2vs0mg"},{"bike_id":"2f317efe-a01b-468a-9036-21dfc4cc3358","system_id":"levelo_inurba_marseille","lat":43.25821,"lon":5.39421,"is_reserved":false,"is_disabled":false,"rental_uris":{"android":"levelo://app?vid=2f317efe-a01b-468a-9036-21dfc4cc3358","ios":"levelo://app?vid=2f317efe-a01b-468a-9036-21dfc4cc3358"},"vehicle_type_id":"4","last_reported":1768490147,"current_range_meters":4000,"station_id":"ce4bhip2rcd13ifvqft0","pricing_plan_id":"cebpf4jnsgd1na2vs0mg"},{"bike_id":"5e8902a6-fa64-462d-a76c-0892b4629f66","system_id":"levelo_inurba_marseille","lat":43.266844,"lon":5.382717,"is_reserved":false,"is_disabled":false,"rental_uris":{"android":"levelo://app?vid=5e8902a6-fa64-462d-a76c-0892b4629f66","ios":"levelo://app?vid=5e8902a6-fa64-462d-a76c-0892b4629f66"},"vehicle_type_id":"4","last_reported":1768490147,"current_range_meters":4000,"station_id":"ce4bhg92rcd13ifvqf90","pricing_plan_id":"cebpf4jnsgd1na2vs0mg"},{"bike_id":"5410fd45-b8b4-470d-9bd7-ad1acafbc363","system_id":"levelo_inurba_marseille","lat":43.28477,"lon":5.48396,"is_reserved":false,"is_disabled":false,"rental_uris":{"android":"levelo://app?vid=5410fd45-b8b4-470d-9bd7-ad1acafbc363","ios":"levelo://app?vid=5410fd45-b8b4-470d-9bd7-ad1acafbc363"},"vehicle_type_id":"4","last_reported":1768490147,"current_range_meters":4000,"station_id":"","pricing_plan_id":"cebpf4jnsgd1na2vs0mg"},{"bike_id":"e11889a7-dd00-4680-82ad-dc48c0a7f8b9","system_id":"levelo_inurba_marseille","lat":43.25508,"lon":5.37658,"is_reserved":false,"is_disabled":false,"rental_uris":{"android":"levelo://app?vid=e11889a7-dd00-4680-82ad-dc48c0a7f8b9","ios":"levelo://app?vid=e11889a7-dd00-4680-82ad-dc48c0a7f8b9"},"vehicle_type_id":"4","last_reported":1768490147,"current_range_meters":4000,"station_id":"ce4bhh12rcd13ifvqff0","pricing_plan_id":"cebpf4jnsgd1na2vs0mg"},{"bike_id":"16a6f94e-c148-4449-bb02-40c0272d02ae","system_id":"levelo_inurba_marseille","lat":43.26501,"lon":5.3954,"is_reserved":false,"is_disabled":false,"rental_uris":{"android":"levelo://app?vid=16a6f94e-c148-4449-bb02-40c0272d02ae","ios":"levelo://app?vid=16a6f94e-c148-4449-bb02-40c0272d02ae"},"vehicle_type_id":"4","last_reported":1768490147,"current_range_meters":4000,"station_id":"ce4bhi12rcd13ifvqfq0","pricing_plan_id":"cebpf4jnsgd1na2vs0mg"},{"bike_id":"af7c90df-6f89-49e6-94ea-4be676d3ab98","system_id":"levelo_inurba_marseille","lat":43.3121,"lon":5.36874,"is_reserved":false,"is_disabled":false,"rental_uris":{"android":"levelo://app?vid=af7c90df-6f89-49e6-94ea-4be676d3ab98","ios":"levelo://app?vid=af7c90df-6f89-49e6-94ea-4be676d3ab98"},"vehicle_type_id":"4","last_reported":1768490147,"current_range_meters":4000,"station_id":"ce4bgl92rcd13ifvqbq0","pricing_plan_id":"cebpf4jnsgd1na2vs0mg"},{"bike_id":"53ed3f63-cbcc-43a7-abb9-1b5c328e2719","system_id":"levelo_inurba_marseille","lat":43.29711,"lon":5.37689,"is_reserved":false,"is_disabled":false,"rental_uris":{"android":"levelo://app?vid=53ed3f63-cbcc-43a7-abb9-1b5c328e2719","ios":"levelo://app?vid=53ed3f63-cbcc-43a7-abb9-1b5c328e2719"},"vehicle_type_id":"4","last_reported":1768490147,"current_range_meters":4000,"station_id":"ce4bgkh2rcd13ifvqbl0","pricing_plan_id":"cebpf4jnsgd1na2vs0mg"},{"bike_id":"fef1458c-bfb1-459a-ba32-9643a02f17e6","system_id":"levelo_inurba_marseille","lat":43.28275,"lon":5.35066,"is_reserved":false,"is_disabled":false,"rental_uris":{"android":"levelo://app?vid=fef1458c-bfb1-459a-ba32-9643a02f17e6","ios":"levelo://app?vid=fef1458c-bfb1-459a-ba32-9643a02f17e6"},"vehicle_type_id":"4","last_reported":1768490147,"current_range_meters":4000,"station_id":"ce4bhbp2rcd13ifvqerg","pricing_plan_id":"cebpf4jnsgd1na2vs0mg"},{"bike_id":"b8109050-0f02-4d1d-b95f-31eb0ab3346e","system_id":"levelo_inurba_marseille","lat":43.29279,"lon":5.40111,"is_reserved":false,"is_disabled":false,"rental_uris":{"android":"levelo://app?vid=b8109050-0f02-4d1d-b95f-31eb0ab3346e","ios":"levelo://app?vid=b8109050-0f02-4d1d-b95f-31eb0ab3346e"},"vehicle_type_id":"4","last_reported":1768490147,"current_range_meters":4000,"station_id":"ce4bh312rcd13ifvqdk0","pricing_plan_id":"cebpf4jnsgd1na2vs0mg"},{"bike_id":"2df0f00c-8d7b-4584-a9db-afa90a497d10","system_id":"levelo_inurba_marseille","lat":43.27674,"lon":5.38878,"is_reserved":false,"is_disabled":false,"rental_uris":{"android":"levelo://app?vid=2df0f00c-8d7b-4584-a9db-afa90a497d10","ios":"levelo://app?vid=2df0f00c-8d7b-4584-a9db-afa90a497d10"},"vehicle_type_id":"4","last_reported":1768490147,"current_range_meters":4400,"station_id":"ce4bhi12rcd13ifvqfo0","pricing_plan_id":"cebpf4jnsgd1na2vs0mg"},{"bike_id":"acdb08d3-8685-41eb-b596-afd1baeb78d0","system_id":"levelo_inurba_marseille","lat":43.30554,"lon":5.36558,"is_reserved":false,"is_disabled":false,"rental_uris":{"android":"levelo://app?vid=acdb08d3-8685-41eb-b596-afd1baeb78d0","ios":"levelo://app?vid=acdb08d3-8685-41eb-b596-afd1baeb78d0"},"vehicle_type_id":"4","last_reported":1768490147,"current_range_meters":4400,"station_id":"ce4bgs12rcd13ifvqcag","pricing_plan_id":"cebpf4jnsgd1na2vs0mg"},{"bike_id":"3b326f81-b0c4-4b16-a9c9-f528a517d078","system_id":"levelo_inurba_marseille","lat":43.23195,"lon":5.35569,"is_reserved":false,"is_disabled":false,"rental_uris":{"android":"levelo://app?vid=3b326f81-b0c4-4b16-a9c9-f528a517d078","ios":"levelo://app?vid=3b326f81-b0c4-4b16-a9c9-f528a517d078"},"vehicle_type_id":"4","last_reported":1768490147,"current_range_meters":4400,"station_id":"ce4bhu92rcd13ifvqi70","pricing_plan_id":"cebpf4jnsgd1na2vs0mg"},{"bike_id":"554c04e7-941a-4c22-b472-97e077e3a312","system_id":"levelo_inurba_marseille","lat":43.301337,"lon":5.403835,"is_reserved":false,"is_disabled":false,"rental_uris":{"android":"levelo://app?vid=554c04e7-941a-4c22-b472-97e077e3a312","ios":"levelo://app?vid=554c04e7-941a-4c22-b472-97e077e3a312"},"vehicle_type_id":"4","last_reported":1768490147,"current_range_meters":4400,"station_id":"","pricing_plan_id":"cebpf4jnsgd1na2vs0mg"},{"bike_id":"d26833e0-1ed3-45d6-8b3c-35f2f781bd04","system_id":"levelo_inurba_marseille","lat":43.26226,"lon":5.40449,"is_reserved":false,"is_disabled":false,"rental_uris":{"android":"levelo://app?vid=d26833e0-1ed3-45d6-8b3c-35f2f781bd04","ios":"levelo://app?vid=d26833e0-1ed3-45d6-8b3c-35f2f781bd04"},"vehicle_type_id":"4","last_reported":1768490147,"current_range_meters":4400,"station_id":"ce4bhmh2rcd13ifvqgmg","pricing_plan_id":"cebpf4jnsgd1na2vs0mg"},{"bike_id":"1f520549-4aeb-4d8f-8a70-2416551994fb","system_id":"levelo_inurba_marseille","lat":43.32658,"lon":5.40989,"is_reserved":false,"is_disabled":false,"rental_uris":{"android":"levelo://app?vid=1f520549-4aeb-4d8f-8a70-2416551994fb","ios":"levelo://app?vid=1f520549-4aeb-4d8f-8a70-2416551994fb"},"vehicle_type_id":"4","last_reported":1768490147,"current_range_meters":4400,"station_id":"ce4bhpp2rcd13ifvqhgg","pricing_plan_id":"cebpf4jnsgd1na2vs0mg"},{"bike_id":"3aecb5d6-35c0-429b-bf45-983beadab213","system_id":"levelo_inurba_marseille","lat":43.22568,"lon":5.41617,"is_reserved":false,"is_disabled":false,"rental_uris":{"android":"levelo://app?vid=3aecb5d6-35c0-429b-bf45-983beadab213","ios":"levelo://app?vid=3aecb5d6-35c0-429b-bf45-983beadab213"},"vehicle_type_id":"4","last_reported":1768490147,"current_range_meters":4400,"station_id":"st_d2o4gvlbi1j2169b742g","pricing_plan_id":"cebpf4jnsgd1na2vs0mg"},{"bike_id":"6d05d8e2-3fcb-4612-b5ef-50514af528e9","system_id":"levelo_inurba_marseille","lat":43.324884,"lon":5.3656,"is_reserved":false,"is_disabled":false,"rental_uris":{"android":"levelo://app?vid=6d05d8e2-3fcb-4612-b5ef-50514af528e9","ios":"levelo://app?vid=6d05d8e2-3fcb-4612-b5ef-50514af528e9"},"vehicle_type_id":"4","last_reported":1768490147,"current_range_meters":4800,"station_id":"ce4bhs12rcd13ifvqhvg","pricing_plan_id":"cebpf4jnsgd1na2vs0mg"},{"bike_id":"001bbaeb-398b-44d8-a474-d5e1a440b72b","system_id":"levelo_inurba_marseille","lat":43.295738,"lon":5.367353,"is_reserved":false,"is_disabled":false,"rental_uris":{"android":"levelo://app?vid=001bbaeb-398b-44d8-a474-d5e1a440b72b","ios":"levelo://app?vid=001bbaeb-398b-44d8-a474-d5e1a440b72b"},"vehicle_type_id":"4","last_reported":1768490147,"current_range_meters":4800,"station_id":"ce4bgph2rcd13ifvqc2g","pricing_plan_id":"cebpf4jnsgd1na2vs0mg"},{"bike_id":"d8b52035-9107-4203-ba3b-8ab85229defc","system_id":"levelo_inurba_marseille","lat":43.25627,"lon":5.40029,"is_reserved":false,"is_disabled":false,"rental_uris":{"android":"levelo://app?vid=d8b52035-9107-4203-ba3b-8ab85229defc","ios":"levelo://app?vid=d8b52035-9107-4203-ba3b-8ab85229defc"},"vehicle_type_id":"4","last_reported":1768490147,"current_range_meters":4800,"station_id":"","pricing_plan_id":"cebpf4jnsgd1na2vs0mg"},{"bike_id":"c16a417f-f911-4407-a265-a921722ed809","system_id":"levelo_inurba_marseille","lat":43.29531,"lon":5.39045,"is_reserved":false,"is_disabled":false,"rental_uris":{"android":"levelo://app?vid=c16a417f-f911-4407-a265-a921722ed809","ios":"levelo://app?vid=c16a417f-f911-4407-a265-a921722ed809"},"vehicle_type_id":"4","last_reported":1768490147,"current_range_meters":4800,"station_id":"ce4bh3p2rcd13ifvqdp0","pricing_plan_id":"cebpf4jnsgd1na2vs0mg"},{"bike_id":"26e05d3c-6761-4b77-951f-c864124fa018","system_id":"levelo_inurba_marseille","lat":43.250074,"lon":5.389116,"is_reserved":false,"is_disabled":true,"rental_uris":{"android":"levelo://app?vid=26e05d3c-6761-4b77-951f-c864124fa018","ios":"levelo://app?vid=26e05d3c-6761-4b77-951f-c864124fa018"},"vehicle_type_id":"4","last_reported":1768490147,"current_range_meters":4800,"station_id":"ce4bhlp2rcd13ifvqgjg","pricing_plan_id":"cebpf4jnsgd1na2vs0mg"},{"bike_id":"fcb68c86-ffd2-420c-85ae-f616f828cbd4","system_id":"levelo_inurba_marseille","lat":43.25927,"lon":5.40907,"is_reserved":false,"is_disabled":false,"rental_uris":{"android":"levelo://app?vid=fcb68c86-ffd2-420c-85ae-f616f828cbd4","ios":"levelo://app?vid=fcb68c86-ffd2-420c-85ae-f616f828cbd4"},"vehicle_type_id":"4","last_reported":1768490147,"current_range_meters":4800,"station_id":"ce4bhm92rcd13ifvqglg","pricing_plan_id":"cebpf4jnsgd1na2vs0mg"},{"bike_id":"a1db0de7-d6ab-4f67-82b8-3ffbc392fe42","system_id":"levelo_inurba_marseille","lat":43.25867,"lon":5.39895,"is_reserved":false,"is_disabled":false,"rental_uris":{"android":"levelo://app?vid=a1db0de7-d6ab-4f67-82b8-3ffbc392fe42","ios":"levelo://app?vid=a1db0de7-d6ab-4f67-82b8-3ffbc392fe42"},"vehicle_type_id":"4","last_reported":1768490147,"current_range_meters":4800,"station_id":"ce4bhl92rcd13ifvqghg","pricing_plan_id":"cebpf4jnsgd1na2vs0mg"},{"bike_id":"4e1946d2-ff32-48f3-8c06-bba521e3917a","system_id":"levelo_inurba_marseille","lat":43.28266,"lon":5.35071,"is_reserved":false,"is_disabled":false,"rental_uris":{"android":"levelo://app?vid=4e1946d2-ff32-48f3-8c06-bba521e3917a","ios":"levelo://app?vid=4e1946d2-ff32-48f3-8c06-bba521e3917a"},"vehicle_type_id":"4","last_reported":1768490147,"current_range_meters":4800,"station_id":"ce4bhbp2rcd13ifvqerg","pricing_plan_id":"cebpf4jnsgd1na2vs0mg"},{"bike_id":"9925237d-88d0-407a-b22d-713b05096e7f","system_id":"levelo_inurba_marseille","lat":43.2894,"lon":5.36413,"is_reserved":false,"is_disabled":false,"rental_uris":{"android":"levelo://app?vid=9925237d-88d0-407a-b22d-713b05096e7f","ios":"levelo://app?vid=9925237d-88d0-407a-b22d-713b05096e7f"},"vehicle_type_id":"4","last_reported":1768490147,"current_range_meters":4800,"station_id":"ce4bhc92rcd13ifvqetg","pricing_plan_id":"cebpf4jnsgd1na2vs0mg"},{"bike_id":"17e5e3f8-e89b-44fd-b4e5-539366ab413d","system_id":"levelo_inurba_marseille","lat":43.24662,"lon":5.38164,"is_reserved":false,"is_disabled":false,"rental_uris":{"android":"levelo://app?vid=17e5e3f8-e89b-44fd-b4e5-539366ab413d","ios":"levelo://app?vid=17e5e3f8-e89b-44fd-b4e5-539366ab413d"},"vehicle_type_id":"4","last_reported":1768490147,"current_range_meters":4800,"station_id":"ce4bhih2rcd13ifvqfr0","pricing_plan_id":"cebpf4jnsgd1na2vs0mg"},{"bike_id":"b3817e2e-cdb9-4c8a-ac4e-2553b766e5fa","system_id":"levelo_inurba_marseille","lat":43.27803,"lon":5.4072,"is_reserved":false,"is_disabled":false,"rental_uris":{"android":"levelo://app?vid=b3817e2e-cdb9-4c8a-ac4e-2553b766e5fa","ios":"levelo://app?vid=b3817e2e-cdb9-4c8a-ac4e-2553b766e5fa"},"vehicle_type_id":"4","last_reported":1768490147,"current_range_meters":5600,"station_id":"ce4bhnh2rcd13ifvqgtg","pricing_plan_id":"cebpf4jnsgd1na2vs0mg"},{"bike_id":"634a5032-07c2-4ad0-b886-0e21c013fdce","system_id":"levelo_inurba_marseille","lat":43.25565,"lon":5.38242,"is_reserved":false,"is_disabled":false,"rental_uris":{"android":"levelo://app?vid=634a5032-07c2-4ad0-b886-0e21c013fdce","ios":"levelo://app?vid=634a5032-07c2-4ad0-b886-0e21c013fdce"},"vehicle_type_id":"4","last_reported":1768490147,"current_range_meters":5600,"station_id":"ce4bhih2rcd13ifvqfs0","pricing_plan_id":"cebpf4jnsgd1na2vs0mg"},{"bike_id":"52fd8d20-a32d-4e89-86b8-954dd37de152","system_id":"levelo_inurba_marseille","lat":43.27572,"lon":5.38421,"is_reserved":false,"is_disabled":false,"rental_uris":{"android":"levelo://app?vid=52fd8d20-a32d-4e89-86b8-954dd37de152","ios":"levelo://app?vid=52fd8d20-a32d-4e89-86b8-954dd37de152"},"vehicle_type_id":"4","last_reported":1768490147,"current_range_meters":5600,"station_id":"ce4bhh92rcd13ifvqfi0","pricing_plan_id":"cebpf4jnsgd1na2vs0mg"},{"bike_id":"c24c7604-7eb0-4829-9d1b-ad2630359680","system_id":"levelo_inurba_marseille","lat":43.24166,"lon":5.39716,"is_reserved":false,"is_disabled":false,"rental_uris":{"android":"levelo://app?vid=c24c7604-7eb0-4829-9d1b-ad2630359680","ios":"levelo://app?vid=c24c7604-7eb0-4829-9d1b-ad2630359680"},"vehicle_type_id":"4","last_reported":1768490147,"current_range_meters":5600,"station_id":"ce4bhn12rcd13ifvqgpg","pricing_plan_id":"cebpf4jnsgd1na2vs0mg"},{"bike_id":"6d5b743f-0d0d-4728-9aac-92cae33bf20c","system_id":"levelo_inurba_marseille","lat":43.25578,"lon":5.3823,"is_reserved":false,"is_disabled":false,"rental_uris":{"android":"levelo://app?vid=6d5b743f-0d0d-4728-9aac-92cae33bf20c","ios":"levelo://app?vid=6d5b743f-0d0d-4728-9aac-92cae33bf20c"},"vehicle_type_id":"4","last_reported":1768490147,"current_range_meters":5600,"station_id":"ce4bhih2rcd13ifvqfs0","pricing_plan_id":"cebpf4jnsgd1na2vs0mg"},{"bike_id":"8bfc6f87-ba42-416e-bcc5-a75137158043","system_id":"levelo_inurba_marseille","lat":43.26358,"lon":5.41067,"is_reserved":false,"is_disabled":false,"rental_uris":{"android":"levelo://app?vid=8bfc6f87-ba42-416e-bcc5-a75137158043","ios":"levelo://app?vid=8bfc6f87-ba42-416e-bcc5-a75137158043"},"vehicle_type_id":"4","last_reported":1768490147,"current_range_meters":5600,"station_id":"st_d4e5ca6na9uc73bfl5fg","pricing_plan_id":"cebpf4jnsgd1na2vs0mg"},{"bike_id":"857df335-d6b3-4445-9b88-2ddd8f2c4a77","system_id":"levelo_inurba_marseille","lat":43.30505,"lon":5.37336,"is_reserved":false,"is_disabled":false,"rental_uris":{"android":"levelo://app?vid=857df335-d6b3-4445-9b88-2ddd8f2c4a77","ios":"levelo://app?vid=857df335-d6b3-4445-9b88-2ddd8f2c4a77"},"vehicle_type_id":"4","last_reported":1768490147,"current_range_meters":5600,"station_id":"","pricing_plan_id":"cebpf4jnsgd1na2vs0mg"},{"bike_id":"aac02660-451c-4466-97cc-03bd6873da26","system_id":"levelo_inurba_marseille","lat":43.24808,"lon":5.37457,"is_reserved":false,"is_disabled":false,"rental_uris":{"android":"levelo://app?vid=aac02660-451c-4466-97cc-03bd6873da26","ios":"levelo://app?vid=aac02660-451c-4466-97cc-03bd6873da26"},"vehicle_type_id":"4","last_reported":1768490147,"current_range_meters":5600,"station_id":"ce4bhgh2rcd13ifvqfb0","pricing_plan_id":"cebpf4jnsgd1na2vs0mg"},{"bike_id":"c28a676b-9c1f-4cd2-a974-ee6951b1a773","system_id":"levelo_inurba_marseille","lat":43.30209,"lon":5.39465,"is_reserved":false,"is_disabled":false,"rental_uris":{"android":"levelo://app?vid=c28a676b-9c1f-4cd2-a974-ee6951b1a773","ios":"levelo://app?vid=c28a676b-9c1f-4cd2-a974-ee6951b1a773"},"vehicle_type_id":"4","last_reported":1768490147,"current_range_meters":5600,"station_id":"ce4bh0p2rcd13ifvqd70","pricing_plan_id":"cebpf4jnsgd1na2vs0mg"},{"bike_id":"03bea929-ded9-4f0a-b535-3ced67ddbf39","system_id":"levelo_inurba_marseille","lat":43.24652,"lon":5.43114,"is_reserved":false,"is_disabled":false,"rental_uris":{"android":"levelo://app?vid=03bea929-ded9-4f0a-b535-3ced67ddbf39","ios":"levelo://app?vid=03bea929-ded9-4f0a-b535-3ced67ddbf39"},"vehicle_type_id":"4","last_reported":1768490147,"current_range_meters":5600,"station_id":"st_d2m6c4gdas8pm72e190g","pricing_plan_id":"cebpf4jnsgd1na2vs0mg"},{"bike_id":"62f88f8a-2fa4-4dc7-b96b-5613aa23459e","system_id":"levelo_inurba_marseille","lat":43.24998,"lon":5.38939,"is_reserved":false,"is_disabled":false,"rental_uris":{"android":"levelo://app?vid=62f88f8a-2fa4-4dc7-b96b-5613aa23459e","ios":"levelo://app?vid=62f88f8a-2fa4-4dc7-b96b-5613aa23459e"},"vehicle_type_id":"4","last_reported":1768490147,"current_range_meters":5600,"station_id":"ce4bhgp2rcd13ifvqfd0","pricing_plan_id":"cebpf4jnsgd1na2vs0mg"},{"bike_id":"6da68625-e4b7-41aa-96a7-da86f228b8ba","system_id":"levelo_inurba_marseille","lat":43.30542,"lon":5.3669,"is_reserved":false,"is_disabled":false,"rental_uris":{"android":"levelo://app?vid=6da68625-e4b7-41aa-96a7-da86f228b8ba","ios":"levelo://app?vid=6da68625-e4b7-41aa-96a7-da86f228b8ba"},"vehicle_type_id":"4","last_reported":1768490147,"current_range_meters":5600,"station_id":"ce4bgrp2rcd13ifvqc9g","pricing_plan_id":"cebpf4jnsgd1na2vs0mg"},{"bike_id":"61943d97-547d-4bfa-b539-9d950d65e2cb","system_id":"levelo_inurba_marseille","lat":43.26939,"lon":5.40253,"is_reserved":false,"is_disabled":false,"rental_uris":{"android":"levelo://app?vid=61943d97-547d-4bfa-b539-9d950d65e2cb","ios":"levelo://app?vid=61943d97-547d-4bfa-b539-9d950d65e2cb"},"vehicle_type_id":"4","last_reported":1768490147,"current_range_meters":5600,"station_id":"cjm6bp8fraef2m0cb0m0","pricing_plan_id":"cebpf4jnsgd1na2vs0mg"},{"bike_id":"9ac15c59-d0b4-400e-9abb-74f431387812","system_id":"levelo_inurba_marseille","lat":43.29259,"lon":5.40903,"is_reserved":false,"is_disabled":false,"rental_uris":{"android":"levelo://app?vid=9ac15c59-d0b4-400e-9abb-74f431387812","ios":"levelo://app?vid=9ac15c59-d0b4-400e-9abb-74f431387812"},"vehicle_type_id":"4","last_reported":1768490147,"current_range_meters":5600,"station_id":"ce4bh192rcd13ifvqdc0","pricing_plan_id":"cebpf4jnsgd1na2vs0mg"},{"bike_id":"68ae23aa-b332-4f3e-8a51-bb845df82b9e","system_id":"levelo_inurba_marseille","lat":43.25577,"lon":5.38236,"is_reserved":false,"is_disabled":false,"rental_uris":{"android":"levelo://app?vid=68ae23aa-b332-4f3e-8a51-bb845df82b9e","ios":"levelo://app?vid=68ae23aa-b332-4f3e-8a51-bb845df82b9e"},"vehicle_type_id":"4","last_reported":1768490147,"current_range_meters":5600,"station_id":"","pricing_plan_id":"cebpf4jnsgd1na2vs0mg"},{"bike_id":"896257ab-e036-460e-8595-b66201be0194","system_id":"levelo_inurba_marseille","lat":43.27495,"lon":5.42445,"is_reserved":false,"is_disabled":false,"rental_uris":{"android":"levelo://app?vid=896257ab-e036-460e-8595-b66201be0194","ios":"levelo://app?vid=896257ab-e036-460e-8595-b66201be0194"},"vehicle_type_id":"4","last_reported":1768490147,"current_range_meters":6000,"station_id":"ce4bhn92rcd13ifvqgrg","pricing_plan_id":"cebpf4jnsgd1na2vs0mg"},{"bike_id":"b02e7b3d-bfa1-4a73-bfb4-3a8d24b24cf4","system_id":"levelo_inurba_marseille","lat":43.25507,"lon":5.37657,"is_reserved":false,"is_disabled":false,"rental_uris":{"android":"levelo://app?vid=b02e7b3d-bfa1-4a73-bfb4-3a8d24b24cf4","ios":"levelo://app?vid=b02e7b3d-bfa1-4a73-bfb4-3a8d24b24cf4"},"vehicle_type_id":"4","last_reported":1768490147,"current_range_meters":6000,"station_id":"ce4bhh12rcd13ifvqff0","pricing_plan_id":"cebpf4jnsgd1na2vs0mg"},{"bike_id":"b5eee428-e31d-4cfe-823a-3da1123fc927","system_id":"levelo_inurba_marseille","lat":43.28572,"lon":5.39496,"is_reserved":false,"is_disabled":false,"rental_uris":{"android":"levelo://app?vid=b5eee428-e31d-4cfe-823a-3da1123fc927","ios":"levelo://app?vid=b5eee428-e31d-4cfe-823a-3da1123fc927"},"vehicle_type_id":"4","last_reported":1768490147,"current_range_meters":6000,"station_id":"ce4bh292rcd13ifvqdg0","pricing_plan_id":"cebpf4jnsgd1na2vs0mg"},{"bike_id":"6f5bac51-1804-4cd4-beeb-e05c41221d16","system_id":"levelo_inurba_marseille","lat":43.30546,"lon":5.36687,"is_reserved":false,"is_disabled":false,"rental_uris":{"android":"levelo://app?vid=6f5bac51-1804-4cd4-beeb-e05c41221d16","ios":"levelo://app?vid=6f5bac51-1804-4cd4-beeb-e05c41221d16"},"vehicle_type_id":"4","last_reported":1768490147,"current_range_meters":6000,"station_id":"ce4bgrp2rcd13ifvqc9g","pricing_plan_id":"cebpf4jnsgd1na2vs0mg"},{"bike_id":"ceb79ba1-b9dc-445b-991b-6fc71d2d14bf","system_id":"levelo_inurba_marseille","lat":43.282203,"lon":5.390467,"is_reserved":false,"is_disabled":false,"rental_uris":{"android":"levelo://app?vid=ceb79ba1-b9dc-445b-991b-6fc71d2d14bf","ios":"levelo://app?vid=ceb79ba1-b9dc-445b-991b-6fc71d2d14bf"},"vehicle_type_id":"4","last_reported":1768490147,"current_range_meters":6000,"station_id":"ce4bhn92rcd13ifvqgsg","pricing_plan_id":"cebpf4jnsgd1na2vs0mg"},{"bike_id":"2bae9f67-b649-4326-9db5-076d835a5d1d","system_id":"levelo_inurba_marseille","lat":43.24616,"lon":5.43143,"is_reserved":false,"is_disabled":false,"rental_uris":{"android":"levelo://app?vid=2bae9f67-b649-4326-9db5-076d835a5d1d","ios":"levelo://app?vid=2bae9f67-b649-4326-9db5-076d835a5d1d"},"vehicle_type_id":"4","last_reported":1768490147,"current_range_meters":6000,"station_id":"st_d2m6c4gdas8pm72e190g","pricing_plan_id":"cebpf4jnsgd1na2vs0mg"},{"bike_id":"e345a60d-cffb-4a0a-91e7-99ccfd991143","system_id":"levelo_inurba_marseille","lat":43.29304,"lon":5.3716,"is_reserved":false,"is_disabled":false,"rental_uris":{"android":"levelo://app?vid=e345a60d-cffb-4a0a-91e7-99ccfd991143","ios":"levelo://app?vid=e345a60d-cffb-4a0a-91e7-99ccfd991143"},"vehicle_type_id":"4","last_reported":1768490147,"current_range_meters":6000,"station_id":"ce4bgh92rcd13ifvqb40","pricing_plan_id":"cebpf4jnsgd1na2vs0mg"},{"bike_id":"222f605e-e511-4c2f-8d26-96fa5c0e2898","system_id":"levelo_inurba_marseille","lat":43.26235,"lon":5.40434,"is_reserved":false,"is_disabled":false,"rental_uris":{"android":"levelo://app?vid=222f605e-e511-4c2f-8d26-96fa5c0e2898","ios":"levelo://app?vid=222f605e-e511-4c2f-8d26-96fa5c0e2898"},"vehicle_type_id":"4","last_reported":1768490147,"current_range_meters":6000,"station_id":"ce4bhmh2rcd13ifvqgmg","pricing_plan_id":"cebpf4jnsgd1na2vs0mg"},{"bike_id":"8be361d1-171b-4ab9-af93-e6c62720e7e8","system_id":"levelo_inurba_marseille","lat":43.28283,"lon":5.35067,"is_reserved":false,"is_disabled":true,"rental_uris":{"android":"levelo://app?vid=8be361d1-171b-4ab9-af93-e6c62720e7e8","ios":"levelo://app?vid=8be361d1-171b-4ab9-af93-e6c62720e7e8"},"vehicle_type_id":"4","last_reported":1768490147,"current_range_meters":6000,"station_id":"ce4bhbp2rcd13ifvqerg","pricing_plan_id":"cebpf4jnsgd1na2vs0mg"},{"bike_id":"2860e546-6d14-439f-af47-1b98c643faf5","system_id":"levelo_inurba_marseille","lat":43.32553,"lon":5.41433,"is_reserved":false,"is_disabled":false,"rental_uris":{"android":"levelo://app?vid=2860e546-6d14-439f-af47-1b98c643faf5","ios":"levelo://app?vid=2860e546-6d14-439f-af47-1b98c643faf5"},"vehicle_type_id":"4","last_reported":1768490147,"current_range_meters":6000,"station_id":"ce4bhq12rcd13ifvqhhg","pricing_plan_id":"cebpf4jnsgd1na2vs0mg"},{"bike_id":"bed1d8ee-b3be-4fef-a8af-83b04fe39dc4","system_id":"levelo_inurba_marseille","lat":43.318878,"lon":5.407379,"is_reserved":false,"is_disabled":false,"rental_uris":{"android":"levelo://app?vid=bed1d8ee-b3be-4fef-a8af-83b04fe39dc4","ios":"levelo://app?vid=bed1d8ee-b3be-4fef-a8af-83b04fe39dc4"},"vehicle_type_id":"4","last_reported":1768490147,"current_range_meters":6000,"station_id":"ce4bhq12rcd13ifvqhig","pricing_plan_id":"cebpf4jnsgd1na2vs0mg"},{"bike_id":"cb64a529-89ae-47da-abd4-b065416d54f0","system_id":"levelo_inurba_marseille","lat":43.30568,"lon":5.37208,"is_reserved":false,"is_disabled":false,"rental_uris":{"android":"levelo://app?vid=cb64a529-89ae-47da-abd4-b065416d54f0","ios":"levelo://app?vid=cb64a529-89ae-47da-abd4-b065416d54f0"},"vehicle_type_id":"4","last_reported":1768490147,"current_range_meters":6000,"station_id":"ce4bgqh2rcd13ifvqc4g","pricing_plan_id":"cebpf4jnsgd1na2vs0mg"},{"bike_id":"45560b8c-0e05-4e12-aadd-6d4f84ae2310","system_id":"levelo_inurba_marseille","lat":43.2687,"lon":5.38911,"is_reserved":false,"is_disabled":false,"rental_uris":{"android":"levelo://app?vid=45560b8c-0e05-4e12-aadd-6d4f84ae2310","ios":"levelo://app?vid=45560b8c-0e05-4e12-aadd-6d4f84ae2310"},"vehicle_type_id":"4","last_reported":1768490147,"current_range_meters":6000,"station_id":"","pricing_plan_id":"cebpf4jnsgd1na2vs0mg"},{"bike_id":"f1d328ec-8a2c-4647-8162-9531bcbcb299","system_id":"levelo_inurba_marseille","lat":43.24456,"lon":5.41091,"is_reserved":false,"is_disabled":false,"rental_uris":{"android":"levelo://app?vid=f1d328ec-8a2c-4647-8162-9531bcbcb299","ios":"levelo://app?vid=f1d328ec-8a2c-4647-8162-9531bcbcb299"},"vehicle_type_id":"4","last_reported":1768490147,"current_range_meters":6000,"station_id":"","pricing_plan_id":"cebpf4jnsgd1na2vs0mg"},{"bike_id":"e2c9a8cd-118d-4a65-a52b-f510391a8c7e","system_id":"levelo_inurba_marseille","lat":43.27961,"lon":5.38737,"is_reserved":false,"is_disabled":false,"rental_uris":{"android":"levelo://app?vid=e2c9a8cd-118d-4a65-a52b-f510391a8c7e","ios":"levelo://app?vid=e2c9a8cd-118d-4a65-a52b-f510391a8c7e"},"vehicle_type_id":"4","last_reported":1768490147,"current_range_meters":6000,"station_id":"ce4bhg12rcd13ifvqf80","pricing_plan_id":"cebpf4jnsgd1na2vs0mg"},{"bike_id":"f26e9a9c-efcf-4817-ad70-c481de1d89b3","system_id":"levelo_inurba_marseille","lat":43.26219,"lon":5.37435,"is_reserved":false,"is_disabled":false,"rental_uris":{"android":"levelo://app?vid=f26e9a9c-efcf-4817-ad70-c481de1d89b3","ios":"levelo://app?vid=f26e9a9c-efcf-4817-ad70-c481de1d89b3"},"vehicle_type_id":"4","last_reported":1768490147,"current_range_meters":6400,"station_id":"ce4bhgp2rcd13ifvqfc0","pricing_plan_id":"cebpf4jnsgd1na2vs0mg"},{"bike_id":"c03cd309-c737-47c4-a7e9-06a2667d9dfa","system_id":"levelo_inurba_marseille","lat":43.28536,"lon":5.44092,"is_reserved":false,"is_disabled":false,"rental_uris":{"android":"levelo://app?vid=c03cd309-c737-47c4-a7e9-06a2667d9dfa","ios":"levelo://app?vid=c03cd309-c737-47c4-a7e9-06a2667d9dfa"},"vehicle_type_id":"4","last_reported":1768490147,"current_range_meters":6400,"station_id":"st_d3j3df2ikq2c7380ej80","pricing_plan_id":"cebpf4jnsgd1na2vs0mg"},{"bike_id":"98c13fc0-f40c-4e79-8c64-6a246b74a21c","system_id":"levelo_inurba_marseille","lat":43.28941,"lon":5.36633,"is_reserved":false,"is_disabled":false,"rental_uris":{"android":"levelo://app?vid=98c13fc0-f40c-4e79-8c64-6a246b74a21c","ios":"levelo://app?vid=98c13fc0-f40c-4e79-8c64-6a246b74a21c"},"vehicle_type_id":"4","last_reported":1768490147,"current_range_meters":6400,"station_id":"ce4bhap2rcd13ifvqek0","pricing_plan_id":"cebpf4jnsgd1na2vs0mg"},{"bike_id":"333678ab-48ed-467f-be49-f68e59ac50d3","system_id":"levelo_inurba_marseille","lat":43.2821,"lon":5.39055,"is_reserved":false,"is_disabled":false,"rental_uris":{"android":"levelo://app?vid=333678ab-48ed-467f-be49-f68e59ac50d3","ios":"levelo://app?vid=333678ab-48ed-467f-be49-f68e59ac50d3"},"vehicle_type_id":"4","last_reported":1768490147,"current_range_meters":6400,"station_id":"ce4bhn92rcd13ifvqgsg","pricing_plan_id":"cebpf4jnsgd1na2vs0mg"},{"bike_id":"5cfd03cf-24a1-4762-9fb7-26a053abe44f","system_id":"levelo_inurba_marseille","lat":43.258401,"lon":5.394282,"is_reserved":false,"is_disabled":false,"rental_uris":{"android":"levelo://app?vid=5cfd03cf-24a1-4762-9fb7-26a053abe44f","ios":"levelo://app?vid=5cfd03cf-24a1-4762-9fb7-26a053abe44f"},"vehicle_type_id":"4","last_reported":1768490147,"current_range_meters":6400,"station_id":"ce4bhip2rcd13ifvqft0","pricing_plan_id":"cebpf4jnsgd1na2vs0mg"},{"bike_id":"a3a68054-3a27-4a78-8534-42fd98fd0061","system_id":"levelo_inurba_marseille","lat":43.25571,"lon":5.38206,"is_reserved":false,"is_disabled":false,"rental_uris":{"android":"levelo://app?vid=a3a68054-3a27-4a78-8534-42fd98fd0061","ios":"levelo://app?vid=a3a68054-3a27-4a78-8534-42fd98fd0061"},"vehicle_type_id":"4","last_reported":1768490147,"current_range_meters":6400,"station_id":"ce4bhih2rcd13ifvqfs0","pricing_plan_id":"cebpf4jnsgd1na2vs0mg"},{"bike_id":"b145202a-bcf6-4da7-8256-830a303f491a","system_id":"levelo_inurba_marseille","lat":43.2418,"lon":5.39734,"is_reserved":false,"is_disabled":false,"rental_uris":{"android":"levelo://app?vid=b145202a-bcf6-4da7-8256-830a303f491a","ios":"levelo://app?vid=b145202a-bcf6-4da7-8256-830a303f491a"},"vehicle_type_id":"4","last_reported":1768490147,"current_range_meters":6400,"station_id":"ce4bhn12rcd13ifvqgpg","pricing_plan_id":"cebpf4jnsgd1na2vs0mg"},{"bike_id":"ecd03853-7b89-48ea-a6f5-17bc6f3e5f35","system_id":"levelo_inurba_marseille","lat":43.31351,"lon":5.36727,"is_reserved":false,"is_disabled":false,"rental_uris":{"android":"levelo://app?vid=ecd03853-7b89-48ea-a6f5-17bc6f3e5f35","ios":"levelo://app?vid=ecd03853-7b89-48ea-a6f5-17bc6f3e5f35"},"vehicle_type_id":"4","last_reported":1768490147,"current_range_meters":6400,"station_id":"ce4bgr92rcd13ifvqc6g","pricing_plan_id":"cebpf4jnsgd1na2vs0mg"},{"bike_id":"f9fdbb48-1798-4538-9bda-de4b35ab0ad4","system_id":"levelo_inurba_marseille","lat":43.2813,"lon":5.38309,"is_reserved":false,"is_disabled":false,"rental_uris":{"android":"levelo://app?vid=f9fdbb48-1798-4538-9bda-de4b35ab0ad4","ios":"levelo://app?vid=f9fdbb48-1798-4538-9bda-de4b35ab0ad4"},"vehicle_type_id":"4","last_reported":1768490147,"current_range_meters":6400,"station_id":"","pricing_plan_id":"cebpf4jnsgd1na2vs0mg"},{"bike_id":"b5ad29a0-462d-4d07-9a18-d87946a4398c","system_id":"levelo_inurba_marseille","lat":43.31146,"lon":5.38057,"is_reserved":false,"is_disabled":false,"rental_uris":{"android":"levelo://app?vid=b5ad29a0-462d-4d07-9a18-d87946a4398c","ios":"levelo://app?vid=b5ad29a0-462d-4d07-9a18-d87946a4398c"},"vehicle_type_id":"4","last_reported":1768490147,"current_range_meters":6400,"station_id":"","pricing_plan_id":"cebpf4jnsgd1na2vs0mg"},{"bike_id":"e8dae08d-0d1f-4c8a-ae1d-164e2d034cae","system_id":"levelo_inurba_marseille","lat":43.28213,"lon":5.3905,"is_reserved":false,"is_disabled":false,"rental_uris":{"android":"levelo://app?vid=e8dae08d-0d1f-4c8a-ae1d-164e2d034cae","ios":"levelo://app?vid=e8dae08d-0d1f-4c8a-ae1d-164e2d034cae"},"vehicle_type_id":"4","last_reported":1768490147,"current_range_meters":6400,"station_id":"ce4bhn92rcd13ifvqgsg","pricing_plan_id":"cebpf4jnsgd1na2vs0mg"},{"bike_id":"c420f665-36a8-4369-a2b3-89baa612c5b7","system_id":"levelo_inurba_marseille","lat":43.27616,"lon":5.36104,"is_reserved":false,"is_disabled":false,"rental_uris":{"android":"levelo://app?vid=c420f665-36a8-4369-a2b3-89baa612c5b7","ios":"levelo://app?vid=c420f665-36a8-4369-a2b3-89baa612c5b7"},"vehicle_type_id":"4","last_reported":1768490147,"current_range_meters":6400,"station_id":"ce4bgj92rcd13ifvqbe0","pricing_plan_id":"cebpf4jnsgd1na2vs0mg"},{"bike_id":"54ae17d3-f972-4236-b447-fa76bd8f3f82","system_id":"levelo_inurba_marseille","lat":43.24827,"lon":5.37464,"is_reserved":false,"is_disabled":false,"rental_uris":{"android":"levelo://app?vid=54ae17d3-f972-4236-b447-fa76bd8f3f82","ios":"levelo://app?vid=54ae17d3-f972-4236-b447-fa76bd8f3f82"},"vehicle_type_id":"4","last_reported":1768490147,"current_range_meters":6800,"station_id":"ce4bhgh2rcd13ifvqfb0","pricing_plan_id":"cebpf4jnsgd1na2vs0mg"},{"bike_id":"b67a501d-80ab-4b9e-be67-03f78f842502","system_id":"levelo_inurba_marseille","lat":43.28143,"lon":5.369092,"is_reserved":false,"is_disabled":false,"rental_uris":{"android":"levelo://app?vid=b67a501d-80ab-4b9e-be67-03f78f842502","ios":"levelo://app?vid=b67a501d-80ab-4b9e-be67-03f78f842502"},"vehicle_type_id":"4","last_reported":1768490147,"current_range_meters":6800,"station_id":"ce4bha12rcd13ifvqef0","pricing_plan_id":"cebpf4jnsgd1na2vs0mg"},{"bike_id":"bc05764b-2136-45ba-8d47-48a061c67081","system_id":"levelo_inurba_marseille","lat":43.32533,"lon":5.41425,"is_reserved":false,"is_disabled":false,"rental_uris":{"android":"levelo://app?vid=bc05764b-2136-45ba-8d47-48a061c67081","ios":"levelo://app?vid=bc05764b-2136-45ba-8d47-48a061c67081"},"vehicle_type_id":"4","last_reported":1768490147,"current_range_meters":6800,"station_id":"ce4bhq12rcd13ifvqhhg","pricing_plan_id":"cebpf4jnsgd1na2vs0mg"},{"bike_id":"55ca926a-74e8-4d75-948c-be9d1d94f87e","system_id":"levelo_inurba_marseille","lat":43.29054,"lon":5.37154,"is_reserved":false,"is_disabled":false,"rental_uris":{"android":"levelo://app?vid=55ca926a-74e8-4d75-948c-be9d1d94f87e","ios":"levelo://app?vid=55ca926a-74e8-4d75-948c-be9d1d94f87e"},"vehicle_type_id":"4","last_reported":1768490147,"current_range_meters":6800,"station_id":"ce4bh5p2rcd13ifvqe4g","pricing_plan_id":"cebpf4jnsgd1na2vs0mg"},{"bike_id":"30492ac7-350b-4e78-aa66-4b616daad362","system_id":"levelo_inurba_marseille","lat":43.273701,"lon":5.362531,"is_reserved":false,"is_disabled":false,"rental_uris":{"android":"levelo://app?vid=30492ac7-350b-4e78-aa66-4b616daad362","ios":"levelo://app?vid=30492ac7-350b-4e78-aa66-4b616daad362"},"vehicle_type_id":"4","last_reported":1768490147,"current_range_meters":6800,"station_id":"ce4bhbh2rcd13ifvqeo0","pricing_plan_id":"cebpf4jnsgd1na2vs0mg"},{"bike_id":"b0af1aeb-c4d6-4641-bc9e-da7e6c1db235","system_id":"levelo_inurba_marseille","lat":43.32111,"lon":5.3677,"is_reserved":false,"is_disabled":false,"rental_uris":{"android":"levelo://app?vid=b0af1aeb-c4d6-4641-bc9e-da7e6c1db235","ios":"levelo://app?vid=b0af1aeb-c4d6-4641-bc9e-da7e6c1db235"},"vehicle_type_id":"4","last_reported":1768490147,"current_range_meters":6800,"station_id":"ce4bhrh2rcd13ifvqhug","pricing_plan_id":"cebpf4jnsgd1na2vs0mg"},{"bike_id":"e23f566d-a441-4ca6-a6a6-2c07aa3f3dd1","system_id":"levelo_inurba_marseille","lat":43.23152,"lon":5.437189,"is_reserved":false,"is_disabled":false,"rental_uris":{"android":"levelo://app?vid=e23f566d-a441-4ca6-a6a6-2c07aa3f3dd1","ios":"levelo://app?vid=e23f566d-a441-4ca6-a6a6-2c07aa3f3dd1"},"vehicle_type_id":"4","last_reported":1768490147,"current_range_meters":6800,"station_id":"ce4bhmp2rcd13ifvqgog","pricing_plan_id":"cebpf4jnsgd1na2vs0mg"},{"bike_id":"e5f9cdc9-0bd9-4485-be59-93dd15b74c7a","system_id":"levelo_inurba_marseille","lat":43.263673,"lon":5.396367,"is_reserved":false,"is_disabled":false,"rental_uris":{"android":"levelo://app?vid=e5f9cdc9-0bd9-4485-be59-93dd15b74c7a","ios":"levelo://app?vid=e5f9cdc9-0bd9-4485-be59-93dd15b74c7a"},"vehicle_type_id":"4","last_reported":1768490147,"current_range_meters":6800,"station_id":"","pricing_plan_id":"cebpf4jnsgd1na2vs0mg"},{"bike_id":"b16db95a-1eae-47ad-b2e3-882874b3d4d4","system_id":"levelo_inurba_marseille","lat":43.284784,"lon":5.483945,"is_reserved":false,"is_disabled":false,"rental_uris":{"android":"levelo://app?vid=b16db95a-1eae-47ad-b2e3-882874b3d4d4","ios":"levelo://app?vid=b16db95a-1eae-47ad-b2e3-882874b3d4d4"},"vehicle_type_id":"4","last_reported":1768490147,"current_range_meters":6800,"station_id":"st_d3svhcjqgbts73a3dn0g","pricing_plan_id":"cebpf4jnsgd1na2vs0mg"},{"bike_id":"23694f2c-b2d4-4d58-b373-d1c7186e4244","system_id":"levelo_inurba_marseille","lat":43.29761,"lon":5.42771,"is_reserved":false,"is_disabled":false,"rental_uris":{"android":"levelo://app?vid=23694f2c-b2d4-4d58-b373-d1c7186e4244","ios":"levelo://app?vid=23694f2c-b2d4-4d58-b373-d1c7186e4244"},"vehicle_type_id":"4","last_reported":1768490147,"current_range_meters":6800,"station_id":"st_d3md5207bmas73dh9klg","pricing_plan_id":"cebpf4jnsgd1na2vs0mg"},{"bike_id":"153daeb6-1ced-443a-8511-9ccae5c5d53f","system_id":"levelo_inurba_marseille","lat":43.3175,"lon":5.3758,"is_reserved":false,"is_disabled":false,"rental_uris":{"android":"levelo://app?vid=153daeb6-1ced-443a-8511-9ccae5c5d53f","ios":"levelo://app?vid=153daeb6-1ced-443a-8511-9ccae5c5d53f"},"vehicle_type_id":"4","last_reported":1768490147,"current_range_meters":6800,"station_id":"","pricing_plan_id":"cebpf4jnsgd1na2vs0mg"},{"bike_id":"1c9762d0-99c2-407e-affd-fe0880429a32","system_id":"levelo_inurba_marseille","lat":43.246368,"lon":5.431528,"is_reserved":false,"is_disabled":false,"rental_uris":{"android":"levelo://app?vid=1c9762d0-99c2-407e-affd-fe0880429a32","ios":"levelo://app?vid=1c9762d0-99c2-407e-affd-fe0880429a32"},"vehicle_type_id":"4","last_reported":1768490147,"current_range_meters":6800,"station_id":"st_d2m6c4gdas8pm72e190g","pricing_plan_id":"cebpf4jnsgd1na2vs0mg"},{"bike_id":"1647898a-7e44-47a9-947d-d61611f1f7c8","system_id":"levelo_inurba_marseille","lat":43.2395,"lon":5.36626,"is_reserved":false,"is_disabled":false,"rental_uris":{"android":"levelo://app?vid=1647898a-7e44-47a9-947d-d61611f1f7c8","ios":"levelo://app?vid=1647898a-7e44-47a9-947d-d61611f1f7c8"},"vehicle_type_id":"4","last_reported":1768490147,"current_range_meters":6800,"station_id":"ce4bhi12rcd13ifvqfp0","pricing_plan_id":"cebpf4jnsgd1na2vs0mg"},{"bike_id":"bbca5a78-1ee0-4dab-ba7e-f05d9beea402","system_id":"levelo_inurba_marseille","lat":43.24502,"lon":5.425,"is_reserved":false,"is_disabled":false,"rental_uris":{"android":"levelo://app?vid=bbca5a78-1ee0-4dab-ba7e-f05d9beea402","ios":"levelo://app?vid=bbca5a78-1ee0-4dab-ba7e-f05d9beea402"},"vehicle_type_id":"4","last_reported":1768490147,"current_range_meters":6800,"station_id":"st_d4a3vfp97mjs738cd8kg","pricing_plan_id":"cebpf4jnsgd1na2vs0mg"},{"bike_id":"ef11f8c2-c4f2-45d0-9be7-9745443f0dda","system_id":"levelo_inurba_marseille","lat":43.30459,"lon":5.37923,"is_reserved":false,"is_disabled":false,"rental_uris":{"android":"levelo://app?vid=ef11f8c2-c4f2-45d0-9be7-9745443f0dda","ios":"levelo://app?vid=ef11f8c2-c4f2-45d0-9be7-9745443f0dda"},"vehicle_type_id":"4","last_reported":1768490147,"current_range_meters":6800,"station_id":"ce4bgup2rcd13ifvqcn0","pricing_plan_id":"cebpf4jnsgd1na2vs0mg"},{"bike_id":"d78a48ea-39a0-4d9b-b0e7-f144e9acb1ee","system_id":"levelo_inurba_marseille","lat":43.25496,"lon":5.37656,"is_reserved":false,"is_disabled":false,"rental_uris":{"android":"levelo://app?vid=d78a48ea-39a0-4d9b-b0e7-f144e9acb1ee","ios":"levelo://app?vid=d78a48ea-39a0-4d9b-b0e7-f144e9acb1ee"},"vehicle_type_id":"4","last_reported":1768490147,"current_range_meters":6800,"station_id":"ce4bhh12rcd13ifvqff0","pricing_plan_id":"cebpf4jnsgd1na2vs0mg"},{"bike_id":"c2363ba3-644f-497c-984f-a69dd5e93016","system_id":"levelo_inurba_marseille","lat":43.33015,"lon":5.39018,"is_reserved":false,"is_disabled":false,"rental_uris":{"android":"levelo://app?vid=c2363ba3-644f-497c-984f-a69dd5e93016","ios":"levelo://app?vid=c2363ba3-644f-497c-984f-a69dd5e93016"},"vehicle_type_id":"4","last_reported":1768490147,"current_range_meters":6800,"station_id":"ce4bhr92rcd13ifvqhrg","pricing_plan_id":"cebpf4jnsgd1na2vs0mg"},{"bike_id":"7465de0c-3252-438c-a1d0-10a150ee4d72","system_id":"levelo_inurba_marseille","lat":43.229343,"lon":5.353782,"is_reserved":false,"is_disabled":false,"rental_uris":{"android":"levelo://app?vid=7465de0c-3252-438c-a1d0-10a150ee4d72","ios":"levelo://app?vid=7465de0c-3252-438c-a1d0-10a150ee4d72"},"vehicle_type_id":"4","last_reported":1768490147,"current_range_meters":6800,"station_id":"cpo3532slgdg3j2ikp40","pricing_plan_id":"cebpf4jnsgd1na2vs0mg"},{"bike_id":"1df66fda-974a-4ec7-863a-12ede541de78","system_id":"levelo_inurba_marseille","lat":43.27617,"lon":5.36119,"is_reserved":false,"is_disabled":false,"rental_uris":{"android":"levelo://app?vid=1df66fda-974a-4ec7-863a-12ede541de78","ios":"levelo://app?vid=1df66fda-974a-4ec7-863a-12ede541de78"},"vehicle_type_id":"4","last_reported":1768490147,"current_range_meters":7200,"station_id":"ce4bgj92rcd13ifvqbe0","pricing_plan_id":"cebpf4jnsgd1na2vs0mg"},{"bike_id":"5c9cf652-9ff1-4da0-9873-4f32753db2aa","system_id":"levelo_inurba_marseille","lat":43.27163,"lon":5.409833,"is_reserved":false,"is_disabled":false,"rental_uris":{"android":"levelo://app?vid=5c9cf652-9ff1-4da0-9873-4f32753db2aa","ios":"levelo://app?vid=5c9cf652-9ff1-4da0-9873-4f32753db2aa"},"vehicle_type_id":"4","last_reported":1768490147,"current_range_meters":7200,"station_id":"ce4bhl12rcd13ifvqgf0","pricing_plan_id":"cebpf4jnsgd1na2vs0mg"},{"bike_id":"d8425bbf-f076-4469-9b61-52b0ee773e01","system_id":"levelo_inurba_marseille","lat":43.27372,"lon":5.36248,"is_reserved":false,"is_disabled":false,"rental_uris":{"android":"levelo://app?vid=d8425bbf-f076-4469-9b61-52b0ee773e01","ios":"levelo://app?vid=d8425bbf-f076-4469-9b61-52b0ee773e01"},"vehicle_type_id":"4","last_reported":1768490147,"current_range_meters":7200,"station_id":"ce4bhbh2rcd13ifvqeo0","pricing_plan_id":"cebpf4jnsgd1na2vs0mg"},{"bike_id":"0cdf751e-50be-4213-adcd-ec4933b84284","system_id":"levelo_inurba_marseille","lat":43.285341,"lon":5.441166,"is_reserved":false,"is_disabled":false,"rental_uris":{"android":"levelo://app?vid=0cdf751e-50be-4213-adcd-ec4933b84284","ios":"levelo://app?vid=0cdf751e-50be-4213-adcd-ec4933b84284"},"vehicle_type_id":"4","last_reported":1768490147,"current_range_meters":7200,"station_id":"st_d3j3df2ikq2c7380ej80","pricing_plan_id":"cebpf4jnsgd1na2vs0mg"},{"bike_id":"b64b455e-be80-42fe-9f2c-680efd02c86b","system_id":"levelo_inurba_marseille","lat":43.28537,"lon":5.44098,"is_reserved":false,"is_disabled":false,"rental_uris":{"android":"levelo://app?vid=b64b455e-be80-42fe-9f2c-680efd02c86b","ios":"levelo://app?vid=b64b455e-be80-42fe-9f2c-680efd02c86b"},"vehicle_type_id":"4","last_reported":1768490147,"current_range_meters":7200,"station_id":"st_d3j3df2ikq2c7380ej80","pricing_plan_id":"cebpf4jnsgd1na2vs0mg"},{"bike_id":"00e18b3e-b826-4645-85c8-7fc89af9fabe","system_id":"levelo_inurba_marseille","lat":43.30526,"lon":5.38399,"is_reserved":false,"is_disabled":false,"rental_uris":{"android":"levelo://app?vid=00e18b3e-b826-4645-85c8-7fc89af9fabe","ios":"levelo://app?vid=00e18b3e-b826-4645-85c8-7fc89af9fabe"},"vehicle_type_id":"4","last_reported":1768490147,"current_range_meters":7200,"station_id":"ce4bgg92rcd13ifvqb30","pricing_plan_id":"cebpf4jnsgd1na2vs0mg"},{"bike_id":"82b87168-267f-432c-a609-70f7b40ac901","system_id":"levelo_inurba_marseille","lat":43.27731,"lon":5.40773,"is_reserved":false,"is_disabled":false,"rental_uris":{"android":"levelo://app?vid=82b87168-267f-432c-a609-70f7b40ac901","ios":"levelo://app?vid=82b87168-267f-432c-a609-70f7b40ac901"},"vehicle_type_id":"4","last_reported":1768490147,"current_range_meters":7200,"station_id":"","pricing_plan_id":"cebpf4jnsgd1na2vs0mg"},{"bike_id":"5f7d7ab8-22eb-44f4-b629-9cb567806cf8","system_id":"levelo_inurba_marseille","lat":43.22919,"lon":5.35369,"is_reserved":false,"is_disabled":false,"rental_uris":{"android":"levelo://app?vid=5f7d7ab8-22eb-44f4-b629-9cb567806cf8","ios":"levelo://app?vid=5f7d7ab8-22eb-44f4-b629-9cb567806cf8"},"vehicle_type_id":"4","last_reported":1768490147,"current_range_meters":7200,"station_id":"cpo3532slgdg3j2ikp40","pricing_plan_id":"cebpf4jnsgd1na2vs0mg"},{"bike_id":"ecf0d209-53b9-47e3-8f9f-faa8b0ad9eb4","system_id":"levelo_inurba_marseille","lat":43.24955,"lon":5.40491,"is_reserved":false,"is_disabled":false,"rental_uris":{"android":"levelo://app?vid=ecf0d209-53b9-47e3-8f9f-faa8b0ad9eb4","ios":"levelo://app?vid=ecf0d209-53b9-47e3-8f9f-faa8b0ad9eb4"},"vehicle_type_id":"4","last_reported":1768490147,"current_range_meters":7200,"station_id":"st_d2ngiaodas8pm72gd1h0","pricing_plan_id":"cebpf4jnsgd1na2vs0mg"},{"bike_id":"0ec9f66f-95f8-4856-9705-3ccad992bbd8","system_id":"levelo_inurba_marseille","lat":43.31489,"lon":5.373112,"is_reserved":false,"is_disabled":false,"rental_uris":{"android":"levelo://app?vid=0ec9f66f-95f8-4856-9705-3ccad992bbd8","ios":"levelo://app?vid=0ec9f66f-95f8-4856-9705-3ccad992bbd8"},"vehicle_type_id":"4","last_reported":1768490147,"current_range_meters":7200,"station_id":"ce4bgt12rcd13ifvqcd0","pricing_plan_id":"cebpf4jnsgd1na2vs0mg"},{"bike_id":"445e6bb7-48c9-49a6-8c05-3a71a09b12a5","system_id":"levelo_inurba_marseille","lat":43.24069,"lon":5.37764,"is_reserved":false,"is_disabled":false,"rental_uris":{"android":"levelo://app?vid=445e6bb7-48c9-49a6-8c05-3a71a09b12a5","ios":"levelo://app?vid=445e6bb7-48c9-49a6-8c05-3a71a09b12a5"},"vehicle_type_id":"4","last_reported":1768490147,"current_range_meters":7200,"station_id":"ce4bhnp2rcd13ifvqgvg","pricing_plan_id":"cebpf4jnsgd1na2vs0mg"},{"bike_id":"6ac01162-2595-411f-84d8-b056e3ae87f5","system_id":"levelo_inurba_marseille","lat":43.2511,"lon":5.40322,"is_reserved":false,"is_disabled":false,"rental_uris":{"android":"levelo://app?vid=6ac01162-2595-411f-84d8-b056e3ae87f5","ios":"levelo://app?vid=6ac01162-2595-411f-84d8-b056e3ae87f5"},"vehicle_type_id":"4","last_reported":1768490147,"current_range_meters":7200,"station_id":"ce4bhlh2rcd13ifvqgig","pricing_plan_id":"cebpf4jnsgd1na2vs0mg"},{"bike_id":"799bb6d2-01a2-4f75-bb71-b7c916d5aaa6","system_id":"levelo_inurba_marseille","lat":43.27921,"lon":5.39578,"is_reserved":false,"is_disabled":false,"rental_uris":{"android":"levelo://app?vid=799bb6d2-01a2-4f75-bb71-b7c916d5aaa6","ios":"levelo://app?vid=799bb6d2-01a2-4f75-bb71-b7c916d5aaa6"},"vehicle_type_id":"4","last_reported":1768490147,"current_range_meters":7200,"station_id":"ce4bhf92rcd13ifvqf40","pricing_plan_id":"cebpf4jnsgd1na2vs0mg"},{"bike_id":"8e2a1948-6333-4ed5-97a8-4616503a3850","system_id":"levelo_inurba_marseille","lat":43.26688,"lon":5.38266,"is_reserved":false,"is_disabled":false,"rental_uris":{"android":"levelo://app?vid=8e2a1948-6333-4ed5-97a8-4616503a3850","ios":"levelo://app?vid=8e2a1948-6333-4ed5-97a8-4616503a3850"},"vehicle_type_id":"4","last_reported":1768490147,"current_range_meters":7200,"station_id":"ce4bhg92rcd13ifvqf90","pricing_plan_id":"cebpf4jnsgd1na2vs0mg"},{"bike_id":"12eca0f0-e349-4f63-b9f0-759b69c47ac1","system_id":"levelo_inurba_marseille","lat":43.29778,"lon":5.38092,"is_reserved":false,"is_disabled":false,"rental_uris":{"android":"levelo://app?vid=12eca0f0-e349-4f63-b9f0-759b69c47ac1","ios":"levelo://app?vid=12eca0f0-e349-4f63-b9f0-759b69c47ac1"},"vehicle_type_id":"4","last_reported":1768490147,"current_range_meters":7200,"station_id":"ce4bgip2rcd13ifvqbb0","pricing_plan_id":"cebpf4jnsgd1na2vs0mg"},{"bike_id":"766b6315-d0e9-4f21-99cc-ac73caf0d81f","system_id":"levelo_inurba_marseille","lat":43.267803,"lon":5.394462,"is_reserved":false,"is_disabled":false,"rental_uris":{"android":"levelo://app?vid=766b6315-d0e9-4f21-99cc-ac73caf0d81f","ios":"levelo://app?vid=766b6315-d0e9-4f21-99cc-ac73caf0d81f"},"vehicle_type_id":"4","last_reported":1768490147,"current_range_meters":7200,"station_id":"ce4bhh12rcd13ifvqfg0","pricing_plan_id":"cebpf4jnsgd1na2vs0mg"},{"bike_id":"3b0aee46-29c5-43ec-8462-8fb48a443b5d","system_id":"levelo_inurba_marseille","lat":43.31353,"lon":5.36702,"is_reserved":false,"is_disabled":false,"rental_uris":{"android":"levelo://app?vid=3b0aee46-29c5-43ec-8462-8fb48a443b5d","ios":"levelo://app?vid=3b0aee46-29c5-43ec-8462-8fb48a443b5d"},"vehicle_type_id":"4","last_reported":1768490147,"current_range_meters":7200,"station_id":"ce4bgr92rcd13ifvqc6g","pricing_plan_id":"cebpf4jnsgd1na2vs0mg"},{"bike_id":"4d595e2e-bc43-47a0-b50f-aae7f908557b","system_id":"levelo_inurba_marseille","lat":43.27681,"lon":5.38915,"is_reserved":false,"is_disabled":false,"rental_uris":{"android":"levelo://app?vid=4d595e2e-bc43-47a0-b50f-aae7f908557b","ios":"levelo://app?vid=4d595e2e-bc43-47a0-b50f-aae7f908557b"},"vehicle_type_id":"4","last_reported":1768490147,"current_range_meters":7200,"station_id":"ce4bhi12rcd13ifvqfo0","pricing_plan_id":"cebpf4jnsgd1na2vs0mg"},{"bike_id":"d14c563e-7d81-4312-b6b2-f8e7e772a5f6","system_id":"levelo_inurba_marseille","lat":43.24465,"lon":5.42526,"is_reserved":false,"is_disabled":false,"rental_uris":{"android":"levelo://app?vid=d14c563e-7d81-4312-b6b2-f8e7e772a5f6","ios":"levelo://app?vid=d14c563e-7d81-4312-b6b2-f8e7e772a5f6"},"vehicle_type_id":"4","last_reported":1768490147,"current_range_meters":7200,"station_id":"st_d4a3vfp97mjs738cd8kg","pricing_plan_id":"cebpf4jnsgd1na2vs0mg"},{"bike_id":"91dbe188-56c8-4fce-a414-d6e43ed9eb6b","system_id":"levelo_inurba_marseille","lat":43.26719,"lon":5.3996,"is_reserved":false,"is_disabled":false,"rental_uris":{"android":"levelo://app?vid=91dbe188-56c8-4fce-a414-d6e43ed9eb6b","ios":"levelo://app?vid=91dbe188-56c8-4fce-a414-d6e43ed9eb6b"},"vehicle_type_id":"4","last_reported":1768490147,"current_range_meters":8000,"station_id":"","pricing_plan_id":"cebpf4jnsgd1na2vs0mg"},{"bike_id":"d1437624-7325-4411-87ce-3009f56ae813","system_id":"levelo_inurba_marseille","lat":43.27859,"lon":5.4064,"is_reserved":false,"is_disabled":false,"rental_uris":{"android":"levelo://app?vid=d1437624-7325-4411-87ce-3009f56ae813","ios":"levelo://app?vid=d1437624-7325-4411-87ce-3009f56ae813"},"vehicle_type_id":"4","last_reported":1768490147,"current_range_meters":8000,"station_id":"","pricing_plan_id":"cebpf4jnsgd1na2vs0mg"},{"bike_id":"becb4883-e03d-4141-9b48-e2d5d7c63907","system_id":"levelo_inurba_marseille","lat":43.25344,"lon":5.40209,"is_reserved":false,"is_disabled":false,"rental_uris":{"android":"levelo://app?vid=becb4883-e03d-4141-9b48-e2d5d7c63907","ios":"levelo://app?vid=becb4883-e03d-4141-9b48-e2d5d7c63907"},"vehicle_type_id":"4","last_reported":1768490147,"current_range_meters":8000,"station_id":"","pricing_plan_id":"cebpf4jnsgd1na2vs0mg"},{"bike_id":"cb1fa835-751e-4f0f-b010-d3e3044c82e2","system_id":"levelo_inurba_marseille","lat":43.28992,"lon":5.36905,"is_reserved":false,"is_disabled":false,"rental_uris":{"android":"levelo://app?vid=cb1fa835-751e-4f0f-b010-d3e3044c82e2","ios":"levelo://app?vid=cb1fa835-751e-4f0f-b010-d3e3044c82e2"},"vehicle_type_id":"4","last_reported":1768490147,"current_range_meters":8000,"station_id":"","pricing_plan_id":"cebpf4jnsgd1na2vs0mg"},{"bike_id":"b1d15f8b-7654-43fe-97ce-d567a18d6598","system_id":"levelo_inurba_marseille","lat":43.25513,"lon":5.37649,"is_reserved":false,"is_disabled":false,"rental_uris":{"android":"levelo://app?vid=b1d15f8b-7654-43fe-97ce-d567a18d6598","ios":"levelo://app?vid=b1d15f8b-7654-43fe-97ce-d567a18d6598"},"vehicle_type_id":"4","last_reported":1768490147,"current_range_meters":8000,"station_id":"ce4bhh12rcd13ifvqff0","pricing_plan_id":"cebpf4jnsgd1na2vs0mg"},{"bike_id":"75422019-3005-404c-b749-06eb292054c7","system_id":"levelo_inurba_marseille","lat":43.25009,"lon":5.38937,"is_reserved":false,"is_disabled":false,"rental_uris":{"android":"levelo://app?vid=75422019-3005-404c-b749-06eb292054c7","ios":"levelo://app?vid=75422019-3005-404c-b749-06eb292054c7"},"vehicle_type_id":"4","last_reported":1768490147,"current_range_meters":8000,"station_id":"ce4bhgp2rcd13ifvqfd0","pricing_plan_id":"cebpf4jnsgd1na2vs0mg"},{"bike_id":"0cd1e779-26e9-49c5-b773-f088de1cb9ab","system_id":"levelo_inurba_marseille","lat":43.26066,"lon":5.38523,"is_reserved":false,"is_disabled":false,"rental_uris":{"android":"levelo://app?vid=0cd1e779-26e9-49c5-b773-f088de1cb9ab","ios":"levelo://app?vid=0cd1e779-26e9-49c5-b773-f088de1cb9ab"},"vehicle_type_id":"4","last_reported":1768490147,"current_range_meters":8000,"station_id":"","pricing_plan_id":"cebpf4jnsgd1na2vs0mg"},{"bike_id":"de053820-f473-4d4f-8be6-7eb46f3d1ea3","system_id":"levelo_inurba_marseille","lat":43.31053,"lon":5.39324,"is_reserved":false,"is_disabled":false,"rental_uris":{"android":"levelo://app?vid=de053820-f473-4d4f-8be6-7eb46f3d1ea3","ios":"levelo://app?vid=de053820-f473-4d4f-8be6-7eb46f3d1ea3"},"vehicle_type_id":"4","last_reported":1768490147,"current_range_meters":8000,"station_id":"","pricing_plan_id":"cebpf4jnsgd1na2vs0mg"},{"bike_id":"2c6fec2d-af2d-409a-8263-16905602afd6","system_id":"levelo_inurba_marseille","lat":43.31749,"lon":5.39025,"is_reserved":false,"is_disabled":false,"rental_uris":{"android":"levelo://app?vid=2c6fec2d-af2d-409a-8263-16905602afd6","ios":"levelo://app?vid=2c6fec2d-af2d-409a-8263-16905602afd6"},"vehicle_type_id":"4","last_reported":1768490147,"current_range_meters":8000,"station_id":"ce4bhqp2rcd13ifvqhng","pricing_plan_id":"cebpf4jnsgd1na2vs0mg"},{"bike_id":"942f6fe0-ed66-433b-9c09-ecb19917ca2a","system_id":"levelo_inurba_marseille","lat":43.31114,"lon":5.37765,"is_reserved":false,"is_disabled":false,"rental_uris":{"android":"levelo://app?vid=942f6fe0-ed66-433b-9c09-ecb19917ca2a","ios":"levelo://app?vid=942f6fe0-ed66-433b-9c09-ecb19917ca2a"},"vehicle_type_id":"4","last_reported":1768490147,"current_range_meters":8000,"station_id":"ce4bgt92rcd13ifvqcg0","pricing_plan_id":"cebpf4jnsgd1na2vs0mg"},{"bike_id":"778fbfd4-e3fa-4d49-848e-08580a7ada1b","system_id":"levelo_inurba_marseille","lat":43.30462,"lon":5.3793,"is_reserved":false,"is_disabled":false,"rental_uris":{"android":"levelo://app?vid=778fbfd4-e3fa-4d49-848e-08580a7ada1b","ios":"levelo://app?vid=778fbfd4-e3fa-4d49-848e-08580a7ada1b"},"vehicle_type_id":"4","last_reported":1768490147,"current_range_meters":8000,"station_id":"ce4bgup2rcd13ifvqcn0","pricing_plan_id":"cebpf4jnsgd1na2vs0mg"},{"bike_id":"1624d9fa-6133-4502-99c8-6f0dfa37654b","system_id":"levelo_inurba_marseille","lat":43.32336,"lon":5.38495,"is_reserved":false,"is_disabled":false,"rental_uris":{"android":"levelo://app?vid=1624d9fa-6133-4502-99c8-6f0dfa37654b","ios":"levelo://app?vid=1624d9fa-6133-4502-99c8-6f0dfa37654b"},"vehicle_type_id":"4","last_reported":1768490147,"current_range_meters":8000,"station_id":"st_d45171o9ee8s73djdqug","pricing_plan_id":"cebpf4jnsgd1na2vs0mg"},{"bike_id":"2ffaf0c9-9016-4c67-8314-b46e32a838a9","system_id":"levelo_inurba_marseille","lat":43.24393,"lon":5.37057,"is_reserved":false,"is_disabled":false,"rental_uris":{"android":"levelo://app?vid=2ffaf0c9-9016-4c67-8314-b46e32a838a9","ios":"levelo://app?vid=2ffaf0c9-9016-4c67-8314-b46e32a838a9"},"vehicle_type_id":"4","last_reported":1768490147,"current_range_meters":8000,"station_id":"ce4bhhh2rcd13ifvqfk0","pricing_plan_id":"cebpf4jnsgd1na2vs0mg"},{"bike_id":"8ea47e76-4d6f-4a78-83f5-ab0a1828073d","system_id":"levelo_inurba_marseille","lat":43.2255,"lon":5.41632,"is_reserved":false,"is_disabled":false,"rental_uris":{"android":"levelo://app?vid=8ea47e76-4d6f-4a78-83f5-ab0a1828073d","ios":"levelo://app?vid=8ea47e76-4d6f-4a78-83f5-ab0a1828073d"},"vehicle_type_id":"4","last_reported":1768490147,"current_range_meters":8000,"station_id":"st_d2o4gvlbi1j2169b742g","pricing_plan_id":"cebpf4jnsgd1na2vs0mg"},{"bike_id":"a0651c2b-ea4a-4f23-93c5-18b71663f9e2","system_id":"levelo_inurba_marseille","lat":43.30535,"lon":5.36509,"is_reserved":false,"is_disabled":false,"rental_uris":{"android":"levelo://app?vid=a0651c2b-ea4a-4f23-93c5-18b71663f9e2","ios":"levelo://app?vid=a0651c2b-ea4a-4f23-93c5-18b71663f9e2"},"vehicle_type_id":"4","last_reported":1768490147,"current_range_meters":8000,"station_id":"","pricing_plan_id":"cebpf4jnsgd1na2vs0mg"},{"bike_id":"f6681264-0c23-4057-943f-1af4d2980810","system_id":"levelo_inurba_marseille","lat":43.27409,"lon":5.39022,"is_reserved":false,"is_disabled":false,"rental_uris":{"android":"levelo://app?vid=f6681264-0c23-4057-943f-1af4d2980810","ios":"levelo://app?vid=f6681264-0c23-4057-943f-1af4d2980810"},"vehicle_type_id":"4","last_reported":1768490147,"current_range_meters":8000,"station_id":"","pricing_plan_id":"cebpf4jnsgd1na2vs0mg"},{"bike_id":"0ab0c8cd-83dc-4104-a983-6b9d44dea5b2","system_id":"levelo_inurba_marseille","lat":43.2718,"lon":5.40986,"is_reserved":false,"is_disabled":false,"rental_uris":{"android":"levelo://app?vid=0ab0c8cd-83dc-4104-a983-6b9d44dea5b2","ios":"levelo://app?vid=0ab0c8cd-83dc-4104-a983-6b9d44dea5b2"},"vehicle_type_id":"4","last_reported":1768490147,"current_range_meters":8000,"station_id":"ce4bhl12rcd13ifvqgf0","pricing_plan_id":"cebpf4jnsgd1na2vs0mg"},{"bike_id":"eda67525-db07-4b18-aa7a-fc8c14661402","system_id":"levelo_inurba_marseille","lat":43.23194,"lon":5.35545,"is_reserved":false,"is_disabled":false,"rental_uris":{"android":"levelo://app?vid=eda67525-db07-4b18-aa7a-fc8c14661402","ios":"levelo://app?vid=eda67525-db07-4b18-aa7a-fc8c14661402"},"vehicle_type_id":"4","last_reported":1768490147,"current_range_meters":8400,"station_id":"ce4bhu92rcd13ifvqi70","pricing_plan_id":"cebpf4jnsgd1na2vs0mg"},{"bike_id":"9798252a-9361-46ce-9695-59458b1329bc","system_id":"levelo_inurba_marseille","lat":43.2319,"lon":5.35555,"is_reserved":false,"is_disabled":false,"rental_uris":{"android":"levelo://app?vid=9798252a-9361-46ce-9695-59458b1329bc","ios":"levelo://app?vid=9798252a-9361-46ce-9695-59458b1329bc"},"vehicle_type_id":"4","last_reported":1768490147,"current_range_meters":8400,"station_id":"ce4bhu92rcd13ifvqi70","pricing_plan_id":"cebpf4jnsgd1na2vs0mg"},{"bike_id":"fe760492-f7f6-4e9b-8605-bd507140d798","system_id":"levelo_inurba_marseille","lat":43.30122,"lon":5.43113,"is_reserved":false,"is_disabled":false,"rental_uris":{"android":"levelo://app?vid=fe760492-f7f6-4e9b-8605-bd507140d798","ios":"levelo://app?vid=fe760492-f7f6-4e9b-8605-bd507140d798"},"vehicle_type_id":"4","last_reported":1768490147,"current_range_meters":8400,"station_id":"st_d3js3co5814s73ftftug","pricing_plan_id":"cebpf4jnsgd1na2vs0mg"},{"bike_id":"736ec16a-dc55-4587-9b1c-c917e562c9fe","system_id":"levelo_inurba_marseille","lat":43.25496,"lon":5.37655,"is_reserved":false,"is_disabled":false,"rental_uris":{"android":"levelo://app?vid=736ec16a-dc55-4587-9b1c-c917e562c9fe","ios":"levelo://app?vid=736ec16a-dc55-4587-9b1c-c917e562c9fe"},"vehicle_type_id":"4","last_reported":1768490147,"current_range_meters":8400,"station_id":"ce4bhh12rcd13ifvqff0","pricing_plan_id":"cebpf4jnsgd1na2vs0mg"},{"bike_id":"d7390cf8-7e75-428e-a400-48864d080698","system_id":"levelo_inurba_marseille","lat":43.296098,"lon":5.380909,"is_reserved":false,"is_disabled":false,"rental_uris":{"android":"levelo://app?vid=d7390cf8-7e75-428e-a400-48864d080698","ios":"levelo://app?vid=d7390cf8-7e75-428e-a400-48864d080698"},"vehicle_type_id":"4","last_reported":1768490147,"current_range_meters":8400,"station_id":"ce4bgl12rcd13ifvqbo0","pricing_plan_id":"cebpf4jnsgd1na2vs0mg"},{"bike_id":"311fd6a9-6bc8-41d0-ac40-a89fb207f919","system_id":"levelo_inurba_marseille","lat":43.26953,"lon":5.40231,"is_reserved":false,"is_disabled":false,"rental_uris":{"android":"levelo://app?vid=311fd6a9-6bc8-41d0-ac40-a89fb207f919","ios":"levelo://app?vid=311fd6a9-6bc8-41d0-ac40-a89fb207f919"},"vehicle_type_id":"4","last_reported":1768490147,"current_range_meters":8400,"station_id":"cjm6bp8fraef2m0cb0m0","pricing_plan_id":"cebpf4jnsgd1na2vs0mg"},{"bike_id":"a8593132-f02f-43f6-9eb9-c02d36b74cd2","system_id":"levelo_inurba_marseille","lat":43.24073,"lon":5.37753,"is_reserved":false,"is_disabled":false,"rental_uris":{"android":"levelo://app?vid=a8593132-f02f-43f6-9eb9-c02d36b74cd2","ios":"levelo://app?vid=a8593132-f02f-43f6-9eb9-c02d36b74cd2"},"vehicle_type_id":"4","last_reported":1768490147,"current_range_meters":8400,"station_id":"ce4bhnp2rcd13ifvqgvg","pricing_plan_id":"cebpf4jnsgd1na2vs0mg"},{"bike_id":"d0dffef8-5c68-4bcb-80c5-7577fa8397ae","system_id":"levelo_inurba_marseille","lat":43.24652,"lon":5.38136,"is_reserved":false,"is_disabled":false,"rental_uris":{"android":"levelo://app?vid=d0dffef8-5c68-4bcb-80c5-7577fa8397ae","ios":"levelo://app?vid=d0dffef8-5c68-4bcb-80c5-7577fa8397ae"},"vehicle_type_id":"4","last_reported":1768490147,"current_range_meters":8400,"station_id":"ce4bhih2rcd13ifvqfr0","pricing_plan_id":"cebpf4jnsgd1na2vs0mg"},{"bike_id":"fbca656e-02c6-47d2-8a61-af26f7f00021","system_id":"levelo_inurba_marseille","lat":43.25874,"lon":5.39917,"is_reserved":false,"is_disabled":false,"rental_uris":{"android":"levelo://app?vid=fbca656e-02c6-47d2-8a61-af26f7f00021","ios":"levelo://app?vid=fbca656e-02c6-47d2-8a61-af26f7f00021"},"vehicle_type_id":"4","last_reported":1768490147,"current_range_meters":8400,"station_id":"ce4bhl92rcd13ifvqghg","pricing_plan_id":"cebpf4jnsgd1na2vs0mg"},{"bike_id":"0fe23f40-caad-46ad-b558-32f62e0f76ac","system_id":"levelo_inurba_marseille","lat":43.3113,"lon":5.39805,"is_reserved":false,"is_disabled":false,"rental_uris":{"android":"levelo://app?vid=0fe23f40-caad-46ad-b558-32f62e0f76ac","ios":"levelo://app?vid=0fe23f40-caad-46ad-b558-32f62e0f76ac"},"vehicle_type_id":"4","last_reported":1768490147,"current_range_meters":8400,"station_id":"","pricing_plan_id":"cebpf4jnsgd1na2vs0mg"},{"bike_id":"6cb373a2-1cb2-4520-bb8e-eb20f7f6c3f7","system_id":"levelo_inurba_marseille","lat":43.284821,"lon":5.395079,"is_reserved":false,"is_disabled":false,"rental_uris":{"android":"levelo://app?vid=6cb373a2-1cb2-4520-bb8e-eb20f7f6c3f7","ios":"levelo://app?vid=6cb373a2-1cb2-4520-bb8e-eb20f7f6c3f7"},"vehicle_type_id":"4","last_reported":1768490147,"current_range_meters":8400,"station_id":"ce4bh292rcd13ifvqdg0","pricing_plan_id":"cebpf4jnsgd1na2vs0mg"},{"bike_id":"f98fecef-c955-41d4-a8ce-a809a298738c","system_id":"levelo_inurba_marseille","lat":43.274365,"lon":5.394299,"is_reserved":false,"is_disabled":false,"rental_uris":{"android":"levelo://app?vid=f98fecef-c955-41d4-a8ce-a809a298738c","ios":"levelo://app?vid=f98fecef-c955-41d4-a8ce-a809a298738c"},"vehicle_type_id":"4","last_reported":1768490147,"current_range_meters":8400,"station_id":"ce4bhdp2rcd13ifvqf20","pricing_plan_id":"cebpf4jnsgd1na2vs0mg"},{"bike_id":"dbcf6ef4-a784-430e-9991-3e608cc1669e","system_id":"levelo_inurba_marseille","lat":43.22563,"lon":5.41634,"is_reserved":false,"is_disabled":false,"rental_uris":{"android":"levelo://app?vid=dbcf6ef4-a784-430e-9991-3e608cc1669e","ios":"levelo://app?vid=dbcf6ef4-a784-430e-9991-3e608cc1669e"},"vehicle_type_id":"4","last_reported":1768490147,"current_range_meters":8400,"station_id":"st_d2o4gvlbi1j2169b742g","pricing_plan_id":"cebpf4jnsgd1na2vs0mg"},{"bike_id":"ac1643f3-9488-45ea-bb3b-0339e82f4726","system_id":"levelo_inurba_marseille","lat":43.27057,"lon":5.38307,"is_reserved":false,"is_disabled":false,"rental_uris":{"android":"levelo://app?vid=ac1643f3-9488-45ea-bb3b-0339e82f4726","ios":"levelo://app?vid=ac1643f3-9488-45ea-bb3b-0339e82f4726"},"vehicle_type_id":"4","last_reported":1768490147,"current_range_meters":8400,"station_id":"st_d3n2fo6cfp8s73cte1j0","pricing_plan_id":"cebpf4jnsgd1na2vs0mg"},{"bike_id":"b290dec6-4c4d-45f0-9fc8-4d4740a37efa","system_id":"levelo_inurba_marseille","lat":43.27816,"lon":5.40692,"is_reserved":false,"is_disabled":false,"rental_uris":{"android":"levelo://app?vid=b290dec6-4c4d-45f0-9fc8-4d4740a37efa","ios":"levelo://app?vid=b290dec6-4c4d-45f0-9fc8-4d4740a37efa"},"vehicle_type_id":"4","last_reported":1768490147,"current_range_meters":8400,"station_id":"ce4bhnh2rcd13ifvqgtg","pricing_plan_id":"cebpf4jnsgd1na2vs0mg"},{"bike_id":"042bbf44-b55a-4532-8ae2-eb4449c94cfd","system_id":"levelo_inurba_marseille","lat":43.303793,"lon":5.418798,"is_reserved":false,"is_disabled":false,"rental_uris":{"android":"levelo://app?vid=042bbf44-b55a-4532-8ae2-eb4449c94cfd","ios":"levelo://app?vid=042bbf44-b55a-4532-8ae2-eb4449c94cfd"},"vehicle_type_id":"4","last_reported":1768490147,"current_range_meters":8400,"station_id":"ce4bh112rcd13ifvqda0","pricing_plan_id":"cebpf4jnsgd1na2vs0mg"},{"bike_id":"58455772-468d-41ff-a9b8-5fcf7f6153ec","system_id":"levelo_inurba_marseille","lat":43.25824,"lon":5.3943,"is_reserved":false,"is_disabled":false,"rental_uris":{"android":"levelo://app?vid=58455772-468d-41ff-a9b8-5fcf7f6153ec","ios":"levelo://app?vid=58455772-468d-41ff-a9b8-5fcf7f6153ec"},"vehicle_type_id":"4","last_reported":1768490147,"current_range_meters":8400,"station_id":"ce4bhip2rcd13ifvqft0","pricing_plan_id":"cebpf4jnsgd1na2vs0mg"},{"bike_id":"27264743-2e50-4a00-8306-3109b49e129f","system_id":"levelo_inurba_marseille","lat":43.24068,"lon":5.3776,"is_reserved":false,"is_disabled":false,"rental_uris":{"android":"levelo://app?vid=27264743-2e50-4a00-8306-3109b49e129f","ios":"levelo://app?vid=27264743-2e50-4a00-8306-3109b49e129f"},"vehicle_type_id":"4","last_reported":1768490147,"current_range_meters":8400,"station_id":"ce4bhnp2rcd13ifvqgvg","pricing_plan_id":"cebpf4jnsgd1na2vs0mg"},{"bike_id":"f0f77a0a-fb63-466f-8221-ca4aa28e90e6","system_id":"levelo_inurba_marseille","lat":43.24803,"lon":5.37456,"is_reserved":false,"is_disabled":false,"rental_uris":{"android":"levelo://app?vid=f0f77a0a-fb63-466f-8221-ca4aa28e90e6","ios":"levelo://app?vid=f0f77a0a-fb63-466f-8221-ca4aa28e90e6"},"vehicle_type_id":"4","last_reported":1768490147,"current_range_meters":8800,"station_id":"ce4bhgh2rcd13ifvqfb0","pricing_plan_id":"cebpf4jnsgd1na2vs0mg"},{"bike_id":"288a04d2-270d-4351-8096-f579be82f314","system_id":"levelo_inurba_marseille","lat":43.25081,"lon":5.39513,"is_reserved":false,"is_disabled":false,"rental_uris":{"android":"levelo://app?vid=288a04d2-270d-4351-8096-f579be82f314","ios":"levelo://app?vid=288a04d2-270d-4351-8096-f579be82f314"},"vehicle_type_id":"4","last_reported":1768490147,"current_range_meters":8800,"station_id":"ce4bhm12rcd13ifvqgkg","pricing_plan_id":"cebpf4jnsgd1na2vs0mg"},{"bike_id":"8ac29141-6985-4b16-8504-2238bb54b54a","system_id":"levelo_inurba_marseille","lat":43.243905,"lon":5.370586,"is_reserved":false,"is_disabled":false,"rental_uris":{"android":"levelo://app?vid=8ac29141-6985-4b16-8504-2238bb54b54a","ios":"levelo://app?vid=8ac29141-6985-4b16-8504-2238bb54b54a"},"vehicle_type_id":"4","last_reported":1768490147,"current_range_meters":8800,"station_id":"ce4bhhh2rcd13ifvqfk0","pricing_plan_id":"cebpf4jnsgd1na2vs0mg"},{"bike_id":"89bde630-b6ba-4a78-be1a-271f03663963","system_id":"levelo_inurba_marseille","lat":43.265698,"lon":5.390034,"is_reserved":false,"is_disabled":false,"rental_uris":{"android":"levelo://app?vid=89bde630-b6ba-4a78-be1a-271f03663963","ios":"levelo://app?vid=89bde630-b6ba-4a78-be1a-271f03663963"},"vehicle_type_id":"4","last_reported":1768490147,"current_range_meters":8800,"station_id":"ce4bhe12rcd13ifvqf30","pricing_plan_id":"cebpf4jnsgd1na2vs0mg"},{"bike_id":"d10c0024-e2ec-401f-bf30-95042a990a73","system_id":"levelo_inurba_marseille","lat":43.28115,"lon":5.42601,"is_reserved":false,"is_disabled":false,"rental_uris":{"android":"levelo://app?vid=d10c0024-e2ec-401f-bf30-95042a990a73","ios":"levelo://app?vid=d10c0024-e2ec-401f-bf30-95042a990a73"},"vehicle_type_id":"4","last_reported":1768490147,"current_range_meters":8800,"station_id":"","pricing_plan_id":"cebpf4jnsgd1na2vs0mg"},{"bike_id":"f2c787eb-1b36-4e92-b487-3132386b8e37","system_id":"levelo_inurba_marseille","lat":43.24795,"lon":5.37447,"is_reserved":false,"is_disabled":false,"rental_uris":{"android":"levelo://app?vid=f2c787eb-1b36-4e92-b487-3132386b8e37","ios":"levelo://app?vid=f2c787eb-1b36-4e92-b487-3132386b8e37"},"vehicle_type_id":"4","last_reported":1768490147,"current_range_meters":8800,"station_id":"ce4bhgh2rcd13ifvqfb0","pricing_plan_id":"cebpf4jnsgd1na2vs0mg"},{"bike_id":"f2778386-ca06-4888-ab69-bbec971085e2","system_id":"levelo_inurba_marseille","lat":43.30424,"lon":5.3889,"is_reserved":false,"is_disabled":false,"rental_uris":{"android":"levelo://app?vid=f2778386-ca06-4888-ab69-bbec971085e2","ios":"levelo://app?vid=f2778386-ca06-4888-ab69-bbec971085e2"},"vehicle_type_id":"4","last_reported":1768490147,"current_range_meters":8800,"station_id":"ce4bgk12rcd13ifvqbi0","pricing_plan_id":"cebpf4jnsgd1na2vs0mg"},{"bike_id":"7b7edb69-9005-4456-b829-54e5056b2dd1","system_id":"levelo_inurba_marseille","lat":43.24554,"lon":5.39511,"is_reserved":false,"is_disabled":false,"rental_uris":{"android":"levelo://app?vid=7b7edb69-9005-4456-b829-54e5056b2dd1","ios":"levelo://app?vid=7b7edb69-9005-4456-b829-54e5056b2dd1"},"vehicle_type_id":"4","last_reported":1768490147,"current_range_meters":8800,"station_id":"ce4bhlp2rcd13ifvqgjg","pricing_plan_id":"cebpf4jnsgd1na2vs0mg"},{"bike_id":"a6efb7b3-8c44-4a6c-92e4-ed7eb57f41e2","system_id":"levelo_inurba_marseille","lat":43.28435,"lon":5.36777,"is_reserved":false,"is_disabled":false,"rental_uris":{"android":"levelo://app?vid=a6efb7b3-8c44-4a6c-92e4-ed7eb57f41e2","ios":"levelo://app?vid=a6efb7b3-8c44-4a6c-92e4-ed7eb57f41e2"},"vehicle_type_id":"4","last_reported":1768490147,"current_range_meters":8800,"station_id":"","pricing_plan_id":"cebpf4jnsgd1na2vs0mg"},{"bike_id":"c242e646-f282-457f-a670-771ea65dbddf","system_id":"levelo_inurba_marseille","lat":43.32112,"lon":5.36762,"is_reserved":false,"is_disabled":false,"rental_uris":{"android":"levelo://app?vid=c242e646-f282-457f-a670-771ea65dbddf","ios":"levelo://app?vid=c242e646-f282-457f-a670-771ea65dbddf"},"vehicle_type_id":"4","last_reported":1768490147,"current_range_meters":8800,"station_id":"ce4bhrh2rcd13ifvqhug","pricing_plan_id":"cebpf4jnsgd1na2vs0mg"},{"bike_id":"d2d2d908-ffb6-4c0a-97f2-e5e034e39816","system_id":"levelo_inurba_marseille","lat":43.2794,"lon":5.40394,"is_reserved":false,"is_disabled":false,"rental_uris":{"android":"levelo://app?vid=d2d2d908-ffb6-4c0a-97f2-e5e034e39816","ios":"levelo://app?vid=d2d2d908-ffb6-4c0a-97f2-e5e034e39816"},"vehicle_type_id":"4","last_reported":1768490147,"current_range_meters":8800,"station_id":"","pricing_plan_id":"cebpf4jnsgd1na2vs0mg"},{"bike_id":"753ccbc1-bc1b-4429-8a43-0dcf4c26b7fc","system_id":"levelo_inurba_marseille","lat":43.3316,"lon":5.37709,"is_reserved":false,"is_disabled":false,"rental_uris":{"android":"levelo://app?vid=753ccbc1-bc1b-4429-8a43-0dcf4c26b7fc","ios":"levelo://app?vid=753ccbc1-bc1b-4429-8a43-0dcf4c26b7fc"},"vehicle_type_id":"4","last_reported":1768490147,"current_range_meters":8800,"station_id":"st_d46cu089ee8s73dldbu0","pricing_plan_id":"cebpf4jnsgd1na2vs0mg"},{"bike_id":"df71ceab-eb48-4624-828e-25b3997dfdec","system_id":"levelo_inurba_marseille","lat":43.29154,"lon":5.37179,"is_reserved":false,"is_disabled":false,"rental_uris":{"android":"levelo://app?vid=df71ceab-eb48-4624-828e-25b3997dfdec","ios":"levelo://app?vid=df71ceab-eb48-4624-828e-25b3997dfdec"},"vehicle_type_id":"4","last_reported":1768490147,"current_range_meters":8800,"station_id":"ce4bha92rcd13ifvqeh0","pricing_plan_id":"cebpf4jnsgd1na2vs0mg"},{"bike_id":"b03c0e98-3a60-4130-b4f0-49b3c4d8824c","system_id":"levelo_inurba_marseille","lat":43.325044,"lon":5.383017,"is_reserved":false,"is_disabled":false,"rental_uris":{"android":"levelo://app?vid=b03c0e98-3a60-4130-b4f0-49b3c4d8824c","ios":"levelo://app?vid=b03c0e98-3a60-4130-b4f0-49b3c4d8824c"},"vehicle_type_id":"4","last_reported":1768490147,"current_range_meters":8800,"station_id":"st_d4asgbiv49dc73anf9m0","pricing_plan_id":"cebpf4jnsgd1na2vs0mg"},{"bike_id":"4fceed67-7bb0-4d54-a2f3-367c068403f7","system_id":"levelo_inurba_marseille","lat":43.274973,"lon":5.424502,"is_reserved":false,"is_disabled":false,"rental_uris":{"android":"levelo://app?vid=4fceed67-7bb0-4d54-a2f3-367c068403f7","ios":"levelo://app?vid=4fceed67-7bb0-4d54-a2f3-367c068403f7"},"vehicle_type_id":"4","last_reported":1768490147,"current_range_meters":8800,"station_id":"ce4bhn92rcd13ifvqgrg","pricing_plan_id":"cebpf4jnsgd1na2vs0mg"},{"bike_id":"13c7c20f-0feb-4e4c-b067-68cfe4794af8","system_id":"levelo_inurba_marseille","lat":43.28871,"lon":5.38426,"is_reserved":false,"is_disabled":false,"rental_uris":{"android":"levelo://app?vid=13c7c20f-0feb-4e4c-b067-68cfe4794af8","ios":"levelo://app?vid=13c7c20f-0feb-4e4c-b067-68cfe4794af8"},"vehicle_type_id":"4","last_reported":1768490147,"current_range_meters":8800,"station_id":"","pricing_plan_id":"cebpf4jnsgd1na2vs0mg"},{"bike_id":"e5aa787f-c7e4-4b02-b6ed-ac65ac7744ea","system_id":"levelo_inurba_marseille","lat":43.23192,"lon":5.39995,"is_reserved":false,"is_disabled":false,"rental_uris":{"android":"levelo://app?vid=e5aa787f-c7e4-4b02-b6ed-ac65ac7744ea","ios":"levelo://app?vid=e5aa787f-c7e4-4b02-b6ed-ac65ac7744ea"},"vehicle_type_id":"4","last_reported":1768490147,"current_range_meters":8800,"station_id":"ce4bhn12rcd13ifvqgqg","pricing_plan_id":"cebpf4jnsgd1na2vs0mg"},{"bike_id":"7512c4d2-4a5e-4a8c-8737-f6ffe9aeccda","system_id":"levelo_inurba_marseille","lat":43.29909,"lon":5.37468,"is_reserved":false,"is_disabled":false,"rental_uris":{"android":"levelo://app?vid=7512c4d2-4a5e-4a8c-8737-f6ffe9aeccda","ios":"levelo://app?vid=7512c4d2-4a5e-4a8c-8737-f6ffe9aeccda"},"vehicle_type_id":"4","last_reported":1768490147,"current_range_meters":8800,"station_id":"","pricing_plan_id":"cebpf4jnsgd1na2vs0mg"},{"bike_id":"0ce3cc02-2962-4286-804f-4dc1590de945","system_id":"levelo_inurba_marseille","lat":43.25574,"lon":5.38233,"is_reserved":false,"is_disabled":false,"rental_uris":{"android":"levelo://app?vid=0ce3cc02-2962-4286-804f-4dc1590de945","ios":"levelo://app?vid=0ce3cc02-2962-4286-804f-4dc1590de945"},"vehicle_type_id":"4","last_reported":1768490147,"current_range_meters":8800,"station_id":"ce4bhih2rcd13ifvqfs0","pricing_plan_id":"cebpf4jnsgd1na2vs0mg"},{"bike_id":"3b06d8ac-0c0e-4815-baae-3f6b7bfae72e","system_id":"levelo_inurba_marseille","lat":43.34168,"lon":5.36044,"is_reserved":false,"is_disabled":false,"rental_uris":{"android":"levelo://app?vid=3b06d8ac-0c0e-4815-baae-3f6b7bfae72e","ios":"levelo://app?vid=3b06d8ac-0c0e-4815-baae-3f6b7bfae72e"},"vehicle_type_id":"4","last_reported":1768490147,"current_range_meters":8800,"station_id":"","pricing_plan_id":"cebpf4jnsgd1na2vs0mg"},{"bike_id":"f04bc906-a729-4052-9328-6ab28f59e714","system_id":"levelo_inurba_marseille","lat":43.305596,"lon":5.365258,"is_reserved":false,"is_disabled":false,"rental_uris":{"android":"levelo://app?vid=f04bc906-a729-4052-9328-6ab28f59e714","ios":"levelo://app?vid=f04bc906-a729-4052-9328-6ab28f59e714"},"vehicle_type_id":"4","last_reported":1768490147,"current_range_meters":8800,"station_id":"ce4bgs12rcd13ifvqcag","pricing_plan_id":"cebpf4jnsgd1na2vs0mg"},{"bike_id":"63538b81-0cf3-4b4f-b0ff-c2171fb07508","system_id":"levelo_inurba_marseille","lat":43.28272,"lon":5.35049,"is_reserved":false,"is_disabled":false,"rental_uris":{"android":"levelo://app?vid=63538b81-0cf3-4b4f-b0ff-c2171fb07508","ios":"levelo://app?vid=63538b81-0cf3-4b4f-b0ff-c2171fb07508"},"vehicle_type_id":"4","last_reported":1768490147,"current_range_meters":8800,"station_id":"ce4bhbp2rcd13ifvqerg","pricing_plan_id":"cebpf4jnsgd1na2vs0mg"},{"bike_id":"8782c85b-4cd2-4d16-816f-ea9c0e380452","system_id":"levelo_inurba_marseille","lat":43.28113,"lon":5.40433,"is_reserved":false,"is_disabled":false,"rental_uris":{"android":"levelo://app?vid=8782c85b-4cd2-4d16-816f-ea9c0e380452","ios":"levelo://app?vid=8782c85b-4cd2-4d16-816f-ea9c0e380452"},"vehicle_type_id":"4","last_reported":1768490147,"current_range_meters":8800,"station_id":"","pricing_plan_id":"cebpf4jnsgd1na2vs0mg"},{"bike_id":"fffa4748-848c-4675-82b2-f23c0aace7a2","system_id":"levelo_inurba_marseille","lat":43.3235,"lon":5.36739,"is_reserved":false,"is_disabled":false,"rental_uris":{"android":"levelo://app?vid=fffa4748-848c-4675-82b2-f23c0aace7a2","ios":"levelo://app?vid=fffa4748-848c-4675-82b2-f23c0aace7a2"},"vehicle_type_id":"4","last_reported":1768490147,"current_range_meters":8800,"station_id":"ce4bhsh2rcd13ifvqi2g","pricing_plan_id":"cebpf4jnsgd1na2vs0mg"},{"bike_id":"4ebd7122-1466-417b-8e08-467d95cfab0c","system_id":"levelo_inurba_marseille","lat":43.32532,"lon":5.41491,"is_reserved":false,"is_disabled":false,"rental_uris":{"android":"levelo://app?vid=4ebd7122-1466-417b-8e08-467d95cfab0c","ios":"levelo://app?vid=4ebd7122-1466-417b-8e08-467d95cfab0c"},"vehicle_type_id":"4","last_reported":1768490147,"current_range_meters":8800,"station_id":"ce4bhq12rcd13ifvqhhg","pricing_plan_id":"cebpf4jnsgd1na2vs0mg"},{"bike_id":"5379f5ed-da06-4adb-b823-51e71e531df4","system_id":"levelo_inurba_marseille","lat":43.24637,"lon":5.43138,"is_reserved":false,"is_disabled":false,"rental_uris":{"android":"levelo://app?vid=5379f5ed-da06-4adb-b823-51e71e531df4","ios":"levelo://app?vid=5379f5ed-da06-4adb-b823-51e71e531df4"},"vehicle_type_id":"4","last_reported":1768490147,"current_range_meters":8800,"station_id":"st_d2m6c4gdas8pm72e190g","pricing_plan_id":"cebpf4jnsgd1na2vs0mg"},{"bike_id":"bd99e98d-2f13-4f0b-9f95-b971d6b6b3c7","system_id":"levelo_inurba_marseille","lat":43.2816,"lon":5.42635,"is_reserved":false,"is_disabled":false,"rental_uris":{"android":"levelo://app?vid=bd99e98d-2f13-4f0b-9f95-b971d6b6b3c7","ios":"levelo://app?vid=bd99e98d-2f13-4f0b-9f95-b971d6b6b3c7"},"vehicle_type_id":"4","last_reported":1768490147,"current_range_meters":8800,"station_id":"ce4bhnh2rcd13ifvqgug","pricing_plan_id":"cebpf4jnsgd1na2vs0mg"},{"bike_id":"1dbcbffa-e8fa-493a-99ec-7ba95f2356b9","system_id":"levelo_inurba_marseille","lat":43.30739,"lon":5.42443,"is_reserved":false,"is_disabled":false,"rental_uris":{"android":"levelo://app?vid=1dbcbffa-e8fa-493a-99ec-7ba95f2356b9","ios":"levelo://app?vid=1dbcbffa-e8fa-493a-99ec-7ba95f2356b9"},"vehicle_type_id":"4","last_reported":1768490147,"current_range_meters":8800,"station_id":"st_cvj6ca6bvosntc0bfgr0","pricing_plan_id":"cebpf4jnsgd1na2vs0mg"},{"bike_id":"90218040-6582-4aa2-8913-05c76010fcbf","system_id":"levelo_inurba_marseille","lat":43.23784,"lon":5.3663,"is_reserved":false,"is_disabled":false,"rental_uris":{"android":"levelo://app?vid=90218040-6582-4aa2-8913-05c76010fcbf","ios":"levelo://app?vid=90218040-6582-4aa2-8913-05c76010fcbf"},"vehicle_type_id":"4","last_reported":1768490147,"current_range_meters":8800,"station_id":"st_d3nk18o9ro0c73en2l3g","pricing_plan_id":"cebpf4jnsgd1na2vs0mg"},{"bike_id":"e937f0fe-af94-4a5e-8160-e367561df05d","system_id":"levelo_inurba_marseille","lat":43.27971,"lon":5.38705,"is_reserved":false,"is_disabled":false,"rental_uris":{"android":"levelo://app?vid=e937f0fe-af94-4a5e-8160-e367561df05d","ios":"levelo://app?vid=e937f0fe-af94-4a5e-8160-e367561df05d"},"vehicle_type_id":"4","last_reported":1768490147,"current_range_meters":9200,"station_id":"ce4bhg12rcd13ifvqf80","pricing_plan_id":"cebpf4jnsgd1na2vs0mg"},{"bike_id":"551cf153-db3e-4868-8c3a-b2e3edc5022f","system_id":"levelo_inurba_marseille","lat":43.301444,"lon":5.37412,"is_reserved":false,"is_disabled":false,"rental_uris":{"android":"levelo://app?vid=551cf153-db3e-4868-8c3a-b2e3edc5022f","ios":"levelo://app?vid=551cf153-db3e-4868-8c3a-b2e3edc5022f"},"vehicle_type_id":"4","last_reported":1768490147,"current_range_meters":9200,"station_id":"ce4bgs92rcd13ifvqcc0","pricing_plan_id":"cebpf4jnsgd1na2vs0mg"},{"bike_id":"4cfb3631-9994-4cbb-9576-972dc347553c","system_id":"levelo_inurba_marseille","lat":43.30549,"lon":5.36546,"is_reserved":false,"is_disabled":false,"rental_uris":{"android":"levelo://app?vid=4cfb3631-9994-4cbb-9576-972dc347553c","ios":"levelo://app?vid=4cfb3631-9994-4cbb-9576-972dc347553c"},"vehicle_type_id":"4","last_reported":1768490147,"current_range_meters":9200,"station_id":"ce4bgs12rcd13ifvqcag","pricing_plan_id":"cebpf4jnsgd1na2vs0mg"},{"bike_id":"a696c7fe-baef-4a58-8525-3edaf5ca50d0","system_id":"levelo_inurba_marseille","lat":43.244046,"lon":5.370479,"is_reserved":false,"is_disabled":false,"rental_uris":{"android":"levelo://app?vid=a696c7fe-baef-4a58-8525-3edaf5ca50d0","ios":"levelo://app?vid=a696c7fe-baef-4a58-8525-3edaf5ca50d0"},"vehicle_type_id":"4","last_reported":1768490147,"current_range_meters":9200,"station_id":"ce4bhhh2rcd13ifvqfk0","pricing_plan_id":"cebpf4jnsgd1na2vs0mg"},{"bike_id":"dcba5e0d-8e79-44d0-8827-5e7dfb547664","system_id":"levelo_inurba_marseille","lat":43.28537,"lon":5.44087,"is_reserved":false,"is_disabled":false,"rental_uris":{"android":"levelo://app?vid=dcba5e0d-8e79-44d0-8827-5e7dfb547664","ios":"levelo://app?vid=dcba5e0d-8e79-44d0-8827-5e7dfb547664"},"vehicle_type_id":"4","last_reported":1768490147,"current_range_meters":9200,"station_id":"st_d3j3df2ikq2c7380ej80","pricing_plan_id":"cebpf4jnsgd1na2vs0mg"},{"bike_id":"cd36fbcd-04b7-44af-907d-269a620e2e29","system_id":"levelo_inurba_marseille","lat":43.29032,"lon":5.37551,"is_reserved":false,"is_disabled":false,"rental_uris":{"android":"levelo://app?vid=cd36fbcd-04b7-44af-907d-269a620e2e29","ios":"levelo://app?vid=cd36fbcd-04b7-44af-907d-269a620e2e29"},"vehicle_type_id":"4","last_reported":1768490147,"current_range_meters":9200,"station_id":"ce4bh692rcd13ifvqe90","pricing_plan_id":"cebpf4jnsgd1na2vs0mg"},{"bike_id":"7b3ee8c3-fc8a-4cc4-b3f8-13b6791af098","system_id":"levelo_inurba_marseille","lat":43.2893,"lon":5.3637,"is_reserved":false,"is_disabled":false,"rental_uris":{"android":"levelo://app?vid=7b3ee8c3-fc8a-4cc4-b3f8-13b6791af098","ios":"levelo://app?vid=7b3ee8c3-fc8a-4cc4-b3f8-13b6791af098"},"vehicle_type_id":"4","last_reported":1768490147,"current_range_meters":9200,"station_id":"ce4bhc92rcd13ifvqetg","pricing_plan_id":"cebpf4jnsgd1na2vs0mg"},{"bike_id":"e80698a9-63e5-4fe3-b0d6-26b74dbb99bd","system_id":"levelo_inurba_marseille","lat":43.248008,"lon":5.374492,"is_reserved":false,"is_disabled":false,"rental_uris":{"android":"levelo://app?vid=e80698a9-63e5-4fe3-b0d6-26b74dbb99bd","ios":"levelo://app?vid=e80698a9-63e5-4fe3-b0d6-26b74dbb99bd"},"vehicle_type_id":"4","last_reported":1768490147,"current_range_meters":9200,"station_id":"ce4bhgh2rcd13ifvqfb0","pricing_plan_id":"cebpf4jnsgd1na2vs0mg"},{"bike_id":"049413f1-39e1-40b1-9445-512d086cd798","system_id":"levelo_inurba_marseille","lat":43.30164,"lon":5.38071,"is_reserved":false,"is_disabled":false,"rental_uris":{"android":"levelo://app?vid=049413f1-39e1-40b1-9445-512d086cd798","ios":"levelo://app?vid=049413f1-39e1-40b1-9445-512d086cd798"},"vehicle_type_id":"4","last_reported":1768490147,"current_range_meters":9200,"station_id":"ce4bgjp2rcd13ifvqbh0","pricing_plan_id":"cebpf4jnsgd1na2vs0mg"},{"bike_id":"6abf8a46-f540-4848-8617-65edd2aabe92","system_id":"levelo_inurba_marseille","lat":43.31777,"lon":5.39757,"is_reserved":false,"is_disabled":false,"rental_uris":{"android":"levelo://app?vid=6abf8a46-f540-4848-8617-65edd2aabe92","ios":"levelo://app?vid=6abf8a46-f540-4848-8617-65edd2aabe92"},"vehicle_type_id":"4","last_reported":1768490147,"current_range_meters":9200,"station_id":"","pricing_plan_id":"cebpf4jnsgd1na2vs0mg"},{"bike_id":"f453663f-1a0f-42e4-b339-7ae16233dc9e","system_id":"levelo_inurba_marseille","lat":43.255766,"lon":5.382405,"is_reserved":false,"is_disabled":false,"rental_uris":{"android":"levelo://app?vid=f453663f-1a0f-42e4-b339-7ae16233dc9e","ios":"levelo://app?vid=f453663f-1a0f-42e4-b339-7ae16233dc9e"},"vehicle_type_id":"4","last_reported":1768490147,"current_range_meters":9600,"station_id":"ce4bhih2rcd13ifvqfs0","pricing_plan_id":"cebpf4jnsgd1na2vs0mg"},{"bike_id":"38c3b80e-0308-46b2-9a29-2654b96d87d9","system_id":"levelo_inurba_marseille","lat":43.2996,"lon":5.37331,"is_reserved":false,"is_disabled":false,"rental_uris":{"android":"levelo://app?vid=38c3b80e-0308-46b2-9a29-2654b96d87d9","ios":"levelo://app?vid=38c3b80e-0308-46b2-9a29-2654b96d87d9"},"vehicle_type_id":"4","last_reported":1768490147,"current_range_meters":9600,"station_id":"","pricing_plan_id":"cebpf4jnsgd1na2vs0mg"},{"bike_id":"8875f8cc-07a8-40ca-92de-9f4ce77fad56","system_id":"levelo_inurba_marseille","lat":43.28447,"lon":5.38655,"is_reserved":false,"is_disabled":false,"rental_uris":{"android":"levelo://app?vid=8875f8cc-07a8-40ca-92de-9f4ce77fad56","ios":"levelo://app?vid=8875f8cc-07a8-40ca-92de-9f4ce77fad56"},"vehicle_type_id":"4","last_reported":1768490147,"current_range_meters":9600,"station_id":"","pricing_plan_id":"cebpf4jnsgd1na2vs0mg"},{"bike_id":"f99cceb6-c008-4b14-b7d0-c170891d9cb5","system_id":"levelo_inurba_marseille","lat":43.303097,"lon":5.368948,"is_reserved":false,"is_disabled":false,"rental_uris":{"android":"levelo://app?vid=f99cceb6-c008-4b14-b7d0-c170891d9cb5","ios":"levelo://app?vid=f99cceb6-c008-4b14-b7d0-c170891d9cb5"},"vehicle_type_id":"4","last_reported":1768490147,"current_range_meters":9600,"station_id":"ce4bgqh2rcd13ifvqc5g","pricing_plan_id":"cebpf4jnsgd1na2vs0mg"},{"bike_id":"0aaffd21-6317-47b2-85da-6b9bfa421a46","system_id":"levelo_inurba_marseille","lat":43.29824,"lon":5.37664,"is_reserved":false,"is_disabled":false,"rental_uris":{"android":"levelo://app?vid=0aaffd21-6317-47b2-85da-6b9bfa421a46","ios":"levelo://app?vid=0aaffd21-6317-47b2-85da-6b9bfa421a46"},"vehicle_type_id":"4","last_reported":1768490147,"current_range_meters":9600,"station_id":"","pricing_plan_id":"cebpf4jnsgd1na2vs0mg"},{"bike_id":"bba9e660-d3c4-4fb7-89b1-c9c59c43e626","system_id":"levelo_inurba_marseille","lat":43.26394,"lon":5.37407,"is_reserved":false,"is_disabled":false,"rental_uris":{"android":"levelo://app?vid=bba9e660-d3c4-4fb7-89b1-c9c59c43e626","ios":"levelo://app?vid=bba9e660-d3c4-4fb7-89b1-c9c59c43e626"},"vehicle_type_id":"4","last_reported":1768490147,"current_range_meters":9600,"station_id":"","pricing_plan_id":"cebpf4jnsgd1na2vs0mg"},{"bike_id":"ffcc57aa-f16e-4b46-b938-d7f6cfea687a","system_id":"levelo_inurba_marseille","lat":43.24164,"lon":5.36389,"is_reserved":false,"is_disabled":false,"rental_uris":{"android":"levelo://app?vid=ffcc57aa-f16e-4b46-b938-d7f6cfea687a","ios":"levelo://app?vid=ffcc57aa-f16e-4b46-b938-d7f6cfea687a"},"vehicle_type_id":"4","last_reported":1768490147,"current_range_meters":9600,"station_id":"cpo36qri1sfpv3e86is0","pricing_plan_id":"cebpf4jnsgd1na2vs0mg"},{"bike_id":"633241f7-f589-4b5e-b00a-272be3b1d076","system_id":"levelo_inurba_marseille","lat":43.26257,"lon":5.40301,"is_reserved":false,"is_disabled":false,"rental_uris":{"android":"levelo://app?vid=633241f7-f589-4b5e-b00a-272be3b1d076","ios":"levelo://app?vid=633241f7-f589-4b5e-b00a-272be3b1d076"},"vehicle_type_id":"4","last_reported":1768490147,"current_range_meters":9600,"station_id":"","pricing_plan_id":"cebpf4jnsgd1na2vs0mg"},{"bike_id":"851a54e8-933f-4564-ba6d-793eeb0ffa5c","system_id":"levelo_inurba_marseille","lat":43.28847,"lon":5.35851,"is_reserved":false,"is_disabled":false,"rental_uris":{"android":"levelo://app?vid=851a54e8-933f-4564-ba6d-793eeb0ffa5c","ios":"levelo://app?vid=851a54e8-933f-4564-ba6d-793eeb0ffa5c"},"vehicle_type_id":"4","last_reported":1768490147,"current_range_meters":9600,"station_id":"ce4bhb12rcd13ifvqem0","pricing_plan_id":"cebpf4jnsgd1na2vs0mg"},{"bike_id":"cd552d3c-b0fe-4e05-9483-1412f42d1f25","system_id":"levelo_inurba_marseille","lat":43.284771,"lon":5.484027,"is_reserved":false,"is_disabled":false,"rental_uris":{"android":"levelo://app?vid=cd552d3c-b0fe-4e05-9483-1412f42d1f25","ios":"levelo://app?vid=cd552d3c-b0fe-4e05-9483-1412f42d1f25"},"vehicle_type_id":"4","last_reported":1768490147,"current_range_meters":9600,"station_id":"st_d3svhcjqgbts73a3dn0g","pricing_plan_id":"cebpf4jnsgd1na2vs0mg"},{"bike_id":"5d478910-9b52-488c-874e-0e1399368cba","system_id":"levelo_inurba_marseille","lat":43.24074,"lon":5.37754,"is_reserved":false,"is_disabled":false,"rental_uris":{"android":"levelo://app?vid=5d478910-9b52-488c-874e-0e1399368cba","ios":"levelo://app?vid=5d478910-9b52-488c-874e-0e1399368cba"},"vehicle_type_id":"4","last_reported":1768490147,"current_range_meters":9600,"station_id":"ce4bhnp2rcd13ifvqgvg","pricing_plan_id":"cebpf4jnsgd1na2vs0mg"},{"bike_id":"0aab3e3a-293c-4058-b984-6f117b834576","system_id":"levelo_inurba_marseille","lat":43.27747,"lon":5.388862,"is_reserved":false,"is_disabled":false,"rental_uris":{"android":"levelo://app?vid=0aab3e3a-293c-4058-b984-6f117b834576","ios":"levelo://app?vid=0aab3e3a-293c-4058-b984-6f117b834576"},"vehicle_type_id":"4","last_reported":1768490147,"current_range_meters":9600,"station_id":"ce4bhjp2rcd13ifvqga0","pricing_plan_id":"cebpf4jnsgd1na2vs0mg"},{"bike_id":"23ec3a98-26a5-4b81-8fe6-bd629f0771f5","system_id":"levelo_inurba_marseille","lat":43.281272,"lon":5.389248,"is_reserved":false,"is_disabled":false,"rental_uris":{"android":"levelo://app?vid=23ec3a98-26a5-4b81-8fe6-bd629f0771f5","ios":"levelo://app?vid=23ec3a98-26a5-4b81-8fe6-bd629f0771f5"},"vehicle_type_id":"4","last_reported":1768490147,"current_range_meters":9600,"station_id":"","pricing_plan_id":"cebpf4jnsgd1na2vs0mg"},{"bike_id":"1fbf11d0-f681-485a-a697-105e4d30495f","system_id":"levelo_inurba_marseille","lat":43.2887,"lon":5.42529,"is_reserved":false,"is_disabled":false,"rental_uris":{"android":"levelo://app?vid=1fbf11d0-f681-485a-a697-105e4d30495f","ios":"levelo://app?vid=1fbf11d0-f681-485a-a697-105e4d30495f"},"vehicle_type_id":"4","last_reported":1768490147,"current_range_meters":10000,"station_id":"st_d3b462108ojc7389ooeg","pricing_plan_id":"cebpf4jnsgd1na2vs0mg"},{"bike_id":"627e5e4e-322b-49e8-be53-e7b0ef4c2eda","system_id":"levelo_inurba_marseille","lat":43.25578,"lon":5.38227,"is_reserved":false,"is_disabled":false,"rental_uris":{"android":"levelo://app?vid=627e5e4e-322b-49e8-be53-e7b0ef4c2eda","ios":"levelo://app?vid=627e5e4e-322b-49e8-be53-e7b0ef4c2eda"},"vehicle_type_id":"4","last_reported":1768490147,"current_range_meters":10000,"station_id":"ce4bhih2rcd13ifvqfs0","pricing_plan_id":"cebpf4jnsgd1na2vs0mg"},{"bike_id":"09e93c1b-67ec-496a-8fbf-ac42362456f7","system_id":"levelo_inurba_marseille","lat":43.30117,"lon":5.37427,"is_reserved":false,"is_disabled":false,"rental_uris":{"android":"levelo://app?vid=09e93c1b-67ec-496a-8fbf-ac42362456f7","ios":"levelo://app?vid=09e93c1b-67ec-496a-8fbf-ac42362456f7"},"vehicle_type_id":"4","last_reported":1768490147,"current_range_meters":10000,"station_id":"","pricing_plan_id":"cebpf4jnsgd1na2vs0mg"},{"bike_id":"ca58f5b6-e381-495f-9a57-ed56b58464a3","system_id":"levelo_inurba_marseille","lat":43.23967,"lon":5.3663,"is_reserved":false,"is_disabled":false,"rental_uris":{"android":"levelo://app?vid=ca58f5b6-e381-495f-9a57-ed56b58464a3","ios":"levelo://app?vid=ca58f5b6-e381-495f-9a57-ed56b58464a3"},"vehicle_type_id":"4","last_reported":1768490147,"current_range_meters":10000,"station_id":"ce4bhi12rcd13ifvqfp0","pricing_plan_id":"cebpf4jnsgd1na2vs0mg"},{"bike_id":"37faa26e-f328-4315-a505-4a796c4b29c7","system_id":"levelo_inurba_marseille","lat":43.3143,"lon":5.36967,"is_reserved":false,"is_disabled":true,"rental_uris":{"android":"levelo://app?vid=37faa26e-f328-4315-a505-4a796c4b29c7","ios":"levelo://app?vid=37faa26e-f328-4315-a505-4a796c4b29c7"},"vehicle_type_id":"4","last_reported":1768490147,"current_range_meters":10000,"station_id":"","pricing_plan_id":"cebpf4jnsgd1na2vs0mg"},{"bike_id":"89d9cd06-54be-44ac-b8c9-f576dccb8768","system_id":"levelo_inurba_marseille","lat":43.25002,"lon":5.38929,"is_reserved":false,"is_disabled":false,"rental_uris":{"android":"levelo://app?vid=89d9cd06-54be-44ac-b8c9-f576dccb8768","ios":"levelo://app?vid=89d9cd06-54be-44ac-b8c9-f576dccb8768"},"vehicle_type_id":"4","last_reported":1768490147,"current_range_meters":10000,"station_id":"ce4bhgp2rcd13ifvqfd0","pricing_plan_id":"cebpf4jnsgd1na2vs0mg"},{"bike_id":"4bf2e34c-acc2-48d0-a792-a4b8c959e5f1","system_id":"levelo_inurba_marseille","lat":43.25809,"lon":5.39437,"is_reserved":false,"is_disabled":false,"rental_uris":{"android":"levelo://app?vid=4bf2e34c-acc2-48d0-a792-a4b8c959e5f1","ios":"levelo://app?vid=4bf2e34c-acc2-48d0-a792-a4b8c959e5f1"},