{"last_updated":1761848128,"ttl":60,"version":"2.2","data":{"bikes":[{"bike_id":"aacc01e3-6d9f-491a-b1ed-d10f639e29e2","system_id":"levelo_inurba_marseille","lat":43.337444,"lon":5.374475,"is_reserved":false,"is_disabled":false,"rental_uris":{"android":"levelo://app?vid=aacc01e3-6d9f-491a-b1ed-d10f639e29e2","ios":"levelo://app?vid=aacc01e3-6d9f-491a-b1ed-d10f639e29e2"},"vehicle_type_id":"4","last_reported":1761848128,"current_range_meters":0,"station_id":"","pricing_plan_id":"cebpf4jnsgd1na2vs0mg"},{"bike_id":"35ef2eb9-fe09-4124-a7ab-f792dcbd6ddc","system_id":"levelo_inurba_marseille","lat":43.337444,"lon":5.374475,"is_reserved":false,"is_disabled":false,"rental_uris":{"android":"levelo://app?vid=35ef2eb9-fe09-4124-a7ab-f792dcbd6ddc","ios":"levelo://app?vid=35ef2eb9-fe09-4124-a7ab-f792dcbd6ddc"},"vehicle_type_id":"4","last_reported":1761848128,"current_range_meters":0,"station_id":"","pricing_plan_id":"cebpf4jnsgd1na2vs0mg"},{"bike_id":"49ddb7e7-127c-434c-8992-2e05f2e3428d","system_id":"levelo_inurba_marseille","lat":43.337444,"lon":5.374475,"is_reserved":false,"is_disabled":false,"rental_uris":{"android":"levelo://app?vid=49ddb7e7-127c-434c-8992-2e05f2e3428d","ios":"levelo://app?vid=49ddb7e7-127c-434c-8992-2e05f2e3428d"},"vehicle_type_id":"4","last_reported":1761848128,"current_range_meters":0,"station_id":"","pricing_plan_id":"cebpf4jnsgd1na2vs0mg"},{"bike_id":"b3b460c5-2faa-45c2-8fde-7b54e8b4eaf5","system_id":"levelo_inurba_marseille","lat":43.337444,"lon":5.374475,"is_reserved":false,"is_disabled":false,"rental_uris":{"android":"levelo://app?vid=b3b460c5-2faa-45c2-8fde-7b54e8b4eaf5","ios":"levelo://app?vid=b3b460c5-2faa-45c2-8fde-7b54e8b4eaf5"},"vehicle_type_id":"4","last_reported":1761848128,"current_range_meters":0,"station_id":"","pricing_plan_id":"cebpf4jnsgd1na2vs0mg"},{"bike_id":"6b8eeff3-ec31-445f-be43-f1e3ba63fb37","system_id":"levelo_inurba_marseille","lat":43.337416,"lon":5.374586,"is_reserved":false,"is_disabled":false,"rental_uris":{"android":"levelo://app?vid=6b8eeff3-ec31-445f-be43-f1e3ba63fb37","ios":"levelo://app?vid=6b8eeff3-ec31-445f-be43-f1e3ba63fb37"},"vehicle_type_id":"4","last_reported":1761848128,"current_range_meters":0,"station_id":"","pricing_plan_id":"cebpf4jnsgd1na2vs0mg"},{"bike_id":"e0e86d10-d79a-47b9-82ad-a00ae7a62a8a","system_id":"levelo_inurba_marseille","lat":43.337444,"lon":5.374475,"is_reserved":false,"is_disabled":false,"rental_uris":{"android":"levelo://app?vid=e0e86d10-d79a-47b9-82ad-a00ae7a62a8a","ios":"levelo://app?vid=e0e86d10-d79a-47b9-82ad-a00ae7a62a8a"},"vehicle_type_id":"4","last_reported":1761848128,"current_range_meters":0,"station_id":"","pricing_plan_id":"cebpf4jnsgd1na2vs0mg"},{"bike_id":"548f1c45-4f2a-4cfe-b981-5bc1daecb21b","system_id":"levelo_inurba_marseille","lat":43.337444,"lon":5.374475,"is_reserved":false,"is_disabled":false,"rental_uris":{"android":"levelo://app?vid=548f1c45-4f2a-4cfe-b981-5bc1daecb21b","ios":"levelo://app?vid=548f1c45-4f2a-4cfe-b981-5bc1daecb21b"},"vehicle_type_id":"4","last_reported":1761848128,"current_range_meters":0,"station_id":"","pricing_plan_id":"cebpf4jnsgd1na2vs0mg"},{"bike_id":"5260dce0-6ede-4de4-b006-1466527b5fbe","system_id":"levelo_inurba_marseille","lat":43.337444,"lon":5.374475,"is_reserved":false,"is_disabled":false,"rental_uris":{"android":"levelo://app?vid=5260dce0-6ede-4de4-b006-1466527b5fbe","ios":"levelo://app?vid=5260dce0-6ede-4de4-b006-1466527b5fbe"},"vehicle_type_id":"4","last_reported":1761848128,"current_range_meters":0,"station_id":"","pricing_plan_id":"cebpf4jnsgd1na2vs0mg"},{"bike_id":"fb1816a3-8e74-463a-88d2-d6b63cf0a426","system_id":"levelo_inurba_marseille","lat":43.337444,"lon":5.374475,"is_reserved":false,"is_disabled":false,"rental_uris":{"android":"levelo://app?vid=fb1816a3-8e74-463a-88d2-d6b63cf0a426","ios":"levelo://app?vid=fb1816a3-8e74-463a-88d2-d6b63cf0a426"},"vehicle_type_id":"4","last_reported":1761848128,"current_range_meters":0,"station_id":"","pricing_plan_id":"cebpf4jnsgd1na2vs0mg"},{"bike_id":"3c881d8d-608f-4c39-9df3-b2aa54f8afcf","system_id":"levelo_inurba_marseille","lat":43.337444,"lon":5.374475,"is_reserved":false,"is_disabled":false,"rental_uris":{"android":"levelo://app?vid=3c881d8d-608f-4c39-9df3-b2aa54f8afcf","ios":"levelo://app?vid=3c881d8d-608f-4c39-9df3-b2aa54f8afcf"},"vehicle_type_id":"4","last_reported":1761848128,"current_range_meters":0,"station_id":"","pricing_plan_id":"cebpf4jnsgd1na2vs0mg"},{"bike_id":"a26e4937-215f-44d2-a8de-a7d3ec75d32b","system_id":"levelo_inurba_marseille","lat":43.337444,"lon":5.374475,"is_reserved":false,"is_disabled":false,"rental_uris":{"android":"levelo://app?vid=a26e4937-215f-44d2-a8de-a7d3ec75d32b","ios":"levelo://app?vid=a26e4937-215f-44d2-a8de-a7d3ec75d32b"},"vehicle_type_id":"4","last_reported":1761848128,"current_range_meters":0,"station_id":"","pricing_plan_id":"cebpf4jnsgd1na2vs0mg"},{"bike_id":"fadc4e19-b9ad-4402-a5bc-a0eff5c2b634","system_id":"levelo_inurba_marseille","lat":43.337444,"lon":5.374475,"is_reserved":false,"is_disabled":false,"rental_uris":{"android":"levelo://app?vid=fadc4e19-b9ad-4402-a5bc-a0eff5c2b634","ios":"levelo://app?vid=fadc4e19-b9ad-4402-a5bc-a0eff5c2b634"},"vehicle_type_id":"4","last_reported":1761848128,"current_range_meters":0,"station_id":"","pricing_plan_id":"cebpf4jnsgd1na2vs0mg"},{"bike_id":"e294c151-4441-4e4a-a116-13c66dfb9429","system_id":"levelo_inurba_marseille","lat":43.337444,"lon":5.374475,"is_reserved":false,"is_disabled":false,"rental_uris":{"android":"levelo://app?vid=e294c151-4441-4e4a-a116-13c66dfb9429","ios":"levelo://app?vid=e294c151-4441-4e4a-a116-13c66dfb9429"},"vehicle_type_id":"4","last_reported":1761848128,"current_range_meters":0,"station_id":"","pricing_plan_id":"cebpf4jnsgd1na2vs0mg"},{"bike_id":"0baff1cc-f548-40f7-a934-77958566d6a5","system_id":"levelo_inurba_marseille","lat":43.337444,"lon":5.374475,"is_reserved":false,"is_disabled":false,"rental_uris":{"android":"levelo://app?vid=0baff1cc-f548-40f7-a934-77958566d6a5","ios":"levelo://app?vid=0baff1cc-f548-40f7-a934-77958566d6a5"},"vehicle_type_id":"4","last_reported":1761848128,"current_range_meters":0,"station_id":"","pricing_plan_id":"cebpf4jnsgd1na2vs0mg"},{"bike_id":"1310c5d0-e39d-4b9c-84d7-1872f297ff18","system_id":"levelo_inurba_marseille","lat":43.337444,"lon":5.374475,"is_reserved":false,"is_disabled":false,"rental_uris":{"android":"levelo://app?vid=1310c5d0-e39d-4b9c-84d7-1872f297ff18","ios":"levelo://app?vid=1310c5d0-e39d-4b9c-84d7-1872f297ff18"},"vehicle_type_id":"4","last_reported":1761848128,"current_range_meters":0,"station_id":"","pricing_plan_id":"cebpf4jnsgd1na2vs0mg"},{"bike_id":"01eaacf7-8682-4054-bf38-52456d06e6f6","system_id":"levelo_inurba_marseille","lat":43.337444,"lon":5.374475,"is_reserved":false,"is_disabled":false,"rental_uris":{"android":"levelo://app?vid=01eaacf7-8682-4054-bf38-52456d06e6f6","ios":"levelo://app?vid=01eaacf7-8682-4054-bf38-52456d06e6f6"},"vehicle_type_id":"4","last_reported":1761848128,"current_range_meters":0,"station_id":"","pricing_plan_id":"cebpf4jnsgd1na2vs0mg"},{"bike_id":"4dbab57a-b708-409a-b815-3b9a5d92f753","system_id":"levelo_inurba_marseille","lat":43.337444,"lon":5.374475,"is_reserved":false,"is_disabled":false,"rental_uris":{"android":"levelo://app?vid=4dbab57a-b708-409a-b815-3b9a5d92f753","ios":"levelo://app?vid=4dbab57a-b708-409a-b815-3b9a5d92f753"},"vehicle_type_id":"4","last_reported":1761848128,"current_range_meters":0,"station_id":"","pricing_plan_id":"cebpf4jnsgd1na2vs0mg"},{"bike_id":"00f1260a-63f9-4663-ac1e-51258f9213bd","system_id":"levelo_inurba_marseille","lat":43.337444,"lon":5.374475,"is_reserved":false,"is_disabled":false,"rental_uris":{"android":"levelo://app?vid=00f1260a-63f9-4663-ac1e-51258f9213bd","ios":"levelo://app?vid=00f1260a-63f9-4663-ac1e-51258f9213bd"},"vehicle_type_id":"4","last_reported":1761848128,"current_range_meters":0,"station_id":"","pricing_plan_id":"cebpf4jnsgd1na2vs0mg"},{"bike_id":"50aa746e-d71a-437c-bb7a-ed648a03f81b","system_id":"levelo_inurba_marseille","lat":43.337444,"lon":5.374475,"is_reserved":false,"is_disabled":false,"rental_uris":{"android":"levelo://app?vid=50aa746e-d71a-437c-bb7a-ed648a03f81b","ios":"levelo://app?vid=50aa746e-d71a-437c-bb7a-ed648a03f81b"},"vehicle_type_id":"4","last_reported":1761848128,"current_range_meters":0,"station_id":"","pricing_plan_id":"cebpf4jnsgd1na2vs0mg"},{"bike_id":"3e68cf6e-17b6-46f5-8b08-d049449e0ca4","system_id":"levelo_inurba_marseille","lat":43.337444,"lon":5.374475,"is_reserved":false,"is_disabled":false,"rental_uris":{"android":"levelo://app?vid=3e68cf6e-17b6-46f5-8b08-d049449e0ca4","ios":"levelo://app?vid=3e68cf6e-17b6-46f5-8b08-d049449e0ca4"},"vehicle_type_id":"4","last_reported":1761848128,"current_range_meters":0,"station_id":"","pricing_plan_id":"cebpf4jnsgd1na2vs0mg"},{"bike_id":"b06c4997-7e4f-467a-922f-92f2f2e27e9d","system_id":"levelo_inurba_marseille","lat":43.337444,"lon":5.374475,"is_reserved":false,"is_disabled":false,"rental_uris":{"android":"levelo://app?vid=b06c4997-7e4f-467a-922f-92f2f2e27e9d","ios":"levelo://app?vid=b06c4997-7e4f-467a-922f-92f2f2e27e9d"},"vehicle_type_id":"4","last_reported":1761848128,"current_range_meters":0,"station_id":"","pricing_plan_id":"cebpf4jnsgd1na2vs0mg"},{"bike_id":"bb49b980-4cfb-49a5-9add-f3f9d4fc6db5","system_id":"levelo_inurba_marseille","lat":43.337444,"lon":5.374475,"is_reserved":false,"is_disabled":false,"rental_uris":{"android":"levelo://app?vid=bb49b980-4cfb-49a5-9add-f3f9d4fc6db5","ios":"levelo://app?vid=bb49b980-4cfb-49a5-9add-f3f9d4fc6db5"},"vehicle_type_id":"4","last_reported":1761848128,"current_range_meters":0,"station_id":"","pricing_plan_id":"cebpf4jnsgd1na2vs0mg"},{"bike_id":"b97206fc-6c94-4378-926a-a788d4f71c09","system_id":"levelo_inurba_marseille","lat":43.337444,"lon":5.374475,"is_reserved":false,"is_disabled":false,"rental_uris":{"android":"levelo://app?vid=b97206fc-6c94-4378-926a-a788d4f71c09","ios":"levelo://app?vid=b97206fc-6c94-4378-926a-a788d4f71c09"},"vehicle_type_id":"4","last_reported":1761848128,"current_range_meters":0,"station_id":"","pricing_plan_id":"cebpf4jnsgd1na2vs0mg"},{"bike_id":"37d7ebf5-2b3d-4af3-a7cd-4f29f464d5a0","system_id":"levelo_inurba_marseille","lat":43.337444,"lon":5.374475,"is_reserved":false,"is_disabled":false,"rental_uris":{"android":"levelo://app?vid=37d7ebf5-2b3d-4af3-a7cd-4f29f464d5a0","ios":"levelo://app?vid=37d7ebf5-2b3d-4af3-a7cd-4f29f464d5a0"},"vehicle_type_id":"4","last_reported":1761848128,"current_range_meters":0,"station_id":"","pricing_plan_id":"cebpf4jnsgd1na2vs0mg"},{"bike_id":"4ce4318f-b763-4325-8589-2aecbcc80add","system_id":"levelo_inurba_marseille","lat":43.337444,"lon":5.374475,"is_reserved":false,"is_disabled":false,"rental_uris":{"android":"levelo://app?vid=4ce4318f-b763-4325-8589-2aecbcc80add","ios":"levelo://app?vid=4ce4318f-b763-4325-8589-2aecbcc80add"},"vehicle_type_id":"4","last_reported":1761848128,"current_range_meters":0,"station_id":"","pricing_plan_id":"cebpf4jnsgd1na2vs0mg"},{"bike_id":"a6a3a590-5c2a-4683-a516-e9f5572de0f8","system_id":"levelo_inurba_marseille","lat":43.337444,"lon":5.374475,"is_reserved":false,"is_disabled":false,"rental_uris":{"android":"levelo://app?vid=a6a3a590-5c2a-4683-a516-e9f5572de0f8","ios":"levelo://app?vid=a6a3a590-5c2a-4683-a516-e9f5572de0f8"},"vehicle_type_id":"4","last_reported":1761848128,"current_range_meters":0,"station_id":"","pricing_plan_id":"cebpf4jnsgd1na2vs0mg"},{"bike_id":"111bdd74-3ae9-48f5-979c-2e177e7747d9","system_id":"levelo_inurba_marseille","lat":43.337444,"lon":5.374475,"is_reserved":false,"is_disabled":false,"rental_uris":{"android":"levelo://app?vid=111bdd74-3ae9-48f5-979c-2e177e7747d9","ios":"levelo://app?vid=111bdd74-3ae9-48f5-979c-2e177e7747d9"},"vehicle_type_id":"4","last_reported":1761848128,"current_range_meters":0,"station_id":"","pricing_plan_id":"cebpf4jnsgd1na2vs0mg"},{"bike_id":"b9d871b8-65b0-40af-afa3-0bf2492a45a9","system_id":"levelo_inurba_marseille","lat":43.337444,"lon":5.374475,"is_reserved":false,"is_disabled":false,"rental_uris":{"android":"levelo://app?vid=b9d871b8-65b0-40af-afa3-0bf2492a45a9","ios":"levelo://app?vid=b9d871b8-65b0-40af-afa3-0bf2492a45a9"},"vehicle_type_id":"4","last_reported":1761848128,"current_range_meters":0,"station_id":"","pricing_plan_id":"cebpf4jnsgd1na2vs0mg"},{"bike_id":"5bec735e-fcf4-48c7-8bdc-29590fc410b1","system_id":"levelo_inurba_marseille","lat":43.337444,"lon":5.374475,"is_reserved":false,"is_disabled":false,"rental_uris":{"android":"levelo://app?vid=5bec735e-fcf4-48c7-8bdc-29590fc410b1","ios":"levelo://app?vid=5bec735e-fcf4-48c7-8bdc-29590fc410b1"},"vehicle_type_id":"4","last_reported":1761848128,"current_range_meters":0,"station_id":"","pricing_plan_id":"cebpf4jnsgd1na2vs0mg"},{"bike_id":"026e76ec-bb30-48a3-8407-a17635ff5e4d","system_id":"levelo_inurba_marseille","lat":43.337444,"lon":5.374475,"is_reserved":false,"is_disabled":false,"rental_uris":{"android":"levelo://app?vid=026e76ec-bb30-48a3-8407-a17635ff5e4d","ios":"levelo://app?vid=026e76ec-bb30-48a3-8407-a17635ff5e4d"},"vehicle_type_id":"4","last_reported":1761848128,"current_range_meters":0,"station_id":"","pricing_plan_id":"cebpf4jnsgd1na2vs0mg"},{"bike_id":"46d34bff-7ac4-476c-bd3e-8e7dba53c807","system_id":"levelo_inurba_marseille","lat":43.337444,"lon":5.374475,"is_reserved":false,"is_disabled":false,"rental_uris":{"android":"levelo://app?vid=46d34bff-7ac4-476c-bd3e-8e7dba53c807","ios":"levelo://app?vid=46d34bff-7ac4-476c-bd3e-8e7dba53c807"},"vehicle_type_id":"4","last_reported":1761848128,"current_range_meters":0,"station_id":"","pricing_plan_id":"cebpf4jnsgd1na2vs0mg"},{"bike_id":"2c7e37d6-d4ca-47ae-a0e0-a648dd4e1706","system_id":"levelo_inurba_marseille","lat":43.337444,"lon":5.374475,"is_reserved":false,"is_disabled":false,"rental_uris":{"android":"levelo://app?vid=2c7e37d6-d4ca-47ae-a0e0-a648dd4e1706","ios":"levelo://app?vid=2c7e37d6-d4ca-47ae-a0e0-a648dd4e1706"},"vehicle_type_id":"4","last_reported":1761848128,"current_range_meters":0,"station_id":"","pricing_plan_id":"cebpf4jnsgd1na2vs0mg"},{"bike_id":"94eee6a6-2463-4d2a-b222-3ef19356212a","system_id":"levelo_inurba_marseille","lat":43.337444,"lon":5.374475,"is_reserved":false,"is_disabled":false,"rental_uris":{"android":"levelo://app?vid=94eee6a6-2463-4d2a-b222-3ef19356212a","ios":"levelo://app?vid=94eee6a6-2463-4d2a-b222-3ef19356212a"},"vehicle_type_id":"4","last_reported":1761848128,"current_range_meters":0,"station_id":"","pricing_plan_id":"cebpf4jnsgd1na2vs0mg"},{"bike_id":"4592e008-320c-4bcd-ae3b-d140e613f684","system_id":"levelo_inurba_marseille","lat":43.337444,"lon":5.374475,"is_reserved":false,"is_disabled":false,"rental_uris":{"android":"levelo://app?vid=4592e008-320c-4bcd-ae3b-d140e613f684","ios":"levelo://app?vid=4592e008-320c-4bcd-ae3b-d140e613f684"},"vehicle_type_id":"4","last_reported":1761848128,"current_range_meters":0,"station_id":"","pricing_plan_id":"cebpf4jnsgd1na2vs0mg"},{"bike_id":"5807ce94-1b62-42db-8c77-9488accc83d5","system_id":"levelo_inurba_marseille","lat":43.337444,"lon":5.374475,"is_reserved":false,"is_disabled":false,"rental_uris":{"android":"levelo://app?vid=5807ce94-1b62-42db-8c77-9488accc83d5","ios":"levelo://app?vid=5807ce94-1b62-42db-8c77-9488accc83d5"},"vehicle_type_id":"4","last_reported":1761848128,"current_range_meters":0,"station_id":"","pricing_plan_id":"cebpf4jnsgd1na2vs0mg"},{"bike_id":"628626b0-899e-42dd-a108-4659225bc37e","system_id":"levelo_inurba_marseille","lat":43.27974,"lon":5.38748,"is_reserved":false,"is_disabled":false,"rental_uris":{"android":"levelo://app?vid=628626b0-899e-42dd-a108-4659225bc37e","ios":"levelo://app?vid=628626b0-899e-42dd-a108-4659225bc37e"},"vehicle_type_id":"4","last_reported":1761848128,"current_range_meters":2800,"station_id":"ce4bhg12rcd13ifvqf80","pricing_plan_id":"cebpf4jnsgd1na2vs0mg"},{"bike_id":"38dcb82e-8d1b-4b10-a0e0-b22956922fb4","system_id":"levelo_inurba_marseille","lat":43.286133,"lon":5.351049,"is_reserved":false,"is_disabled":false,"rental_uris":{"android":"levelo://app?vid=38dcb82e-8d1b-4b10-a0e0-b22956922fb4","ios":"levelo://app?vid=38dcb82e-8d1b-4b10-a0e0-b22956922fb4"},"vehicle_type_id":"4","last_reported":1761848128,"current_range_meters":2800,"station_id":"ce4bhch2rcd13ifvqeug","pricing_plan_id":"cebpf4jnsgd1na2vs0mg"},{"bike_id":"3d5ac530-9a73-4a13-a045-72cff71cd27d","system_id":"levelo_inurba_marseille","lat":43.253332,"lon":5.421797,"is_reserved":false,"is_disabled":false,"rental_uris":{"android":"levelo://app?vid=3d5ac530-9a73-4a13-a045-72cff71cd27d","ios":"levelo://app?vid=3d5ac530-9a73-4a13-a045-72cff71cd27d"},"vehicle_type_id":"4","last_reported":1761848128,"current_range_meters":2800,"station_id":"st_d2m65c5bi1j21697t3ng","pricing_plan_id":"cebpf4jnsgd1na2vs0mg"},{"bike_id":"ba7f280a-0427-4f03-ae24-16833c309ee2","system_id":"levelo_inurba_marseille","lat":43.29848,"lon":5.43569,"is_reserved":false,"is_disabled":false,"rental_uris":{"android":"levelo://app?vid=ba7f280a-0427-4f03-ae24-16833c309ee2","ios":"levelo://app?vid=ba7f280a-0427-4f03-ae24-16833c309ee2"},"vehicle_type_id":"4","last_reported":1761848128,"current_range_meters":2800,"station_id":"","pricing_plan_id":"cebpf4jnsgd1na2vs0mg"},{"bike_id":"1a93b79f-3d9c-4e8d-b548-2346f3d8ecc4","system_id":"levelo_inurba_marseille","lat":43.265667,"lon":5.390107,"is_reserved":false,"is_disabled":false,"rental_uris":{"android":"levelo://app?vid=1a93b79f-3d9c-4e8d-b548-2346f3d8ecc4","ios":"levelo://app?vid=1a93b79f-3d9c-4e8d-b548-2346f3d8ecc4"},"vehicle_type_id":"4","last_reported":1761848128,"current_range_meters":2800,"station_id":"ce4bhe12rcd13ifvqf30","pricing_plan_id":"cebpf4jnsgd1na2vs0mg"},{"bike_id":"d5ca831f-8041-403e-ada8-7b4196c3d5be","system_id":"levelo_inurba_marseille","lat":43.293714,"lon":5.379385,"is_reserved":false,"is_disabled":false,"rental_uris":{"android":"levelo://app?vid=d5ca831f-8041-403e-ada8-7b4196c3d5be","ios":"levelo://app?vid=d5ca831f-8041-403e-ada8-7b4196c3d5be"},"vehicle_type_id":"4","last_reported":1761848128,"current_range_meters":3200,"station_id":"","pricing_plan_id":"cebpf4jnsgd1na2vs0mg"},{"bike_id":"d740240d-67b4-4af8-833c-e911ca8b539d","system_id":"levelo_inurba_marseille","lat":43.29965,"lon":5.38498,"is_reserved":false,"is_disabled":false,"rental_uris":{"android":"levelo://app?vid=d740240d-67b4-4af8-833c-e911ca8b539d","ios":"levelo://app?vid=d740240d-67b4-4af8-833c-e911ca8b539d"},"vehicle_type_id":"4","last_reported":1761848128,"current_range_meters":3200,"station_id":"ce4bgj92rcd13ifvqbd0","pricing_plan_id":"cebpf4jnsgd1na2vs0mg"},{"bike_id":"bb41599f-41a0-4872-aaa8-fa149d67c9da","system_id":"levelo_inurba_marseille","lat":43.31422,"lon":5.37333,"is_reserved":false,"is_disabled":false,"rental_uris":{"android":"levelo://app?vid=bb41599f-41a0-4872-aaa8-fa149d67c9da","ios":"levelo://app?vid=bb41599f-41a0-4872-aaa8-fa149d67c9da"},"vehicle_type_id":"4","last_reported":1761848128,"current_range_meters":3600,"station_id":"","pricing_plan_id":"cebpf4jnsgd1na2vs0mg"},{"bike_id":"8de9a889-98c8-4369-bfc5-9ef4ac092bb0","system_id":"levelo_inurba_marseille","lat":43.24388,"lon":5.37072,"is_reserved":false,"is_disabled":false,"rental_uris":{"android":"levelo://app?vid=8de9a889-98c8-4369-bfc5-9ef4ac092bb0","ios":"levelo://app?vid=8de9a889-98c8-4369-bfc5-9ef4ac092bb0"},"vehicle_type_id":"4","last_reported":1761848128,"current_range_meters":3600,"station_id":"ce4bhhh2rcd13ifvqfk0","pricing_plan_id":"cebpf4jnsgd1na2vs0mg"},{"bike_id":"9b26a687-9f9d-48ff-a76c-8be07ab7c0b3","system_id":"levelo_inurba_marseille","lat":43.28853,"lon":5.35853,"is_reserved":false,"is_disabled":false,"rental_uris":{"android":"levelo://app?vid=9b26a687-9f9d-48ff-a76c-8be07ab7c0b3","ios":"levelo://app?vid=9b26a687-9f9d-48ff-a76c-8be07ab7c0b3"},"vehicle_type_id":"4","last_reported":1761848128,"current_range_meters":3600,"station_id":"ce4bhb12rcd13ifvqem0","pricing_plan_id":"cebpf4jnsgd1na2vs0mg"},{"bike_id":"ce9d1214-ab90-4d91-a5dd-ed88d991721d","system_id":"levelo_inurba_marseille","lat":43.24633,"lon":5.43142,"is_reserved":false,"is_disabled":false,"rental_uris":{"android":"levelo://app?vid=ce9d1214-ab90-4d91-a5dd-ed88d991721d","ios":"levelo://app?vid=ce9d1214-ab90-4d91-a5dd-ed88d991721d"},"vehicle_type_id":"4","last_reported":1761848128,"current_range_meters":4000,"station_id":"st_d2m6c4gdas8pm72e190g","pricing_plan_id":"cebpf4jnsgd1na2vs0mg"},{"bike_id":"ad266889-ff6c-4c4e-9bbc-fb60cd8a8657","system_id":"levelo_inurba_marseille","lat":43.29774,"lon":5.39357,"is_reserved":false,"is_disabled":false,"rental_uris":{"android":"levelo://app?vid=ad266889-ff6c-4c4e-9bbc-fb60cd8a8657","ios":"levelo://app?vid=ad266889-ff6c-4c4e-9bbc-fb60cd8a8657"},"vehicle_type_id":"4","last_reported":1761848128,"current_range_meters":4000,"station_id":"chh1huq6cuj3fo74tm60","pricing_plan_id":"cebpf4jnsgd1na2vs0mg"},{"bike_id":"4e3886dc-21ab-4fca-ae8c-4d816eb977f7","system_id":"levelo_inurba_marseille","lat":43.28711,"lon":5.37948,"is_reserved":false,"is_disabled":false,"rental_uris":{"android":"levelo://app?vid=4e3886dc-21ab-4fca-ae8c-4d816eb977f7","ios":"levelo://app?vid=4e3886dc-21ab-4fca-ae8c-4d816eb977f7"},"vehicle_type_id":"4","last_reported":1761848128,"current_range_meters":4000,"station_id":"ce4bh9p2rcd13ifvqec0","pricing_plan_id":"cebpf4jnsgd1na2vs0mg"},{"bike_id":"07e9347a-1999-4d70-9020-6627466fcfcc","system_id":"levelo_inurba_marseille","lat":43.27376,"lon":5.3626,"is_reserved":false,"is_disabled":false,"rental_uris":{"android":"levelo://app?vid=07e9347a-1999-4d70-9020-6627466fcfcc","ios":"levelo://app?vid=07e9347a-1999-4d70-9020-6627466fcfcc"},"vehicle_type_id":"4","last_reported":1761848128,"current_range_meters":4000,"station_id":"ce4bhbh2rcd13ifvqeo0","pricing_plan_id":"cebpf4jnsgd1na2vs0mg"},{"bike_id":"08923dfc-6897-4cfd-9fd7-1460f9f5c598","system_id":"levelo_inurba_marseille","lat":43.29019,"lon":5.37576,"is_reserved":false,"is_disabled":false,"rental_uris":{"android":"levelo://app?vid=08923dfc-6897-4cfd-9fd7-1460f9f5c598","ios":"levelo://app?vid=08923dfc-6897-4cfd-9fd7-1460f9f5c598"},"vehicle_type_id":"4","last_reported":1761848128,"current_range_meters":4000,"station_id":"ce4bh692rcd13ifvqe90","pricing_plan_id":"cebpf4jnsgd1na2vs0mg"},{"bike_id":"61e69835-9ecd-4ea0-95b3-72ab283c2620","system_id":"levelo_inurba_marseille","lat":43.298,"lon":5.40408,"is_reserved":false,"is_disabled":false,"rental_uris":{"android":"levelo://app?vid=61e69835-9ecd-4ea0-95b3-72ab283c2620","ios":"levelo://app?vid=61e69835-9ecd-4ea0-95b3-72ab283c2620"},"vehicle_type_id":"4","last_reported":1761848128,"current_range_meters":4400,"station_id":"ce4bh112rcd13ifvqd90","pricing_plan_id":"cebpf4jnsgd1na2vs0mg"},{"bike_id":"d6f97df1-c99e-455d-bf91-f029503a33f3","system_id":"levelo_inurba_marseille","lat":43.29929,"lon":5.36549,"is_reserved":false,"is_disabled":false,"rental_uris":{"android":"levelo://app?vid=d6f97df1-c99e-455d-bf91-f029503a33f3","ios":"levelo://app?vid=d6f97df1-c99e-455d-bf91-f029503a33f3"},"vehicle_type_id":"4","last_reported":1761848128,"current_range_meters":4400,"station_id":"ce4bgm92rcd13ifvqbr0","pricing_plan_id":"cebpf4jnsgd1na2vs0mg"},{"bike_id":"464755d3-5bf3-4700-bfe6-c47ca1a289ca","system_id":"levelo_inurba_marseille","lat":43.30257,"lon":5.40063,"is_reserved":false,"is_disabled":false,"rental_uris":{"android":"levelo://app?vid=464755d3-5bf3-4700-bfe6-c47ca1a289ca","ios":"levelo://app?vid=464755d3-5bf3-4700-bfe6-c47ca1a289ca"},"vehicle_type_id":"4","last_reported":1761848128,"current_range_meters":4400,"station_id":"ce4bgvh2rcd13ifvqcs0","pricing_plan_id":"cebpf4jnsgd1na2vs0mg"},{"bike_id":"42673695-35eb-43c8-960a-3d0d776b753c","system_id":"levelo_inurba_marseille","lat":43.284088,"lon":5.375164,"is_reserved":false,"is_disabled":true,"rental_uris":{"android":"levelo://app?vid=42673695-35eb-43c8-960a-3d0d776b753c","ios":"levelo://app?vid=42673695-35eb-43c8-960a-3d0d776b753c"},"vehicle_type_id":"4","last_reported":1761848128,"current_range_meters":4400,"station_id":"ce4bh412rcd13ifvqds0","pricing_plan_id":"cebpf4jnsgd1na2vs0mg"},{"bike_id":"f6adb9c1-4a78-4322-baec-aa5f6f5d93b6","system_id":"levelo_inurba_marseille","lat":43.33766,"lon":5.37431,"is_reserved":false,"is_disabled":false,"rental_uris":{"android":"levelo://app?vid=f6adb9c1-4a78-4322-baec-aa5f6f5d93b6","ios":"levelo://app?vid=f6adb9c1-4a78-4322-baec-aa5f6f5d93b6"},"vehicle_type_id":"4","last_reported":1761848128,"current_range_meters":4400,"station_id":"","pricing_plan_id":"cebpf4jnsgd1na2vs0mg"},{"bike_id":"df4a7072-9a99-4388-960f-688f83a92f17","system_id":"levelo_inurba_marseille","lat":43.295482,"lon":5.422914,"is_reserved":false,"is_disabled":false,"rental_uris":{"android":"levelo://app?vid=df4a7072-9a99-4388-960f-688f83a92f17","ios":"levelo://app?vid=df4a7072-9a99-4388-960f-688f83a92f17"},"vehicle_type_id":"4","last_reported":1761848128,"current_range_meters":4800,"station_id":"ce4bhph2rcd13ifvqhdg","pricing_plan_id":"cebpf4jnsgd1na2vs0mg"},{"bike_id":"57b718c5-0703-4804-b9c0-4f9f01259c81","system_id":"levelo_inurba_marseille","lat":43.28264,"lon":5.35063,"is_reserved":false,"is_disabled":false,"rental_uris":{"android":"levelo://app?vid=57b718c5-0703-4804-b9c0-4f9f01259c81","ios":"levelo://app?vid=57b718c5-0703-4804-b9c0-4f9f01259c81"},"vehicle_type_id":"4","last_reported":1761848128,"current_range_meters":4800,"station_id":"ce4bhbp2rcd13ifvqerg","pricing_plan_id":"cebpf4jnsgd1na2vs0mg"},{"bike_id":"6754e0ef-a995-4d4a-9d9a-776dd02000ea","system_id":"levelo_inurba_marseille","lat":43.23154,"lon":5.43711,"is_reserved":false,"is_disabled":false,"rental_uris":{"android":"levelo://app?vid=6754e0ef-a995-4d4a-9d9a-776dd02000ea","ios":"levelo://app?vid=6754e0ef-a995-4d4a-9d9a-776dd02000ea"},"vehicle_type_id":"4","last_reported":1761848128,"current_range_meters":4800,"station_id":"ce4bhmp2rcd13ifvqgog","pricing_plan_id":"cebpf4jnsgd1na2vs0mg"},{"bike_id":"da9898c7-55b3-41a8-b9e2-3f9d0a4ef3ff","system_id":"levelo_inurba_marseille","lat":43.23184,"lon":5.39983,"is_reserved":false,"is_disabled":false,"rental_uris":{"android":"levelo://app?vid=da9898c7-55b3-41a8-b9e2-3f9d0a4ef3ff","ios":"levelo://app?vid=da9898c7-55b3-41a8-b9e2-3f9d0a4ef3ff"},"vehicle_type_id":"4","last_reported":1761848128,"current_range_meters":4800,"station_id":"ce4bhn12rcd13ifvqgqg","pricing_plan_id":"cebpf4jnsgd1na2vs0mg"},{"bike_id":"a7ceb8be-0e6f-43ad-97ed-1f2d672d51cb","system_id":"levelo_inurba_marseille","lat":43.286743,"lon":5.373809,"is_reserved":false,"is_disabled":false,"rental_uris":{"android":"levelo://app?vid=a7ceb8be-0e6f-43ad-97ed-1f2d672d51cb","ios":"levelo://app?vid=a7ceb8be-0e6f-43ad-97ed-1f2d672d51cb"},"vehicle_type_id":"4","last_reported":1761848128,"current_range_meters":4800,"station_id":"ce4bh3p2rcd13ifvqdq0","pricing_plan_id":"cebpf4jnsgd1na2vs0mg"},{"bike_id":"5cb3f363-ac2f-4bc2-ad50-da3965e1e89b","system_id":"levelo_inurba_marseille","lat":43.24564,"lon":5.4159,"is_reserved":false,"is_disabled":false,"rental_uris":{"android":"levelo://app?vid=5cb3f363-ac2f-4bc2-ad50-da3965e1e89b","ios":"levelo://app?vid=5cb3f363-ac2f-4bc2-ad50-da3965e1e89b"},"vehicle_type_id":"4","last_reported":1761848128,"current_range_meters":4800,"station_id":"","pricing_plan_id":"cebpf4jnsgd1na2vs0mg"},{"bike_id":"c44a14a6-c403-4578-b75e-a78f3089de9d","system_id":"levelo_inurba_marseille","lat":43.29518,"lon":5.39408,"is_reserved":false,"is_disabled":false,"rental_uris":{"android":"levelo://app?vid=c44a14a6-c403-4578-b75e-a78f3089de9d","ios":"levelo://app?vid=c44a14a6-c403-4578-b75e-a78f3089de9d"},"vehicle_type_id":"4","last_reported":1761848128,"current_range_meters":4800,"station_id":"ce4bh292rcd13ifvqdf0","pricing_plan_id":"cebpf4jnsgd1na2vs0mg"},{"bike_id":"54bf9c16-b6c6-4f8b-b9c9-7e0b190afbce","system_id":"levelo_inurba_marseille","lat":43.25866,"lon":5.39899,"is_reserved":false,"is_disabled":false,"rental_uris":{"android":"levelo://app?vid=54bf9c16-b6c6-4f8b-b9c9-7e0b190afbce","ios":"levelo://app?vid=54bf9c16-b6c6-4f8b-b9c9-7e0b190afbce"},"vehicle_type_id":"4","last_reported":1761848128,"current_range_meters":5600,"station_id":"ce4bhl92rcd13ifvqghg","pricing_plan_id":"cebpf4jnsgd1na2vs0mg"},{"bike_id":"518c13a2-8fa2-4172-811f-836dd954d92e","system_id":"levelo_inurba_marseille","lat":43.29517,"lon":5.39035,"is_reserved":false,"is_disabled":false,"rental_uris":{"android":"levelo://app?vid=518c13a2-8fa2-4172-811f-836dd954d92e","ios":"levelo://app?vid=518c13a2-8fa2-4172-811f-836dd954d92e"},"vehicle_type_id":"4","last_reported":1761848128,"current_range_meters":5600,"station_id":"ce4bh3p2rcd13ifvqdp0","pricing_plan_id":"cebpf4jnsgd1na2vs0mg"},{"bike_id":"41e96ecf-834d-4988-8883-5c057afa14fe","system_id":"levelo_inurba_marseille","lat":43.30882,"lon":5.39658,"is_reserved":false,"is_disabled":false,"rental_uris":{"android":"levelo://app?vid=41e96ecf-834d-4988-8883-5c057afa14fe","ios":"levelo://app?vid=41e96ecf-834d-4988-8883-5c057afa14fe"},"vehicle_type_id":"4","last_reported":1761848128,"current_range_meters":5600,"station_id":"ce4bh012rcd13ifvqcv0","pricing_plan_id":"cebpf4jnsgd1na2vs0mg"},{"bike_id":"646f7ee4-c28f-4818-b256-328e1cfc7abd","system_id":"levelo_inurba_marseille","lat":43.28394,"lon":5.37516,"is_reserved":false,"is_disabled":false,"rental_uris":{"android":"levelo://app?vid=646f7ee4-c28f-4818-b256-328e1cfc7abd","ios":"levelo://app?vid=646f7ee4-c28f-4818-b256-328e1cfc7abd"},"vehicle_type_id":"4","last_reported":1761848128,"current_range_meters":5600,"station_id":"ce4bh412rcd13ifvqds0","pricing_plan_id":"cebpf4jnsgd1na2vs0mg"},{"bike_id":"ae8ebe94-fc0f-4409-8f77-39eb5c613a67","system_id":"levelo_inurba_marseille","lat":43.337444,"lon":5.374475,"is_reserved":false,"is_disabled":false,"rental_uris":{"android":"levelo://app?vid=ae8ebe94-fc0f-4409-8f77-39eb5c613a67","ios":"levelo://app?vid=ae8ebe94-fc0f-4409-8f77-39eb5c613a67"},"vehicle_type_id":"4","last_reported":1761848128,"current_range_meters":6000,"station_id":"","pricing_plan_id":"cebpf4jnsgd1na2vs0mg"},{"bike_id":"c7dafe78-2fe4-4814-84e1-5c44c3dfba4a","system_id":"levelo_inurba_marseille","lat":43.24661,"lon":5.38168,"is_reserved":false,"is_disabled":false,"rental_uris":{"android":"levelo://app?vid=c7dafe78-2fe4-4814-84e1-5c44c3dfba4a","ios":"levelo://app?vid=c7dafe78-2fe4-4814-84e1-5c44c3dfba4a"},"vehicle_type_id":"4","last_reported":1761848128,"current_range_meters":6000,"station_id":"ce4bhih2rcd13ifvqfr0","pricing_plan_id":"cebpf4jnsgd1na2vs0mg"},{"bike_id":"16f8ce5e-d45a-4e4f-899a-0536006fb934","system_id":"levelo_inurba_marseille","lat":43.28692,"lon":5.38668,"is_reserved":false,"is_disabled":false,"rental_uris":{"android":"levelo://app?vid=16f8ce5e-d45a-4e4f-899a-0536006fb934","ios":"levelo://app?vid=16f8ce5e-d45a-4e4f-899a-0536006fb934"},"vehicle_type_id":"4","last_reported":1761848128,"current_range_meters":6000,"station_id":"ce4bh492rcd13ifvqdug","pricing_plan_id":"cebpf4jnsgd1na2vs0mg"},{"bike_id":"ec1ab57f-a3a6-4b3d-800b-4f49f9268e61","system_id":"levelo_inurba_marseille","lat":43.28468,"lon":5.38431,"is_reserved":false,"is_disabled":true,"rental_uris":{"android":"levelo://app?vid=ec1ab57f-a3a6-4b3d-800b-4f49f9268e61","ios":"levelo://app?vid=ec1ab57f-a3a6-4b3d-800b-4f49f9268e61"},"vehicle_type_id":"4","last_reported":1761848128,"current_range_meters":6000,"station_id":"ce4bh512rcd13ifvqe3g","pricing_plan_id":"cebpf4jnsgd1na2vs0mg"},{"bike_id":"9d219285-9fbe-4b4c-9db1-45a7e5e7c015","system_id":"levelo_inurba_marseille","lat":43.29984,"lon":5.38517,"is_reserved":false,"is_disabled":false,"rental_uris":{"android":"levelo://app?vid=9d219285-9fbe-4b4c-9db1-45a7e5e7c015","ios":"levelo://app?vid=9d219285-9fbe-4b4c-9db1-45a7e5e7c015"},"vehicle_type_id":"4","last_reported":1761848128,"current_range_meters":6000,"station_id":"ce4bgj92rcd13ifvqbd0","pricing_plan_id":"cebpf4jnsgd1na2vs0mg"},{"bike_id":"5c4e9bbb-9dc9-479f-8696-e5e633d7def7","system_id":"levelo_inurba_marseille","lat":43.29162,"lon":5.3716,"is_reserved":false,"is_disabled":false,"rental_uris":{"android":"levelo://app?vid=5c4e9bbb-9dc9-479f-8696-e5e633d7def7","ios":"levelo://app?vid=5c4e9bbb-9dc9-479f-8696-e5e633d7def7"},"vehicle_type_id":"4","last_reported":1761848128,"current_range_meters":6000,"station_id":"ce4bha92rcd13ifvqeh0","pricing_plan_id":"cebpf4jnsgd1na2vs0mg"},{"bike_id":"c248ed89-b6f0-4bf8-bd5f-a6c84ddbcf40","system_id":"levelo_inurba_marseille","lat":43.26495,"lon":5.39551,"is_reserved":false,"is_disabled":false,"rental_uris":{"android":"levelo://app?vid=c248ed89-b6f0-4bf8-bd5f-a6c84ddbcf40","ios":"levelo://app?vid=c248ed89-b6f0-4bf8-bd5f-a6c84ddbcf40"},"vehicle_type_id":"4","last_reported":1761848128,"current_range_meters":6000,"station_id":"ce4bhi12rcd13ifvqfq0","pricing_plan_id":"cebpf4jnsgd1na2vs0mg"},{"bike_id":"b1fa75d1-0950-457d-8d04-b7ac63590aac","system_id":"levelo_inurba_marseille","lat":43.26213,"lon":5.37443,"is_reserved":false,"is_disabled":false,"rental_uris":{"android":"levelo://app?vid=b1fa75d1-0950-457d-8d04-b7ac63590aac","ios":"levelo://app?vid=b1fa75d1-0950-457d-8d04-b7ac63590aac"},"vehicle_type_id":"4","last_reported":1761848128,"current_range_meters":6000,"station_id":"ce4bhgp2rcd13ifvqfc0","pricing_plan_id":"cebpf4jnsgd1na2vs0mg"},{"bike_id":"3381d6b3-beb1-497f-92c6-16597b226017","system_id":"levelo_inurba_marseille","lat":43.29034,"lon":5.38655,"is_reserved":false,"is_disabled":false,"rental_uris":{"android":"levelo://app?vid=3381d6b3-beb1-497f-92c6-16597b226017","ios":"levelo://app?vid=3381d6b3-beb1-497f-92c6-16597b226017"},"vehicle_type_id":"4","last_reported":1761848128,"current_range_meters":6400,"station_id":"ce4bh4p2rcd13ifvqe0g","pricing_plan_id":"cebpf4jnsgd1na2vs0mg"},{"bike_id":"b2070680-fe3e-4c25-9c24-b2cdb3e3f07a","system_id":"levelo_inurba_marseille","lat":43.289356,"lon":5.366381,"is_reserved":false,"is_disabled":false,"rental_uris":{"android":"levelo://app?vid=b2070680-fe3e-4c25-9c24-b2cdb3e3f07a","ios":"levelo://app?vid=b2070680-fe3e-4c25-9c24-b2cdb3e3f07a"},"vehicle_type_id":"4","last_reported":1761848128,"current_range_meters":6400,"station_id":"ce4bhap2rcd13ifvqek0","pricing_plan_id":"cebpf4jnsgd1na2vs0mg"},{"bike_id":"2e1757a7-0c60-4ba7-a60f-c40b58f5aa50","system_id":"levelo_inurba_marseille","lat":43.27971,"lon":5.38747,"is_reserved":false,"is_disabled":false,"rental_uris":{"android":"levelo://app?vid=2e1757a7-0c60-4ba7-a60f-c40b58f5aa50","ios":"levelo://app?vid=2e1757a7-0c60-4ba7-a60f-c40b58f5aa50"},"vehicle_type_id":"4","last_reported":1761848128,"current_range_meters":6400,"station_id":"ce4bhg12rcd13ifvqf80","pricing_plan_id":"cebpf4jnsgd1na2vs0mg"},{"bike_id":"882eb072-263a-439c-beaf-e5181b8fb1c7","system_id":"levelo_inurba_marseille","lat":43.28437,"lon":5.37524,"is_reserved":false,"is_disabled":false,"rental_uris":{"android":"levelo://app?vid=882eb072-263a-439c-beaf-e5181b8fb1c7","ios":"levelo://app?vid=882eb072-263a-439c-beaf-e5181b8fb1c7"},"vehicle_type_id":"4","last_reported":1761848128,"current_range_meters":6400,"station_id":"ce4bh412rcd13ifvqds0","pricing_plan_id":"cebpf4jnsgd1na2vs0mg"},{"bike_id":"ee854f12-10d7-4b2c-92f7-cd9f6907ab5a","system_id":"levelo_inurba_marseille","lat":43.2984,"lon":5.36269,"is_reserved":false,"is_disabled":false,"rental_uris":{"android":"levelo://app?vid=ee854f12-10d7-4b2c-92f7-cd9f6907ab5a","ios":"levelo://app?vid=ee854f12-10d7-4b2c-92f7-cd9f6907ab5a"},"vehicle_type_id":"4","last_reported":1761848128,"current_range_meters":6400,"station_id":"ce4bgpp2rcd13ifvqc3g","pricing_plan_id":"cebpf4jnsgd1na2vs0mg"},{"bike_id":"64eee38c-dc85-49c5-be0d-3b8da5b7dd0d","system_id":"levelo_inurba_marseille","lat":43.26788,"lon":5.39411,"is_reserved":false,"is_disabled":false,"rental_uris":{"android":"levelo://app?vid=64eee38c-dc85-49c5-be0d-3b8da5b7dd0d","ios":"levelo://app?vid=64eee38c-dc85-49c5-be0d-3b8da5b7dd0d"},"vehicle_type_id":"4","last_reported":1761848128,"current_range_meters":6800,"station_id":"ce4bhh12rcd13ifvqfg0","pricing_plan_id":"cebpf4jnsgd1na2vs0mg"},{"bike_id":"19ac10ab-c5c4-469f-9e72-aeda1f11435a","system_id":"levelo_inurba_marseille","lat":43.31716,"lon":5.43717,"is_reserved":false,"is_disabled":false,"rental_uris":{"android":"levelo://app?vid=19ac10ab-c5c4-469f-9e72-aeda1f11435a","ios":"levelo://app?vid=19ac10ab-c5c4-469f-9e72-aeda1f11435a"},"vehicle_type_id":"4","last_reported":1761848128,"current_range_meters":6800,"station_id":"ce4bhp92rcd13ifvqhcg","pricing_plan_id":"cebpf4jnsgd1na2vs0mg"},{"bike_id":"3fe155e4-90fe-4846-8928-203e298150d0","system_id":"levelo_inurba_marseille","lat":43.30219,"lon":5.37536,"is_reserved":false,"is_disabled":false,"rental_uris":{"android":"levelo://app?vid=3fe155e4-90fe-4846-8928-203e298150d0","ios":"levelo://app?vid=3fe155e4-90fe-4846-8928-203e298150d0"},"vehicle_type_id":"4","last_reported":1761848128,"current_range_meters":6800,"station_id":"","pricing_plan_id":"cebpf4jnsgd1na2vs0mg"},{"bike_id":"f67fac63-b288-4ce5-b0a5-5076b9cf9d7b","system_id":"levelo_inurba_marseille","lat":43.28478,"lon":5.38419,"is_reserved":false,"is_disabled":false,"rental_uris":{"android":"levelo://app?vid=f67fac63-b288-4ce5-b0a5-5076b9cf9d7b","ios":"levelo://app?vid=f67fac63-b288-4ce5-b0a5-5076b9cf9d7b"},"vehicle_type_id":"4","last_reported":1761848128,"current_range_meters":6800,"station_id":"ce4bh512rcd13ifvqe3g","pricing_plan_id":"cebpf4jnsgd1na2vs0mg"},{"bike_id":"4ff0c76f-7c05-42ee-b468-7e1883877b88","system_id":"levelo_inurba_marseille","lat":43.29273,"lon":5.40146,"is_reserved":false,"is_disabled":false,"rental_uris":{"android":"levelo://app?vid=4ff0c76f-7c05-42ee-b468-7e1883877b88","ios":"levelo://app?vid=4ff0c76f-7c05-42ee-b468-7e1883877b88"},"vehicle_type_id":"4","last_reported":1761848128,"current_range_meters":7200,"station_id":"ce4bh312rcd13ifvqdk0","pricing_plan_id":"cebpf4jnsgd1na2vs0mg"},{"bike_id":"81f94571-7553-4e48-a7bf-053fc7fbfd57","system_id":"levelo_inurba_marseille","lat":43.2407,"lon":5.37766,"is_reserved":false,"is_disabled":false,"rental_uris":{"android":"levelo://app?vid=81f94571-7553-4e48-a7bf-053fc7fbfd57","ios":"levelo://app?vid=81f94571-7553-4e48-a7bf-053fc7fbfd57"},"vehicle_type_id":"4","last_reported":1761848128,"current_range_meters":7200,"station_id":"ce4bhnp2rcd13ifvqgvg","pricing_plan_id":"cebpf4jnsgd1na2vs0mg"},{"bike_id":"d022877e-34da-40f2-9378-9ee49c5866fd","system_id":"levelo_inurba_marseille","lat":43.29436,"lon":5.39754,"is_reserved":false,"is_disabled":false,"rental_uris":{"android":"levelo://app?vid=d022877e-34da-40f2-9378-9ee49c5866fd","ios":"levelo://app?vid=d022877e-34da-40f2-9378-9ee49c5866fd"},"vehicle_type_id":"4","last_reported":1761848128,"current_range_meters":7200,"station_id":"ce4bh3h2rcd13ifvqdo0","pricing_plan_id":"cebpf4jnsgd1na2vs0mg"},{"bike_id":"c6698ab8-b9c1-4ef6-8d1d-6b190a79e8e9","system_id":"levelo_inurba_marseille","lat":43.3095,"lon":5.37274,"is_reserved":false,"is_disabled":false,"rental_uris":{"android":"levelo://app?vid=c6698ab8-b9c1-4ef6-8d1d-6b190a79e8e9","ios":"levelo://app?vid=c6698ab8-b9c1-4ef6-8d1d-6b190a79e8e9"},"vehicle_type_id":"4","last_reported":1761848128,"current_range_meters":7200,"station_id":"","pricing_plan_id":"cebpf4jnsgd1na2vs0mg"},{"bike_id":"c9ab1027-f2b3-4c0a-9cb3-d629cd2b5d10","system_id":"levelo_inurba_marseille","lat":43.29572,"lon":5.3999,"is_reserved":false,"is_disabled":false,"rental_uris":{"android":"levelo://app?vid=c9ab1027-f2b3-4c0a-9cb3-d629cd2b5d10","ios":"levelo://app?vid=c9ab1027-f2b3-4c0a-9cb3-d629cd2b5d10"},"vehicle_type_id":"4","last_reported":1761848128,"current_range_meters":7200,"station_id":"ce4bh312rcd13ifvqdj0","pricing_plan_id":"cebpf4jnsgd1na2vs0mg"},{"bike_id":"66667691-e356-47de-920d-5fc8a238d673","system_id":"levelo_inurba_marseille","lat":43.31334,"lon":5.39689,"is_reserved":false,"is_disabled":false,"rental_uris":{"android":"levelo://app?vid=66667691-e356-47de-920d-5fc8a238d673","ios":"levelo://app?vid=66667691-e356-47de-920d-5fc8a238d673"},"vehicle_type_id":"4","last_reported":1761848128,"current_range_meters":7200,"station_id":"ce4bgvp2rcd13ifvqcu0","pricing_plan_id":"cebpf4jnsgd1na2vs0mg"},{"bike_id":"27429b35-912a-4cd9-a501-621840e58627","system_id":"levelo_inurba_marseille","lat":43.26563,"lon":5.3901,"is_reserved":false,"is_disabled":false,"rental_uris":{"android":"levelo://app?vid=27429b35-912a-4cd9-a501-621840e58627","ios":"levelo://app?vid=27429b35-912a-4cd9-a501-621840e58627"},"vehicle_type_id":"4","last_reported":1761848128,"current_range_meters":8000,"station_id":"ce4bhe12rcd13ifvqf30","pricing_plan_id":"cebpf4jnsgd1na2vs0mg"},{"bike_id":"1867a497-829f-4a89-b17a-232b7503dd16","system_id":"levelo_inurba_marseille","lat":43.2928,"lon":5.38357,"is_reserved":false,"is_disabled":false,"rental_uris":{"android":"levelo://app?vid=1867a497-829f-4a89-b17a-232b7503dd16","ios":"levelo://app?vid=1867a497-829f-4a89-b17a-232b7503dd16"},"vehicle_type_id":"4","last_reported":1761848128,"current_range_meters":8000,"station_id":"","pricing_plan_id":"cebpf4jnsgd1na2vs0mg"},{"bike_id":"12e08237-c0d4-40b5-83c8-f272d4b4da21","system_id":"levelo_inurba_marseille","lat":43.31338,"lon":5.36714,"is_reserved":false,"is_disabled":false,"rental_uris":{"android":"levelo://app?vid=12e08237-c0d4-40b5-83c8-f272d4b4da21","ios":"levelo://app?vid=12e08237-c0d4-40b5-83c8-f272d4b4da21"},"vehicle_type_id":"4","last_reported":1761848128,"current_range_meters":8000,"station_id":"ce4bgr92rcd13ifvqc6g","pricing_plan_id":"cebpf4jnsgd1na2vs0mg"},{"bike_id":"a264e876-5c75-4958-91e7-22a13cf493fc","system_id":"levelo_inurba_marseille","lat":43.26553,"lon":5.38993,"is_reserved":false,"is_disabled":false,"rental_uris":{"android":"levelo://app?vid=a264e876-5c75-4958-91e7-22a13cf493fc","ios":"levelo://app?vid=a264e876-5c75-4958-91e7-22a13cf493fc"},"vehicle_type_id":"4","last_reported":1761848128,"current_range_meters":8000,"station_id":"ce4bhe12rcd13ifvqf30","pricing_plan_id":"cebpf4jnsgd1na2vs0mg"},{"bike_id":"850deae8-6a43-4d62-9ed0-b09159069ac1","system_id":"levelo_inurba_marseille","lat":43.29871,"lon":5.38906,"is_reserved":false,"is_disabled":false,"rental_uris":{"android":"levelo://app?vid=850deae8-6a43-4d62-9ed0-b09159069ac1","ios":"levelo://app?vid=850deae8-6a43-4d62-9ed0-b09159069ac1"},"vehicle_type_id":"4","last_reported":1761848128,"current_range_meters":8400,"station_id":"ce4bh392rcd13ifvqdl0","pricing_plan_id":"cebpf4jnsgd1na2vs0mg"},{"bike_id":"0e56dd02-d299-4d34-9cc1-630985cbc495","system_id":"levelo_inurba_marseille","lat":43.25494,"lon":5.3765,"is_reserved":false,"is_disabled":false,"rental_uris":{"android":"levelo://app?vid=0e56dd02-d299-4d34-9cc1-630985cbc495","ios":"levelo://app?vid=0e56dd02-d299-4d34-9cc1-630985cbc495"},"vehicle_type_id":"4","last_reported":1761848128,"current_range_meters":8400,"station_id":"ce4bhh12rcd13ifvqff0","pricing_plan_id":"cebpf4jnsgd1na2vs0mg"},{"bike_id":"d9a3637a-3954-4c82-b9fc-b5f917758005","system_id":"levelo_inurba_marseille","lat":43.282255,"lon":5.390782,"is_reserved":false,"is_disabled":true,"rental_uris":{"android":"levelo://app?vid=d9a3637a-3954-4c82-b9fc-b5f917758005","ios":"levelo://app?vid=d9a3637a-3954-4c82-b9fc-b5f917758005"},"vehicle_type_id":"4","last_reported":1761848128,"current_range_meters":8400,"station_id":"ce4bhn92rcd13ifvqgsg","pricing_plan_id":"cebpf4jnsgd1na2vs0mg"},{"bike_id":"0f7b9eae-df97-4a2a-83bf-94d135674653","system_id":"levelo_inurba_marseille","lat":43.29095,"lon":5.38131,"is_reserved":false,"is_disabled":false,"rental_uris":{"android":"levelo://app?vid=0f7b9eae-df97-4a2a-83bf-94d135674653","ios":"levelo://app?vid=0f7b9eae-df97-4a2a-83bf-94d135674653"},"vehicle_type_id":"4","last_reported":1761848128,"current_range_meters":8400,"station_id":"ce4bh512rcd13ifvqe2g","pricing_plan_id":"cebpf4jnsgd1na2vs0mg"},{"bike_id":"faee4aed-34d1-4e59-9f3e-bc2337688920","system_id":"levelo_inurba_marseille","lat":43.31704,"lon":5.43674,"is_reserved":false,"is_disabled":true,"rental_uris":{"android":"levelo://app?vid=faee4aed-34d1-4e59-9f3e-bc2337688920","ios":"levelo://app?vid=faee4aed-34d1-4e59-9f3e-bc2337688920"},"vehicle_type_id":"4","last_reported":1761848128,"current_range_meters":8400,"station_id":"ce4bhp92rcd13ifvqhcg","pricing_plan_id":"cebpf4jnsgd1na2vs0mg"},{"bike_id":"c64d4752-2c7f-4b22-9e4a-d2277e4fdb6d","system_id":"levelo_inurba_marseille","lat":43.29517,"lon":5.39041,"is_reserved":false,"is_disabled":false,"rental_uris":{"android":"levelo://app?vid=c64d4752-2c7f-4b22-9e4a-d2277e4fdb6d","ios":"levelo://app?vid=c64d4752-2c7f-4b22-9e4a-d2277e4fdb6d"},"vehicle_type_id":"4","last_reported":1761848128,"current_range_meters":8800,"station_id":"ce4bh3p2rcd13ifvqdp0","pricing_plan_id":"cebpf4jnsgd1na2vs0mg"},{"bike_id":"145c9b73-e37f-4ac0-8c4e-a8699a37952b","system_id":"levelo_inurba_marseille","lat":43.28452,"lon":5.35891,"is_reserved":false,"is_disabled":false,"rental_uris":{"android":"levelo://app?vid=145c9b73-e37f-4ac0-8c4e-a8699a37952b","ios":"levelo://app?vid=145c9b73-e37f-4ac0-8c4e-a8699a37952b"},"vehicle_type_id":"4","last_reported":1761848128,"current_range_meters":8800,"station_id":"ce4bhah2rcd13ifvqei0","pricing_plan_id":"cebpf4jnsgd1na2vs0mg"},{"bike_id":"39aa96f9-b884-4603-af60-6e9a06e3921d","system_id":"levelo_inurba_marseille","lat":43.25874,"lon":5.3991,"is_reserved":false,"is_disabled":false,"rental_uris":{"android":"levelo://app?vid=39aa96f9-b884-4603-af60-6e9a06e3921d","ios":"levelo://app?vid=39aa96f9-b884-4603-af60-6e9a06e3921d"},"vehicle_type_id":"4","last_reported":1761848128,"current_range_meters":8800,"station_id":"ce4bhl92rcd13ifvqghg","pricing_plan_id":"cebpf4jnsgd1na2vs0mg"},{"bike_id":"0580203d-7e97-472d-85ae-5526b7736d19","system_id":"levelo_inurba_marseille","lat":43.28102,"lon":5.37838,"is_reserved":false,"is_disabled":false,"rental_uris":{"android":"levelo://app?vid=0580203d-7e97-472d-85ae-5526b7736d19","ios":"levelo://app?vid=0580203d-7e97-472d-85ae-5526b7736d19"},"vehicle_type_id":"4","last_reported":1761848128,"current_range_meters":9200,"station_id":"ce4bha12rcd13ifvqee0","pricing_plan_id":"cebpf4jnsgd1na2vs0mg"},{"bike_id":"46f3e991-c55b-4d9d-9a37-f9e3e15f4f3f","system_id":"levelo_inurba_marseille","lat":43.21188,"lon":5.35074,"is_reserved":false,"is_disabled":false,"rental_uris":{"android":"levelo://app?vid=46f3e991-c55b-4d9d-9a37-f9e3e15f4f3f","ios":"levelo://app?vid=46f3e991-c55b-4d9d-9a37-f9e3e15f4f3f"},"vehicle_type_id":"4","last_reported":1761848128,"current_range_meters":9200,"station_id":"st_cvj6sg6p6f1abm77japg","pricing_plan_id":"cebpf4jnsgd1na2vs0mg"},{"bike_id":"8ea5dab5-94ef-4657-8589-1c1d216ddc19","system_id":"levelo_inurba_marseille","lat":43.30881,"lon":5.39654,"is_reserved":false,"is_disabled":false,"rental_uris":{"android":"levelo://app?vid=8ea5dab5-94ef-4657-8589-1c1d216ddc19","ios":"levelo://app?vid=8ea5dab5-94ef-4657-8589-1c1d216ddc19"},"vehicle_type_id":"4","last_reported":1761848128,"current_range_meters":9200,"station_id":"ce4bh012rcd13ifvqcv0","pricing_plan_id":"cebpf4jnsgd1na2vs0mg"},{"bike_id":"7ebfe2bf-41d5-488d-90fa-6a3b7cc83882","system_id":"levelo_inurba_marseille","lat":43.29529,"lon":5.39401,"is_reserved":false,"is_disabled":false,"rental_uris":{"android":"levelo://app?vid=7ebfe2bf-41d5-488d-90fa-6a3b7cc83882","ios":"levelo://app?vid=7ebfe2bf-41d5-488d-90fa-6a3b7cc83882"},"vehicle_type_id":"4","last_reported":1761848128,"current_range_meters":9200,"station_id":"ce4bh292rcd13ifvqdf0","pricing_plan_id":"cebpf4jnsgd1na2vs0mg"},{"bike_id":"5d0c92e5-5794-427c-bc92-b9adbb808ba1","system_id":"levelo_inurba_marseille","lat":43.292542,"lon":5.384326,"is_reserved":false,"is_disabled":false,"rental_uris":{"android":"levelo://app?vid=5d0c92e5-5794-427c-bc92-b9adbb808ba1","ios":"levelo://app?vid=5d0c92e5-5794-427c-bc92-b9adbb808ba1"},"vehicle_type_id":"4","last_reported":1761848128,"current_range_meters":9200,"station_id":"ce4bh692rcd13ifvqea0","pricing_plan_id":"cebpf4jnsgd1na2vs0mg"},{"bike_id":"e4101f91-5267-4cfc-b698-9718c220fd2b","system_id":"levelo_inurba_marseille","lat":43.24389,"lon":5.37059,"is_reserved":false,"is_disabled":false,"rental_uris":{"android":"levelo://app?vid=e4101f91-5267-4cfc-b698-9718c220fd2b","ios":"levelo://app?vid=e4101f91-5267-4cfc-b698-9718c220fd2b"},"vehicle_type_id":"4","last_reported":1761848128,"current_range_meters":9600,"station_id":"ce4bhhh2rcd13ifvqfk0","pricing_plan_id":"cebpf4jnsgd1na2vs0mg"},{"bike_id":"fd55d164-caa9-4b4f-b205-7bbe91ce8c31","system_id":"levelo_inurba_marseille","lat":43.29525,"lon":5.3854,"is_reserved":false,"is_disabled":false,"rental_uris":{"android":"levelo://app?vid=fd55d164-caa9-4b4f-b205-7bbe91ce8c31","ios":"levelo://app?vid=fd55d164-caa9-4b4f-b205-7bbe91ce8c31"},"vehicle_type_id":"4","last_reported":1761848128,"current_range_meters":9600,"station_id":"ce4bgih2rcd13ifvqba0","pricing_plan_id":"cebpf4jnsgd1na2vs0mg"},{"bike_id":"348bbcb2-e9fd-4aa9-9afe-66da55c430a6","system_id":"levelo_inurba_marseille","lat":43.30882,"lon":5.39658,"is_reserved":false,"is_disabled":false,"rental_uris":{"android":"levelo://app?vid=348bbcb2-e9fd-4aa9-9afe-66da55c430a6","ios":"levelo://app?vid=348bbcb2-e9fd-4aa9-9afe-66da55c430a6"},"vehicle_type_id":"4","last_reported":1761848128,"current_range_meters":9600,"station_id":"ce4bh012rcd13ifvqcv0","pricing_plan_id":"cebpf4jnsgd1na2vs0mg"},{"bike_id":"a37ece08-1510-413c-859f-d22d3a8d91e7","system_id":"levelo_inurba_marseille","lat":43.29852,"lon":5.36288,"is_reserved":false,"is_disabled":false,"rental_uris":{"android":"levelo://app?vid=a37ece08-1510-413c-859f-d22d3a8d91e7","ios":"levelo://app?vid=a37ece08-1510-413c-859f-d22d3a8d91e7"},"vehicle_type_id":"4","last_reported":1761848128,"current_range_meters":10000,"station_id":"ce4bgpp2rcd13ifvqc3g","pricing_plan_id":"cebpf4jnsgd1na2vs0mg"},{"bike_id":"819f3c94-46a0-4d60-b376-2eff4cea107d","system_id":"levelo_inurba_marseille","lat":43.28421,"lon":5.37526,"is_reserved":false,"is_disabled":false,"rental_uris":{"android":"levelo://app?vid=819f3c94-46a0-4d60-b376-2eff4cea107d","ios":"levelo://app?vid=819f3c94-46a0-4d60-b376-2eff4cea107d"},"vehicle_type_id":"4","last_reported":1761848128,"current_range_meters":10000,"station_id":"ce4bh412rcd13ifvqds0","pricing_plan_id":"cebpf4jnsgd1na2vs0mg"},{"bike_id":"2b068601-91e8-4670-a4e3-068638b00800","system_id":"levelo_inurba_marseille","lat":43.29608,"lon":5.38109,"is_reserved":false,"is_disabled":false,"rental_uris":{"android":"levelo://app?vid=2b068601-91e8-4670-a4e3-068638b00800","ios":"levelo://app?vid=2b068601-91e8-4670-a4e3-068638b00800"},"vehicle_type_id":"4","last_reported":1761848128,"current_range_meters":10000,"station_id":"ce4bgl12rcd13ifvqbo0","pricing_plan_id":"cebpf4jnsgd1na2vs0mg"},{"bike_id":"5a80801f-d4c4-4710-bede-d16900baeff1","system_id":"levelo_inurba_marseille","lat":43.29246,"lon":5.38446,"is_reserved":false,"is_disabled":false,"rental_uris":{"android":"levelo://app?vid=5a80801f-d4c4-4710-bede-d16900baeff1","ios":"levelo://app?vid=5a80801f-d4c4-4710-bede-d16900baeff1"},"vehicle_type_id":"4","last_reported":1761848128,"current_range_meters":10000,"station_id":"ce4bh692rcd13ifvqea0","pricing_plan_id":"cebpf4jnsgd1na2vs0mg"},{"bike_id":"6ee783e8-46e8-4b09-a862-2636faac67f9","system_id":"levelo_inurba_marseille","lat":43.27968,"lon":5.3874,"is_reserved":false,"is_disabled":false,"rental_uris":{"android":"levelo://app?vid=6ee783e8-46e8-4b09-a862-2636faac67f9","ios":"levelo://app?vid=6ee783e8-46e8-4b09-a862-2636faac67f9"},"vehicle_type_id":"4","last_reported":1761848128,"current_range_meters":10000,"station_id":"ce4bhg12rcd13ifvqf80","pricing_plan_id":"cebpf4jnsgd1na2vs0mg"},{"bike_id":"cdeb4cff-03a8-41d7-b5ae-9339041f093f","system_id":"levelo_inurba_marseille","lat":43.28108,"lon":5.37845,"is_reserved":false,"is_disabled":false,"rental_uris":{"android":"levelo://app?vid=cdeb4cff-03a8-41d7-b5ae-9339041f093f","ios":"levelo://app?vid=cdeb4cff-03a8-41d7-b5ae-9339041f093f"},"vehicle_type_id":"4","last_reported":1761848128,"current_range_meters":10800,"station_id":"ce4bha12rcd13ifvqee0","pricing_plan_id":"cebpf4jnsgd1na2vs0mg"},{"bike_id":"0db070e1-1eb7-4c02-b18a-6ea074a48fba","system_id":"levelo_inurba_marseille","lat":43.3073,"lon":5.42459,"is_reserved":false,"is_disabled":true,"rental_uris":{"android":"levelo://app?vid=0db070e1-1eb7-4c02-b18a-6ea074a48fba","ios":"levelo://app?vid=0db070e1-1eb7-4c02-b18a-6ea074a48fba"},"vehicle_type_id":"4","last_reported":1761848128,"current_range_meters":10800,"station_id":"st_cvj6ca6bvosntc0bfgr0","pricing_plan_id":"cebpf4jnsgd1na2vs0mg"},{"bike_id":"6fff56e2-dc33-4322-9554-e738206d1bc0","system_id":"levelo_inurba_marseille","lat":43.211905,"lon":5.350776,"is_reserved":false,"is_disabled":false,"rental_uris":{"android":"levelo://app?vid=6fff56e2-dc33-4322-9554-e738206d1bc0","ios":"levelo://app?vid=6fff56e2-dc33-4322-9554-e738206d1bc0"},"vehicle_type_id":"4","last_reported":1761848128,"current_range_meters":10800,"station_id":"st_cvj6sg6p6f1abm77japg","pricing_plan_id":"cebpf4jnsgd1na2vs0mg"},{"bike_id":"ff10e50b-d453-435f-b6b5-2a1e5e453900","system_id":"levelo_inurba_marseille","lat":43.28712,"lon":5.37933,"is_reserved":false,"is_disabled":false,"rental_uris":{"android":"levelo://app?vid=ff10e50b-d453-435f-b6b5-2a1e5e453900","ios":"levelo://app?vid=ff10e50b-d453-435f-b6b5-2a1e5e453900"},"vehicle_type_id":"4","last_reported":1761848128,"current_range_meters":10800,"station_id":"ce4bh9p2rcd13ifvqec0","pricing_plan_id":"cebpf4jnsgd1na2vs0mg"},{"bike_id":"85647893-39fb-49fd-a080-c220fccfe830","system_id":"levelo_inurba_marseille","lat":43.294426,"lon":5.396749,"is_reserved":false,"is_disabled":false,"rental_uris":{"android":"levelo://app?vid=85647893-39fb-49fd-a080-c220fccfe830","ios":"levelo://app?vid=85647893-39fb-49fd-a080-c220fccfe830"},"vehicle_type_id":"4","last_reported":1761848128,"current_range_meters":10800,"station_id":"","pricing_plan_id":"cebpf4jnsgd1na2vs0mg"},{"bike_id":"9e3564a3-3b3b-4a4a-a9e5-f73e91e05ce8","system_id":"levelo_inurba_marseille","lat":43.30905,"lon":5.36854,"is_reserved":false,"is_disabled":true,"rental_uris":{"android":"levelo://app?vid=9e3564a3-3b3b-4a4a-a9e5-f73e91e05ce8","ios":"levelo://app?vid=9e3564a3-3b3b-4a4a-a9e5-f73e91e05ce8"},"vehicle_type_id":"4","last_reported":1761848128,"current_range_meters":10800,"station_id":"ce4bgn92rcd13ifvqbvg","pricing_plan_id":"cebpf4jnsgd1na2vs0mg"},{"bike_id":"1fdac9a3-ee7c-46ce-ab14-3fcac9633431","system_id":"levelo_inurba_marseille","lat":43.30422,"lon":5.39748,"is_reserved":false,"is_disabled":false,"rental_uris":{"android":"levelo://app?vid=1fdac9a3-ee7c-46ce-ab14-3fcac9633431","ios":"levelo://app?vid=1fdac9a3-ee7c-46ce-ab14-3fcac9633431"},"vehicle_type_id":"4","last_reported":1761848128,"current_range_meters":10800,"station_id":"ce4bh092rcd13ifvqd20","pricing_plan_id":"cebpf4jnsgd1na2vs0mg"},{"bike_id":"a4991b1d-ef8f-4d4b-9f4a-deb1231570d1","system_id":"levelo_inurba_marseille","lat":43.24649,"lon":5.38892,"is_reserved":false,"is_disabled":false,"rental_uris":{"android":"levelo://app?vid=a4991b1d-ef8f-4d4b-9f4a-deb1231570d1","ios":"levelo://app?vid=a4991b1d-ef8f-4d4b-9f4a-deb1231570d1"},"vehicle_type_id":"4","last_reported":1761848128,"current_range_meters":11200,"station_id":"ce4bhg12rcd13ifvqf60","pricing_plan_id":"cebpf4jnsgd1na2vs0mg"},{"bike_id":"c1e68365-0537-4d20-bfa3-23083932cb45","system_id":"levelo_inurba_marseille","lat":43.29923,"lon":5.36521,"is_reserved":false,"is_disabled":false,"rental_uris":{"android":"levelo://app?vid=c1e68365-0537-4d20-bfa3-23083932cb45","ios":"levelo://app?vid=c1e68365-0537-4d20-bfa3-23083932cb45"},"vehicle_type_id":"4","last_reported":1761848128,"current_range_meters":11200,"station_id":"ce4bgm92rcd13ifvqbr0","pricing_plan_id":"cebpf4jnsgd1na2vs0mg"},{"bike_id":"b8949af8-daac-4c6b-8399-c444bc7f3a49","system_id":"levelo_inurba_marseille","lat":43.295283,"lon":5.385466,"is_reserved":false,"is_disabled":false,"rental_uris":{"android":"levelo://app?vid=b8949af8-daac-4c6b-8399-c444bc7f3a49","ios":"levelo://app?vid=b8949af8-daac-4c6b-8399-c444bc7f3a49"},"vehicle_type_id":"4","last_reported":1761848128,"current_range_meters":11200,"station_id":"ce4bgih2rcd13ifvqba0","pricing_plan_id":"cebpf4jnsgd1na2vs0mg"},{"bike_id":"3126ce35-4101-4b06-a7b2-19548fb25089","system_id":"levelo_inurba_marseille","lat":43.21173,"lon":5.35082,"is_reserved":false,"is_disabled":false,"rental_uris":{"android":"levelo://app?vid=3126ce35-4101-4b06-a7b2-19548fb25089","ios":"levelo://app?vid=3126ce35-4101-4b06-a7b2-19548fb25089"},"vehicle_type_id":"4","last_reported":1761848128,"current_range_meters":11200,"station_id":"st_cvj6sg6p6f1abm77japg","pricing_plan_id":"cebpf4jnsgd1na2vs0mg"},{"bike_id":"ac0b2cc9-0a41-4b0f-ab12-365bcdd117ce","system_id":"levelo_inurba_marseille","lat":43.29512,"lon":5.39408,"is_reserved":false,"is_disabled":false,"rental_uris":{"android":"levelo://app?vid=ac0b2cc9-0a41-4b0f-ab12-365bcdd117ce","ios":"levelo://app?vid=ac0b2cc9-0a41-4b0f-ab12-365bcdd117ce"},"vehicle_type_id":"4","last_reported":1761848128,"current_range_meters":11200,"station_id":"ce4bh292rcd13ifvqdf0","pricing_plan_id":"cebpf4jnsgd1na2vs0mg"},{"bike_id":"41490334-0881-4b55-a119-40c77400fdb3","system_id":"levelo_inurba_marseille","lat":43.29307,"lon":5.37452,"is_reserved":false,"is_disabled":false,"rental_uris":{"android":"levelo://app?vid=41490334-0881-4b55-a119-40c77400fdb3","ios":"levelo://app?vid=41490334-0881-4b55-a119-40c77400fdb3"},"vehicle_type_id":"4","last_reported":1761848128,"current_range_meters":11200,"station_id":"ce4bgi12rcd13ifvqb70","pricing_plan_id":"cebpf4jnsgd1na2vs0mg"},{"bike_id":"e1e2a457-df19-4b98-90a8-25aeb1c4995a","system_id":"levelo_inurba_marseille","lat":43.260203,"lon":5.417422,"is_reserved":false,"is_disabled":false,"rental_uris":{"android":"levelo://app?vid=e1e2a457-df19-4b98-90a8-25aeb1c4995a","ios":"levelo://app?vid=e1e2a457-df19-4b98-90a8-25aeb1c4995a"},"vehicle_type_id":"4","last_reported":1761848128,"current_range_meters":11600,"station_id":"","pricing_plan_id":"cebpf4jnsgd1na2vs0mg"},{"bike_id":"6f2cce7b-fc3c-488c-9af4-c3daf615a39b","system_id":"levelo_inurba_marseille","lat":43.29802,"lon":5.40408,"is_reserved":false,"is_disabled":false,"rental_uris":{"android":"levelo://app?vid=6f2cce7b-fc3c-488c-9af4-c3daf615a39b","ios":"levelo://app?vid=6f2cce7b-fc3c-488c-9af4-c3daf615a39b"},"vehicle_type_id":"4","last_reported":1761848128,"current_range_meters":11600,"station_id":"ce4bh112rcd13ifvqd90","pricing_plan_id":"cebpf4jnsgd1na2vs0mg"},{"bike_id":"9a164154-e32c-4121-80f4-d2c75b5fcc5a","system_id":"levelo_inurba_marseille","lat":43.29526,"lon":5.38554,"is_reserved":false,"is_disabled":false,"rental_uris":{"android":"levelo://app?vid=9a164154-e32c-4121-80f4-d2c75b5fcc5a","ios":"levelo://app?vid=9a164154-e32c-4121-80f4-d2c75b5fcc5a"},"vehicle_type_id":"4","last_reported":1761848128,"current_range_meters":11600,"station_id":"ce4bgih2rcd13ifvqba0","pricing_plan_id":"cebpf4jnsgd1na2vs0mg"},{"bike_id":"44219341-ff63-477e-9061-801142f9f84f","system_id":"levelo_inurba_marseille","lat":43.275076,"lon":5.389496,"is_reserved":false,"is_disabled":false,"rental_uris":{"android":"levelo://app?vid=44219341-ff63-477e-9061-801142f9f84f","ios":"levelo://app?vid=44219341-ff63-477e-9061-801142f9f84f"},"vehicle_type_id":"4","last_reported":1761848128,"current_range_meters":11600,"station_id":"ce4bhh92rcd13ifvqfj0","pricing_plan_id":"cebpf4jnsgd1na2vs0mg"},{"bike_id":"582b58c1-ce25-421b-902c-cd3c9cde1895","system_id":"levelo_inurba_marseille","lat":43.28891,"lon":5.42531,"is_reserved":false,"is_disabled":false,"rental_uris":{"android":"levelo://app?vid=582b58c1-ce25-421b-902c-cd3c9cde1895","ios":"levelo://app?vid=582b58c1-ce25-421b-902c-cd3c9cde1895"},"vehicle_type_id":"4","last_reported":1761848128,"current_range_meters":11600,"station_id":"st_d3b462108ojc7389ooeg","pricing_plan_id":"cebpf4jnsgd1na2vs0mg"},{"bike_id":"1a297e68-412b-450c-aa02-a9ec00e5c81e","system_id":"levelo_inurba_marseille","lat":43.30061,"lon":5.36905,"is_reserved":false,"is_disabled":false,"rental_uris":{"android":"levelo://app?vid=1a297e68-412b-450c-aa02-a9ec00e5c81e","ios":"levelo://app?vid=1a297e68-412b-450c-aa02-a9ec00e5c81e"},"vehicle_type_id":"4","last_reported":1761848128,"current_range_meters":11600,"station_id":"","pricing_plan_id":"cebpf4jnsgd1na2vs0mg"},{"bike_id":"d94cfd75-95a5-4e35-8d7c-89875b768fc7","system_id":"levelo_inurba_marseille","lat":43.31227,"lon":5.36864,"is_reserved":false,"is_disabled":false,"rental_uris":{"android":"levelo://app?vid=d94cfd75-95a5-4e35-8d7c-89875b768fc7","ios":"levelo://app?vid=d94cfd75-95a5-4e35-8d7c-89875b768fc7"},"vehicle_type_id":"4","last_reported":1761848128,"current_range_meters":12000,"station_id":"ce4bgl92rcd13ifvqbq0","pricing_plan_id":"cebpf4jnsgd1na2vs0mg"},{"bike_id":"293a366c-ad33-464f-be66-4c308271167a","system_id":"levelo_inurba_marseille","lat":43.24156,"lon":5.36402,"is_reserved":false,"is_disabled":false,"rental_uris":{"android":"levelo://app?vid=293a366c-ad33-464f-be66-4c308271167a","ios":"levelo://app?vid=293a366c-ad33-464f-be66-4c308271167a"},"vehicle_type_id":"4","last_reported":1761848128,"current_range_meters":12000,"station_id":"cpo36qri1sfpv3e86is0","pricing_plan_id":"cebpf4jnsgd1na2vs0mg"},{"bike_id":"b7258894-d173-4bda-82a3-6ac7f0c2214f","system_id":"levelo_inurba_marseille","lat":43.31326,"lon":5.39698,"is_reserved":false,"is_disabled":false,"rental_uris":{"android":"levelo://app?vid=b7258894-d173-4bda-82a3-6ac7f0c2214f","ios":"levelo://app?vid=b7258894-d173-4bda-82a3-6ac7f0c2214f"},"vehicle_type_id":"4","last_reported":1761848128,"current_range_meters":12000,"station_id":"ce4bgvp2rcd13ifvqcu0","pricing_plan_id":"cebpf4jnsgd1na2vs0mg"},{"bike_id":"433df6ba-f0d3-41fe-a484-de46e488cd96","system_id":"levelo_inurba_marseille","lat":43.28467,"lon":5.3842,"is_reserved":false,"is_disabled":false,"rental_uris":{"android":"levelo://app?vid=433df6ba-f0d3-41fe-a484-de46e488cd96","ios":"levelo://app?vid=433df6ba-f0d3-41fe-a484-de46e488cd96"},"vehicle_type_id":"4","last_reported":1761848128,"current_range_meters":12000,"station_id":"ce4bh512rcd13ifvqe3g","pricing_plan_id":"cebpf4jnsgd1na2vs0mg"},{"bike_id":"cfddcbca-1aba-4dde-98b4-3355b934b766","system_id":"levelo_inurba_marseille","lat":43.292603,"lon":5.384385,"is_reserved":false,"is_disabled":false,"rental_uris":{"android":"levelo://app?vid=cfddcbca-1aba-4dde-98b4-3355b934b766","ios":"levelo://app?vid=cfddcbca-1aba-4dde-98b4-3355b934b766"},"vehicle_type_id":"4","last_reported":1761848128,"current_range_meters":12000,"station_id":"","pricing_plan_id":"cebpf4jnsgd1na2vs0mg"},{"bike_id":"558b43e1-be4d-4784-aa62-ca10a2935567","system_id":"levelo_inurba_marseille","lat":43.28228,"lon":5.39074,"is_reserved":false,"is_disabled":false,"rental_uris":{"android":"levelo://app?vid=558b43e1-be4d-4784-aa62-ca10a2935567","ios":"levelo://app?vid=558b43e1-be4d-4784-aa62-ca10a2935567"},"vehicle_type_id":"4","last_reported":1761848128,"current_range_meters":12000,"station_id":"ce4bhn92rcd13ifvqgsg","pricing_plan_id":"cebpf4jnsgd1na2vs0mg"},{"bike_id":"0dc2677d-52f3-4c3e-a4eb-af7b96f166b0","system_id":"levelo_inurba_marseille","lat":43.29031,"lon":5.38646,"is_reserved":false,"is_disabled":false,"rental_uris":{"android":"levelo://app?vid=0dc2677d-52f3-4c3e-a4eb-af7b96f166b0","ios":"levelo://app?vid=0dc2677d-52f3-4c3e-a4eb-af7b96f166b0"},"vehicle_type_id":"4","last_reported":1761848128,"current_range_meters":12000,"station_id":"ce4bh4p2rcd13ifvqe0g","pricing_plan_id":"cebpf4jnsgd1na2vs0mg"},{"bike_id":"e342e908-06a5-4949-82e7-4cfb5101e617","system_id":"levelo_inurba_marseille","lat":43.29528,"lon":5.39395,"is_reserved":false,"is_disabled":false,"rental_uris":{"android":"levelo://app?vid=e342e908-06a5-4949-82e7-4cfb5101e617","ios":"levelo://app?vid=e342e908-06a5-4949-82e7-4cfb5101e617"},"vehicle_type_id":"4","last_reported":1761848128,"current_range_meters":12000,"station_id":"ce4bh292rcd13ifvqdf0","pricing_plan_id":"cebpf4jnsgd1na2vs0mg"},{"bike_id":"f7661f3f-e26f-4cc9-a650-9479e231a682","system_id":"levelo_inurba_marseille","lat":43.27979,"lon":5.38742,"is_reserved":false,"is_disabled":false,"rental_uris":{"android":"levelo://app?vid=f7661f3f-e26f-4cc9-a650-9479e231a682","ios":"levelo://app?vid=f7661f3f-e26f-4cc9-a650-9479e231a682"},"vehicle_type_id":"4","last_reported":1761848128,"current_range_meters":12000,"station_id":"ce4bhg12rcd13ifvqf80","pricing_plan_id":"cebpf4jnsgd1na2vs0mg"},{"bike_id":"e7fbda8d-e4b1-4d1d-8e59-650ead40058d","system_id":"levelo_inurba_marseille","lat":43.24643,"lon":5.43151,"is_reserved":false,"is_disabled":false,"rental_uris":{"android":"levelo://app?vid=e7fbda8d-e4b1-4d1d-8e59-650ead40058d","ios":"levelo://app?vid=e7fbda8d-e4b1-4d1d-8e59-650ead40058d"},"vehicle_type_id":"4","last_reported":1761848128,"current_range_meters":12400,"station_id":"st_d2m6c4gdas8pm72e190g","pricing_plan_id":"cebpf4jnsgd1na2vs0mg"},{"bike_id":"003dc589-afc6-47c4-a84a-e90cd5f91109","system_id":"levelo_inurba_marseille","lat":43.29508,"lon":5.39028,"is_reserved":false,"is_disabled":true,"rental_uris":{"android":"levelo://app?vid=003dc589-afc6-47c4-a84a-e90cd5f91109","ios":"levelo://app?vid=003dc589-afc6-47c4-a84a-e90cd5f91109"},"vehicle_type_id":"4","last_reported":1761848128,"current_range_meters":12400,"station_id":"ce4bh3p2rcd13ifvqdp0","pricing_plan_id":"cebpf4jnsgd1na2vs0mg"},{"bike_id":"10848afe-ae82-40ce-a04e-71d7ed36a2d8","system_id":"levelo_inurba_marseille","lat":43.29791,"lon":5.3935,"is_reserved":false,"is_disabled":false,"rental_uris":{"android":"levelo://app?vid=10848afe-ae82-40ce-a04e-71d7ed36a2d8","ios":"levelo://app?vid=10848afe-ae82-40ce-a04e-71d7ed36a2d8"},"vehicle_type_id":"4","last_reported":1761848128,"current_range_meters":12400,"station_id":"chh1huq6cuj3fo74tm60","pricing_plan_id":"cebpf4jnsgd1na2vs0mg"},{"bike_id":"c4ab7641-61a4-40c0-b99f-d86519d0b14d","system_id":"levelo_inurba_marseille","lat":43.29437,"lon":5.39752,"is_reserved":false,"is_disabled":false,"rental_uris":{"android":"levelo://app?vid=c4ab7641-61a4-40c0-b99f-d86519d0b14d","ios":"levelo://app?vid=c4ab7641-61a4-40c0-b99f-d86519d0b14d"},"vehicle_type_id":"4","last_reported":1761848128,"current_range_meters":12400,"station_id":"ce4bh3h2rcd13ifvqdo0","pricing_plan_id":"cebpf4jnsgd1na2vs0mg"},{"bike_id":"04d817b9-3e24-4734-82b2-b5857dcbd3ee","system_id":"levelo_inurba_marseille","lat":43.24065,"lon":5.37765,"is_reserved":false,"is_disabled":false,"rental_uris":{"android":"levelo://app?vid=04d817b9-3e24-4734-82b2-b5857dcbd3ee","ios":"levelo://app?vid=04d817b9-3e24-4734-82b2-b5857dcbd3ee"},"vehicle_type_id":"4","last_reported":1761848128,"current_range_meters":12800,"station_id":"ce4bhnp2rcd13ifvqgvg","pricing_plan_id":"cebpf4jnsgd1na2vs0mg"},{"bike_id":"9e46c880-4350-4ad9-a157-8c827a4690a2","system_id":"levelo_inurba_marseille","lat":43.2501,"lon":5.3893,"is_reserved":false,"is_disabled":false,"rental_uris":{"android":"levelo://app?vid=9e46c880-4350-4ad9-a157-8c827a4690a2","ios":"levelo://app?vid=9e46c880-4350-4ad9-a157-8c827a4690a2"},"vehicle_type_id":"4","last_reported":1761848128,"current_range_meters":12800,"station_id":"ce4bhgp2rcd13ifvqfd0","pricing_plan_id":"cebpf4jnsgd1na2vs0mg"},{"bike_id":"2627fa00-2e9a-4cbd-b478-7025ece957f5","system_id":"levelo_inurba_marseille","lat":43.28664,"lon":5.3867,"is_reserved":false,"is_disabled":false,"rental_uris":{"android":"levelo://app?vid=2627fa00-2e9a-4cbd-b478-7025ece957f5","ios":"levelo://app?vid=2627fa00-2e9a-4cbd-b478-7025ece957f5"},"vehicle_type_id":"4","last_reported":1761848128,"current_range_meters":12800,"station_id":"ce4bh492rcd13ifvqdug","pricing_plan_id":"cebpf4jnsgd1na2vs0mg"},{"bike_id":"f6946de9-6fd5-486c-846e-6aac0ac8e59f","system_id":"levelo_inurba_marseille","lat":43.21201,"lon":5.3507,"is_reserved":false,"is_disabled":false,"rental_uris":{"android":"levelo://app?vid=f6946de9-6fd5-486c-846e-6aac0ac8e59f","ios":"levelo://app?vid=f6946de9-6fd5-486c-846e-6aac0ac8e59f"},"vehicle_type_id":"4","last_reported":1761848128,"current_range_meters":12800,"station_id":"st_cvj6sg6p6f1abm77japg","pricing_plan_id":"cebpf4jnsgd1na2vs0mg"},{"bike_id":"15e2c5dd-bae1-46fb-906a-d29fa37d6e53","system_id":"levelo_inurba_marseille","lat":43.313314,"lon":5.373347,"is_reserved":false,"is_disabled":false,"rental_uris":{"android":"levelo://app?vid=15e2c5dd-bae1-46fb-906a-d29fa37d6e53","ios":"levelo://app?vid=15e2c5dd-bae1-46fb-906a-d29fa37d6e53"},"vehicle_type_id":"4","last_reported":1761848128,"current_range_meters":12800,"station_id":"","pricing_plan_id":"cebpf4jnsgd1na2vs0mg"},{"bike_id":"b27a8806-30e1-443e-a9fd-f47f3ce319b9","system_id":"levelo_inurba_marseille","lat":43.23192,"lon":5.35555,"is_reserved":false,"is_disabled":false,"rental_uris":{"android":"levelo://app?vid=b27a8806-30e1-443e-a9fd-f47f3ce319b9","ios":"levelo://app?vid=b27a8806-30e1-443e-a9fd-f47f3ce319b9"},"vehicle_type_id":"4","last_reported":1761848128,"current_range_meters":12800,"station_id":"ce4bhu92rcd13ifvqi70","pricing_plan_id":"cebpf4jnsgd1na2vs0mg"},{"bike_id":"709dc3cb-272e-4021-beff-59c84c7800d8","system_id":"levelo_inurba_marseille","lat":43.24647,"lon":5.38894,"is_reserved":false,"is_disabled":false,"rental_uris":{"android":"levelo://app?vid=709dc3cb-272e-4021-beff-59c84c7800d8","ios":"levelo://app?vid=709dc3cb-272e-4021-beff-59c84c7800d8"},"vehicle_type_id":"4","last_reported":1761848128,"current_range_meters":13600,"station_id":"ce4bhg12rcd13ifvqf60","pricing_plan_id":"cebpf4jnsgd1na2vs0mg"},{"bike_id":"832f8360-f0a1-43f7-8c58-03a9849f627c","system_id":"levelo_inurba_marseille","lat":43.295384,"lon":5.385438,"is_reserved":false,"is_disabled":false,"rental_uris":{"android":"levelo://app?vid=832f8360-f0a1-43f7-8c58-03a9849f627c","ios":"levelo://app?vid=832f8360-f0a1-43f7-8c58-03a9849f627c"},"vehicle_type_id":"4","last_reported":1761848128,"current_range_meters":13600,"station_id":"ce4bgih2rcd13ifvqba0","pricing_plan_id":"cebpf4jnsgd1na2vs0mg"},{"bike_id":"2ec8fd1b-3b42-4f93-a828-68bd711efa51","system_id":"levelo_inurba_marseille","lat":43.24618,"lon":5.43152,"is_reserved":false,"is_disabled":false,"rental_uris":{"android":"levelo://app?vid=2ec8fd1b-3b42-4f93-a828-68bd711efa51","ios":"levelo://app?vid=2ec8fd1b-3b42-4f93-a828-68bd711efa51"},"vehicle_type_id":"4","last_reported":1761848128,"current_range_meters":13600,"station_id":"st_d2m6c4gdas8pm72e190g","pricing_plan_id":"cebpf4jnsgd1na2vs0mg"},{"bike_id":"4f23ab94-a366-4a0d-b0ec-e7b48be6c810","system_id":"levelo_inurba_marseille","lat":43.29258,"lon":5.38454,"is_reserved":false,"is_disabled":false,"rental_uris":{"android":"levelo://app?vid=4f23ab94-a366-4a0d-b0ec-e7b48be6c810","ios":"levelo://app?vid=4f23ab94-a366-4a0d-b0ec-e7b48be6c810"},"vehicle_type_id":"4","last_reported":1761848128,"current_range_meters":13600,"station_id":"ce4bh692rcd13ifvqea0","pricing_plan_id":"cebpf4jnsgd1na2vs0mg"},{"bike_id":"13d85ba5-d60c-431c-bd07-2c03a464ae34","system_id":"levelo_inurba_marseille","lat":43.31215,"lon":5.36839,"is_reserved":false,"is_disabled":false,"rental_uris":{"android":"levelo://app?vid=13d85ba5-d60c-431c-bd07-2c03a464ae34","ios":"levelo://app?vid=13d85ba5-d60c-431c-bd07-2c03a464ae34"},"vehicle_type_id":"4","last_reported":1761848128,"current_range_meters":13600,"station_id":"ce4bgl92rcd13ifvqbq0","pricing_plan_id":"cebpf4jnsgd1na2vs0mg"},{"bike_id":"a159c7fa-4c33-479a-9130-82f09aa8b34d","system_id":"levelo_inurba_marseille","lat":43.25092,"lon":5.39512,"is_reserved":false,"is_disabled":false,"rental_uris":{"android":"levelo://app?vid=a159c7fa-4c33-479a-9130-82f09aa8b34d","ios":"levelo://app?vid=a159c7fa-4c33-479a-9130-82f09aa8b34d"},"vehicle_type_id":"4","last_reported":1761848128,"current_range_meters":13600,"station_id":"ce4bhm12rcd13ifvqgkg","pricing_plan_id":"cebpf4jnsgd1na2vs0mg"},{"bike_id":"2b096ef4-b540-41bf-81ed-13e13d7a7f5d","system_id":"levelo_inurba_marseille","lat":43.283623,"lon":5.386381,"is_reserved":false,"is_disabled":false,"rental_uris":{"android":"levelo://app?vid=2b096ef4-b540-41bf-81ed-13e13d7a7f5d","ios":"levelo://app?vid=2b096ef4-b540-41bf-81ed-13e13d7a7f5d"},"vehicle_type_id":"4","last_reported":1761848128,"current_range_meters":14000,"station_id":"ce4bh492rcd13ifvqdvg","pricing_plan_id":"cebpf4jnsgd1na2vs0mg"},{"bike_id":"49eabeb8-91e9-4fed-9256-a94ef104e5f4","system_id":"levelo_inurba_marseille","lat":43.29579,"lon":5.36741,"is_reserved":false,"is_disabled":false,"rental_uris":{"android":"levelo://app?vid=49eabeb8-91e9-4fed-9256-a94ef104e5f4","ios":"levelo://app?vid=49eabeb8-91e9-4fed-9256-a94ef104e5f4"},"vehicle_type_id":"4","last_reported":1761848128,"current_range_meters":14000,"station_id":"ce4bgph2rcd13ifvqc2g","pricing_plan_id":"cebpf4jnsgd1na2vs0mg"},{"bike_id":"0eca74b2-5bb6-4057-9e05-7665294ea7ba","system_id":"levelo_inurba_marseille","lat":43.29967,"lon":5.38497,"is_reserved":false,"is_disabled":false,"rental_uris":{"android":"levelo://app?vid=0eca74b2-5bb6-4057-9e05-7665294ea7ba","ios":"levelo://app?vid=0eca74b2-5bb6-4057-9e05-7665294ea7ba"},"vehicle_type_id":"4","last_reported":1761848128,"current_range_meters":14000,"station_id":"ce4bgj92rcd13ifvqbd0","pricing_plan_id":"cebpf4jnsgd1na2vs0mg"},{"bike_id":"1aaccc3f-3840-45c3-8332-d3ba4b1ca58d","system_id":"levelo_inurba_marseille","lat":43.28938,"lon":5.36425,"is_reserved":false,"is_disabled":false,"rental_uris":{"android":"levelo://app?vid=1aaccc3f-3840-45c3-8332-d3ba4b1ca58d","ios":"levelo://app?vid=1aaccc3f-3840-45c3-8332-d3ba4b1ca58d"},"vehicle_type_id":"4","last_reported":1761848128,"current_range_meters":14000,"station_id":"ce4bhc92rcd13ifvqetg","pricing_plan_id":"cebpf4jnsgd1na2vs0mg"},{"bike_id":"a18dbf48-2c4d-4fa4-a4c5-c9871d73c9a0","system_id":"levelo_inurba_marseille","lat":43.301994,"lon":5.383462,"is_reserved":false,"is_disabled":false,"rental_uris":{"android":"levelo://app?vid=a18dbf48-2c4d-4fa4-a4c5-c9871d73c9a0","ios":"levelo://app?vid=a18dbf48-2c4d-4fa4-a4c5-c9871d73c9a0"},"vehicle_type_id":"4","last_reported":1761848128,"current_range_meters":14000,"station_id":"ce4bgup2rcd13ifvqcn0","pricing_plan_id":"cebpf4jnsgd1na2vs0mg"},{"bike_id":"4c1b2049-b590-4ae2-a090-9d731b00e193","system_id":"levelo_inurba_marseille","lat":43.2707,"lon":5.42269,"is_reserved":false,"is_disabled":false,"rental_uris":{"android":"levelo://app?vid=4c1b2049-b590-4ae2-a090-9d731b00e193","ios":"levelo://app?vid=4c1b2049-b590-4ae2-a090-9d731b00e193"},"vehicle_type_id":"4","last_reported":1761848128,"current_range_meters":14000,"station_id":"ce4bhk92rcd13ifvqgb0","pricing_plan_id":"cebpf4jnsgd1na2vs0mg"},{"bike_id":"d471a7ee-5247-4a9f-b7fb-7dc8da09aa96","system_id":"levelo_inurba_marseille","lat":43.297902,"lon":5.371049,"is_reserved":false,"is_disabled":false,"rental_uris":{"android":"levelo://app?vid=d471a7ee-5247-4a9f-b7fb-7dc8da09aa96","ios":"levelo://app?vid=d471a7ee-5247-4a9f-b7fb-7dc8da09aa96"},"vehicle_type_id":"4","last_reported":1761848128,"current_range_meters":14000,"station_id":"ce4bgop2rcd13ifvqc1g","pricing_plan_id":"cebpf4jnsgd1na2vs0mg"},{"bike_id":"5b8bd8bc-e548-4aa5-a737-db3f6403521b","system_id":"levelo_inurba_marseille","lat":43.29162,"lon":5.38284,"is_reserved":false,"is_disabled":false,"rental_uris":{"android":"levelo://app?vid=5b8bd8bc-e548-4aa5-a737-db3f6403521b","ios":"levelo://app?vid=5b8bd8bc-e548-4aa5-a737-db3f6403521b"},"vehicle_type_id":"4","last_reported":1761848128,"current_range_meters":14000,"station_id":"","pricing_plan_id":"cebpf4jnsgd1na2vs0mg"},{"bike_id":"d797e0fe-e559-4cdd-b317-e6dda622464a","system_id":"levelo_inurba_marseille","lat":43.29528,"lon":5.38547,"is_reserved":false,"is_disabled":false,"rental_uris":{"android":"levelo://app?vid=d797e0fe-e559-4cdd-b317-e6dda622464a","ios":"levelo://app?vid=d797e0fe-e559-4cdd-b317-e6dda622464a"},"vehicle_type_id":"4","last_reported":1761848128,"current_range_meters":14000,"station_id":"ce4bgih2rcd13ifvqba0","pricing_plan_id":"cebpf4jnsgd1na2vs0mg"},{"bike_id":"81ce8fac-c29e-44dc-ac54-01b5094704df","system_id":"levelo_inurba_marseille","lat":43.30065,"lon":5.36891,"is_reserved":false,"is_disabled":false,"rental_uris":{"android":"levelo://app?vid=81ce8fac-c29e-44dc-ac54-01b5094704df","ios":"levelo://app?vid=81ce8fac-c29e-44dc-ac54-01b5094704df"},"vehicle_type_id":"4","last_reported":1761848128,"current_range_meters":14000,"station_id":"","pricing_plan_id":"cebpf4jnsgd1na2vs0mg"},{"bike_id":"a0d564f2-5ac0-4238-b3be-1fed830781ea","system_id":"levelo_inurba_marseille","lat":43.273801,"lon":5.362358,"is_reserved":false,"is_disabled":false,"rental_uris":{"android":"levelo://app?vid=a0d564f2-5ac0-4238-b3be-1fed830781ea","ios":"levelo://app?vid=a0d564f2-5ac0-4238-b3be-1fed830781ea"},"vehicle_type_id":"4","last_reported":1761848128,"current_range_meters":14400,"station_id":"","pricing_plan_id":"cebpf4jnsgd1na2vs0mg"},{"bike_id":"fa564bcb-3735-42b7-bb99-447157aeb158","system_id":"levelo_inurba_marseille","lat":43.29028,"lon":5.38654,"is_reserved":false,"is_disabled":false,"rental_uris":{"android":"levelo://app?vid=fa564bcb-3735-42b7-bb99-447157aeb158","ios":"levelo://app?vid=fa564bcb-3735-42b7-bb99-447157aeb158"},"vehicle_type_id":"4","last_reported":1761848128,"current_range_meters":14400,"station_id":"ce4bh4p2rcd13ifvqe0g","pricing_plan_id":"cebpf4jnsgd1na2vs0mg"},{"bike_id":"905644b9-04d7-4435-8797-982a8470b11f","system_id":"levelo_inurba_marseille","lat":43.29247,"lon":5.38437,"is_reserved":false,"is_disabled":false,"rental_uris":{"android":"levelo://app?vid=905644b9-04d7-4435-8797-982a8470b11f","ios":"levelo://app?vid=905644b9-04d7-4435-8797-982a8470b11f"},"vehicle_type_id":"4","last_reported":1761848128,"current_range_meters":14400,"station_id":"ce4bh692rcd13ifvqea0","pricing_plan_id":"cebpf4jnsgd1na2vs0mg"},{"bike_id":"cb4434ef-8f35-48b1-a114-619cac4c7712","system_id":"levelo_inurba_marseille","lat":43.29255,"lon":5.3844,"is_reserved":false,"is_disabled":false,"rental_uris":{"android":"levelo://app?vid=cb4434ef-8f35-48b1-a114-619cac4c7712","ios":"levelo://app?vid=cb4434ef-8f35-48b1-a114-619cac4c7712"},"vehicle_type_id":"4","last_reported":1761848128,"current_range_meters":14400,"station_id":"ce4bh692rcd13ifvqea0","pricing_plan_id":"cebpf4jnsgd1na2vs0mg"},{"bike_id":"48b9d1b0-ad78-4536-8337-b503744cd6c5","system_id":"levelo_inurba_marseille","lat":43.27181,"lon":5.40993,"is_reserved":false,"is_disabled":false,"rental_uris":{"android":"levelo://app?vid=48b9d1b0-ad78-4536-8337-b503744cd6c5","ios":"levelo://app?vid=48b9d1b0-ad78-4536-8337-b503744cd6c5"},"vehicle_type_id":"4","last_reported":1761848128,"current_range_meters":14400,"station_id":"ce4bhl12rcd13ifvqgf0","pricing_plan_id":"cebpf4jnsgd1na2vs0mg"},{"bike_id":"d1fc23d4-3ad4-4d74-94fb-863330e9b468","system_id":"levelo_inurba_marseille","lat":43.27207,"lon":5.39181,"is_reserved":false,"is_disabled":false,"rental_uris":{"android":"levelo://app?vid=d1fc23d4-3ad4-4d74-94fb-863330e9b468","ios":"levelo://app?vid=d1fc23d4-3ad4-4d74-94fb-863330e9b468"},"vehicle_type_id":"4","last_reported":1761848128,"current_range_meters":14400,"station_id":"ce4bhhp2rcd13ifvqfm0","pricing_plan_id":"cebpf4jnsgd1na2vs0mg"},{"bike_id":"0ea07904-84f7-4751-a79c-34eb67ef8001","system_id":"levelo_inurba_marseille","lat":43.2455,"lon":5.39516,"is_reserved":false,"is_disabled":false,"rental_uris":{"android":"levelo://app?vid=0ea07904-84f7-4751-a79c-34eb67ef8001","ios":"levelo://app?vid=0ea07904-84f7-4751-a79c-34eb67ef8001"},"vehicle_type_id":"4","last_reported":1761848128,"current_range_meters":14800,"station_id":"ce4bhlp2rcd13ifvqgjg","pricing_plan_id":"cebpf4jnsgd1na2vs0mg"},{"bike_id":"7f597b80-e60b-4d55-8e6a-3e68b1031742","system_id":"levelo_inurba_marseille","lat":43.25091,"lon":5.39516,"is_reserved":false,"is_disabled":false,"rental_uris":{"android":"levelo://app?vid=7f597b80-e60b-4d55-8e6a-3e68b1031742","ios":"levelo://app?vid=7f597b80-e60b-4d55-8e6a-3e68b1031742"},"vehicle_type_id":"4","last_reported":1761848128,"current_range_meters":14800,"station_id":"ce4bhm12rcd13ifvqgkg","pricing_plan_id":"cebpf4jnsgd1na2vs0mg"},{"bike_id":"9b93b5e1-c939-4745-bf85-2d21945442dc","system_id":"levelo_inurba_marseille","lat":43.29994,"lon":5.3641,"is_reserved":false,"is_disabled":false,"rental_uris":{"android":"levelo://app?vid=9b93b5e1-c939-4745-bf85-2d21945442dc","ios":"levelo://app?vid=9b93b5e1-c939-4745-bf85-2d21945442dc"},"vehicle_type_id":"4","last_reported":1761848128,"current_range_meters":14800,"station_id":"","pricing_plan_id":"cebpf4jnsgd1na2vs0mg"},{"bike_id":"1a816e40-8c37-414d-bdcb-47d46f861ccd","system_id":"levelo_inurba_marseille","lat":43.25247,"lon":5.42206,"is_reserved":false,"is_disabled":false,"rental_uris":{"android":"levelo://app?vid=1a816e40-8c37-414d-bdcb-47d46f861ccd","ios":"levelo://app?vid=1a816e40-8c37-414d-bdcb-47d46f861ccd"},"vehicle_type_id":"4","last_reported":1761848128,"current_range_meters":14800,"station_id":"st_d2m65c5bi1j21697t3ng","pricing_plan_id":"cebpf4jnsgd1na2vs0mg"},{"bike_id":"60e9d0f3-de29-4fc5-a4a9-611be31c3327","system_id":"levelo_inurba_marseille","lat":43.27912,"lon":5.39577,"is_reserved":false,"is_disabled":false,"rental_uris":{"android":"levelo://app?vid=60e9d0f3-de29-4fc5-a4a9-611be31c3327","ios":"levelo://app?vid=60e9d0f3-de29-4fc5-a4a9-611be31c3327"},"vehicle_type_id":"4","last_reported":1761848128,"current_range_meters":14800,"station_id":"ce4bhf92rcd13ifvqf40","pricing_plan_id":"cebpf4jnsgd1na2vs0mg"},{"bike_id":"1f68c1a1-95f7-4343-839e-000d2bca5135","system_id":"levelo_inurba_marseille","lat":43.250908,"lon":5.395283,"is_reserved":false,"is_disabled":false,"rental_uris":{"android":"levelo://app?vid=1f68c1a1-95f7-4343-839e-000d2bca5135","ios":"levelo://app?vid=1f68c1a1-95f7-4343-839e-000d2bca5135"},"vehicle_type_id":"4","last_reported":1761848128,"current_range_meters":14800,"station_id":"ce4bhm12rcd13ifvqgkg","pricing_plan_id":"cebpf4jnsgd1na2vs0mg"},{"bike_id":"b61e1e59-261f-4781-9885-10fc3dd1eaf7","system_id":"levelo_inurba_marseille","lat":43.30471,"lon":5.36893,"is_reserved":false,"is_disabled":false,"rental_uris":{"android":"levelo://app?vid=b61e1e59-261f-4781-9885-10fc3dd1eaf7","ios":"levelo://app?vid=b61e1e59-261f-4781-9885-10fc3dd1eaf7"},"vehicle_type_id":"4","last_reported":1761848128,"current_range_meters":14800,"station_id":"","pricing_plan_id":"cebpf4jnsgd1na2vs0mg"},{"bike_id":"93276f62-73de-4cca-b4f6-1f053030968c","system_id":"levelo_inurba_marseille","lat":43.29255,"lon":5.38454,"is_reserved":false,"is_disabled":false,"rental_uris":{"android":"levelo://app?vid=93276f62-73de-4cca-b4f6-1f053030968c","ios":"levelo://app?vid=93276f62-73de-4cca-b4f6-1f053030968c"},"vehicle_type_id":"4","last_reported":1761848128,"current_range_meters":14800,"station_id":"ce4bh692rcd13ifvqea0","pricing_plan_id":"cebpf4jnsgd1na2vs0mg"},{"bike_id":"c0a1ab8d-72ff-4114-b274-fdab8f1c3cb0","system_id":"levelo_inurba_marseille","lat":43.24688,"lon":5.38197,"is_reserved":false,"is_disabled":false,"rental_uris":{"android":"levelo://app?vid=c0a1ab8d-72ff-4114-b274-fdab8f1c3cb0","ios":"levelo://app?vid=c0a1ab8d-72ff-4114-b274-fdab8f1c3cb0"},"vehicle_type_id":"4","last_reported":1761848128,"current_range_meters":15200,"station_id":"ce4bhih2rcd13ifvqfr0","pricing_plan_id":"cebpf4jnsgd1na2vs0mg"},{"bike_id":"69daedd1-e532-426c-b096-24cfed29fb24","system_id":"levelo_inurba_marseille","lat":43.27937,"lon":5.41049,"is_reserved":false,"is_disabled":false,"rental_uris":{"android":"levelo://app?vid=69daedd1-e532-426c-b096-24cfed29fb24","ios":"levelo://app?vid=69daedd1-e532-426c-b096-24cfed29fb24"},"vehicle_type_id":"4","last_reported":1761848128,"current_range_meters":15200,"station_id":"ce4bhnp2rcd13ifvqh0g","pricing_plan_id":"cebpf4jnsgd1na2vs0mg"},{"bike_id":"899f498b-b0d2-4609-8c9e-15400a9cb9bf","system_id":"levelo_inurba_marseille","lat":43.29533,"lon":5.38538,"is_reserved":false,"is_disabled":false,"rental_uris":{"android":"levelo://app?vid=899f498b-b0d2-4609-8c9e-15400a9cb9bf","ios":"levelo://app?vid=899f498b-b0d2-4609-8c9e-15400a9cb9bf"},"vehicle_type_id":"4","last_reported":1761848128,"current_range_meters":15200,"station_id":"ce4bgih2rcd13ifvqba0","pricing_plan_id":"cebpf4jnsgd1na2vs0mg"},{"bike_id":"1aabd0d3-f26b-4620-8084-fbd4170971d4","system_id":"levelo_inurba_marseille","lat":43.2903,"lon":5.38656,"is_reserved":false,"is_disabled":false,"rental_uris":{"android":"levelo://app?vid=1aabd0d3-f26b-4620-8084-fbd4170971d4","ios":"levelo://app?vid=1aabd0d3-f26b-4620-8084-fbd4170971d4"},"vehicle_type_id":"4","last_reported":1761848128,"current_range_meters":15200,"station_id":"ce4bh4p2rcd13ifvqe0g","pricing_plan_id":"cebpf4jnsgd1na2vs0mg"},{"bike_id":"704adb0c-d53b-490c-90a2-be42d6187d09","system_id":"levelo_inurba_marseille","lat":43.28677,"lon":5.38664,"is_reserved":false,"is_disabled":false,"rental_uris":{"android":"levelo://app?vid=704adb0c-d53b-490c-90a2-be42d6187d09","ios":"levelo://app?vid=704adb0c-d53b-490c-90a2-be42d6187d09"},"vehicle_type_id":"4","last_reported":1761848128,"current_range_meters":15200,"station_id":"ce4bh492rcd13ifvqdug","pricing_plan_id":"cebpf4jnsgd1na2vs0mg"},{"bike_id":"d56e8b7a-688f-42b0-a94d-abffe551cf6b","system_id":"levelo_inurba_marseille","lat":43.287095,"lon":5.373672,"is_reserved":false,"is_disabled":false,"rental_uris":{"android":"levelo://app?vid=d56e8b7a-688f-42b0-a94d-abffe551cf6b","ios":"levelo://app?vid=d56e8b7a-688f-42b0-a94d-abffe551cf6b"},"vehicle_type_id":"4","last_reported":1761848128,"current_range_meters":15200,"station_id":"ce4bh3p2rcd13ifvqdq0","pricing_plan_id":"cebpf4jnsgd1na2vs0mg"},{"bike_id":"c2b29e2a-9ddf-4599-9569-ebeda3771708","system_id":"levelo_inurba_marseille","lat":43.21195,"lon":5.35085,"is_reserved":false,"is_disabled":false,"rental_uris":{"android":"levelo://app?vid=c2b29e2a-9ddf-4599-9569-ebeda3771708","ios":"levelo://app?vid=c2b29e2a-9ddf-4599-9569-ebeda3771708"},"vehicle_type_id":"4","last_reported":1761848128,"current_range_meters":15200,"station_id":"st_cvj6sg6p6f1abm77japg","pricing_plan_id":"cebpf4jnsgd1na2vs0mg"},{"bike_id":"0c14c407-878d-46bc-a445-2cdb974794e2","system_id":"levelo_inurba_marseille","lat":43.27206,"lon":5.39183,"is_reserved":false,"is_disabled":false,"rental_uris":{"android":"levelo://app?vid=0c14c407-878d-46bc-a445-2cdb974794e2","ios":"levelo://app?vid=0c14c407-878d-46bc-a445-2cdb974794e2"},"vehicle_type_id":"4","last_reported":1761848128,"current_range_meters":15200,"station_id":"ce4bhhp2rcd13ifvqfm0","pricing_plan_id":"cebpf4jnsgd1na2vs0mg"},{"bike_id":"086d58d3-6cda-4cdd-a484-5719531edebc","system_id":"levelo_inurba_marseille","lat":43.24809,"lon":5.37459,"is_reserved":false,"is_disabled":false,"rental_uris":{"android":"levelo://app?vid=086d58d3-6cda-4cdd-a484-5719531edebc","ios":"levelo://app?vid=086d58d3-6cda-4cdd-a484-5719531edebc"},"vehicle_type_id":"4","last_reported":1761848128,"current_range_meters":15200,"station_id":"ce4bhgh2rcd13ifvqfb0","pricing_plan_id":"cebpf4jnsgd1na2vs0mg"},{"bike_id":"253a0ed3-b1c0-4c06-8987-9e532cf59b15","system_id":"levelo_inurba_marseille","lat":43.295747,"lon":5.399733,"is_reserved":false,"is_disabled":false,"rental_uris":{"android":"levelo://app?vid=253a0ed3-b1c0-4c06-8987-9e532cf59b15","ios":"levelo://app?vid=253a0ed3-b1c0-4c06-8987-9e532cf59b15"},"vehicle_type_id":"4","last_reported":1761848128,"current_range_meters":15200,"station_id":"ce4bh312rcd13ifvqdj0","pricing_plan_id":"cebpf4jnsgd1na2vs0mg"},{"bike_id":"2fd86c53-d195-4ab3-a5e6-984f6c0f4c38","system_id":"levelo_inurba_marseille","lat":43.2657,"lon":5.37273,"is_reserved":false,"is_disabled":false,"rental_uris":{"android":"levelo://app?vid=2fd86c53-d195-4ab3-a5e6-984f6c0f4c38","ios":"levelo://app?vid=2fd86c53-d195-4ab3-a5e6-984f6c0f4c38"},"vehicle_type_id":"4","last_reported":1761848128,"current_range_meters":16000,"station_id":"ce4bhg12rcd13ifvqf70","pricing_plan_id":"cebpf4jnsgd1na2vs0mg"},{"bike_id":"13b5bebc-2277-4643-9efc-b419c3a09bbd","system_id":"levelo_inurba_marseille","lat":43.22935,"lon":5.353916,"is_reserved":false,"is_disabled":false,"rental_uris":{"android":"levelo://app?vid=13b5bebc-2277-4643-9efc-b419c3a09bbd","ios":"levelo://app?vid=13b5bebc-2277-4643-9efc-b419c3a09bbd"},"vehicle_type_id":"4","last_reported":1761848128,"current_range_meters":16000,"station_id":"cpo3532slgdg3j2ikp40","pricing_plan_id":"cebpf4jnsgd1na2vs0mg"},{"bike_id":"73c2c643-24bd-4c55-b9a2-80e2a606f70d","system_id":"levelo_inurba_marseille","lat":43.28694,"lon":5.39987,"is_reserved":false,"is_disabled":false,"rental_uris":{"android":"levelo://app?vid=73c2c643-24bd-4c55-b9a2-80e2a606f70d","ios":"levelo://app?vid=73c2c643-24bd-4c55-b9a2-80e2a606f70d"},"vehicle_type_id":"4","last_reported":1761848128,"current_range_meters":16000,"station_id":"ce4bho92rcd13ifvqh3g","pricing_plan_id":"cebpf4jnsgd1na2vs0mg"},{"bike_id":"828591f6-61a2-4ba1-b555-a925e68ce6c4","system_id":"levelo_inurba_marseille","lat":43.295769,"lon":5.375241,"is_reserved":false,"is_disabled":false,"rental_uris":{"android":"levelo://app?vid=828591f6-61a2-4ba1-b555-a925e68ce6c4","ios":"levelo://app?vid=828591f6-61a2-4ba1-b555-a925e68ce6c4"},"vehicle_type_id":"4","last_reported":1761848128,"current_range_meters":16000,"station_id":"","pricing_plan_id":"cebpf4jnsgd1na2vs0mg"},{"bike_id":"a0225ff1-ee83-4f66-9db2-6a397e641566","system_id":"levelo_inurba_marseille","lat":43.29257,"lon":5.38435,"is_reserved":false,"is_disabled":false,"rental_uris":{"android":"levelo://app?vid=a0225ff1-ee83-4f66-9db2-6a397e641566","ios":"levelo://app?vid=a0225ff1-ee83-4f66-9db2-6a397e641566"},"vehicle_type_id":"4","last_reported":1761848128,"current_range_meters":16000,"station_id":"ce4bh692rcd13ifvqea0","pricing_plan_id":"cebpf4jnsgd1na2vs0mg"},{"bike_id":"8c042bae-6945-441e-9044-0c3a412fae68","system_id":"levelo_inurba_marseille","lat":43.29257,"lon":5.38442,"is_reserved":false,"is_disabled":false,"rental_uris":{"android":"levelo://app?vid=8c042bae-6945-441e-9044-0c3a412fae68","ios":"levelo://app?vid=8c042bae-6945-441e-9044-0c3a412fae68"},"vehicle_type_id":"4","last_reported":1761848128,"current_range_meters":16000,"station_id":"ce4bh692rcd13ifvqea0","pricing_plan_id":"cebpf4jnsgd1na2vs0mg"},{"bike_id":"f1ebec42-de39-49cb-aa79-a7d00cd08ff7","system_id":"levelo_inurba_marseille","lat":43.293043,"lon":5.371513,"is_reserved":false,"is_disabled":false,"rental_uris":{"android":"levelo://app?vid=f1ebec42-de39-49cb-aa79-a7d00cd08ff7","ios":"levelo://app?vid=f1ebec42-de39-49cb-aa79-a7d00cd08ff7"},"vehicle_type_id":"4","last_reported":1761848128,"current_range_meters":16000,"station_id":"","pricing_plan_id":"cebpf4jnsgd1na2vs0mg"},{"bike_id":"28bbf614-7806-40a7-b631-19d992de53ed","system_id":"levelo_inurba_marseille","lat":43.22926,"lon":5.35376,"is_reserved":false,"is_disabled":false,"rental_uris":{"android":"levelo://app?vid=28bbf614-7806-40a7-b631-19d992de53ed","ios":"levelo://app?vid=28bbf614-7806-40a7-b631-19d992de53ed"},"vehicle_type_id":"4","last_reported":1761848128,"current_range_meters":16000,"station_id":"cpo3532slgdg3j2ikp40","pricing_plan_id":"cebpf4jnsgd1na2vs0mg"},{"bike_id":"382a3ba7-d376-4cdb-8ec1-2ca215a52431","system_id":"levelo_inurba_marseille","lat":43.311051,"lon":5.383896,"is_reserved":false,"is_disabled":false,"rental_uris":{"android":"levelo://app?vid=382a3ba7-d376-4cdb-8ec1-2ca215a52431","ios":"levelo://app?vid=382a3ba7-d376-4cdb-8ec1-2ca215a52431"},"vehicle_type_id":"4","last_reported":1761848128,"current_range_meters":16000,"station_id":"ce4bgv92rcd13ifvqcr0","pricing_plan_id":"cebpf4jnsgd1na2vs0mg"},{"bike_id":"88fd163a-9e5d-4647-a42f-839be49db336","system_id":"levelo_inurba_marseille","lat":43.29529,"lon":5.38544,"is_reserved":false,"is_disabled":false,"rental_uris":{"android":"levelo://app?vid=88fd163a-9e5d-4647-a42f-839be49db336","ios":"levelo://app?vid=88fd163a-9e5d-4647-a42f-839be49db336"},"vehicle_type_id":"4","last_reported":1761848128,"current_range_meters":16400,"station_id":"ce4bgih2rcd13ifvqba0","pricing_plan_id":"cebpf4jnsgd1na2vs0mg"},{"bike_id":"795876d8-ce78-490e-ab88-4dfd55d3ecd0","system_id":"levelo_inurba_marseille","lat":43.29535,"lon":5.3854,"is_reserved":false,"is_disabled":false,"rental_uris":{"android":"levelo://app?vid=795876d8-ce78-490e-ab88-4dfd55d3ecd0","ios":"levelo://app?vid=795876d8-ce78-490e-ab88-4dfd55d3ecd0"},"vehicle_type_id":"4","last_reported":1761848128,"current_range_meters":16400,"station_id":"ce4bgih2rcd13ifvqba0","pricing_plan_id":"cebpf4jnsgd1na2vs0mg"},{"bike_id":"960e6fa4-4740-4586-b1d8-4bb7b95af038","system_id":"levelo_inurba_marseille","lat":43.24955,"lon":5.40507,"is_reserved":false,"is_disabled":false,"rental_uris":{"android":"levelo://app?vid=960e6fa4-4740-4586-b1d8-4bb7b95af038","ios":"levelo://app?vid=960e6fa4-4740-4586-b1d8-4bb7b95af038"},"vehicle_type_id":"4","last_reported":1761848128,"current_range_meters":16400,"station_id":"st_d2ngiaodas8pm72gd1h0","pricing_plan_id":"cebpf4jnsgd1na2vs0mg"},{"bike_id":"c4130a70-a18b-48a6-ba40-8f8c37b7bd3a","system_id":"levelo_inurba_marseille","lat":43.25581,"lon":5.38232,"is_reserved":false,"is_disabled":false,"rental_uris":{"android":"levelo://app?vid=c4130a70-a18b-48a6-ba40-8f8c37b7bd3a","ios":"levelo://app?vid=c4130a70-a18b-48a6-ba40-8f8c37b7bd3a"},"vehicle_type_id":"4","last_reported":1761848128,"current_range_meters":16400,"station_id":"ce4bhih2rcd13ifvqfs0","pricing_plan_id":"cebpf4jnsgd1na2vs0mg"},{"bike_id":"88327406-ba65-4ce0-831c-3da476dbb691","system_id":"levelo_inurba_marseille","lat":43.23776,"lon":5.36627,"is_reserved":false,"is_disabled":false,"rental_uris":{"android":"levelo://app?vid=88327406-ba65-4ce0-831c-3da476dbb691","ios":"levelo://app?vid=88327406-ba65-4ce0-831c-3da476dbb691"},"vehicle_type_id":"4","last_reported":1761848128,"current_range_meters":16400,"station_id":"st_d3nk18o9ro0c73en2l3g","pricing_plan_id":"cebpf4jnsgd1na2vs0mg"},{"bike_id":"4d7d62ab-4ac7-4f11-a006-c751970e74e0","system_id":"levelo_inurba_marseille","lat":43.25336,"lon":5.42173,"is_reserved":false,"is_disabled":false,"rental_uris":{"android":"levelo://app?vid=4d7d62ab-4ac7-4f11-a006-c751970e74e0","ios":"levelo://app?vid=4d7d62ab-4ac7-4f11-a006-c751970e74e0"},"vehicle_type_id":"4","last_reported":1761848128,"current_range_meters":16400,"station_id":"st_d2m65c5bi1j21697t3ng","pricing_plan_id":"cebpf4jnsgd1na2vs0mg"},{"bike_id":"bb727e54-3386-4789-ba66-0b4a8a01f8d4","system_id":"levelo_inurba_marseille","lat":43.29546,"lon":5.37509,"is_reserved":false,"is_disabled":false,"rental_uris":{"android":"levelo://app?vid=bb727e54-3386-4789-ba66-0b4a8a01f8d4","ios":"levelo://app?vid=bb727e54-3386-4789-ba66-0b4a8a01f8d4"},"vehicle_type_id":"4","last_reported":1761848128,"current_range_meters":16400,"station_id":"ce4bgkp2rcd13ifvqbmg","pricing_plan_id":"cebpf4jnsgd1na2vs0mg"},{"bike_id":"ea26f597-91d1-4f54-b158-8d3bda3cc998","system_id":"levelo_inurba_marseille","lat":43.32279,"lon":5.38277,"is_reserved":false,"is_disabled":false,"rental_uris":{"android":"levelo://app?vid=ea26f597-91d1-4f54-b158-8d3bda3cc998","ios":"levelo://app?vid=ea26f597-91d1-4f54-b158-8d3bda3cc998"},"vehicle_type_id":"4","last_reported":1761848128,"current_range_meters":16400,"station_id":"ce4bhr12rcd13ifvqhqg","pricing_plan_id":"cebpf4jnsgd1na2vs0mg"},{"bike_id":"a657bfed-2a8a-41a5-8d2c-2d032f3588c4","system_id":"levelo_inurba_marseille","lat":43.25495,"lon":5.3766,"is_reserved":false,"is_disabled":false,"rental_uris":{"android":"levelo://app?vid=a657bfed-2a8a-41a5-8d2c-2d032f3588c4","ios":"levelo://app?vid=a657bfed-2a8a-41a5-8d2c-2d032f3588c4"},"vehicle_type_id":"4","last_reported":1761848128,"current_range_meters":16400,"station_id":"ce4bhh12rcd13ifvqff0","pricing_plan_id":"cebpf4jnsgd1na2vs0mg"},{"bike_id":"bb9a697b-08ee-4a5e-b9eb-b274d6026d59","system_id":"levelo_inurba_marseille","lat":43.29891,"lon":5.39735,"is_reserved":false,"is_disabled":false,"rental_uris":{"android":"levelo://app?vid=bb9a697b-08ee-4a5e-b9eb-b274d6026d59","ios":"levelo://app?vid=bb9a697b-08ee-4a5e-b9eb-b274d6026d59"},"vehicle_type_id":"4","last_reported":1761848128,"current_range_meters":16400,"station_id":"ce4bh0h2rcd13ifvqd50","pricing_plan_id":"cebpf4jnsgd1na2vs0mg"},{"bike_id":"eb4d9289-04f9-4a26-833c-1f10af68ef4b","system_id":"levelo_inurba_marseille","lat":43.27806,"lon":5.40755,"is_reserved":false,"is_disabled":false,"rental_uris":{"android":"levelo://app?vid=eb4d9289-04f9-4a26-833c-1f10af68ef4b","ios":"levelo://app?vid=eb4d9289-04f9-4a26-833c-1f10af68ef4b"},"vehicle_type_id":"4","last_reported":1761848128,"current_range_meters":16800,"station_id":"ce4bhnh2rcd13ifvqgtg","pricing_plan_id":"cebpf4jnsgd1na2vs0mg"},{"bike_id":"0e8e0a18-4139-452e-bab3-cb99f058b247","system_id":"levelo_inurba_marseille","lat":43.29497,"lon":5.41959,"is_reserved":false,"is_disabled":true,"rental_uris":{"android":"levelo://app?vid=0e8e0a18-4139-452e-bab3-cb99f058b247","ios":"levelo://app?vid=0e8e0a18-4139-452e-bab3-cb99f058b247"},"vehicle_type_id":"4","last_reported":1761848128,"current_range_meters":16800,"station_id":"","pricing_plan_id":"cebpf4jnsgd1na2vs0mg"},{"bike_id":"0ddd52f3-af9c-49de-9bf2-944301dde1b1","system_id":"levelo_inurba_marseille","lat":43.27828,"lon":5.40738,"is_reserved":false,"is_disabled":false,"rental_uris":{"android":"levelo://app?vid=0ddd52f3-af9c-49de-9bf2-944301dde1b1","ios":"levelo://app?vid=0ddd52f3-af9c-49de-9bf2-944301dde1b1"},"vehicle_type_id":"4","last_reported":1761848128,"current_range_meters":16800,"station_id":"ce4bhnh2rcd13ifvqgtg","pricing_plan_id":"cebpf4jnsgd1na2vs0mg"},{"bike_id":"5dda7c2e-190d-451e-a2c9-5f88dee4ca9d","system_id":"levelo_inurba_marseille","lat":43.30425,"lon":5.39749,"is_reserved":false,"is_disabled":false,"rental_uris":{"android":"levelo://app?vid=5dda7c2e-190d-451e-a2c9-5f88dee4ca9d","ios":"levelo://app?vid=5dda7c2e-190d-451e-a2c9-5f88dee4ca9d"},"vehicle_type_id":"4","last_reported":1761848128,"current_range_meters":16800,"station_id":"ce4bh092rcd13ifvqd20","pricing_plan_id":"cebpf4jnsgd1na2vs0mg"},{"bike_id":"c4ccb565-297b-4945-8eb8-4cda8c1dbf7c","system_id":"levelo_inurba_marseille","lat":43.29687,"lon":5.37297,"is_reserved":false,"is_disabled":false,"rental_uris":{"android":"levelo://app?vid=c4ccb565-297b-4945-8eb8-4cda8c1dbf7c","ios":"levelo://app?vid=c4ccb565-297b-4945-8eb8-4cda8c1dbf7c"},"vehicle_type_id":"4","last_reported":1761848128,"current_range_meters":16800,"station_id":"ce4bgk12rcd13ifvqbj0","pricing_plan_id":"cebpf4jnsgd1na2vs0mg"},{"bike_id":"80c53fab-d9fd-4b9a-94e7-e3f3183e35da","system_id":"levelo_inurba_marseille","lat":43.33015,"lon":5.39039,"is_reserved":false,"is_disabled":false,"rental_uris":{"android":"levelo://app?vid=80c53fab-d9fd-4b9a-94e7-e3f3183e35da","ios":"levelo://app?vid=80c53fab-d9fd-4b9a-94e7-e3f3183e35da"},"vehicle_type_id":"4","last_reported":1761848128,"current_range_meters":16800,"station_id":"ce4bhr92rcd13ifvqhrg","pricing_plan_id":"cebpf4jnsgd1na2vs0mg"},{"bike_id":"2662fe9b-aa47-4e6a-8505-64d896678582","system_id":"levelo_inurba_marseille","lat":43.22569,"lon":5.41629,"is_reserved":false,"is_disabled":false,"rental_uris":{"android":"levelo://app?vid=2662fe9b-aa47-4e6a-8505-64d896678582","ios":"levelo://app?vid=2662fe9b-aa47-4e6a-8505-64d896678582"},"vehicle_type_id":"4","last_reported":1761848128,"current_range_meters":16800,"station_id":"st_d2o4gvlbi1j2169b742g","pricing_plan_id":"cebpf4jnsgd1na2vs0mg"},{"bike_id":"7afafebc-9388-4b96-826a-eb1746b15f9a","system_id":"levelo_inurba_marseille","lat":43.270666,"lon":5.422878,"is_reserved":false,"is_disabled":false,"rental_uris":{"android":"levelo://app?vid=7afafebc-9388-4b96-826a-eb1746b15f9a","ios":"levelo://app?vid=7afafebc-9388-4b96-826a-eb1746b15f9a"},"vehicle_type_id":"4","last_reported":1761848128,"current_range_meters":16800,"station_id":"ce4bhk92rcd13ifvqgb0","pricing_plan_id":"cebpf4jnsgd1na2vs0mg"},{"bike_id":"02e6de55-7740-495f-9c3d-52e4db64e12e","system_id":"levelo_inurba_marseille","lat":43.29976,"lon":5.38492,"is_reserved":false,"is_disabled":false,"rental_uris":{"android":"levelo://app?vid=02e6de55-7740-495f-9c3d-52e4db64e12e","ios":"levelo://app?vid=02e6de55-7740-495f-9c3d-52e4db64e12e"},"vehicle_type_id":"4","last_reported":1761848128,"current_range_meters":16800,"station_id":"ce4bgj92rcd13ifvqbd0","pricing_plan_id":"cebpf4jnsgd1na2vs0mg"},{"bike_id":"8a0ff850-cf9f-4e75-bc3f-994489f28f31","system_id":"levelo_inurba_marseille","lat":43.22559,"lon":5.41631,"is_reserved":false,"is_disabled":false,"rental_uris":{"android":"levelo://app?vid=8a0ff850-cf9f-4e75-bc3f-994489f28f31","ios":"levelo://app?vid=8a0ff850-cf9f-4e75-bc3f-994489f28f31"},"vehicle_type_id":"4","last_reported":1761848128,"current_range_meters":16800,"station_id":"st_d2o4gvlbi1j2169b742g","pricing_plan_id":"cebpf4jnsgd1na2vs0mg"},