{"last_updated":1718478396,"ttl":30,"version":"2.2","data":{"bikes":[{"bike_id":"3dbd0d6d-b8b7-48d1-ab2f-3f22e67bb538","system_id":"levelo_inurba_marseille","lat":43.313391,"lon":5.36706,"is_reserved":false,"is_disabled":false,"rental_uris":{"android":"levelo://app?vid=3dbd0d6d-b8b7-48d1-ab2f-3f22e67bb538","ios":"levelo://app?vid=3dbd0d6d-b8b7-48d1-ab2f-3f22e67bb538"},"vehicle_type_id":"4","last_reported":1718478396,"current_range_meters":0,"station_id":"ce4bgr92rcd13ifvqc6g","pricing_plan_id":"cebpf4jnsgd1na2vs0mg"},{"bike_id":"a0da13e4-b17d-4182-b3c9-11a20141e054","system_id":"levelo_inurba_marseille","lat":43.313391,"lon":5.36706,"is_reserved":false,"is_disabled":false,"rental_uris":{"android":"levelo://app?vid=a0da13e4-b17d-4182-b3c9-11a20141e054","ios":"levelo://app?vid=a0da13e4-b17d-4182-b3c9-11a20141e054"},"vehicle_type_id":"4","last_reported":1718478396,"current_range_meters":18400,"station_id":"ce4bgr92rcd13ifvqc6g","pricing_plan_id":"cebpf4jnsgd1na2vs0mg"},{"bike_id":"c6b2f8c7-fdec-4a89-a562-a4aa17d4767b","system_id":"levelo_inurba_marseille","lat":43.309076,"lon":5.368465,"is_reserved":false,"is_disabled":false,"rental_uris":{"android":"levelo://app?vid=c6b2f8c7-fdec-4a89-a562-a4aa17d4767b","ios":"levelo://app?vid=c6b2f8c7-fdec-4a89-a562-a4aa17d4767b"},"vehicle_type_id":"4","last_reported":1718478396,"current_range_meters":400,"station_id":"ce4bgn92rcd13ifvqbvg","pricing_plan_id":"cebpf4jnsgd1na2vs0mg"},{"bike_id":"07512cb6-03b1-4143-81a6-7f364f4269b5","system_id":"levelo_inurba_marseille","lat":43.314726,"lon":5.373086,"is_reserved":false,"is_disabled":false,"rental_uris":{"android":"levelo://app?vid=07512cb6-03b1-4143-81a6-7f364f4269b5","ios":"levelo://app?vid=07512cb6-03b1-4143-81a6-7f364f4269b5"},"vehicle_type_id":"4","last_reported":1718478396,"current_range_meters":28000,"station_id":"ce4bgt12rcd13ifvqcd0","pricing_plan_id":"cebpf4jnsgd1na2vs0mg"},{"bike_id":"60eb0f01-0d2d-4921-aa48-3b0fba23d251","system_id":"levelo_inurba_marseille","lat":43.314811,"lon":5.373103,"is_reserved":false,"is_disabled":false,"rental_uris":{"android":"levelo://app?vid=60eb0f01-0d2d-4921-aa48-3b0fba23d251","ios":"levelo://app?vid=60eb0f01-0d2d-4921-aa48-3b0fba23d251"},"vehicle_type_id":"4","last_reported":1718478396,"current_range_meters":19200,"station_id":"ce4bgt12rcd13ifvqcd0","pricing_plan_id":"cebpf4jnsgd1na2vs0mg"},{"bike_id":"2dcf4a5c-e269-499a-9943-946179e54d0f","system_id":"levelo_inurba_marseille","lat":43.314811,"lon":5.373104,"is_reserved":false,"is_disabled":false,"rental_uris":{"android":"levelo://app?vid=2dcf4a5c-e269-499a-9943-946179e54d0f","ios":"levelo://app?vid=2dcf4a5c-e269-499a-9943-946179e54d0f"},"vehicle_type_id":"4","last_reported":1718478396,"current_range_meters":14000,"station_id":"ce4bgt12rcd13ifvqcd0","pricing_plan_id":"cebpf4jnsgd1na2vs0mg"},{"bike_id":"df357545-81b5-444c-8a8f-9c17f6e4b028","system_id":"levelo_inurba_marseille","lat":43.314811,"lon":5.373103,"is_reserved":false,"is_disabled":false,"rental_uris":{"android":"levelo://app?vid=df357545-81b5-444c-8a8f-9c17f6e4b028","ios":"levelo://app?vid=df357545-81b5-444c-8a8f-9c17f6e4b028"},"vehicle_type_id":"4","last_reported":1718478396,"current_range_meters":21600,"station_id":"ce4bgt12rcd13ifvqcd0","pricing_plan_id":"cebpf4jnsgd1na2vs0mg"},{"bike_id":"be0fac49-8d71-4342-b6d3-0e3b0101a5b5","system_id":"levelo_inurba_marseille","lat":43.30891,"lon":5.37183,"is_reserved":false,"is_disabled":false,"rental_uris":{"android":"levelo://app?vid=be0fac49-8d71-4342-b6d3-0e3b0101a5b5","ios":"levelo://app?vid=be0fac49-8d71-4342-b6d3-0e3b0101a5b5"},"vehicle_type_id":"4","last_reported":1718478396,"current_range_meters":400,"station_id":"ce4bguh2rcd13ifvqckg","pricing_plan_id":"cebpf4jnsgd1na2vs0mg"},{"bike_id":"37471f4c-741d-4423-ad28-3beb8104ff11","system_id":"levelo_inurba_marseille","lat":43.317107,"lon":5.372917,"is_reserved":false,"is_disabled":false,"rental_uris":{"android":"levelo://app?vid=37471f4c-741d-4423-ad28-3beb8104ff11","ios":"levelo://app?vid=37471f4c-741d-4423-ad28-3beb8104ff11"},"vehicle_type_id":"4","last_reported":1718478396,"current_range_meters":10800,"station_id":"","pricing_plan_id":"cebpf4jnsgd1na2vs0mg"},{"bike_id":"7c155b7f-5e33-439f-8427-6f93142cd231","system_id":"levelo_inurba_marseille","lat":43.31303,"lon":5.37601,"is_reserved":false,"is_disabled":false,"rental_uris":{"android":"levelo://app?vid=7c155b7f-5e33-439f-8427-6f93142cd231","ios":"levelo://app?vid=7c155b7f-5e33-439f-8427-6f93142cd231"},"vehicle_type_id":"4","last_reported":1718478396,"current_range_meters":0,"station_id":"","pricing_plan_id":"cebpf4jnsgd1na2vs0mg"},{"bike_id":"e105f337-0c58-4f63-a0b8-5c4ff0829f29","system_id":"levelo_inurba_marseille","lat":43.30537,"lon":5.367345,"is_reserved":false,"is_disabled":false,"rental_uris":{"android":"levelo://app?vid=e105f337-0c58-4f63-a0b8-5c4ff0829f29","ios":"levelo://app?vid=e105f337-0c58-4f63-a0b8-5c4ff0829f29"},"vehicle_type_id":"4","last_reported":1718478396,"current_range_meters":0,"station_id":"ce4bgrp2rcd13ifvqc9g","pricing_plan_id":"cebpf4jnsgd1na2vs0mg"},{"bike_id":"8ed0bb9f-30fb-4513-9e46-d07878d04315","system_id":"levelo_inurba_marseille","lat":43.305714,"lon":5.365633,"is_reserved":false,"is_disabled":false,"rental_uris":{"android":"levelo://app?vid=8ed0bb9f-30fb-4513-9e46-d07878d04315","ios":"levelo://app?vid=8ed0bb9f-30fb-4513-9e46-d07878d04315"},"vehicle_type_id":"4","last_reported":1718478396,"current_range_meters":31200,"station_id":"ce4bgs12rcd13ifvqcag","pricing_plan_id":"cebpf4jnsgd1na2vs0mg"},{"bike_id":"391288d4-fed2-4b61-8990-0a4d9493496a","system_id":"levelo_inurba_marseille","lat":43.305989,"lon":5.37225,"is_reserved":false,"is_disabled":false,"rental_uris":{"android":"levelo://app?vid=391288d4-fed2-4b61-8990-0a4d9493496a","ios":"levelo://app?vid=391288d4-fed2-4b61-8990-0a4d9493496a"},"vehicle_type_id":"4","last_reported":1718478396,"current_range_meters":25200,"station_id":"ce4bgqh2rcd13ifvqc4g","pricing_plan_id":"cebpf4jnsgd1na2vs0mg"},{"bike_id":"58343349-82aa-49f5-800a-fca606691701","system_id":"levelo_inurba_marseille","lat":43.311131,"lon":5.377651,"is_reserved":false,"is_disabled":false,"rental_uris":{"android":"levelo://app?vid=58343349-82aa-49f5-800a-fca606691701","ios":"levelo://app?vid=58343349-82aa-49f5-800a-fca606691701"},"vehicle_type_id":"4","last_reported":1718478396,"current_range_meters":7600,"station_id":"ce4bgt92rcd13ifvqcg0","pricing_plan_id":"cebpf4jnsgd1na2vs0mg"},{"bike_id":"028a55ad-3d0e-4bd3-89b2-1c66f7ce4208","system_id":"levelo_inurba_marseille","lat":43.307945,"lon":5.376487,"is_reserved":false,"is_disabled":false,"rental_uris":{"android":"levelo://app?vid=028a55ad-3d0e-4bd3-89b2-1c66f7ce4208","ios":"levelo://app?vid=028a55ad-3d0e-4bd3-89b2-1c66f7ce4208"},"vehicle_type_id":"4","last_reported":1718478396,"current_range_meters":24800,"station_id":"ce4bgv92rcd13ifvqcq0","pricing_plan_id":"cebpf4jnsgd1na2vs0mg"},{"bike_id":"7844e097-3ad7-475d-b61b-e44f909be2f5","system_id":"levelo_inurba_marseille","lat":43.307945,"lon":5.376487,"is_reserved":false,"is_disabled":false,"rental_uris":{"android":"levelo://app?vid=7844e097-3ad7-475d-b61b-e44f909be2f5","ios":"levelo://app?vid=7844e097-3ad7-475d-b61b-e44f909be2f5"},"vehicle_type_id":"4","last_reported":1718478396,"current_range_meters":8400,"station_id":"ce4bgv92rcd13ifvqcq0","pricing_plan_id":"cebpf4jnsgd1na2vs0mg"},{"bike_id":"33a92d1c-9866-4b43-839f-5b02b1bd3c73","system_id":"levelo_inurba_marseille","lat":43.317075,"lon":5.377367,"is_reserved":false,"is_disabled":false,"rental_uris":{"android":"levelo://app?vid=33a92d1c-9866-4b43-839f-5b02b1bd3c73","ios":"levelo://app?vid=33a92d1c-9866-4b43-839f-5b02b1bd3c73"},"vehicle_type_id":"4","last_reported":1718478396,"current_range_meters":13600,"station_id":"ce4bgth2rcd13ifvqch0","pricing_plan_id":"cebpf4jnsgd1na2vs0mg"},{"bike_id":"1b4cb508-1bd0-4abb-90e1-db692453866d","system_id":"levelo_inurba_marseille","lat":43.317075,"lon":5.377367,"is_reserved":false,"is_disabled":false,"rental_uris":{"android":"levelo://app?vid=1b4cb508-1bd0-4abb-90e1-db692453866d","ios":"levelo://app?vid=1b4cb508-1bd0-4abb-90e1-db692453866d"},"vehicle_type_id":"4","last_reported":1718478396,"current_range_meters":20400,"station_id":"ce4bgth2rcd13ifvqch0","pricing_plan_id":"cebpf4jnsgd1na2vs0mg"},{"bike_id":"7e391f6d-054b-4dd4-b71e-da8f130a0581","system_id":"levelo_inurba_marseille","lat":43.305027,"lon":5.375723,"is_reserved":false,"is_disabled":false,"rental_uris":{"android":"levelo://app?vid=7e391f6d-054b-4dd4-b71e-da8f130a0581","ios":"levelo://app?vid=7e391f6d-054b-4dd4-b71e-da8f130a0581"},"vehicle_type_id":"4","last_reported":1718478396,"current_range_meters":7200,"station_id":"","pricing_plan_id":"cebpf4jnsgd1na2vs0mg"},{"bike_id":"d7dc9a28-05e1-44b0-8878-4aad6346fe8a","system_id":"levelo_inurba_marseille","lat":43.301939,"lon":5.366286,"is_reserved":false,"is_disabled":false,"rental_uris":{"android":"levelo://app?vid=d7dc9a28-05e1-44b0-8878-4aad6346fe8a","ios":"levelo://app?vid=d7dc9a28-05e1-44b0-8878-4aad6346fe8a"},"vehicle_type_id":"4","last_reported":1718478396,"current_range_meters":22800,"station_id":"ce4bgrh2rcd13ifvqc8g","pricing_plan_id":"cebpf4jnsgd1na2vs0mg"},{"bike_id":"4b549a52-06e6-45ef-96e4-d338c5840368","system_id":"levelo_inurba_marseille","lat":43.301939,"lon":5.366286,"is_reserved":false,"is_disabled":false,"rental_uris":{"android":"levelo://app?vid=4b549a52-06e6-45ef-96e4-d338c5840368","ios":"levelo://app?vid=4b549a52-06e6-45ef-96e4-d338c5840368"},"vehicle_type_id":"4","last_reported":1718478396,"current_range_meters":21200,"station_id":"ce4bgrh2rcd13ifvqc8g","pricing_plan_id":"cebpf4jnsgd1na2vs0mg"},{"bike_id":"07cb880b-93bb-4ecc-b2b0-75c74e0d7b94","system_id":"levelo_inurba_marseille","lat":43.308012,"lon":5.381511,"is_reserved":false,"is_disabled":false,"rental_uris":{"android":"levelo://app?vid=07cb880b-93bb-4ecc-b2b0-75c74e0d7b94","ios":"levelo://app?vid=07cb880b-93bb-4ecc-b2b0-75c74e0d7b94"},"vehicle_type_id":"4","last_reported":1718478396,"current_range_meters":3600,"station_id":"ce4bgt12rcd13ifvqce0","pricing_plan_id":"cebpf4jnsgd1na2vs0mg"},{"bike_id":"91e65379-4f29-418a-9716-66ddce7b432c","system_id":"levelo_inurba_marseille","lat":43.301078,"lon":5.36705,"is_reserved":false,"is_disabled":false,"rental_uris":{"android":"levelo://app?vid=91e65379-4f29-418a-9716-66ddce7b432c","ios":"levelo://app?vid=91e65379-4f29-418a-9716-66ddce7b432c"},"vehicle_type_id":"4","last_reported":1718478396,"current_range_meters":0,"station_id":"","pricing_plan_id":"cebpf4jnsgd1na2vs0mg"},{"bike_id":"38b2c9e1-4c23-45fd-99ed-bbe9e26de9f4","system_id":"levelo_inurba_marseille","lat":43.324771,"lon":5.36557,"is_reserved":false,"is_disabled":false,"rental_uris":{"android":"levelo://app?vid=38b2c9e1-4c23-45fd-99ed-bbe9e26de9f4","ios":"levelo://app?vid=38b2c9e1-4c23-45fd-99ed-bbe9e26de9f4"},"vehicle_type_id":"4","last_reported":1718478396,"current_range_meters":18000,"station_id":"ce4bhs12rcd13ifvqhvg","pricing_plan_id":"cebpf4jnsgd1na2vs0mg"},{"bike_id":"d46abc99-67ad-4556-ac08-9e7538173fae","system_id":"levelo_inurba_marseille","lat":43.324771,"lon":5.36557,"is_reserved":false,"is_disabled":false,"rental_uris":{"android":"levelo://app?vid=d46abc99-67ad-4556-ac08-9e7538173fae","ios":"levelo://app?vid=d46abc99-67ad-4556-ac08-9e7538173fae"},"vehicle_type_id":"4","last_reported":1718478396,"current_range_meters":21200,"station_id":"ce4bhs12rcd13ifvqhvg","pricing_plan_id":"cebpf4jnsgd1na2vs0mg"},{"bike_id":"0bd7e063-1a25-4aae-af49-2f3318c320b1","system_id":"levelo_inurba_marseille","lat":43.324771,"lon":5.36557,"is_reserved":false,"is_disabled":false,"rental_uris":{"android":"levelo://app?vid=0bd7e063-1a25-4aae-af49-2f3318c320b1","ios":"levelo://app?vid=0bd7e063-1a25-4aae-af49-2f3318c320b1"},"vehicle_type_id":"4","last_reported":1718478396,"current_range_meters":15200,"station_id":"ce4bhs12rcd13ifvqhvg","pricing_plan_id":"cebpf4jnsgd1na2vs0mg"},{"bike_id":"c1f62fdd-d038-4e9b-b660-fdbcc84b953e","system_id":"levelo_inurba_marseille","lat":43.32488,"lon":5.36566,"is_reserved":false,"is_disabled":false,"rental_uris":{"android":"levelo://app?vid=c1f62fdd-d038-4e9b-b660-fdbcc84b953e","ios":"levelo://app?vid=c1f62fdd-d038-4e9b-b660-fdbcc84b953e"},"vehicle_type_id":"4","last_reported":1718478396,"current_range_meters":0,"station_id":"ce4bhs12rcd13ifvqhvg","pricing_plan_id":"cebpf4jnsgd1na2vs0mg"},{"bike_id":"58fa8cf3-1406-4e3f-9bf8-b9a2d652a3e8","system_id":"levelo_inurba_marseille","lat":43.310804,"lon":5.38359,"is_reserved":false,"is_disabled":false,"rental_uris":{"android":"levelo://app?vid=58fa8cf3-1406-4e3f-9bf8-b9a2d652a3e8","ios":"levelo://app?vid=58fa8cf3-1406-4e3f-9bf8-b9a2d652a3e8"},"vehicle_type_id":"4","last_reported":1718478396,"current_range_meters":0,"station_id":"ce4bgv92rcd13ifvqcr0","pricing_plan_id":"cebpf4jnsgd1na2vs0mg"},{"bike_id":"8ec52dbf-4326-4a91-bf52-f3e032333ccf","system_id":"levelo_inurba_marseille","lat":43.310804,"lon":5.38359,"is_reserved":false,"is_disabled":false,"rental_uris":{"android":"levelo://app?vid=8ec52dbf-4326-4a91-bf52-f3e032333ccf","ios":"levelo://app?vid=8ec52dbf-4326-4a91-bf52-f3e032333ccf"},"vehicle_type_id":"4","last_reported":1718478396,"current_range_meters":4000,"station_id":"ce4bgv92rcd13ifvqcr0","pricing_plan_id":"cebpf4jnsgd1na2vs0mg"},{"bike_id":"58fa3274-45ce-4350-95ed-eabbcbaae25d","system_id":"levelo_inurba_marseille","lat":43.302784,"lon":5.377158,"is_reserved":false,"is_disabled":false,"rental_uris":{"android":"levelo://app?vid=58fa3274-45ce-4350-95ed-eabbcbaae25d","ios":"levelo://app?vid=58fa3274-45ce-4350-95ed-eabbcbaae25d"},"vehicle_type_id":"4","last_reported":1718478396,"current_range_meters":28800,"station_id":"ce4bguh2rcd13ifvqcj0","pricing_plan_id":"cebpf4jnsgd1na2vs0mg"},{"bike_id":"b1b168f9-53a3-4ee9-9e3a-fb09868f1458","system_id":"levelo_inurba_marseille","lat":43.30141,"lon":5.3742,"is_reserved":false,"is_disabled":false,"rental_uris":{"android":"levelo://app?vid=b1b168f9-53a3-4ee9-9e3a-fb09868f1458","ios":"levelo://app?vid=b1b168f9-53a3-4ee9-9e3a-fb09868f1458"},"vehicle_type_id":"4","last_reported":1718478396,"current_range_meters":0,"station_id":"ce4bgs92rcd13ifvqcc0","pricing_plan_id":"cebpf4jnsgd1na2vs0mg"},{"bike_id":"30b3d114-7fc4-4b9e-b233-331e99125d43","system_id":"levelo_inurba_marseille","lat":43.319935,"lon":5.381699,"is_reserved":false,"is_disabled":false,"rental_uris":{"android":"levelo://app?vid=30b3d114-7fc4-4b9e-b233-331e99125d43","ios":"levelo://app?vid=30b3d114-7fc4-4b9e-b233-331e99125d43"},"vehicle_type_id":"4","last_reported":1718478396,"current_range_meters":14400,"station_id":"ce4bhr12rcd13ifvqhpg","pricing_plan_id":"cebpf4jnsgd1na2vs0mg"},{"bike_id":"3b477e3a-6ece-46c2-a3d0-f434ed507e91","system_id":"levelo_inurba_marseille","lat":43.319935,"lon":5.381699,"is_reserved":false,"is_disabled":false,"rental_uris":{"android":"levelo://app?vid=3b477e3a-6ece-46c2-a3d0-f434ed507e91","ios":"levelo://app?vid=3b477e3a-6ece-46c2-a3d0-f434ed507e91"},"vehicle_type_id":"4","last_reported":1718478396,"current_range_meters":0,"station_id":"ce4bhr12rcd13ifvqhpg","pricing_plan_id":"cebpf4jnsgd1na2vs0mg"},{"bike_id":"e0ecd3c8-a0fa-467c-9985-e43f88625716","system_id":"levelo_inurba_marseille","lat":43.313571,"lon":5.384829,"is_reserved":false,"is_disabled":false,"rental_uris":{"android":"levelo://app?vid=e0ecd3c8-a0fa-467c-9985-e43f88625716","ios":"levelo://app?vid=e0ecd3c8-a0fa-467c-9985-e43f88625716"},"vehicle_type_id":"4","last_reported":1718478396,"current_range_meters":27600,"station_id":"ce4bgt92rcd13ifvqcf0","pricing_plan_id":"cebpf4jnsgd1na2vs0mg"},{"bike_id":"e214c535-f8f3-421c-8e42-04e36fb19963","system_id":"levelo_inurba_marseille","lat":43.313701,"lon":5.384895,"is_reserved":false,"is_disabled":false,"rental_uris":{"android":"levelo://app?vid=e214c535-f8f3-421c-8e42-04e36fb19963","ios":"levelo://app?vid=e214c535-f8f3-421c-8e42-04e36fb19963"},"vehicle_type_id":"4","last_reported":1718478396,"current_range_meters":0,"station_id":"ce4bgt92rcd13ifvqcf0","pricing_plan_id":"cebpf4jnsgd1na2vs0mg"},{"bike_id":"19fbc8e3-e4c5-46ce-8ac7-41d0314da69e","system_id":"levelo_inurba_marseille","lat":43.2998,"lon":5.371969,"is_reserved":false,"is_disabled":false,"rental_uris":{"android":"levelo://app?vid=19fbc8e3-e4c5-46ce-8ac7-41d0314da69e","ios":"levelo://app?vid=19fbc8e3-e4c5-46ce-8ac7-41d0314da69e"},"vehicle_type_id":"4","last_reported":1718478396,"current_range_meters":30000,"station_id":"ce4bgr92rcd13ifvqc7g","pricing_plan_id":"cebpf4jnsgd1na2vs0mg"},{"bike_id":"70ca8f80-6f30-4df0-a681-e0d11f96abf8","system_id":"levelo_inurba_marseille","lat":43.299222,"lon":5.365554,"is_reserved":false,"is_disabled":false,"rental_uris":{"android":"levelo://app?vid=70ca8f80-6f30-4df0-a681-e0d11f96abf8","ios":"levelo://app?vid=70ca8f80-6f30-4df0-a681-e0d11f96abf8"},"vehicle_type_id":"4","last_reported":1718478396,"current_range_meters":800,"station_id":"ce4bgm92rcd13ifvqbr0","pricing_plan_id":"cebpf4jnsgd1na2vs0mg"},{"bike_id":"0412616d-6b88-475d-9efa-59d744277d11","system_id":"levelo_inurba_marseille","lat":43.299554,"lon":5.370735,"is_reserved":false,"is_disabled":false,"rental_uris":{"android":"levelo://app?vid=0412616d-6b88-475d-9efa-59d744277d11","ios":"levelo://app?vid=0412616d-6b88-475d-9efa-59d744277d11"},"vehicle_type_id":"4","last_reported":1718478396,"current_range_meters":13600,"station_id":"","pricing_plan_id":"cebpf4jnsgd1na2vs0mg"},{"bike_id":"49e32c55-54fc-4d65-afbc-3083103f4cbf","system_id":"levelo_inurba_marseille","lat":43.29937,"lon":5.37467,"is_reserved":false,"is_disabled":false,"rental_uris":{"android":"levelo://app?vid=49e32c55-54fc-4d65-afbc-3083103f4cbf","ios":"levelo://app?vid=49e32c55-54fc-4d65-afbc-3083103f4cbf"},"vehicle_type_id":"4","last_reported":1718478396,"current_range_meters":0,"station_id":"","pricing_plan_id":"cebpf4jnsgd1na2vs0mg"},{"bike_id":"25edf8e3-ca1f-4981-bff5-3b354a291432","system_id":"levelo_inurba_marseille","lat":43.305364,"lon":5.384119,"is_reserved":false,"is_disabled":false,"rental_uris":{"android":"levelo://app?vid=25edf8e3-ca1f-4981-bff5-3b354a291432","ios":"levelo://app?vid=25edf8e3-ca1f-4981-bff5-3b354a291432"},"vehicle_type_id":"4","last_reported":1718478396,"current_range_meters":0,"station_id":"ce4bgg92rcd13ifvqb30","pricing_plan_id":"cebpf4jnsgd1na2vs0mg"},{"bike_id":"2ab6e4db-15e1-449f-ae45-0cabf8ae7a94","system_id":"levelo_inurba_marseille","lat":43.298433,"lon":5.362774,"is_reserved":false,"is_disabled":false,"rental_uris":{"android":"levelo://app?vid=2ab6e4db-15e1-449f-ae45-0cabf8ae7a94","ios":"levelo://app?vid=2ab6e4db-15e1-449f-ae45-0cabf8ae7a94"},"vehicle_type_id":"4","last_reported":1718478396,"current_range_meters":3600,"station_id":"ce4bgpp2rcd13ifvqc3g","pricing_plan_id":"cebpf4jnsgd1na2vs0mg"},{"bike_id":"b6003413-2510-4ba6-926e-c877228758f4","system_id":"levelo_inurba_marseille","lat":43.298412,"lon":5.363098,"is_reserved":false,"is_disabled":false,"rental_uris":{"android":"levelo://app?vid=b6003413-2510-4ba6-926e-c877228758f4","ios":"levelo://app?vid=b6003413-2510-4ba6-926e-c877228758f4"},"vehicle_type_id":"4","last_reported":1718478396,"current_range_meters":400,"station_id":"ce4bgpp2rcd13ifvqc3g","pricing_plan_id":"cebpf4jnsgd1na2vs0mg"},{"bike_id":"78882f83-6502-4666-92c2-0c113f0990b2","system_id":"levelo_inurba_marseille","lat":43.298433,"lon":5.362774,"is_reserved":false,"is_disabled":false,"rental_uris":{"android":"levelo://app?vid=78882f83-6502-4666-92c2-0c113f0990b2","ios":"levelo://app?vid=78882f83-6502-4666-92c2-0c113f0990b2"},"vehicle_type_id":"4","last_reported":1718478396,"current_range_meters":7200,"station_id":"ce4bgpp2rcd13ifvqc3g","pricing_plan_id":"cebpf4jnsgd1na2vs0mg"},{"bike_id":"6cd49c64-7014-4ff3-ac02-e6dda93fa892","system_id":"levelo_inurba_marseille","lat":43.311722,"lon":5.387247,"is_reserved":false,"is_disabled":false,"rental_uris":{"android":"levelo://app?vid=6cd49c64-7014-4ff3-ac02-e6dda93fa892","ios":"levelo://app?vid=6cd49c64-7014-4ff3-ac02-e6dda93fa892"},"vehicle_type_id":"4","last_reported":1718478396,"current_range_meters":0,"station_id":"ce4bgv12rcd13ifvqcp0","pricing_plan_id":"cebpf4jnsgd1na2vs0mg"},{"bike_id":"5eadd7d6-79ee-436e-bde8-a4f8440266d3","system_id":"levelo_inurba_marseille","lat":43.311722,"lon":5.387247,"is_reserved":false,"is_disabled":false,"rental_uris":{"android":"levelo://app?vid=5eadd7d6-79ee-436e-bde8-a4f8440266d3","ios":"levelo://app?vid=5eadd7d6-79ee-436e-bde8-a4f8440266d3"},"vehicle_type_id":"4","last_reported":1718478396,"current_range_meters":26000,"station_id":"ce4bgv12rcd13ifvqcp0","pricing_plan_id":"cebpf4jnsgd1na2vs0mg"},{"bike_id":"856fc6ce-e43e-49ec-947d-b5984c08b75d","system_id":"levelo_inurba_marseille","lat":43.311722,"lon":5.387247,"is_reserved":false,"is_disabled":false,"rental_uris":{"android":"levelo://app?vid=856fc6ce-e43e-49ec-947d-b5984c08b75d","ios":"levelo://app?vid=856fc6ce-e43e-49ec-947d-b5984c08b75d"},"vehicle_type_id":"4","last_reported":1718478396,"current_range_meters":1200,"station_id":"ce4bgv12rcd13ifvqcp0","pricing_plan_id":"cebpf4jnsgd1na2vs0mg"},{"bike_id":"dd5c51c6-866c-48b0-a5d0-4b765d7e90ce","system_id":"levelo_inurba_marseille","lat":43.311722,"lon":5.387247,"is_reserved":false,"is_disabled":false,"rental_uris":{"android":"levelo://app?vid=dd5c51c6-866c-48b0-a5d0-4b765d7e90ce","ios":"levelo://app?vid=dd5c51c6-866c-48b0-a5d0-4b765d7e90ce"},"vehicle_type_id":"4","last_reported":1718478396,"current_range_meters":0,"station_id":"ce4bgv12rcd13ifvqcp0","pricing_plan_id":"cebpf4jnsgd1na2vs0mg"},{"bike_id":"2b7f50ab-7a7b-4ad0-b16f-351ee1c13d85","system_id":"levelo_inurba_marseille","lat":43.295748,"lon":5.37522,"is_reserved":false,"is_disabled":false,"rental_uris":{"android":"levelo://app?vid=2b7f50ab-7a7b-4ad0-b16f-351ee1c13d85","ios":"levelo://app?vid=2b7f50ab-7a7b-4ad0-b16f-351ee1c13d85"},"vehicle_type_id":"4","last_reported":1718478396,"current_range_meters":0,"station_id":"ce4bgh92rcd13ifvqb50","pricing_plan_id":"cebpf4jnsgd1na2vs0mg"},{"bike_id":"1653cb61-d3bc-4f8b-bf7a-522141f9253c","system_id":"levelo_inurba_marseille","lat":43.322872,"lon":5.382756,"is_reserved":false,"is_disabled":false,"rental_uris":{"android":"levelo://app?vid=1653cb61-d3bc-4f8b-bf7a-522141f9253c","ios":"levelo://app?vid=1653cb61-d3bc-4f8b-bf7a-522141f9253c"},"vehicle_type_id":"4","last_reported":1718478396,"current_range_meters":7200,"station_id":"ce4bhr12rcd13ifvqhqg","pricing_plan_id":"cebpf4jnsgd1na2vs0mg"},{"bike_id":"d0fac89a-7998-4f3e-bfcf-d48f3b158015","system_id":"levelo_inurba_marseille","lat":43.322872,"lon":5.382756,"is_reserved":false,"is_disabled":false,"rental_uris":{"android":"levelo://app?vid=d0fac89a-7998-4f3e-bfcf-d48f3b158015","ios":"levelo://app?vid=d0fac89a-7998-4f3e-bfcf-d48f3b158015"},"vehicle_type_id":"4","last_reported":1718478396,"current_range_meters":2000,"station_id":"ce4bhr12rcd13ifvqhqg","pricing_plan_id":"cebpf4jnsgd1na2vs0mg"},{"bike_id":"f90e6483-2812-47e0-953b-27799e1add07","system_id":"levelo_inurba_marseille","lat":43.322872,"lon":5.382756,"is_reserved":false,"is_disabled":false,"rental_uris":{"android":"levelo://app?vid=f90e6483-2812-47e0-953b-27799e1add07","ios":"levelo://app?vid=f90e6483-2812-47e0-953b-27799e1add07"},"vehicle_type_id":"4","last_reported":1718478396,"current_range_meters":6800,"station_id":"ce4bhr12rcd13ifvqhqg","pricing_plan_id":"cebpf4jnsgd1na2vs0mg"},{"bike_id":"6b579696-eae5-4181-8adc-1a50ad944493","system_id":"levelo_inurba_marseille","lat":43.297794,"lon":5.370888,"is_reserved":false,"is_disabled":false,"rental_uris":{"android":"levelo://app?vid=6b579696-eae5-4181-8adc-1a50ad944493","ios":"levelo://app?vid=6b579696-eae5-4181-8adc-1a50ad944493"},"vehicle_type_id":"4","last_reported":1718478396,"current_range_meters":1600,"station_id":"ce4bgop2rcd13ifvqc1g","pricing_plan_id":"cebpf4jnsgd1na2vs0mg"},{"bike_id":"3cf9f854-a2fd-4fc2-8876-e6c225edc89d","system_id":"levelo_inurba_marseille","lat":43.297163,"lon":5.365866,"is_reserved":false,"is_disabled":false,"rental_uris":{"android":"levelo://app?vid=3cf9f854-a2fd-4fc2-8876-e6c225edc89d","ios":"levelo://app?vid=3cf9f854-a2fd-4fc2-8876-e6c225edc89d"},"vehicle_type_id":"4","last_reported":1718478396,"current_range_meters":15600,"station_id":"ce4bgn12rcd13ifvqbt0","pricing_plan_id":"cebpf4jnsgd1na2vs0mg"},{"bike_id":"8029ecd1-33e2-4630-a400-989116e1b619","system_id":"levelo_inurba_marseille","lat":43.323393,"lon":5.382883,"is_reserved":false,"is_disabled":false,"rental_uris":{"android":"levelo://app?vid=8029ecd1-33e2-4630-a400-989116e1b619","ios":"levelo://app?vid=8029ecd1-33e2-4630-a400-989116e1b619"},"vehicle_type_id":"4","last_reported":1718478396,"current_range_meters":30000,"station_id":"","pricing_plan_id":"cebpf4jnsgd1na2vs0mg"},{"bike_id":"bc9a7f62-b925-4e5b-a3ba-a5a38804c91b","system_id":"levelo_inurba_marseille","lat":43.32386,"lon":5.38361,"is_reserved":false,"is_disabled":false,"rental_uris":{"android":"levelo://app?vid=bc9a7f62-b925-4e5b-a3ba-a5a38804c91b","ios":"levelo://app?vid=bc9a7f62-b925-4e5b-a3ba-a5a38804c91b"},"vehicle_type_id":"4","last_reported":1718478396,"current_range_meters":0,"station_id":"","pricing_plan_id":"cebpf4jnsgd1na2vs0mg"},{"bike_id":"8662b522-8593-408b-9c58-81c6e4bf6fca","system_id":"levelo_inurba_marseille","lat":43.29615,"lon":5.37156,"is_reserved":false,"is_disabled":false,"rental_uris":{"android":"levelo://app?vid=8662b522-8593-408b-9c58-81c6e4bf6fca","ios":"levelo://app?vid=8662b522-8593-408b-9c58-81c6e4bf6fca"},"vehicle_type_id":"4","last_reported":1718478396,"current_range_meters":0,"station_id":"ce4bgnh2rcd13ifvqc0g","pricing_plan_id":"cebpf4jnsgd1na2vs0mg"},{"bike_id":"65106f21-4d0e-4e1b-925b-be918b45496f","system_id":"levelo_inurba_marseille","lat":43.29579,"lon":5.36745,"is_reserved":false,"is_disabled":false,"rental_uris":{"android":"levelo://app?vid=65106f21-4d0e-4e1b-925b-be918b45496f","ios":"levelo://app?vid=65106f21-4d0e-4e1b-925b-be918b45496f"},"vehicle_type_id":"4","last_reported":1718478396,"current_range_meters":19600,"station_id":"ce4bgph2rcd13ifvqc2g","pricing_plan_id":"cebpf4jnsgd1na2vs0mg"},{"bike_id":"16e43934-387b-4fb9-9b55-3dc16e69d1c2","system_id":"levelo_inurba_marseille","lat":43.29573,"lon":5.367355,"is_reserved":false,"is_disabled":false,"rental_uris":{"android":"levelo://app?vid=16e43934-387b-4fb9-9b55-3dc16e69d1c2","ios":"levelo://app?vid=16e43934-387b-4fb9-9b55-3dc16e69d1c2"},"vehicle_type_id":"4","last_reported":1718478396,"current_range_meters":18800,"station_id":"ce4bgph2rcd13ifvqc2g","pricing_plan_id":"cebpf4jnsgd1na2vs0mg"},{"bike_id":"82612d0b-d4d8-4754-9568-2d41f610f20f","system_id":"levelo_inurba_marseille","lat":43.295717,"lon":5.367299,"is_reserved":false,"is_disabled":false,"rental_uris":{"android":"levelo://app?vid=82612d0b-d4d8-4754-9568-2d41f610f20f","ios":"levelo://app?vid=82612d0b-d4d8-4754-9568-2d41f610f20f"},"vehicle_type_id":"4","last_reported":1718478396,"current_range_meters":30000,"station_id":"ce4bgph2rcd13ifvqc2g","pricing_plan_id":"cebpf4jnsgd1na2vs0mg"},{"bike_id":"c7141b03-c3af-4c4e-831f-f40bcac0d178","system_id":"levelo_inurba_marseille","lat":43.309589,"lon":5.390258,"is_reserved":false,"is_disabled":false,"rental_uris":{"android":"levelo://app?vid=c7141b03-c3af-4c4e-831f-f40bcac0d178","ios":"levelo://app?vid=c7141b03-c3af-4c4e-831f-f40bcac0d178"},"vehicle_type_id":"4","last_reported":1718478396,"current_range_meters":26800,"station_id":"ce4bgup2rcd13ifvqco0","pricing_plan_id":"cebpf4jnsgd1na2vs0mg"},{"bike_id":"3c01c994-a0d4-42c2-98d2-a9298a4977f4","system_id":"levelo_inurba_marseille","lat":43.309589,"lon":5.390258,"is_reserved":false,"is_disabled":false,"rental_uris":{"android":"levelo://app?vid=3c01c994-a0d4-42c2-98d2-a9298a4977f4","ios":"levelo://app?vid=3c01c994-a0d4-42c2-98d2-a9298a4977f4"},"vehicle_type_id":"4","last_reported":1718478396,"current_range_meters":0,"station_id":"ce4bgup2rcd13ifvqco0","pricing_plan_id":"cebpf4jnsgd1na2vs0mg"},{"bike_id":"31f8c6a0-5507-476a-b054-508c65f101da","system_id":"levelo_inurba_marseille","lat":43.30959,"lon":5.39031,"is_reserved":false,"is_disabled":false,"rental_uris":{"android":"levelo://app?vid=31f8c6a0-5507-476a-b054-508c65f101da","ios":"levelo://app?vid=31f8c6a0-5507-476a-b054-508c65f101da"},"vehicle_type_id":"4","last_reported":1718478396,"current_range_meters":22800,"station_id":"ce4bgup2rcd13ifvqco0","pricing_plan_id":"cebpf4jnsgd1na2vs0mg"},{"bike_id":"27bdae7c-a73e-4146-97b7-f12cab6fec8a","system_id":"levelo_inurba_marseille","lat":43.30949,"lon":5.39032,"is_reserved":false,"is_disabled":false,"rental_uris":{"android":"levelo://app?vid=27bdae7c-a73e-4146-97b7-f12cab6fec8a","ios":"levelo://app?vid=27bdae7c-a73e-4146-97b7-f12cab6fec8a"},"vehicle_type_id":"4","last_reported":1718478396,"current_range_meters":5600,"station_id":"ce4bgup2rcd13ifvqco0","pricing_plan_id":"cebpf4jnsgd1na2vs0mg"},{"bike_id":"8f8b69d4-eac4-49a8-9537-7819ed7dbaad","system_id":"levelo_inurba_marseille","lat":43.309589,"lon":5.390258,"is_reserved":false,"is_disabled":false,"rental_uris":{"android":"levelo://app?vid=8f8b69d4-eac4-49a8-9537-7819ed7dbaad","ios":"levelo://app?vid=8f8b69d4-eac4-49a8-9537-7819ed7dbaad"},"vehicle_type_id":"4","last_reported":1718478396,"current_range_meters":26800,"station_id":"ce4bgup2rcd13ifvqco0","pricing_plan_id":"cebpf4jnsgd1na2vs0mg"},{"bike_id":"1b8db52b-b42d-4c5e-9e07-7e26684ab1d7","system_id":"levelo_inurba_marseille","lat":43.309589,"lon":5.390258,"is_reserved":false,"is_disabled":false,"rental_uris":{"android":"levelo://app?vid=1b8db52b-b42d-4c5e-9e07-7e26684ab1d7","ios":"levelo://app?vid=1b8db52b-b42d-4c5e-9e07-7e26684ab1d7"},"vehicle_type_id":"4","last_reported":1718478396,"current_range_meters":14400,"station_id":"ce4bgup2rcd13ifvqco0","pricing_plan_id":"cebpf4jnsgd1na2vs0mg"},{"bike_id":"5af39815-ef56-4e85-bc0f-7528e95a6ae9","system_id":"levelo_inurba_marseille","lat":43.309589,"lon":5.390258,"is_reserved":false,"is_disabled":false,"rental_uris":{"android":"levelo://app?vid=5af39815-ef56-4e85-bc0f-7528e95a6ae9","ios":"levelo://app?vid=5af39815-ef56-4e85-bc0f-7528e95a6ae9"},"vehicle_type_id":"4","last_reported":1718478396,"current_range_meters":3600,"station_id":"ce4bgup2rcd13ifvqco0","pricing_plan_id":"cebpf4jnsgd1na2vs0mg"},{"bike_id":"c91a68ee-2af9-49f6-b329-c2386032d3d3","system_id":"levelo_inurba_marseille","lat":43.309589,"lon":5.390258,"is_reserved":false,"is_disabled":false,"rental_uris":{"android":"levelo://app?vid=c91a68ee-2af9-49f6-b329-c2386032d3d3","ios":"levelo://app?vid=c91a68ee-2af9-49f6-b329-c2386032d3d3"},"vehicle_type_id":"4","last_reported":1718478396,"current_range_meters":22000,"station_id":"ce4bgup2rcd13ifvqco0","pricing_plan_id":"cebpf4jnsgd1na2vs0mg"},{"bike_id":"3951e1de-854b-42e7-a3a8-dd4764288523","system_id":"levelo_inurba_marseille","lat":43.309589,"lon":5.390258,"is_reserved":false,"is_disabled":false,"rental_uris":{"android":"levelo://app?vid=3951e1de-854b-42e7-a3a8-dd4764288523","ios":"levelo://app?vid=3951e1de-854b-42e7-a3a8-dd4764288523"},"vehicle_type_id":"4","last_reported":1718478396,"current_range_meters":0,"station_id":"ce4bgup2rcd13ifvqco0","pricing_plan_id":"cebpf4jnsgd1na2vs0mg"},{"bike_id":"10599321-6128-4fc7-894e-866063062a67","system_id":"levelo_inurba_marseille","lat":43.309589,"lon":5.390258,"is_reserved":false,"is_disabled":false,"rental_uris":{"android":"levelo://app?vid=10599321-6128-4fc7-894e-866063062a67","ios":"levelo://app?vid=10599321-6128-4fc7-894e-866063062a67"},"vehicle_type_id":"4","last_reported":1718478396,"current_range_meters":14800,"station_id":"ce4bgup2rcd13ifvqco0","pricing_plan_id":"cebpf4jnsgd1na2vs0mg"},{"bike_id":"3f784fa3-dda0-4616-8716-2b295e17660c","system_id":"levelo_inurba_marseille","lat":43.295748,"lon":5.37522,"is_reserved":false,"is_disabled":false,"rental_uris":{"android":"levelo://app?vid=3f784fa3-dda0-4616-8716-2b295e17660c","ios":"levelo://app?vid=3f784fa3-dda0-4616-8716-2b295e17660c"},"vehicle_type_id":"4","last_reported":1718478396,"current_range_meters":14800,"station_id":"ce4bgh92rcd13ifvqb50","pricing_plan_id":"cebpf4jnsgd1na2vs0mg"},{"bike_id":"02965395-deb4-4f04-aa47-f5158d558164","system_id":"levelo_inurba_marseille","lat":43.304274,"lon":5.388873,"is_reserved":false,"is_disabled":false,"rental_uris":{"android":"levelo://app?vid=02965395-deb4-4f04-aa47-f5158d558164","ios":"levelo://app?vid=02965395-deb4-4f04-aa47-f5158d558164"},"vehicle_type_id":"4","last_reported":1718478396,"current_range_meters":0,"station_id":"ce4bgk12rcd13ifvqbi0","pricing_plan_id":"cebpf4jnsgd1na2vs0mg"},{"bike_id":"076a8eef-91ef-469a-a2c2-d27d4e9d1966","system_id":"levelo_inurba_marseille","lat":43.296277,"lon":5.377108,"is_reserved":false,"is_disabled":false,"rental_uris":{"android":"levelo://app?vid=076a8eef-91ef-469a-a2c2-d27d4e9d1966","ios":"levelo://app?vid=076a8eef-91ef-469a-a2c2-d27d4e9d1966"},"vehicle_type_id":"4","last_reported":1718478396,"current_range_meters":0,"station_id":"ce4bgi92rcd13ifvqb90","pricing_plan_id":"cebpf4jnsgd1na2vs0mg"},{"bike_id":"1fcd934c-6ae2-48a1-b5a7-808aa830b0f0","system_id":"levelo_inurba_marseille","lat":43.299707,"lon":5.384859,"is_reserved":false,"is_disabled":false,"rental_uris":{"android":"levelo://app?vid=1fcd934c-6ae2-48a1-b5a7-808aa830b0f0","ios":"levelo://app?vid=1fcd934c-6ae2-48a1-b5a7-808aa830b0f0"},"vehicle_type_id":"4","last_reported":1718478396,"current_range_meters":1200,"station_id":"ce4bgj92rcd13ifvqbd0","pricing_plan_id":"cebpf4jnsgd1na2vs0mg"},{"bike_id":"e2338d2f-477e-442c-86c1-813731e02424","system_id":"levelo_inurba_marseille","lat":43.299222,"lon":5.365554,"is_reserved":false,"is_disabled":false,"rental_uris":{"android":"levelo://app?vid=e2338d2f-477e-442c-86c1-813731e02424","ios":"levelo://app?vid=e2338d2f-477e-442c-86c1-813731e02424"},"vehicle_type_id":"4","last_reported":1718478396,"current_range_meters":13200,"station_id":"ce4bgm92rcd13ifvqbr0","pricing_plan_id":"cebpf4jnsgd1na2vs0mg"},{"bike_id":"62ca206f-8564-4458-9431-a2c4d5cc75fb","system_id":"levelo_inurba_marseille","lat":43.32367,"lon":5.388836,"is_reserved":false,"is_disabled":false,"rental_uris":{"android":"levelo://app?vid=62ca206f-8564-4458-9431-a2c4d5cc75fb","ios":"levelo://app?vid=62ca206f-8564-4458-9431-a2c4d5cc75fb"},"vehicle_type_id":"4","last_reported":1718478396,"current_range_meters":11200,"station_id":"ce4bhqp2rcd13ifvqhog","pricing_plan_id":"cebpf4jnsgd1na2vs0mg"},{"bike_id":"cdcb4623-6523-4b9f-88f1-7bd66f1a2926","system_id":"levelo_inurba_marseille","lat":43.32367,"lon":5.388836,"is_reserved":false,"is_disabled":false,"rental_uris":{"android":"levelo://app?vid=cdcb4623-6523-4b9f-88f1-7bd66f1a2926","ios":"levelo://app?vid=cdcb4623-6523-4b9f-88f1-7bd66f1a2926"},"vehicle_type_id":"4","last_reported":1718478396,"current_range_meters":6000,"station_id":"ce4bhqp2rcd13ifvqhog","pricing_plan_id":"cebpf4jnsgd1na2vs0mg"},{"bike_id":"74f26dcd-bfdf-4a63-8a81-4e414d151e0b","system_id":"levelo_inurba_marseille","lat":43.32367,"lon":5.388836,"is_reserved":false,"is_disabled":false,"rental_uris":{"android":"levelo://app?vid=74f26dcd-bfdf-4a63-8a81-4e414d151e0b","ios":"levelo://app?vid=74f26dcd-bfdf-4a63-8a81-4e414d151e0b"},"vehicle_type_id":"4","last_reported":1718478396,"current_range_meters":14800,"station_id":"ce4bhqp2rcd13ifvqhog","pricing_plan_id":"cebpf4jnsgd1na2vs0mg"},{"bike_id":"ca70883b-2b89-4d23-ad36-32dac2efb269","system_id":"levelo_inurba_marseille","lat":43.32367,"lon":5.388836,"is_reserved":false,"is_disabled":false,"rental_uris":{"android":"levelo://app?vid=ca70883b-2b89-4d23-ad36-32dac2efb269","ios":"levelo://app?vid=ca70883b-2b89-4d23-ad36-32dac2efb269"},"vehicle_type_id":"4","last_reported":1718478396,"current_range_meters":7600,"station_id":"ce4bhqp2rcd13ifvqhog","pricing_plan_id":"cebpf4jnsgd1na2vs0mg"},{"bike_id":"d86f7998-7a25-40fb-a0d1-14387a955595","system_id":"levelo_inurba_marseille","lat":43.32367,"lon":5.388836,"is_reserved":false,"is_disabled":false,"rental_uris":{"android":"levelo://app?vid=d86f7998-7a25-40fb-a0d1-14387a955595","ios":"levelo://app?vid=d86f7998-7a25-40fb-a0d1-14387a955595"},"vehicle_type_id":"4","last_reported":1718478396,"current_range_meters":1600,"station_id":"ce4bhqp2rcd13ifvqhog","pricing_plan_id":"cebpf4jnsgd1na2vs0mg"},{"bike_id":"5ecf71d5-5cdf-4eb5-ab30-1a550a99891b","system_id":"levelo_inurba_marseille","lat":43.3237,"lon":5.38879,"is_reserved":false,"is_disabled":false,"rental_uris":{"android":"levelo://app?vid=5ecf71d5-5cdf-4eb5-ab30-1a550a99891b","ios":"levelo://app?vid=5ecf71d5-5cdf-4eb5-ab30-1a550a99891b"},"vehicle_type_id":"4","last_reported":1718478396,"current_range_meters":16000,"station_id":"ce4bhqp2rcd13ifvqhog","pricing_plan_id":"cebpf4jnsgd1na2vs0mg"},{"bike_id":"cdabc271-09f4-423b-83b3-988e1f8d6899","system_id":"levelo_inurba_marseille","lat":43.32367,"lon":5.388836,"is_reserved":false,"is_disabled":false,"rental_uris":{"android":"levelo://app?vid=cdabc271-09f4-423b-83b3-988e1f8d6899","ios":"levelo://app?vid=cdabc271-09f4-423b-83b3-988e1f8d6899"},"vehicle_type_id":"4","last_reported":1718478396,"current_range_meters":8800,"station_id":"ce4bhqp2rcd13ifvqhog","pricing_plan_id":"cebpf4jnsgd1na2vs0mg"},{"bike_id":"b223bc15-e04a-4398-b813-57bfeb2dded9","system_id":"levelo_inurba_marseille","lat":43.32367,"lon":5.388836,"is_reserved":false,"is_disabled":false,"rental_uris":{"android":"levelo://app?vid=b223bc15-e04a-4398-b813-57bfeb2dded9","ios":"levelo://app?vid=b223bc15-e04a-4398-b813-57bfeb2dded9"},"vehicle_type_id":"4","last_reported":1718478396,"current_range_meters":20000,"station_id":"ce4bhqp2rcd13ifvqhog","pricing_plan_id":"cebpf4jnsgd1na2vs0mg"},{"bike_id":"f4420b61-33fc-4f30-8716-5973b186ee29","system_id":"levelo_inurba_marseille","lat":43.32364,"lon":5.38887,"is_reserved":false,"is_disabled":false,"rental_uris":{"android":"levelo://app?vid=f4420b61-33fc-4f30-8716-5973b186ee29","ios":"levelo://app?vid=f4420b61-33fc-4f30-8716-5973b186ee29"},"vehicle_type_id":"4","last_reported":1718478396,"current_range_meters":5600,"station_id":"ce4bhqp2rcd13ifvqhog","pricing_plan_id":"cebpf4jnsgd1na2vs0mg"},{"bike_id":"3b29fd31-1a15-408a-9859-999a92754cdf","system_id":"levelo_inurba_marseille","lat":43.323626,"lon":5.388888,"is_reserved":false,"is_disabled":false,"rental_uris":{"android":"levelo://app?vid=3b29fd31-1a15-408a-9859-999a92754cdf","ios":"levelo://app?vid=3b29fd31-1a15-408a-9859-999a92754cdf"},"vehicle_type_id":"4","last_reported":1718478396,"current_range_meters":5200,"station_id":"ce4bhqp2rcd13ifvqhog","pricing_plan_id":"cebpf4jnsgd1na2vs0mg"},{"bike_id":"667e898e-fe25-421d-8814-20c44f849d13","system_id":"levelo_inurba_marseille","lat":43.32366,"lon":5.38886,"is_reserved":false,"is_disabled":false,"rental_uris":{"android":"levelo://app?vid=667e898e-fe25-421d-8814-20c44f849d13","ios":"levelo://app?vid=667e898e-fe25-421d-8814-20c44f849d13"},"vehicle_type_id":"4","last_reported":1718478396,"current_range_meters":5600,"station_id":"ce4bhqp2rcd13ifvqhog","pricing_plan_id":"cebpf4jnsgd1na2vs0mg"},{"bike_id":"7561201b-0e8e-45e5-8890-9800c6bdc8e0","system_id":"levelo_inurba_marseille","lat":43.32367,"lon":5.388836,"is_reserved":false,"is_disabled":false,"rental_uris":{"android":"levelo://app?vid=7561201b-0e8e-45e5-8890-9800c6bdc8e0","ios":"levelo://app?vid=7561201b-0e8e-45e5-8890-9800c6bdc8e0"},"vehicle_type_id":"4","last_reported":1718478396,"current_range_meters":10800,"station_id":"ce4bhqp2rcd13ifvqhog","pricing_plan_id":"cebpf4jnsgd1na2vs0mg"},{"bike_id":"be7bde44-2736-46f6-86d2-f673ea749756","system_id":"levelo_inurba_marseille","lat":43.32368,"lon":5.38889,"is_reserved":false,"is_disabled":false,"rental_uris":{"android":"levelo://app?vid=be7bde44-2736-46f6-86d2-f673ea749756","ios":"levelo://app?vid=be7bde44-2736-46f6-86d2-f673ea749756"},"vehicle_type_id":"4","last_reported":1718478396,"current_range_meters":0,"station_id":"ce4bhqp2rcd13ifvqhog","pricing_plan_id":"cebpf4jnsgd1na2vs0mg"},{"bike_id":"648c9435-cc0b-4470-aeeb-d93e8babfaa4","system_id":"levelo_inurba_marseille","lat":43.29602,"lon":5.381084,"is_reserved":false,"is_disabled":false,"rental_uris":{"android":"levelo://app?vid=648c9435-cc0b-4470-aeeb-d93e8babfaa4","ios":"levelo://app?vid=648c9435-cc0b-4470-aeeb-d93e8babfaa4"},"vehicle_type_id":"4","last_reported":1718478396,"current_range_meters":2800,"station_id":"ce4bgl12rcd13ifvqbo0","pricing_plan_id":"cebpf4jnsgd1na2vs0mg"},{"bike_id":"e0aaa905-eee2-4340-9172-0bd220ae661d","system_id":"levelo_inurba_marseille","lat":43.29602,"lon":5.381084,"is_reserved":false,"is_disabled":false,"rental_uris":{"android":"levelo://app?vid=e0aaa905-eee2-4340-9172-0bd220ae661d","ios":"levelo://app?vid=e0aaa905-eee2-4340-9172-0bd220ae661d"},"vehicle_type_id":"4","last_reported":1718478396,"current_range_meters":0,"station_id":"ce4bgl12rcd13ifvqbo0","pricing_plan_id":"cebpf4jnsgd1na2vs0mg"},{"bike_id":"b8587f44-8b7a-4ac2-a43c-8fa5703b984f","system_id":"levelo_inurba_marseille","lat":43.292749,"lon":5.368402,"is_reserved":false,"is_disabled":false,"rental_uris":{"android":"levelo://app?vid=b8587f44-8b7a-4ac2-a43c-8fa5703b984f","ios":"levelo://app?vid=b8587f44-8b7a-4ac2-a43c-8fa5703b984f"},"vehicle_type_id":"4","last_reported":1718478396,"current_range_meters":31200,"station_id":"ce4bhbp2rcd13ifvqesg","pricing_plan_id":"cebpf4jnsgd1na2vs0mg"},{"bike_id":"2e14e161-be0a-420e-a0cd-3259e9f62d06","system_id":"levelo_inurba_marseille","lat":43.292749,"lon":5.368402,"is_reserved":false,"is_disabled":false,"rental_uris":{"android":"levelo://app?vid=2e14e161-be0a-420e-a0cd-3259e9f62d06","ios":"levelo://app?vid=2e14e161-be0a-420e-a0cd-3259e9f62d06"},"vehicle_type_id":"4","last_reported":1718478396,"current_range_meters":21200,"station_id":"ce4bhbp2rcd13ifvqesg","pricing_plan_id":"cebpf4jnsgd1na2vs0mg"},{"bike_id":"de246cb9-7c1b-4f28-a8f1-4b244ca6dbe3","system_id":"levelo_inurba_marseille","lat":43.2927,"lon":5.36847,"is_reserved":false,"is_disabled":false,"rental_uris":{"android":"levelo://app?vid=de246cb9-7c1b-4f28-a8f1-4b244ca6dbe3","ios":"levelo://app?vid=de246cb9-7c1b-4f28-a8f1-4b244ca6dbe3"},"vehicle_type_id":"4","last_reported":1718478396,"current_range_meters":0,"station_id":"ce4bhbp2rcd13ifvqesg","pricing_plan_id":"cebpf4jnsgd1na2vs0mg"},{"bike_id":"44f03b0b-9ac0-402f-9995-d2975ae5c5b2","system_id":"levelo_inurba_marseille","lat":43.311393,"lon":5.39482,"is_reserved":false,"is_disabled":false,"rental_uris":{"android":"levelo://app?vid=44f03b0b-9ac0-402f-9995-d2975ae5c5b2","ios":"levelo://app?vid=44f03b0b-9ac0-402f-9995-d2975ae5c5b2"},"vehicle_type_id":"4","last_reported":1718478396,"current_range_meters":18800,"station_id":"","pricing_plan_id":"cebpf4jnsgd1na2vs0mg"},{"bike_id":"df26c0db-2302-41c8-abcd-f675b0733d0b","system_id":"levelo_inurba_marseille","lat":43.29419,"lon":5.37878,"is_reserved":false,"is_disabled":false,"rental_uris":{"android":"levelo://app?vid=df26c0db-2302-41c8-abcd-f675b0733d0b","ios":"levelo://app?vid=df26c0db-2302-41c8-abcd-f675b0733d0b"},"vehicle_type_id":"4","last_reported":1718478396,"current_range_meters":8400,"station_id":"","pricing_plan_id":"cebpf4jnsgd1na2vs0mg"},{"bike_id":"f20b6e5a-26ba-48b3-8a77-8d5302875ba8","system_id":"levelo_inurba_marseille","lat":43.293009,"lon":5.374584,"is_reserved":false,"is_disabled":false,"rental_uris":{"android":"levelo://app?vid=f20b6e5a-26ba-48b3-8a77-8d5302875ba8","ios":"levelo://app?vid=f20b6e5a-26ba-48b3-8a77-8d5302875ba8"},"vehicle_type_id":"4","last_reported":1718478396,"current_range_meters":27200,"station_id":"ce4bgi12rcd13ifvqb70","pricing_plan_id":"cebpf4jnsgd1na2vs0mg"},{"bike_id":"e8a14571-71dd-45d2-8c18-7d2c84990864","system_id":"levelo_inurba_marseille","lat":43.292963,"lon":5.37455,"is_reserved":false,"is_disabled":false,"rental_uris":{"android":"levelo://app?vid=e8a14571-71dd-45d2-8c18-7d2c84990864","ios":"levelo://app?vid=e8a14571-71dd-45d2-8c18-7d2c84990864"},"vehicle_type_id":"4","last_reported":1718478396,"current_range_meters":0,"station_id":"ce4bgi12rcd13ifvqb70","pricing_plan_id":"cebpf4jnsgd1na2vs0mg"},{"bike_id":"52081ab0-837e-404e-9931-3789a68a6ebb","system_id":"levelo_inurba_marseille","lat":43.293009,"lon":5.374584,"is_reserved":false,"is_disabled":false,"rental_uris":{"android":"levelo://app?vid=52081ab0-837e-404e-9931-3789a68a6ebb","ios":"levelo://app?vid=52081ab0-837e-404e-9931-3789a68a6ebb"},"vehicle_type_id":"4","last_reported":1718478396,"current_range_meters":24800,"station_id":"ce4bgi12rcd13ifvqb70","pricing_plan_id":"cebpf4jnsgd1na2vs0mg"},{"bike_id":"9d2152b0-f78d-4866-b9a8-703523783a63","system_id":"levelo_inurba_marseille","lat":43.305994,"lon":5.393687,"is_reserved":false,"is_disabled":false,"rental_uris":{"android":"levelo://app?vid=9d2152b0-f78d-4866-b9a8-703523783a63","ios":"levelo://app?vid=9d2152b0-f78d-4866-b9a8-703523783a63"},"vehicle_type_id":"4","last_reported":1718478396,"current_range_meters":29200,"station_id":"ce4bh0p2rcd13ifvqd80","pricing_plan_id":"cebpf4jnsgd1na2vs0mg"},{"bike_id":"ebd5153b-990e-4f66-a660-e8e2cf1e6c71","system_id":"levelo_inurba_marseille","lat":43.303,"lon":5.39209,"is_reserved":false,"is_disabled":false,"rental_uris":{"android":"levelo://app?vid=ebd5153b-990e-4f66-a660-e8e2cf1e6c71","ios":"levelo://app?vid=ebd5153b-990e-4f66-a660-e8e2cf1e6c71"},"vehicle_type_id":"4","last_reported":1718478396,"current_range_meters":0,"station_id":"ce4bgkh2rcd13ifvqbk0","pricing_plan_id":"cebpf4jnsgd1na2vs0mg"},{"bike_id":"6a94b0c9-7351-44ca-bc5b-e081eb068bd5","system_id":"levelo_inurba_marseille","lat":43.2936,"lon":5.37835,"is_reserved":false,"is_disabled":false,"rental_uris":{"android":"levelo://app?vid=6a94b0c9-7351-44ca-bc5b-e081eb068bd5","ios":"levelo://app?vid=6a94b0c9-7351-44ca-bc5b-e081eb068bd5"},"vehicle_type_id":"4","last_reported":1718478396,"current_range_meters":28000,"station_id":"ce4bgjh2rcd13ifvqbf0","pricing_plan_id":"cebpf4jnsgd1na2vs0mg"},{"bike_id":"7f3457b3-6321-4192-b788-e212ef4794e9","system_id":"levelo_inurba_marseille","lat":43.29369,"lon":5.37853,"is_reserved":false,"is_disabled":false,"rental_uris":{"android":"levelo://app?vid=7f3457b3-6321-4192-b788-e212ef4794e9","ios":"levelo://app?vid=7f3457b3-6321-4192-b788-e212ef4794e9"},"vehicle_type_id":"4","last_reported":1718478396,"current_range_meters":0,"station_id":"ce4bgjh2rcd13ifvqbf0","pricing_plan_id":"cebpf4jnsgd1na2vs0mg"},{"bike_id":"3b1f3f9e-4bb8-440b-8a4e-3ecb2e80ff49","system_id":"levelo_inurba_marseille","lat":43.30085,"lon":5.390856,"is_reserved":false,"is_disabled":false,"rental_uris":{"android":"levelo://app?vid=3b1f3f9e-4bb8-440b-8a4e-3ecb2e80ff49","ios":"levelo://app?vid=3b1f3f9e-4bb8-440b-8a4e-3ecb2e80ff49"},"vehicle_type_id":"4","last_reported":1718478396,"current_range_meters":400,"station_id":"ce4bh192rcd13ifvqdb0","pricing_plan_id":"cebpf4jnsgd1na2vs0mg"},{"bike_id":"592ae67a-8fb6-4181-9c80-77eefff2e581","system_id":"levelo_inurba_marseille","lat":43.298764,"lon":5.388973,"is_reserved":false,"is_disabled":false,"rental_uris":{"android":"levelo://app?vid=592ae67a-8fb6-4181-9c80-77eefff2e581","ios":"levelo://app?vid=592ae67a-8fb6-4181-9c80-77eefff2e581"},"vehicle_type_id":"4","last_reported":1718478396,"current_range_meters":1600,"station_id":"ce4bh392rcd13ifvqdl0","pricing_plan_id":"cebpf4jnsgd1na2vs0mg"},{"bike_id":"44b041e7-f789-45c0-b79c-79b73a44a5c1","system_id":"levelo_inurba_marseille","lat":43.298764,"lon":5.388973,"is_reserved":false,"is_disabled":false,"rental_uris":{"android":"levelo://app?vid=44b041e7-f789-45c0-b79c-79b73a44a5c1","ios":"levelo://app?vid=44b041e7-f789-45c0-b79c-79b73a44a5c1"},"vehicle_type_id":"4","last_reported":1718478396,"current_range_meters":0,"station_id":"ce4bh392rcd13ifvqdl0","pricing_plan_id":"cebpf4jnsgd1na2vs0mg"},{"bike_id":"1a285279-b807-4e3b-b18c-2dc3488a277c","system_id":"levelo_inurba_marseille","lat":43.31327,"lon":5.39691,"is_reserved":false,"is_disabled":false,"rental_uris":{"android":"levelo://app?vid=1a285279-b807-4e3b-b18c-2dc3488a277c","ios":"levelo://app?vid=1a285279-b807-4e3b-b18c-2dc3488a277c"},"vehicle_type_id":"4","last_reported":1718478396,"current_range_meters":800,"station_id":"ce4bgvp2rcd13ifvqcu0","pricing_plan_id":"cebpf4jnsgd1na2vs0mg"},{"bike_id":"285b5183-5476-429e-95c8-498f8ec8e0d8","system_id":"levelo_inurba_marseille","lat":43.309038,"lon":5.396546,"is_reserved":false,"is_disabled":false,"rental_uris":{"android":"levelo://app?vid=285b5183-5476-429e-95c8-498f8ec8e0d8","ios":"levelo://app?vid=285b5183-5476-429e-95c8-498f8ec8e0d8"},"vehicle_type_id":"4","last_reported":1718478396,"current_range_meters":19600,"station_id":"ce4bh012rcd13ifvqcv0","pricing_plan_id":"cebpf4jnsgd1na2vs0mg"},{"bike_id":"b927a4f2-5a1c-470b-b513-f28754c7b9e9","system_id":"levelo_inurba_marseille","lat":43.309038,"lon":5.396546,"is_reserved":false,"is_disabled":false,"rental_uris":{"android":"levelo://app?vid=b927a4f2-5a1c-470b-b513-f28754c7b9e9","ios":"levelo://app?vid=b927a4f2-5a1c-470b-b513-f28754c7b9e9"},"vehicle_type_id":"4","last_reported":1718478396,"current_range_meters":15200,"station_id":"ce4bh012rcd13ifvqcv0","pricing_plan_id":"cebpf4jnsgd1na2vs0mg"},{"bike_id":"6b25873b-66f8-48a6-ba8e-49b457ada5e5","system_id":"levelo_inurba_marseille","lat":43.29529,"lon":5.385581,"is_reserved":false,"is_disabled":false,"rental_uris":{"android":"levelo://app?vid=6b25873b-66f8-48a6-ba8e-49b457ada5e5","ios":"levelo://app?vid=6b25873b-66f8-48a6-ba8e-49b457ada5e5"},"vehicle_type_id":"4","last_reported":1718478396,"current_range_meters":30000,"station_id":"ce4bgih2rcd13ifvqba0","pricing_plan_id":"cebpf4jnsgd1na2vs0mg"},{"bike_id":"908558c6-3411-4a6e-861c-2ae1a75a7194","system_id":"levelo_inurba_marseille","lat":43.29529,"lon":5.385581,"is_reserved":false,"is_disabled":false,"rental_uris":{"android":"levelo://app?vid=908558c6-3411-4a6e-861c-2ae1a75a7194","ios":"levelo://app?vid=908558c6-3411-4a6e-861c-2ae1a75a7194"},"vehicle_type_id":"4","last_reported":1718478396,"current_range_meters":20400,"station_id":"ce4bgih2rcd13ifvqba0","pricing_plan_id":"cebpf4jnsgd1na2vs0mg"},{"bike_id":"fbe2b971-67a8-4da8-a456-728dc2b65a5f","system_id":"levelo_inurba_marseille","lat":43.29529,"lon":5.385581,"is_reserved":false,"is_disabled":false,"rental_uris":{"android":"levelo://app?vid=fbe2b971-67a8-4da8-a456-728dc2b65a5f","ios":"levelo://app?vid=fbe2b971-67a8-4da8-a456-728dc2b65a5f"},"vehicle_type_id":"4","last_reported":1718478396,"current_range_meters":17200,"station_id":"ce4bgih2rcd13ifvqba0","pricing_plan_id":"cebpf4jnsgd1na2vs0mg"},{"bike_id":"29b6748d-1178-4872-9a03-032c16cd36cc","system_id":"levelo_inurba_marseille","lat":43.29529,"lon":5.385581,"is_reserved":false,"is_disabled":false,"rental_uris":{"android":"levelo://app?vid=29b6748d-1178-4872-9a03-032c16cd36cc","ios":"levelo://app?vid=29b6748d-1178-4872-9a03-032c16cd36cc"},"vehicle_type_id":"4","last_reported":1718478396,"current_range_meters":16000,"station_id":"ce4bgih2rcd13ifvqba0","pricing_plan_id":"cebpf4jnsgd1na2vs0mg"},{"bike_id":"5a52100a-c693-4426-be5e-93849509a34a","system_id":"levelo_inurba_marseille","lat":43.294153,"lon":5.386305,"is_reserved":false,"is_disabled":false,"rental_uris":{"android":"levelo://app?vid=5a52100a-c693-4426-be5e-93849509a34a","ios":"levelo://app?vid=5a52100a-c693-4426-be5e-93849509a34a"},"vehicle_type_id":"4","last_reported":1718478396,"current_range_meters":0,"station_id":"ce4bh2h2rcd13ifvqdh0","pricing_plan_id":"cebpf4jnsgd1na2vs0mg"},{"bike_id":"5eb883c1-e01a-4bc7-a457-ca9c3219ead8","system_id":"levelo_inurba_marseille","lat":43.294153,"lon":5.386305,"is_reserved":false,"is_disabled":false,"rental_uris":{"android":"levelo://app?vid=5eb883c1-e01a-4bc7-a457-ca9c3219ead8","ios":"levelo://app?vid=5eb883c1-e01a-4bc7-a457-ca9c3219ead8"},"vehicle_type_id":"4","last_reported":1718478396,"current_range_meters":0,"station_id":"ce4bh2h2rcd13ifvqdh0","pricing_plan_id":"cebpf4jnsgd1na2vs0mg"},{"bike_id":"d6fa097b-ecdb-4ea5-b8e2-b64f8446f736","system_id":"levelo_inurba_marseille","lat":43.290327,"lon":5.375711,"is_reserved":false,"is_disabled":false,"rental_uris":{"android":"levelo://app?vid=d6fa097b-ecdb-4ea5-b8e2-b64f8446f736","ios":"levelo://app?vid=d6fa097b-ecdb-4ea5-b8e2-b64f8446f736"},"vehicle_type_id":"4","last_reported":1718478396,"current_range_meters":9200,"station_id":"ce4bh692rcd13ifvqe90","pricing_plan_id":"cebpf4jnsgd1na2vs0mg"},{"bike_id":"6ed3ee39-24f4-48e1-8d72-b37a2461763f","system_id":"levelo_inurba_marseille","lat":43.294162,"lon":5.386292,"is_reserved":false,"is_disabled":false,"rental_uris":{"android":"levelo://app?vid=6ed3ee39-24f4-48e1-8d72-b37a2461763f","ios":"levelo://app?vid=6ed3ee39-24f4-48e1-8d72-b37a2461763f"},"vehicle_type_id":"4","last_reported":1718478396,"current_range_meters":0,"station_id":"ce4bh2h2rcd13ifvqdh0","pricing_plan_id":"cebpf4jnsgd1na2vs0mg"},{"bike_id":"b21a3fae-2d34-4053-a7c7-6852f65a6629","system_id":"levelo_inurba_marseille","lat":43.289184,"lon":5.366408,"is_reserved":false,"is_disabled":false,"rental_uris":{"android":"levelo://app?vid=b21a3fae-2d34-4053-a7c7-6852f65a6629","ios":"levelo://app?vid=b21a3fae-2d34-4053-a7c7-6852f65a6629"},"vehicle_type_id":"4","last_reported":1718478396,"current_range_meters":30000,"station_id":"ce4bhap2rcd13ifvqek0","pricing_plan_id":"cebpf4jnsgd1na2vs0mg"},{"bike_id":"77598045-6686-48dd-98ca-f7fd2f74fb52","system_id":"levelo_inurba_marseille","lat":43.29271,"lon":5.384405,"is_reserved":false,"is_disabled":false,"rental_uris":{"android":"levelo://app?vid=77598045-6686-48dd-98ca-f7fd2f74fb52","ios":"levelo://app?vid=77598045-6686-48dd-98ca-f7fd2f74fb52"},"vehicle_type_id":"4","last_reported":1718478396,"current_range_meters":0,"station_id":"ce4bh692rcd13ifvqea0","pricing_plan_id":"cebpf4jnsgd1na2vs0mg"},{"bike_id":"fbf975f5-419c-4a92-8a3a-fb01cd06bf46","system_id":"levelo_inurba_marseille","lat":43.292642,"lon":5.384254,"is_reserved":false,"is_disabled":false,"rental_uris":{"android":"levelo://app?vid=fbf975f5-419c-4a92-8a3a-fb01cd06bf46","ios":"levelo://app?vid=fbf975f5-419c-4a92-8a3a-fb01cd06bf46"},"vehicle_type_id":"4","last_reported":1718478396,"current_range_meters":0,"station_id":"ce4bh692rcd13ifvqea0","pricing_plan_id":"cebpf4jnsgd1na2vs0mg"},{"bike_id":"6d99829b-085a-4d43-87e7-9d8d89cfe1c6","system_id":"levelo_inurba_marseille","lat":43.304274,"lon":5.397513,"is_reserved":false,"is_disabled":false,"rental_uris":{"android":"levelo://app?vid=6d99829b-085a-4d43-87e7-9d8d89cfe1c6","ios":"levelo://app?vid=6d99829b-085a-4d43-87e7-9d8d89cfe1c6"},"vehicle_type_id":"4","last_reported":1718478396,"current_range_meters":0,"station_id":"ce4bh092rcd13ifvqd20","pricing_plan_id":"cebpf4jnsgd1na2vs0mg"},{"bike_id":"434ea09a-f771-4c34-b68c-4aa7ce0d46f0","system_id":"levelo_inurba_marseille","lat":43.29256,"lon":5.38438,"is_reserved":false,"is_disabled":false,"rental_uris":{"android":"levelo://app?vid=434ea09a-f771-4c34-b68c-4aa7ce0d46f0","ios":"levelo://app?vid=434ea09a-f771-4c34-b68c-4aa7ce0d46f0"},"vehicle_type_id":"4","last_reported":1718478396,"current_range_meters":0,"station_id":"ce4bh692rcd13ifvqea0","pricing_plan_id":"cebpf4jnsgd1na2vs0mg"},{"bike_id":"c057467e-9596-46aa-953f-56789b1afeb8","system_id":"levelo_inurba_marseille","lat":43.292644,"lon":5.384257,"is_reserved":false,"is_disabled":false,"rental_uris":{"android":"levelo://app?vid=c057467e-9596-46aa-953f-56789b1afeb8","ios":"levelo://app?vid=c057467e-9596-46aa-953f-56789b1afeb8"},"vehicle_type_id":"4","last_reported":1718478396,"current_range_meters":0,"station_id":"ce4bh692rcd13ifvqea0","pricing_plan_id":"cebpf4jnsgd1na2vs0mg"},{"bike_id":"c62ca5e2-c786-4f52-b39e-a3da01801e99","system_id":"levelo_inurba_marseille","lat":43.290104,"lon":5.356111,"is_reserved":false,"is_disabled":false,"rental_uris":{"android":"levelo://app?vid=c62ca5e2-c786-4f52-b39e-a3da01801e99","ios":"levelo://app?vid=c62ca5e2-c786-4f52-b39e-a3da01801e99"},"vehicle_type_id":"4","last_reported":1718478396,"current_range_meters":20800,"station_id":"ce4bhb92rcd13ifvqen0","pricing_plan_id":"cebpf4jnsgd1na2vs0mg"},{"bike_id":"482da28b-3998-4642-8c8f-b2658b9109ea","system_id":"levelo_inurba_marseille","lat":43.330442,"lon":5.389148,"is_reserved":false,"is_disabled":false,"rental_uris":{"android":"levelo://app?vid=482da28b-3998-4642-8c8f-b2658b9109ea","ios":"levelo://app?vid=482da28b-3998-4642-8c8f-b2658b9109ea"},"vehicle_type_id":"4","last_reported":1718478396,"current_range_meters":3600,"station_id":"ce4bhr92rcd13ifvqhrg","pricing_plan_id":"cebpf4jnsgd1na2vs0mg"},{"bike_id":"6fb0528f-5446-4b69-8e4e-859690716f6d","system_id":"levelo_inurba_marseille","lat":43.330442,"lon":5.389148,"is_reserved":false,"is_disabled":false,"rental_uris":{"android":"levelo://app?vid=6fb0528f-5446-4b69-8e4e-859690716f6d","ios":"levelo://app?vid=6fb0528f-5446-4b69-8e4e-859690716f6d"},"vehicle_type_id":"4","last_reported":1718478396,"current_range_meters":26400,"station_id":"ce4bhr92rcd13ifvqhrg","pricing_plan_id":"cebpf4jnsgd1na2vs0mg"},{"bike_id":"b5460d11-e979-411b-9b42-919f267735b1","system_id":"levelo_inurba_marseille","lat":43.330442,"lon":5.389148,"is_reserved":false,"is_disabled":false,"rental_uris":{"android":"levelo://app?vid=b5460d11-e979-411b-9b42-919f267735b1","ios":"levelo://app?vid=b5460d11-e979-411b-9b42-919f267735b1"},"vehicle_type_id":"4","last_reported":1718478396,"current_range_meters":6400,"station_id":"ce4bhr92rcd13ifvqhrg","pricing_plan_id":"cebpf4jnsgd1na2vs0mg"},{"bike_id":"243dd6d8-82bb-4253-a667-77fe766f480d","system_id":"levelo_inurba_marseille","lat":43.295169,"lon":5.390426,"is_reserved":false,"is_disabled":false,"rental_uris":{"android":"levelo://app?vid=243dd6d8-82bb-4253-a667-77fe766f480d","ios":"levelo://app?vid=243dd6d8-82bb-4253-a667-77fe766f480d"},"vehicle_type_id":"4","last_reported":1718478396,"current_range_meters":28800,"station_id":"ce4bh3p2rcd13ifvqdp0","pricing_plan_id":"cebpf4jnsgd1na2vs0mg"},{"bike_id":"289f2477-a8e3-4b67-a482-f7d99f9422c9","system_id":"levelo_inurba_marseille","lat":43.330442,"lon":5.389148,"is_reserved":false,"is_disabled":false,"rental_uris":{"android":"levelo://app?vid=289f2477-a8e3-4b67-a482-f7d99f9422c9","ios":"levelo://app?vid=289f2477-a8e3-4b67-a482-f7d99f9422c9"},"vehicle_type_id":"4","last_reported":1718478396,"current_range_meters":4800,"station_id":"ce4bhr92rcd13ifvqhrg","pricing_plan_id":"cebpf4jnsgd1na2vs0mg"},{"bike_id":"630a660c-f186-4308-b13d-cef4d3fec5b8","system_id":"levelo_inurba_marseille","lat":43.309371,"lon":5.401449,"is_reserved":false,"is_disabled":false,"rental_uris":{"android":"levelo://app?vid=630a660c-f186-4308-b13d-cef4d3fec5b8","ios":"levelo://app?vid=630a660c-f186-4308-b13d-cef4d3fec5b8"},"vehicle_type_id":"4","last_reported":1718478396,"current_range_meters":2800,"station_id":"ce4bgvp2rcd13ifvqct0","pricing_plan_id":"cebpf4jnsgd1na2vs0mg"},{"bike_id":"c81db132-f5b8-407f-b902-e7d6e6af1c0b","system_id":"levelo_inurba_marseille","lat":43.312609,"lon":5.401662,"is_reserved":false,"is_disabled":false,"rental_uris":{"android":"levelo://app?vid=c81db132-f5b8-407f-b902-e7d6e6af1c0b","ios":"levelo://app?vid=c81db132-f5b8-407f-b902-e7d6e6af1c0b"},"vehicle_type_id":"4","last_reported":1718478396,"current_range_meters":3600,"station_id":"ce4bh092rcd13ifvqd30","pricing_plan_id":"cebpf4jnsgd1na2vs0mg"},{"bike_id":"e1512863-0927-4702-b249-40d36e19f2c0","system_id":"levelo_inurba_marseille","lat":43.337623,"lon":5.374823,"is_reserved":false,"is_disabled":false,"rental_uris":{"android":"levelo://app?vid=e1512863-0927-4702-b249-40d36e19f2c0","ios":"levelo://app?vid=e1512863-0927-4702-b249-40d36e19f2c0"},"vehicle_type_id":"4","last_reported":1718478396,"current_range_meters":22400,"station_id":"","pricing_plan_id":"cebpf4jnsgd1na2vs0mg"},{"bike_id":"586b97bc-6a88-48f3-bfee-564598a90b64","system_id":"levelo_inurba_marseille","lat":43.306412,"lon":5.401035,"is_reserved":false,"is_disabled":false,"rental_uris":{"android":"levelo://app?vid=586b97bc-6a88-48f3-bfee-564598a90b64","ios":"levelo://app?vid=586b97bc-6a88-48f3-bfee-564598a90b64"},"vehicle_type_id":"4","last_reported":1718478396,"current_range_meters":16800,"station_id":"ce4bh112rcd13ifvqda0","pricing_plan_id":"cebpf4jnsgd1na2vs0mg"},{"bike_id":"27df32d8-1529-45dd-b859-8f5f026d3d56","system_id":"levelo_inurba_marseille","lat":43.286961,"lon":5.373785,"is_reserved":false,"is_disabled":false,"rental_uris":{"android":"levelo://app?vid=27df32d8-1529-45dd-b859-8f5f026d3d56","ios":"levelo://app?vid=27df32d8-1529-45dd-b859-8f5f026d3d56"},"vehicle_type_id":"4","last_reported":1718478396,"current_range_meters":0,"station_id":"ce4bh3p2rcd13ifvqdq0","pricing_plan_id":"cebpf4jnsgd1na2vs0mg"},{"bike_id":"0417c09f-3505-4780-8ca1-3a7c2c7bcd87","system_id":"levelo_inurba_marseille","lat":43.286961,"lon":5.373785,"is_reserved":false,"is_disabled":false,"rental_uris":{"android":"levelo://app?vid=0417c09f-3505-4780-8ca1-3a7c2c7bcd87","ios":"levelo://app?vid=0417c09f-3505-4780-8ca1-3a7c2c7bcd87"},"vehicle_type_id":"4","last_reported":1718478396,"current_range_meters":800,"station_id":"ce4bh3p2rcd13ifvqdq0","pricing_plan_id":"cebpf4jnsgd1na2vs0mg"},{"bike_id":"834413c7-5e2e-46d7-a320-259794b358e1","system_id":"levelo_inurba_marseille","lat":43.286591,"lon":5.363346,"is_reserved":false,"is_disabled":false,"rental_uris":{"android":"levelo://app?vid=834413c7-5e2e-46d7-a320-259794b358e1","ios":"levelo://app?vid=834413c7-5e2e-46d7-a320-259794b358e1"},"vehicle_type_id":"4","last_reported":1718478396,"current_range_meters":25200,"station_id":"ce4bhah2rcd13ifvqej0","pricing_plan_id":"cebpf4jnsgd1na2vs0mg"},{"bike_id":"097e511e-2376-4098-a6a4-9f76a9dd65a5","system_id":"levelo_inurba_marseille","lat":43.295196,"lon":5.39397,"is_reserved":false,"is_disabled":false,"rental_uris":{"android":"levelo://app?vid=097e511e-2376-4098-a6a4-9f76a9dd65a5","ios":"levelo://app?vid=097e511e-2376-4098-a6a4-9f76a9dd65a5"},"vehicle_type_id":"4","last_reported":1718478396,"current_range_meters":10400,"station_id":"ce4bh292rcd13ifvqdf0","pricing_plan_id":"cebpf4jnsgd1na2vs0mg"},{"bike_id":"8b367686-a39e-4602-a7d4-2083fb6999c3","system_id":"levelo_inurba_marseille","lat":43.295194,"lon":5.39397,"is_reserved":false,"is_disabled":false,"rental_uris":{"android":"levelo://app?vid=8b367686-a39e-4602-a7d4-2083fb6999c3","ios":"levelo://app?vid=8b367686-a39e-4602-a7d4-2083fb6999c3"},"vehicle_type_id":"4","last_reported":1718478396,"current_range_meters":14800,"station_id":"ce4bh292rcd13ifvqdf0","pricing_plan_id":"cebpf4jnsgd1na2vs0mg"},{"bike_id":"d91f1c34-cd43-4cd7-a07d-44d79c18b0a6","system_id":"levelo_inurba_marseille","lat":43.290345,"lon":5.38646,"is_reserved":false,"is_disabled":false,"rental_uris":{"android":"levelo://app?vid=d91f1c34-cd43-4cd7-a07d-44d79c18b0a6","ios":"levelo://app?vid=d91f1c34-cd43-4cd7-a07d-44d79c18b0a6"},"vehicle_type_id":"4","last_reported":1718478396,"current_range_meters":18000,"station_id":"ce4bh4p2rcd13ifvqe0g","pricing_plan_id":"cebpf4jnsgd1na2vs0mg"},{"bike_id":"a2dfa8b3-d863-46a5-ba32-969c6dccbe60","system_id":"levelo_inurba_marseille","lat":43.289307,"lon":5.38406,"is_reserved":false,"is_disabled":false,"rental_uris":{"android":"levelo://app?vid=a2dfa8b3-d863-46a5-ba32-969c6dccbe60","ios":"levelo://app?vid=a2dfa8b3-d863-46a5-ba32-969c6dccbe60"},"vehicle_type_id":"4","last_reported":1718478396,"current_range_meters":0,"station_id":"ce4bh612rcd13ifvqe6g","pricing_plan_id":"cebpf4jnsgd1na2vs0mg"},{"bike_id":"2ebac789-6ba1-4520-ad9b-f78c2ce6c2fd","system_id":"levelo_inurba_marseille","lat":43.290336,"lon":5.386425,"is_reserved":false,"is_disabled":false,"rental_uris":{"android":"levelo://app?vid=2ebac789-6ba1-4520-ad9b-f78c2ce6c2fd","ios":"levelo://app?vid=2ebac789-6ba1-4520-ad9b-f78c2ce6c2fd"},"vehicle_type_id":"4","last_reported":1718478396,"current_range_meters":800,"station_id":"ce4bh4p2rcd13ifvqe0g","pricing_plan_id":"cebpf4jnsgd1na2vs0mg"},{"bike_id":"ad7900ca-3612-4dde-98e2-6e2f02dff28e","system_id":"levelo_inurba_marseille","lat":43.290336,"lon":5.386425,"is_reserved":false,"is_disabled":false,"rental_uris":{"android":"levelo://app?vid=ad7900ca-3612-4dde-98e2-6e2f02dff28e","ios":"levelo://app?vid=ad7900ca-3612-4dde-98e2-6e2f02dff28e"},"vehicle_type_id":"4","last_reported":1718478396,"current_range_meters":2800,"station_id":"ce4bh4p2rcd13ifvqe0g","pricing_plan_id":"cebpf4jnsgd1na2vs0mg"},{"bike_id":"67e1dd70-139c-4c7d-930c-9320524df0d4","system_id":"levelo_inurba_marseille","lat":43.290336,"lon":5.386425,"is_reserved":false,"is_disabled":false,"rental_uris":{"android":"levelo://app?vid=67e1dd70-139c-4c7d-930c-9320524df0d4","ios":"levelo://app?vid=67e1dd70-139c-4c7d-930c-9320524df0d4"},"vehicle_type_id":"4","last_reported":1718478396,"current_range_meters":30400,"station_id":"ce4bh4p2rcd13ifvqe0g","pricing_plan_id":"cebpf4jnsgd1na2vs0mg"},{"bike_id":"b1780746-909e-4211-861b-ea702631afc4","system_id":"levelo_inurba_marseille","lat":43.286039,"lon":5.370681,"is_reserved":false,"is_disabled":false,"rental_uris":{"android":"levelo://app?vid=b1780746-909e-4211-861b-ea702631afc4","ios":"levelo://app?vid=b1780746-909e-4211-861b-ea702631afc4"},"vehicle_type_id":"4","last_reported":1718478396,"current_range_meters":7600,"station_id":"ce4bht12rcd13ifvqi60","pricing_plan_id":"cebpf4jnsgd1na2vs0mg"},{"bike_id":"c774aa11-c94a-46af-8e34-fc6733cbe323","system_id":"levelo_inurba_marseille","lat":43.286039,"lon":5.370681,"is_reserved":false,"is_disabled":false,"rental_uris":{"android":"levelo://app?vid=c774aa11-c94a-46af-8e34-fc6733cbe323","ios":"levelo://app?vid=c774aa11-c94a-46af-8e34-fc6733cbe323"},"vehicle_type_id":"4","last_reported":1718478396,"current_range_meters":31200,"station_id":"ce4bht12rcd13ifvqi60","pricing_plan_id":"cebpf4jnsgd1na2vs0mg"},{"bike_id":"e419b45d-3c30-4650-a11d-e86b4f32dd0d","system_id":"levelo_inurba_marseille","lat":43.286039,"lon":5.370681,"is_reserved":false,"is_disabled":false,"rental_uris":{"android":"levelo://app?vid=e419b45d-3c30-4650-a11d-e86b4f32dd0d","ios":"levelo://app?vid=e419b45d-3c30-4650-a11d-e86b4f32dd0d"},"vehicle_type_id":"4","last_reported":1718478396,"current_range_meters":23200,"station_id":"ce4bht12rcd13ifvqi60","pricing_plan_id":"cebpf4jnsgd1na2vs0mg"},{"bike_id":"09160fa1-3f4e-4380-a78a-5be8c6767212","system_id":"levelo_inurba_marseille","lat":43.287185,"lon":5.379373,"is_reserved":false,"is_disabled":false,"rental_uris":{"android":"levelo://app?vid=09160fa1-3f4e-4380-a78a-5be8c6767212","ios":"levelo://app?vid=09160fa1-3f4e-4380-a78a-5be8c6767212"},"vehicle_type_id":"4","last_reported":1718478396,"current_range_meters":25200,"station_id":"ce4bh9p2rcd13ifvqec0","pricing_plan_id":"cebpf4jnsgd1na2vs0mg"},{"bike_id":"83b183a6-485a-4898-af39-efecbd874203","system_id":"levelo_inurba_marseille","lat":43.316821,"lon":5.404737,"is_reserved":false,"is_disabled":false,"rental_uris":{"android":"levelo://app?vid=83b183a6-485a-4898-af39-efecbd874203","ios":"levelo://app?vid=83b183a6-485a-4898-af39-efecbd874203"},"vehicle_type_id":"4","last_reported":1718478396,"current_range_meters":21600,"station_id":"ce4bh012rcd13ifvqd00","pricing_plan_id":"cebpf4jnsgd1na2vs0mg"},{"bike_id":"ae410b39-7512-400b-b4f1-3ef39ed45c6f","system_id":"levelo_inurba_marseille","lat":43.316821,"lon":5.404737,"is_reserved":false,"is_disabled":false,"rental_uris":{"android":"levelo://app?vid=ae410b39-7512-400b-b4f1-3ef39ed45c6f","ios":"levelo://app?vid=ae410b39-7512-400b-b4f1-3ef39ed45c6f"},"vehicle_type_id":"4","last_reported":1718478396,"current_range_meters":4800,"station_id":"ce4bh012rcd13ifvqd00","pricing_plan_id":"cebpf4jnsgd1na2vs0mg"},{"bike_id":"85952900-01a4-44cb-933e-4ea6a5b1c6d9","system_id":"levelo_inurba_marseille","lat":43.316821,"lon":5.404737,"is_reserved":false,"is_disabled":false,"rental_uris":{"android":"levelo://app?vid=85952900-01a4-44cb-933e-4ea6a5b1c6d9","ios":"levelo://app?vid=85952900-01a4-44cb-933e-4ea6a5b1c6d9"},"vehicle_type_id":"4","last_reported":1718478396,"current_range_meters":7600,"station_id":"ce4bh012rcd13ifvqd00","pricing_plan_id":"cebpf4jnsgd1na2vs0mg"},{"bike_id":"f22e4d43-d6e8-4a97-b8f2-8274a0b58c5b","system_id":"levelo_inurba_marseille","lat":43.291994,"lon":5.392907,"is_reserved":false,"is_disabled":false,"rental_uris":{"android":"levelo://app?vid=f22e4d43-d6e8-4a97-b8f2-8274a0b58c5b","ios":"levelo://app?vid=f22e4d43-d6e8-4a97-b8f2-8274a0b58c5b"},"vehicle_type_id":"4","last_reported":1718478396,"current_range_meters":2000,"station_id":"ce4bh192rcd13ifvqdd0","pricing_plan_id":"cebpf4jnsgd1na2vs0mg"},{"bike_id":"f8049937-f8db-4bf9-8d8f-fd69146152fa","system_id":"levelo_inurba_marseille","lat":43.2863,"lon":5.38226,"is_reserved":false,"is_disabled":false,"rental_uris":{"android":"levelo://app?vid=f8049937-f8db-4bf9-8d8f-fd69146152fa","ios":"levelo://app?vid=f8049937-f8db-4bf9-8d8f-fd69146152fa"},"vehicle_type_id":"4","last_reported":1718478396,"current_range_meters":0,"station_id":"","pricing_plan_id":"cebpf4jnsgd1na2vs0mg"},{"bike_id":"8ed839b5-6558-4617-b594-dc497d333232","system_id":"levelo_inurba_marseille","lat":43.294314,"lon":5.397498,"is_reserved":false,"is_disabled":false,"rental_uris":{"android":"levelo://app?vid=8ed839b5-6558-4617-b594-dc497d333232","ios":"levelo://app?vid=8ed839b5-6558-4617-b594-dc497d333232"},"vehicle_type_id":"4","last_reported":1718478396,"current_range_meters":0,"station_id":"ce4bh3h2rcd13ifvqdo0","pricing_plan_id":"cebpf4jnsgd1na2vs0mg"},{"bike_id":"3ae88163-23ce-4a10-8df0-b60da0fb3942","system_id":"levelo_inurba_marseille","lat":43.285848,"lon":5.350787,"is_reserved":false,"is_disabled":false,"rental_uris":{"android":"levelo://app?vid=3ae88163-23ce-4a10-8df0-b60da0fb3942","ios":"levelo://app?vid=3ae88163-23ce-4a10-8df0-b60da0fb3942"},"vehicle_type_id":"4","last_reported":1718478396,"current_range_meters":27200,"station_id":"ce4bhch2rcd13ifvqeug","pricing_plan_id":"cebpf4jnsgd1na2vs0mg"},{"bike_id":"1ed90d5e-c99f-4463-939f-81e2a70d1051","system_id":"levelo_inurba_marseille","lat":43.285848,"lon":5.350787,"is_reserved":false,"is_disabled":false,"rental_uris":{"android":"levelo://app?vid=1ed90d5e-c99f-4463-939f-81e2a70d1051","ios":"levelo://app?vid=1ed90d5e-c99f-4463-939f-81e2a70d1051"},"vehicle_type_id":"4","last_reported":1718478396,"current_range_meters":27600,"station_id":"ce4bhch2rcd13ifvqeug","pricing_plan_id":"cebpf4jnsgd1na2vs0mg"},{"bike_id":"5b1d2779-999c-4f33-a167-7f2fee65f374","system_id":"levelo_inurba_marseille","lat":43.285848,"lon":5.350787,"is_reserved":false,"is_disabled":false,"rental_uris":{"android":"levelo://app?vid=5b1d2779-999c-4f33-a167-7f2fee65f374","ios":"levelo://app?vid=5b1d2779-999c-4f33-a167-7f2fee65f374"},"vehicle_type_id":"4","last_reported":1718478396,"current_range_meters":800,"station_id":"ce4bhch2rcd13ifvqeug","pricing_plan_id":"cebpf4jnsgd1na2vs0mg"},{"bike_id":"c22b71d2-8bf5-407a-9ace-eaac7e2cc6d2","system_id":"levelo_inurba_marseille","lat":43.28411,"lon":5.37512,"is_reserved":false,"is_disabled":false,"rental_uris":{"android":"levelo://app?vid=c22b71d2-8bf5-407a-9ace-eaac7e2cc6d2","ios":"levelo://app?vid=c22b71d2-8bf5-407a-9ace-eaac7e2cc6d2"},"vehicle_type_id":"4","last_reported":1718478396,"current_range_meters":0,"station_id":"ce4bh412rcd13ifvqds0","pricing_plan_id":"cebpf4jnsgd1na2vs0mg"},{"bike_id":"95763447-245b-4c56-b7c5-5b0607b91ebe","system_id":"levelo_inurba_marseille","lat":43.295713,"lon":5.399639,"is_reserved":false,"is_disabled":false,"rental_uris":{"android":"levelo://app?vid=95763447-245b-4c56-b7c5-5b0607b91ebe","ios":"levelo://app?vid=95763447-245b-4c56-b7c5-5b0607b91ebe"},"vehicle_type_id":"4","last_reported":1718478396,"current_range_meters":4400,"station_id":"ce4bh312rcd13ifvqdj0","pricing_plan_id":"cebpf4jnsgd1na2vs0mg"},{"bike_id":"ad0313b0-681d-4968-b57d-c6cc3ff8b087","system_id":"levelo_inurba_marseille","lat":43.29961,"lon":5.40306,"is_reserved":false,"is_disabled":false,"rental_uris":{"android":"levelo://app?vid=ad0313b0-681d-4968-b57d-c6cc3ff8b087","ios":"levelo://app?vid=ad0313b0-681d-4968-b57d-c6cc3ff8b087"},"vehicle_type_id":"4","last_reported":1718478396,"current_range_meters":22400,"station_id":"","pricing_plan_id":"cebpf4jnsgd1na2vs0mg"},{"bike_id":"e26f927e-829b-4b19-8434-afa8e56b32d9","system_id":"levelo_inurba_marseille","lat":43.283998,"lon":5.375062,"is_reserved":false,"is_disabled":false,"rental_uris":{"android":"levelo://app?vid=e26f927e-829b-4b19-8434-afa8e56b32d9","ios":"levelo://app?vid=e26f927e-829b-4b19-8434-afa8e56b32d9"},"vehicle_type_id":"4","last_reported":1718478396,"current_range_meters":31200,"station_id":"ce4bh412rcd13ifvqds0","pricing_plan_id":"cebpf4jnsgd1na2vs0mg"},{"bike_id":"6424dde0-96be-44b2-b4e4-e90c3dcd0d1d","system_id":"levelo_inurba_marseille","lat":43.2957,"lon":5.39986,"is_reserved":false,"is_disabled":false,"rental_uris":{"android":"levelo://app?vid=6424dde0-96be-44b2-b4e4-e90c3dcd0d1d","ios":"levelo://app?vid=6424dde0-96be-44b2-b4e4-e90c3dcd0d1d"},"vehicle_type_id":"4","last_reported":1718478396,"current_range_meters":0,"station_id":"ce4bh312rcd13ifvqdj0","pricing_plan_id":"cebpf4jnsgd1na2vs0mg"},{"bike_id":"c789b1dd-1f23-4255-89e4-a6c1dd79ae5b","system_id":"levelo_inurba_marseille","lat":43.2864,"lon":5.38595,"is_reserved":false,"is_disabled":false,"rental_uris":{"android":"levelo://app?vid=c789b1dd-1f23-4255-89e4-a6c1dd79ae5b","ios":"levelo://app?vid=c789b1dd-1f23-4255-89e4-a6c1dd79ae5b"},"vehicle_type_id":"4","last_reported":1718478396,"current_range_meters":0,"station_id":"","pricing_plan_id":"cebpf4jnsgd1na2vs0mg"},{"bike_id":"01e4e9b1-0ee7-440f-a35f-5235e48b5dde","system_id":"levelo_inurba_marseille","lat":43.323464,"lon":5.406297,"is_reserved":false,"is_disabled":false,"rental_uris":{"android":"levelo://app?vid=01e4e9b1-0ee7-440f-a35f-5235e48b5dde","ios":"levelo://app?vid=01e4e9b1-0ee7-440f-a35f-5235e48b5dde"},"vehicle_type_id":"4","last_reported":1718478396,"current_range_meters":26000,"station_id":"ce4bhq92rcd13ifvqhjg","pricing_plan_id":"cebpf4jnsgd1na2vs0mg"},{"bike_id":"c5eab18f-79fa-4fb8-9ddc-ef74c68f1f3b","system_id":"levelo_inurba_marseille","lat":43.33717,"lon":5.391857,"is_reserved":false,"is_disabled":false,"rental_uris":{"android":"levelo://app?vid=c5eab18f-79fa-4fb8-9ddc-ef74c68f1f3b","ios":"levelo://app?vid=c5eab18f-79fa-4fb8-9ddc-ef74c68f1f3b"},"vehicle_type_id":"4","last_reported":1718478396,"current_range_meters":6000,"station_id":"ce4bhr92rcd13ifvqhsg","pricing_plan_id":"cebpf4jnsgd1na2vs0mg"},{"bike_id":"4ac683cc-1dcb-4847-b406-ffc52fb8fe38","system_id":"levelo_inurba_marseille","lat":43.33736,"lon":5.39182,"is_reserved":false,"is_disabled":false,"rental_uris":{"android":"levelo://app?vid=4ac683cc-1dcb-4847-b406-ffc52fb8fe38","ios":"levelo://app?vid=4ac683cc-1dcb-4847-b406-ffc52fb8fe38"},"vehicle_type_id":"4","last_reported":1718478396,"current_range_meters":0,"station_id":"ce4bhr92rcd13ifvqhsg","pricing_plan_id":"cebpf4jnsgd1na2vs0mg"},{"bike_id":"65b5b419-c6f2-420c-9af0-5712ffcc3ea4","system_id":"levelo_inurba_marseille","lat":43.284219,"lon":5.3497,"is_reserved":false,"is_disabled":false,"rental_uris":{"android":"levelo://app?vid=65b5b419-c6f2-420c-9af0-5712ffcc3ea4","ios":"levelo://app?vid=65b5b419-c6f2-420c-9af0-5712ffcc3ea4"},"vehicle_type_id":"4","last_reported":1718478396,"current_range_meters":24800,"station_id":"ce4bhbh2rcd13ifvqepg","pricing_plan_id":"cebpf4jnsgd1na2vs0mg"},{"bike_id":"aa3c4356-378c-4602-ae5f-139553b9de94","system_id":"levelo_inurba_marseille","lat":43.292724,"lon":5.401131,"is_reserved":false,"is_disabled":false,"rental_uris":{"android":"levelo://app?vid=aa3c4356-378c-4602-ae5f-139553b9de94","ios":"levelo://app?vid=aa3c4356-378c-4602-ae5f-139553b9de94"},"vehicle_type_id":"4","last_reported":1718478396,"current_range_meters":10800,"station_id":"ce4bh312rcd13ifvqdk0","pricing_plan_id":"cebpf4jnsgd1na2vs0mg"},{"bike_id":"ebaeb051-da0d-42af-b80a-44b1a99b9428","system_id":"levelo_inurba_marseille","lat":43.34184,"lon":5.38605,"is_reserved":false,"is_disabled":false,"rental_uris":{"android":"levelo://app?vid=ebaeb051-da0d-42af-b80a-44b1a99b9428","ios":"levelo://app?vid=ebaeb051-da0d-42af-b80a-44b1a99b9428"},"vehicle_type_id":"4","last_reported":1718478396,"current_range_meters":21600,"station_id":"","pricing_plan_id":"cebpf4jnsgd1na2vs0mg"},{"bike_id":"8f706396-e21f-4626-b052-0c4fe7486343","system_id":"levelo_inurba_marseille","lat":43.282744,"lon":5.350533,"is_reserved":false,"is_disabled":false,"rental_uris":{"android":"levelo://app?vid=8f706396-e21f-4626-b052-0c4fe7486343","ios":"levelo://app?vid=8f706396-e21f-4626-b052-0c4fe7486343"},"vehicle_type_id":"4","last_reported":1718478396,"current_range_meters":31200,"station_id":"ce4bhbp2rcd13ifvqerg","pricing_plan_id":"cebpf4jnsgd1na2vs0mg"},{"bike_id":"9d68a0ef-31d4-4160-9434-31313cb791c1","system_id":"levelo_inurba_marseille","lat":43.28039,"lon":5.369297,"is_reserved":false,"is_disabled":false,"rental_uris":{"android":"levelo://app?vid=9d68a0ef-31d4-4160-9434-31313cb791c1","ios":"levelo://app?vid=9d68a0ef-31d4-4160-9434-31313cb791c1"},"vehicle_type_id":"4","last_reported":1718478396,"current_range_meters":31200,"station_id":"ce4bha12rcd13ifvqef0","pricing_plan_id":"cebpf4jnsgd1na2vs0mg"},{"bike_id":"b998aac9-c334-441e-b63b-dbaf73a2f1e6","system_id":"levelo_inurba_marseille","lat":43.28039,"lon":5.369297,"is_reserved":false,"is_disabled":false,"rental_uris":{"android":"levelo://app?vid=b998aac9-c334-441e-b63b-dbaf73a2f1e6","ios":"levelo://app?vid=b998aac9-c334-441e-b63b-dbaf73a2f1e6"},"vehicle_type_id":"4","last_reported":1718478396,"current_range_meters":1200,"station_id":"ce4bha12rcd13ifvqef0","pricing_plan_id":"cebpf4jnsgd1na2vs0mg"},{"bike_id":"4897ac01-42ee-4d81-9cc1-5fd6d043611e","system_id":"levelo_inurba_marseille","lat":43.290412,"lon":5.399633,"is_reserved":false,"is_disabled":false,"rental_uris":{"android":"levelo://app?vid=4897ac01-42ee-4d81-9cc1-5fd6d043611e","ios":"levelo://app?vid=4897ac01-42ee-4d81-9cc1-5fd6d043611e"},"vehicle_type_id":"4","last_reported":1718478396,"current_range_meters":8400,"station_id":"ce4bh392rcd13ifvqdm0","pricing_plan_id":"cebpf4jnsgd1na2vs0mg"},{"bike_id":"18a80de8-6994-4810-b583-f96038c4ba85","system_id":"levelo_inurba_marseille","lat":43.280355,"lon":5.378105,"is_reserved":false,"is_disabled":false,"rental_uris":{"android":"levelo://app?vid=18a80de8-6994-4810-b583-f96038c4ba85","ios":"levelo://app?vid=18a80de8-6994-4810-b583-f96038c4ba85"},"vehicle_type_id":"4","last_reported":1718478396,"current_range_meters":20400,"station_id":"","pricing_plan_id":"cebpf4jnsgd1na2vs0mg"},{"bike_id":"74b0e948-53c4-47de-be6b-304ee4d57a4b","system_id":"levelo_inurba_marseille","lat":43.284462,"lon":5.392121,"is_reserved":false,"is_disabled":false,"rental_uris":{"android":"levelo://app?vid=74b0e948-53c4-47de-be6b-304ee4d57a4b","ios":"levelo://app?vid=74b0e948-53c4-47de-be6b-304ee4d57a4b"},"vehicle_type_id":"4","last_reported":1718478396,"current_range_meters":8400,"station_id":"ce4bhoh2rcd13ifvqh5g","pricing_plan_id":"cebpf4jnsgd1na2vs0mg"},{"bike_id":"edc18038-f33d-44c8-a09e-9a9f425e7d3c","system_id":"levelo_inurba_marseille","lat":43.284462,"lon":5.392121,"is_reserved":false,"is_disabled":false,"rental_uris":{"android":"levelo://app?vid=edc18038-f33d-44c8-a09e-9a9f425e7d3c","ios":"levelo://app?vid=edc18038-f33d-44c8-a09e-9a9f425e7d3c"},"vehicle_type_id":"4","last_reported":1718478396,"current_range_meters":0,"station_id":"ce4bhoh2rcd13ifvqh5g","pricing_plan_id":"cebpf4jnsgd1na2vs0mg"},{"bike_id":"b8ba5c37-c098-4c74-baf5-9c75d1627ac1","system_id":"levelo_inurba_marseille","lat":43.32658,"lon":5.40991,"is_reserved":false,"is_disabled":false,"rental_uris":{"android":"levelo://app?vid=b8ba5c37-c098-4c74-baf5-9c75d1627ac1","ios":"levelo://app?vid=b8ba5c37-c098-4c74-baf5-9c75d1627ac1"},"vehicle_type_id":"4","last_reported":1718478396,"current_range_meters":18800,"station_id":"ce4bhpp2rcd13ifvqhgg","pricing_plan_id":"cebpf4jnsgd1na2vs0mg"},{"bike_id":"82e05668-63ef-4220-a5de-2b0223a01918","system_id":"levelo_inurba_marseille","lat":43.32658,"lon":5.40992,"is_reserved":false,"is_disabled":false,"rental_uris":{"android":"levelo://app?vid=82e05668-63ef-4220-a5de-2b0223a01918","ios":"levelo://app?vid=82e05668-63ef-4220-a5de-2b0223a01918"},"vehicle_type_id":"4","last_reported":1718478396,"current_range_meters":16800,"station_id":"ce4bhpp2rcd13ifvqhgg","pricing_plan_id":"cebpf4jnsgd1na2vs0mg"},{"bike_id":"844d4f40-f188-4259-b795-22ec494f7103","system_id":"levelo_inurba_marseille","lat":43.326605,"lon":5.409903,"is_reserved":false,"is_disabled":false,"rental_uris":{"android":"levelo://app?vid=844d4f40-f188-4259-b795-22ec494f7103","ios":"levelo://app?vid=844d4f40-f188-4259-b795-22ec494f7103"},"vehicle_type_id":"4","last_reported":1718478396,"current_range_meters":14000,"station_id":"ce4bhpp2rcd13ifvqhgg","pricing_plan_id":"cebpf4jnsgd1na2vs0mg"},{"bike_id":"97599f46-8050-4faa-9d60-478f81a257e2","system_id":"levelo_inurba_marseille","lat":43.304188,"lon":5.412904,"is_reserved":false,"is_disabled":false,"rental_uris":{"android":"levelo://app?vid=97599f46-8050-4faa-9d60-478f81a257e2","ios":"levelo://app?vid=97599f46-8050-4faa-9d60-478f81a257e2"},"vehicle_type_id":"4","last_reported":1718478396,"current_range_meters":16400,"station_id":"ce4bhop2rcd13ifvqh8g","pricing_plan_id":"cebpf4jnsgd1na2vs0mg"},{"bike_id":"b7e96685-500d-493c-a98b-77898f0cf509","system_id":"levelo_inurba_marseille","lat":43.30412,"lon":5.41284,"is_reserved":false,"is_disabled":false,"rental_uris":{"android":"levelo://app?vid=b7e96685-500d-493c-a98b-77898f0cf509","ios":"levelo://app?vid=b7e96685-500d-493c-a98b-77898f0cf509"},"vehicle_type_id":"4","last_reported":1718478396,"current_range_meters":26000,"station_id":"ce4bhop2rcd13ifvqh8g","pricing_plan_id":"cebpf4jnsgd1na2vs0mg"},{"bike_id":"a49d7ed8-97f5-4ed8-9a34-a5d5a277d23d","system_id":"levelo_inurba_marseille","lat":43.287154,"lon":5.399979,"is_reserved":false,"is_disabled":false,"rental_uris":{"android":"levelo://app?vid=a49d7ed8-97f5-4ed8-9a34-a5d5a277d23d","ios":"levelo://app?vid=a49d7ed8-97f5-4ed8-9a34-a5d5a277d23d"},"vehicle_type_id":"4","last_reported":1718478396,"current_range_meters":22400,"station_id":"ce4bho92rcd13ifvqh3g","pricing_plan_id":"cebpf4jnsgd1na2vs0mg"},{"bike_id":"a3becf83-f85d-4133-a423-a783b39a8c52","system_id":"levelo_inurba_marseille","lat":43.287154,"lon":5.399979,"is_reserved":false,"is_disabled":false,"rental_uris":{"android":"levelo://app?vid=a3becf83-f85d-4133-a423-a783b39a8c52","ios":"levelo://app?vid=a3becf83-f85d-4133-a423-a783b39a8c52"},"vehicle_type_id":"4","last_reported":1718478396,"current_range_meters":23200,"station_id":"ce4bho92rcd13ifvqh3g","pricing_plan_id":"cebpf4jnsgd1na2vs0mg"},{"bike_id":"21a50597-f5d6-44e9-a862-0d253e0d32e3","system_id":"levelo_inurba_marseille","lat":43.287154,"lon":5.399979,"is_reserved":false,"is_disabled":false,"rental_uris":{"android":"levelo://app?vid=21a50597-f5d6-44e9-a862-0d253e0d32e3","ios":"levelo://app?vid=21a50597-f5d6-44e9-a862-0d253e0d32e3"},"vehicle_type_id":"4","last_reported":1718478396,"current_range_meters":24000,"station_id":"ce4bho92rcd13ifvqh3g","pricing_plan_id":"cebpf4jnsgd1na2vs0mg"},{"bike_id":"7258a0af-7859-4701-9322-a81394302fdb","system_id":"levelo_inurba_marseille","lat":43.299577,"lon":5.413277,"is_reserved":false,"is_disabled":false,"rental_uris":{"android":"levelo://app?vid=7258a0af-7859-4701-9322-a81394302fdb","ios":"levelo://app?vid=7258a0af-7859-4701-9322-a81394302fdb"},"vehicle_type_id":"4","last_reported":1718478396,"current_range_meters":5600,"station_id":"ce4bhp12rcd13ifvqh9g","pricing_plan_id":"cebpf4jnsgd1na2vs0mg"},{"bike_id":"e0eeb2ef-9bc9-45a1-8558-f261360b2d5f","system_id":"levelo_inurba_marseille","lat":43.27974,"lon":5.38726,"is_reserved":false,"is_disabled":false,"rental_uris":{"android":"levelo://app?vid=e0eeb2ef-9bc9-45a1-8558-f261360b2d5f","ios":"levelo://app?vid=e0eeb2ef-9bc9-45a1-8558-f261360b2d5f"},"vehicle_type_id":"4","last_reported":1718478396,"current_range_meters":4000,"station_id":"ce4bhg12rcd13ifvqf80","pricing_plan_id":"cebpf4jnsgd1na2vs0mg"},{"bike_id":"b54892ea-6cca-4647-9c86-17660cfe0eac","system_id":"levelo_inurba_marseille","lat":43.320045,"lon":5.415048,"is_reserved":false,"is_disabled":false,"rental_uris":{"android":"levelo://app?vid=b54892ea-6cca-4647-9c86-17660cfe0eac","ios":"levelo://app?vid=b54892ea-6cca-4647-9c86-17660cfe0eac"},"vehicle_type_id":"4","last_reported":1718478396,"current_range_meters":9200,"station_id":"ce4bhq92rcd13ifvqhkg","pricing_plan_id":"cebpf4jnsgd1na2vs0mg"},{"bike_id":"6f0312b1-7943-4090-bc34-af5a47dfdd5a","system_id":"levelo_inurba_marseille","lat":43.27974,"lon":5.38738,"is_reserved":false,"is_disabled":false,"rental_uris":{"android":"levelo://app?vid=6f0312b1-7943-4090-bc34-af5a47dfdd5a","ios":"levelo://app?vid=6f0312b1-7943-4090-bc34-af5a47dfdd5a"},"vehicle_type_id":"4","last_reported":1718478396,"current_range_meters":0,"station_id":"ce4bhg12rcd13ifvqf80","pricing_plan_id":"cebpf4jnsgd1na2vs0mg"},{"bike_id":"ec24b5a7-deae-4e5b-884a-2eabbfae282c","system_id":"levelo_inurba_marseille","lat":43.325233,"lon":5.414318,"is_reserved":false,"is_disabled":false,"rental_uris":{"android":"levelo://app?vid=ec24b5a7-deae-4e5b-884a-2eabbfae282c","ios":"levelo://app?vid=ec24b5a7-deae-4e5b-884a-2eabbfae282c"},"vehicle_type_id":"4","last_reported":1718478396,"current_range_meters":1600,"station_id":"ce4bhq12rcd13ifvqhhg","pricing_plan_id":"cebpf4jnsgd1na2vs0mg"},{"bike_id":"94052096-b280-4e1a-a2a6-e229fc774992","system_id":"levelo_inurba_marseille","lat":43.325233,"lon":5.414318,"is_reserved":false,"is_disabled":false,"rental_uris":{"android":"levelo://app?vid=94052096-b280-4e1a-a2a6-e229fc774992","ios":"levelo://app?vid=94052096-b280-4e1a-a2a6-e229fc774992"},"vehicle_type_id":"4","last_reported":1718478396,"current_range_meters":2800,"station_id":"ce4bhq12rcd13ifvqhhg","pricing_plan_id":"cebpf4jnsgd1na2vs0mg"},{"bike_id":"36039e37-dc38-4ebd-a6cf-7f514c0f8615","system_id":"levelo_inurba_marseille","lat":43.325243,"lon":5.414326,"is_reserved":false,"is_disabled":false,"rental_uris":{"android":"levelo://app?vid=36039e37-dc38-4ebd-a6cf-7f514c0f8615","ios":"levelo://app?vid=36039e37-dc38-4ebd-a6cf-7f514c0f8615"},"vehicle_type_id":"4","last_reported":1718478396,"current_range_meters":8000,"station_id":"ce4bhq12rcd13ifvqhhg","pricing_plan_id":"cebpf4jnsgd1na2vs0mg"},{"bike_id":"f6ed6668-bdcf-472d-9b16-4c7d3ce96c79","system_id":"levelo_inurba_marseille","lat":43.325243,"lon":5.414326,"is_reserved":false,"is_disabled":false,"rental_uris":{"android":"levelo://app?vid=f6ed6668-bdcf-472d-9b16-4c7d3ce96c79","ios":"levelo://app?vid=f6ed6668-bdcf-472d-9b16-4c7d3ce96c79"},"vehicle_type_id":"4","last_reported":1718478396,"current_range_meters":14800,"station_id":"ce4bhq12rcd13ifvqhhg","pricing_plan_id":"cebpf4jnsgd1na2vs0mg"},{"bike_id":"7f0e1bc7-fb67-4bc1-b2a7-25aca47e288e","system_id":"levelo_inurba_marseille","lat":43.325233,"lon":5.414318,"is_reserved":false,"is_disabled":false,"rental_uris":{"android":"levelo://app?vid=7f0e1bc7-fb67-4bc1-b2a7-25aca47e288e","ios":"levelo://app?vid=7f0e1bc7-fb67-4bc1-b2a7-25aca47e288e"},"vehicle_type_id":"4","last_reported":1718478396,"current_range_meters":14400,"station_id":"ce4bhq12rcd13ifvqhhg","pricing_plan_id":"cebpf4jnsgd1na2vs0mg"},{"bike_id":"7265ab0f-a703-40f3-8f08-d9fb545f067c","system_id":"levelo_inurba_marseille","lat":43.325233,"lon":5.414318,"is_reserved":false,"is_disabled":false,"rental_uris":{"android":"levelo://app?vid=7265ab0f-a703-40f3-8f08-d9fb545f067c","ios":"levelo://app?vid=7265ab0f-a703-40f3-8f08-d9fb545f067c"},"vehicle_type_id":"4","last_reported":1718478396,"current_range_meters":11200,"station_id":"ce4bhq12rcd13ifvqhhg","pricing_plan_id":"cebpf4jnsgd1na2vs0mg"},{"bike_id":"d06540cc-9186-433a-bc89-e83cc848c952","system_id":"levelo_inurba_marseille","lat":43.325233,"lon":5.414318,"is_reserved":false,"is_disabled":false,"rental_uris":{"android":"levelo://app?vid=d06540cc-9186-433a-bc89-e83cc848c952","ios":"levelo://app?vid=d06540cc-9186-433a-bc89-e83cc848c952"},"vehicle_type_id":"4","last_reported":1718478396,"current_range_meters":15200,"station_id":"ce4bhq12rcd13ifvqhhg","pricing_plan_id":"cebpf4jnsgd1na2vs0mg"},{"bike_id":"376aa40d-8fdf-4381-b64a-86527cee1e93","system_id":"levelo_inurba_marseille","lat":43.3254,"lon":5.41459,"is_reserved":false,"is_disabled":false,"rental_uris":{"android":"levelo://app?vid=376aa40d-8fdf-4381-b64a-86527cee1e93","ios":"levelo://app?vid=376aa40d-8fdf-4381-b64a-86527cee1e93"},"vehicle_type_id":"4","last_reported":1718478396,"current_range_meters":0,"station_id":"ce4bhq12rcd13ifvqhhg","pricing_plan_id":"cebpf4jnsgd1na2vs0mg"},{"bike_id":"8fd2c1a3-e6e1-40bc-8887-f77daa706d91","system_id":"levelo_inurba_marseille","lat":43.27387,"lon":5.36259,"is_reserved":false,"is_disabled":false,"rental_uris":{"android":"levelo://app?vid=8fd2c1a3-e6e1-40bc-8887-f77daa706d91","ios":"levelo://app?vid=8fd2c1a3-e6e1-40bc-8887-f77daa706d91"},"vehicle_type_id":"4","last_reported":1718478396,"current_range_meters":8000,"station_id":"ce4bhbh2rcd13ifvqeo0","pricing_plan_id":"cebpf4jnsgd1na2vs0mg"},{"bike_id":"8d022a2e-69ce-4659-a852-e9fdd63186a0","system_id":"levelo_inurba_marseille","lat":43.27383,"lon":5.36258,"is_reserved":false,"is_disabled":false,"rental_uris":{"android":"levelo://app?vid=8d022a2e-69ce-4659-a852-e9fdd63186a0","ios":"levelo://app?vid=8d022a2e-69ce-4659-a852-e9fdd63186a0"},"vehicle_type_id":"4","last_reported":1718478396,"current_range_meters":31200,"station_id":"ce4bhbh2rcd13ifvqeo0","pricing_plan_id":"cebpf4jnsgd1na2vs0mg"},{"bike_id":"b6ec06a2-8ccc-461a-bf4e-7ef91d365549","system_id":"levelo_inurba_marseille","lat":43.273613,"lon":5.362705,"is_reserved":false,"is_disabled":false,"rental_uris":{"android":"levelo://app?vid=b6ec06a2-8ccc-461a-bf4e-7ef91d365549","ios":"levelo://app?vid=b6ec06a2-8ccc-461a-bf4e-7ef91d365549"},"vehicle_type_id":"4","last_reported":1718478396,"current_range_meters":13600,"station_id":"ce4bhbh2rcd13ifvqeo0","pricing_plan_id":"cebpf4jnsgd1na2vs0mg"},{"bike_id":"e77846a4-5824-465f-af1d-065632dc6ae6","system_id":"levelo_inurba_marseille","lat":43.27379,"lon":5.36255,"is_reserved":false,"is_disabled":false,"rental_uris":{"android":"levelo://app?vid=e77846a4-5824-465f-af1d-065632dc6ae6","ios":"levelo://app?vid=e77846a4-5824-465f-af1d-065632dc6ae6"},"vehicle_type_id":"4","last_reported":1718478396,"current_range_meters":31200,"station_id":"ce4bhbh2rcd13ifvqeo0","pricing_plan_id":"cebpf4jnsgd1na2vs0mg"},{"bike_id":"3541ad3c-839f-4bac-913d-80fbeb157c79","system_id":"levelo_inurba_marseille","lat":43.275625,"lon":5.384392,"is_reserved":false,"is_disabled":false,"rental_uris":{"android":"levelo://app?vid=3541ad3c-839f-4bac-913d-80fbeb157c79","ios":"levelo://app?vid=3541ad3c-839f-4bac-913d-80fbeb157c79"},"vehicle_type_id":"4","last_reported":1718478396,"current_range_meters":400,"station_id":"ce4bhh92rcd13ifvqfi0","pricing_plan_id":"cebpf4jnsgd1na2vs0mg"},{"bike_id":"83fb8089-b46b-442d-844a-76e088e6e5bb","system_id":"levelo_inurba_marseille","lat":43.273613,"lon":5.362705,"is_reserved":false,"is_disabled":false,"rental_uris":{"android":"levelo://app?vid=83fb8089-b46b-442d-844a-76e088e6e5bb","ios":"levelo://app?vid=83fb8089-b46b-442d-844a-76e088e6e5bb"},"vehicle_type_id":"4","last_reported":1718478396,"current_range_meters":25200,"station_id":"ce4bhbh2rcd13ifvqeo0","pricing_plan_id":"cebpf4jnsgd1na2vs0mg"},{"bike_id":"b56e1527-6ed3-4e80-9c05-2fde4e918351","system_id":"levelo_inurba_marseille","lat":43.275625,"lon":5.384392,"is_reserved":false,"is_disabled":false,"rental_uris":{"android":"levelo://app?vid=b56e1527-6ed3-4e80-9c05-2fde4e918351","ios":"levelo://app?vid=b56e1527-6ed3-4e80-9c05-2fde4e918351"},"vehicle_type_id":"4","last_reported":1718478396,"current_range_meters":0,"station_id":"ce4bhh92rcd13ifvqfi0","pricing_plan_id":"cebpf4jnsgd1na2vs0mg"},{"bike_id":"3fd846e3-bba5-4f78-8cda-816825509f23","system_id":"levelo_inurba_marseille","lat":43.275625,"lon":5.384392,"is_reserved":false,"is_disabled":false,"rental_uris":{"android":"levelo://app?vid=3fd846e3-bba5-4f78-8cda-816825509f23","ios":"levelo://app?vid=3fd846e3-bba5-4f78-8cda-816825509f23"},"vehicle_type_id":"4","last_reported":1718478396,"current_range_meters":30000,"station_id":"ce4bhh92rcd13ifvqfi0","pricing_plan_id":"cebpf4jnsgd1na2vs0mg"},{"bike_id":"86b1dd10-a801-43b0-bbc7-e9d6fa3b594f","system_id":"levelo_inurba_marseille","lat":43.27372,"lon":5.36255,"is_reserved":false,"is_disabled":false,"rental_uris":{"android":"levelo://app?vid=86b1dd10-a801-43b0-bbc7-e9d6fa3b594f","ios":"levelo://app?vid=86b1dd10-a801-43b0-bbc7-e9d6fa3b594f"},"vehicle_type_id":"4","last_reported":1718478396,"current_range_meters":31600,"station_id":"ce4bhbh2rcd13ifvqeo0","pricing_plan_id":"cebpf4jnsgd1na2vs0mg"},{"bike_id":"468f66bc-6d18-43b5-a561-ab4631e1cd30","system_id":"levelo_inurba_marseille","lat":43.275625,"lon":5.384392,"is_reserved":false,"is_disabled":false,"rental_uris":{"android":"levelo://app?vid=468f66bc-6d18-43b5-a561-ab4631e1cd30","ios":"levelo://app?vid=468f66bc-6d18-43b5-a561-ab4631e1cd30"},"vehicle_type_id":"4","last_reported":1718478396,"current_range_meters":0,"station_id":"ce4bhh92rcd13ifvqfi0","pricing_plan_id":"cebpf4jnsgd1na2vs0mg"},{"bike_id":"7d29bd99-fdba-400e-a55d-6fd6f952d8cf","system_id":"levelo_inurba_marseille","lat":43.27566,"lon":5.38427,"is_reserved":false,"is_disabled":false,"rental_uris":{"android":"levelo://app?vid=7d29bd99-fdba-400e-a55d-6fd6f952d8cf","ios":"levelo://app?vid=7d29bd99-fdba-400e-a55d-6fd6f952d8cf"},"vehicle_type_id":"4","last_reported":1718478396,"current_range_meters":9200,"station_id":"ce4bhh92rcd13ifvqfi0","pricing_plan_id":"cebpf4jnsgd1na2vs0mg"},{"bike_id":"2103c9b0-1e5f-4bde-b9e9-3f12b5da2011","system_id":"levelo_inurba_marseille","lat":43.275625,"lon":5.384392,"is_reserved":false,"is_disabled":false,"rental_uris":{"android":"levelo://app?vid=2103c9b0-1e5f-4bde-b9e9-3f12b5da2011","ios":"levelo://app?vid=2103c9b0-1e5f-4bde-b9e9-3f12b5da2011"},"vehicle_type_id":"4","last_reported":1718478396,"current_range_meters":0,"station_id":"ce4bhh92rcd13ifvqfi0","pricing_plan_id":"cebpf4jnsgd1na2vs0mg"},{"bike_id":"363373d3-93c4-44d5-82cb-a18ae9e0b7a9","system_id":"levelo_inurba_marseille","lat":43.275625,"lon":5.384392,"is_reserved":false,"is_disabled":false,"rental_uris":{"android":"levelo://app?vid=363373d3-93c4-44d5-82cb-a18ae9e0b7a9","ios":"levelo://app?vid=363373d3-93c4-44d5-82cb-a18ae9e0b7a9"},"vehicle_type_id":"4","last_reported":1718478396,"current_range_meters":20800,"station_id":"ce4bhh92rcd13ifvqfi0","pricing_plan_id":"cebpf4jnsgd1na2vs0mg"},{"bike_id":"96ecea5c-7d42-4801-8d50-01d606f56d5e","system_id":"levelo_inurba_marseille","lat":43.27566,"lon":5.38436,"is_reserved":false,"is_disabled":false,"rental_uris":{"android":"levelo://app?vid=96ecea5c-7d42-4801-8d50-01d606f56d5e","ios":"levelo://app?vid=96ecea5c-7d42-4801-8d50-01d606f56d5e"},"vehicle_type_id":"4","last_reported":1718478396,"current_range_meters":0,"station_id":"ce4bhh92rcd13ifvqfi0","pricing_plan_id":"cebpf4jnsgd1na2vs0mg"},{"bike_id":"c22952db-dc69-4587-b3b6-075709430e5c","system_id":"levelo_inurba_marseille","lat":43.336134,"lon":5.410341,"is_reserved":false,"is_disabled":false,"rental_uris":{"android":"levelo://app?vid=c22952db-dc69-4587-b3b6-075709430e5c","ios":"levelo://app?vid=c22952db-dc69-4587-b3b6-075709430e5c"},"vehicle_type_id":"4","last_reported":1718478396,"current_range_meters":5200,"station_id":"ce4bhqh2rcd13ifvqhmg","pricing_plan_id":"cebpf4jnsgd1na2vs0mg"},{"bike_id":"2dedc78f-073c-4011-ae29-f594d5e62e28","system_id":"levelo_inurba_marseille","lat":43.33603,"lon":5.4103,"is_reserved":false,"is_disabled":false,"rental_uris":{"android":"levelo://app?vid=2dedc78f-073c-4011-ae29-f594d5e62e28","ios":"levelo://app?vid=2dedc78f-073c-4011-ae29-f594d5e62e28"},"vehicle_type_id":"4","last_reported":1718478396,"current_range_meters":13600,"station_id":"","pricing_plan_id":"cebpf4jnsgd1na2vs0mg"},{"bike_id":"e7c2dcb6-763d-4f2c-af13-7882f9a56f76","system_id":"levelo_inurba_marseille","lat":43.33603,"lon":5.41033,"is_reserved":false,"is_disabled":false,"rental_uris":{"android":"levelo://app?vid=e7c2dcb6-763d-4f2c-af13-7882f9a56f76","ios":"levelo://app?vid=e7c2dcb6-763d-4f2c-af13-7882f9a56f76"},"vehicle_type_id":"4","last_reported":1718478396,"current_range_meters":25600,"station_id":"ce4bhqh2rcd13ifvqhmg","pricing_plan_id":"cebpf4jnsgd1na2vs0mg"},{"bike_id":"b8133f7b-8cba-4f8c-b230-b7ae4a0facac","system_id":"levelo_inurba_marseille","lat":43.275589,"lon":5.384281,"is_reserved":false,"is_disabled":false,"rental_uris":{"android":"levelo://app?vid=b8133f7b-8cba-4f8c-b230-b7ae4a0facac","ios":"levelo://app?vid=b8133f7b-8cba-4f8c-b230-b7ae4a0facac"},"vehicle_type_id":"4","last_reported":1718478396,"current_range_meters":0,"station_id":"ce4bhh92rcd13ifvqfi0","pricing_plan_id":"cebpf4jnsgd1na2vs0mg"},{"bike_id":"96862916-bc7e-438c-a9ad-ed576d5c4806","system_id":"levelo_inurba_marseille","lat":43.336134,"lon":5.410341,"is_reserved":false,"is_disabled":false,"rental_uris":{"android":"levelo://app?vid=96862916-bc7e-438c-a9ad-ed576d5c4806","ios":"levelo://app?vid=96862916-bc7e-438c-a9ad-ed576d5c4806"},"vehicle_type_id":"4","last_reported":1718478396,"current_range_meters":17200,"station_id":"ce4bhqh2rcd13ifvqhmg","pricing_plan_id":"cebpf4jnsgd1na2vs0mg"},{"bike_id":"c9e5712b-ce7d-4300-a95a-1a952d6579dc","system_id":"levelo_inurba_marseille","lat":43.276685,"lon":5.38896,"is_reserved":false,"is_disabled":false,"rental_uris":{"android":"levelo://app?vid=c9e5712b-ce7d-4300-a95a-1a952d6579dc","ios":"levelo://app?vid=c9e5712b-ce7d-4300-a95a-1a952d6579dc"},"vehicle_type_id":"4","last_reported":1718478396,"current_range_meters":0,"station_id":"ce4bhi12rcd13ifvqfo0","pricing_plan_id":"cebpf4jnsgd1na2vs0mg"},{"bike_id":"35057ea3-f3a9-4b46-9fa3-95f4846ea680","system_id":"levelo_inurba_marseille","lat":43.279952,"lon":5.400085,"is_reserved":false,"is_disabled":false,"rental_uris":{"android":"levelo://app?vid=35057ea3-f3a9-4b46-9fa3-95f4846ea680","ios":"levelo://app?vid=35057ea3-f3a9-4b46-9fa3-95f4846ea680"},"vehicle_type_id":"4","last_reported":1718478396,"current_range_meters":10800,"station_id":"ce4bho92rcd13ifvqh4g","pricing_plan_id":"cebpf4jnsgd1na2vs0mg"},{"bike_id":"ebde351f-f5de-4836-b8c3-27a4a780fc28","system_id":"levelo_inurba_marseille","lat":43.310785,"lon":5.424305,"is_reserved":false,"is_disabled":false,"rental_uris":{"android":"levelo://app?vid=ebde351f-f5de-4836-b8c3-27a4a780fc28","ios":"levelo://app?vid=ebde351f-f5de-4836-b8c3-27a4a780fc28"},"vehicle_type_id":"4","last_reported":1718478396,"current_range_meters":0,"station_id":"ce4bhp92rcd13ifvqhag","pricing_plan_id":"cebpf4jnsgd1na2vs0mg"},{"bike_id":"163dfbdf-e85c-4b19-b8d9-7c4f9f13d0fc","system_id":"levelo_inurba_marseille","lat":43.340804,"lon":5.410219,"is_reserved":false,"is_disabled":false,"rental_uris":{"android":"levelo://app?vid=163dfbdf-e85c-4b19-b8d9-7c4f9f13d0fc","ios":"levelo://app?vid=163dfbdf-e85c-4b19-b8d9-7c4f9f13d0fc"},"vehicle_type_id":"4","last_reported":1718478396,"current_range_meters":6800,"station_id":"ce4bhqh2rcd13ifvqhlg","pricing_plan_id":"cebpf4jnsgd1na2vs0mg"},{"bike_id":"25ba613d-c6bf-4fb4-a9f9-2e586458f929","system_id":"levelo_inurba_marseille","lat":43.273129,"lon":5.390725,"is_reserved":false,"is_disabled":false,"rental_uris":{"android":"levelo://app?vid=25ba613d-c6bf-4fb4-a9f9-2e586458f929","ios":"levelo://app?vid=25ba613d-c6bf-4fb4-a9f9-2e586458f929"},"vehicle_type_id":"4","last_reported":1718478396,"current_range_meters":2000,"station_id":"ce4bhgp2rcd13ifvqfe0","pricing_plan_id":"cebpf4jnsgd1na2vs0mg"},{"bike_id":"328e4be0-6e8f-413f-81ac-1f03ed36b1db","system_id":"levelo_inurba_marseille","lat":43.273207,"lon":5.390884,"is_reserved":false,"is_disabled":false,"rental_uris":{"android":"levelo://app?vid=328e4be0-6e8f-413f-81ac-1f03ed36b1db","ios":"levelo://app?vid=328e4be0-6e8f-413f-81ac-1f03ed36b1db"},"vehicle_type_id":"4","last_reported":1718478396,"current_range_meters":0,"station_id":"ce4bhgp2rcd13ifvqfe0","pricing_plan_id":"cebpf4jnsgd1na2vs0mg"},{"bike_id":"0d77ac75-3d8a-475e-8507-8953f0f27d52","system_id":"levelo_inurba_marseille","lat":43.29553,"lon":5.42283,"is_reserved":false,"is_disabled":false,"rental_uris":{"android":"levelo://app?vid=0d77ac75-3d8a-475e-8507-8953f0f27d52","ios":"levelo://app?vid=0d77ac75-3d8a-475e-8507-8953f0f27d52"},"vehicle_type_id":"4","last_reported":1718478396,"current_range_meters":800,"station_id":"ce4bhph2rcd13ifvqhdg","pricing_plan_id":"cebpf4jnsgd1na2vs0mg"},