{"last_updated":1734628036,"ttl":60,"version":"2.2","data":{"bikes":[{"bike_id":"422020d4-f576-417e-9960-b3455a82ff39","system_id":"levelo_inurba_marseille","lat":43.29443,"lon":5.3975,"is_reserved":false,"is_disabled":false,"rental_uris":{"android":"levelo://app?vid=422020d4-f576-417e-9960-b3455a82ff39","ios":"levelo://app?vid=422020d4-f576-417e-9960-b3455a82ff39"},"vehicle_type_id":"4","last_reported":1734628037,"current_range_meters":14400,"station_id":"ce4bh3h2rcd13ifvqdo0","pricing_plan_id":"cebpf4jnsgd1na2vs0mg"},{"bike_id":"74dc27b5-e2a4-4b1e-9dc3-5894ac4bda0a","system_id":"levelo_inurba_marseille","lat":43.29781,"lon":5.37278,"is_reserved":false,"is_disabled":true,"rental_uris":{"android":"levelo://app?vid=74dc27b5-e2a4-4b1e-9dc3-5894ac4bda0a","ios":"levelo://app?vid=74dc27b5-e2a4-4b1e-9dc3-5894ac4bda0a"},"vehicle_type_id":"4","last_reported":1734628037,"current_range_meters":800,"station_id":"","pricing_plan_id":"cebpf4jnsgd1na2vs0mg"},{"bike_id":"eb156c91-5c91-4664-a66b-8fb17c1b7811","system_id":"levelo_inurba_marseille","lat":43.28445,"lon":5.39201,"is_reserved":false,"is_disabled":true,"rental_uris":{"android":"levelo://app?vid=eb156c91-5c91-4664-a66b-8fb17c1b7811","ios":"levelo://app?vid=eb156c91-5c91-4664-a66b-8fb17c1b7811"},"vehicle_type_id":"4","last_reported":1734628037,"current_range_meters":0,"station_id":"ce4bhoh2rcd13ifvqh5g","pricing_plan_id":"cebpf4jnsgd1na2vs0mg"},{"bike_id":"4e0d5b39-afd3-4e52-be5e-25834de0d0ff","system_id":"levelo_inurba_marseille","lat":43.29569,"lon":5.37517,"is_reserved":false,"is_disabled":false,"rental_uris":{"android":"levelo://app?vid=4e0d5b39-afd3-4e52-be5e-25834de0d0ff","ios":"levelo://app?vid=4e0d5b39-afd3-4e52-be5e-25834de0d0ff"},"vehicle_type_id":"4","last_reported":1734628037,"current_range_meters":4400,"station_id":"ce4bgh92rcd13ifvqb50","pricing_plan_id":"cebpf4jnsgd1na2vs0mg"},{"bike_id":"26820210-ecc1-45e6-ba91-b125210aa70f","system_id":"levelo_inurba_marseille","lat":43.32349,"lon":5.38878,"is_reserved":false,"is_disabled":false,"rental_uris":{"android":"levelo://app?vid=26820210-ecc1-45e6-ba91-b125210aa70f","ios":"levelo://app?vid=26820210-ecc1-45e6-ba91-b125210aa70f"},"vehicle_type_id":"4","last_reported":1734628037,"current_range_meters":4400,"station_id":"ce4bhqp2rcd13ifvqhog","pricing_plan_id":"cebpf4jnsgd1na2vs0mg"},{"bike_id":"0ac45d5e-f762-4ed7-ad2d-13180b287ea1","system_id":"levelo_inurba_marseille","lat":43.314802,"lon":5.373063,"is_reserved":false,"is_disabled":false,"rental_uris":{"android":"levelo://app?vid=0ac45d5e-f762-4ed7-ad2d-13180b287ea1","ios":"levelo://app?vid=0ac45d5e-f762-4ed7-ad2d-13180b287ea1"},"vehicle_type_id":"4","last_reported":1734628037,"current_range_meters":9600,"station_id":"ce4bgt12rcd13ifvqcd0","pricing_plan_id":"cebpf4jnsgd1na2vs0mg"},{"bike_id":"0b3c962c-40d1-4375-b60d-644d72aaacf1","system_id":"levelo_inurba_marseille","lat":43.28012,"lon":5.40403,"is_reserved":false,"is_disabled":true,"rental_uris":{"android":"levelo://app?vid=0b3c962c-40d1-4375-b60d-644d72aaacf1","ios":"levelo://app?vid=0b3c962c-40d1-4375-b60d-644d72aaacf1"},"vehicle_type_id":"4","last_reported":1734628037,"current_range_meters":0,"station_id":"","pricing_plan_id":"cebpf4jnsgd1na2vs0mg"},{"bike_id":"18874ea4-7df2-4943-8811-5c235c11241e","system_id":"levelo_inurba_marseille","lat":43.29733,"lon":5.37693,"is_reserved":false,"is_disabled":false,"rental_uris":{"android":"levelo://app?vid=18874ea4-7df2-4943-8811-5c235c11241e","ios":"levelo://app?vid=18874ea4-7df2-4943-8811-5c235c11241e"},"vehicle_type_id":"4","last_reported":1734628037,"current_range_meters":4000,"station_id":"ce4bgkh2rcd13ifvqbl0","pricing_plan_id":"cebpf4jnsgd1na2vs0mg"},{"bike_id":"b3ca4fe4-550c-42a3-b98d-0ca615b243f9","system_id":"levelo_inurba_marseille","lat":43.28716,"lon":5.36096,"is_reserved":false,"is_disabled":false,"rental_uris":{"android":"levelo://app?vid=b3ca4fe4-550c-42a3-b98d-0ca615b243f9","ios":"levelo://app?vid=b3ca4fe4-550c-42a3-b98d-0ca615b243f9"},"vehicle_type_id":"4","last_reported":1734628037,"current_range_meters":20000,"station_id":"cki0cbj6b192h4jlfktg","pricing_plan_id":"cebpf4jnsgd1na2vs0mg"},{"bike_id":"fc1195db-d2a4-4236-a24d-6568ee5e1d12","system_id":"levelo_inurba_marseille","lat":43.29253,"lon":5.38436,"is_reserved":false,"is_disabled":false,"rental_uris":{"android":"levelo://app?vid=fc1195db-d2a4-4236-a24d-6568ee5e1d12","ios":"levelo://app?vid=fc1195db-d2a4-4236-a24d-6568ee5e1d12"},"vehicle_type_id":"4","last_reported":1734628037,"current_range_meters":30800,"station_id":"ce4bh692rcd13ifvqea0","pricing_plan_id":"cebpf4jnsgd1na2vs0mg"},{"bike_id":"28b08075-3db5-452c-8468-b040dcaacf83","system_id":"levelo_inurba_marseille","lat":43.29232,"lon":5.36057,"is_reserved":false,"is_disabled":false,"rental_uris":{"android":"levelo://app?vid=28b08075-3db5-452c-8468-b040dcaacf83","ios":"levelo://app?vid=28b08075-3db5-452c-8468-b040dcaacf83"},"vehicle_type_id":"4","last_reported":1734628037,"current_range_meters":14800,"station_id":"ce4bhbh2rcd13ifvqeqg","pricing_plan_id":"cebpf4jnsgd1na2vs0mg"},{"bike_id":"53216bc0-db19-436b-803c-24b87a4c95f3","system_id":"levelo_inurba_marseille","lat":43.32504,"lon":5.36575,"is_reserved":false,"is_disabled":false,"rental_uris":{"android":"levelo://app?vid=53216bc0-db19-436b-803c-24b87a4c95f3","ios":"levelo://app?vid=53216bc0-db19-436b-803c-24b87a4c95f3"},"vehicle_type_id":"4","last_reported":1734628037,"current_range_meters":38800,"station_id":"ce4bhs12rcd13ifvqhvg","pricing_plan_id":"cebpf4jnsgd1na2vs0mg"},{"bike_id":"71f5eaf4-b4f1-4fb8-9144-1ec41f037546","system_id":"levelo_inurba_marseille","lat":43.25084,"lon":5.395185,"is_reserved":false,"is_disabled":false,"rental_uris":{"android":"levelo://app?vid=71f5eaf4-b4f1-4fb8-9144-1ec41f037546","ios":"levelo://app?vid=71f5eaf4-b4f1-4fb8-9144-1ec41f037546"},"vehicle_type_id":"4","last_reported":1734628037,"current_range_meters":38800,"station_id":"ce4bhm12rcd13ifvqgkg","pricing_plan_id":"cebpf4jnsgd1na2vs0mg"},{"bike_id":"02bf8158-426b-4335-9b97-c473816a1fd2","system_id":"levelo_inurba_marseille","lat":43.25824,"lon":5.39434,"is_reserved":false,"is_disabled":false,"rental_uris":{"android":"levelo://app?vid=02bf8158-426b-4335-9b97-c473816a1fd2","ios":"levelo://app?vid=02bf8158-426b-4335-9b97-c473816a1fd2"},"vehicle_type_id":"4","last_reported":1734628037,"current_range_meters":38400,"station_id":"ce4bhip2rcd13ifvqft0","pricing_plan_id":"cebpf4jnsgd1na2vs0mg"},{"bike_id":"53c5dd90-208e-4b14-9aec-3133385e99e3","system_id":"levelo_inurba_marseille","lat":43.29559,"lon":5.42282,"is_reserved":false,"is_disabled":false,"rental_uris":{"android":"levelo://app?vid=53c5dd90-208e-4b14-9aec-3133385e99e3","ios":"levelo://app?vid=53c5dd90-208e-4b14-9aec-3133385e99e3"},"vehicle_type_id":"4","last_reported":1734628037,"current_range_meters":38800,"station_id":"ce4bhph2rcd13ifvqhdg","pricing_plan_id":"cebpf4jnsgd1na2vs0mg"},{"bike_id":"b8ab8a40-a2b4-425d-a9ba-0fdbe3a77b74","system_id":"levelo_inurba_marseille","lat":43.31847,"lon":5.3748,"is_reserved":false,"is_disabled":false,"rental_uris":{"android":"levelo://app?vid=b8ab8a40-a2b4-425d-a9ba-0fdbe3a77b74","ios":"levelo://app?vid=b8ab8a40-a2b4-425d-a9ba-0fdbe3a77b74"},"vehicle_type_id":"4","last_reported":1734628037,"current_range_meters":27200,"station_id":"","pricing_plan_id":"cebpf4jnsgd1na2vs0mg"},{"bike_id":"41d4d63c-1601-40b8-9c24-4e8eca1ea969","system_id":"levelo_inurba_marseille","lat":43.31673,"lon":5.37784,"is_reserved":false,"is_disabled":false,"rental_uris":{"android":"levelo://app?vid=41d4d63c-1601-40b8-9c24-4e8eca1ea969","ios":"levelo://app?vid=41d4d63c-1601-40b8-9c24-4e8eca1ea969"},"vehicle_type_id":"4","last_reported":1734628037,"current_range_meters":38800,"station_id":"","pricing_plan_id":"cebpf4jnsgd1na2vs0mg"},{"bike_id":"113a464c-b13a-41dc-a267-77d7a3d7975e","system_id":"levelo_inurba_marseille","lat":43.25007,"lon":5.3891,"is_reserved":false,"is_disabled":false,"rental_uris":{"android":"levelo://app?vid=113a464c-b13a-41dc-a267-77d7a3d7975e","ios":"levelo://app?vid=113a464c-b13a-41dc-a267-77d7a3d7975e"},"vehicle_type_id":"4","last_reported":1734628037,"current_range_meters":18000,"station_id":"ce4bhgp2rcd13ifvqfd0","pricing_plan_id":"cebpf4jnsgd1na2vs0mg"},{"bike_id":"d957f81a-1f9a-4f7d-b684-f191a7c27c65","system_id":"levelo_inurba_marseille","lat":43.29295,"lon":5.3746,"is_reserved":false,"is_disabled":true,"rental_uris":{"android":"levelo://app?vid=d957f81a-1f9a-4f7d-b684-f191a7c27c65","ios":"levelo://app?vid=d957f81a-1f9a-4f7d-b684-f191a7c27c65"},"vehicle_type_id":"4","last_reported":1734628037,"current_range_meters":1200,"station_id":"ce4bgi12rcd13ifvqb70","pricing_plan_id":"cebpf4jnsgd1na2vs0mg"},{"bike_id":"85f27a5d-9af7-4b09-a20c-f802a8f11d6d","system_id":"levelo_inurba_marseille","lat":43.32662,"lon":5.40986,"is_reserved":false,"is_disabled":false,"rental_uris":{"android":"levelo://app?vid=85f27a5d-9af7-4b09-a20c-f802a8f11d6d","ios":"levelo://app?vid=85f27a5d-9af7-4b09-a20c-f802a8f11d6d"},"vehicle_type_id":"4","last_reported":1734628037,"current_range_meters":17200,"station_id":"ce4bhpp2rcd13ifvqhgg","pricing_plan_id":"cebpf4jnsgd1na2vs0mg"},{"bike_id":"d34bdf4f-71bc-4ae4-b273-f3852ddc692a","system_id":"levelo_inurba_marseille","lat":43.33756,"lon":5.37472,"is_reserved":false,"is_disabled":false,"rental_uris":{"android":"levelo://app?vid=d34bdf4f-71bc-4ae4-b273-f3852ddc692a","ios":"levelo://app?vid=d34bdf4f-71bc-4ae4-b273-f3852ddc692a"},"vehicle_type_id":"4","last_reported":1734628037,"current_range_meters":36800,"station_id":"","pricing_plan_id":"cebpf4jnsgd1na2vs0mg"},{"bike_id":"f64d73d0-f96c-4455-a454-0974d8a22425","system_id":"levelo_inurba_marseille","lat":43.30675,"lon":5.36815,"is_reserved":false,"is_disabled":true,"rental_uris":{"android":"levelo://app?vid=f64d73d0-f96c-4455-a454-0974d8a22425","ios":"levelo://app?vid=f64d73d0-f96c-4455-a454-0974d8a22425"},"vehicle_type_id":"4","last_reported":1734628037,"current_range_meters":0,"station_id":"","pricing_plan_id":"cebpf4jnsgd1na2vs0mg"},{"bike_id":"0b379038-c850-42aa-ad95-1a08981f0092","system_id":"levelo_inurba_marseille","lat":43.23184,"lon":5.39997,"is_reserved":false,"is_disabled":false,"rental_uris":{"android":"levelo://app?vid=0b379038-c850-42aa-ad95-1a08981f0092","ios":"levelo://app?vid=0b379038-c850-42aa-ad95-1a08981f0092"},"vehicle_type_id":"4","last_reported":1734628037,"current_range_meters":27200,"station_id":"ce4bhn12rcd13ifvqgqg","pricing_plan_id":"cebpf4jnsgd1na2vs0mg"},{"bike_id":"2405f6fb-a5d5-46a9-8a55-13511a5f7d44","system_id":"levelo_inurba_marseille","lat":43.27813,"lon":5.40712,"is_reserved":false,"is_disabled":false,"rental_uris":{"android":"levelo://app?vid=2405f6fb-a5d5-46a9-8a55-13511a5f7d44","ios":"levelo://app?vid=2405f6fb-a5d5-46a9-8a55-13511a5f7d44"},"vehicle_type_id":"4","last_reported":1734628037,"current_range_meters":6400,"station_id":"ce4bhnh2rcd13ifvqgtg","pricing_plan_id":"cebpf4jnsgd1na2vs0mg"},{"bike_id":"73d80cb8-df81-41d8-8b5f-bbf9b29b9a10","system_id":"levelo_inurba_marseille","lat":43.28694,"lon":5.39976,"is_reserved":false,"is_disabled":false,"rental_uris":{"android":"levelo://app?vid=73d80cb8-df81-41d8-8b5f-bbf9b29b9a10","ios":"levelo://app?vid=73d80cb8-df81-41d8-8b5f-bbf9b29b9a10"},"vehicle_type_id":"4","last_reported":1734628037,"current_range_meters":33200,"station_id":"ce4bho92rcd13ifvqh3g","pricing_plan_id":"cebpf4jnsgd1na2vs0mg"},{"bike_id":"81563e3c-f2e0-4100-87ee-0bdd7cbc96f2","system_id":"levelo_inurba_marseille","lat":43.32334,"lon":5.40622,"is_reserved":false,"is_disabled":false,"rental_uris":{"android":"levelo://app?vid=81563e3c-f2e0-4100-87ee-0bdd7cbc96f2","ios":"levelo://app?vid=81563e3c-f2e0-4100-87ee-0bdd7cbc96f2"},"vehicle_type_id":"4","last_reported":1734628037,"current_range_meters":20000,"station_id":"ce4bhq92rcd13ifvqhjg","pricing_plan_id":"cebpf4jnsgd1na2vs0mg"},{"bike_id":"b042baac-48e3-41d4-beca-2c2cc4a183f1","system_id":"levelo_inurba_marseille","lat":43.23197,"lon":5.3555,"is_reserved":false,"is_disabled":false,"rental_uris":{"android":"levelo://app?vid=b042baac-48e3-41d4-beca-2c2cc4a183f1","ios":"levelo://app?vid=b042baac-48e3-41d4-beca-2c2cc4a183f1"},"vehicle_type_id":"4","last_reported":1734628037,"current_range_meters":38800,"station_id":"ce4bhu92rcd13ifvqi70","pricing_plan_id":"cebpf4jnsgd1na2vs0mg"},{"bike_id":"1d7ad289-83a7-40a0-901a-32d2c726e903","system_id":"levelo_inurba_marseille","lat":43.25474,"lon":5.3766,"is_reserved":false,"is_disabled":false,"rental_uris":{"android":"levelo://app?vid=1d7ad289-83a7-40a0-901a-32d2c726e903","ios":"levelo://app?vid=1d7ad289-83a7-40a0-901a-32d2c726e903"},"vehicle_type_id":"4","last_reported":1734628037,"current_range_meters":23200,"station_id":"ce4bhh12rcd13ifvqff0","pricing_plan_id":"cebpf4jnsgd1na2vs0mg"},{"bike_id":"b0a13592-7cce-4d9c-b407-7810a71613ab","system_id":"levelo_inurba_marseille","lat":43.28732,"lon":5.36086,"is_reserved":false,"is_disabled":false,"rental_uris":{"android":"levelo://app?vid=b0a13592-7cce-4d9c-b407-7810a71613ab","ios":"levelo://app?vid=b0a13592-7cce-4d9c-b407-7810a71613ab"},"vehicle_type_id":"4","last_reported":1734628037,"current_range_meters":38800,"station_id":"cki0cbj6b192h4jlfktg","pricing_plan_id":"cebpf4jnsgd1na2vs0mg"},{"bike_id":"e53b6013-9de8-4c75-a245-0f8148904c08","system_id":"levelo_inurba_marseille","lat":43.26198,"lon":5.37933,"is_reserved":false,"is_disabled":false,"rental_uris":{"android":"levelo://app?vid=e53b6013-9de8-4c75-a245-0f8148904c08","ios":"levelo://app?vid=e53b6013-9de8-4c75-a245-0f8148904c08"},"vehicle_type_id":"4","last_reported":1734628037,"current_range_meters":30400,"station_id":"ce4bhjp2rcd13ifvqg90","pricing_plan_id":"cebpf4jnsgd1na2vs0mg"},{"bike_id":"8c4ecedf-c52e-488a-b2f9-f8570f79cdde","system_id":"levelo_inurba_marseille","lat":43.28081,"lon":5.39647,"is_reserved":false,"is_disabled":false,"rental_uris":{"android":"levelo://app?vid=8c4ecedf-c52e-488a-b2f9-f8570f79cdde","ios":"levelo://app?vid=8c4ecedf-c52e-488a-b2f9-f8570f79cdde"},"vehicle_type_id":"4","last_reported":1734628037,"current_range_meters":19600,"station_id":"ce4bho12rcd13ifvqh2g","pricing_plan_id":"cebpf4jnsgd1na2vs0mg"},{"bike_id":"33900208-cbcc-44c7-a93a-e8ccb167dd7c","system_id":"levelo_inurba_marseille","lat":43.255827,"lon":5.382317,"is_reserved":false,"is_disabled":true,"rental_uris":{"android":"levelo://app?vid=33900208-cbcc-44c7-a93a-e8ccb167dd7c","ios":"levelo://app?vid=33900208-cbcc-44c7-a93a-e8ccb167dd7c"},"vehicle_type_id":"4","last_reported":1734628037,"current_range_meters":0,"station_id":"ce4bhih2rcd13ifvqfs0","pricing_plan_id":"cebpf4jnsgd1na2vs0mg"},{"bike_id":"657419b1-8949-4c48-abfd-643c2ae4df4a","system_id":"levelo_inurba_marseille","lat":43.29267,"lon":5.40905,"is_reserved":false,"is_disabled":false,"rental_uris":{"android":"levelo://app?vid=657419b1-8949-4c48-abfd-643c2ae4df4a","ios":"levelo://app?vid=657419b1-8949-4c48-abfd-643c2ae4df4a"},"vehicle_type_id":"4","last_reported":1734628037,"current_range_meters":26000,"station_id":"ce4bh192rcd13ifvqdc0","pricing_plan_id":"cebpf4jnsgd1na2vs0mg"},{"bike_id":"2c1c15aa-8557-4961-9172-ea0ea2d66d1e","system_id":"levelo_inurba_marseille","lat":43.28938,"lon":5.36403,"is_reserved":false,"is_disabled":false,"rental_uris":{"android":"levelo://app?vid=2c1c15aa-8557-4961-9172-ea0ea2d66d1e","ios":"levelo://app?vid=2c1c15aa-8557-4961-9172-ea0ea2d66d1e"},"vehicle_type_id":"4","last_reported":1734628037,"current_range_meters":22000,"station_id":"ce4bhc92rcd13ifvqetg","pricing_plan_id":"cebpf4jnsgd1na2vs0mg"},{"bike_id":"45eef7a2-7813-485d-b132-f34196de9793","system_id":"levelo_inurba_marseille","lat":43.2873,"lon":5.36093,"is_reserved":false,"is_disabled":false,"rental_uris":{"android":"levelo://app?vid=45eef7a2-7813-485d-b132-f34196de9793","ios":"levelo://app?vid=45eef7a2-7813-485d-b132-f34196de9793"},"vehicle_type_id":"4","last_reported":1734628037,"current_range_meters":24400,"station_id":"cki0cbj6b192h4jlfktg","pricing_plan_id":"cebpf4jnsgd1na2vs0mg"},{"bike_id":"7d8b4789-db38-4881-a12e-8303c1c118b0","system_id":"levelo_inurba_marseille","lat":43.30331,"lon":5.36649,"is_reserved":false,"is_disabled":false,"rental_uris":{"android":"levelo://app?vid=7d8b4789-db38-4881-a12e-8303c1c118b0","ios":"levelo://app?vid=7d8b4789-db38-4881-a12e-8303c1c118b0"},"vehicle_type_id":"4","last_reported":1734628037,"current_range_meters":30400,"station_id":"","pricing_plan_id":"cebpf4jnsgd1na2vs0mg"},{"bike_id":"8188cfa1-62d4-4be4-aee4-c0fa6598c977","system_id":"levelo_inurba_marseille","lat":43.33721,"lon":5.39173,"is_reserved":false,"is_disabled":false,"rental_uris":{"android":"levelo://app?vid=8188cfa1-62d4-4be4-aee4-c0fa6598c977","ios":"levelo://app?vid=8188cfa1-62d4-4be4-aee4-c0fa6598c977"},"vehicle_type_id":"4","last_reported":1734628037,"current_range_meters":21600,"station_id":"ce4bhr92rcd13ifvqhsg","pricing_plan_id":"cebpf4jnsgd1na2vs0mg"},{"bike_id":"f098a4f3-a5b3-4cd3-a980-8d0eabbb5794","system_id":"levelo_inurba_marseille","lat":43.30928,"lon":5.40141,"is_reserved":false,"is_disabled":false,"rental_uris":{"android":"levelo://app?vid=f098a4f3-a5b3-4cd3-a980-8d0eabbb5794","ios":"levelo://app?vid=f098a4f3-a5b3-4cd3-a980-8d0eabbb5794"},"vehicle_type_id":"4","last_reported":1734628037,"current_range_meters":17600,"station_id":"ce4bgvp2rcd13ifvqct0","pricing_plan_id":"cebpf4jnsgd1na2vs0mg"},{"bike_id":"0cbdc7df-3ad3-411e-801f-efd40f79c8c9","system_id":"levelo_inurba_marseille","lat":43.27997,"lon":5.40003,"is_reserved":false,"is_disabled":false,"rental_uris":{"android":"levelo://app?vid=0cbdc7df-3ad3-411e-801f-efd40f79c8c9","ios":"levelo://app?vid=0cbdc7df-3ad3-411e-801f-efd40f79c8c9"},"vehicle_type_id":"4","last_reported":1734628037,"current_range_meters":6800,"station_id":"ce4bho92rcd13ifvqh4g","pricing_plan_id":"cebpf4jnsgd1na2vs0mg"},{"bike_id":"527145e3-8560-4c5d-a3d1-583e0baa4445","system_id":"levelo_inurba_marseille","lat":43.31715,"lon":5.37833,"is_reserved":false,"is_disabled":false,"rental_uris":{"android":"levelo://app?vid=527145e3-8560-4c5d-a3d1-583e0baa4445","ios":"levelo://app?vid=527145e3-8560-4c5d-a3d1-583e0baa4445"},"vehicle_type_id":"4","last_reported":1734628037,"current_range_meters":25200,"station_id":"ce4bgth2rcd13ifvqch0","pricing_plan_id":"cebpf4jnsgd1na2vs0mg"},{"bike_id":"ef2e42d7-adfb-4e08-8992-94a17c47e449","system_id":"levelo_inurba_marseille","lat":43.26201,"lon":5.3793,"is_reserved":false,"is_disabled":false,"rental_uris":{"android":"levelo://app?vid=ef2e42d7-adfb-4e08-8992-94a17c47e449","ios":"levelo://app?vid=ef2e42d7-adfb-4e08-8992-94a17c47e449"},"vehicle_type_id":"4","last_reported":1734628037,"current_range_meters":22400,"station_id":"ce4bhjp2rcd13ifvqg90","pricing_plan_id":"cebpf4jnsgd1na2vs0mg"},{"bike_id":"e3abb7e0-9fa8-46b1-a69d-69b2f3b7f2a3","system_id":"levelo_inurba_marseille","lat":43.28099,"lon":5.37833,"is_reserved":false,"is_disabled":false,"rental_uris":{"android":"levelo://app?vid=e3abb7e0-9fa8-46b1-a69d-69b2f3b7f2a3","ios":"levelo://app?vid=e3abb7e0-9fa8-46b1-a69d-69b2f3b7f2a3"},"vehicle_type_id":"4","last_reported":1734628037,"current_range_meters":9600,"station_id":"ce4bha12rcd13ifvqee0","pricing_plan_id":"cebpf4jnsgd1na2vs0mg"},{"bike_id":"6035dc28-1c55-41cb-96ea-be9f8f5d9505","system_id":"levelo_inurba_marseille","lat":43.29208,"lon":5.39331,"is_reserved":false,"is_disabled":false,"rental_uris":{"android":"levelo://app?vid=6035dc28-1c55-41cb-96ea-be9f8f5d9505","ios":"levelo://app?vid=6035dc28-1c55-41cb-96ea-be9f8f5d9505"},"vehicle_type_id":"4","last_reported":1734628037,"current_range_meters":25600,"station_id":"ce4bh192rcd13ifvqdd0","pricing_plan_id":"cebpf4jnsgd1na2vs0mg"},{"bike_id":"63cff5eb-1415-48a9-b127-707db35946f5","system_id":"levelo_inurba_marseille","lat":43.27843,"lon":5.39187,"is_reserved":false,"is_disabled":true,"rental_uris":{"android":"levelo://app?vid=63cff5eb-1415-48a9-b127-707db35946f5","ios":"levelo://app?vid=63cff5eb-1415-48a9-b127-707db35946f5"},"vehicle_type_id":"4","last_reported":1734628037,"current_range_meters":0,"station_id":"ce4bhjp2rcd13ifvqga0","pricing_plan_id":"cebpf4jnsgd1na2vs0mg"},{"bike_id":"fb6f151f-30af-4d4b-bd03-36996ec5a8d2","system_id":"levelo_inurba_marseille","lat":43.29521,"lon":5.39407,"is_reserved":false,"is_disabled":false,"rental_uris":{"android":"levelo://app?vid=fb6f151f-30af-4d4b-bd03-36996ec5a8d2","ios":"levelo://app?vid=fb6f151f-30af-4d4b-bd03-36996ec5a8d2"},"vehicle_type_id":"4","last_reported":1734628037,"current_range_meters":38800,"station_id":"ce4bh292rcd13ifvqdf0","pricing_plan_id":"cebpf4jnsgd1na2vs0mg"},{"bike_id":"445e41c2-b816-46a1-9791-b9c50e858ad5","system_id":"levelo_inurba_marseille","lat":43.315612,"lon":5.403639,"is_reserved":false,"is_disabled":false,"rental_uris":{"android":"levelo://app?vid=445e41c2-b816-46a1-9791-b9c50e858ad5","ios":"levelo://app?vid=445e41c2-b816-46a1-9791-b9c50e858ad5"},"vehicle_type_id":"4","last_reported":1734628037,"current_range_meters":8800,"station_id":"ce4bhpp2rcd13ifvqhgg","pricing_plan_id":"cebpf4jnsgd1na2vs0mg"},{"bike_id":"c5d3dda4-9397-4823-9c8b-ea8eda2ab949","system_id":"levelo_inurba_marseille","lat":43.23964,"lon":5.36637,"is_reserved":false,"is_disabled":false,"rental_uris":{"android":"levelo://app?vid=c5d3dda4-9397-4823-9c8b-ea8eda2ab949","ios":"levelo://app?vid=c5d3dda4-9397-4823-9c8b-ea8eda2ab949"},"vehicle_type_id":"4","last_reported":1734628037,"current_range_meters":38000,"station_id":"ce4bhi12rcd13ifvqfp0","pricing_plan_id":"cebpf4jnsgd1na2vs0mg"},{"bike_id":"7fd59132-6ad1-4566-9810-9e39032f69c5","system_id":"levelo_inurba_marseille","lat":43.29203,"lon":5.39323,"is_reserved":false,"is_disabled":false,"rental_uris":{"android":"levelo://app?vid=7fd59132-6ad1-4566-9810-9e39032f69c5","ios":"levelo://app?vid=7fd59132-6ad1-4566-9810-9e39032f69c5"},"vehicle_type_id":"4","last_reported":1734628037,"current_range_meters":38400,"station_id":"ce4bh192rcd13ifvqdd0","pricing_plan_id":"cebpf4jnsgd1na2vs0mg"},{"bike_id":"7094a23c-c35f-45f7-8004-7f866e8eae59","system_id":"levelo_inurba_marseille","lat":43.28148,"lon":5.42597,"is_reserved":false,"is_disabled":true,"rental_uris":{"android":"levelo://app?vid=7094a23c-c35f-45f7-8004-7f866e8eae59","ios":"levelo://app?vid=7094a23c-c35f-45f7-8004-7f866e8eae59"},"vehicle_type_id":"4","last_reported":1734628037,"current_range_meters":1200,"station_id":"ce4bhnh2rcd13ifvqgug","pricing_plan_id":"cebpf4jnsgd1na2vs0mg"},{"bike_id":"b11dec3c-37ae-4e5f-a182-7db8571c22d2","system_id":"levelo_inurba_marseille","lat":43.298974,"lon":5.436584,"is_reserved":false,"is_disabled":false,"rental_uris":{"android":"levelo://app?vid=b11dec3c-37ae-4e5f-a182-7db8571c22d2","ios":"levelo://app?vid=b11dec3c-37ae-4e5f-a182-7db8571c22d2"},"vehicle_type_id":"4","last_reported":1734628037,"current_range_meters":36000,"station_id":"ce4bhpp2rcd13ifvqhfg","pricing_plan_id":"cebpf4jnsgd1na2vs0mg"},{"bike_id":"72492ff3-d3e5-4b81-822b-1d3357339451","system_id":"levelo_inurba_marseille","lat":43.29087,"lon":5.39884,"is_reserved":false,"is_disabled":true,"rental_uris":{"android":"levelo://app?vid=72492ff3-d3e5-4b81-822b-1d3357339451","ios":"levelo://app?vid=72492ff3-d3e5-4b81-822b-1d3357339451"},"vehicle_type_id":"4","last_reported":1734628037,"current_range_meters":35200,"station_id":"","pricing_plan_id":"cebpf4jnsgd1na2vs0mg"},{"bike_id":"cf5529f6-8483-4075-9b66-80f440317d2a","system_id":"levelo_inurba_marseille","lat":43.28153,"lon":5.42645,"is_reserved":false,"is_disabled":false,"rental_uris":{"android":"levelo://app?vid=cf5529f6-8483-4075-9b66-80f440317d2a","ios":"levelo://app?vid=cf5529f6-8483-4075-9b66-80f440317d2a"},"vehicle_type_id":"4","last_reported":1734628037,"current_range_meters":24400,"station_id":"ce4bhnh2rcd13ifvqgug","pricing_plan_id":"cebpf4jnsgd1na2vs0mg"},{"bike_id":"5d44717a-0994-4c49-8107-8c711f8d91f2","system_id":"levelo_inurba_marseille","lat":43.27667,"lon":5.38905,"is_reserved":false,"is_disabled":false,"rental_uris":{"android":"levelo://app?vid=5d44717a-0994-4c49-8107-8c711f8d91f2","ios":"levelo://app?vid=5d44717a-0994-4c49-8107-8c711f8d91f2"},"vehicle_type_id":"4","last_reported":1734628037,"current_range_meters":27600,"station_id":"ce4bhi12rcd13ifvqfo0","pricing_plan_id":"cebpf4jnsgd1na2vs0mg"},{"bike_id":"c6eac602-9754-4e9d-8972-87c49c925ed4","system_id":"levelo_inurba_marseille","lat":43.2784,"lon":5.40733,"is_reserved":false,"is_disabled":true,"rental_uris":{"android":"levelo://app?vid=c6eac602-9754-4e9d-8972-87c49c925ed4","ios":"levelo://app?vid=c6eac602-9754-4e9d-8972-87c49c925ed4"},"vehicle_type_id":"4","last_reported":1734628037,"current_range_meters":800,"station_id":"ce4bhnh2rcd13ifvqgtg","pricing_plan_id":"cebpf4jnsgd1na2vs0mg"},{"bike_id":"b9ff7013-b9bd-4048-ae9a-ae4943aa6566","system_id":"levelo_inurba_marseille","lat":43.33023,"lon":5.39036,"is_reserved":false,"is_disabled":false,"rental_uris":{"android":"levelo://app?vid=b9ff7013-b9bd-4048-ae9a-ae4943aa6566","ios":"levelo://app?vid=b9ff7013-b9bd-4048-ae9a-ae4943aa6566"},"vehicle_type_id":"4","last_reported":1734628037,"current_range_meters":27200,"station_id":"ce4bhr92rcd13ifvqhrg","pricing_plan_id":"cebpf4jnsgd1na2vs0mg"},{"bike_id":"92dbe881-4d12-4807-9474-87af83394dc5","system_id":"levelo_inurba_marseille","lat":43.3136,"lon":5.36722,"is_reserved":false,"is_disabled":false,"rental_uris":{"android":"levelo://app?vid=92dbe881-4d12-4807-9474-87af83394dc5","ios":"levelo://app?vid=92dbe881-4d12-4807-9474-87af83394dc5"},"vehicle_type_id":"4","last_reported":1734628037,"current_range_meters":33600,"station_id":"ce4bgr92rcd13ifvqc6g","pricing_plan_id":"cebpf4jnsgd1na2vs0mg"},{"bike_id":"78471806-92f3-4670-9c4a-cbf55d75e3f8","system_id":"levelo_inurba_marseille","lat":43.32492,"lon":5.36559,"is_reserved":false,"is_disabled":false,"rental_uris":{"android":"levelo://app?vid=78471806-92f3-4670-9c4a-cbf55d75e3f8","ios":"levelo://app?vid=78471806-92f3-4670-9c4a-cbf55d75e3f8"},"vehicle_type_id":"4","last_reported":1734628037,"current_range_meters":38800,"station_id":"ce4bhs12rcd13ifvqhvg","pricing_plan_id":"cebpf4jnsgd1na2vs0mg"},{"bike_id":"c7e490b6-7b86-4df5-b028-b62a723b580a","system_id":"levelo_inurba_marseille","lat":43.2668,"lon":5.38267,"is_reserved":false,"is_disabled":false,"rental_uris":{"android":"levelo://app?vid=c7e490b6-7b86-4df5-b028-b62a723b580a","ios":"levelo://app?vid=c7e490b6-7b86-4df5-b028-b62a723b580a"},"vehicle_type_id":"4","last_reported":1734628037,"current_range_meters":28000,"station_id":"ce4bhg92rcd13ifvqf90","pricing_plan_id":"cebpf4jnsgd1na2vs0mg"},{"bike_id":"370b1eb6-4f45-4760-84c5-106172693f5d","system_id":"levelo_inurba_marseille","lat":43.2397,"lon":5.36628,"is_reserved":false,"is_disabled":false,"rental_uris":{"android":"levelo://app?vid=370b1eb6-4f45-4760-84c5-106172693f5d","ios":"levelo://app?vid=370b1eb6-4f45-4760-84c5-106172693f5d"},"vehicle_type_id":"4","last_reported":1734628037,"current_range_meters":27600,"station_id":"ce4bhi12rcd13ifvqfp0","pricing_plan_id":"cebpf4jnsgd1na2vs0mg"},{"bike_id":"782bcbf2-b7de-4b04-bebc-aaa0329dd90c","system_id":"levelo_inurba_marseille","lat":43.23202,"lon":5.35556,"is_reserved":false,"is_disabled":false,"rental_uris":{"android":"levelo://app?vid=782bcbf2-b7de-4b04-bebc-aaa0329dd90c","ios":"levelo://app?vid=782bcbf2-b7de-4b04-bebc-aaa0329dd90c"},"vehicle_type_id":"4","last_reported":1734628037,"current_range_meters":38800,"station_id":"ce4bhu92rcd13ifvqi70","pricing_plan_id":"cebpf4jnsgd1na2vs0mg"},{"bike_id":"97bdedfb-0eca-4ba9-9cbc-e30e49190c4e","system_id":"levelo_inurba_marseille","lat":43.28433,"lon":5.34985,"is_reserved":false,"is_disabled":false,"rental_uris":{"android":"levelo://app?vid=97bdedfb-0eca-4ba9-9cbc-e30e49190c4e","ios":"levelo://app?vid=97bdedfb-0eca-4ba9-9cbc-e30e49190c4e"},"vehicle_type_id":"4","last_reported":1734628037,"current_range_meters":33600,"station_id":"ce4bhbh2rcd13ifvqepg","pricing_plan_id":"cebpf4jnsgd1na2vs0mg"},{"bike_id":"2fde1f92-3827-4c76-8ad9-2db1a9a74cf3","system_id":"levelo_inurba_marseille","lat":43.295507,"lon":5.374903,"is_reserved":false,"is_disabled":true,"rental_uris":{"android":"levelo://app?vid=2fde1f92-3827-4c76-8ad9-2db1a9a74cf3","ios":"levelo://app?vid=2fde1f92-3827-4c76-8ad9-2db1a9a74cf3"},"vehicle_type_id":"4","last_reported":1734628037,"current_range_meters":0,"station_id":"","pricing_plan_id":"cebpf4jnsgd1na2vs0mg"},{"bike_id":"b6ef7654-9bbe-4bb8-b52c-88b5be1a2fc0","system_id":"levelo_inurba_marseille","lat":43.30609,"lon":5.37217,"is_reserved":false,"is_disabled":false,"rental_uris":{"android":"levelo://app?vid=b6ef7654-9bbe-4bb8-b52c-88b5be1a2fc0","ios":"levelo://app?vid=b6ef7654-9bbe-4bb8-b52c-88b5be1a2fc0"},"vehicle_type_id":"4","last_reported":1734628037,"current_range_meters":36800,"station_id":"ce4bgqh2rcd13ifvqc4g","pricing_plan_id":"cebpf4jnsgd1na2vs0mg"},{"bike_id":"96ff88dc-8cf7-4b0f-a345-fa00220da932","system_id":"levelo_inurba_marseille","lat":43.27418,"lon":5.42402,"is_reserved":false,"is_disabled":true,"rental_uris":{"android":"levelo://app?vid=96ff88dc-8cf7-4b0f-a345-fa00220da932","ios":"levelo://app?vid=96ff88dc-8cf7-4b0f-a345-fa00220da932"},"vehicle_type_id":"4","last_reported":1734628037,"current_range_meters":0,"station_id":"","pricing_plan_id":"cebpf4jnsgd1na2vs0mg"},{"bike_id":"73e2e9b6-149e-4894-bd12-5e7a50e1774d","system_id":"levelo_inurba_marseille","lat":43.24384,"lon":5.37062,"is_reserved":false,"is_disabled":false,"rental_uris":{"android":"levelo://app?vid=73e2e9b6-149e-4894-bd12-5e7a50e1774d","ios":"levelo://app?vid=73e2e9b6-149e-4894-bd12-5e7a50e1774d"},"vehicle_type_id":"4","last_reported":1734628037,"current_range_meters":13600,"station_id":"ce4bhhh2rcd13ifvqfk0","pricing_plan_id":"cebpf4jnsgd1na2vs0mg"},{"bike_id":"84dc931c-1972-44f7-898a-3ff57a1cf75d","system_id":"levelo_inurba_marseille","lat":43.31532,"lon":5.38032,"is_reserved":false,"is_disabled":false,"rental_uris":{"android":"levelo://app?vid=84dc931c-1972-44f7-898a-3ff57a1cf75d","ios":"levelo://app?vid=84dc931c-1972-44f7-898a-3ff57a1cf75d"},"vehicle_type_id":"4","last_reported":1734628037,"current_range_meters":4400,"station_id":"ce4bhsp2rcd13ifvqi50","pricing_plan_id":"cebpf4jnsgd1na2vs0mg"},{"bike_id":"2afb3ed0-b525-4941-85b3-b52a9d0e6996","system_id":"levelo_inurba_marseille","lat":43.28712,"lon":5.37376,"is_reserved":false,"is_disabled":false,"rental_uris":{"android":"levelo://app?vid=2afb3ed0-b525-4941-85b3-b52a9d0e6996","ios":"levelo://app?vid=2afb3ed0-b525-4941-85b3-b52a9d0e6996"},"vehicle_type_id":"4","last_reported":1734628037,"current_range_meters":7200,"station_id":"ce4bh3p2rcd13ifvqdq0","pricing_plan_id":"cebpf4jnsgd1na2vs0mg"},{"bike_id":"faec5c97-a47f-4a2e-a8ad-cbfefe0556f9","system_id":"levelo_inurba_marseille","lat":43.296135,"lon":5.37715,"is_reserved":false,"is_disabled":true,"rental_uris":{"android":"levelo://app?vid=faec5c97-a47f-4a2e-a8ad-cbfefe0556f9","ios":"levelo://app?vid=faec5c97-a47f-4a2e-a8ad-cbfefe0556f9"},"vehicle_type_id":"4","last_reported":1734628037,"current_range_meters":1200,"station_id":"ce4bgi92rcd13ifvqb90","pricing_plan_id":"cebpf4jnsgd1na2vs0mg"},{"bike_id":"c1a2d2ec-8a9f-40df-b978-a9dabf4c29e4","system_id":"levelo_inurba_marseille","lat":43.2694,"lon":5.40234,"is_reserved":false,"is_disabled":true,"rental_uris":{"android":"levelo://app?vid=c1a2d2ec-8a9f-40df-b978-a9dabf4c29e4","ios":"levelo://app?vid=c1a2d2ec-8a9f-40df-b978-a9dabf4c29e4"},"vehicle_type_id":"4","last_reported":1734628037,"current_range_meters":0,"station_id":"cjm6bp8fraef2m0cb0m0","pricing_plan_id":"cebpf4jnsgd1na2vs0mg"},{"bike_id":"7d3284d5-3f82-4c96-9ecc-ae4492d2655a","system_id":"levelo_inurba_marseille","lat":43.33024,"lon":5.39037,"is_reserved":false,"is_disabled":false,"rental_uris":{"android":"levelo://app?vid=7d3284d5-3f82-4c96-9ecc-ae4492d2655a","ios":"levelo://app?vid=7d3284d5-3f82-4c96-9ecc-ae4492d2655a"},"vehicle_type_id":"4","last_reported":1734628037,"current_range_meters":38800,"station_id":"ce4bhr92rcd13ifvqhrg","pricing_plan_id":"cebpf4jnsgd1na2vs0mg"},{"bike_id":"330bf880-e1f5-4f4a-b329-f0f879268631","system_id":"levelo_inurba_marseille","lat":43.28939,"lon":5.3882,"is_reserved":false,"is_disabled":true,"rental_uris":{"android":"levelo://app?vid=330bf880-e1f5-4f4a-b329-f0f879268631","ios":"levelo://app?vid=330bf880-e1f5-4f4a-b329-f0f879268631"},"vehicle_type_id":"4","last_reported":1734628037,"current_range_meters":22400,"station_id":"ce4bh2p2rcd13ifvqdi0","pricing_plan_id":"cebpf4jnsgd1na2vs0mg"},{"bike_id":"44127e4e-8e84-4a38-89f7-8f4efb63f7a5","system_id":"levelo_inurba_marseille","lat":43.31198,"lon":5.36778,"is_reserved":false,"is_disabled":true,"rental_uris":{"android":"levelo://app?vid=44127e4e-8e84-4a38-89f7-8f4efb63f7a5","ios":"levelo://app?vid=44127e4e-8e84-4a38-89f7-8f4efb63f7a5"},"vehicle_type_id":"4","last_reported":1734628037,"current_range_meters":0,"station_id":"","pricing_plan_id":"cebpf4jnsgd1na2vs0mg"},{"bike_id":"731ed61e-34d6-4cda-9b4d-d5a26b385606","system_id":"levelo_inurba_marseille","lat":43.28107,"lon":5.37841,"is_reserved":false,"is_disabled":false,"rental_uris":{"android":"levelo://app?vid=731ed61e-34d6-4cda-9b4d-d5a26b385606","ios":"levelo://app?vid=731ed61e-34d6-4cda-9b4d-d5a26b385606"},"vehicle_type_id":"4","last_reported":1734628037,"current_range_meters":19600,"station_id":"ce4bha12rcd13ifvqee0","pricing_plan_id":"cebpf4jnsgd1na2vs0mg"},{"bike_id":"95e83301-1358-4a08-89a5-d6961b7283c1","system_id":"levelo_inurba_marseille","lat":43.23984,"lon":5.36634,"is_reserved":false,"is_disabled":false,"rental_uris":{"android":"levelo://app?vid=95e83301-1358-4a08-89a5-d6961b7283c1","ios":"levelo://app?vid=95e83301-1358-4a08-89a5-d6961b7283c1"},"vehicle_type_id":"4","last_reported":1734628037,"current_range_meters":30400,"station_id":"ce4bhi12rcd13ifvqfp0","pricing_plan_id":"cebpf4jnsgd1na2vs0mg"},{"bike_id":"672fcf6f-8699-4143-9c5f-2e6d1ee3aa80","system_id":"levelo_inurba_marseille","lat":43.30555,"lon":5.36704,"is_reserved":false,"is_disabled":true,"rental_uris":{"android":"levelo://app?vid=672fcf6f-8699-4143-9c5f-2e6d1ee3aa80","ios":"levelo://app?vid=672fcf6f-8699-4143-9c5f-2e6d1ee3aa80"},"vehicle_type_id":"4","last_reported":1734628037,"current_range_meters":38000,"station_id":"ce4bgrp2rcd13ifvqc9g","pricing_plan_id":"cebpf4jnsgd1na2vs0mg"},{"bike_id":"1a7b9115-72aa-422e-8997-34cec9c28c6c","system_id":"levelo_inurba_marseille","lat":43.30893,"lon":5.39649,"is_reserved":false,"is_disabled":false,"rental_uris":{"android":"levelo://app?vid=1a7b9115-72aa-422e-8997-34cec9c28c6c","ios":"levelo://app?vid=1a7b9115-72aa-422e-8997-34cec9c28c6c"},"vehicle_type_id":"4","last_reported":1734628037,"current_range_meters":18800,"station_id":"ce4bh012rcd13ifvqcv0","pricing_plan_id":"cebpf4jnsgd1na2vs0mg"},{"bike_id":"defb9ed8-50de-4040-a509-a2d631e09253","system_id":"levelo_inurba_marseille","lat":43.30192,"lon":5.36613,"is_reserved":false,"is_disabled":false,"rental_uris":{"android":"levelo://app?vid=defb9ed8-50de-4040-a509-a2d631e09253","ios":"levelo://app?vid=defb9ed8-50de-4040-a509-a2d631e09253"},"vehicle_type_id":"4","last_reported":1734628037,"current_range_meters":30800,"station_id":"ce4bgrh2rcd13ifvqc8g","pricing_plan_id":"cebpf4jnsgd1na2vs0mg"},{"bike_id":"fa0d4ada-002c-4eee-99f1-47f40e840779","system_id":"levelo_inurba_marseille","lat":43.32343,"lon":5.40611,"is_reserved":false,"is_disabled":false,"rental_uris":{"android":"levelo://app?vid=fa0d4ada-002c-4eee-99f1-47f40e840779","ios":"levelo://app?vid=fa0d4ada-002c-4eee-99f1-47f40e840779"},"vehicle_type_id":"4","last_reported":1734628037,"current_range_meters":31200,"station_id":"ce4bhq92rcd13ifvqhjg","pricing_plan_id":"cebpf4jnsgd1na2vs0mg"},{"bike_id":"a1d7f926-bb6c-4cbd-bd3f-cf94f59dc747","system_id":"levelo_inurba_marseille","lat":43.31887,"lon":5.40739,"is_reserved":false,"is_disabled":false,"rental_uris":{"android":"levelo://app?vid=a1d7f926-bb6c-4cbd-bd3f-cf94f59dc747","ios":"levelo://app?vid=a1d7f926-bb6c-4cbd-bd3f-cf94f59dc747"},"vehicle_type_id":"4","last_reported":1734628037,"current_range_meters":6000,"station_id":"ce4bhq12rcd13ifvqhig","pricing_plan_id":"cebpf4jnsgd1na2vs0mg"},{"bike_id":"62159b96-70de-4225-a341-fe8203f1c374","system_id":"levelo_inurba_marseille","lat":43.28942,"lon":5.39638,"is_reserved":false,"is_disabled":true,"rental_uris":{"android":"levelo://app?vid=62159b96-70de-4225-a341-fe8203f1c374","ios":"levelo://app?vid=62159b96-70de-4225-a341-fe8203f1c374"},"vehicle_type_id":"4","last_reported":1734628037,"current_range_meters":38000,"station_id":"ce4bh3h2rcd13ifvqdn0","pricing_plan_id":"cebpf4jnsgd1na2vs0mg"},{"bike_id":"febcb933-a2b2-4278-979d-de2aade181d5","system_id":"levelo_inurba_marseille","lat":43.26807,"lon":5.40269,"is_reserved":false,"is_disabled":false,"rental_uris":{"android":"levelo://app?vid=febcb933-a2b2-4278-979d-de2aade181d5","ios":"levelo://app?vid=febcb933-a2b2-4278-979d-de2aade181d5"},"vehicle_type_id":"4","last_reported":1734628037,"current_range_meters":20800,"station_id":"ce501612rcd8frsf0b60","pricing_plan_id":"cebpf4jnsgd1na2vs0mg"},{"bike_id":"caed4e77-d24c-48a1-af34-555ae6feffc0","system_id":"levelo_inurba_marseille","lat":43.29578,"lon":5.36739,"is_reserved":false,"is_disabled":false,"rental_uris":{"android":"levelo://app?vid=caed4e77-d24c-48a1-af34-555ae6feffc0","ios":"levelo://app?vid=caed4e77-d24c-48a1-af34-555ae6feffc0"},"vehicle_type_id":"4","last_reported":1734628037,"current_range_meters":39200,"station_id":"ce4bgph2rcd13ifvqc2g","pricing_plan_id":"cebpf4jnsgd1na2vs0mg"},{"bike_id":"faf00029-679b-42d6-9598-0b97c8087c24","system_id":"levelo_inurba_marseille","lat":43.2953,"lon":5.39044,"is_reserved":false,"is_disabled":false,"rental_uris":{"android":"levelo://app?vid=faf00029-679b-42d6-9598-0b97c8087c24","ios":"levelo://app?vid=faf00029-679b-42d6-9598-0b97c8087c24"},"vehicle_type_id":"4","last_reported":1734628037,"current_range_meters":32400,"station_id":"ce4bh3p2rcd13ifvqdp0","pricing_plan_id":"cebpf4jnsgd1na2vs0mg"},{"bike_id":"ff9d86c0-c55d-4b8d-95a4-e802c4fc4b7c","system_id":"levelo_inurba_marseille","lat":43.30148,"lon":5.37645,"is_reserved":false,"is_disabled":false,"rental_uris":{"android":"levelo://app?vid=ff9d86c0-c55d-4b8d-95a4-e802c4fc4b7c","ios":"levelo://app?vid=ff9d86c0-c55d-4b8d-95a4-e802c4fc4b7c"},"vehicle_type_id":"4","last_reported":1734628037,"current_range_meters":24400,"station_id":"","pricing_plan_id":"cebpf4jnsgd1na2vs0mg"},{"bike_id":"e0c2eddf-4ba9-4754-b0b5-efd80badee74","system_id":"levelo_inurba_marseille","lat":43.25865,"lon":5.39433,"is_reserved":false,"is_disabled":true,"rental_uris":{"android":"levelo://app?vid=e0c2eddf-4ba9-4754-b0b5-efd80badee74","ios":"levelo://app?vid=e0c2eddf-4ba9-4754-b0b5-efd80badee74"},"vehicle_type_id":"4","last_reported":1734628037,"current_range_meters":0,"station_id":"","pricing_plan_id":"cebpf4jnsgd1na2vs0mg"},{"bike_id":"c8a9df44-c9a1-43c7-addd-475d94f4c5ab","system_id":"levelo_inurba_marseille","lat":43.27325,"lon":5.3907,"is_reserved":false,"is_disabled":true,"rental_uris":{"android":"levelo://app?vid=c8a9df44-c9a1-43c7-addd-475d94f4c5ab","ios":"levelo://app?vid=c8a9df44-c9a1-43c7-addd-475d94f4c5ab"},"vehicle_type_id":"4","last_reported":1734628037,"current_range_meters":0,"station_id":"ce4bhgp2rcd13ifvqfe0","pricing_plan_id":"cebpf4jnsgd1na2vs0mg"},{"bike_id":"4f621623-13c3-4e91-92e9-1ed205342968","system_id":"levelo_inurba_marseille","lat":43.30876,"lon":5.39622,"is_reserved":false,"is_disabled":false,"rental_uris":{"android":"levelo://app?vid=4f621623-13c3-4e91-92e9-1ed205342968","ios":"levelo://app?vid=4f621623-13c3-4e91-92e9-1ed205342968"},"vehicle_type_id":"4","last_reported":1734628037,"current_range_meters":35600,"station_id":"ce4bh012rcd13ifvqcv0","pricing_plan_id":"cebpf4jnsgd1na2vs0mg"},{"bike_id":"c4d32138-1613-4589-880b-cbe0df5ee929","system_id":"levelo_inurba_marseille","lat":43.25025,"lon":5.38915,"is_reserved":false,"is_disabled":false,"rental_uris":{"android":"levelo://app?vid=c4d32138-1613-4589-880b-cbe0df5ee929","ios":"levelo://app?vid=c4d32138-1613-4589-880b-cbe0df5ee929"},"vehicle_type_id":"4","last_reported":1734628037,"current_range_meters":38800,"station_id":"ce4bhgp2rcd13ifvqfd0","pricing_plan_id":"cebpf4jnsgd1na2vs0mg"},{"bike_id":"8b539eb5-682c-43b1-a416-2a46e329cee6","system_id":"levelo_inurba_marseille","lat":43.28443,"lon":5.39198,"is_reserved":false,"is_disabled":false,"rental_uris":{"android":"levelo://app?vid=8b539eb5-682c-43b1-a416-2a46e329cee6","ios":"levelo://app?vid=8b539eb5-682c-43b1-a416-2a46e329cee6"},"vehicle_type_id":"4","last_reported":1734628037,"current_range_meters":33200,"station_id":"ce4bhoh2rcd13ifvqh5g","pricing_plan_id":"cebpf4jnsgd1na2vs0mg"},{"bike_id":"8cceaed3-dfcc-4c73-aae1-f089279c86dc","system_id":"levelo_inurba_marseille","lat":43.30553,"lon":5.36695,"is_reserved":false,"is_disabled":true,"rental_uris":{"android":"levelo://app?vid=8cceaed3-dfcc-4c73-aae1-f089279c86dc","ios":"levelo://app?vid=8cceaed3-dfcc-4c73-aae1-f089279c86dc"},"vehicle_type_id":"4","last_reported":1734628037,"current_range_meters":35200,"station_id":"ce4bgrp2rcd13ifvqc9g","pricing_plan_id":"cebpf4jnsgd1na2vs0mg"},{"bike_id":"6932af2f-d7d8-48f9-a2e3-a5be0dabb8e2","system_id":"levelo_inurba_marseille","lat":43.31686,"lon":5.40474,"is_reserved":false,"is_disabled":false,"rental_uris":{"android":"levelo://app?vid=6932af2f-d7d8-48f9-a2e3-a5be0dabb8e2","ios":"levelo://app?vid=6932af2f-d7d8-48f9-a2e3-a5be0dabb8e2"},"vehicle_type_id":"4","last_reported":1734628037,"current_range_meters":10000,"station_id":"ce4bh012rcd13ifvqd00","pricing_plan_id":"cebpf4jnsgd1na2vs0mg"},{"bike_id":"aba4eea1-21a5-4719-aa99-28df366839e7","system_id":"levelo_inurba_marseille","lat":43.28666,"lon":5.36351,"is_reserved":false,"is_disabled":false,"rental_uris":{"android":"levelo://app?vid=aba4eea1-21a5-4719-aa99-28df366839e7","ios":"levelo://app?vid=aba4eea1-21a5-4719-aa99-28df366839e7"},"vehicle_type_id":"4","last_reported":1734628037,"current_range_meters":30000,"station_id":"ce4bhah2rcd13ifvqej0","pricing_plan_id":"cebpf4jnsgd1na2vs0mg"},{"bike_id":"0713692e-a260-408c-8f61-e4b7ea659aae","system_id":"levelo_inurba_marseille","lat":43.26794,"lon":5.39415,"is_reserved":false,"is_disabled":true,"rental_uris":{"android":"levelo://app?vid=0713692e-a260-408c-8f61-e4b7ea659aae","ios":"levelo://app?vid=0713692e-a260-408c-8f61-e4b7ea659aae"},"vehicle_type_id":"4","last_reported":1734628037,"current_range_meters":0,"station_id":"ce4bhh12rcd13ifvqfg0","pricing_plan_id":"cebpf4jnsgd1na2vs0mg"},{"bike_id":"b6275950-f469-4e2f-b75e-19cc4edf958f","system_id":"levelo_inurba_marseille","lat":43.28104,"lon":5.37832,"is_reserved":false,"is_disabled":false,"rental_uris":{"android":"levelo://app?vid=b6275950-f469-4e2f-b75e-19cc4edf958f","ios":"levelo://app?vid=b6275950-f469-4e2f-b75e-19cc4edf958f"},"vehicle_type_id":"4","last_reported":1734628037,"current_range_meters":27200,"station_id":"ce4bha12rcd13ifvqee0","pricing_plan_id":"cebpf4jnsgd1na2vs0mg"},{"bike_id":"30cf218e-0565-4b4d-b831-6b6e7547fc40","system_id":"levelo_inurba_marseille","lat":43.26803,"lon":5.40265,"is_reserved":false,"is_disabled":true,"rental_uris":{"android":"levelo://app?vid=30cf218e-0565-4b4d-b831-6b6e7547fc40","ios":"levelo://app?vid=30cf218e-0565-4b4d-b831-6b6e7547fc40"},"vehicle_type_id":"4","last_reported":1734628037,"current_range_meters":800,"station_id":"ce501612rcd8frsf0b60","pricing_plan_id":"cebpf4jnsgd1na2vs0mg"},{"bike_id":"ca9a80e2-2159-4c5c-8f3c-afef11f8230e","system_id":"levelo_inurba_marseille","lat":43.31078,"lon":5.4243,"is_reserved":false,"is_disabled":false,"rental_uris":{"android":"levelo://app?vid=ca9a80e2-2159-4c5c-8f3c-afef11f8230e","ios":"levelo://app?vid=ca9a80e2-2159-4c5c-8f3c-afef11f8230e"},"vehicle_type_id":"4","last_reported":1734628037,"current_range_meters":33600,"station_id":"ce4bhp92rcd13ifvqhag","pricing_plan_id":"cebpf4jnsgd1na2vs0mg"},{"bike_id":"82184c6c-02ab-4506-879c-5f186eac192a","system_id":"levelo_inurba_marseille","lat":43.26024,"lon":5.375581,"is_reserved":false,"is_disabled":false,"rental_uris":{"android":"levelo://app?vid=82184c6c-02ab-4506-879c-5f186eac192a","ios":"levelo://app?vid=82184c6c-02ab-4506-879c-5f186eac192a"},"vehicle_type_id":"4","last_reported":1734628037,"current_range_meters":37600,"station_id":"ce4bhgh2rcd13ifvqfa0","pricing_plan_id":"cebpf4jnsgd1na2vs0mg"},{"bike_id":"1fbd3b32-8c99-4b84-b080-1bf16dac43f8","system_id":"levelo_inurba_marseille","lat":43.27062,"lon":5.40283,"is_reserved":false,"is_disabled":true,"rental_uris":{"android":"levelo://app?vid=1fbd3b32-8c99-4b84-b080-1bf16dac43f8","ios":"levelo://app?vid=1fbd3b32-8c99-4b84-b080-1bf16dac43f8"},"vehicle_type_id":"4","last_reported":1734628037,"current_range_meters":0,"station_id":"ce4bhk92rcd13ifvqgc0","pricing_plan_id":"cebpf4jnsgd1na2vs0mg"},{"bike_id":"16765251-7356-467f-ac7f-91832f7b542e","system_id":"levelo_inurba_marseille","lat":43.29088,"lon":5.38127,"is_reserved":false,"is_disabled":false,"rental_uris":{"android":"levelo://app?vid=16765251-7356-467f-ac7f-91832f7b542e","ios":"levelo://app?vid=16765251-7356-467f-ac7f-91832f7b542e"},"vehicle_type_id":"4","last_reported":1734628037,"current_range_meters":38800,"station_id":"ce4bh512rcd13ifvqe2g","pricing_plan_id":"cebpf4jnsgd1na2vs0mg"},{"bike_id":"17b2d2b0-9855-46b4-a478-0bd9c7277056","system_id":"levelo_inurba_marseille","lat":43.3091,"lon":5.37846,"is_reserved":false,"is_disabled":true,"rental_uris":{"android":"levelo://app?vid=17b2d2b0-9855-46b4-a478-0bd9c7277056","ios":"levelo://app?vid=17b2d2b0-9855-46b4-a478-0bd9c7277056"},"vehicle_type_id":"4","last_reported":1734628037,"current_range_meters":0,"station_id":"","pricing_plan_id":"cebpf4jnsgd1na2vs0mg"},{"bike_id":"69699e7b-91f5-44f7-b494-c278edf9698d","system_id":"levelo_inurba_marseille","lat":43.29524,"lon":5.39403,"is_reserved":false,"is_disabled":false,"rental_uris":{"android":"levelo://app?vid=69699e7b-91f5-44f7-b494-c278edf9698d","ios":"levelo://app?vid=69699e7b-91f5-44f7-b494-c278edf9698d"},"vehicle_type_id":"4","last_reported":1734628037,"current_range_meters":39200,"station_id":"ce4bh292rcd13ifvqdf0","pricing_plan_id":"cebpf4jnsgd1na2vs0mg"},{"bike_id":"7bffcd7b-607f-4005-9803-c0e4872f8dc8","system_id":"levelo_inurba_marseille","lat":43.28416,"lon":5.34985,"is_reserved":false,"is_disabled":false,"rental_uris":{"android":"levelo://app?vid=7bffcd7b-607f-4005-9803-c0e4872f8dc8","ios":"levelo://app?vid=7bffcd7b-607f-4005-9803-c0e4872f8dc8"},"vehicle_type_id":"4","last_reported":1734628037,"current_range_meters":29600,"station_id":"ce4bhbh2rcd13ifvqepg","pricing_plan_id":"cebpf4jnsgd1na2vs0mg"},{"bike_id":"9b332e51-8135-438c-97e7-42c447242c1a","system_id":"levelo_inurba_marseille","lat":43.28894,"lon":5.36311,"is_reserved":false,"is_disabled":false,"rental_uris":{"android":"levelo://app?vid=9b332e51-8135-438c-97e7-42c447242c1a","ios":"levelo://app?vid=9b332e51-8135-438c-97e7-42c447242c1a"},"vehicle_type_id":"4","last_reported":1734628037,"current_range_meters":20800,"station_id":"ce4bhb92rcd13ifvqen0","pricing_plan_id":"cebpf4jnsgd1na2vs0mg"},{"bike_id":"29218885-1c50-43e0-a925-2ca4c134e5a9","system_id":"levelo_inurba_marseille","lat":43.30934,"lon":5.40139,"is_reserved":false,"is_disabled":false,"rental_uris":{"android":"levelo://app?vid=29218885-1c50-43e0-a925-2ca4c134e5a9","ios":"levelo://app?vid=29218885-1c50-43e0-a925-2ca4c134e5a9"},"vehicle_type_id":"4","last_reported":1734628037,"current_range_meters":38800,"station_id":"ce4bgvp2rcd13ifvqct0","pricing_plan_id":"cebpf4jnsgd1na2vs0mg"},{"bike_id":"6d468898-ae2a-4f34-9260-43fa7275423c","system_id":"levelo_inurba_marseille","lat":43.30418,"lon":5.41275,"is_reserved":false,"is_disabled":false,"rental_uris":{"android":"levelo://app?vid=6d468898-ae2a-4f34-9260-43fa7275423c","ios":"levelo://app?vid=6d468898-ae2a-4f34-9260-43fa7275423c"},"vehicle_type_id":"4","last_reported":1734628037,"current_range_meters":28800,"station_id":"ce4bhop2rcd13ifvqh8g","pricing_plan_id":"cebpf4jnsgd1na2vs0mg"},{"bike_id":"848c5c74-77d5-437c-9401-a646ab28aa9c","system_id":"levelo_inurba_marseille","lat":43.25587,"lon":5.38229,"is_reserved":false,"is_disabled":true,"rental_uris":{"android":"levelo://app?vid=848c5c74-77d5-437c-9401-a646ab28aa9c","ios":"levelo://app?vid=848c5c74-77d5-437c-9401-a646ab28aa9c"},"vehicle_type_id":"4","last_reported":1734628037,"current_range_meters":0,"station_id":"ce4bhih2rcd13ifvqfs0","pricing_plan_id":"cebpf4jnsgd1na2vs0mg"},{"bike_id":"98f321cd-67cb-4475-800a-3af985fbfb4d","system_id":"levelo_inurba_marseille","lat":43.29267,"lon":5.38435,"is_reserved":false,"is_disabled":false,"rental_uris":{"android":"levelo://app?vid=98f321cd-67cb-4475-800a-3af985fbfb4d","ios":"levelo://app?vid=98f321cd-67cb-4475-800a-3af985fbfb4d"},"vehicle_type_id":"4","last_reported":1734628037,"current_range_meters":22400,"station_id":"ce4bh692rcd13ifvqea0","pricing_plan_id":"cebpf4jnsgd1na2vs0mg"},{"bike_id":"6dd7ced6-a614-45f4-afdd-d21affa34a4d","system_id":"levelo_inurba_marseille","lat":43.28457,"lon":5.35883,"is_reserved":false,"is_disabled":false,"rental_uris":{"android":"levelo://app?vid=6dd7ced6-a614-45f4-afdd-d21affa34a4d","ios":"levelo://app?vid=6dd7ced6-a614-45f4-afdd-d21affa34a4d"},"vehicle_type_id":"4","last_reported":1734628037,"current_range_meters":37600,"station_id":"ce4bhah2rcd13ifvqei0","pricing_plan_id":"cebpf4jnsgd1na2vs0mg"},{"bike_id":"3588e64e-d5e3-4b4d-a5f5-61cfdd37f6f9","system_id":"levelo_inurba_marseille","lat":43.27812,"lon":5.40704,"is_reserved":false,"is_disabled":false,"rental_uris":{"android":"levelo://app?vid=3588e64e-d5e3-4b4d-a5f5-61cfdd37f6f9","ios":"levelo://app?vid=3588e64e-d5e3-4b4d-a5f5-61cfdd37f6f9"},"vehicle_type_id":"4","last_reported":1734628037,"current_range_meters":11600,"station_id":"ce4bhnh2rcd13ifvqgtg","pricing_plan_id":"cebpf4jnsgd1na2vs0mg"},{"bike_id":"8efde70c-c876-410b-8977-6aa3b1874676","system_id":"levelo_inurba_marseille","lat":43.2989,"lon":5.38904,"is_reserved":false,"is_disabled":false,"rental_uris":{"android":"levelo://app?vid=8efde70c-c876-410b-8977-6aa3b1874676","ios":"levelo://app?vid=8efde70c-c876-410b-8977-6aa3b1874676"},"vehicle_type_id":"4","last_reported":1734628037,"current_range_meters":39200,"station_id":"ce4bh392rcd13ifvqdl0","pricing_plan_id":"cebpf4jnsgd1na2vs0mg"},{"bike_id":"0a751186-01f8-453d-9242-0795772b0426","system_id":"levelo_inurba_marseille","lat":43.29265,"lon":5.38431,"is_reserved":false,"is_disabled":false,"rental_uris":{"android":"levelo://app?vid=0a751186-01f8-453d-9242-0795772b0426","ios":"levelo://app?vid=0a751186-01f8-453d-9242-0795772b0426"},"vehicle_type_id":"4","last_reported":1734628037,"current_range_meters":19200,"station_id":"ce4bh692rcd13ifvqea0","pricing_plan_id":"cebpf4jnsgd1na2vs0mg"},{"bike_id":"1490fbf1-3202-449f-b3ae-7536c1e4c6f1","system_id":"levelo_inurba_marseille","lat":43.33026,"lon":5.39038,"is_reserved":false,"is_disabled":false,"rental_uris":{"android":"levelo://app?vid=1490fbf1-3202-449f-b3ae-7536c1e4c6f1","ios":"levelo://app?vid=1490fbf1-3202-449f-b3ae-7536c1e4c6f1"},"vehicle_type_id":"4","last_reported":1734628037,"current_range_meters":34000,"station_id":"ce4bhr92rcd13ifvqhrg","pricing_plan_id":"cebpf4jnsgd1na2vs0mg"},{"bike_id":"9b4e8892-0a38-47e0-b669-2cacac85c950","system_id":"levelo_inurba_marseille","lat":43.30539,"lon":5.3653,"is_reserved":false,"is_disabled":false,"rental_uris":{"android":"levelo://app?vid=9b4e8892-0a38-47e0-b669-2cacac85c950","ios":"levelo://app?vid=9b4e8892-0a38-47e0-b669-2cacac85c950"},"vehicle_type_id":"4","last_reported":1734628037,"current_range_meters":4400,"station_id":"ce4bgs12rcd13ifvqcag","pricing_plan_id":"cebpf4jnsgd1na2vs0mg"},{"bike_id":"275c8729-7ec6-449e-8a5b-704994a1d376","system_id":"levelo_inurba_marseille","lat":43.29528,"lon":5.38534,"is_reserved":false,"is_disabled":true,"rental_uris":{"android":"levelo://app?vid=275c8729-7ec6-449e-8a5b-704994a1d376","ios":"levelo://app?vid=275c8729-7ec6-449e-8a5b-704994a1d376"},"vehicle_type_id":"4","last_reported":1734628037,"current_range_meters":800,"station_id":"ce4bgih2rcd13ifvqba0","pricing_plan_id":"cebpf4jnsgd1na2vs0mg"},{"bike_id":"d4a92d73-458f-4633-b078-8b09bedbb320","system_id":"levelo_inurba_marseille","lat":43.31335,"lon":5.39696,"is_reserved":false,"is_disabled":false,"rental_uris":{"android":"levelo://app?vid=d4a92d73-458f-4633-b078-8b09bedbb320","ios":"levelo://app?vid=d4a92d73-458f-4633-b078-8b09bedbb320"},"vehicle_type_id":"4","last_reported":1734628037,"current_range_meters":38000,"station_id":"ce4bgvp2rcd13ifvqcu0","pricing_plan_id":"cebpf4jnsgd1na2vs0mg"},{"bike_id":"51e7a723-42b2-49f3-be49-d245fa4a0e84","system_id":"levelo_inurba_marseille","lat":43.28933,"lon":5.3663,"is_reserved":false,"is_disabled":false,"rental_uris":{"android":"levelo://app?vid=51e7a723-42b2-49f3-be49-d245fa4a0e84","ios":"levelo://app?vid=51e7a723-42b2-49f3-be49-d245fa4a0e84"},"vehicle_type_id":"4","last_reported":1734628037,"current_range_meters":16400,"station_id":"ce4bhap2rcd13ifvqek0","pricing_plan_id":"cebpf4jnsgd1na2vs0mg"},{"bike_id":"2a12bde8-ca1e-4ca8-8cbb-8dbf9a638106","system_id":"levelo_inurba_marseille","lat":43.23179,"lon":5.35545,"is_reserved":false,"is_disabled":false,"rental_uris":{"android":"levelo://app?vid=2a12bde8-ca1e-4ca8-8cbb-8dbf9a638106","ios":"levelo://app?vid=2a12bde8-ca1e-4ca8-8cbb-8dbf9a638106"},"vehicle_type_id":"4","last_reported":1734628037,"current_range_meters":28800,"station_id":"ce4bhu92rcd13ifvqi70","pricing_plan_id":"cebpf4jnsgd1na2vs0mg"},{"bike_id":"be478d2c-7107-4aa2-9004-e9c3b6719dfb","system_id":"levelo_inurba_marseille","lat":43.28928,"lon":5.38411,"is_reserved":false,"is_disabled":false,"rental_uris":{"android":"levelo://app?vid=be478d2c-7107-4aa2-9004-e9c3b6719dfb","ios":"levelo://app?vid=be478d2c-7107-4aa2-9004-e9c3b6719dfb"},"vehicle_type_id":"4","last_reported":1734628037,"current_range_meters":37600,"station_id":"ce4bh612rcd13ifvqe6g","pricing_plan_id":"cebpf4jnsgd1na2vs0mg"},{"bike_id":"418228eb-2a62-45c8-81f2-f6645d62bb4d","system_id":"levelo_inurba_marseille","lat":43.31333,"lon":5.39695,"is_reserved":false,"is_disabled":false,"rental_uris":{"android":"levelo://app?vid=418228eb-2a62-45c8-81f2-f6645d62bb4d","ios":"levelo://app?vid=418228eb-2a62-45c8-81f2-f6645d62bb4d"},"vehicle_type_id":"4","last_reported":1734628037,"current_range_meters":27200,"station_id":"ce4bgvp2rcd13ifvqcu0","pricing_plan_id":"cebpf4jnsgd1na2vs0mg"},{"bike_id":"06da06af-e682-4e08-9c6d-d95e794d7409","system_id":"levelo_inurba_marseille","lat":43.29621,"lon":5.37172,"is_reserved":false,"is_disabled":false,"rental_uris":{"android":"levelo://app?vid=06da06af-e682-4e08-9c6d-d95e794d7409","ios":"levelo://app?vid=06da06af-e682-4e08-9c6d-d95e794d7409"},"vehicle_type_id":"4","last_reported":1734628037,"current_range_meters":37600,"station_id":"ce4bgnh2rcd13ifvqc0g","pricing_plan_id":"cebpf4jnsgd1na2vs0mg"},{"bike_id":"fdeb4ccc-d850-402e-84ed-8ebecff29977","system_id":"levelo_inurba_marseille","lat":43.29719,"lon":5.37686,"is_reserved":false,"is_disabled":false,"rental_uris":{"android":"levelo://app?vid=fdeb4ccc-d850-402e-84ed-8ebecff29977","ios":"levelo://app?vid=fdeb4ccc-d850-402e-84ed-8ebecff29977"},"vehicle_type_id":"4","last_reported":1734628037,"current_range_meters":32000,"station_id":"ce4bgkh2rcd13ifvqbl0","pricing_plan_id":"cebpf4jnsgd1na2vs0mg"},{"bike_id":"120d3b02-cdb9-43d5-8d02-c630a3ccbd9a","system_id":"levelo_inurba_marseille","lat":43.28471,"lon":5.38418,"is_reserved":false,"is_disabled":false,"rental_uris":{"android":"levelo://app?vid=120d3b02-cdb9-43d5-8d02-c630a3ccbd9a","ios":"levelo://app?vid=120d3b02-cdb9-43d5-8d02-c630a3ccbd9a"},"vehicle_type_id":"4","last_reported":1734628037,"current_range_meters":8000,"station_id":"ce4bh512rcd13ifvqe3g","pricing_plan_id":"cebpf4jnsgd1na2vs0mg"},{"bike_id":"b002d028-e42c-46e2-93ce-a18a7a90546e","system_id":"levelo_inurba_marseille","lat":43.32316,"lon":5.38272,"is_reserved":false,"is_disabled":false,"rental_uris":{"android":"levelo://app?vid=b002d028-e42c-46e2-93ce-a18a7a90546e","ios":"levelo://app?vid=b002d028-e42c-46e2-93ce-a18a7a90546e"},"vehicle_type_id":"4","last_reported":1734628037,"current_range_meters":22400,"station_id":"ce4bhr12rcd13ifvqhqg","pricing_plan_id":"cebpf4jnsgd1na2vs0mg"},{"bike_id":"8d2d1fc5-8995-4400-8cfc-148fb6ed4a6d","system_id":"levelo_inurba_marseille","lat":43.27494,"lon":5.42459,"is_reserved":false,"is_disabled":true,"rental_uris":{"android":"levelo://app?vid=8d2d1fc5-8995-4400-8cfc-148fb6ed4a6d","ios":"levelo://app?vid=8d2d1fc5-8995-4400-8cfc-148fb6ed4a6d"},"vehicle_type_id":"4","last_reported":1734628037,"current_range_meters":0,"station_id":"ce4bhn92rcd13ifvqgrg","pricing_plan_id":"cebpf4jnsgd1na2vs0mg"},{"bike_id":"5262b654-2841-4351-97ce-ddf5ee7d82c4","system_id":"levelo_inurba_marseille","lat":43.27448,"lon":5.39428,"is_reserved":false,"is_disabled":false,"rental_uris":{"android":"levelo://app?vid=5262b654-2841-4351-97ce-ddf5ee7d82c4","ios":"levelo://app?vid=5262b654-2841-4351-97ce-ddf5ee7d82c4"},"vehicle_type_id":"4","last_reported":1734628037,"current_range_meters":38000,"station_id":"ce4bhdp2rcd13ifvqf20","pricing_plan_id":"cebpf4jnsgd1na2vs0mg"},{"bike_id":"8cf5dce1-141e-48cf-816b-74dc2a4ad579","system_id":"levelo_inurba_marseille","lat":43.29569,"lon":5.37516,"is_reserved":false,"is_disabled":true,"rental_uris":{"android":"levelo://app?vid=8cf5dce1-141e-48cf-816b-74dc2a4ad579","ios":"levelo://app?vid=8cf5dce1-141e-48cf-816b-74dc2a4ad579"},"vehicle_type_id":"4","last_reported":1734628037,"current_range_meters":37600,"station_id":"ce4bgh92rcd13ifvqb50","pricing_plan_id":"cebpf4jnsgd1na2vs0mg"},{"bike_id":"a60407b0-679a-44e4-8f21-80b73e3e30bc","system_id":"levelo_inurba_marseille","lat":43.303103,"lon":5.368992,"is_reserved":false,"is_disabled":true,"rental_uris":{"android":"levelo://app?vid=a60407b0-679a-44e4-8f21-80b73e3e30bc","ios":"levelo://app?vid=a60407b0-679a-44e4-8f21-80b73e3e30bc"},"vehicle_type_id":"4","last_reported":1734628037,"current_range_meters":1600,"station_id":"ce4bgqh2rcd13ifvqc5g","pricing_plan_id":"cebpf4jnsgd1na2vs0mg"},{"bike_id":"0a9db0dd-3e23-4fa8-a639-b14ae215881c","system_id":"levelo_inurba_marseille","lat":43.28565,"lon":5.39492,"is_reserved":false,"is_disabled":false,"rental_uris":{"android":"levelo://app?vid=0a9db0dd-3e23-4fa8-a639-b14ae215881c","ios":"levelo://app?vid=0a9db0dd-3e23-4fa8-a639-b14ae215881c"},"vehicle_type_id":"4","last_reported":1734628037,"current_range_meters":15200,"station_id":"ce4bh292rcd13ifvqdg0","pricing_plan_id":"cebpf4jnsgd1na2vs0mg"},{"bike_id":"b44f9236-c33f-43b3-ab7e-0f32e9951c9e","system_id":"levelo_inurba_marseille","lat":43.23203,"lon":5.3555,"is_reserved":false,"is_disabled":false,"rental_uris":{"android":"levelo://app?vid=b44f9236-c33f-43b3-ab7e-0f32e9951c9e","ios":"levelo://app?vid=b44f9236-c33f-43b3-ab7e-0f32e9951c9e"},"vehicle_type_id":"4","last_reported":1734628037,"current_range_meters":10000,"station_id":"ce4bhu92rcd13ifvqi70","pricing_plan_id":"cebpf4jnsgd1na2vs0mg"},{"bike_id":"4620dcd9-c3a6-4871-8162-c4a28f6d33ca","system_id":"levelo_inurba_marseille","lat":43.31886,"lon":5.40723,"is_reserved":false,"is_disabled":true,"rental_uris":{"android":"levelo://app?vid=4620dcd9-c3a6-4871-8162-c4a28f6d33ca","ios":"levelo://app?vid=4620dcd9-c3a6-4871-8162-c4a28f6d33ca"},"vehicle_type_id":"4","last_reported":1734628037,"current_range_meters":14000,"station_id":"ce4bhq12rcd13ifvqhig","pricing_plan_id":"cebpf4jnsgd1na2vs0mg"},{"bike_id":"bd393a93-1d7a-4d6b-813d-3447fd4d08a6","system_id":"levelo_inurba_marseille","lat":43.29522,"lon":5.39395,"is_reserved":false,"is_disabled":false,"rental_uris":{"android":"levelo://app?vid=bd393a93-1d7a-4d6b-813d-3447fd4d08a6","ios":"levelo://app?vid=bd393a93-1d7a-4d6b-813d-3447fd4d08a6"},"vehicle_type_id":"4","last_reported":1734628037,"current_range_meters":38800,"station_id":"ce4bh292rcd13ifvqdf0","pricing_plan_id":"cebpf4jnsgd1na2vs0mg"},{"bike_id":"373c0c38-cc4e-45ba-b29d-76c11ae4587d","system_id":"levelo_inurba_marseille","lat":43.31336,"lon":5.396932,"is_reserved":false,"is_disabled":false,"rental_uris":{"android":"levelo://app?vid=373c0c38-cc4e-45ba-b29d-76c11ae4587d","ios":"levelo://app?vid=373c0c38-cc4e-45ba-b29d-76c11ae4587d"},"vehicle_type_id":"4","last_reported":1734628037,"current_range_meters":7200,"station_id":"ce4bgvp2rcd13ifvqcu0","pricing_plan_id":"cebpf4jnsgd1na2vs0mg"},{"bike_id":"93af5f4e-c68b-4e9f-b7ab-037b77464f2a","system_id":"levelo_inurba_marseille","lat":43.24665,"lon":5.38164,"is_reserved":false,"is_disabled":false,"rental_uris":{"android":"levelo://app?vid=93af5f4e-c68b-4e9f-b7ab-037b77464f2a","ios":"levelo://app?vid=93af5f4e-c68b-4e9f-b7ab-037b77464f2a"},"vehicle_type_id":"4","last_reported":1734628037,"current_range_meters":38000,"station_id":"ce4bhih2rcd13ifvqfr0","pricing_plan_id":"cebpf4jnsgd1na2vs0mg"},{"bike_id":"bf395746-cf6f-41cf-8628-45b4be54fb56","system_id":"levelo_inurba_marseille","lat":43.29981,"lon":5.37178,"is_reserved":false,"is_disabled":false,"rental_uris":{"android":"levelo://app?vid=bf395746-cf6f-41cf-8628-45b4be54fb56","ios":"levelo://app?vid=bf395746-cf6f-41cf-8628-45b4be54fb56"},"vehicle_type_id":"4","last_reported":1734628037,"current_range_meters":38800,"station_id":"ce4bgr92rcd13ifvqc7g","pricing_plan_id":"cebpf4jnsgd1na2vs0mg"},{"bike_id":"e4346a64-23eb-41be-baf7-6055119cf9e6","system_id":"levelo_inurba_marseille","lat":43.31702,"lon":5.37752,"is_reserved":false,"is_disabled":false,"rental_uris":{"android":"levelo://app?vid=e4346a64-23eb-41be-baf7-6055119cf9e6","ios":"levelo://app?vid=e4346a64-23eb-41be-baf7-6055119cf9e6"},"vehicle_type_id":"4","last_reported":1734628037,"current_range_meters":38800,"station_id":"ce4bgth2rcd13ifvqch0","pricing_plan_id":"cebpf4jnsgd1na2vs0mg"},{"bike_id":"fa131c95-abec-4733-8406-98d281747790","system_id":"levelo_inurba_marseille","lat":43.29852,"lon":5.36292,"is_reserved":false,"is_disabled":false,"rental_uris":{"android":"levelo://app?vid=fa131c95-abec-4733-8406-98d281747790","ios":"levelo://app?vid=fa131c95-abec-4733-8406-98d281747790"},"vehicle_type_id":"4","last_reported":1734628037,"current_range_meters":22800,"station_id":"ce4bgpp2rcd13ifvqc3g","pricing_plan_id":"cebpf4jnsgd1na2vs0mg"},{"bike_id":"0f70da87-3837-4a1e-b64f-ed3d553df758","system_id":"levelo_inurba_marseille","lat":43.25496,"lon":5.37652,"is_reserved":false,"is_disabled":false,"rental_uris":{"android":"levelo://app?vid=0f70da87-3837-4a1e-b64f-ed3d553df758","ios":"levelo://app?vid=0f70da87-3837-4a1e-b64f-ed3d553df758"},"vehicle_type_id":"4","last_reported":1734628037,"current_range_meters":14400,"station_id":"ce4bhh12rcd13ifvqff0","pricing_plan_id":"cebpf4jnsgd1na2vs0mg"},{"bike_id":"b52c10f4-1f06-453c-bfdf-7d6729ecfe9c","system_id":"levelo_inurba_marseille","lat":43.23181,"lon":5.39985,"is_reserved":false,"is_disabled":false,"rental_uris":{"android":"levelo://app?vid=b52c10f4-1f06-453c-bfdf-7d6729ecfe9c","ios":"levelo://app?vid=b52c10f4-1f06-453c-bfdf-7d6729ecfe9c"},"vehicle_type_id":"4","last_reported":1734628037,"current_range_meters":38000,"station_id":"ce4bhn12rcd13ifvqgqg","pricing_plan_id":"cebpf4jnsgd1na2vs0mg"},{"bike_id":"0a875dc2-52ab-4a70-919a-079887269dff","system_id":"levelo_inurba_marseille","lat":43.29837,"lon":5.36277,"is_reserved":false,"is_disabled":false,"rental_uris":{"android":"levelo://app?vid=0a875dc2-52ab-4a70-919a-079887269dff","ios":"levelo://app?vid=0a875dc2-52ab-4a70-919a-079887269dff"},"vehicle_type_id":"4","last_reported":1734628037,"current_range_meters":22800,"station_id":"ce4bgpp2rcd13ifvqc3g","pricing_plan_id":"cebpf4jnsgd1na2vs0mg"},{"bike_id":"87ea2282-7236-454a-a021-e08bfe13ea3d","system_id":"levelo_inurba_marseille","lat":43.28024,"lon":5.36948,"is_reserved":false,"is_disabled":false,"rental_uris":{"android":"levelo://app?vid=87ea2282-7236-454a-a021-e08bfe13ea3d","ios":"levelo://app?vid=87ea2282-7236-454a-a021-e08bfe13ea3d"},"vehicle_type_id":"4","last_reported":1734628037,"current_range_meters":38800,"station_id":"ce4bha12rcd13ifvqef0","pricing_plan_id":"cebpf4jnsgd1na2vs0mg"},{"bike_id":"9294b7c4-f950-43f8-8e30-fdbb56a51003","system_id":"levelo_inurba_marseille","lat":43.31468,"lon":5.36883,"is_reserved":false,"is_disabled":false,"rental_uris":{"android":"levelo://app?vid=9294b7c4-f950-43f8-8e30-fdbb56a51003","ios":"levelo://app?vid=9294b7c4-f950-43f8-8e30-fdbb56a51003"},"vehicle_type_id":"4","last_reported":1734628037,"current_range_meters":5600,"station_id":"","pricing_plan_id":"cebpf4jnsgd1na2vs0mg"},{"bike_id":"5f0317ee-fe1f-4f6f-a44c-0416c695b089","system_id":"levelo_inurba_marseille","lat":43.29781,"lon":5.38097,"is_reserved":false,"is_disabled":false,"rental_uris":{"android":"levelo://app?vid=5f0317ee-fe1f-4f6f-a44c-0416c695b089","ios":"levelo://app?vid=5f0317ee-fe1f-4f6f-a44c-0416c695b089"},"vehicle_type_id":"4","last_reported":1734628037,"current_range_meters":38800,"station_id":"ce4bgip2rcd13ifvqbb0","pricing_plan_id":"cebpf4jnsgd1na2vs0mg"},{"bike_id":"7ffc2e1c-437e-4aba-aade-02307f5bdc7b","system_id":"levelo_inurba_marseille","lat":43.29004,"lon":5.38124,"is_reserved":false,"is_disabled":false,"rental_uris":{"android":"levelo://app?vid=7ffc2e1c-437e-4aba-aade-02307f5bdc7b","ios":"levelo://app?vid=7ffc2e1c-437e-4aba-aade-02307f5bdc7b"},"vehicle_type_id":"4","last_reported":1734628037,"current_range_meters":37600,"station_id":"ce4bh4p2rcd13ifvqe1g","pricing_plan_id":"cebpf4jnsgd1na2vs0mg"},{"bike_id":"929f4b0c-5e07-4948-8818-2541f606765c","system_id":"levelo_inurba_marseille","lat":43.34906,"lon":5.37862,"is_reserved":false,"is_disabled":false,"rental_uris":{"android":"levelo://app?vid=929f4b0c-5e07-4948-8818-2541f606765c","ios":"levelo://app?vid=929f4b0c-5e07-4948-8818-2541f606765c"},"vehicle_type_id":"4","last_reported":1734628037,"current_range_meters":30400,"station_id":"","pricing_plan_id":"cebpf4jnsgd1na2vs0mg"},{"bike_id":"2e0a4273-9b64-4eb1-8d1b-b8e55991eb0a","system_id":"levelo_inurba_marseille","lat":43.27261,"lon":5.40072,"is_reserved":false,"is_disabled":false,"rental_uris":{"android":"levelo://app?vid=2e0a4273-9b64-4eb1-8d1b-b8e55991eb0a","ios":"levelo://app?vid=2e0a4273-9b64-4eb1-8d1b-b8e55991eb0a"},"vehicle_type_id":"4","last_reported":1734628037,"current_range_meters":5600,"station_id":"","pricing_plan_id":"cebpf4jnsgd1na2vs0mg"},{"bike_id":"f957ffa3-7b76-4b18-bb62-81627d313cf8","system_id":"levelo_inurba_marseille","lat":43.23198,"lon":5.35547,"is_reserved":false,"is_disabled":false,"rental_uris":{"android":"levelo://app?vid=f957ffa3-7b76-4b18-bb62-81627d313cf8","ios":"levelo://app?vid=f957ffa3-7b76-4b18-bb62-81627d313cf8"},"vehicle_type_id":"4","last_reported":1734628037,"current_range_meters":33600,"station_id":"ce4bhu92rcd13ifvqi70","pricing_plan_id":"cebpf4jnsgd1na2vs0mg"},{"bike_id":"8418e734-4fcd-4b94-951b-0d0ce81a5b83","system_id":"levelo_inurba_marseille","lat":43.29705,"lon":5.37288,"is_reserved":false,"is_disabled":false,"rental_uris":{"android":"levelo://app?vid=8418e734-4fcd-4b94-951b-0d0ce81a5b83","ios":"levelo://app?vid=8418e734-4fcd-4b94-951b-0d0ce81a5b83"},"vehicle_type_id":"4","last_reported":1734628037,"current_range_meters":36400,"station_id":"ce4bgk12rcd13ifvqbj0","pricing_plan_id":"cebpf4jnsgd1na2vs0mg"},{"bike_id":"c6929287-9d23-42c4-8ce8-9ec0218d5220","system_id":"levelo_inurba_marseille","lat":43.29937,"lon":5.36538,"is_reserved":false,"is_disabled":false,"rental_uris":{"android":"levelo://app?vid=c6929287-9d23-42c4-8ce8-9ec0218d5220","ios":"levelo://app?vid=c6929287-9d23-42c4-8ce8-9ec0218d5220"},"vehicle_type_id":"4","last_reported":1734628037,"current_range_meters":16800,"station_id":"ce4bgm92rcd13ifvqbr0","pricing_plan_id":"cebpf4jnsgd1na2vs0mg"},{"bike_id":"5f95dcdc-b7ed-4b2d-bb9c-c1b46e433a17","system_id":"levelo_inurba_marseille","lat":43.31326,"lon":5.39692,"is_reserved":false,"is_disabled":true,"rental_uris":{"android":"levelo://app?vid=5f95dcdc-b7ed-4b2d-bb9c-c1b46e433a17","ios":"levelo://app?vid=5f95dcdc-b7ed-4b2d-bb9c-c1b46e433a17"},"vehicle_type_id":"4","last_reported":1734628037,"current_range_meters":800,"station_id":"ce4bgvp2rcd13ifvqcu0","pricing_plan_id":"cebpf4jnsgd1na2vs0mg"},{"bike_id":"ad33050e-4843-4316-864d-d6debdaa8977","system_id":"levelo_inurba_marseille","lat":43.29972,"lon":5.38486,"is_reserved":false,"is_disabled":false,"rental_uris":{"android":"levelo://app?vid=ad33050e-4843-4316-864d-d6debdaa8977","ios":"levelo://app?vid=ad33050e-4843-4316-864d-d6debdaa8977"},"vehicle_type_id":"4","last_reported":1734628037,"current_range_meters":30400,"station_id":"ce4bgj92rcd13ifvqbd0","pricing_plan_id":"cebpf4jnsgd1na2vs0mg"},{"bike_id":"a0ab432f-da66-45ee-bd4e-3bd41460fc75","system_id":"levelo_inurba_marseille","lat":43.30816,"lon":5.36902,"is_reserved":false,"is_disabled":false,"rental_uris":{"android":"levelo://app?vid=a0ab432f-da66-45ee-bd4e-3bd41460fc75","ios":"levelo://app?vid=a0ab432f-da66-45ee-bd4e-3bd41460fc75"},"vehicle_type_id":"4","last_reported":1734628037,"current_range_meters":25600,"station_id":"","pricing_plan_id":"cebpf4jnsgd1na2vs0mg"},{"bike_id":"2ca0a164-7882-4768-ae4f-2cd4cb51467e","system_id":"levelo_inurba_marseille","lat":43.30133,"lon":5.39863,"is_reserved":false,"is_disabled":false,"rental_uris":{"android":"levelo://app?vid=2ca0a164-7882-4768-ae4f-2cd4cb51467e","ios":"levelo://app?vid=2ca0a164-7882-4768-ae4f-2cd4cb51467e"},"vehicle_type_id":"4","last_reported":1734628037,"current_range_meters":7200,"station_id":"ce4bh0h2rcd13ifvqd40","pricing_plan_id":"cebpf4jnsgd1na2vs0mg"},{"bike_id":"4ae25807-bfdd-4a1b-b8fe-b3f86ab1c6fd","system_id":"levelo_inurba_marseille","lat":43.2669,"lon":5.38259,"is_reserved":false,"is_disabled":true,"rental_uris":{"android":"levelo://app?vid=4ae25807-bfdd-4a1b-b8fe-b3f86ab1c6fd","ios":"levelo://app?vid=4ae25807-bfdd-4a1b-b8fe-b3f86ab1c6fd"},"vehicle_type_id":"4","last_reported":1734628037,"current_range_meters":800,"station_id":"ce4bhg92rcd13ifvqf90","pricing_plan_id":"cebpf4jnsgd1na2vs0mg"},{"bike_id":"952f83eb-ad58-4ab9-a7e6-a395c8612bbf","system_id":"levelo_inurba_marseille","lat":43.25508,"lon":5.37653,"is_reserved":false,"is_disabled":false,"rental_uris":{"android":"levelo://app?vid=952f83eb-ad58-4ab9-a7e6-a395c8612bbf","ios":"levelo://app?vid=952f83eb-ad58-4ab9-a7e6-a395c8612bbf"},"vehicle_type_id":"4","last_reported":1734628037,"current_range_meters":36000,"station_id":"ce4bhh12rcd13ifvqff0","pricing_plan_id":"cebpf4jnsgd1na2vs0mg"},{"bike_id":"c6fc1f35-949d-4dc4-925e-046f798f5cdb","system_id":"levelo_inurba_marseille","lat":43.30423,"lon":5.41283,"is_reserved":false,"is_disabled":false,"rental_uris":{"android":"levelo://app?vid=c6fc1f35-949d-4dc4-925e-046f798f5cdb","ios":"levelo://app?vid=c6fc1f35-949d-4dc4-925e-046f798f5cdb"},"vehicle_type_id":"4","last_reported":1734628037,"current_range_meters":39200,"station_id":"ce4bhop2rcd13ifvqh8g","pricing_plan_id":"cebpf4jnsgd1na2vs0mg"},{"bike_id":"96e65858-cd73-4b96-a49c-ccceb2732ca3","system_id":"levelo_inurba_marseille","lat":43.27614,"lon":5.36105,"is_reserved":false,"is_disabled":false,"rental_uris":{"android":"levelo://app?vid=96e65858-cd73-4b96-a49c-ccceb2732ca3","ios":"levelo://app?vid=96e65858-cd73-4b96-a49c-ccceb2732ca3"},"vehicle_type_id":"4","last_reported":1734628037,"current_range_meters":26800,"station_id":"ce4bgj92rcd13ifvqbe0","pricing_plan_id":"cebpf4jnsgd1na2vs0mg"},{"bike_id":"5df48650-9f01-48dd-b8f9-c1ede573c777","system_id":"levelo_inurba_marseille","lat":43.2621,"lon":5.37444,"is_reserved":false,"is_disabled":true,"rental_uris":{"android":"levelo://app?vid=5df48650-9f01-48dd-b8f9-c1ede573c777","ios":"levelo://app?vid=5df48650-9f01-48dd-b8f9-c1ede573c777"},"vehicle_type_id":"4","last_reported":1734628037,"current_range_meters":1600,"station_id":"ce4bhgp2rcd13ifvqfc0","pricing_plan_id":"cebpf4jnsgd1na2vs0mg"},{"bike_id":"13411e02-e30b-4d1e-a85a-92295b9629fe","system_id":"levelo_inurba_marseille","lat":43.27376,"lon":5.36257,"is_reserved":false,"is_disabled":false,"rental_uris":{"android":"levelo://app?vid=13411e02-e30b-4d1e-a85a-92295b9629fe","ios":"levelo://app?vid=13411e02-e30b-4d1e-a85a-92295b9629fe"},"vehicle_type_id":"4","last_reported":1734628037,"current_range_meters":33200,"station_id":"ce4bhbh2rcd13ifvqeo0","pricing_plan_id":"cebpf4jnsgd1na2vs0mg"},{"bike_id":"780dcfd2-f0e3-4a81-82dd-0d0066780aad","system_id":"levelo_inurba_marseille","lat":43.28157,"lon":5.42639,"is_reserved":false,"is_disabled":false,"rental_uris":{"android":"levelo://app?vid=780dcfd2-f0e3-4a81-82dd-0d0066780aad","ios":"levelo://app?vid=780dcfd2-f0e3-4a81-82dd-0d0066780aad"},"vehicle_type_id":"4","last_reported":1734628037,"current_range_meters":18000,"station_id":"ce4bhnh2rcd13ifvqgug","pricing_plan_id":"cebpf4jnsgd1na2vs0mg"},{"bike_id":"494c8398-822e-42ee-a7f1-dfd664d1fba7","system_id":"levelo_inurba_marseille","lat":43.23193,"lon":5.35545,"is_reserved":false,"is_disabled":false,"rental_uris":{"android":"levelo://app?vid=494c8398-822e-42ee-a7f1-dfd664d1fba7","ios":"levelo://app?vid=494c8398-822e-42ee-a7f1-dfd664d1fba7"},"vehicle_type_id":"4","last_reported":1734628037,"current_range_meters":38000,"station_id":"ce4bhu92rcd13ifvqi70","pricing_plan_id":"cebpf4jnsgd1na2vs0mg"},{"bike_id":"5cf08f6b-81e4-4214-83f0-09e069b6ecaf","system_id":"levelo_inurba_marseille","lat":43.2944,"lon":5.3975,"is_reserved":false,"is_disabled":false,"rental_uris":{"android":"levelo://app?vid=5cf08f6b-81e4-4214-83f0-09e069b6ecaf","ios":"levelo://app?vid=5cf08f6b-81e4-4214-83f0-09e069b6ecaf"},"vehicle_type_id":"4","last_reported":1734628037,"current_range_meters":5600,"station_id":"ce4bh3h2rcd13ifvqdo0","pricing_plan_id":"cebpf4jnsgd1na2vs0mg"},{"bike_id":"0cf702a9-640f-42bf-ad19-58d0a7000b31","system_id":"levelo_inurba_marseille","lat":43.30561,"lon":5.36551,"is_reserved":false,"is_disabled":false,"rental_uris":{"android":"levelo://app?vid=0cf702a9-640f-42bf-ad19-58d0a7000b31","ios":"levelo://app?vid=0cf702a9-640f-42bf-ad19-58d0a7000b31"},"vehicle_type_id":"4","last_reported":1734628037,"current_range_meters":38400,"station_id":"ce4bgs12rcd13ifvqcag","pricing_plan_id":"cebpf4jnsgd1na2vs0mg"},{"bike_id":"642ffb82-3a13-4cdf-9b00-98fc26552ff6","system_id":"levelo_inurba_marseille","lat":43.296,"lon":5.38099,"is_reserved":false,"is_disabled":false,"rental_uris":{"android":"levelo://app?vid=642ffb82-3a13-4cdf-9b00-98fc26552ff6","ios":"levelo://app?vid=642ffb82-3a13-4cdf-9b00-98fc26552ff6"},"vehicle_type_id":"4","last_reported":1734628037,"current_range_meters":25600,"station_id":"ce4bgl12rcd13ifvqbo0","pricing_plan_id":"cebpf4jnsgd1na2vs0mg"},{"bike_id":"9d2aefec-f4a3-4a23-a13a-c09b46ffe2e4","system_id":"levelo_inurba_marseille","lat":43.31206,"lon":5.36707,"is_reserved":false,"is_disabled":false,"rental_uris":{"android":"levelo://app?vid=9d2aefec-f4a3-4a23-a13a-c09b46ffe2e4","ios":"levelo://app?vid=9d2aefec-f4a3-4a23-a13a-c09b46ffe2e4"},"vehicle_type_id":"4","last_reported":1734628037,"current_range_meters":30000,"station_id":"","pricing_plan_id":"cebpf4jnsgd1na2vs0mg"},{"bike_id":"2b6b5c2f-2c8e-414d-9b1d-f7109f2edd3e","system_id":"levelo_inurba_marseille","lat":43.25582,"lon":5.38227,"is_reserved":false,"is_disabled":false,"rental_uris":{"android":"levelo://app?vid=2b6b5c2f-2c8e-414d-9b1d-f7109f2edd3e","ios":"levelo://app?vid=2b6b5c2f-2c8e-414d-9b1d-f7109f2edd3e"},"vehicle_type_id":"4","last_reported":1734628037,"current_range_meters":6400,"station_id":"ce4bhih2rcd13ifvqfs0","pricing_plan_id":"cebpf4jnsgd1na2vs0mg"},{"bike_id":"a925a552-99be-449a-84c7-f19615ebb101","system_id":"levelo_inurba_marseille","lat":43.286912,"lon":5.373818,"is_reserved":false,"is_disabled":false,"rental_uris":{"android":"levelo://app?vid=a925a552-99be-449a-84c7-f19615ebb101","ios":"levelo://app?vid=a925a552-99be-449a-84c7-f19615ebb101"},"vehicle_type_id":"4","last_reported":1734628037,"current_range_meters":22800,"station_id":"ce4bh3p2rcd13ifvqdq0","pricing_plan_id":"cebpf4jnsgd1na2vs0mg"},{"bike_id":"41360683-0f69-4c62-8b87-4868ce57f8d5","system_id":"levelo_inurba_marseille","lat":43.31478,"lon":5.37293,"is_reserved":false,"is_disabled":false,"rental_uris":{"android":"levelo://app?vid=41360683-0f69-4c62-8b87-4868ce57f8d5","ios":"levelo://app?vid=41360683-0f69-4c62-8b87-4868ce57f8d5"},"vehicle_type_id":"4","last_reported":1734628037,"current_range_meters":38000,"station_id":"ce4bgt12rcd13ifvqcd0","pricing_plan_id":"cebpf4jnsgd1na2vs0mg"},{"bike_id":"a2eba22b-b0ee-4005-9bf3-576bb458d391","system_id":"levelo_inurba_marseille","lat":43.279651,"lon":5.387544,"is_reserved":false,"is_disabled":true,"rental_uris":{"android":"levelo://app?vid=a2eba22b-b0ee-4005-9bf3-576bb458d391","ios":"levelo://app?vid=a2eba22b-b0ee-4005-9bf3-576bb458d391"},"vehicle_type_id":"4","last_reported":1734628037,"current_range_meters":0,"station_id":"","pricing_plan_id":"cebpf4jnsgd1na2vs0mg"},{"bike_id":"e7e90ade-9fda-4e94-9481-ce28fb04e6bb","system_id":"levelo_inurba_marseille","lat":43.29575,"lon":5.37495,"is_reserved":false,"is_disabled":false,"rental_uris":{"android":"levelo://app?vid=e7e90ade-9fda-4e94-9481-ce28fb04e6bb","ios":"levelo://app?vid=e7e90ade-9fda-4e94-9481-ce28fb04e6bb"},"vehicle_type_id":"4","last_reported":1734628037,"current_range_meters":9200,"station_id":"ce4bgh92rcd13ifvqb50","pricing_plan_id":"cebpf4jnsgd1na2vs0mg"},{"bike_id":"fcf6f42c-9492-49dd-a9e6-322a50636e12","system_id":"levelo_inurba_marseille","lat":43.31712,"lon":5.37721,"is_reserved":false,"is_disabled":false,"rental_uris":{"android":"levelo://app?vid=fcf6f42c-9492-49dd-a9e6-322a50636e12","ios":"levelo://app?vid=fcf6f42c-9492-49dd-a9e6-322a50636e12"},"vehicle_type_id":"4","last_reported":1734628037,"current_range_meters":13600,"station_id":"ce4bgth2rcd13ifvqch0","pricing_plan_id":"cebpf4jnsgd1na2vs0mg"},{"bike_id":"6e868a60-9f88-474e-adb5-72cc44996f9b","system_id":"levelo_inurba_marseille","lat":43.2952,"lon":5.37504,"is_reserved":false,"is_disabled":true,"rental_uris":{"android":"levelo://app?vid=6e868a60-9f88-474e-adb5-72cc44996f9b","ios":"levelo://app?vid=6e868a60-9f88-474e-adb5-72cc44996f9b"},"vehicle_type_id":"4","last_reported":1734628037,"current_range_meters":0,"station_id":"ce4bgkp2rcd13ifvqbmg","pricing_plan_id":"cebpf4jnsgd1na2vs0mg"},{"bike_id":"faf2f636-dd43-4289-af5f-b52114e55865","system_id":"levelo_inurba_marseille","lat":43.29222,"lon":5.39327,"is_reserved":false,"is_disabled":false,"rental_uris":{"android":"levelo://app?vid=faf2f636-dd43-4289-af5f-b52114e55865","ios":"levelo://app?vid=faf2f636-dd43-4289-af5f-b52114e55865"},"vehicle_type_id":"4","last_reported":1734628037,"current_range_meters":18000,"station_id":"ce4bh192rcd13ifvqdd0","pricing_plan_id":"cebpf4jnsgd1na2vs0mg"},{"bike_id":"3717cc48-7488-4a7c-a550-593d2f7329e6","system_id":"levelo_inurba_marseille","lat":43.30263,"lon":5.40077,"is_reserved":false,"is_disabled":false,"rental_uris":{"android":"levelo://app?vid=3717cc48-7488-4a7c-a550-593d2f7329e6","ios":"levelo://app?vid=3717cc48-7488-4a7c-a550-593d2f7329e6"},"vehicle_type_id":"4","last_reported":1734628037,"current_range_meters":3600,"station_id":"ce4bgvh2rcd13ifvqcs0","pricing_plan_id":"cebpf4jnsgd1na2vs0mg"},{"bike_id":"1e0239e5-042b-4d40-9d83-8e87fd628e04","system_id":"levelo_inurba_marseille","lat":43.26564,"lon":5.37291,"is_reserved":false,"is_disabled":false,"rental_uris":{"android":"levelo://app?vid=1e0239e5-042b-4d40-9d83-8e87fd628e04","ios":"levelo://app?vid=1e0239e5-042b-4d40-9d83-8e87fd628e04"},"vehicle_type_id":"4","last_reported":1734628037,"current_range_meters":13600,"station_id":"ce4bhg12rcd13ifvqf70","pricing_plan_id":"cebpf4jnsgd1na2vs0mg"},{"bike_id":"7a9f7a52-1aa3-499f-95ed-6dafb22d289f","system_id":"levelo_inurba_marseille","lat":43.30242,"lon":5.40051,"is_reserved":false,"is_disabled":false,"rental_uris":{"android":"levelo://app?vid=7a9f7a52-1aa3-499f-95ed-6dafb22d289f","ios":"levelo://app?vid=7a9f7a52-1aa3-499f-95ed-6dafb22d289f"},"vehicle_type_id":"4","last_reported":1734628037,"current_range_meters":14400,"station_id":"ce4bgvh2rcd13ifvqcs0","pricing_plan_id":"cebpf4jnsgd1na2vs0mg"},{"bike_id":"bb761ca0-f76a-4ab1-948d-862f95d7d569","system_id":"levelo_inurba_marseille","lat":43.29415,"lon":5.38621,"is_reserved":false,"is_disabled":false,"rental_uris":{"android":"levelo://app?vid=bb761ca0-f76a-4ab1-948d-862f95d7d569","ios":"levelo://app?vid=bb761ca0-f76a-4ab1-948d-862f95d7d569"},"vehicle_type_id":"4","last_reported":1734628037,"current_range_meters":12400,"station_id":"ce4bh2h2rcd13ifvqdh0","pricing_plan_id":"cebpf4jnsgd1na2vs0mg"},{"bike_id":"7d0a834c-2823-4753-b1a1-00a7150d32a5","system_id":"levelo_inurba_marseille","lat":43.29633,"lon":5.40595,"is_reserved":false,"is_disabled":false,"rental_uris":{"android":"levelo://app?vid=7d0a834c-2823-4753-b1a1-00a7150d32a5","ios":"levelo://app?vid=7d0a834c-2823-4753-b1a1-00a7150d32a5"},"vehicle_type_id":"4","last_reported":1734628037,"current_range_meters":37600,"station_id":"ce4bh0h2rcd13ifvqd60","pricing_plan_id":"cebpf4jnsgd1na2vs0mg"},{"bike_id":"ac7c5f56-daad-496c-965f-9103737000e8","system_id":"levelo_inurba_marseille","lat":43.23966,"lon":5.36638,"is_reserved":false,"is_disabled":false,"rental_uris":{"android":"levelo://app?vid=ac7c5f56-daad-496c-965f-9103737000e8","ios":"levelo://app?vid=ac7c5f56-daad-496c-965f-9103737000e8"},"vehicle_type_id":"4","last_reported":1734628037,"current_range_meters":38800,"station_id":"ce4bhi12rcd13ifvqfp0","pricing_plan_id":"cebpf4jnsgd1na2vs0mg"},{"bike_id":"faed9d38-3eca-4d87-ad5b-fc892a94ac65","system_id":"levelo_inurba_marseille","lat":43.31287,"lon":5.40172,"is_reserved":false,"is_disabled":false,"rental_uris":{"android":"levelo://app?vid=faed9d38-3eca-4d87-ad5b-fc892a94ac65","ios":"levelo://app?vid=faed9d38-3eca-4d87-ad5b-fc892a94ac65"},"vehicle_type_id":"4","last_reported":1734628037,"current_range_meters":34000,"station_id":"ce4bh092rcd13ifvqd30","pricing_plan_id":"cebpf4jnsgd1na2vs0mg"},{"bike_id":"0cef6d55-09da-4dff-80ee-facea058c7a5","system_id":"levelo_inurba_marseille","lat":43.30055,"lon":5.36969,"is_reserved":false,"is_disabled":false,"rental_uris":{"android":"levelo://app?vid=0cef6d55-09da-4dff-80ee-facea058c7a5","ios":"levelo://app?vid=0cef6d55-09da-4dff-80ee-facea058c7a5"},"vehicle_type_id":"4","last_reported":1734628037,"current_range_meters":32400,"station_id":"","pricing_plan_id":"cebpf4jnsgd1na2vs0mg"},{"bike_id":"10b4c5b7-9249-427c-9ef4-4bafea218627","system_id":"levelo_inurba_marseille","lat":43.26571,"lon":5.37301,"is_reserved":false,"is_disabled":false,"rental_uris":{"android":"levelo://app?vid=10b4c5b7-9249-427c-9ef4-4bafea218627","ios":"levelo://app?vid=10b4c5b7-9249-427c-9ef4-4bafea218627"},"vehicle_type_id":"4","last_reported":1734628037,"current_range_meters":24400,"station_id":"ce4bhg12rcd13ifvqf70","pricing_plan_id":"cebpf4jnsgd1na2vs0mg"},{"bike_id":"97d99e2e-1d77-43f8-9736-ab0e1f4175de","system_id":"levelo_inurba_marseille","lat":43.28358,"lon":5.38101,"is_reserved":false,"is_disabled":false,"rental_uris":{"android":"levelo://app?vid=97d99e2e-1d77-43f8-9736-ab0e1f4175de","ios":"levelo://app?vid=97d99e2e-1d77-43f8-9736-ab0e1f4175de"},"vehicle_type_id":"4","last_reported":1734628037,"current_range_meters":36400,"station_id":"ce4bh412rcd13ifvqdr0","pricing_plan_id":"cebpf4jnsgd1na2vs0mg"},{"bike_id":"23a049cd-2a20-411e-a25c-f3e09482729c","system_id":"levelo_inurba_marseille","lat":43.30432,"lon":5.37346,"is_reserved":false,"is_disabled":false,"rental_uris":{"android":"levelo://app?vid=23a049cd-2a20-411e-a25c-f3e09482729c","ios":"levelo://app?vid=23a049cd-2a20-411e-a25c-f3e09482729c"},"vehicle_type_id":"4","last_reported":1734628037,"current_range_meters":37600,"station_id":"","pricing_plan_id":"cebpf4jnsgd1na2vs0mg"},{"bike_id":"9aa2e452-a952-4887-a12a-c0da4e70ee8d","system_id":"levelo_inurba_marseille","lat":43.29897,"lon":5.43669,"is_reserved":false,"is_disabled":false,"rental_uris":{"android":"levelo://app?vid=9aa2e452-a952-4887-a12a-c0da4e70ee8d","ios":"levelo://app?vid=9aa2e452-a952-4887-a12a-c0da4e70ee8d"},"vehicle_type_id":"4","last_reported":1734628037,"current_range_meters":14000,"station_id":"ce4bhpp2rcd13ifvqhfg","pricing_plan_id":"cebpf4jnsgd1na2vs0mg"},{"bike_id":"41dc162f-7efd-4944-a180-66a0e41df1e6","system_id":"levelo_inurba_marseille","lat":43.29527,"lon":5.39041,"is_reserved":false,"is_disabled":false,"rental_uris":{"android":"levelo://app?vid=41dc162f-7efd-4944-a180-66a0e41df1e6","ios":"levelo://app?vid=41dc162f-7efd-4944-a180-66a0e41df1e6"},"vehicle_type_id":"4","last_reported":1734628037,"current_range_meters":16800,"station_id":"ce4bh3p2rcd13ifvqdp0","pricing_plan_id":"cebpf4jnsgd1na2vs0mg"},{"bike_id":"8305ca7b-501e-4f92-8fc2-f2ba9ad70228","system_id":"levelo_inurba_marseille","lat":43.29587,"lon":5.36742,"is_reserved":false,"is_disabled":false,"rental_uris":{"android":"levelo://app?vid=8305ca7b-501e-4f92-8fc2-f2ba9ad70228","ios":"levelo://app?vid=8305ca7b-501e-4f92-8fc2-f2ba9ad70228"},"vehicle_type_id":"4","last_reported":1734628037,"current_range_meters":38000,"station_id":"ce4bgph2rcd13ifvqc2g","pricing_plan_id":"cebpf4jnsgd1na2vs0mg"},{"bike_id":"7b305c6f-361b-46c6-bcc8-6b2d9fd084fa","system_id":"levelo_inurba_marseille","lat":43.28119,"lon":5.4422,"is_reserved":false,"is_disabled":true,"rental_uris":{"android":"levelo://app?vid=7b305c6f-361b-46c6-bcc8-6b2d9fd084fa","ios":"levelo://app?vid=7b305c6f-361b-46c6-bcc8-6b2d9fd084fa"},"vehicle_type_id":"4","last_reported":1734628037,"current_range_meters":0,"station_id":"","pricing_plan_id":"cebpf4jnsgd1na2vs0mg"},{"bike_id":"9a19eb55-ef31-452d-a0a6-81eea565a049","system_id":"levelo_inurba_marseille","lat":43.312,"lon":5.36877,"is_reserved":false,"is_disabled":false,"rental_uris":{"android":"levelo://app?vid=9a19eb55-ef31-452d-a0a6-81eea565a049","ios":"levelo://app?vid=9a19eb55-ef31-452d-a0a6-81eea565a049"},"vehicle_type_id":"4","last_reported":1734628037,"current_range_meters":34800,"station_id":"ce4bgl92rcd13ifvqbq0","pricing_plan_id":"cebpf4jnsgd1na2vs0mg"},{"bike_id":"f01b13b0-8cb1-4acc-adb1-31022ada7063","system_id":"levelo_inurba_marseille","lat":43.28079,"lon":5.3965,"is_reserved":false,"is_disabled":false,"rental_uris":{"android":"levelo://app?vid=f01b13b0-8cb1-4acc-adb1-31022ada7063","ios":"levelo://app?vid=f01b13b0-8cb1-4acc-adb1-31022ada7063"},"vehicle_type_id":"4","last_reported":1734628037,"current_range_meters":39200,"station_id":"ce4bho12rcd13ifvqh2g","pricing_plan_id":"cebpf4jnsgd1na2vs0mg"},{"bike_id":"a7effae1-c1fd-401d-99f9-cfce3007bf5e","system_id":"levelo_inurba_marseille","lat":43.27813,"lon":5.40713,"is_reserved":false,"is_disabled":false,"rental_uris":{"android":"levelo://app?vid=a7effae1-c1fd-401d-99f9-cfce3007bf5e","ios":"levelo://app?vid=a7effae1-c1fd-401d-99f9-cfce3007bf5e"},"vehicle_type_id":"4","last_reported":1734628037,"current_range_meters":11600,"station_id":"ce4bhnh2rcd13ifvqgtg","pricing_plan_id":"cebpf4jnsgd1na2vs0mg"},{"bike_id":"c81d12c0-b3b4-4b91-a004-bb72046d4aaa","system_id":"levelo_inurba_marseille","lat":43.29923,"lon":5.37515,"is_reserved":false,"is_disabled":false,"rental_uris":{"android":"levelo://app?vid=c81d12c0-b3b4-4b91-a004-bb72046d4aaa","ios":"levelo://app?vid=c81d12c0-b3b4-4b91-a004-bb72046d4aaa"},"vehicle_type_id":"4","last_reported":1734628037,"current_range_meters":24400,"station_id":"ce4bgjh2rcd13ifvqbg0","pricing_plan_id":"cebpf4jnsgd1na2vs0mg"},{"bike_id":"5708ca14-d455-4fd1-b578-c33494ea5cae","system_id":"levelo_inurba_marseille","lat":43.31762,"lon":5.3901,"is_reserved":false,"is_disabled":false,"rental_uris":{"android":"levelo://app?vid=5708ca14-d455-4fd1-b578-c33494ea5cae","ios":"levelo://app?vid=5708ca14-d455-4fd1-b578-c33494ea5cae"},"vehicle_type_id":"4","last_reported":1734628037,"current_range_meters":38800,"station_id":"ce4bhqp2rcd13ifvqhng","pricing_plan_id":"cebpf4jnsgd1na2vs0mg"},{"bike_id":"58460439-34c4-4ffd-a810-879458f6621a","system_id":"levelo_inurba_marseille","lat":43.23175,"lon":5.39972,"is_reserved":false,"is_disabled":false,"rental_uris":{"android":"levelo://app?vid=58460439-34c4-4ffd-a810-879458f6621a","ios":"levelo://app?vid=58460439-34c4-4ffd-a810-879458f6621a"},"vehicle_type_id":"4","last_reported":1734628037,"current_range_meters":24400,"station_id":"ce4bhn12rcd13ifvqgqg","pricing_plan_id":"cebpf4jnsgd1na2vs0mg"},{"bike_id":"df2bf2aa-dff9-475f-91c3-5688aec4bd4e","system_id":"levelo_inurba_marseille","lat":43.29845,"lon":5.36275,"is_reserved":false,"is_disabled":false,"rental_uris":{"android":"levelo://app?vid=df2bf2aa-dff9-475f-91c3-5688aec4bd4e","ios":"levelo://app?vid=df2bf2aa-dff9-475f-91c3-5688aec4bd4e"},"vehicle_type_id":"4","last_reported":1734628037,"current_range_meters":19600,"station_id":"ce4bgpp2rcd13ifvqc3g","pricing_plan_id":"cebpf4jnsgd1na2vs0mg"},{"bike_id":"77d10735-f2fa-4540-9cdc-117dc74de97c","system_id":"levelo_inurba_marseille","lat":43.29047,"lon":5.39953,"is_reserved":false,"is_disabled":true,"rental_uris":{"android":"levelo://app?vid=77d10735-f2fa-4540-9cdc-117dc74de97c","ios":"levelo://app?vid=77d10735-f2fa-4540-9cdc-117dc74de97c"},"vehicle_type_id":"4","last_reported":1734628037,"current_range_meters":38400,"station_id":"","pricing_plan_id":"cebpf4jnsgd1na2vs0mg"},{"bike_id":"88237930-c70e-4caa-be6f-f0bba643aca6","system_id":"levelo_inurba_marseille","lat":43.2903,"lon":5.37554,"is_reserved":false,"is_disabled":true,"rental_uris":{"android":"levelo://app?vid=88237930-c70e-4caa-be6f-f0bba643aca6","ios":"levelo://app?vid=88237930-c70e-4caa-be6f-f0bba643aca6"},"vehicle_type_id":"4","last_reported":1734628037,"current_range_meters":24400,"station_id":"ce4bh692rcd13ifvqe90","pricing_plan_id":"cebpf4jnsgd1na2vs0mg"},{"bike_id":"f274e70f-b1ac-4a38-a033-2675297b1a10","system_id":"levelo_inurba_marseille","lat":43.29733,"lon":5.3769,"is_reserved":false,"is_disabled":false,"rental_uris":{"android":"levelo://app?vid=f274e70f-b1ac-4a38-a033-2675297b1a10","ios":"levelo://app?vid=f274e70f-b1ac-4a38-a033-2675297b1a10"},"vehicle_type_id":"4","last_reported":1734628037,"current_range_meters":38400,"station_id":"ce4bgkh2rcd13ifvqbl0","pricing_plan_id":"cebpf4jnsgd1na2vs0mg"},{"bike_id":"b906eae2-38a9-4da1-b2e7-5c5ada15f92e","system_id":"levelo_inurba_marseille","lat":43.28441,"lon":5.39201,"is_reserved":false,"is_disabled":false,"rental_uris":{"android":"levelo://app?vid=b906eae2-38a9-4da1-b2e7-5c5ada15f92e","ios":"levelo://app?vid=b906eae2-38a9-4da1-b2e7-5c5ada15f92e"},"vehicle_type_id":"4","last_reported":1734628037,"current_range_meters":39200,"station_id":"ce4bhoh2rcd13ifvqh5g","pricing_plan_id":"cebpf4jnsgd1na2vs0mg"},{"bike_id":"156b881c-c2cf-42e3-a1b1-08573a24609c","system_id":"levelo_inurba_marseille","lat":43.27216,"lon":5.39186,"is_reserved":false,"is_disabled":true,"rental_uris":{"android":"levelo://app?vid=156b881c-c2cf-42e3-a1b1-08573a24609c","ios":"levelo://app?vid=156b881c-c2cf-42e3-a1b1-08573a24609c"},"vehicle_type_id":"4","last_reported":1734628037,"current_range_meters":1200,"station_id":"ce4bhhp2rcd13ifvqfm0","pricing_plan_id":"cebpf4jnsgd1na2vs0mg"},{"bike_id":"ff294bb6-daea-4ec9-bd9e-91b7fd33b502","system_id":"levelo_inurba_marseille","lat":43.29533,"lon":5.39417,"is_reserved":false,"is_disabled":false,"rental_uris":{"android":"levelo://app?vid=ff294bb6-daea-4ec9-bd9e-91b7fd33b502","ios":"levelo://app?vid=ff294bb6-daea-4ec9-bd9e-91b7fd33b502"},"vehicle_type_id":"4","last_reported":1734628037,"current_range_meters":38400,"station_id":"ce4bh292rcd13ifvqdf0","pricing_plan_id":"cebpf4jnsgd1na2vs0mg"},{"bike_id":"2676afe2-801f-4c94-9901-348bd3b213ea","system_id":"levelo_inurba_marseille","lat":43.29558,"lon":5.42281,"is_reserved":false,"is_disabled":true,"rental_uris":{"android":"levelo://app?vid=2676afe2-801f-4c94-9901-348bd3b213ea","ios":"levelo://app?vid=2676afe2-801f-4c94-9901-348bd3b213ea"},"vehicle_type_id":"4","last_reported":1734628037,"current_range_meters":38800,"station_id":"ce4bhph2rcd13ifvqhdg","pricing_plan_id":"cebpf4jnsgd1na2vs0mg"},{"bike_id":"02d9dab4-5ae8-4045-9e56-065b26d93b77","system_id":"levelo_inurba_marseille","lat":43.30146,"lon":5.37417,"is_reserved":false,"is_disabled":true,"rental_uris":{"android":"levelo://app?vid=02d9dab4-5ae8-4045-9e56-065b26d93b77","ios":"levelo://app?vid=02d9dab4-5ae8-4045-9e56-065b26d93b77"},"vehicle_type_id":"4","last_reported":1734628037,"current_range_meters":0,"station_id":"ce4bgs92rcd13ifvqcc0","pricing_plan_id":"cebpf4jnsgd1na2vs0mg"},{"bike_id":"24556a02-5eae-4154-8d00-c6661fcf90d4","system_id":"levelo_inurba_marseille","lat":43.29305,"lon":5.37173,"is_reserved":false,"is_disabled":false,"rental_uris":{"android":"levelo://app?vid=24556a02-5eae-4154-8d00-c6661fcf90d4","ios":"levelo://app?vid=24556a02-5eae-4154-8d00-c6661fcf90d4"},"vehicle_type_id":"4","last_reported":1734628037,"current_range_meters":36800,"station_id":"ce4bgh92rcd13ifvqb40","pricing_plan_id":"cebpf4jnsgd1na2vs0mg"},{"bike_id":"cdf471f3-b809-4e23-aaae-43416e3184b5","system_id":"levelo_inurba_marseille","lat":43.22933,"lon":5.35376,"is_reserved":false,"is_disabled":false,"rental_uris":{"android":"levelo://app?vid=cdf471f3-b809-4e23-aaae-43416e3184b5","ios":"levelo://app?vid=cdf471f3-b809-4e23-aaae-43416e3184b5"},"vehicle_type_id":"4","last_reported":1734628037,"current_range_meters":12400,"station_id":"cpo3532slgdg3j2ikp40","pricing_plan_id":"cebpf4jnsgd1na2vs0mg"},{"bike_id":"fa3ac945-b007-42b1-9faf-fc10b7d226ab","system_id":"levelo_inurba_marseille","lat":43.28468,"lon":5.38414,"is_reserved":false,"is_disabled":false,"rental_uris":{"android":"levelo://app?vid=fa3ac945-b007-42b1-9faf-fc10b7d226ab","ios":"levelo://app?vid=fa3ac945-b007-42b1-9faf-fc10b7d226ab"},"vehicle_type_id":"4","last_reported":1734628037,"current_range_meters":14800,"station_id":"ce4bh512rcd13ifvqe3g","pricing_plan_id":"cebpf4jnsgd1na2vs0mg"},{"bike_id":"f20aaf65-b74f-4d3b-ba9f-feca160b76b8","system_id":"levelo_inurba_marseille","lat":43.28043,"lon":5.36941,"is_reserved":false,"is_disabled":false,"rental_uris":{"android":"levelo://app?vid=f20aaf65-b74f-4d3b-ba9f-feca160b76b8","ios":"levelo://app?vid=f20aaf65-b74f-4d3b-ba9f-feca160b76b8"},"vehicle_type_id":"4","last_reported":1734628037,"current_range_meters":20000,"station_id":"ce4bha12rcd13ifvqef0","pricing_plan_id":"cebpf4jnsgd1na2vs0mg"},{"bike_id":"af51ea16-6441-492f-8d77-ee394badff07","system_id":"levelo_inurba_marseille","lat":43.25725,"lon":5.41107,"is_reserved":false,"is_disabled":false,"rental_uris":{"android":"levelo://app?vid=af51ea16-6441-492f-8d77-ee394badff07","ios":"levelo://app?vid=af51ea16-6441-492f-8d77-ee394badff07"},"vehicle_type_id":"4","last_reported":1734628037,"current_range_meters":34000,"station_id":"ce4bhkp2rcd13ifvqgd0","pricing_plan_id":"cebpf4jnsgd1na2vs0mg"},{"bike_id":"4aa9549c-cf58-4c72-bf94-c72f06622e73","system_id":"levelo_inurba_marseille","lat":43.33026,"lon":5.39039,"is_reserved":false,"is_disabled":false,"rental_uris":{"android":"levelo://app?vid=4aa9549c-cf58-4c72-bf94-c72f06622e73","ios":"levelo://app?vid=4aa9549c-cf58-4c72-bf94-c72f06622e73"},"vehicle_type_id":"4","last_reported":1734628037,"current_range_meters":36800,"station_id":"ce4bhr92rcd13ifvqhrg","pricing_plan_id":"cebpf4jnsgd1na2vs0mg"},{"bike_id":"1c4127b9-486f-41b4-8296-37dda68e98bf","system_id":"levelo_inurba_marseille","lat":43.23212,"lon":5.35561,"is_reserved":false,"is_disabled":false,"rental_uris":{"android":"levelo://app?vid=1c4127b9-486f-41b4-8296-37dda68e98bf","ios":"levelo://app?vid=1c4127b9-486f-41b4-8296-37dda68e98bf"},"vehicle_type_id":"4","last_reported":1734628037,"current_range_meters":31200,"station_id":"ce4bhu92rcd13ifvqi70","pricing_plan_id":"cebpf4jnsgd1na2vs0mg"},{"bike_id":"aa6fc902-fe8c-4261-a42a-3b1efb54a8a2","system_id":"levelo_inurba_marseille","lat":43.29425,"lon":5.38606,"is_reserved":false,"is_disabled":false,"rental_uris":{"android":"levelo://app?vid=aa6fc902-fe8c-4261-a42a-3b1efb54a8a2","ios":"levelo://app?vid=aa6fc902-fe8c-4261-a42a-3b1efb54a8a2"},"vehicle_type_id":"4","last_reported":1734628037,"current_range_meters":14400,"station_id":"ce4bh2h2rcd13ifvqdh0","pricing_plan_id":"cebpf4jnsgd1na2vs0mg"},{"bike_id":"61e14a9c-4483-4c27-af51-60c96e305718","system_id":"levelo_inurba_marseille","lat":43.29222,"lon":5.36073,"is_reserved":false,"is_disabled":false,"rental_uris":{"android":"levelo://app?vid=61e14a9c-4483-4c27-af51-60c96e305718","ios":"levelo://app?vid=61e14a9c-4483-4c27-af51-60c96e305718"},"vehicle_type_id":"4","last_reported":1734628037,"current_range_meters":4800,"station_id":"ce4bhbh2rcd13ifvqeqg","pricing_plan_id":"cebpf4jnsgd1na2vs0mg"},{"bike_id":"fc143f59-4d09-413a-88f4-7020ad965fc7","system_id":"levelo_inurba_marseille","lat":43.323711,"lon":5.388884,"is_reserved":false,"is_disabled":false,"rental_uris":{"android":"levelo://app?vid=fc143f59-4d09-413a-88f4-7020ad965fc7","ios":"levelo://app?vid=fc143f59-4d09-413a-88f4-7020ad965fc7"},"vehicle_type_id":"4","last_reported":1734628037,"current_range_meters":38800,"station_id":"ce4bhqp2rcd13ifvqhog","pricing_plan_id":"cebpf4jnsgd1na2vs0mg"},{"bike_id":"2b4dbcdd-8242-4ccb-b96f-17eca267540c","system_id":"levelo_inurba_marseille","lat":43.26805,"lon":5.40264,"is_reserved":false,"is_disabled":false,"rental_uris":{"android":"levelo://app?vid=2b4dbcdd-8242-4ccb-b96f-17eca267540c","ios":"levelo://app?vid=2b4dbcdd-8242-4ccb-b96f-17eca267540c"},"vehicle_type_id":"4","last_reported":1734628037,"current_range_meters":31200,"station_id":"ce501612rcd8frsf0b60","pricing_plan_id":"cebpf4jnsgd1na2vs0mg"},{"bike_id":"86eb6351-0780-415a-9d54-82a6230eac5f","system_id":"levelo_inurba_marseille","lat":43.31328,"lon":5.39697,"is_reserved":false,"is_disabled":false,"rental_uris":{"android":"levelo://app?vid=86eb6351-0780-415a-9d54-82a6230eac5f","ios":"levelo://app?vid=86eb6351-0780-415a-9d54-82a6230eac5f"},"vehicle_type_id":"4","last_reported":1734628037,"current_range_meters":30800,"station_id":"ce4bgvp2rcd13ifvqcu0","pricing_plan_id":"cebpf4jnsgd1na2vs0mg"},{"bike_id":"2e2e4dd6-c48a-441f-9043-8a8950beec36","system_id":"levelo_inurba_marseille","lat":43.28428,"lon":5.34979,"is_reserved":false,"is_disabled":false,"rental_uris":{"android":"levelo://app?vid=2e2e4dd6-c48a-441f-9043-8a8950beec36","ios":"levelo://app?vid=2e2e4dd6-c48a-441f-9043-8a8950beec36"},"vehicle_type_id":"4","last_reported":1734628037,"current_range_meters":20000,"station_id":"ce4bhbh2rcd13ifvqepg","pricing_plan_id":"cebpf4jnsgd1na2vs0mg"},{"bike_id":"6200effd-3967-4413-948e-6f1ee319a0c3","system_id":"levelo_inurba_marseille","lat":43.29913,"lon":5.38136,"is_reserved":false,"is_disabled":false,"rental_uris":{"android":"levelo://app?vid=6200effd-3967-4413-948e-6f1ee319a0c3","ios":"levelo://app?vid=6200effd-3967-4413-948e-6f1ee319a0c3"},"vehicle_type_id":"4","last_reported":1734628037,"current_range_meters":38000,"station_id":"ce4bgj12rcd13ifvqbc0","pricing_plan_id":"cebpf4jnsgd1na2vs0mg"},{"bike_id":"dd4e3805-eaef-4744-b53c-2f9e8687127a","system_id":"levelo_inurba_marseille","lat":43.28616,"lon":5.35096,"is_reserved":false,"is_disabled":false,"rental_uris":{"android":"levelo://app?vid=dd4e3805-eaef-4744-b53c-2f9e8687127a","ios":"levelo://app?vid=dd4e3805-eaef-4744-b53c-2f9e8687127a"},"vehicle_type_id":"4","last_reported":1734628037,"current_range_meters":12800,"station_id":"ce4bhch2rcd13ifvqeug","pricing_plan_id":"cebpf4jnsgd1na2vs0mg"},{"bike_id":"85227103-9d43-43b9-a143-6ee849b39617","system_id":"levelo_inurba_marseille","lat":43.31409,"lon":5.39391,"is_reserved":false,"is_disabled":false,"rental_uris":{"android":"levelo://app?vid=85227103-9d43-43b9-a143-6ee849b39617","ios":"levelo://app?vid=85227103-9d43-43b9-a143-6ee849b39617"},"vehicle_type_id":"4","last_reported":1734628037,"current_range_meters":38800,"station_id":"","pricing_plan_id":"cebpf4jnsgd1na2vs0mg"},{"bike_id":"df14045e-8e73-442d-8baf-7ce7c5ec81fd","system_id":"levelo_inurba_marseille","lat":43.24174,"lon":5.36381,"is_reserved":false,"is_disabled":false,"rental_uris":{"android":"levelo://app?vid=df14045e-8e73-442d-8baf-7ce7c5ec81fd","ios":"levelo://app?vid=df14045e-8e73-442d-8baf-7ce7c5ec81fd"},"vehicle_type_id":"4","last_reported":1734628037,"current_range_meters":32000,"station_id":"cpo36qri1sfpv3e86is0","pricing_plan_id":"cebpf4jnsgd1na2vs0mg"},{"bike_id":"01442ce1-23af-40a5-a54c-aa40935d2e50","system_id":"levelo_inurba_marseille","lat":43.3081,"lon":5.38168,"is_reserved":false,"is_disabled":false,"rental_uris":{"android":"levelo://app?vid=01442ce1-23af-40a5-a54c-aa40935d2e50","ios":"levelo://app?vid=01442ce1-23af-40a5-a54c-aa40935d2e50"},"vehicle_type_id":"4","last_reported":1734628037,"current_range_meters":6800,"station_id":"ce4bgt12rcd13ifvqce0","pricing_plan_id":"cebpf4jnsgd1na2vs0mg"},