{"last_updated":1751134419,"ttl":60,"version":"2.2","data":{"bikes":[{"bike_id":"3da29fb8-fc97-44c6-b9ac-31dd456b2fd4","system_id":"levelo_inurba_marseille","lat":43.33771,"lon":5.37424,"is_reserved":false,"is_disabled":true,"rental_uris":{"android":"levelo://app?vid=3da29fb8-fc97-44c6-b9ac-31dd456b2fd4","ios":"levelo://app?vid=3da29fb8-fc97-44c6-b9ac-31dd456b2fd4"},"vehicle_type_id":"4","last_reported":1751134420,"current_range_meters":0,"station_id":"","pricing_plan_id":"cebpf4jnsgd1na2vs0mg"},{"bike_id":"01861ad8-a8d7-4be6-816e-651927c87584","system_id":"levelo_inurba_marseille","lat":43.33751,"lon":5.37456,"is_reserved":false,"is_disabled":true,"rental_uris":{"android":"levelo://app?vid=01861ad8-a8d7-4be6-816e-651927c87584","ios":"levelo://app?vid=01861ad8-a8d7-4be6-816e-651927c87584"},"vehicle_type_id":"4","last_reported":1751134420,"current_range_meters":0,"station_id":"","pricing_plan_id":"cebpf4jnsgd1na2vs0mg"},{"bike_id":"7aac647a-260b-423f-ae41-874b82472ad9","system_id":"levelo_inurba_marseille","lat":43.23208,"lon":5.35162,"is_reserved":false,"is_disabled":true,"rental_uris":{"android":"levelo://app?vid=7aac647a-260b-423f-ae41-874b82472ad9","ios":"levelo://app?vid=7aac647a-260b-423f-ae41-874b82472ad9"},"vehicle_type_id":"4","last_reported":1751134420,"current_range_meters":0,"station_id":"","pricing_plan_id":"cebpf4jnsgd1na2vs0mg"},{"bike_id":"e9a7f2ce-f5b2-41e5-b572-5533013492a4","system_id":"levelo_inurba_marseille","lat":43.337444,"lon":5.374475,"is_reserved":false,"is_disabled":true,"rental_uris":{"android":"levelo://app?vid=e9a7f2ce-f5b2-41e5-b572-5533013492a4","ios":"levelo://app?vid=e9a7f2ce-f5b2-41e5-b572-5533013492a4"},"vehicle_type_id":"4","last_reported":1751134420,"current_range_meters":0,"station_id":"","pricing_plan_id":"cebpf4jnsgd1na2vs0mg"},{"bike_id":"666ef40e-8142-4330-a1bf-355f72ca0910","system_id":"levelo_inurba_marseille","lat":43.26331,"lon":5.40107,"is_reserved":false,"is_disabled":true,"rental_uris":{"android":"levelo://app?vid=666ef40e-8142-4330-a1bf-355f72ca0910","ios":"levelo://app?vid=666ef40e-8142-4330-a1bf-355f72ca0910"},"vehicle_type_id":"4","last_reported":1751134420,"current_range_meters":0,"station_id":"","pricing_plan_id":"cebpf4jnsgd1na2vs0mg"},{"bike_id":"7fbf5b9c-3730-4c86-b8fb-7fb550d147a1","system_id":"levelo_inurba_marseille","lat":43.30882,"lon":5.37188,"is_reserved":false,"is_disabled":true,"rental_uris":{"android":"levelo://app?vid=7fbf5b9c-3730-4c86-b8fb-7fb550d147a1","ios":"levelo://app?vid=7fbf5b9c-3730-4c86-b8fb-7fb550d147a1"},"vehicle_type_id":"4","last_reported":1751134420,"current_range_meters":0,"station_id":"ce4bguh2rcd13ifvqckg","pricing_plan_id":"cebpf4jnsgd1na2vs0mg"},{"bike_id":"ed709f9c-74a0-4cac-8fa9-d89660e28d91","system_id":"levelo_inurba_marseille","lat":43.309565,"lon":5.390166,"is_reserved":false,"is_disabled":true,"rental_uris":{"android":"levelo://app?vid=ed709f9c-74a0-4cac-8fa9-d89660e28d91","ios":"levelo://app?vid=ed709f9c-74a0-4cac-8fa9-d89660e28d91"},"vehicle_type_id":"4","last_reported":1751134420,"current_range_meters":0,"station_id":"ce4bgup2rcd13ifvqco0","pricing_plan_id":"cebpf4jnsgd1na2vs0mg"},{"bike_id":"62f7a76d-df82-4211-afa8-a9f2d7ab3d9c","system_id":"levelo_inurba_marseille","lat":43.28856,"lon":5.35844,"is_reserved":false,"is_disabled":true,"rental_uris":{"android":"levelo://app?vid=62f7a76d-df82-4211-afa8-a9f2d7ab3d9c","ios":"levelo://app?vid=62f7a76d-df82-4211-afa8-a9f2d7ab3d9c"},"vehicle_type_id":"4","last_reported":1751134420,"current_range_meters":0,"station_id":"ce4bhb12rcd13ifvqem0","pricing_plan_id":"cebpf4jnsgd1na2vs0mg"},{"bike_id":"51d49ee9-6ce9-4faa-8dcd-d8ac6d5b1108","system_id":"levelo_inurba_marseille","lat":43.29004,"lon":5.35614,"is_reserved":false,"is_disabled":true,"rental_uris":{"android":"levelo://app?vid=51d49ee9-6ce9-4faa-8dcd-d8ac6d5b1108","ios":"levelo://app?vid=51d49ee9-6ce9-4faa-8dcd-d8ac6d5b1108"},"vehicle_type_id":"4","last_reported":1751134420,"current_range_meters":0,"station_id":"ce4bhb92rcd13ifvqen0","pricing_plan_id":"cebpf4jnsgd1na2vs0mg"},{"bike_id":"2b473853-0941-479c-90bf-fca172afd90d","system_id":"levelo_inurba_marseille","lat":43.25579,"lon":5.38235,"is_reserved":false,"is_disabled":true,"rental_uris":{"android":"levelo://app?vid=2b473853-0941-479c-90bf-fca172afd90d","ios":"levelo://app?vid=2b473853-0941-479c-90bf-fca172afd90d"},"vehicle_type_id":"4","last_reported":1751134420,"current_range_meters":0,"station_id":"ce4bhih2rcd13ifvqfs0","pricing_plan_id":"cebpf4jnsgd1na2vs0mg"},{"bike_id":"281c06c7-9aa7-4543-95f4-878f7926a0e9","system_id":"levelo_inurba_marseille","lat":43.259436,"lon":5.409037,"is_reserved":false,"is_disabled":true,"rental_uris":{"android":"levelo://app?vid=281c06c7-9aa7-4543-95f4-878f7926a0e9","ios":"levelo://app?vid=281c06c7-9aa7-4543-95f4-878f7926a0e9"},"vehicle_type_id":"4","last_reported":1751134420,"current_range_meters":0,"station_id":"ce4bhm92rcd13ifvqglg","pricing_plan_id":"cebpf4jnsgd1na2vs0mg"},{"bike_id":"37ab33b4-f4c4-404e-8c6e-d624ceb48324","system_id":"levelo_inurba_marseille","lat":43.24184,"lon":5.39724,"is_reserved":false,"is_disabled":true,"rental_uris":{"android":"levelo://app?vid=37ab33b4-f4c4-404e-8c6e-d624ceb48324","ios":"levelo://app?vid=37ab33b4-f4c4-404e-8c6e-d624ceb48324"},"vehicle_type_id":"4","last_reported":1751134420,"current_range_meters":0,"station_id":"ce4bhn12rcd13ifvqgpg","pricing_plan_id":"cebpf4jnsgd1na2vs0mg"},{"bike_id":"612b34ed-ddf1-4f6a-96bb-08fc82d7d35a","system_id":"levelo_inurba_marseille","lat":43.28156,"lon":5.42641,"is_reserved":false,"is_disabled":true,"rental_uris":{"android":"levelo://app?vid=612b34ed-ddf1-4f6a-96bb-08fc82d7d35a","ios":"levelo://app?vid=612b34ed-ddf1-4f6a-96bb-08fc82d7d35a"},"vehicle_type_id":"4","last_reported":1751134420,"current_range_meters":0,"station_id":"ce4bhnh2rcd13ifvqgug","pricing_plan_id":"cebpf4jnsgd1na2vs0mg"},{"bike_id":"92d3bb11-4cf3-47e6-bc0f-ff80eea58ad1","system_id":"levelo_inurba_marseille","lat":43.30373,"lon":5.42493,"is_reserved":false,"is_disabled":true,"rental_uris":{"android":"levelo://app?vid=92d3bb11-4cf3-47e6-bc0f-ff80eea58ad1","ios":"levelo://app?vid=92d3bb11-4cf3-47e6-bc0f-ff80eea58ad1"},"vehicle_type_id":"4","last_reported":1751134420,"current_range_meters":0,"station_id":"ce4bhoh2rcd13ifvqh6g","pricing_plan_id":"cebpf4jnsgd1na2vs0mg"},{"bike_id":"c8ce0351-fe68-40b1-beb5-45d8ee0eed11","system_id":"levelo_inurba_marseille","lat":43.30378,"lon":5.42465,"is_reserved":false,"is_disabled":true,"rental_uris":{"android":"levelo://app?vid=c8ce0351-fe68-40b1-beb5-45d8ee0eed11","ios":"levelo://app?vid=c8ce0351-fe68-40b1-beb5-45d8ee0eed11"},"vehicle_type_id":"4","last_reported":1751134420,"current_range_meters":0,"station_id":"ce4bhoh2rcd13ifvqh6g","pricing_plan_id":"cebpf4jnsgd1na2vs0mg"},{"bike_id":"38d01765-5414-4f3d-b96c-a482eae367ca","system_id":"levelo_inurba_marseille","lat":43.21749,"lon":5.34601,"is_reserved":false,"is_disabled":true,"rental_uris":{"android":"levelo://app?vid=38d01765-5414-4f3d-b96c-a482eae367ca","ios":"levelo://app?vid=38d01765-5414-4f3d-b96c-a482eae367ca"},"vehicle_type_id":"4","last_reported":1751134420,"current_range_meters":0,"station_id":"st_cvj6r9ubvosntc0bgbag","pricing_plan_id":"cebpf4jnsgd1na2vs0mg"},{"bike_id":"070a5204-3e73-4cf5-9fda-520c8795969f","system_id":"levelo_inurba_marseille","lat":43.21739,"lon":5.34607,"is_reserved":false,"is_disabled":true,"rental_uris":{"android":"levelo://app?vid=070a5204-3e73-4cf5-9fda-520c8795969f","ios":"levelo://app?vid=070a5204-3e73-4cf5-9fda-520c8795969f"},"vehicle_type_id":"4","last_reported":1751134420,"current_range_meters":0,"station_id":"st_cvj6r9ubvosntc0bgbag","pricing_plan_id":"cebpf4jnsgd1na2vs0mg"},{"bike_id":"e23bce5b-eb4d-4710-841c-64bdc0d493ad","system_id":"levelo_inurba_marseille","lat":43.30954,"lon":5.39049,"is_reserved":false,"is_disabled":true,"rental_uris":{"android":"levelo://app?vid=e23bce5b-eb4d-4710-841c-64bdc0d493ad","ios":"levelo://app?vid=e23bce5b-eb4d-4710-841c-64bdc0d493ad"},"vehicle_type_id":"4","last_reported":1751134420,"current_range_meters":400,"station_id":"ce4bgup2rcd13ifvqco0","pricing_plan_id":"cebpf4jnsgd1na2vs0mg"},{"bike_id":"0dd74537-1eda-4a45-9817-024db8ba2a24","system_id":"levelo_inurba_marseille","lat":43.27996,"lon":5.41664,"is_reserved":false,"is_disabled":true,"rental_uris":{"android":"levelo://app?vid=0dd74537-1eda-4a45-9817-024db8ba2a24","ios":"levelo://app?vid=0dd74537-1eda-4a45-9817-024db8ba2a24"},"vehicle_type_id":"4","last_reported":1751134420,"current_range_meters":400,"station_id":"ce4bho12rcd13ifvqh1g","pricing_plan_id":"cebpf4jnsgd1na2vs0mg"},{"bike_id":"df9ba294-2131-4433-84c8-b2b52ddd1423","system_id":"levelo_inurba_marseille","lat":43.304555,"lon":5.379041,"is_reserved":false,"is_disabled":true,"rental_uris":{"android":"levelo://app?vid=df9ba294-2131-4433-84c8-b2b52ddd1423","ios":"levelo://app?vid=df9ba294-2131-4433-84c8-b2b52ddd1423"},"vehicle_type_id":"4","last_reported":1751134420,"current_range_meters":800,"station_id":"ce4bgup2rcd13ifvqcn0","pricing_plan_id":"cebpf4jnsgd1na2vs0mg"},{"bike_id":"4aaddceb-c133-40ff-b460-99dec9067bd2","system_id":"levelo_inurba_marseille","lat":43.27957,"lon":5.38703,"is_reserved":false,"is_disabled":true,"rental_uris":{"android":"levelo://app?vid=4aaddceb-c133-40ff-b460-99dec9067bd2","ios":"levelo://app?vid=4aaddceb-c133-40ff-b460-99dec9067bd2"},"vehicle_type_id":"4","last_reported":1751134420,"current_range_meters":800,"station_id":"ce4bhg12rcd13ifvqf80","pricing_plan_id":"cebpf4jnsgd1na2vs0mg"},{"bike_id":"67b581bd-cd71-4c0a-bd5b-808b17e0b81c","system_id":"levelo_inurba_marseille","lat":43.24655,"lon":5.38165,"is_reserved":false,"is_disabled":true,"rental_uris":{"android":"levelo://app?vid=67b581bd-cd71-4c0a-bd5b-808b17e0b81c","ios":"levelo://app?vid=67b581bd-cd71-4c0a-bd5b-808b17e0b81c"},"vehicle_type_id":"4","last_reported":1751134420,"current_range_meters":800,"station_id":"ce4bhih2rcd13ifvqfr0","pricing_plan_id":"cebpf4jnsgd1na2vs0mg"},{"bike_id":"e94eb73d-e721-4839-b132-7745262a5c07","system_id":"levelo_inurba_marseille","lat":43.2573,"lon":5.41121,"is_reserved":false,"is_disabled":true,"rental_uris":{"android":"levelo://app?vid=e94eb73d-e721-4839-b132-7745262a5c07","ios":"levelo://app?vid=e94eb73d-e721-4839-b132-7745262a5c07"},"vehicle_type_id":"4","last_reported":1751134420,"current_range_meters":800,"station_id":"ce4bhkp2rcd13ifvqgd0","pricing_plan_id":"cebpf4jnsgd1na2vs0mg"},{"bike_id":"53f760d9-2926-4c0b-9078-ae8706c81b5c","system_id":"levelo_inurba_marseille","lat":43.217386,"lon":5.346068,"is_reserved":false,"is_disabled":true,"rental_uris":{"android":"levelo://app?vid=53f760d9-2926-4c0b-9078-ae8706c81b5c","ios":"levelo://app?vid=53f760d9-2926-4c0b-9078-ae8706c81b5c"},"vehicle_type_id":"4","last_reported":1751134420,"current_range_meters":800,"station_id":"st_cvj6r9ubvosntc0bgbag","pricing_plan_id":"cebpf4jnsgd1na2vs0mg"},{"bike_id":"3ed97791-4fd1-4beb-9e6b-4998740d59d9","system_id":"levelo_inurba_marseille","lat":43.271719,"lon":5.410008,"is_reserved":false,"is_disabled":true,"rental_uris":{"android":"levelo://app?vid=3ed97791-4fd1-4beb-9e6b-4998740d59d9","ios":"levelo://app?vid=3ed97791-4fd1-4beb-9e6b-4998740d59d9"},"vehicle_type_id":"4","last_reported":1751134420,"current_range_meters":1200,"station_id":"","pricing_plan_id":"cebpf4jnsgd1na2vs0mg"},{"bike_id":"f3fd40ad-b214-4018-b598-7ad15d963593","system_id":"levelo_inurba_marseille","lat":43.27969,"lon":5.38744,"is_reserved":false,"is_disabled":true,"rental_uris":{"android":"levelo://app?vid=f3fd40ad-b214-4018-b598-7ad15d963593","ios":"levelo://app?vid=f3fd40ad-b214-4018-b598-7ad15d963593"},"vehicle_type_id":"4","last_reported":1751134420,"current_range_meters":1200,"station_id":"ce4bhg12rcd13ifvqf80","pricing_plan_id":"cebpf4jnsgd1na2vs0mg"},{"bike_id":"f3abd1f4-ad79-4b8f-b625-3a6e1955bae8","system_id":"levelo_inurba_marseille","lat":43.26686,"lon":5.382784,"is_reserved":false,"is_disabled":true,"rental_uris":{"android":"levelo://app?vid=f3abd1f4-ad79-4b8f-b625-3a6e1955bae8","ios":"levelo://app?vid=f3abd1f4-ad79-4b8f-b625-3a6e1955bae8"},"vehicle_type_id":"4","last_reported":1751134420,"current_range_meters":1200,"station_id":"ce4bhg92rcd13ifvqf90","pricing_plan_id":"cebpf4jnsgd1na2vs0mg"},{"bike_id":"b413be94-8d5b-4a95-a200-07651edc2818","system_id":"levelo_inurba_marseille","lat":43.25578,"lon":5.38236,"is_reserved":false,"is_disabled":true,"rental_uris":{"android":"levelo://app?vid=b413be94-8d5b-4a95-a200-07651edc2818","ios":"levelo://app?vid=b413be94-8d5b-4a95-a200-07651edc2818"},"vehicle_type_id":"4","last_reported":1751134420,"current_range_meters":1600,"station_id":"ce4bhih2rcd13ifvqfs0","pricing_plan_id":"cebpf4jnsgd1na2vs0mg"},{"bike_id":"2c22137b-57d5-4fbd-b939-7275521eb040","system_id":"levelo_inurba_marseille","lat":43.279641,"lon":5.387469,"is_reserved":false,"is_disabled":true,"rental_uris":{"android":"levelo://app?vid=2c22137b-57d5-4fbd-b939-7275521eb040","ios":"levelo://app?vid=2c22137b-57d5-4fbd-b939-7275521eb040"},"vehicle_type_id":"4","last_reported":1751134420,"current_range_meters":1600,"station_id":"ce4bhl92rcd13ifvqghg","pricing_plan_id":"cebpf4jnsgd1na2vs0mg"},{"bike_id":"0fd098e5-e04f-409e-b707-f256cd111cb4","system_id":"levelo_inurba_marseille","lat":43.29785,"lon":5.37098,"is_reserved":false,"is_disabled":true,"rental_uris":{"android":"levelo://app?vid=0fd098e5-e04f-409e-b707-f256cd111cb4","ios":"levelo://app?vid=0fd098e5-e04f-409e-b707-f256cd111cb4"},"vehicle_type_id":"4","last_reported":1751134420,"current_range_meters":2000,"station_id":"ce4bgop2rcd13ifvqc1g","pricing_plan_id":"cebpf4jnsgd1na2vs0mg"},{"bike_id":"6163d2f3-266f-4b59-bee6-78fb029bf644","system_id":"levelo_inurba_marseille","lat":43.229403,"lon":5.353739,"is_reserved":false,"is_disabled":false,"rental_uris":{"android":"levelo://app?vid=6163d2f3-266f-4b59-bee6-78fb029bf644","ios":"levelo://app?vid=6163d2f3-266f-4b59-bee6-78fb029bf644"},"vehicle_type_id":"4","last_reported":1751134420,"current_range_meters":2800,"station_id":"","pricing_plan_id":"cebpf4jnsgd1na2vs0mg"},{"bike_id":"dd71b994-a821-411e-8eb4-d94a9e3595fb","system_id":"levelo_inurba_marseille","lat":43.24179,"lon":5.39732,"is_reserved":false,"is_disabled":false,"rental_uris":{"android":"levelo://app?vid=dd71b994-a821-411e-8eb4-d94a9e3595fb","ios":"levelo://app?vid=dd71b994-a821-411e-8eb4-d94a9e3595fb"},"vehicle_type_id":"4","last_reported":1751134420,"current_range_meters":2800,"station_id":"ce4bhn12rcd13ifvqgpg","pricing_plan_id":"cebpf4jnsgd1na2vs0mg"},{"bike_id":"585a0777-cbbc-4f94-a70f-4342ce9cb09d","system_id":"levelo_inurba_marseille","lat":43.27714,"lon":5.38886,"is_reserved":false,"is_disabled":false,"rental_uris":{"android":"levelo://app?vid=585a0777-cbbc-4f94-a70f-4342ce9cb09d","ios":"levelo://app?vid=585a0777-cbbc-4f94-a70f-4342ce9cb09d"},"vehicle_type_id":"4","last_reported":1751134420,"current_range_meters":3200,"station_id":"ce4bhi12rcd13ifvqfo0","pricing_plan_id":"cebpf4jnsgd1na2vs0mg"},{"bike_id":"7ff6cb5c-3a90-41b7-a1f2-0af950ee0733","system_id":"levelo_inurba_marseille","lat":43.32364,"lon":5.36757,"is_reserved":false,"is_disabled":false,"rental_uris":{"android":"levelo://app?vid=7ff6cb5c-3a90-41b7-a1f2-0af950ee0733","ios":"levelo://app?vid=7ff6cb5c-3a90-41b7-a1f2-0af950ee0733"},"vehicle_type_id":"4","last_reported":1751134420,"current_range_meters":3200,"station_id":"ce4bhsh2rcd13ifvqi2g","pricing_plan_id":"cebpf4jnsgd1na2vs0mg"},{"bike_id":"c88259e2-f9e8-4caa-ae16-0100c5c256bc","system_id":"levelo_inurba_marseille","lat":43.301479,"lon":5.380782,"is_reserved":false,"is_disabled":false,"rental_uris":{"android":"levelo://app?vid=c88259e2-f9e8-4caa-ae16-0100c5c256bc","ios":"levelo://app?vid=c88259e2-f9e8-4caa-ae16-0100c5c256bc"},"vehicle_type_id":"4","last_reported":1751134420,"current_range_meters":3600,"station_id":"ce4bgjp2rcd13ifvqbh0","pricing_plan_id":"cebpf4jnsgd1na2vs0mg"},{"bike_id":"d61bb703-3736-45a8-9655-f18cc4596105","system_id":"levelo_inurba_marseille","lat":43.28935,"lon":5.38389,"is_reserved":false,"is_disabled":false,"rental_uris":{"android":"levelo://app?vid=d61bb703-3736-45a8-9655-f18cc4596105","ios":"levelo://app?vid=d61bb703-3736-45a8-9655-f18cc4596105"},"vehicle_type_id":"4","last_reported":1751134420,"current_range_meters":3600,"station_id":"ce4bh612rcd13ifvqe6g","pricing_plan_id":"cebpf4jnsgd1na2vs0mg"},{"bike_id":"d6ab6ec1-502a-448a-97ca-b2627b36e7b9","system_id":"levelo_inurba_marseille","lat":43.27999,"lon":5.41661,"is_reserved":false,"is_disabled":false,"rental_uris":{"android":"levelo://app?vid=d6ab6ec1-502a-448a-97ca-b2627b36e7b9","ios":"levelo://app?vid=d6ab6ec1-502a-448a-97ca-b2627b36e7b9"},"vehicle_type_id":"4","last_reported":1751134420,"current_range_meters":3600,"station_id":"ce4bho12rcd13ifvqh1g","pricing_plan_id":"cebpf4jnsgd1na2vs0mg"},{"bike_id":"0a034962-a078-4cd8-ab5c-29a2f15ac163","system_id":"levelo_inurba_marseille","lat":43.29914,"lon":5.43664,"is_reserved":false,"is_disabled":false,"rental_uris":{"android":"levelo://app?vid=0a034962-a078-4cd8-ab5c-29a2f15ac163","ios":"levelo://app?vid=0a034962-a078-4cd8-ab5c-29a2f15ac163"},"vehicle_type_id":"4","last_reported":1751134420,"current_range_meters":3600,"station_id":"ce4bhpp2rcd13ifvqhfg","pricing_plan_id":"cebpf4jnsgd1na2vs0mg"},{"bike_id":"bcaa9098-7ccb-4489-97d4-07fd819d9451","system_id":"levelo_inurba_marseille","lat":43.28411,"lon":5.34982,"is_reserved":false,"is_disabled":false,"rental_uris":{"android":"levelo://app?vid=bcaa9098-7ccb-4489-97d4-07fd819d9451","ios":"levelo://app?vid=bcaa9098-7ccb-4489-97d4-07fd819d9451"},"vehicle_type_id":"4","last_reported":1751134420,"current_range_meters":4000,"station_id":"","pricing_plan_id":"cebpf4jnsgd1na2vs0mg"},{"bike_id":"492639f1-e554-434f-9d87-aeb1bc4e3be9","system_id":"levelo_inurba_marseille","lat":43.30325,"lon":5.40444,"is_reserved":false,"is_disabled":false,"rental_uris":{"android":"levelo://app?vid=492639f1-e554-434f-9d87-aeb1bc4e3be9","ios":"levelo://app?vid=492639f1-e554-434f-9d87-aeb1bc4e3be9"},"vehicle_type_id":"4","last_reported":1751134420,"current_range_meters":4000,"station_id":"ce4bh012rcd13ifvqd10","pricing_plan_id":"cebpf4jnsgd1na2vs0mg"},{"bike_id":"1ccd58a5-26ce-4103-85c5-0b2ea5f384a3","system_id":"levelo_inurba_marseille","lat":43.26688,"lon":5.38267,"is_reserved":false,"is_disabled":false,"rental_uris":{"android":"levelo://app?vid=1ccd58a5-26ce-4103-85c5-0b2ea5f384a3","ios":"levelo://app?vid=1ccd58a5-26ce-4103-85c5-0b2ea5f384a3"},"vehicle_type_id":"4","last_reported":1751134420,"current_range_meters":4000,"station_id":"ce4bhg92rcd13ifvqf90","pricing_plan_id":"cebpf4jnsgd1na2vs0mg"},{"bike_id":"c7ad14b7-a392-4606-96d7-f88ca0ad3299","system_id":"levelo_inurba_marseille","lat":43.24809,"lon":5.37456,"is_reserved":false,"is_disabled":false,"rental_uris":{"android":"levelo://app?vid=c7ad14b7-a392-4606-96d7-f88ca0ad3299","ios":"levelo://app?vid=c7ad14b7-a392-4606-96d7-f88ca0ad3299"},"vehicle_type_id":"4","last_reported":1751134420,"current_range_meters":4000,"station_id":"ce4bhgh2rcd13ifvqfb0","pricing_plan_id":"cebpf4jnsgd1na2vs0mg"},{"bike_id":"7b8252d9-2755-48da-b23b-b6936f03ec26","system_id":"levelo_inurba_marseille","lat":43.21754,"lon":5.346,"is_reserved":false,"is_disabled":false,"rental_uris":{"android":"levelo://app?vid=7b8252d9-2755-48da-b23b-b6936f03ec26","ios":"levelo://app?vid=7b8252d9-2755-48da-b23b-b6936f03ec26"},"vehicle_type_id":"4","last_reported":1751134420,"current_range_meters":4000,"station_id":"st_cvj6r9ubvosntc0bgbag","pricing_plan_id":"cebpf4jnsgd1na2vs0mg"},{"bike_id":"36afb480-ddd4-4adb-af85-17fd6e28bbf6","system_id":"levelo_inurba_marseille","lat":43.29087,"lon":5.37179,"is_reserved":false,"is_disabled":false,"rental_uris":{"android":"levelo://app?vid=36afb480-ddd4-4adb-af85-17fd6e28bbf6","ios":"levelo://app?vid=36afb480-ddd4-4adb-af85-17fd6e28bbf6"},"vehicle_type_id":"4","last_reported":1751134420,"current_range_meters":4400,"station_id":"ce4bh5p2rcd13ifvqe4g","pricing_plan_id":"cebpf4jnsgd1na2vs0mg"},{"bike_id":"48c60c85-4f46-4198-abe4-9a08874d2674","system_id":"levelo_inurba_marseille","lat":43.32359,"lon":5.36734,"is_reserved":false,"is_disabled":false,"rental_uris":{"android":"levelo://app?vid=48c60c85-4f46-4198-abe4-9a08874d2674","ios":"levelo://app?vid=48c60c85-4f46-4198-abe4-9a08874d2674"},"vehicle_type_id":"4","last_reported":1751134420,"current_range_meters":4400,"station_id":"ce4bhsh2rcd13ifvqi2g","pricing_plan_id":"cebpf4jnsgd1na2vs0mg"},{"bike_id":"73a03650-973e-42b0-bad4-545481e15f73","system_id":"levelo_inurba_marseille","lat":43.312371,"lon":5.390596,"is_reserved":false,"is_disabled":false,"rental_uris":{"android":"levelo://app?vid=73a03650-973e-42b0-bad4-545481e15f73","ios":"levelo://app?vid=73a03650-973e-42b0-bad4-545481e15f73"},"vehicle_type_id":"4","last_reported":1751134420,"current_range_meters":4800,"station_id":"","pricing_plan_id":"cebpf4jnsgd1na2vs0mg"},{"bike_id":"572406c9-5b4a-46e3-a818-45ba8dfeac46","system_id":"levelo_inurba_marseille","lat":43.24388,"lon":5.37057,"is_reserved":false,"is_disabled":false,"rental_uris":{"android":"levelo://app?vid=572406c9-5b4a-46e3-a818-45ba8dfeac46","ios":"levelo://app?vid=572406c9-5b4a-46e3-a818-45ba8dfeac46"},"vehicle_type_id":"4","last_reported":1751134420,"current_range_meters":4800,"station_id":"ce4bhhh2rcd13ifvqfk0","pricing_plan_id":"cebpf4jnsgd1na2vs0mg"},{"bike_id":"8e88d330-4796-4944-bdb3-da5564ba7e9f","system_id":"levelo_inurba_marseille","lat":43.27496,"lon":5.4245,"is_reserved":false,"is_disabled":false,"rental_uris":{"android":"levelo://app?vid=8e88d330-4796-4944-bdb3-da5564ba7e9f","ios":"levelo://app?vid=8e88d330-4796-4944-bdb3-da5564ba7e9f"},"vehicle_type_id":"4","last_reported":1751134420,"current_range_meters":4800,"station_id":"ce4bhn92rcd13ifvqgrg","pricing_plan_id":"cebpf4jnsgd1na2vs0mg"},{"bike_id":"89da4245-cca7-4b98-bfc0-199cce3026ab","system_id":"levelo_inurba_marseille","lat":43.217425,"lon":5.346034,"is_reserved":false,"is_disabled":false,"rental_uris":{"android":"levelo://app?vid=89da4245-cca7-4b98-bfc0-199cce3026ab","ios":"levelo://app?vid=89da4245-cca7-4b98-bfc0-199cce3026ab"},"vehicle_type_id":"4","last_reported":1751134420,"current_range_meters":5600,"station_id":"","pricing_plan_id":"cebpf4jnsgd1na2vs0mg"},{"bike_id":"70873d34-3022-47d8-98cb-bc4700826032","system_id":"levelo_inurba_marseille","lat":43.27497,"lon":5.42449,"is_reserved":false,"is_disabled":false,"rental_uris":{"android":"levelo://app?vid=70873d34-3022-47d8-98cb-bc4700826032","ios":"levelo://app?vid=70873d34-3022-47d8-98cb-bc4700826032"},"vehicle_type_id":"4","last_reported":1751134420,"current_range_meters":5600,"station_id":"ce4bhn92rcd13ifvqgrg","pricing_plan_id":"cebpf4jnsgd1na2vs0mg"},{"bike_id":"a440f2f6-8cf8-4348-9ba1-e21002a18a07","system_id":"levelo_inurba_marseille","lat":43.321113,"lon":5.367589,"is_reserved":false,"is_disabled":false,"rental_uris":{"android":"levelo://app?vid=a440f2f6-8cf8-4348-9ba1-e21002a18a07","ios":"levelo://app?vid=a440f2f6-8cf8-4348-9ba1-e21002a18a07"},"vehicle_type_id":"4","last_reported":1751134420,"current_range_meters":6000,"station_id":"ce4bhrh2rcd13ifvqhug","pricing_plan_id":"cebpf4jnsgd1na2vs0mg"},{"bike_id":"8d4da827-dff3-4ac4-b7ec-bf9335b5cb3d","system_id":"levelo_inurba_marseille","lat":43.26944,"lon":5.40243,"is_reserved":false,"is_disabled":false,"rental_uris":{"android":"levelo://app?vid=8d4da827-dff3-4ac4-b7ec-bf9335b5cb3d","ios":"levelo://app?vid=8d4da827-dff3-4ac4-b7ec-bf9335b5cb3d"},"vehicle_type_id":"4","last_reported":1751134420,"current_range_meters":6000,"station_id":"cjm6bp8fraef2m0cb0m0","pricing_plan_id":"cebpf4jnsgd1na2vs0mg"},{"bike_id":"d51279c7-180b-451d-b27c-4ab6621ee41d","system_id":"levelo_inurba_marseille","lat":43.30734,"lon":5.37482,"is_reserved":false,"is_disabled":false,"rental_uris":{"android":"levelo://app?vid=d51279c7-180b-451d-b27c-4ab6621ee41d","ios":"levelo://app?vid=d51279c7-180b-451d-b27c-4ab6621ee41d"},"vehicle_type_id":"4","last_reported":1751134420,"current_range_meters":6400,"station_id":"","pricing_plan_id":"cebpf4jnsgd1na2vs0mg"},{"bike_id":"d93518a7-acea-49d1-8b1d-66917831e25a","system_id":"levelo_inurba_marseille","lat":43.28348,"lon":5.39579,"is_reserved":false,"is_disabled":false,"rental_uris":{"android":"levelo://app?vid=d93518a7-acea-49d1-8b1d-66917831e25a","ios":"levelo://app?vid=d93518a7-acea-49d1-8b1d-66917831e25a"},"vehicle_type_id":"4","last_reported":1751134420,"current_range_meters":6800,"station_id":"","pricing_plan_id":"cebpf4jnsgd1na2vs0mg"},{"bike_id":"da0ee687-357b-49a7-bfeb-cd821f41f07b","system_id":"levelo_inurba_marseille","lat":43.27569,"lon":5.38412,"is_reserved":false,"is_disabled":false,"rental_uris":{"android":"levelo://app?vid=da0ee687-357b-49a7-bfeb-cd821f41f07b","ios":"levelo://app?vid=da0ee687-357b-49a7-bfeb-cd821f41f07b"},"vehicle_type_id":"4","last_reported":1751134420,"current_range_meters":6800,"station_id":"ce4bhh92rcd13ifvqfi0","pricing_plan_id":"cebpf4jnsgd1na2vs0mg"},{"bike_id":"5e6f9da2-f57c-4f4a-9083-64354f865d6a","system_id":"levelo_inurba_marseille","lat":43.29931,"lon":5.4365,"is_reserved":false,"is_disabled":false,"rental_uris":{"android":"levelo://app?vid=5e6f9da2-f57c-4f4a-9083-64354f865d6a","ios":"levelo://app?vid=5e6f9da2-f57c-4f4a-9083-64354f865d6a"},"vehicle_type_id":"4","last_reported":1751134420,"current_range_meters":6800,"station_id":"ce4bhpp2rcd13ifvqhfg","pricing_plan_id":"cebpf4jnsgd1na2vs0mg"},{"bike_id":"acef36dd-fa53-41f7-9393-09df32856791","system_id":"levelo_inurba_marseille","lat":43.30646,"lon":5.40102,"is_reserved":false,"is_disabled":false,"rental_uris":{"android":"levelo://app?vid=acef36dd-fa53-41f7-9393-09df32856791","ios":"levelo://app?vid=acef36dd-fa53-41f7-9393-09df32856791"},"vehicle_type_id":"4","last_reported":1751134420,"current_range_meters":7200,"station_id":"ce4bh112rcd13ifvqda0","pricing_plan_id":"cebpf4jnsgd1na2vs0mg"},{"bike_id":"8e1e08a3-a99e-48fe-bf23-46525a18a75d","system_id":"levelo_inurba_marseille","lat":43.300842,"lon":5.390821,"is_reserved":false,"is_disabled":false,"rental_uris":{"android":"levelo://app?vid=8e1e08a3-a99e-48fe-bf23-46525a18a75d","ios":"levelo://app?vid=8e1e08a3-a99e-48fe-bf23-46525a18a75d"},"vehicle_type_id":"4","last_reported":1751134420,"current_range_meters":7200,"station_id":"ce4bh192rcd13ifvqdb0","pricing_plan_id":"cebpf4jnsgd1na2vs0mg"},{"bike_id":"e164802b-93a8-4107-9cb5-da80129d10f8","system_id":"levelo_inurba_marseille","lat":43.26933,"lon":5.40254,"is_reserved":false,"is_disabled":false,"rental_uris":{"android":"levelo://app?vid=e164802b-93a8-4107-9cb5-da80129d10f8","ios":"levelo://app?vid=e164802b-93a8-4107-9cb5-da80129d10f8"},"vehicle_type_id":"4","last_reported":1751134420,"current_range_meters":7200,"station_id":"cjm6bp8fraef2m0cb0m0","pricing_plan_id":"cebpf4jnsgd1na2vs0mg"},{"bike_id":"1c8ab180-05fd-405f-9922-b2b2c2d5142f","system_id":"levelo_inurba_marseille","lat":43.32219,"lon":5.36682,"is_reserved":false,"is_disabled":false,"rental_uris":{"android":"levelo://app?vid=1c8ab180-05fd-405f-9922-b2b2c2d5142f","ios":"levelo://app?vid=1c8ab180-05fd-405f-9922-b2b2c2d5142f"},"vehicle_type_id":"4","last_reported":1751134420,"current_range_meters":8000,"station_id":"","pricing_plan_id":"cebpf4jnsgd1na2vs0mg"},{"bike_id":"e51964c9-2c46-4567-bb54-fd00f2a1728b","system_id":"levelo_inurba_marseille","lat":43.29709,"lon":5.36608,"is_reserved":false,"is_disabled":false,"rental_uris":{"android":"levelo://app?vid=e51964c9-2c46-4567-bb54-fd00f2a1728b","ios":"levelo://app?vid=e51964c9-2c46-4567-bb54-fd00f2a1728b"},"vehicle_type_id":"4","last_reported":1751134420,"current_range_meters":8000,"station_id":"ce4bgn12rcd13ifvqbt0","pricing_plan_id":"cebpf4jnsgd1na2vs0mg"},{"bike_id":"e3e49dbd-a30c-4304-97e2-4646aeca1d68","system_id":"levelo_inurba_marseille","lat":43.3096,"lon":5.39047,"is_reserved":false,"is_disabled":false,"rental_uris":{"android":"levelo://app?vid=e3e49dbd-a30c-4304-97e2-4646aeca1d68","ios":"levelo://app?vid=e3e49dbd-a30c-4304-97e2-4646aeca1d68"},"vehicle_type_id":"4","last_reported":1751134420,"current_range_meters":8000,"station_id":"ce4bgup2rcd13ifvqco0","pricing_plan_id":"cebpf4jnsgd1na2vs0mg"},{"bike_id":"15308a1f-69f2-4a06-bd58-daf4f4575319","system_id":"levelo_inurba_marseille","lat":43.30954,"lon":5.39024,"is_reserved":false,"is_disabled":false,"rental_uris":{"android":"levelo://app?vid=15308a1f-69f2-4a06-bd58-daf4f4575319","ios":"levelo://app?vid=15308a1f-69f2-4a06-bd58-daf4f4575319"},"vehicle_type_id":"4","last_reported":1751134420,"current_range_meters":8000,"station_id":"ce4bgup2rcd13ifvqco0","pricing_plan_id":"cebpf4jnsgd1na2vs0mg"},{"bike_id":"5ab5382a-98ac-41e4-9a1d-07dbabc33530","system_id":"levelo_inurba_marseille","lat":43.31078,"lon":5.38351,"is_reserved":false,"is_disabled":false,"rental_uris":{"android":"levelo://app?vid=5ab5382a-98ac-41e4-9a1d-07dbabc33530","ios":"levelo://app?vid=5ab5382a-98ac-41e4-9a1d-07dbabc33530"},"vehicle_type_id":"4","last_reported":1751134420,"current_range_meters":8000,"station_id":"ce4bgv92rcd13ifvqcr0","pricing_plan_id":"cebpf4jnsgd1na2vs0mg"},{"bike_id":"3232c557-b7c1-4c9b-a87e-824145e4e9cb","system_id":"levelo_inurba_marseille","lat":43.290222,"lon":5.399661,"is_reserved":false,"is_disabled":false,"rental_uris":{"android":"levelo://app?vid=3232c557-b7c1-4c9b-a87e-824145e4e9cb","ios":"levelo://app?vid=3232c557-b7c1-4c9b-a87e-824145e4e9cb"},"vehicle_type_id":"4","last_reported":1751134420,"current_range_meters":8000,"station_id":"ce4bh392rcd13ifvqdm0","pricing_plan_id":"cebpf4jnsgd1na2vs0mg"},{"bike_id":"6ec0bfb1-99b6-4b41-a830-cf4c5a46458d","system_id":"levelo_inurba_marseille","lat":43.29716,"lon":5.36597,"is_reserved":false,"is_disabled":false,"rental_uris":{"android":"levelo://app?vid=6ec0bfb1-99b6-4b41-a830-cf4c5a46458d","ios":"levelo://app?vid=6ec0bfb1-99b6-4b41-a830-cf4c5a46458d"},"vehicle_type_id":"4","last_reported":1751134420,"current_range_meters":8400,"station_id":"ce4bgn12rcd13ifvqbt0","pricing_plan_id":"cebpf4jnsgd1na2vs0mg"},{"bike_id":"27af4a07-b378-4076-805b-3f43a7bdf98e","system_id":"levelo_inurba_marseille","lat":43.27333,"lon":5.3912,"is_reserved":false,"is_disabled":false,"rental_uris":{"android":"levelo://app?vid=27af4a07-b378-4076-805b-3f43a7bdf98e","ios":"levelo://app?vid=27af4a07-b378-4076-805b-3f43a7bdf98e"},"vehicle_type_id":"4","last_reported":1751134420,"current_range_meters":8400,"station_id":"ce4bhgp2rcd13ifvqfe0","pricing_plan_id":"cebpf4jnsgd1na2vs0mg"},{"bike_id":"e75954cb-0ccf-415b-8bfa-c0a739f094d2","system_id":"levelo_inurba_marseille","lat":43.25085,"lon":5.39529,"is_reserved":false,"is_disabled":false,"rental_uris":{"android":"levelo://app?vid=e75954cb-0ccf-415b-8bfa-c0a739f094d2","ios":"levelo://app?vid=e75954cb-0ccf-415b-8bfa-c0a739f094d2"},"vehicle_type_id":"4","last_reported":1751134420,"current_range_meters":8400,"station_id":"ce4bhm12rcd13ifvqgkg","pricing_plan_id":"cebpf4jnsgd1na2vs0mg"},{"bike_id":"22ce862b-ab25-4106-9135-f733f855867c","system_id":"levelo_inurba_marseille","lat":43.31754,"lon":5.3902,"is_reserved":false,"is_disabled":false,"rental_uris":{"android":"levelo://app?vid=22ce862b-ab25-4106-9135-f733f855867c","ios":"levelo://app?vid=22ce862b-ab25-4106-9135-f733f855867c"},"vehicle_type_id":"4","last_reported":1751134420,"current_range_meters":8400,"station_id":"ce4bhqp2rcd13ifvqhng","pricing_plan_id":"cebpf4jnsgd1na2vs0mg"},{"bike_id":"6e4a1825-5131-46ab-9402-87c07b18cd5c","system_id":"levelo_inurba_marseille","lat":43.30544,"lon":5.38428,"is_reserved":false,"is_disabled":false,"rental_uris":{"android":"levelo://app?vid=6e4a1825-5131-46ab-9402-87c07b18cd5c","ios":"levelo://app?vid=6e4a1825-5131-46ab-9402-87c07b18cd5c"},"vehicle_type_id":"4","last_reported":1751134420,"current_range_meters":8800,"station_id":"ce4bgg92rcd13ifvqb30","pricing_plan_id":"cebpf4jnsgd1na2vs0mg"},{"bike_id":"a6b8dee1-fa21-496b-918d-908eb6a95ebe","system_id":"levelo_inurba_marseille","lat":43.32648,"lon":5.40982,"is_reserved":false,"is_disabled":false,"rental_uris":{"android":"levelo://app?vid=a6b8dee1-fa21-496b-918d-908eb6a95ebe","ios":"levelo://app?vid=a6b8dee1-fa21-496b-918d-908eb6a95ebe"},"vehicle_type_id":"4","last_reported":1751134420,"current_range_meters":8800,"station_id":"ce4bhpp2rcd13ifvqhgg","pricing_plan_id":"cebpf4jnsgd1na2vs0mg"},{"bike_id":"d5e70777-ad97-4594-91b6-43ede9611b14","system_id":"levelo_inurba_marseille","lat":43.32165,"lon":5.36757,"is_reserved":false,"is_disabled":false,"rental_uris":{"android":"levelo://app?vid=d5e70777-ad97-4594-91b6-43ede9611b14","ios":"levelo://app?vid=d5e70777-ad97-4594-91b6-43ede9611b14"},"vehicle_type_id":"4","last_reported":1751134420,"current_range_meters":9200,"station_id":"","pricing_plan_id":"cebpf4jnsgd1na2vs0mg"},{"bike_id":"bc38342b-90b3-4325-bdf8-95b70f9e4436","system_id":"levelo_inurba_marseille","lat":43.28407,"lon":5.3498,"is_reserved":false,"is_disabled":false,"rental_uris":{"android":"levelo://app?vid=bc38342b-90b3-4325-bdf8-95b70f9e4436","ios":"levelo://app?vid=bc38342b-90b3-4325-bdf8-95b70f9e4436"},"vehicle_type_id":"4","last_reported":1751134420,"current_range_meters":9200,"station_id":"ce4bhbh2rcd13ifvqepg","pricing_plan_id":"cebpf4jnsgd1na2vs0mg"},{"bike_id":"9a7f92a1-b8a4-4652-9828-9e87c30b1479","system_id":"levelo_inurba_marseille","lat":43.2722,"lon":5.39181,"is_reserved":false,"is_disabled":false,"rental_uris":{"android":"levelo://app?vid=9a7f92a1-b8a4-4652-9828-9e87c30b1479","ios":"levelo://app?vid=9a7f92a1-b8a4-4652-9828-9e87c30b1479"},"vehicle_type_id":"4","last_reported":1751134420,"current_range_meters":9200,"station_id":"ce4bhhp2rcd13ifvqfm0","pricing_plan_id":"cebpf4jnsgd1na2vs0mg"},{"bike_id":"4ff42df1-9dbe-444f-b0b5-3bf40a08bcdf","system_id":"levelo_inurba_marseille","lat":43.2693,"lon":5.40257,"is_reserved":false,"is_disabled":false,"rental_uris":{"android":"levelo://app?vid=4ff42df1-9dbe-444f-b0b5-3bf40a08bcdf","ios":"levelo://app?vid=4ff42df1-9dbe-444f-b0b5-3bf40a08bcdf"},"vehicle_type_id":"4","last_reported":1751134420,"current_range_meters":9200,"station_id":"cjm6bp8fraef2m0cb0m0","pricing_plan_id":"cebpf4jnsgd1na2vs0mg"},{"bike_id":"0ea9a5fa-dfe3-4435-8521-628911f3c041","system_id":"levelo_inurba_marseille","lat":43.232051,"lon":5.355578,"is_reserved":false,"is_disabled":false,"rental_uris":{"android":"levelo://app?vid=0ea9a5fa-dfe3-4435-8521-628911f3c041","ios":"levelo://app?vid=0ea9a5fa-dfe3-4435-8521-628911f3c041"},"vehicle_type_id":"4","last_reported":1751134420,"current_range_meters":9600,"station_id":"","pricing_plan_id":"cebpf4jnsgd1na2vs0mg"},{"bike_id":"c41dc82a-16a9-41cd-84fd-485f8d1260ab","system_id":"levelo_inurba_marseille","lat":43.2985,"lon":5.36286,"is_reserved":false,"is_disabled":false,"rental_uris":{"android":"levelo://app?vid=c41dc82a-16a9-41cd-84fd-485f8d1260ab","ios":"levelo://app?vid=c41dc82a-16a9-41cd-84fd-485f8d1260ab"},"vehicle_type_id":"4","last_reported":1751134420,"current_range_meters":9600,"station_id":"ce4bgpp2rcd13ifvqc3g","pricing_plan_id":"cebpf4jnsgd1na2vs0mg"},{"bike_id":"212e5070-c5e0-4f16-9fb4-f9c00e4d29ec","system_id":"levelo_inurba_marseille","lat":43.30889,"lon":5.3966,"is_reserved":false,"is_disabled":false,"rental_uris":{"android":"levelo://app?vid=212e5070-c5e0-4f16-9fb4-f9c00e4d29ec","ios":"levelo://app?vid=212e5070-c5e0-4f16-9fb4-f9c00e4d29ec"},"vehicle_type_id":"4","last_reported":1751134420,"current_range_meters":9600,"station_id":"ce4bh012rcd13ifvqcv0","pricing_plan_id":"cebpf4jnsgd1na2vs0mg"},{"bike_id":"b4121008-3b28-491e-8c98-c9326f7003f6","system_id":"levelo_inurba_marseille","lat":43.28419,"lon":5.34994,"is_reserved":false,"is_disabled":false,"rental_uris":{"android":"levelo://app?vid=b4121008-3b28-491e-8c98-c9326f7003f6","ios":"levelo://app?vid=b4121008-3b28-491e-8c98-c9326f7003f6"},"vehicle_type_id":"4","last_reported":1751134420,"current_range_meters":9600,"station_id":"ce4bhbh2rcd13ifvqepg","pricing_plan_id":"cebpf4jnsgd1na2vs0mg"},{"bike_id":"5b490b7b-acb3-480f-8da9-dc9ae11ef6c8","system_id":"levelo_inurba_marseille","lat":43.26209,"lon":5.37442,"is_reserved":false,"is_disabled":false,"rental_uris":{"android":"levelo://app?vid=5b490b7b-acb3-480f-8da9-dc9ae11ef6c8","ios":"levelo://app?vid=5b490b7b-acb3-480f-8da9-dc9ae11ef6c8"},"vehicle_type_id":"4","last_reported":1751134420,"current_range_meters":9600,"station_id":"ce4bhgp2rcd13ifvqfc0","pricing_plan_id":"cebpf4jnsgd1na2vs0mg"},{"bike_id":"e6ce70f7-9138-485c-a4db-2c9174614cff","system_id":"levelo_inurba_marseille","lat":43.31773,"lon":5.36867,"is_reserved":false,"is_disabled":false,"rental_uris":{"android":"levelo://app?vid=e6ce70f7-9138-485c-a4db-2c9174614cff","ios":"levelo://app?vid=e6ce70f7-9138-485c-a4db-2c9174614cff"},"vehicle_type_id":"4","last_reported":1751134420,"current_range_meters":10000,"station_id":"","pricing_plan_id":"cebpf4jnsgd1na2vs0mg"},{"bike_id":"6969a7de-babb-4aaf-8afc-08b78e157bc9","system_id":"levelo_inurba_marseille","lat":43.28413,"lon":5.34983,"is_reserved":false,"is_disabled":false,"rental_uris":{"android":"levelo://app?vid=6969a7de-babb-4aaf-8afc-08b78e157bc9","ios":"levelo://app?vid=6969a7de-babb-4aaf-8afc-08b78e157bc9"},"vehicle_type_id":"4","last_reported":1751134420,"current_range_meters":10000,"station_id":"ce4bhbh2rcd13ifvqepg","pricing_plan_id":"cebpf4jnsgd1na2vs0mg"},{"bike_id":"d1fa098d-89dd-4a33-b386-fddaee078a0f","system_id":"levelo_inurba_marseille","lat":43.279486,"lon":5.387177,"is_reserved":false,"is_disabled":false,"rental_uris":{"android":"levelo://app?vid=d1fa098d-89dd-4a33-b386-fddaee078a0f","ios":"levelo://app?vid=d1fa098d-89dd-4a33-b386-fddaee078a0f"},"vehicle_type_id":"4","last_reported":1751134420,"current_range_meters":10000,"station_id":"ce4bhg12rcd13ifvqf80","pricing_plan_id":"cebpf4jnsgd1na2vs0mg"},{"bike_id":"579ee661-ccf3-4fea-b854-553310655910","system_id":"levelo_inurba_marseille","lat":43.27304,"lon":5.39083,"is_reserved":false,"is_disabled":false,"rental_uris":{"android":"levelo://app?vid=579ee661-ccf3-4fea-b854-553310655910","ios":"levelo://app?vid=579ee661-ccf3-4fea-b854-553310655910"},"vehicle_type_id":"4","last_reported":1751134420,"current_range_meters":10000,"station_id":"ce4bhgp2rcd13ifvqfe0","pricing_plan_id":"cebpf4jnsgd1na2vs0mg"},{"bike_id":"13726ea4-91b3-4b24-87ce-db653217d50c","system_id":"levelo_inurba_marseille","lat":43.321244,"lon":5.367659,"is_reserved":false,"is_disabled":false,"rental_uris":{"android":"levelo://app?vid=13726ea4-91b3-4b24-87ce-db653217d50c","ios":"levelo://app?vid=13726ea4-91b3-4b24-87ce-db653217d50c"},"vehicle_type_id":"4","last_reported":1751134420,"current_range_meters":10000,"station_id":"ce4bhrh2rcd13ifvqhug","pricing_plan_id":"cebpf4jnsgd1na2vs0mg"},{"bike_id":"bbc4a376-bee7-4ad5-a49a-1022d27c1489","system_id":"levelo_inurba_marseille","lat":43.320805,"lon":5.367649,"is_reserved":false,"is_disabled":false,"rental_uris":{"android":"levelo://app?vid=bbc4a376-bee7-4ad5-a49a-1022d27c1489","ios":"levelo://app?vid=bbc4a376-bee7-4ad5-a49a-1022d27c1489"},"vehicle_type_id":"4","last_reported":1751134420,"current_range_meters":10000,"station_id":"ce4bhrh2rcd13ifvqhug","pricing_plan_id":"cebpf4jnsgd1na2vs0mg"},{"bike_id":"b266b36d-c328-4691-8298-fd36d6e08d51","system_id":"levelo_inurba_marseille","lat":43.22956,"lon":5.35385,"is_reserved":false,"is_disabled":false,"rental_uris":{"android":"levelo://app?vid=b266b36d-c328-4691-8298-fd36d6e08d51","ios":"levelo://app?vid=b266b36d-c328-4691-8298-fd36d6e08d51"},"vehicle_type_id":"4","last_reported":1751134420,"current_range_meters":10000,"station_id":"cpo3532slgdg3j2ikp40","pricing_plan_id":"cebpf4jnsgd1na2vs0mg"},{"bike_id":"552cbbd3-6db8-4cec-854f-0d32cd13be85","system_id":"levelo_inurba_marseille","lat":43.27334,"lon":5.39102,"is_reserved":false,"is_disabled":false,"rental_uris":{"android":"levelo://app?vid=552cbbd3-6db8-4cec-854f-0d32cd13be85","ios":"levelo://app?vid=552cbbd3-6db8-4cec-854f-0d32cd13be85"},"vehicle_type_id":"4","last_reported":1751134420,"current_range_meters":10800,"station_id":"ce4bhgp2rcd13ifvqfe0","pricing_plan_id":"cebpf4jnsgd1na2vs0mg"},{"bike_id":"44b677c8-76ed-4eac-8888-58151f9d5d6e","system_id":"levelo_inurba_marseille","lat":43.319645,"lon":5.367556,"is_reserved":false,"is_disabled":false,"rental_uris":{"android":"levelo://app?vid=44b677c8-76ed-4eac-8888-58151f9d5d6e","ios":"levelo://app?vid=44b677c8-76ed-4eac-8888-58151f9d5d6e"},"vehicle_type_id":"4","last_reported":1751134420,"current_range_meters":11200,"station_id":"","pricing_plan_id":"cebpf4jnsgd1na2vs0mg"},{"bike_id":"303e09fe-088b-44ab-9946-308396e29add","system_id":"levelo_inurba_marseille","lat":43.267954,"lon":5.394372,"is_reserved":false,"is_disabled":false,"rental_uris":{"android":"levelo://app?vid=303e09fe-088b-44ab-9946-308396e29add","ios":"levelo://app?vid=303e09fe-088b-44ab-9946-308396e29add"},"vehicle_type_id":"4","last_reported":1751134420,"current_range_meters":11200,"station_id":"ce4bhh12rcd13ifvqfg0","pricing_plan_id":"cebpf4jnsgd1na2vs0mg"},{"bike_id":"e2933e06-93fe-46e3-8210-dc7f1606c8c8","system_id":"levelo_inurba_marseille","lat":43.27061,"lon":5.40254,"is_reserved":false,"is_disabled":false,"rental_uris":{"android":"levelo://app?vid=e2933e06-93fe-46e3-8210-dc7f1606c8c8","ios":"levelo://app?vid=e2933e06-93fe-46e3-8210-dc7f1606c8c8"},"vehicle_type_id":"4","last_reported":1751134420,"current_range_meters":11200,"station_id":"ce4bhk92rcd13ifvqgc0","pricing_plan_id":"cebpf4jnsgd1na2vs0mg"},{"bike_id":"3887a2ed-f969-4ddb-bded-d7b5131f7252","system_id":"levelo_inurba_marseille","lat":43.2836,"lon":5.38098,"is_reserved":false,"is_disabled":false,"rental_uris":{"android":"levelo://app?vid=3887a2ed-f969-4ddb-bded-d7b5131f7252","ios":"levelo://app?vid=3887a2ed-f969-4ddb-bded-d7b5131f7252"},"vehicle_type_id":"4","last_reported":1751134420,"current_range_meters":11600,"station_id":"ce4bh412rcd13ifvqdr0","pricing_plan_id":"cebpf4jnsgd1na2vs0mg"},{"bike_id":"ddc32f42-6c6b-4efd-b624-808533ea3c9e","system_id":"levelo_inurba_marseille","lat":43.26217,"lon":5.3744,"is_reserved":false,"is_disabled":false,"rental_uris":{"android":"levelo://app?vid=ddc32f42-6c6b-4efd-b624-808533ea3c9e","ios":"levelo://app?vid=ddc32f42-6c6b-4efd-b624-808533ea3c9e"},"vehicle_type_id":"4","last_reported":1751134420,"current_range_meters":11600,"station_id":"ce4bhgp2rcd13ifvqfc0","pricing_plan_id":"cebpf4jnsgd1na2vs0mg"},{"bike_id":"2e4b3190-9cc9-47cf-87ca-5dc482ba5b0d","system_id":"levelo_inurba_marseille","lat":43.23159,"lon":5.43702,"is_reserved":false,"is_disabled":false,"rental_uris":{"android":"levelo://app?vid=2e4b3190-9cc9-47cf-87ca-5dc482ba5b0d","ios":"levelo://app?vid=2e4b3190-9cc9-47cf-87ca-5dc482ba5b0d"},"vehicle_type_id":"4","last_reported":1751134420,"current_range_meters":11600,"station_id":"ce4bhmp2rcd13ifvqgog","pricing_plan_id":"cebpf4jnsgd1na2vs0mg"},{"bike_id":"d999c5ee-6932-4480-afba-7b83a2e730e5","system_id":"levelo_inurba_marseille","lat":43.30925,"lon":5.40137,"is_reserved":false,"is_disabled":false,"rental_uris":{"android":"levelo://app?vid=d999c5ee-6932-4480-afba-7b83a2e730e5","ios":"levelo://app?vid=d999c5ee-6932-4480-afba-7b83a2e730e5"},"vehicle_type_id":"4","last_reported":1751134420,"current_range_meters":12000,"station_id":"ce4bgvp2rcd13ifvqct0","pricing_plan_id":"cebpf4jnsgd1na2vs0mg"},{"bike_id":"e603df85-ebf0-4991-a7cb-f6b14afc4359","system_id":"levelo_inurba_marseille","lat":43.2737,"lon":5.3626,"is_reserved":false,"is_disabled":false,"rental_uris":{"android":"levelo://app?vid=e603df85-ebf0-4991-a7cb-f6b14afc4359","ios":"levelo://app?vid=e603df85-ebf0-4991-a7cb-f6b14afc4359"},"vehicle_type_id":"4","last_reported":1751134420,"current_range_meters":12000,"station_id":"ce4bhbh2rcd13ifvqeo0","pricing_plan_id":"cebpf4jnsgd1na2vs0mg"},{"bike_id":"873ce198-d36d-4815-8778-b72bd2ca0116","system_id":"levelo_inurba_marseille","lat":43.32129,"lon":5.36758,"is_reserved":false,"is_disabled":false,"rental_uris":{"android":"levelo://app?vid=873ce198-d36d-4815-8778-b72bd2ca0116","ios":"levelo://app?vid=873ce198-d36d-4815-8778-b72bd2ca0116"},"vehicle_type_id":"4","last_reported":1751134420,"current_range_meters":12000,"station_id":"ce4bhrh2rcd13ifvqhug","pricing_plan_id":"cebpf4jnsgd1na2vs0mg"},{"bike_id":"962af267-d53f-46b3-80f5-26c7fbd343ce","system_id":"levelo_inurba_marseille","lat":43.22506,"lon":5.34781,"is_reserved":false,"is_disabled":false,"rental_uris":{"android":"levelo://app?vid=962af267-d53f-46b3-80f5-26c7fbd343ce","ios":"levelo://app?vid=962af267-d53f-46b3-80f5-26c7fbd343ce"},"vehicle_type_id":"4","last_reported":1751134420,"current_range_meters":12000,"station_id":"st_cvj5dfep6f1abm77gieg","pricing_plan_id":"cebpf4jnsgd1na2vs0mg"},{"bike_id":"13fabc0f-5bfd-4dc8-9136-84b1659cd66b","system_id":"levelo_inurba_marseille","lat":43.21191,"lon":5.35069,"is_reserved":false,"is_disabled":false,"rental_uris":{"android":"levelo://app?vid=13fabc0f-5bfd-4dc8-9136-84b1659cd66b","ios":"levelo://app?vid=13fabc0f-5bfd-4dc8-9136-84b1659cd66b"},"vehicle_type_id":"4","last_reported":1751134420,"current_range_meters":12000,"station_id":"st_cvj6sg6p6f1abm77japg","pricing_plan_id":"cebpf4jnsgd1na2vs0mg"},{"bike_id":"12c7fc9f-7c7b-4185-9b2f-badd0c17e36b","system_id":"levelo_inurba_marseille","lat":43.24743,"lon":5.37444,"is_reserved":false,"is_disabled":false,"rental_uris":{"android":"levelo://app?vid=12c7fc9f-7c7b-4185-9b2f-badd0c17e36b","ios":"levelo://app?vid=12c7fc9f-7c7b-4185-9b2f-badd0c17e36b"},"vehicle_type_id":"4","last_reported":1751134420,"current_range_meters":12400,"station_id":"","pricing_plan_id":"cebpf4jnsgd1na2vs0mg"},{"bike_id":"721165c1-ef6f-40cc-8d33-af3a7999864b","system_id":"levelo_inurba_marseille","lat":43.32586,"lon":5.37865,"is_reserved":false,"is_disabled":false,"rental_uris":{"android":"levelo://app?vid=721165c1-ef6f-40cc-8d33-af3a7999864b","ios":"levelo://app?vid=721165c1-ef6f-40cc-8d33-af3a7999864b"},"vehicle_type_id":"4","last_reported":1751134420,"current_range_meters":12400,"station_id":"","pricing_plan_id":"cebpf4jnsgd1na2vs0mg"},{"bike_id":"252f49c9-399d-43ef-a295-5584c54147b9","system_id":"levelo_inurba_marseille","lat":43.26795,"lon":5.39414,"is_reserved":false,"is_disabled":false,"rental_uris":{"android":"levelo://app?vid=252f49c9-399d-43ef-a295-5584c54147b9","ios":"levelo://app?vid=252f49c9-399d-43ef-a295-5584c54147b9"},"vehicle_type_id":"4","last_reported":1751134420,"current_range_meters":12400,"station_id":"ce4bhh12rcd13ifvqfg0","pricing_plan_id":"cebpf4jnsgd1na2vs0mg"},{"bike_id":"4847d5fa-cf1f-49ac-b56d-fa6dbc3851f5","system_id":"levelo_inurba_marseille","lat":43.217495,"lon":5.345983,"is_reserved":false,"is_disabled":false,"rental_uris":{"android":"levelo://app?vid=4847d5fa-cf1f-49ac-b56d-fa6dbc3851f5","ios":"levelo://app?vid=4847d5fa-cf1f-49ac-b56d-fa6dbc3851f5"},"vehicle_type_id":"4","last_reported":1751134420,"current_range_meters":12400,"station_id":"st_cvj6r9ubvosntc0bgbag","pricing_plan_id":"cebpf4jnsgd1na2vs0mg"},{"bike_id":"14e8ef37-e834-4d76-9946-e98f7a083a2f","system_id":"levelo_inurba_marseille","lat":43.211956,"lon":5.35068,"is_reserved":false,"is_disabled":false,"rental_uris":{"android":"levelo://app?vid=14e8ef37-e834-4d76-9946-e98f7a083a2f","ios":"levelo://app?vid=14e8ef37-e834-4d76-9946-e98f7a083a2f"},"vehicle_type_id":"4","last_reported":1751134420,"current_range_meters":12400,"station_id":"st_cvj6sg6p6f1abm77japg","pricing_plan_id":"cebpf4jnsgd1na2vs0mg"},{"bike_id":"cb3e2143-c3f5-4240-b015-69f3f2bd439a","system_id":"levelo_inurba_marseille","lat":43.30956,"lon":5.39033,"is_reserved":false,"is_disabled":false,"rental_uris":{"android":"levelo://app?vid=cb3e2143-c3f5-4240-b015-69f3f2bd439a","ios":"levelo://app?vid=cb3e2143-c3f5-4240-b015-69f3f2bd439a"},"vehicle_type_id":"4","last_reported":1751134420,"current_range_meters":12800,"station_id":"ce4bgup2rcd13ifvqco0","pricing_plan_id":"cebpf4jnsgd1na2vs0mg"},{"bike_id":"af1ccf2d-e0f6-4739-904b-9eb7260d4e1b","system_id":"levelo_inurba_marseille","lat":43.27355,"lon":5.36279,"is_reserved":false,"is_disabled":false,"rental_uris":{"android":"levelo://app?vid=af1ccf2d-e0f6-4739-904b-9eb7260d4e1b","ios":"levelo://app?vid=af1ccf2d-e0f6-4739-904b-9eb7260d4e1b"},"vehicle_type_id":"4","last_reported":1751134420,"current_range_meters":12800,"station_id":"ce4bhbh2rcd13ifvqeo0","pricing_plan_id":"cebpf4jnsgd1na2vs0mg"},{"bike_id":"465d715d-c466-435a-83c2-03d320454a0a","system_id":"levelo_inurba_marseille","lat":43.284194,"lon":5.349959,"is_reserved":false,"is_disabled":false,"rental_uris":{"android":"levelo://app?vid=465d715d-c466-435a-83c2-03d320454a0a","ios":"levelo://app?vid=465d715d-c466-435a-83c2-03d320454a0a"},"vehicle_type_id":"4","last_reported":1751134420,"current_range_meters":12800,"station_id":"ce4bhbh2rcd13ifvqepg","pricing_plan_id":"cebpf4jnsgd1na2vs0mg"},{"bike_id":"d5233871-8612-4cf3-9596-8c6f70406e1b","system_id":"levelo_inurba_marseille","lat":43.28263,"lon":5.35057,"is_reserved":false,"is_disabled":false,"rental_uris":{"android":"levelo://app?vid=d5233871-8612-4cf3-9596-8c6f70406e1b","ios":"levelo://app?vid=d5233871-8612-4cf3-9596-8c6f70406e1b"},"vehicle_type_id":"4","last_reported":1751134420,"current_range_meters":12800,"station_id":"ce4bhbp2rcd13ifvqerg","pricing_plan_id":"cebpf4jnsgd1na2vs0mg"},{"bike_id":"a7883090-0e10-4075-944b-a3cca54bc544","system_id":"levelo_inurba_marseille","lat":43.225066,"lon":5.347826,"is_reserved":false,"is_disabled":false,"rental_uris":{"android":"levelo://app?vid=a7883090-0e10-4075-944b-a3cca54bc544","ios":"levelo://app?vid=a7883090-0e10-4075-944b-a3cca54bc544"},"vehicle_type_id":"4","last_reported":1751134420,"current_range_meters":12800,"station_id":"st_cvj5dfep6f1abm77gieg","pricing_plan_id":"cebpf4jnsgd1na2vs0mg"},{"bike_id":"a4f15657-4a56-428a-901a-878a79807e9a","system_id":"levelo_inurba_marseille","lat":43.29576,"lon":5.374994,"is_reserved":false,"is_disabled":false,"rental_uris":{"android":"levelo://app?vid=a4f15657-4a56-428a-901a-878a79807e9a","ios":"levelo://app?vid=a4f15657-4a56-428a-901a-878a79807e9a"},"vehicle_type_id":"4","last_reported":1751134420,"current_range_meters":13600,"station_id":"ce4bhbh2rcd13ifvqeo0","pricing_plan_id":"cebpf4jnsgd1na2vs0mg"},{"bike_id":"c7067ed1-f9ee-40ab-a529-1c223a6eea73","system_id":"levelo_inurba_marseille","lat":43.2843,"lon":5.34969,"is_reserved":false,"is_disabled":false,"rental_uris":{"android":"levelo://app?vid=c7067ed1-f9ee-40ab-a529-1c223a6eea73","ios":"levelo://app?vid=c7067ed1-f9ee-40ab-a529-1c223a6eea73"},"vehicle_type_id":"4","last_reported":1751134420,"current_range_meters":13600,"station_id":"ce4bhbh2rcd13ifvqepg","pricing_plan_id":"cebpf4jnsgd1na2vs0mg"},{"bike_id":"aa5557ec-ab53-419c-b67e-c2ce31ca5ef3","system_id":"levelo_inurba_marseille","lat":43.27349,"lon":5.39122,"is_reserved":false,"is_disabled":false,"rental_uris":{"android":"levelo://app?vid=aa5557ec-ab53-419c-b67e-c2ce31ca5ef3","ios":"levelo://app?vid=aa5557ec-ab53-419c-b67e-c2ce31ca5ef3"},"vehicle_type_id":"4","last_reported":1751134420,"current_range_meters":13600,"station_id":"ce4bhgp2rcd13ifvqfe0","pricing_plan_id":"cebpf4jnsgd1na2vs0mg"},{"bike_id":"dfa9a7f8-e7a6-4d18-84cc-abca9f18179c","system_id":"levelo_inurba_marseille","lat":43.26064,"lon":5.39399,"is_reserved":false,"is_disabled":false,"rental_uris":{"android":"levelo://app?vid=dfa9a7f8-e7a6-4d18-84cc-abca9f18179c","ios":"levelo://app?vid=dfa9a7f8-e7a6-4d18-84cc-abca9f18179c"},"vehicle_type_id":"4","last_reported":1751134420,"current_range_meters":13600,"station_id":"ce4bhh92rcd13ifvqfj0","pricing_plan_id":"cebpf4jnsgd1na2vs0mg"},{"bike_id":"e283eccf-a5d6-47f6-8859-92f12eb0ae24","system_id":"levelo_inurba_marseille","lat":43.27223,"lon":5.39178,"is_reserved":false,"is_disabled":false,"rental_uris":{"android":"levelo://app?vid=e283eccf-a5d6-47f6-8859-92f12eb0ae24","ios":"levelo://app?vid=e283eccf-a5d6-47f6-8859-92f12eb0ae24"},"vehicle_type_id":"4","last_reported":1751134420,"current_range_meters":13600,"station_id":"ce4bhhp2rcd13ifvqfm0","pricing_plan_id":"cebpf4jnsgd1na2vs0mg"},{"bike_id":"762acdc5-9b99-47a0-bda1-ee8060271245","system_id":"levelo_inurba_marseille","lat":43.21236,"lon":5.35046,"is_reserved":false,"is_disabled":false,"rental_uris":{"android":"levelo://app?vid=762acdc5-9b99-47a0-bda1-ee8060271245","ios":"levelo://app?vid=762acdc5-9b99-47a0-bda1-ee8060271245"},"vehicle_type_id":"4","last_reported":1751134420,"current_range_meters":13600,"station_id":"st_cvj6sg6p6f1abm77japg","pricing_plan_id":"cebpf4jnsgd1na2vs0mg"},{"bike_id":"d9431e07-298a-4603-928e-ec23bb80a7f9","system_id":"levelo_inurba_marseille","lat":43.31179,"lon":5.38721,"is_reserved":false,"is_disabled":false,"rental_uris":{"android":"levelo://app?vid=d9431e07-298a-4603-928e-ec23bb80a7f9","ios":"levelo://app?vid=d9431e07-298a-4603-928e-ec23bb80a7f9"},"vehicle_type_id":"4","last_reported":1751134420,"current_range_meters":14000,"station_id":"ce4bgv12rcd13ifvqcp0","pricing_plan_id":"cebpf4jnsgd1na2vs0mg"},{"bike_id":"41dd3708-ad28-47fb-9b32-3d8899c38491","system_id":"levelo_inurba_marseille","lat":43.29035,"lon":5.39964,"is_reserved":false,"is_disabled":false,"rental_uris":{"android":"levelo://app?vid=41dd3708-ad28-47fb-9b32-3d8899c38491","ios":"levelo://app?vid=41dd3708-ad28-47fb-9b32-3d8899c38491"},"vehicle_type_id":"4","last_reported":1751134420,"current_range_meters":14000,"station_id":"ce4bh392rcd13ifvqdm0","pricing_plan_id":"cebpf4jnsgd1na2vs0mg"},{"bike_id":"802b2630-8376-4119-a81f-42e77fef6b85","system_id":"levelo_inurba_marseille","lat":43.284283,"lon":5.349991,"is_reserved":false,"is_disabled":false,"rental_uris":{"android":"levelo://app?vid=802b2630-8376-4119-a81f-42e77fef6b85","ios":"levelo://app?vid=802b2630-8376-4119-a81f-42e77fef6b85"},"vehicle_type_id":"4","last_reported":1751134420,"current_range_meters":14000,"station_id":"ce4bhbh2rcd13ifvqepg","pricing_plan_id":"cebpf4jnsgd1na2vs0mg"},{"bike_id":"da7cc63a-3f9f-404a-a471-b3ddea5f5f08","system_id":"levelo_inurba_marseille","lat":43.26032,"lon":5.37558,"is_reserved":false,"is_disabled":false,"rental_uris":{"android":"levelo://app?vid=da7cc63a-3f9f-404a-a471-b3ddea5f5f08","ios":"levelo://app?vid=da7cc63a-3f9f-404a-a471-b3ddea5f5f08"},"vehicle_type_id":"4","last_reported":1751134420,"current_range_meters":14000,"station_id":"ce4bhgh2rcd13ifvqfa0","pricing_plan_id":"cebpf4jnsgd1na2vs0mg"},{"bike_id":"42274c6b-04c6-47ee-bf8a-4ba54b8c42cd","system_id":"levelo_inurba_marseille","lat":43.27288,"lon":5.39069,"is_reserved":false,"is_disabled":false,"rental_uris":{"android":"levelo://app?vid=42274c6b-04c6-47ee-bf8a-4ba54b8c42cd","ios":"levelo://app?vid=42274c6b-04c6-47ee-bf8a-4ba54b8c42cd"},"vehicle_type_id":"4","last_reported":1751134420,"current_range_meters":14000,"station_id":"ce4bhgp2rcd13ifvqfe0","pricing_plan_id":"cebpf4jnsgd1na2vs0mg"},{"bike_id":"5bf8f4af-803d-4214-8478-3249e363d996","system_id":"levelo_inurba_marseille","lat":43.27834,"lon":5.3921,"is_reserved":false,"is_disabled":false,"rental_uris":{"android":"levelo://app?vid=5bf8f4af-803d-4214-8478-3249e363d996","ios":"levelo://app?vid=5bf8f4af-803d-4214-8478-3249e363d996"},"vehicle_type_id":"4","last_reported":1751134420,"current_range_meters":14000,"station_id":"ce4bhjp2rcd13ifvqga0","pricing_plan_id":"cebpf4jnsgd1na2vs0mg"},{"bike_id":"6af79a00-84aa-4908-a347-34425e08c383","system_id":"levelo_inurba_marseille","lat":43.302646,"lon":5.375729,"is_reserved":false,"is_disabled":false,"rental_uris":{"android":"levelo://app?vid=6af79a00-84aa-4908-a347-34425e08c383","ios":"levelo://app?vid=6af79a00-84aa-4908-a347-34425e08c383"},"vehicle_type_id":"4","last_reported":1751134420,"current_range_meters":14400,"station_id":"","pricing_plan_id":"cebpf4jnsgd1na2vs0mg"},{"bike_id":"e104727d-59c5-4c8e-89f0-406c2bb84aba","system_id":"levelo_inurba_marseille","lat":43.28571,"lon":5.39496,"is_reserved":false,"is_disabled":false,"rental_uris":{"android":"levelo://app?vid=e104727d-59c5-4c8e-89f0-406c2bb84aba","ios":"levelo://app?vid=e104727d-59c5-4c8e-89f0-406c2bb84aba"},"vehicle_type_id":"4","last_reported":1751134420,"current_range_meters":14400,"station_id":"ce4bh292rcd13ifvqdg0","pricing_plan_id":"cebpf4jnsgd1na2vs0mg"},{"bike_id":"c4e23027-fb76-4e12-a17a-e866f2d0c4a5","system_id":"levelo_inurba_marseille","lat":43.2606,"lon":5.3752,"is_reserved":false,"is_disabled":false,"rental_uris":{"android":"levelo://app?vid=c4e23027-fb76-4e12-a17a-e866f2d0c4a5","ios":"levelo://app?vid=c4e23027-fb76-4e12-a17a-e866f2d0c4a5"},"vehicle_type_id":"4","last_reported":1751134420,"current_range_meters":14400,"station_id":"ce4bhgh2rcd13ifvqfa0","pricing_plan_id":"cebpf4jnsgd1na2vs0mg"},{"bike_id":"09a066ec-3954-4715-a077-293537a87edf","system_id":"levelo_inurba_marseille","lat":43.27679,"lon":5.38931,"is_reserved":false,"is_disabled":false,"rental_uris":{"android":"levelo://app?vid=09a066ec-3954-4715-a077-293537a87edf","ios":"levelo://app?vid=09a066ec-3954-4715-a077-293537a87edf"},"vehicle_type_id":"4","last_reported":1751134420,"current_range_meters":14400,"station_id":"ce4bhi12rcd13ifvqfo0","pricing_plan_id":"cebpf4jnsgd1na2vs0mg"},{"bike_id":"91b65e10-0e4e-418a-bcf7-105b8872a5de","system_id":"levelo_inurba_marseille","lat":43.23089,"lon":5.35467,"is_reserved":false,"is_disabled":false,"rental_uris":{"android":"levelo://app?vid=91b65e10-0e4e-418a-bcf7-105b8872a5de","ios":"levelo://app?vid=91b65e10-0e4e-418a-bcf7-105b8872a5de"},"vehicle_type_id":"4","last_reported":1751134420,"current_range_meters":14400,"station_id":"cpo3342slgdg3j2ifvpg","pricing_plan_id":"cebpf4jnsgd1na2vs0mg"},{"bike_id":"a12fe640-e5df-4342-b7d7-754a0bd8aa41","system_id":"levelo_inurba_marseille","lat":43.31071,"lon":5.38355,"is_reserved":false,"is_disabled":false,"rental_uris":{"android":"levelo://app?vid=a12fe640-e5df-4342-b7d7-754a0bd8aa41","ios":"levelo://app?vid=a12fe640-e5df-4342-b7d7-754a0bd8aa41"},"vehicle_type_id":"4","last_reported":1751134420,"current_range_meters":14800,"station_id":"","pricing_plan_id":"cebpf4jnsgd1na2vs0mg"},{"bike_id":"f8ca590d-fd1f-4743-94b3-a62ff8851840","system_id":"levelo_inurba_marseille","lat":43.29714,"lon":5.36607,"is_reserved":false,"is_disabled":false,"rental_uris":{"android":"levelo://app?vid=f8ca590d-fd1f-4743-94b3-a62ff8851840","ios":"levelo://app?vid=f8ca590d-fd1f-4743-94b3-a62ff8851840"},"vehicle_type_id":"4","last_reported":1751134420,"current_range_meters":14800,"station_id":"ce4bgn12rcd13ifvqbt0","pricing_plan_id":"cebpf4jnsgd1na2vs0mg"},{"bike_id":"0774cff9-81e3-4ec7-93e3-e7a05ef93424","system_id":"levelo_inurba_marseille","lat":43.28419,"lon":5.34985,"is_reserved":false,"is_disabled":false,"rental_uris":{"android":"levelo://app?vid=0774cff9-81e3-4ec7-93e3-e7a05ef93424","ios":"levelo://app?vid=0774cff9-81e3-4ec7-93e3-e7a05ef93424"},"vehicle_type_id":"4","last_reported":1751134420,"current_range_meters":14800,"station_id":"ce4bhbh2rcd13ifvqepg","pricing_plan_id":"cebpf4jnsgd1na2vs0mg"},{"bike_id":"c9727364-02b0-4b88-8668-56db49153198","system_id":"levelo_inurba_marseille","lat":43.26789,"lon":5.39412,"is_reserved":false,"is_disabled":false,"rental_uris":{"android":"levelo://app?vid=c9727364-02b0-4b88-8668-56db49153198","ios":"levelo://app?vid=c9727364-02b0-4b88-8668-56db49153198"},"vehicle_type_id":"4","last_reported":1751134420,"current_range_meters":14800,"station_id":"ce4bhh12rcd13ifvqfg0","pricing_plan_id":"cebpf4jnsgd1na2vs0mg"},{"bike_id":"064e1b75-6456-473b-9a83-8a42db06b827","system_id":"levelo_inurba_marseille","lat":43.26228,"lon":5.4045,"is_reserved":false,"is_disabled":false,"rental_uris":{"android":"levelo://app?vid=064e1b75-6456-473b-9a83-8a42db06b827","ios":"levelo://app?vid=064e1b75-6456-473b-9a83-8a42db06b827"},"vehicle_type_id":"4","last_reported":1751134420,"current_range_meters":14800,"station_id":"ce4bhmh2rcd13ifvqgmg","pricing_plan_id":"cebpf4jnsgd1na2vs0mg"},{"bike_id":"1dcd0b1b-450c-4a7b-84b3-24492acc1faf","system_id":"levelo_inurba_marseille","lat":43.31317,"lon":5.396991,"is_reserved":false,"is_disabled":false,"rental_uris":{"android":"levelo://app?vid=1dcd0b1b-450c-4a7b-84b3-24492acc1faf","ios":"levelo://app?vid=1dcd0b1b-450c-4a7b-84b3-24492acc1faf"},"vehicle_type_id":"4","last_reported":1751134420,"current_range_meters":15200,"station_id":"ce4bgvp2rcd13ifvqcu0","pricing_plan_id":"cebpf4jnsgd1na2vs0mg"},{"bike_id":"f810be2a-3c00-446f-9ba1-1f3840ce349d","system_id":"levelo_inurba_marseille","lat":43.321101,"lon":5.367679,"is_reserved":false,"is_disabled":false,"rental_uris":{"android":"levelo://app?vid=f810be2a-3c00-446f-9ba1-1f3840ce349d","ios":"levelo://app?vid=f810be2a-3c00-446f-9ba1-1f3840ce349d"},"vehicle_type_id":"4","last_reported":1751134420,"current_range_meters":15200,"station_id":"ce4bhrh2rcd13ifvqhug","pricing_plan_id":"cebpf4jnsgd1na2vs0mg"},{"bike_id":"c0a2de0a-20e3-4e62-848e-f0dbd6b2e588","system_id":"levelo_inurba_marseille","lat":43.225,"lon":5.34808,"is_reserved":false,"is_disabled":false,"rental_uris":{"android":"levelo://app?vid=c0a2de0a-20e3-4e62-848e-f0dbd6b2e588","ios":"levelo://app?vid=c0a2de0a-20e3-4e62-848e-f0dbd6b2e588"},"vehicle_type_id":"4","last_reported":1751134420,"current_range_meters":15200,"station_id":"st_cvj5dfep6f1abm77gieg","pricing_plan_id":"cebpf4jnsgd1na2vs0mg"},{"bike_id":"2a9a5366-8dad-42f1-bee6-ffb042c54776","system_id":"levelo_inurba_marseille","lat":43.212,"lon":5.35076,"is_reserved":false,"is_disabled":false,"rental_uris":{"android":"levelo://app?vid=2a9a5366-8dad-42f1-bee6-ffb042c54776","ios":"levelo://app?vid=2a9a5366-8dad-42f1-bee6-ffb042c54776"},"vehicle_type_id":"4","last_reported":1751134420,"current_range_meters":15200,"station_id":"st_cvj6sg6p6f1abm77japg","pricing_plan_id":"cebpf4jnsgd1na2vs0mg"},{"bike_id":"e5e9e78b-4730-43b1-8651-5c571c638bbb","system_id":"levelo_inurba_marseille","lat":43.21213,"lon":5.35049,"is_reserved":false,"is_disabled":false,"rental_uris":{"android":"levelo://app?vid=e5e9e78b-4730-43b1-8651-5c571c638bbb","ios":"levelo://app?vid=e5e9e78b-4730-43b1-8651-5c571c638bbb"},"vehicle_type_id":"4","last_reported":1751134420,"current_range_meters":15200,"station_id":"st_cvj6sg6p6f1abm77japg","pricing_plan_id":"cebpf4jnsgd1na2vs0mg"},{"bike_id":"4f7da216-f811-4c57-9e64-cdee7467bddd","system_id":"levelo_inurba_marseille","lat":43.22497,"lon":5.34776,"is_reserved":false,"is_disabled":false,"rental_uris":{"android":"levelo://app?vid=4f7da216-f811-4c57-9e64-cdee7467bddd","ios":"levelo://app?vid=4f7da216-f811-4c57-9e64-cdee7467bddd"},"vehicle_type_id":"4","last_reported":1751134420,"current_range_meters":16000,"station_id":"","pricing_plan_id":"cebpf4jnsgd1na2vs0mg"},{"bike_id":"735fb3ec-51d3-42a0-b0e0-35a6ef148211","system_id":"levelo_inurba_marseille","lat":43.31295,"lon":5.37301,"is_reserved":false,"is_disabled":false,"rental_uris":{"android":"levelo://app?vid=735fb3ec-51d3-42a0-b0e0-35a6ef148211","ios":"levelo://app?vid=735fb3ec-51d3-42a0-b0e0-35a6ef148211"},"vehicle_type_id":"4","last_reported":1751134420,"current_range_meters":16400,"station_id":"","pricing_plan_id":"cebpf4jnsgd1na2vs0mg"},{"bike_id":"d308c658-b19c-49c0-8014-5506ff26f69a","system_id":"levelo_inurba_marseille","lat":43.23075,"lon":5.40503,"is_reserved":false,"is_disabled":false,"rental_uris":{"android":"levelo://app?vid=d308c658-b19c-49c0-8014-5506ff26f69a","ios":"levelo://app?vid=d308c658-b19c-49c0-8014-5506ff26f69a"},"vehicle_type_id":"4","last_reported":1751134420,"current_range_meters":16400,"station_id":"","pricing_plan_id":"cebpf4jnsgd1na2vs0mg"},{"bike_id":"3379ea87-a774-4128-8522-cdcc4fa69d0e","system_id":"levelo_inurba_marseille","lat":43.30157,"lon":5.38101,"is_reserved":false,"is_disabled":false,"rental_uris":{"android":"levelo://app?vid=3379ea87-a774-4128-8522-cdcc4fa69d0e","ios":"levelo://app?vid=3379ea87-a774-4128-8522-cdcc4fa69d0e"},"vehicle_type_id":"4","last_reported":1751134420,"current_range_meters":16400,"station_id":"ce4bgjp2rcd13ifvqbh0","pricing_plan_id":"cebpf4jnsgd1na2vs0mg"},{"bike_id":"8bbb78d6-68c4-4dd2-a75a-b666b6a481bb","system_id":"levelo_inurba_marseille","lat":43.31704,"lon":5.37742,"is_reserved":false,"is_disabled":false,"rental_uris":{"android":"levelo://app?vid=8bbb78d6-68c4-4dd2-a75a-b666b6a481bb","ios":"levelo://app?vid=8bbb78d6-68c4-4dd2-a75a-b666b6a481bb"},"vehicle_type_id":"4","last_reported":1751134420,"current_range_meters":16400,"station_id":"ce4bgth2rcd13ifvqch0","pricing_plan_id":"cebpf4jnsgd1na2vs0mg"},{"bike_id":"910652eb-a9d3-4ea9-95a8-4aadc7afb032","system_id":"levelo_inurba_marseille","lat":43.2842,"lon":5.34986,"is_reserved":false,"is_disabled":false,"rental_uris":{"android":"levelo://app?vid=910652eb-a9d3-4ea9-95a8-4aadc7afb032","ios":"levelo://app?vid=910652eb-a9d3-4ea9-95a8-4aadc7afb032"},"vehicle_type_id":"4","last_reported":1751134420,"current_range_meters":16400,"station_id":"ce4bhbh2rcd13ifvqepg","pricing_plan_id":"cebpf4jnsgd1na2vs0mg"},{"bike_id":"f0b118dd-fe38-4b4b-8f8e-ce09a88720af","system_id":"levelo_inurba_marseille","lat":43.28283,"lon":5.35066,"is_reserved":false,"is_disabled":false,"rental_uris":{"android":"levelo://app?vid=f0b118dd-fe38-4b4b-8f8e-ce09a88720af","ios":"levelo://app?vid=f0b118dd-fe38-4b4b-8f8e-ce09a88720af"},"vehicle_type_id":"4","last_reported":1751134420,"current_range_meters":16400,"station_id":"ce4bhbp2rcd13ifvqerg","pricing_plan_id":"cebpf4jnsgd1na2vs0mg"},{"bike_id":"2efc0165-7fd0-488a-913d-6bbad03870a6","system_id":"levelo_inurba_marseille","lat":43.24662,"lon":5.38888,"is_reserved":false,"is_disabled":false,"rental_uris":{"android":"levelo://app?vid=2efc0165-7fd0-488a-913d-6bbad03870a6","ios":"levelo://app?vid=2efc0165-7fd0-488a-913d-6bbad03870a6"},"vehicle_type_id":"4","last_reported":1751134420,"current_range_meters":16400,"station_id":"ce4bhg12rcd13ifvqf60","pricing_plan_id":"cebpf4jnsgd1na2vs0mg"},{"bike_id":"fefa174c-3439-453c-bc29-f58fdce41de6","system_id":"levelo_inurba_marseille","lat":43.27308,"lon":5.39087,"is_reserved":false,"is_disabled":false,"rental_uris":{"android":"levelo://app?vid=fefa174c-3439-453c-bc29-f58fdce41de6","ios":"levelo://app?vid=fefa174c-3439-453c-bc29-f58fdce41de6"},"vehicle_type_id":"4","last_reported":1751134420,"current_range_meters":16400,"station_id":"ce4bhgp2rcd13ifvqfe0","pricing_plan_id":"cebpf4jnsgd1na2vs0mg"},{"bike_id":"bb7f91ae-2949-4cc5-821b-99f4d2b71992","system_id":"levelo_inurba_marseille","lat":43.27208,"lon":5.39171,"is_reserved":false,"is_disabled":false,"rental_uris":{"android":"levelo://app?vid=bb7f91ae-2949-4cc5-821b-99f4d2b71992","ios":"levelo://app?vid=bb7f91ae-2949-4cc5-821b-99f4d2b71992"},"vehicle_type_id":"4","last_reported":1751134420,"current_range_meters":16400,"station_id":"ce4bhhp2rcd13ifvqfm0","pricing_plan_id":"cebpf4jnsgd1na2vs0mg"},{"bike_id":"ade6e854-226c-4de1-a4ce-2e78b1cda625","system_id":"levelo_inurba_marseille","lat":43.241757,"lon":5.3973,"is_reserved":false,"is_disabled":false,"rental_uris":{"android":"levelo://app?vid=ade6e854-226c-4de1-a4ce-2e78b1cda625","ios":"levelo://app?vid=ade6e854-226c-4de1-a4ce-2e78b1cda625"},"vehicle_type_id":"4","last_reported":1751134420,"current_range_meters":16400,"station_id":"ce4bhn12rcd13ifvqgpg","pricing_plan_id":"cebpf4jnsgd1na2vs0mg"},{"bike_id":"aff4423e-c2af-4b70-b9bd-2bdc17fafffc","system_id":"levelo_inurba_marseille","lat":43.24166,"lon":5.36402,"is_reserved":false,"is_disabled":false,"rental_uris":{"android":"levelo://app?vid=aff4423e-c2af-4b70-b9bd-2bdc17fafffc","ios":"levelo://app?vid=aff4423e-c2af-4b70-b9bd-2bdc17fafffc"},"vehicle_type_id":"4","last_reported":1751134420,"current_range_meters":16400,"station_id":"cpo36qri1sfpv3e86is0","pricing_plan_id":"cebpf4jnsgd1na2vs0mg"},{"bike_id":"5d5e13a4-10cc-485c-a362-06d02242e666","system_id":"levelo_inurba_marseille","lat":43.2122,"lon":5.3506,"is_reserved":false,"is_disabled":false,"rental_uris":{"android":"levelo://app?vid=5d5e13a4-10cc-485c-a362-06d02242e666","ios":"levelo://app?vid=5d5e13a4-10cc-485c-a362-06d02242e666"},"vehicle_type_id":"4","last_reported":1751134420,"current_range_meters":16400,"station_id":"st_cvj6sg6p6f1abm77japg","pricing_plan_id":"cebpf4jnsgd1na2vs0mg"},{"bike_id":"b13877a6-4825-4d82-b46b-67fa8ad66c5d","system_id":"levelo_inurba_marseille","lat":43.21192,"lon":5.35073,"is_reserved":false,"is_disabled":false,"rental_uris":{"android":"levelo://app?vid=b13877a6-4825-4d82-b46b-67fa8ad66c5d","ios":"levelo://app?vid=b13877a6-4825-4d82-b46b-67fa8ad66c5d"},"vehicle_type_id":"4","last_reported":1751134420,"current_range_meters":16400,"station_id":"st_cvj6sg6p6f1abm77japg","pricing_plan_id":"cebpf4jnsgd1na2vs0mg"},{"bike_id":"d83be15c-239d-410c-9374-2954b9783857","system_id":"levelo_inurba_marseille","lat":43.21202,"lon":5.35078,"is_reserved":false,"is_disabled":false,"rental_uris":{"android":"levelo://app?vid=d83be15c-239d-410c-9374-2954b9783857","ios":"levelo://app?vid=d83be15c-239d-410c-9374-2954b9783857"},"vehicle_type_id":"4","last_reported":1751134420,"current_range_meters":16400,"station_id":"st_cvj6sg6p6f1abm77japg","pricing_plan_id":"cebpf4jnsgd1na2vs0mg"},{"bike_id":"3e13e891-a3f8-403e-beb7-106bab0a3c08","system_id":"levelo_inurba_marseille","lat":43.308852,"lon":5.396774,"is_reserved":false,"is_disabled":false,"rental_uris":{"android":"levelo://app?vid=3e13e891-a3f8-403e-beb7-106bab0a3c08","ios":"levelo://app?vid=3e13e891-a3f8-403e-beb7-106bab0a3c08"},"vehicle_type_id":"4","last_reported":1751134420,"current_range_meters":16800,"station_id":"ce4bh012rcd13ifvqcv0","pricing_plan_id":"cebpf4jnsgd1na2vs0mg"},{"bike_id":"5c07f813-3c20-4255-b1fd-4f3d7bb4448f","system_id":"levelo_inurba_marseille","lat":43.28619,"lon":5.35098,"is_reserved":false,"is_disabled":false,"rental_uris":{"android":"levelo://app?vid=5c07f813-3c20-4255-b1fd-4f3d7bb4448f","ios":"levelo://app?vid=5c07f813-3c20-4255-b1fd-4f3d7bb4448f"},"vehicle_type_id":"4","last_reported":1751134420,"current_range_meters":16800,"station_id":"ce4bhch2rcd13ifvqeug","pricing_plan_id":"cebpf4jnsgd1na2vs0mg"},{"bike_id":"0b12c13e-8251-421b-abbc-8d9f77ebc7fd","system_id":"levelo_inurba_marseille","lat":43.26063,"lon":5.3938,"is_reserved":false,"is_disabled":false,"rental_uris":{"android":"levelo://app?vid=0b12c13e-8251-421b-abbc-8d9f77ebc7fd","ios":"levelo://app?vid=0b12c13e-8251-421b-abbc-8d9f77ebc7fd"},"vehicle_type_id":"4","last_reported":1751134420,"current_range_meters":16800,"station_id":"ce4bhh92rcd13ifvqfj0","pricing_plan_id":"cebpf4jnsgd1na2vs0mg"},{"bike_id":"91c17b96-88aa-4f7e-a58b-8b50f08fdd18","system_id":"levelo_inurba_marseille","lat":43.27208,"lon":5.39172,"is_reserved":false,"is_disabled":false,"rental_uris":{"android":"levelo://app?vid=91c17b96-88aa-4f7e-a58b-8b50f08fdd18","ios":"levelo://app?vid=91c17b96-88aa-4f7e-a58b-8b50f08fdd18"},"vehicle_type_id":"4","last_reported":1751134420,"current_range_meters":16800,"station_id":"ce4bhhp2rcd13ifvqfm0","pricing_plan_id":"cebpf4jnsgd1na2vs0mg"},{"bike_id":"4fbca59d-df32-4179-ba25-70ecf4ef2219","system_id":"levelo_inurba_marseille","lat":43.24174,"lon":5.39727,"is_reserved":false,"is_disabled":false,"rental_uris":{"android":"levelo://app?vid=4fbca59d-df32-4179-ba25-70ecf4ef2219","ios":"levelo://app?vid=4fbca59d-df32-4179-ba25-70ecf4ef2219"},"vehicle_type_id":"4","last_reported":1751134420,"current_range_meters":16800,"station_id":"ce4bhn12rcd13ifvqgpg","pricing_plan_id":"cebpf4jnsgd1na2vs0mg"},{"bike_id":"b5da330b-b13d-4ce7-94a4-79d99100431b","system_id":"levelo_inurba_marseille","lat":43.31757,"lon":5.39014,"is_reserved":false,"is_disabled":false,"rental_uris":{"android":"levelo://app?vid=b5da330b-b13d-4ce7-94a4-79d99100431b","ios":"levelo://app?vid=b5da330b-b13d-4ce7-94a4-79d99100431b"},"vehicle_type_id":"4","last_reported":1751134420,"current_range_meters":16800,"station_id":"ce4bhqp2rcd13ifvqhng","pricing_plan_id":"cebpf4jnsgd1na2vs0mg"},{"bike_id":"8d1e10f3-20fd-463c-a408-0a21083b0c6f","system_id":"levelo_inurba_marseille","lat":43.211946,"lon":5.35071,"is_reserved":false,"is_disabled":false,"rental_uris":{"android":"levelo://app?vid=8d1e10f3-20fd-463c-a408-0a21083b0c6f","ios":"levelo://app?vid=8d1e10f3-20fd-463c-a408-0a21083b0c6f"},"vehicle_type_id":"4","last_reported":1751134420,"current_range_meters":16800,"station_id":"st_cvj6sg6p6f1abm77japg","pricing_plan_id":"cebpf4jnsgd1na2vs0mg"},{"bike_id":"bca121d6-7dac-4f14-a296-ce2249d7aad2","system_id":"levelo_inurba_marseille","lat":43.28159,"lon":5.44341,"is_reserved":false,"is_disabled":false,"rental_uris":{"android":"levelo://app?vid=bca121d6-7dac-4f14-a296-ce2249d7aad2","ios":"levelo://app?vid=bca121d6-7dac-4f14-a296-ce2249d7aad2"},"vehicle_type_id":"4","last_reported":1751134420,"current_range_meters":17200,"station_id":"","pricing_plan_id":"cebpf4jnsgd1na2vs0mg"},{"bike_id":"66abb35b-0e37-4ddd-bf66-70dc62e8f63c","system_id":"levelo_inurba_marseille","lat":43.22853,"lon":5.35119,"is_reserved":false,"is_disabled":false,"rental_uris":{"android":"levelo://app?vid=66abb35b-0e37-4ddd-bf66-70dc62e8f63c","ios":"levelo://app?vid=66abb35b-0e37-4ddd-bf66-70dc62e8f63c"},"vehicle_type_id":"4","last_reported":1751134420,"current_range_meters":17200,"station_id":"","pricing_plan_id":"cebpf4jnsgd1na2vs0mg"},{"bike_id":"c595d0e1-c778-4abe-9c79-a9dd74f54e27","system_id":"levelo_inurba_marseille","lat":43.24473,"lon":5.37225,"is_reserved":false,"is_disabled":false,"rental_uris":{"android":"levelo://app?vid=c595d0e1-c778-4abe-9c79-a9dd74f54e27","ios":"levelo://app?vid=c595d0e1-c778-4abe-9c79-a9dd74f54e27"},"vehicle_type_id":"4","last_reported":1751134420,"current_range_meters":17200,"station_id":"","pricing_plan_id":"cebpf4jnsgd1na2vs0mg"},{"bike_id":"07ca4d32-f8d4-4205-8a35-c7ff63def9dc","system_id":"levelo_inurba_marseille","lat":43.225078,"lon":5.347877,"is_reserved":false,"is_disabled":false,"rental_uris":{"android":"levelo://app?vid=07ca4d32-f8d4-4205-8a35-c7ff63def9dc","ios":"levelo://app?vid=07ca4d32-f8d4-4205-8a35-c7ff63def9dc"},"vehicle_type_id":"4","last_reported":1751134420,"current_range_meters":17200,"station_id":"","pricing_plan_id":"cebpf4jnsgd1na2vs0mg"},{"bike_id":"0db14670-7096-476e-b1cf-51dcc5e1a2d6","system_id":"levelo_inurba_marseille","lat":43.26691,"lon":5.38264,"is_reserved":false,"is_disabled":false,"rental_uris":{"android":"levelo://app?vid=0db14670-7096-476e-b1cf-51dcc5e1a2d6","ios":"levelo://app?vid=0db14670-7096-476e-b1cf-51dcc5e1a2d6"},"vehicle_type_id":"4","last_reported":1751134420,"current_range_meters":17200,"station_id":"ce4bhg92rcd13ifvqf90","pricing_plan_id":"cebpf4jnsgd1na2vs0mg"},{"bike_id":"dc908cb3-d8ae-4828-9c51-c80e63cf8a69","system_id":"levelo_inurba_marseille","lat":43.25575,"lon":5.38226,"is_reserved":false,"is_disabled":false,"rental_uris":{"android":"levelo://app?vid=dc908cb3-d8ae-4828-9c51-c80e63cf8a69","ios":"levelo://app?vid=dc908cb3-d8ae-4828-9c51-c80e63cf8a69"},"vehicle_type_id":"4","last_reported":1751134420,"current_range_meters":17200,"station_id":"ce4bhih2rcd13ifvqfs0","pricing_plan_id":"cebpf4jnsgd1na2vs0mg"},{"bike_id":"e0d25799-cb17-4211-bfde-68ae2503bf1f","system_id":"levelo_inurba_marseille","lat":43.23076,"lon":5.35479,"is_reserved":false,"is_disabled":false,"rental_uris":{"android":"levelo://app?vid=e0d25799-cb17-4211-bfde-68ae2503bf1f","ios":"levelo://app?vid=e0d25799-cb17-4211-bfde-68ae2503bf1f"},"vehicle_type_id":"4","last_reported":1751134420,"current_range_meters":17200,"station_id":"cpo3342slgdg3j2ifvpg","pricing_plan_id":"cebpf4jnsgd1na2vs0mg"},{"bike_id":"efdb6688-d4e5-44a9-928a-bbef102c0976","system_id":"levelo_inurba_marseille","lat":43.290293,"lon":5.359212,"is_reserved":false,"is_disabled":false,"rental_uris":{"android":"levelo://app?vid=efdb6688-d4e5-44a9-928a-bbef102c0976","ios":"levelo://app?vid=efdb6688-d4e5-44a9-928a-bbef102c0976"},"vehicle_type_id":"4","last_reported":1751134420,"current_range_meters":17600,"station_id":"","pricing_plan_id":"cebpf4jnsgd1na2vs0mg"},{"bike_id":"2e922ace-dd9e-41b0-a460-5553f1204b5a","system_id":"levelo_inurba_marseille","lat":43.27319,"lon":5.39081,"is_reserved":false,"is_disabled":false,"rental_uris":{"android":"levelo://app?vid=2e922ace-dd9e-41b0-a460-5553f1204b5a","ios":"levelo://app?vid=2e922ace-dd9e-41b0-a460-5553f1204b5a"},"vehicle_type_id":"4","last_reported":1751134420,"current_range_meters":17600,"station_id":"ce4bhgp2rcd13ifvqfe0","pricing_plan_id":"cebpf4jnsgd1na2vs0mg"},{"bike_id":"87c7181b-706f-4ecc-bcb3-6dddc0ba4ffe","system_id":"levelo_inurba_marseille","lat":43.27319,"lon":5.39106,"is_reserved":false,"is_disabled":false,"rental_uris":{"android":"levelo://app?vid=87c7181b-706f-4ecc-bcb3-6dddc0ba4ffe","ios":"levelo://app?vid=87c7181b-706f-4ecc-bcb3-6dddc0ba4ffe"},"vehicle_type_id":"4","last_reported":1751134420,"current_range_meters":17600,"station_id":"ce4bhgp2rcd13ifvqfe0","pricing_plan_id":"cebpf4jnsgd1na2vs0mg"},{"bike_id":"6e304d03-9126-474b-9d0e-21e274672f99","system_id":"levelo_inurba_marseille","lat":43.27109,"lon":5.42256,"is_reserved":false,"is_disabled":false,"rental_uris":{"android":"levelo://app?vid=6e304d03-9126-474b-9d0e-21e274672f99","ios":"levelo://app?vid=6e304d03-9126-474b-9d0e-21e274672f99"},"vehicle_type_id":"4","last_reported":1751134420,"current_range_meters":17600,"station_id":"ce4bhk92rcd13ifvqgb0","pricing_plan_id":"cebpf4jnsgd1na2vs0mg"},{"bike_id":"706791be-79ff-4961-85f9-10b00214ce8a","system_id":"levelo_inurba_marseille","lat":43.33038,"lon":5.39026,"is_reserved":false,"is_disabled":false,"rental_uris":{"android":"levelo://app?vid=706791be-79ff-4961-85f9-10b00214ce8a","ios":"levelo://app?vid=706791be-79ff-4961-85f9-10b00214ce8a"},"vehicle_type_id":"4","last_reported":1751134420,"current_range_meters":17600,"station_id":"ce4bhr92rcd13ifvqhrg","pricing_plan_id":"cebpf4jnsgd1na2vs0mg"},{"bike_id":"908cd11d-d19a-40a4-a488-254614ce5263","system_id":"levelo_inurba_marseille","lat":43.23052,"lon":5.3548,"is_reserved":false,"is_disabled":false,"rental_uris":{"android":"levelo://app?vid=908cd11d-d19a-40a4-a488-254614ce5263","ios":"levelo://app?vid=908cd11d-d19a-40a4-a488-254614ce5263"},"vehicle_type_id":"4","last_reported":1751134420,"current_range_meters":17600,"station_id":"cpo3342slgdg3j2ifvpg","pricing_plan_id":"cebpf4jnsgd1na2vs0mg"},{"bike_id":"fede116f-fe8f-4996-bd86-bef08c43bb15","system_id":"levelo_inurba_marseille","lat":43.28417,"lon":5.34987,"is_reserved":false,"is_disabled":false,"rental_uris":{"android":"levelo://app?vid=fede116f-fe8f-4996-bd86-bef08c43bb15","ios":"levelo://app?vid=fede116f-fe8f-4996-bd86-bef08c43bb15"},"vehicle_type_id":"4","last_reported":1751134420,"current_range_meters":18000,"station_id":"ce4bhbh2rcd13ifvqepg","pricing_plan_id":"cebpf4jnsgd1na2vs0mg"},{"bike_id":"4cec1995-4b9b-4e5f-b586-90e83d4bd5c9","system_id":"levelo_inurba_marseille","lat":43.282445,"lon":5.350708,"is_reserved":false,"is_disabled":false,"rental_uris":{"android":"levelo://app?vid=4cec1995-4b9b-4e5f-b586-90e83d4bd5c9","ios":"levelo://app?vid=4cec1995-4b9b-4e5f-b586-90e83d4bd5c9"},"vehicle_type_id":"4","last_reported":1751134420,"current_range_meters":18000,"station_id":"ce4bhbp2rcd13ifvqerg","pricing_plan_id":"cebpf4jnsgd1na2vs0mg"},{"bike_id":"0856b6e0-70dd-4cb0-9b86-c41ae147b5d3","system_id":"levelo_inurba_marseille","lat":43.26681,"lon":5.3827,"is_reserved":false,"is_disabled":false,"rental_uris":{"android":"levelo://app?vid=0856b6e0-70dd-4cb0-9b86-c41ae147b5d3","ios":"levelo://app?vid=0856b6e0-70dd-4cb0-9b86-c41ae147b5d3"},"vehicle_type_id":"4","last_reported":1751134420,"current_range_meters":18000,"station_id":"ce4bhg92rcd13ifvqf90","pricing_plan_id":"cebpf4jnsgd1na2vs0mg"},{"bike_id":"30094df6-c8ba-4d16-8801-39d87bee32d2","system_id":"levelo_inurba_marseille","lat":43.26789,"lon":5.39416,"is_reserved":false,"is_disabled":false,"rental_uris":{"android":"levelo://app?vid=30094df6-c8ba-4d16-8801-39d87bee32d2","ios":"levelo://app?vid=30094df6-c8ba-4d16-8801-39d87bee32d2"},"vehicle_type_id":"4","last_reported":1751134420,"current_range_meters":18000,"station_id":"ce4bhh12rcd13ifvqfg0","pricing_plan_id":"cebpf4jnsgd1na2vs0mg"},{"bike_id":"d9c07e73-0ed4-430f-96f4-28df47fe9b58","system_id":"levelo_inurba_marseille","lat":43.26787,"lon":5.39405,"is_reserved":false,"is_disabled":false,"rental_uris":{"android":"levelo://app?vid=d9c07e73-0ed4-430f-96f4-28df47fe9b58","ios":"levelo://app?vid=d9c07e73-0ed4-430f-96f4-28df47fe9b58"},"vehicle_type_id":"4","last_reported":1751134420,"current_range_meters":18000,"station_id":"ce4bhh12rcd13ifvqfg0","pricing_plan_id":"cebpf4jnsgd1na2vs0mg"},{"bike_id":"af2af080-6ebb-4c6b-8627-5e52cd2c02bb","system_id":"levelo_inurba_marseille","lat":43.2418,"lon":5.39726,"is_reserved":false,"is_disabled":false,"rental_uris":{"android":"levelo://app?vid=af2af080-6ebb-4c6b-8627-5e52cd2c02bb","ios":"levelo://app?vid=af2af080-6ebb-4c6b-8627-5e52cd2c02bb"},"vehicle_type_id":"4","last_reported":1751134420,"current_range_meters":18000,"station_id":"ce4bhn12rcd13ifvqgpg","pricing_plan_id":"cebpf4jnsgd1na2vs0mg"},{"bike_id":"af1b46e4-a70c-46ee-81f8-1409ffc3e522","system_id":"levelo_inurba_marseille","lat":43.27812,"lon":5.40713,"is_reserved":false,"is_disabled":false,"rental_uris":{"android":"levelo://app?vid=af1b46e4-a70c-46ee-81f8-1409ffc3e522","ios":"levelo://app?vid=af1b46e4-a70c-46ee-81f8-1409ffc3e522"},"vehicle_type_id":"4","last_reported":1751134420,"current_range_meters":18000,"station_id":"ce4bhnh2rcd13ifvqgtg","pricing_plan_id":"cebpf4jnsgd1na2vs0mg"},{"bike_id":"3e82f598-9d1d-4257-8afa-a4dc7305de09","system_id":"levelo_inurba_marseille","lat":43.21215,"lon":5.35043,"is_reserved":false,"is_disabled":false,"rental_uris":{"android":"levelo://app?vid=3e82f598-9d1d-4257-8afa-a4dc7305de09","ios":"levelo://app?vid=3e82f598-9d1d-4257-8afa-a4dc7305de09"},"vehicle_type_id":"4","last_reported":1751134420,"current_range_meters":18800,"station_id":"","pricing_plan_id":"cebpf4jnsgd1na2vs0mg"},{"bike_id":"d0d6c67b-bc51-44b9-980f-daaf5b7ddfdd","system_id":"levelo_inurba_marseille","lat":43.28932,"lon":5.36623,"is_reserved":false,"is_disabled":false,"rental_uris":{"android":"levelo://app?vid=d0d6c67b-bc51-44b9-980f-daaf5b7ddfdd","ios":"levelo://app?vid=d0d6c67b-bc51-44b9-980f-daaf5b7ddfdd"},"vehicle_type_id":"4","last_reported":1751134420,"current_range_meters":18800,"station_id":"ce4bhap2rcd13ifvqek0","pricing_plan_id":"cebpf4jnsgd1na2vs0mg"},{"bike_id":"518a28dd-66ae-4fbb-b6e0-58c24a1fbdb9","system_id":"levelo_inurba_marseille","lat":43.282751,"lon":5.350714,"is_reserved":false,"is_disabled":false,"rental_uris":{"android":"levelo://app?vid=518a28dd-66ae-4fbb-b6e0-58c24a1fbdb9","ios":"levelo://app?vid=518a28dd-66ae-4fbb-b6e0-58c24a1fbdb9"},"vehicle_type_id":"4","last_reported":1751134420,"current_range_meters":18800,"station_id":"ce4bhbp2rcd13ifvqerg","pricing_plan_id":"cebpf4jnsgd1na2vs0mg"},{"bike_id":"90617317-3832-412d-8fb9-f0f9d9d5ed37","system_id":"levelo_inurba_marseille","lat":43.27205,"lon":5.3919,"is_reserved":false,"is_disabled":false,"rental_uris":{"android":"levelo://app?vid=90617317-3832-412d-8fb9-f0f9d9d5ed37","ios":"levelo://app?vid=90617317-3832-412d-8fb9-f0f9d9d5ed37"},"vehicle_type_id":"4","last_reported":1751134420,"current_range_meters":18800,"station_id":"ce4bhhp2rcd13ifvqfm0","pricing_plan_id":"cebpf4jnsgd1na2vs0mg"},{"bike_id":"72b8346e-f64e-4e3b-871b-71f928dcb199","system_id":"levelo_inurba_marseille","lat":43.246613,"lon":5.381691,"is_reserved":false,"is_disabled":false,"rental_uris":{"android":"levelo://app?vid=72b8346e-f64e-4e3b-871b-71f928dcb199","ios":"levelo://app?vid=72b8346e-f64e-4e3b-871b-71f928dcb199"},"vehicle_type_id":"4","last_reported":1751134420,"current_range_meters":18800,"station_id":"ce4bhih2rcd13ifvqfr0","pricing_plan_id":"cebpf4jnsgd1na2vs0mg"},{"bike_id":"728e7926-0caa-49fe-9b79-e939c2e7651c","system_id":"levelo_inurba_marseille","lat":43.25871,"lon":5.39893,"is_reserved":false,"is_disabled":false,"rental_uris":{"android":"levelo://app?vid=728e7926-0caa-49fe-9b79-e939c2e7651c","ios":"levelo://app?vid=728e7926-0caa-49fe-9b79-e939c2e7651c"},"vehicle_type_id":"4","last_reported":1751134420,"current_range_meters":18800,"station_id":"ce4bhl92rcd13ifvqghg","pricing_plan_id":"cebpf4jnsgd1na2vs0mg"},{"bike_id":"b101ca3c-0945-4c03-aecd-cb61c372ddb7","system_id":"levelo_inurba_marseille","lat":43.32665,"lon":5.40987,"is_reserved":false,"is_disabled":false,"rental_uris":{"android":"levelo://app?vid=b101ca3c-0945-4c03-aecd-cb61c372ddb7","ios":"levelo://app?vid=b101ca3c-0945-4c03-aecd-cb61c372ddb7"},"vehicle_type_id":"4","last_reported":1751134420,"current_range_meters":18800,"station_id":"ce4bhpp2rcd13ifvqhgg","pricing_plan_id":"cebpf4jnsgd1na2vs0mg"},{"bike_id":"148b6926-6e95-403c-80d7-8cb27add8efc","system_id":"levelo_inurba_marseille","lat":43.24166,"lon":5.36392,"is_reserved":false,"is_disabled":false,"rental_uris":{"android":"levelo://app?vid=148b6926-6e95-403c-80d7-8cb27add8efc","ios":"levelo://app?vid=148b6926-6e95-403c-80d7-8cb27add8efc"},"vehicle_type_id":"4","last_reported":1751134420,"current_range_meters":18800,"station_id":"cpo36qri1sfpv3e86is0","pricing_plan_id":"cebpf4jnsgd1na2vs0mg"},{"bike_id":"7cd73daf-6410-4b72-a872-e5224e9d29ff","system_id":"levelo_inurba_marseille","lat":43.27399,"lon":5.41175,"is_reserved":false,"is_disabled":false,"rental_uris":{"android":"levelo://app?vid=7cd73daf-6410-4b72-a872-e5224e9d29ff","ios":"levelo://app?vid=7cd73daf-6410-4b72-a872-e5224e9d29ff"},"vehicle_type_id":"4","last_reported":1751134420,"current_range_meters":19200,"station_id":"","pricing_plan_id":"cebpf4jnsgd1na2vs0mg"},{"bike_id":"6e53ad1f-d4f5-4de6-9418-67b290ec993f","system_id":"levelo_inurba_marseille","lat":43.30941,"lon":5.4103,"is_reserved":false,"is_disabled":false,"rental_uris":{"android":"levelo://app?vid=6e53ad1f-d4f5-4de6-9418-67b290ec993f","ios":"levelo://app?vid=6e53ad1f-d4f5-4de6-9418-67b290ec993f"},"vehicle_type_id":"4","last_reported":1751134420,"current_range_meters":19200,"station_id":"","pricing_plan_id":"cebpf4jnsgd1na2vs0mg"},{"bike_id":"bbcd01ef-7a57-4e4c-b7b6-66c5692319e2","system_id":"levelo_inurba_marseille","lat":43.28451,"lon":5.35887,"is_reserved":false,"is_disabled":false,"rental_uris":{"android":"levelo://app?vid=bbcd01ef-7a57-4e4c-b7b6-66c5692319e2","ios":"levelo://app?vid=bbcd01ef-7a57-4e4c-b7b6-66c5692319e2"},"vehicle_type_id":"4","last_reported":1751134420,"current_range_meters":19200,"station_id":"ce4bhah2rcd13ifvqei0","pricing_plan_id":"cebpf4jnsgd1na2vs0mg"},{"bike_id":"8a73d86a-7065-40d5-98d3-35d606225561","system_id":"levelo_inurba_marseille","lat":43.26226,"lon":5.37428,"is_reserved":false,"is_disabled":false,"rental_uris":{"android":"levelo://app?vid=8a73d86a-7065-40d5-98d3-35d606225561","ios":"levelo://app?vid=8a73d86a-7065-40d5-98d3-35d606225561"},"vehicle_type_id":"4","last_reported":1751134420,"current_range_meters":19200,"station_id":"ce4bhgp2rcd13ifvqfc0","pricing_plan_id":"cebpf4jnsgd1na2vs0mg"},{"bike_id":"38d92265-0757-47ae-8f32-ed3a15823fd0","system_id":"levelo_inurba_marseille","lat":43.27313,"lon":5.39114,"is_reserved":false,"is_disabled":false,"rental_uris":{"android":"levelo://app?vid=38d92265-0757-47ae-8f32-ed3a15823fd0","ios":"levelo://app?vid=38d92265-0757-47ae-8f32-ed3a15823fd0"},"vehicle_type_id":"4","last_reported":1751134420,"current_range_meters":19200,"station_id":"ce4bhgp2rcd13ifvqfe0","pricing_plan_id":"cebpf4jnsgd1na2vs0mg"},{"bike_id":"53d377e6-d494-40fd-9c1b-93d2d10dfcc1","system_id":"levelo_inurba_marseille","lat":43.26786,"lon":5.39411,"is_reserved":false,"is_disabled":false,"rental_uris":{"android":"levelo://app?vid=53d377e6-d494-40fd-9c1b-93d2d10dfcc1","ios":"levelo://app?vid=53d377e6-d494-40fd-9c1b-93d2d10dfcc1"},"vehicle_type_id":"4","last_reported":1751134420,"current_range_meters":19200,"station_id":"ce4bhh12rcd13ifvqfg0","pricing_plan_id":"cebpf4jnsgd1na2vs0mg"},{"bike_id":"bf24b26e-7f51-4120-9a48-54c87edaa2f7","system_id":"levelo_inurba_marseille","lat":43.21197,"lon":5.35083,"is_reserved":false,"is_disabled":false,"rental_uris":{"android":"levelo://app?vid=bf24b26e-7f51-4120-9a48-54c87edaa2f7","ios":"levelo://app?vid=bf24b26e-7f51-4120-9a48-54c87edaa2f7"},"vehicle_type_id":"4","last_reported":1751134420,"current_range_meters":19200,"station_id":"st_cvj6sg6p6f1abm77japg","pricing_plan_id":"cebpf4jnsgd1na2vs0mg"},{"bike_id":"7f212f1e-9b22-4ad3-88bb-18d999719345","system_id":"levelo_inurba_marseille","lat":43.21206,"lon":5.35066,"is_reserved":false,"is_disabled":false,"rental_uris":{"android":"levelo://app?vid=7f212f1e-9b22-4ad3-88bb-18d999719345","ios":"levelo://app?vid=7f212f1e-9b22-4ad3-88bb-18d999719345"},"vehicle_type_id":"4","last_reported":1751134420,"current_range_meters":19200,"station_id":"st_cvj6sg6p6f1abm77japg","pricing_plan_id":"cebpf4jnsgd1na2vs0mg"},{"bike_id":"84001d6e-6fef-49f5-a857-4014729e5374","system_id":"levelo_inurba_marseille","lat":43.30082,"lon":5.39069,"is_reserved":false,"is_disabled":false,"rental_uris":{"android":"levelo://app?vid=84001d6e-6fef-49f5-a857-4014729e5374","ios":"levelo://app?vid=84001d6e-6fef-49f5-a857-4014729e5374"},"vehicle_type_id":"4","last_reported":1751134420,"current_range_meters":19600,"station_id":"ce4bh192rcd13ifvqdb0","pricing_plan_id":"cebpf4jnsgd1na2vs0mg"},{"bike_id":"b1c57a6b-85c4-43f1-883d-bab9969b0f57","system_id":"levelo_inurba_marseille","lat":43.269385,"lon":5.386544,"is_reserved":false,"is_disabled":false,"rental_uris":{"android":"levelo://app?vid=b1c57a6b-85c4-43f1-883d-bab9969b0f57","ios":"levelo://app?vid=b1c57a6b-85c4-43f1-883d-bab9969b0f57"},"vehicle_type_id":"4","last_reported":1751134420,"current_range_meters":19600,"station_id":"ce4bhh92rcd13ifvqfh0","pricing_plan_id":"cebpf4jnsgd1na2vs0mg"},{"bike_id":"9dc29fb8-e3fb-41f8-a3ad-c2c6c5e7fe8f","system_id":"levelo_inurba_marseille","lat":43.32656,"lon":5.40994,"is_reserved":false,"is_disabled":false,"rental_uris":{"android":"levelo://app?vid=9dc29fb8-e3fb-41f8-a3ad-c2c6c5e7fe8f","ios":"levelo://app?vid=9dc29fb8-e3fb-41f8-a3ad-c2c6c5e7fe8f"},"vehicle_type_id":"4","last_reported":1751134420,"current_range_meters":19600,"station_id":"ce4bhpp2rcd13ifvqhgg","pricing_plan_id":"cebpf4jnsgd1na2vs0mg"},{"bike_id":"f82afb45-c2f6-4f1c-aaae-e3401e87fa3d","system_id":"levelo_inurba_marseille","lat":43.27465,"lon":5.39391,"is_reserved":false,"is_disabled":false,"rental_uris":{"android":"levelo://app?vid=f82afb45-c2f6-4f1c-aaae-e3401e87fa3d","ios":"levelo://app?vid=f82afb45-c2f6-4f1c-aaae-e3401e87fa3d"},"vehicle_type_id":"4","last_reported":1751134420,"current_range_meters":20000,"station_id":"","pricing_plan_id":"cebpf4jnsgd1na2vs0mg"},{"bike_id":"53b91954-b179-409a-8a50-19bd2f7b9a49","system_id":"levelo_inurba_marseille","lat":43.29081,"lon":5.38131,"is_reserved":false,"is_disabled":false,"rental_uris":{"android":"levelo://app?vid=53b91954-b179-409a-8a50-19bd2f7b9a49","ios":"levelo://app?vid=53b91954-b179-409a-8a50-19bd2f7b9a49"},"vehicle_type_id":"4","last_reported":1751134420,"current_range_meters":20000,"station_id":"ce4bh512rcd13ifvqe2g","pricing_plan_id":"cebpf4jnsgd1na2vs0mg"},{"bike_id":"622b2287-a04e-43e3-ac9d-7dbbacabec95","system_id":"levelo_inurba_marseille","lat":43.28444,"lon":5.35005,"is_reserved":false,"is_disabled":false,"rental_uris":{"android":"levelo://app?vid=622b2287-a04e-43e3-ac9d-7dbbacabec95","ios":"levelo://app?vid=622b2287-a04e-43e3-ac9d-7dbbacabec95"},"vehicle_type_id":"4","last_reported":1751134420,"current_range_meters":20000,"station_id":"ce4bhbh2rcd13ifvqepg","pricing_plan_id":"cebpf4jnsgd1na2vs0mg"},{"bike_id":"694c7c4b-e51a-4ab7-99c2-d3428516e98b","system_id":"levelo_inurba_marseille","lat":43.26688,"lon":5.38266,"is_reserved":false,"is_disabled":false,"rental_uris":{"android":"levelo://app?vid=694c7c4b-e51a-4ab7-99c2-d3428516e98b","ios":"levelo://app?vid=694c7c4b-e51a-4ab7-99c2-d3428516e98b"},"vehicle_type_id":"4","last_reported":1751134420,"current_range_meters":20000,"station_id":"ce4bhg92rcd13ifvqf90","pricing_plan_id":"cebpf4jnsgd1na2vs0mg"},{"bike_id":"c7521e27-1897-4010-aead-556f55c7d092","system_id":"levelo_inurba_marseille","lat":43.26786,"lon":5.39415,"is_reserved":false,"is_disabled":false,"rental_uris":{"android":"levelo://app?vid=c7521e27-1897-4010-aead-556f55c7d092","ios":"levelo://app?vid=c7521e27-1897-4010-aead-556f55c7d092"},"vehicle_type_id":"4","last_reported":1751134420,"current_range_meters":20000,"station_id":"ce4bhh12rcd13ifvqfg0","pricing_plan_id":"cebpf4jnsgd1na2vs0mg"},{"bike_id":"59f057c4-9fb0-4d4b-8dca-522397402530","system_id":"levelo_inurba_marseille","lat":43.25727,"lon":5.41115,"is_reserved":false,"is_disabled":false,"rental_uris":{"android":"levelo://app?vid=59f057c4-9fb0-4d4b-8dca-522397402530","ios":"levelo://app?vid=59f057c4-9fb0-4d4b-8dca-522397402530"},"vehicle_type_id":"4","last_reported":1751134420,"current_range_meters":20000,"station_id":"ce4bhkp2rcd13ifvqgd0","pricing_plan_id":"cebpf4jnsgd1na2vs0mg"},{"bike_id":"0392c517-8b77-414f-b7e0-01fb5f175094","system_id":"levelo_inurba_marseille","lat":43.28075,"lon":5.39632,"is_reserved":false,"is_disabled":false,"rental_uris":{"android":"levelo://app?vid=0392c517-8b77-414f-b7e0-01fb5f175094","ios":"levelo://app?vid=0392c517-8b77-414f-b7e0-01fb5f175094"},"vehicle_type_id":"4","last_reported":1751134420,"current_range_meters":20000,"station_id":"ce4bho12rcd13ifvqh2g","pricing_plan_id":"cebpf4jnsgd1na2vs0mg"},{"bike_id":"e7641e58-176f-485d-9342-129003cdc52b","system_id":"levelo_inurba_marseille","lat":43.32112,"lon":5.36791,"is_reserved":false,"is_disabled":false,"rental_uris":{"android":"levelo://app?vid=e7641e58-176f-485d-9342-129003cdc52b","ios":"levelo://app?vid=e7641e58-176f-485d-9342-129003cdc52b"},"vehicle_type_id":"4","last_reported":1751134420,"current_range_meters":20000,"station_id":"ce4bhrh2rcd13ifvqhug","pricing_plan_id":"cebpf4jnsgd1na2vs0mg"},{"bike_id":"dc789080-58e9-40cf-90fd-5ae7878d07fe","system_id":"levelo_inurba_marseille","lat":43.28271,"lon":5.3506,"is_reserved":false,"is_disabled":false,"rental_uris":{"android":"levelo://app?vid=dc789080-58e9-40cf-90fd-5ae7878d07fe","ios":"levelo://app?vid=dc789080-58e9-40cf-90fd-5ae7878d07fe"},"vehicle_type_id":"4","last_reported":1751134420,"current_range_meters":20400,"station_id":"ce4bhbp2rcd13ifvqerg","pricing_plan_id":"cebpf4jnsgd1na2vs0mg"},{"bike_id":"47fe8065-e989-4b93-8a22-bbbccce3ac64","system_id":"levelo_inurba_marseille","lat":43.27324,"lon":5.39104,"is_reserved":false,"is_disabled":false,"rental_uris":{"android":"levelo://app?vid=47fe8065-e989-4b93-8a22-bbbccce3ac64","ios":"levelo://app?vid=47fe8065-e989-4b93-8a22-bbbccce3ac64"},"vehicle_type_id":"4","last_reported":1751134420,"current_range_meters":20400,"station_id":"ce4bhgp2rcd13ifvqfe0","pricing_plan_id":"cebpf4jnsgd1na2vs0mg"},{"bike_id":"01a1f41f-d4ca-49cc-abda-42a4a009070e","system_id":"levelo_inurba_marseille","lat":43.2857,"lon":5.38324,"is_reserved":false,"is_disabled":false,"rental_uris":{"android":"levelo://app?vid=01a1f41f-d4ca-49cc-abda-42a4a009070e","ios":"levelo://app?vid=01a1f41f-d4ca-49cc-abda-42a4a009070e"},"vehicle_type_id":"4","last_reported":1751134420,"current_range_meters":20800,"station_id":"","pricing_plan_id":"cebpf4jnsgd1na2vs0mg"},{"bike_id":"baf8283d-da3b-4ed0-bc66-8c0af8b88a2a","system_id":"levelo_inurba_marseille","lat":43.28429,"lon":5.34972,"is_reserved":false,"is_disabled":false,"rental_uris":{"android":"levelo://app?vid=baf8283d-da3b-4ed0-bc66-8c0af8b88a2a","ios":"levelo://app?vid=baf8283d-da3b-4ed0-bc66-8c0af8b88a2a"},"vehicle_type_id":"4","last_reported":1751134420,"current_range_meters":20800,"station_id":"ce4bhbh2rcd13ifvqepg","pricing_plan_id":"cebpf4jnsgd1na2vs0mg"},{"bike_id":"98c40c2a-8969-401f-ae52-8dc382467a00","system_id":"levelo_inurba_marseille","lat":43.280853,"lon":5.396614,"is_reserved":false,"is_disabled":false,"rental_uris":{"android":"levelo://app?vid=98c40c2a-8969-401f-ae52-8dc382467a00","ios":"levelo://app?vid=98c40c2a-8969-401f-ae52-8dc382467a00"},"vehicle_type_id":"4","last_reported":1751134420,"current_range_meters":20800,"station_id":"ce4bho12rcd13ifvqh2g","pricing_plan_id":"cebpf4jnsgd1na2vs0mg"},{"bike_id":"54e6c144-89e2-4352-bee4-0bc5a4da8819","system_id":"levelo_inurba_marseille","lat":43.326596,"lon":5.409857,"is_reserved":false,"is_disabled":false,"rental_uris":{"android":"levelo://app?vid=54e6c144-89e2-4352-bee4-0bc5a4da8819","ios":"levelo://app?vid=54e6c144-89e2-4352-bee4-0bc5a4da8819"},"vehicle_type_id":"4","last_reported":1751134420,"current_range_meters":20800,"station_id":"ce4bhpp2rcd13ifvqhgg","pricing_plan_id":"cebpf4jnsgd1na2vs0mg"},{"bike_id":"ff359b06-e82b-4518-b602-f9c62162a27d","system_id":"levelo_inurba_marseille","lat":43.21192,"lon":5.35072,"is_reserved":false,"is_disabled":false,"rental_uris":{"android":"levelo://app?vid=ff359b06-e82b-4518-b602-f9c62162a27d","ios":"levelo://app?vid=ff359b06-e82b-4518-b602-f9c62162a27d"},"vehicle_type_id":"4","last_reported":1751134420,"current_range_meters":20800,"station_id":"st_cvj6sg6p6f1abm77japg","pricing_plan_id":"cebpf4jnsgd1na2vs0mg"},{"bike_id":"9b21541a-edfa-4c28-a626-87d8c52e11d9","system_id":"levelo_inurba_marseille","lat":43.31772,"lon":5.37425,"is_reserved":false,"is_disabled":false,"rental_uris":{"android":"levelo://app?vid=9b21541a-edfa-4c28-a626-87d8c52e11d9","ios":"levelo://app?vid=9b21541a-edfa-4c28-a626-87d8c52e11d9"},"vehicle_type_id":"4","last_reported":1751134420,"current_range_meters":21600,"station_id":"","pricing_plan_id":"cebpf4jnsgd1na2vs0mg"},{"bike_id":"2a0160b0-ff04-47da-a495-afd8dd07cc97","system_id":"levelo_inurba_marseille","lat":43.302987,"lon":5.400618,"is_reserved":false,"is_disabled":false,"rental_uris":{"android":"levelo://app?vid=2a0160b0-ff04-47da-a495-afd8dd07cc97","ios":"levelo://app?vid=2a0160b0-ff04-47da-a495-afd8dd07cc97"},"vehicle_type_id":"4","last_reported":1751134420,"current_range_meters":21600,"station_id":"ce4bh012rcd13ifvqd10","pricing_plan_id":"cebpf4jnsgd1na2vs0mg"},{"bike_id":"95c391fa-25a7-4af9-aeb9-d22c68cd3528","system_id":"levelo_inurba_marseille","lat":43.26683,"lon":5.38274,"is_reserved":false,"is_disabled":false,"rental_uris":{"android":"levelo://app?vid=95c391fa-25a7-4af9-aeb9-d22c68cd3528","ios":"levelo://app?vid=95c391fa-25a7-4af9-aeb9-d22c68cd3528"},"vehicle_type_id":"4","last_reported":1751134420,"current_range_meters":21600,"station_id":"ce4bhg92rcd13ifvqf90","pricing_plan_id":"cebpf4jnsgd1na2vs0mg"},{"bike_id":"f71b38d0-68f4-4abb-bd99-650fc81bbff3","system_id":"levelo_inurba_marseille","lat":43.26694,"lon":5.38273,"is_reserved":false,"is_disabled":false,"rental_uris":{"android":"levelo://app?vid=f71b38d0-68f4-4abb-bd99-650fc81bbff3","ios":"levelo://app?vid=f71b38d0-68f4-4abb-bd99-650fc81bbff3"},"vehicle_type_id":"4","last_reported":1751134420,"current_range_meters":21600,"station_id":"ce4bhg92rcd13ifvqf90","pricing_plan_id":"cebpf4jnsgd1na2vs0mg"},{"bike_id":"09b8d8f7-8338-48dc-af45-1df2d712f7b5","system_id":"levelo_inurba_marseille","lat":43.273141,"lon":5.391113,"is_reserved":false,"is_disabled":false,"rental_uris":{"android":"levelo://app?vid=09b8d8f7-8338-48dc-af45-1df2d712f7b5","ios":"levelo://app?vid=09b8d8f7-8338-48dc-af45-1df2d712f7b5"},"vehicle_type_id":"4","last_reported":1751134420,"current_range_meters":21600,"station_id":"ce4bhgp2rcd13ifvqfe0","pricing_plan_id":"cebpf4jnsgd1na2vs0mg"},{"bike_id":"8c103616-6f6a-406a-ac2d-83806dae0520","system_id":"levelo_inurba_marseille","lat":43.26931,"lon":5.40253,"is_reserved":false,"is_disabled":false,"rental_uris":{"android":"levelo://app?vid=8c103616-6f6a-406a-ac2d-83806dae0520","ios":"levelo://app?vid=8c103616-6f6a-406a-ac2d-83806dae0520"},"vehicle_type_id":"4","last_reported":1751134420,"current_range_meters":21600,"station_id":"cjm6bp8fraef2m0cb0m0","pricing_plan_id":"cebpf4jnsgd1na2vs0mg"},{"bike_id":"3eabe1e2-f9f5-41cb-a4ed-73ca7f909c5c","system_id":"levelo_inurba_marseille","lat":43.21195,"lon":5.35071,"is_reserved":false,"is_disabled":false,"rental_uris":{"android":"levelo://app?vid=3eabe1e2-f9f5-41cb-a4ed-73ca7f909c5c","ios":"levelo://app?vid=3eabe1e2-f9f5-41cb-a4ed-73ca7f909c5c"},"vehicle_type_id":"4","last_reported":1751134420,"current_range_meters":21600,"station_id":"st_cvj6sg6p6f1abm77japg","pricing_plan_id":"cebpf4jnsgd1na2vs0mg"},{"bike_id":"ba926bfc-9632-4680-b0ed-32a040d6fb83","system_id":"levelo_inurba_marseille","lat":43.211889,"lon":5.350753,"is_reserved":false,"is_disabled":false,"rental_uris":{"android":"levelo://app?vid=ba926bfc-9632-4680-b0ed-32a040d6fb83","ios":"levelo://app?vid=ba926bfc-9632-4680-b0ed-32a040d6fb83"},"vehicle_type_id":"4","last_reported":1751134420,"current_range_meters":21600,"station_id":"st_cvj6sg6p6f1abm77japg","pricing_plan_id":"cebpf4jnsgd1na2vs0mg"},