{"last_updated":1743026939,"ttl":60,"version":"2.2","data":{"bikes":[{"bike_id":"01b65fe0-477b-43d3-b293-656978e0ca44","system_id":"levelo_inurba_marseille","lat":43.2867,"lon":5.36351,"is_reserved":false,"is_disabled":false,"rental_uris":{"android":"levelo://app?vid=01b65fe0-477b-43d3-b293-656978e0ca44","ios":"levelo://app?vid=01b65fe0-477b-43d3-b293-656978e0ca44"},"vehicle_type_id":"4","last_reported":1743026939,"current_range_meters":2800,"station_id":"ce4bhah2rcd13ifvqej0","pricing_plan_id":"cebpf4jnsgd1na2vs0mg"},{"bike_id":"e035611f-5217-4ca7-8d7a-cebe8128b941","system_id":"levelo_inurba_marseille","lat":43.27672,"lon":5.38881,"is_reserved":false,"is_disabled":false,"rental_uris":{"android":"levelo://app?vid=e035611f-5217-4ca7-8d7a-cebe8128b941","ios":"levelo://app?vid=e035611f-5217-4ca7-8d7a-cebe8128b941"},"vehicle_type_id":"4","last_reported":1743026939,"current_range_meters":2800,"station_id":"ce4bhi12rcd13ifvqfo0","pricing_plan_id":"cebpf4jnsgd1na2vs0mg"},{"bike_id":"cd20d16a-032a-4ea7-a430-255e9d8a59c5","system_id":"levelo_inurba_marseille","lat":43.282992,"lon":5.407698,"is_reserved":false,"is_disabled":false,"rental_uris":{"android":"levelo://app?vid=cd20d16a-032a-4ea7-a430-255e9d8a59c5","ios":"levelo://app?vid=cd20d16a-032a-4ea7-a430-255e9d8a59c5"},"vehicle_type_id":"4","last_reported":1743026939,"current_range_meters":2800,"station_id":"","pricing_plan_id":"cebpf4jnsgd1na2vs0mg"},{"bike_id":"03908684-304c-46cb-8098-7d26df555d11","system_id":"levelo_inurba_marseille","lat":43.29262,"lon":5.40134,"is_reserved":false,"is_disabled":false,"rental_uris":{"android":"levelo://app?vid=03908684-304c-46cb-8098-7d26df555d11","ios":"levelo://app?vid=03908684-304c-46cb-8098-7d26df555d11"},"vehicle_type_id":"4","last_reported":1743026939,"current_range_meters":3200,"station_id":"ce4bh312rcd13ifvqdk0","pricing_plan_id":"cebpf4jnsgd1na2vs0mg"},{"bike_id":"27f015e0-c345-431d-9003-e4f28454aab2","system_id":"levelo_inurba_marseille","lat":43.3059,"lon":5.36669,"is_reserved":false,"is_disabled":false,"rental_uris":{"android":"levelo://app?vid=27f015e0-c345-431d-9003-e4f28454aab2","ios":"levelo://app?vid=27f015e0-c345-431d-9003-e4f28454aab2"},"vehicle_type_id":"4","last_reported":1743026939,"current_range_meters":3200,"station_id":"ce4bgrp2rcd13ifvqc9g","pricing_plan_id":"cebpf4jnsgd1na2vs0mg"},{"bike_id":"ab67bdb5-4dc4-4cad-b2e7-e7b3ec2373b6","system_id":"levelo_inurba_marseille","lat":43.29872,"lon":5.39737,"is_reserved":false,"is_disabled":false,"rental_uris":{"android":"levelo://app?vid=ab67bdb5-4dc4-4cad-b2e7-e7b3ec2373b6","ios":"levelo://app?vid=ab67bdb5-4dc4-4cad-b2e7-e7b3ec2373b6"},"vehicle_type_id":"4","last_reported":1743026939,"current_range_meters":3200,"station_id":"ce4bh0h2rcd13ifvqd50","pricing_plan_id":"cebpf4jnsgd1na2vs0mg"},{"bike_id":"60572ac8-f8fa-4090-a8da-a05557d22647","system_id":"levelo_inurba_marseille","lat":43.33603,"lon":5.41037,"is_reserved":false,"is_disabled":false,"rental_uris":{"android":"levelo://app?vid=60572ac8-f8fa-4090-a8da-a05557d22647","ios":"levelo://app?vid=60572ac8-f8fa-4090-a8da-a05557d22647"},"vehicle_type_id":"4","last_reported":1743026939,"current_range_meters":3600,"station_id":"ce4bhqh2rcd13ifvqhmg","pricing_plan_id":"cebpf4jnsgd1na2vs0mg"},{"bike_id":"538a584d-d382-4dce-b3a7-e6b413b8b857","system_id":"levelo_inurba_marseille","lat":43.30462,"lon":5.37913,"is_reserved":false,"is_disabled":false,"rental_uris":{"android":"levelo://app?vid=538a584d-d382-4dce-b3a7-e6b413b8b857","ios":"levelo://app?vid=538a584d-d382-4dce-b3a7-e6b413b8b857"},"vehicle_type_id":"4","last_reported":1743026939,"current_range_meters":3600,"station_id":"ce4bgup2rcd13ifvqcn0","pricing_plan_id":"cebpf4jnsgd1na2vs0mg"},{"bike_id":"a9c99d83-0759-483c-a6a3-bf37c98df50d","system_id":"levelo_inurba_marseille","lat":43.28428,"lon":5.35874,"is_reserved":false,"is_disabled":false,"rental_uris":{"android":"levelo://app?vid=a9c99d83-0759-483c-a6a3-bf37c98df50d","ios":"levelo://app?vid=a9c99d83-0759-483c-a6a3-bf37c98df50d"},"vehicle_type_id":"4","last_reported":1743026939,"current_range_meters":4000,"station_id":"ce4bhah2rcd13ifvqei0","pricing_plan_id":"cebpf4jnsgd1na2vs0mg"},{"bike_id":"01bcb2f5-8344-46f6-b91e-61d5c61b0275","system_id":"levelo_inurba_marseille","lat":43.277956,"lon":5.405903,"is_reserved":false,"is_disabled":false,"rental_uris":{"android":"levelo://app?vid=01bcb2f5-8344-46f6-b91e-61d5c61b0275","ios":"levelo://app?vid=01bcb2f5-8344-46f6-b91e-61d5c61b0275"},"vehicle_type_id":"4","last_reported":1743026939,"current_range_meters":4000,"station_id":"ce4bhnh2rcd13ifvqgtg","pricing_plan_id":"cebpf4jnsgd1na2vs0mg"},{"bike_id":"e1c0f517-dee2-4e0c-8b09-99e55dd1bcd7","system_id":"levelo_inurba_marseille","lat":43.29806,"lon":5.40406,"is_reserved":false,"is_disabled":false,"rental_uris":{"android":"levelo://app?vid=e1c0f517-dee2-4e0c-8b09-99e55dd1bcd7","ios":"levelo://app?vid=e1c0f517-dee2-4e0c-8b09-99e55dd1bcd7"},"vehicle_type_id":"4","last_reported":1743026939,"current_range_meters":4000,"station_id":"ce4bh112rcd13ifvqd90","pricing_plan_id":"cebpf4jnsgd1na2vs0mg"},{"bike_id":"f091d87e-c883-41f6-952e-e46142e70564","system_id":"levelo_inurba_marseille","lat":43.28616,"lon":5.35106,"is_reserved":false,"is_disabled":false,"rental_uris":{"android":"levelo://app?vid=f091d87e-c883-41f6-952e-e46142e70564","ios":"levelo://app?vid=f091d87e-c883-41f6-952e-e46142e70564"},"vehicle_type_id":"4","last_reported":1743026939,"current_range_meters":4000,"station_id":"ce4bhch2rcd13ifvqeug","pricing_plan_id":"cebpf4jnsgd1na2vs0mg"},{"bike_id":"fc507e55-7fe6-4d81-87c3-bf8e75d99534","system_id":"levelo_inurba_marseille","lat":43.248282,"lon":5.374514,"is_reserved":false,"is_disabled":false,"rental_uris":{"android":"levelo://app?vid=fc507e55-7fe6-4d81-87c3-bf8e75d99534","ios":"levelo://app?vid=fc507e55-7fe6-4d81-87c3-bf8e75d99534"},"vehicle_type_id":"4","last_reported":1743026939,"current_range_meters":4000,"station_id":"ce4bhgh2rcd13ifvqfb0","pricing_plan_id":"cebpf4jnsgd1na2vs0mg"},{"bike_id":"ecbc6532-c0a4-4c26-8397-4c53c3bf0145","system_id":"levelo_inurba_marseille","lat":43.29623,"lon":5.40571,"is_reserved":false,"is_disabled":false,"rental_uris":{"android":"levelo://app?vid=ecbc6532-c0a4-4c26-8397-4c53c3bf0145","ios":"levelo://app?vid=ecbc6532-c0a4-4c26-8397-4c53c3bf0145"},"vehicle_type_id":"4","last_reported":1743026939,"current_range_meters":4000,"station_id":"ce4bh0h2rcd13ifvqd60","pricing_plan_id":"cebpf4jnsgd1na2vs0mg"},{"bike_id":"5bc5431f-38ea-436f-9092-b2e2cdd5def6","system_id":"levelo_inurba_marseille","lat":43.294211,"lon":5.38607,"is_reserved":false,"is_disabled":false,"rental_uris":{"android":"levelo://app?vid=5bc5431f-38ea-436f-9092-b2e2cdd5def6","ios":"levelo://app?vid=5bc5431f-38ea-436f-9092-b2e2cdd5def6"},"vehicle_type_id":"4","last_reported":1743026939,"current_range_meters":4000,"station_id":"","pricing_plan_id":"cebpf4jnsgd1na2vs0mg"},{"bike_id":"6b4c3a37-a510-4b76-8175-22d797a94f5f","system_id":"levelo_inurba_marseille","lat":43.30924,"lon":5.40147,"is_reserved":false,"is_disabled":false,"rental_uris":{"android":"levelo://app?vid=6b4c3a37-a510-4b76-8175-22d797a94f5f","ios":"levelo://app?vid=6b4c3a37-a510-4b76-8175-22d797a94f5f"},"vehicle_type_id":"4","last_reported":1743026939,"current_range_meters":4000,"station_id":"ce4bgvp2rcd13ifvqct0","pricing_plan_id":"cebpf4jnsgd1na2vs0mg"},{"bike_id":"430c3b2f-ce28-466f-bf46-972a037d9be1","system_id":"levelo_inurba_marseille","lat":43.25821,"lon":5.39439,"is_reserved":false,"is_disabled":false,"rental_uris":{"android":"levelo://app?vid=430c3b2f-ce28-466f-bf46-972a037d9be1","ios":"levelo://app?vid=430c3b2f-ce28-466f-bf46-972a037d9be1"},"vehicle_type_id":"4","last_reported":1743026939,"current_range_meters":4400,"station_id":"ce4bhip2rcd13ifvqft0","pricing_plan_id":"cebpf4jnsgd1na2vs0mg"},{"bike_id":"f393c367-4b1a-4822-a11c-2fc8e333083c","system_id":"levelo_inurba_marseille","lat":43.24648,"lon":5.38902,"is_reserved":false,"is_disabled":false,"rental_uris":{"android":"levelo://app?vid=f393c367-4b1a-4822-a11c-2fc8e333083c","ios":"levelo://app?vid=f393c367-4b1a-4822-a11c-2fc8e333083c"},"vehicle_type_id":"4","last_reported":1743026939,"current_range_meters":4400,"station_id":"ce4bhg12rcd13ifvqf60","pricing_plan_id":"cebpf4jnsgd1na2vs0mg"},{"bike_id":"d9513bf5-f255-462a-a7d5-c6e6b011af31","system_id":"levelo_inurba_marseille","lat":43.27811,"lon":5.40732,"is_reserved":false,"is_disabled":true,"rental_uris":{"android":"levelo://app?vid=d9513bf5-f255-462a-a7d5-c6e6b011af31","ios":"levelo://app?vid=d9513bf5-f255-462a-a7d5-c6e6b011af31"},"vehicle_type_id":"4","last_reported":1743026939,"current_range_meters":4400,"station_id":"ce4bhnh2rcd13ifvqgtg","pricing_plan_id":"cebpf4jnsgd1na2vs0mg"},{"bike_id":"ab5f8c47-7bc7-40a2-b08d-72006dab1816","system_id":"levelo_inurba_marseille","lat":43.2953,"lon":5.39036,"is_reserved":false,"is_disabled":false,"rental_uris":{"android":"levelo://app?vid=ab5f8c47-7bc7-40a2-b08d-72006dab1816","ios":"levelo://app?vid=ab5f8c47-7bc7-40a2-b08d-72006dab1816"},"vehicle_type_id":"4","last_reported":1743026939,"current_range_meters":4400,"station_id":"ce4bh3p2rcd13ifvqdp0","pricing_plan_id":"cebpf4jnsgd1na2vs0mg"},{"bike_id":"1f5e709d-c27d-4647-80aa-22f510a1a0fd","system_id":"levelo_inurba_marseille","lat":43.23168,"lon":5.39986,"is_reserved":false,"is_disabled":false,"rental_uris":{"android":"levelo://app?vid=1f5e709d-c27d-4647-80aa-22f510a1a0fd","ios":"levelo://app?vid=1f5e709d-c27d-4647-80aa-22f510a1a0fd"},"vehicle_type_id":"4","last_reported":1743026939,"current_range_meters":4400,"station_id":"ce4bhn12rcd13ifvqgqg","pricing_plan_id":"cebpf4jnsgd1na2vs0mg"},{"bike_id":"aee8443e-f446-49d1-be7e-171ea427da88","system_id":"levelo_inurba_marseille","lat":43.28483,"lon":5.38571,"is_reserved":false,"is_disabled":false,"rental_uris":{"android":"levelo://app?vid=aee8443e-f446-49d1-be7e-171ea427da88","ios":"levelo://app?vid=aee8443e-f446-49d1-be7e-171ea427da88"},"vehicle_type_id":"4","last_reported":1743026939,"current_range_meters":4800,"station_id":"ce4bh8p2rcd13ifvqeb0","pricing_plan_id":"cebpf4jnsgd1na2vs0mg"},{"bike_id":"c987315b-c2f4-4cef-9907-a198f1f04f5a","system_id":"levelo_inurba_marseille","lat":43.28019,"lon":5.3999,"is_reserved":false,"is_disabled":false,"rental_uris":{"android":"levelo://app?vid=c987315b-c2f4-4cef-9907-a198f1f04f5a","ios":"levelo://app?vid=c987315b-c2f4-4cef-9907-a198f1f04f5a"},"vehicle_type_id":"4","last_reported":1743026939,"current_range_meters":4800,"station_id":"ce4bho92rcd13ifvqh4g","pricing_plan_id":"cebpf4jnsgd1na2vs0mg"},{"bike_id":"0b792fd1-4611-4b05-b1d5-0145989d2dc8","system_id":"levelo_inurba_marseille","lat":43.25801,"lon":5.3944,"is_reserved":false,"is_disabled":false,"rental_uris":{"android":"levelo://app?vid=0b792fd1-4611-4b05-b1d5-0145989d2dc8","ios":"levelo://app?vid=0b792fd1-4611-4b05-b1d5-0145989d2dc8"},"vehicle_type_id":"4","last_reported":1743026939,"current_range_meters":4800,"station_id":"ce4bhip2rcd13ifvqft0","pricing_plan_id":"cebpf4jnsgd1na2vs0mg"},{"bike_id":"7d944d2b-bdbb-4dfe-b8d5-68d8eb03245d","system_id":"levelo_inurba_marseille","lat":43.2465,"lon":5.38904,"is_reserved":false,"is_disabled":false,"rental_uris":{"android":"levelo://app?vid=7d944d2b-bdbb-4dfe-b8d5-68d8eb03245d","ios":"levelo://app?vid=7d944d2b-bdbb-4dfe-b8d5-68d8eb03245d"},"vehicle_type_id":"4","last_reported":1743026939,"current_range_meters":4800,"station_id":"ce4bhg12rcd13ifvqf60","pricing_plan_id":"cebpf4jnsgd1na2vs0mg"},{"bike_id":"77823725-c761-49bc-902c-64c32b686ae7","system_id":"levelo_inurba_marseille","lat":43.23056,"lon":5.35507,"is_reserved":false,"is_disabled":false,"rental_uris":{"android":"levelo://app?vid=77823725-c761-49bc-902c-64c32b686ae7","ios":"levelo://app?vid=77823725-c761-49bc-902c-64c32b686ae7"},"vehicle_type_id":"4","last_reported":1743026939,"current_range_meters":4800,"station_id":"cpo3342slgdg3j2ifvpg","pricing_plan_id":"cebpf4jnsgd1na2vs0mg"},{"bike_id":"885d99e2-17a6-4538-a4be-5c3403f78714","system_id":"levelo_inurba_marseille","lat":43.28613,"lon":5.35105,"is_reserved":false,"is_disabled":false,"rental_uris":{"android":"levelo://app?vid=885d99e2-17a6-4538-a4be-5c3403f78714","ios":"levelo://app?vid=885d99e2-17a6-4538-a4be-5c3403f78714"},"vehicle_type_id":"4","last_reported":1743026939,"current_range_meters":4800,"station_id":"ce4bhch2rcd13ifvqeug","pricing_plan_id":"cebpf4jnsgd1na2vs0mg"},{"bike_id":"80420c83-94fc-4929-a66b-5fc6f7c139bd","system_id":"levelo_inurba_marseille","lat":43.2834,"lon":5.38099,"is_reserved":false,"is_disabled":false,"rental_uris":{"android":"levelo://app?vid=80420c83-94fc-4929-a66b-5fc6f7c139bd","ios":"levelo://app?vid=80420c83-94fc-4929-a66b-5fc6f7c139bd"},"vehicle_type_id":"4","last_reported":1743026939,"current_range_meters":4800,"station_id":"ce4bh412rcd13ifvqdr0","pricing_plan_id":"cebpf4jnsgd1na2vs0mg"},{"bike_id":"7e628bd8-f74d-4310-8492-8512d6f315fe","system_id":"levelo_inurba_marseille","lat":43.231907,"lon":5.399893,"is_reserved":false,"is_disabled":false,"rental_uris":{"android":"levelo://app?vid=7e628bd8-f74d-4310-8492-8512d6f315fe","ios":"levelo://app?vid=7e628bd8-f74d-4310-8492-8512d6f315fe"},"vehicle_type_id":"4","last_reported":1743026939,"current_range_meters":4800,"station_id":"ce4bhn12rcd13ifvqgqg","pricing_plan_id":"cebpf4jnsgd1na2vs0mg"},{"bike_id":"1166a390-5ee0-4599-b63d-b09cb15c0001","system_id":"levelo_inurba_marseille","lat":43.2408,"lon":5.37736,"is_reserved":false,"is_disabled":false,"rental_uris":{"android":"levelo://app?vid=1166a390-5ee0-4599-b63d-b09cb15c0001","ios":"levelo://app?vid=1166a390-5ee0-4599-b63d-b09cb15c0001"},"vehicle_type_id":"4","last_reported":1743026939,"current_range_meters":5600,"station_id":"ce4bhnp2rcd13ifvqgvg","pricing_plan_id":"cebpf4jnsgd1na2vs0mg"},{"bike_id":"3cd9b5bc-fba0-4545-94d0-e86f3d302f0f","system_id":"levelo_inurba_marseille","lat":43.2818,"lon":5.42666,"is_reserved":false,"is_disabled":false,"rental_uris":{"android":"levelo://app?vid=3cd9b5bc-fba0-4545-94d0-e86f3d302f0f","ios":"levelo://app?vid=3cd9b5bc-fba0-4545-94d0-e86f3d302f0f"},"vehicle_type_id":"4","last_reported":1743026939,"current_range_meters":5600,"station_id":"ce4bhnh2rcd13ifvqgug","pricing_plan_id":"cebpf4jnsgd1na2vs0mg"},{"bike_id":"af5016a9-ef25-4eca-98b5-b0e52eee7fcf","system_id":"levelo_inurba_marseille","lat":43.288421,"lon":5.393138,"is_reserved":false,"is_disabled":false,"rental_uris":{"android":"levelo://app?vid=af5016a9-ef25-4eca-98b5-b0e52eee7fcf","ios":"levelo://app?vid=af5016a9-ef25-4eca-98b5-b0e52eee7fcf"},"vehicle_type_id":"4","last_reported":1743026939,"current_range_meters":5600,"station_id":"","pricing_plan_id":"cebpf4jnsgd1na2vs0mg"},{"bike_id":"054613ea-f6f8-4bc5-9db6-662a488460db","system_id":"levelo_inurba_marseille","lat":43.30214,"lon":5.39472,"is_reserved":false,"is_disabled":false,"rental_uris":{"android":"levelo://app?vid=054613ea-f6f8-4bc5-9db6-662a488460db","ios":"levelo://app?vid=054613ea-f6f8-4bc5-9db6-662a488460db"},"vehicle_type_id":"4","last_reported":1743026939,"current_range_meters":5600,"station_id":"ce4bh0p2rcd13ifvqd70","pricing_plan_id":"cebpf4jnsgd1na2vs0mg"},{"bike_id":"ea058543-5b6a-48af-855d-c8588b5d0075","system_id":"levelo_inurba_marseille","lat":43.2815,"lon":5.42662,"is_reserved":false,"is_disabled":false,"rental_uris":{"android":"levelo://app?vid=ea058543-5b6a-48af-855d-c8588b5d0075","ios":"levelo://app?vid=ea058543-5b6a-48af-855d-c8588b5d0075"},"vehicle_type_id":"4","last_reported":1743026939,"current_range_meters":5600,"station_id":"ce4bhnh2rcd13ifvqgug","pricing_plan_id":"cebpf4jnsgd1na2vs0mg"},{"bike_id":"d16c1c98-4e1e-44d6-8411-3ea8edfbc933","system_id":"levelo_inurba_marseille","lat":43.29966,"lon":5.38492,"is_reserved":false,"is_disabled":false,"rental_uris":{"android":"levelo://app?vid=d16c1c98-4e1e-44d6-8411-3ea8edfbc933","ios":"levelo://app?vid=d16c1c98-4e1e-44d6-8411-3ea8edfbc933"},"vehicle_type_id":"4","last_reported":1743026939,"current_range_meters":5600,"station_id":"ce4bgj92rcd13ifvqbd0","pricing_plan_id":"cebpf4jnsgd1na2vs0mg"},{"bike_id":"ac16162e-9eb6-40a2-ae8b-a763f64ec361","system_id":"levelo_inurba_marseille","lat":43.28996,"lon":5.35619,"is_reserved":false,"is_disabled":true,"rental_uris":{"android":"levelo://app?vid=ac16162e-9eb6-40a2-ae8b-a763f64ec361","ios":"levelo://app?vid=ac16162e-9eb6-40a2-ae8b-a763f64ec361"},"vehicle_type_id":"4","last_reported":1743026939,"current_range_meters":6000,"station_id":"ce4bhb92rcd13ifvqen0","pricing_plan_id":"cebpf4jnsgd1na2vs0mg"},{"bike_id":"e4798d35-af97-409c-97a5-02717dcc5fec","system_id":"levelo_inurba_marseille","lat":43.296028,"lon":5.38095,"is_reserved":false,"is_disabled":false,"rental_uris":{"android":"levelo://app?vid=e4798d35-af97-409c-97a5-02717dcc5fec","ios":"levelo://app?vid=e4798d35-af97-409c-97a5-02717dcc5fec"},"vehicle_type_id":"4","last_reported":1743026939,"current_range_meters":6000,"station_id":"ce4bhip2rcd13ifvqft0","pricing_plan_id":"cebpf4jnsgd1na2vs0mg"},{"bike_id":"02ad8c22-e081-411e-88d5-20a7dac6d9a6","system_id":"levelo_inurba_marseille","lat":43.29897,"lon":5.36533,"is_reserved":false,"is_disabled":false,"rental_uris":{"android":"levelo://app?vid=02ad8c22-e081-411e-88d5-20a7dac6d9a6","ios":"levelo://app?vid=02ad8c22-e081-411e-88d5-20a7dac6d9a6"},"vehicle_type_id":"4","last_reported":1743026939,"current_range_meters":6000,"station_id":"ce4bgm92rcd13ifvqbr0","pricing_plan_id":"cebpf4jnsgd1na2vs0mg"},{"bike_id":"4e7e55da-886e-42ba-a858-6b5d5a1bf7cb","system_id":"levelo_inurba_marseille","lat":43.33633,"lon":5.40962,"is_reserved":false,"is_disabled":false,"rental_uris":{"android":"levelo://app?vid=4e7e55da-886e-42ba-a858-6b5d5a1bf7cb","ios":"levelo://app?vid=4e7e55da-886e-42ba-a858-6b5d5a1bf7cb"},"vehicle_type_id":"4","last_reported":1743026939,"current_range_meters":6000,"station_id":"ce4bhqh2rcd13ifvqhmg","pricing_plan_id":"cebpf4jnsgd1na2vs0mg"},{"bike_id":"2bc60d58-eca8-489a-9ab7-436d7b576939","system_id":"levelo_inurba_marseille","lat":43.29895,"lon":5.43659,"is_reserved":false,"is_disabled":false,"rental_uris":{"android":"levelo://app?vid=2bc60d58-eca8-489a-9ab7-436d7b576939","ios":"levelo://app?vid=2bc60d58-eca8-489a-9ab7-436d7b576939"},"vehicle_type_id":"4","last_reported":1743026939,"current_range_meters":6400,"station_id":"ce4bhpp2rcd13ifvqhfg","pricing_plan_id":"cebpf4jnsgd1na2vs0mg"},{"bike_id":"2f1f7597-309f-462b-84a5-3e9300b9211f","system_id":"levelo_inurba_marseille","lat":43.31268,"lon":5.40172,"is_reserved":false,"is_disabled":false,"rental_uris":{"android":"levelo://app?vid=2f1f7597-309f-462b-84a5-3e9300b9211f","ios":"levelo://app?vid=2f1f7597-309f-462b-84a5-3e9300b9211f"},"vehicle_type_id":"4","last_reported":1743026939,"current_range_meters":6400,"station_id":"ce4bh092rcd13ifvqd30","pricing_plan_id":"cebpf4jnsgd1na2vs0mg"},{"bike_id":"5aaac380-ba77-4ed5-aced-d797d5b86f53","system_id":"levelo_inurba_marseille","lat":43.30875,"lon":5.37781,"is_reserved":false,"is_disabled":false,"rental_uris":{"android":"levelo://app?vid=5aaac380-ba77-4ed5-aced-d797d5b86f53","ios":"levelo://app?vid=5aaac380-ba77-4ed5-aced-d797d5b86f53"},"vehicle_type_id":"4","last_reported":1743026939,"current_range_meters":6400,"station_id":"","pricing_plan_id":"cebpf4jnsgd1na2vs0mg"},{"bike_id":"d5804ad3-33e7-454e-b7d4-322b214049f7","system_id":"levelo_inurba_marseille","lat":43.24674,"lon":5.38142,"is_reserved":false,"is_disabled":false,"rental_uris":{"android":"levelo://app?vid=d5804ad3-33e7-454e-b7d4-322b214049f7","ios":"levelo://app?vid=d5804ad3-33e7-454e-b7d4-322b214049f7"},"vehicle_type_id":"4","last_reported":1743026939,"current_range_meters":6400,"station_id":"ce4bhih2rcd13ifvqfr0","pricing_plan_id":"cebpf4jnsgd1na2vs0mg"},{"bike_id":"9601d59f-89ef-43d4-96ab-0586b4d92927","system_id":"levelo_inurba_marseille","lat":43.27813,"lon":5.40718,"is_reserved":false,"is_disabled":false,"rental_uris":{"android":"levelo://app?vid=9601d59f-89ef-43d4-96ab-0586b4d92927","ios":"levelo://app?vid=9601d59f-89ef-43d4-96ab-0586b4d92927"},"vehicle_type_id":"4","last_reported":1743026939,"current_range_meters":6400,"station_id":"ce4bhnh2rcd13ifvqgtg","pricing_plan_id":"cebpf4jnsgd1na2vs0mg"},{"bike_id":"48822a6e-9863-438b-b433-8ccb3f8db96d","system_id":"levelo_inurba_marseille","lat":43.31696,"lon":5.37643,"is_reserved":false,"is_disabled":true,"rental_uris":{"android":"levelo://app?vid=48822a6e-9863-438b-b433-8ccb3f8db96d","ios":"levelo://app?vid=48822a6e-9863-438b-b433-8ccb3f8db96d"},"vehicle_type_id":"4","last_reported":1743026939,"current_range_meters":6400,"station_id":"","pricing_plan_id":"cebpf4jnsgd1na2vs0mg"},{"bike_id":"35f1432b-c929-4f89-82cf-51b4fa739eb0","system_id":"levelo_inurba_marseille","lat":43.28029,"lon":5.369374,"is_reserved":false,"is_disabled":false,"rental_uris":{"android":"levelo://app?vid=35f1432b-c929-4f89-82cf-51b4fa739eb0","ios":"levelo://app?vid=35f1432b-c929-4f89-82cf-51b4fa739eb0"},"vehicle_type_id":"4","last_reported":1743026939,"current_range_meters":6400,"station_id":"ce4bha12rcd13ifvqef0","pricing_plan_id":"cebpf4jnsgd1na2vs0mg"},{"bike_id":"04146b82-3b61-4336-b474-7fb27e97d80e","system_id":"levelo_inurba_marseille","lat":43.28014,"lon":5.36943,"is_reserved":false,"is_disabled":false,"rental_uris":{"android":"levelo://app?vid=04146b82-3b61-4336-b474-7fb27e97d80e","ios":"levelo://app?vid=04146b82-3b61-4336-b474-7fb27e97d80e"},"vehicle_type_id":"4","last_reported":1743026939,"current_range_meters":6800,"station_id":"ce4bha12rcd13ifvqef0","pricing_plan_id":"cebpf4jnsgd1na2vs0mg"},{"bike_id":"bc730583-7b91-42f4-af40-6154b03ad6ac","system_id":"levelo_inurba_marseille","lat":43.30931,"lon":5.40149,"is_reserved":false,"is_disabled":false,"rental_uris":{"android":"levelo://app?vid=bc730583-7b91-42f4-af40-6154b03ad6ac","ios":"levelo://app?vid=bc730583-7b91-42f4-af40-6154b03ad6ac"},"vehicle_type_id":"4","last_reported":1743026939,"current_range_meters":6800,"station_id":"ce4bgvp2rcd13ifvqct0","pricing_plan_id":"cebpf4jnsgd1na2vs0mg"},{"bike_id":"815ce4c1-5c17-442c-86e9-ab00ca97efd7","system_id":"levelo_inurba_marseille","lat":43.29264,"lon":5.37643,"is_reserved":false,"is_disabled":false,"rental_uris":{"android":"levelo://app?vid=815ce4c1-5c17-442c-86e9-ab00ca97efd7","ios":"levelo://app?vid=815ce4c1-5c17-442c-86e9-ab00ca97efd7"},"vehicle_type_id":"4","last_reported":1743026939,"current_range_meters":6800,"station_id":"ce4bgi12rcd13ifvqb80","pricing_plan_id":"cebpf4jnsgd1na2vs0mg"},{"bike_id":"44156654-a4cf-4f20-b992-8a27bbcc69ed","system_id":"levelo_inurba_marseille","lat":43.23193,"lon":5.39985,"is_reserved":false,"is_disabled":true,"rental_uris":{"android":"levelo://app?vid=44156654-a4cf-4f20-b992-8a27bbcc69ed","ios":"levelo://app?vid=44156654-a4cf-4f20-b992-8a27bbcc69ed"},"vehicle_type_id":"4","last_reported":1743026939,"current_range_meters":6800,"station_id":"ce4bhn12rcd13ifvqgqg","pricing_plan_id":"cebpf4jnsgd1na2vs0mg"},{"bike_id":"a6460627-511d-44ea-a912-da2085b0a119","system_id":"levelo_inurba_marseille","lat":43.29398,"lon":5.38657,"is_reserved":false,"is_disabled":true,"rental_uris":{"android":"levelo://app?vid=a6460627-511d-44ea-a912-da2085b0a119","ios":"levelo://app?vid=a6460627-511d-44ea-a912-da2085b0a119"},"vehicle_type_id":"4","last_reported":1743026939,"current_range_meters":6800,"station_id":"ce4bh2h2rcd13ifvqdh0","pricing_plan_id":"cebpf4jnsgd1na2vs0mg"},{"bike_id":"8b0643ce-934f-49d4-aae3-32dc3ec1ff83","system_id":"levelo_inurba_marseille","lat":43.28156,"lon":5.42651,"is_reserved":false,"is_disabled":false,"rental_uris":{"android":"levelo://app?vid=8b0643ce-934f-49d4-aae3-32dc3ec1ff83","ios":"levelo://app?vid=8b0643ce-934f-49d4-aae3-32dc3ec1ff83"},"vehicle_type_id":"4","last_reported":1743026939,"current_range_meters":6800,"station_id":"ce4bhnh2rcd13ifvqgug","pricing_plan_id":"cebpf4jnsgd1na2vs0mg"},{"bike_id":"1bf59f1e-0dce-4f29-a801-54e4e962cd4c","system_id":"levelo_inurba_marseille","lat":43.31345,"lon":5.39691,"is_reserved":false,"is_disabled":false,"rental_uris":{"android":"levelo://app?vid=1bf59f1e-0dce-4f29-a801-54e4e962cd4c","ios":"levelo://app?vid=1bf59f1e-0dce-4f29-a801-54e4e962cd4c"},"vehicle_type_id":"4","last_reported":1743026939,"current_range_meters":6800,"station_id":"ce4bgvp2rcd13ifvqcu0","pricing_plan_id":"cebpf4jnsgd1na2vs0mg"},{"bike_id":"3caf9297-9162-427d-b86d-54632f9b80d9","system_id":"levelo_inurba_marseille","lat":43.278124,"lon":5.40719,"is_reserved":false,"is_disabled":false,"rental_uris":{"android":"levelo://app?vid=3caf9297-9162-427d-b86d-54632f9b80d9","ios":"levelo://app?vid=3caf9297-9162-427d-b86d-54632f9b80d9"},"vehicle_type_id":"4","last_reported":1743026939,"current_range_meters":6800,"station_id":"ce4bhnh2rcd13ifvqgtg","pricing_plan_id":"cebpf4jnsgd1na2vs0mg"},{"bike_id":"2094bf05-617a-407a-906e-e37bb5a2c126","system_id":"levelo_inurba_marseille","lat":43.26552,"lon":5.37285,"is_reserved":false,"is_disabled":false,"rental_uris":{"android":"levelo://app?vid=2094bf05-617a-407a-906e-e37bb5a2c126","ios":"levelo://app?vid=2094bf05-617a-407a-906e-e37bb5a2c126"},"vehicle_type_id":"4","last_reported":1743026939,"current_range_meters":7200,"station_id":"ce4bhg12rcd13ifvqf70","pricing_plan_id":"cebpf4jnsgd1na2vs0mg"},{"bike_id":"589f1146-20bc-4a88-9ab7-60ee275b3000","system_id":"levelo_inurba_marseille","lat":43.29691,"lon":5.38008,"is_reserved":false,"is_disabled":false,"rental_uris":{"android":"levelo://app?vid=589f1146-20bc-4a88-9ab7-60ee275b3000","ios":"levelo://app?vid=589f1146-20bc-4a88-9ab7-60ee275b3000"},"vehicle_type_id":"4","last_reported":1743026939,"current_range_meters":7200,"station_id":"","pricing_plan_id":"cebpf4jnsgd1na2vs0mg"},{"bike_id":"9e414f59-5d13-4847-984b-695d5e36104b","system_id":"levelo_inurba_marseille","lat":43.27877,"lon":5.41198,"is_reserved":false,"is_disabled":false,"rental_uris":{"android":"levelo://app?vid=9e414f59-5d13-4847-984b-695d5e36104b","ios":"levelo://app?vid=9e414f59-5d13-4847-984b-695d5e36104b"},"vehicle_type_id":"4","last_reported":1743026939,"current_range_meters":7200,"station_id":"","pricing_plan_id":"cebpf4jnsgd1na2vs0mg"},{"bike_id":"e40ca3db-9cd3-4e7c-a6c9-9922c73b5079","system_id":"levelo_inurba_marseille","lat":43.30376,"lon":5.42487,"is_reserved":false,"is_disabled":false,"rental_uris":{"android":"levelo://app?vid=e40ca3db-9cd3-4e7c-a6c9-9922c73b5079","ios":"levelo://app?vid=e40ca3db-9cd3-4e7c-a6c9-9922c73b5079"},"vehicle_type_id":"4","last_reported":1743026939,"current_range_meters":7200,"station_id":"ce4bhoh2rcd13ifvqh6g","pricing_plan_id":"cebpf4jnsgd1na2vs0mg"},{"bike_id":"72e02afd-92da-413a-880d-3f2e60017e25","system_id":"levelo_inurba_marseille","lat":43.29206,"lon":5.35795,"is_reserved":false,"is_disabled":false,"rental_uris":{"android":"levelo://app?vid=72e02afd-92da-413a-880d-3f2e60017e25","ios":"levelo://app?vid=72e02afd-92da-413a-880d-3f2e60017e25"},"vehicle_type_id":"4","last_reported":1743026939,"current_range_meters":7200,"station_id":"ce4bhb12rcd13ifvqel0","pricing_plan_id":"cebpf4jnsgd1na2vs0mg"},{"bike_id":"ba928e2c-172e-4d95-afa4-8dab7a73bb9a","system_id":"levelo_inurba_marseille","lat":43.30958,"lon":5.39614,"is_reserved":false,"is_disabled":false,"rental_uris":{"android":"levelo://app?vid=ba928e2c-172e-4d95-afa4-8dab7a73bb9a","ios":"levelo://app?vid=ba928e2c-172e-4d95-afa4-8dab7a73bb9a"},"vehicle_type_id":"4","last_reported":1743026939,"current_range_meters":7200,"station_id":"","pricing_plan_id":"cebpf4jnsgd1na2vs0mg"},{"bike_id":"a5fb06d1-c469-4515-9522-548b956fd2b3","system_id":"levelo_inurba_marseille","lat":43.31755,"lon":5.39026,"is_reserved":false,"is_disabled":false,"rental_uris":{"android":"levelo://app?vid=a5fb06d1-c469-4515-9522-548b956fd2b3","ios":"levelo://app?vid=a5fb06d1-c469-4515-9522-548b956fd2b3"},"vehicle_type_id":"4","last_reported":1743026939,"current_range_meters":7200,"station_id":"ce4bhqp2rcd13ifvqhng","pricing_plan_id":"cebpf4jnsgd1na2vs0mg"},{"bike_id":"bf24ded8-23e1-417c-b5d8-5c062c9776ae","system_id":"levelo_inurba_marseille","lat":43.23187,"lon":5.39978,"is_reserved":false,"is_disabled":false,"rental_uris":{"android":"levelo://app?vid=bf24ded8-23e1-417c-b5d8-5c062c9776ae","ios":"levelo://app?vid=bf24ded8-23e1-417c-b5d8-5c062c9776ae"},"vehicle_type_id":"4","last_reported":1743026939,"current_range_meters":7200,"station_id":"ce4bhn12rcd13ifvqgqg","pricing_plan_id":"cebpf4jnsgd1na2vs0mg"},{"bike_id":"fc2186a3-9143-4ddc-a7af-47ab8ad9a861","system_id":"levelo_inurba_marseille","lat":43.3111,"lon":5.37776,"is_reserved":false,"is_disabled":false,"rental_uris":{"android":"levelo://app?vid=fc2186a3-9143-4ddc-a7af-47ab8ad9a861","ios":"levelo://app?vid=fc2186a3-9143-4ddc-a7af-47ab8ad9a861"},"vehicle_type_id":"4","last_reported":1743026939,"current_range_meters":7200,"station_id":"ce4bgt92rcd13ifvqcg0","pricing_plan_id":"cebpf4jnsgd1na2vs0mg"},{"bike_id":"067247e0-a27c-4e52-9052-c6b9eea5c7f4","system_id":"levelo_inurba_marseille","lat":43.31386,"lon":5.37448,"is_reserved":false,"is_disabled":false,"rental_uris":{"android":"levelo://app?vid=067247e0-a27c-4e52-9052-c6b9eea5c7f4","ios":"levelo://app?vid=067247e0-a27c-4e52-9052-c6b9eea5c7f4"},"vehicle_type_id":"4","last_reported":1743026939,"current_range_meters":7200,"station_id":"","pricing_plan_id":"cebpf4jnsgd1na2vs0mg"},{"bike_id":"3789873a-1dd9-4f31-847a-52f0d7019a2f","system_id":"levelo_inurba_marseille","lat":43.23963,"lon":5.366403,"is_reserved":false,"is_disabled":false,"rental_uris":{"android":"levelo://app?vid=3789873a-1dd9-4f31-847a-52f0d7019a2f","ios":"levelo://app?vid=3789873a-1dd9-4f31-847a-52f0d7019a2f"},"vehicle_type_id":"4","last_reported":1743026939,"current_range_meters":7200,"station_id":"ce4bhi12rcd13ifvqfp0","pricing_plan_id":"cebpf4jnsgd1na2vs0mg"},{"bike_id":"308ec19f-b75d-4169-9e70-bb5e6ffe4a06","system_id":"levelo_inurba_marseille","lat":43.28495,"lon":5.39511,"is_reserved":false,"is_disabled":false,"rental_uris":{"android":"levelo://app?vid=308ec19f-b75d-4169-9e70-bb5e6ffe4a06","ios":"levelo://app?vid=308ec19f-b75d-4169-9e70-bb5e6ffe4a06"},"vehicle_type_id":"4","last_reported":1743026939,"current_range_meters":7200,"station_id":"","pricing_plan_id":"cebpf4jnsgd1na2vs0mg"},{"bike_id":"ee28380f-2566-499f-8ab8-5a75cb1ed72f","system_id":"levelo_inurba_marseille","lat":43.288329,"lon":5.393258,"is_reserved":false,"is_disabled":true,"rental_uris":{"android":"levelo://app?vid=ee28380f-2566-499f-8ab8-5a75cb1ed72f","ios":"levelo://app?vid=ee28380f-2566-499f-8ab8-5a75cb1ed72f"},"vehicle_type_id":"4","last_reported":1743026939,"current_range_meters":7200,"station_id":"","pricing_plan_id":"cebpf4jnsgd1na2vs0mg"},{"bike_id":"c83f3ed5-6716-4830-8a73-acfbdfedf2d0","system_id":"levelo_inurba_marseille","lat":43.2796,"lon":5.38747,"is_reserved":false,"is_disabled":false,"rental_uris":{"android":"levelo://app?vid=c83f3ed5-6716-4830-8a73-acfbdfedf2d0","ios":"levelo://app?vid=c83f3ed5-6716-4830-8a73-acfbdfedf2d0"},"vehicle_type_id":"4","last_reported":1743026939,"current_range_meters":6800,"station_id":"ce4bhg12rcd13ifvqf80","pricing_plan_id":"cebpf4jnsgd1na2vs0mg"},{"bike_id":"494edb5c-8886-472a-b4b2-0033adc0ccbd","system_id":"levelo_inurba_marseille","lat":43.232,"lon":5.39979,"is_reserved":false,"is_disabled":false,"rental_uris":{"android":"levelo://app?vid=494edb5c-8886-472a-b4b2-0033adc0ccbd","ios":"levelo://app?vid=494edb5c-8886-472a-b4b2-0033adc0ccbd"},"vehicle_type_id":"4","last_reported":1743026939,"current_range_meters":7200,"station_id":"ce4bhn12rcd13ifvqgqg","pricing_plan_id":"cebpf4jnsgd1na2vs0mg"},{"bike_id":"316628de-9261-4f78-bc0d-0476a50caf90","system_id":"levelo_inurba_marseille","lat":43.29881,"lon":5.4366,"is_reserved":false,"is_disabled":false,"rental_uris":{"android":"levelo://app?vid=316628de-9261-4f78-bc0d-0476a50caf90","ios":"levelo://app?vid=316628de-9261-4f78-bc0d-0476a50caf90"},"vehicle_type_id":"4","last_reported":1743026939,"current_range_meters":7200,"station_id":"ce4bhpp2rcd13ifvqhfg","pricing_plan_id":"cebpf4jnsgd1na2vs0mg"},{"bike_id":"8654e62d-5293-468f-801d-5e2a7e4cf0b3","system_id":"levelo_inurba_marseille","lat":43.29415,"lon":5.38611,"is_reserved":false,"is_disabled":false,"rental_uris":{"android":"levelo://app?vid=8654e62d-5293-468f-801d-5e2a7e4cf0b3","ios":"levelo://app?vid=8654e62d-5293-468f-801d-5e2a7e4cf0b3"},"vehicle_type_id":"4","last_reported":1743026939,"current_range_meters":7200,"station_id":"ce4bh2h2rcd13ifvqdh0","pricing_plan_id":"cebpf4jnsgd1na2vs0mg"},{"bike_id":"ecfbe1b6-91a4-4967-b2f4-1915901f3187","system_id":"levelo_inurba_marseille","lat":43.31752,"lon":5.39016,"is_reserved":false,"is_disabled":false,"rental_uris":{"android":"levelo://app?vid=ecfbe1b6-91a4-4967-b2f4-1915901f3187","ios":"levelo://app?vid=ecfbe1b6-91a4-4967-b2f4-1915901f3187"},"vehicle_type_id":"4","last_reported":1743026939,"current_range_meters":8000,"station_id":"ce4bhqp2rcd13ifvqhng","pricing_plan_id":"cebpf4jnsgd1na2vs0mg"},{"bike_id":"4d6d8a3e-5cdb-4d7b-bbad-abcfee7897a7","system_id":"levelo_inurba_marseille","lat":43.280338,"lon":5.36953,"is_reserved":false,"is_disabled":false,"rental_uris":{"android":"levelo://app?vid=4d6d8a3e-5cdb-4d7b-bbad-abcfee7897a7","ios":"levelo://app?vid=4d6d8a3e-5cdb-4d7b-bbad-abcfee7897a7"},"vehicle_type_id":"4","last_reported":1743026939,"current_range_meters":8000,"station_id":"ce4bha12rcd13ifvqef0","pricing_plan_id":"cebpf4jnsgd1na2vs0mg"},{"bike_id":"40cdd24c-62ce-4570-9b9b-59f9bc4ad149","system_id":"levelo_inurba_marseille","lat":43.30929,"lon":5.40154,"is_reserved":false,"is_disabled":false,"rental_uris":{"android":"levelo://app?vid=40cdd24c-62ce-4570-9b9b-59f9bc4ad149","ios":"levelo://app?vid=40cdd24c-62ce-4570-9b9b-59f9bc4ad149"},"vehicle_type_id":"4","last_reported":1743026939,"current_range_meters":8000,"station_id":"ce4bgvp2rcd13ifvqct0","pricing_plan_id":"cebpf4jnsgd1na2vs0mg"},{"bike_id":"f331f4a0-921f-47e2-bc64-3b6ed88b17e3","system_id":"levelo_inurba_marseille","lat":43.27173,"lon":5.40973,"is_reserved":false,"is_disabled":false,"rental_uris":{"android":"levelo://app?vid=f331f4a0-921f-47e2-bc64-3b6ed88b17e3","ios":"levelo://app?vid=f331f4a0-921f-47e2-bc64-3b6ed88b17e3"},"vehicle_type_id":"4","last_reported":1743026939,"current_range_meters":8000,"station_id":"ce4bhl12rcd13ifvqgf0","pricing_plan_id":"cebpf4jnsgd1na2vs0mg"},{"bike_id":"98c7ca61-6b4e-4129-ad44-4943fd2074d6","system_id":"levelo_inurba_marseille","lat":43.2292,"lon":5.35365,"is_reserved":false,"is_disabled":false,"rental_uris":{"android":"levelo://app?vid=98c7ca61-6b4e-4129-ad44-4943fd2074d6","ios":"levelo://app?vid=98c7ca61-6b4e-4129-ad44-4943fd2074d6"},"vehicle_type_id":"4","last_reported":1743026939,"current_range_meters":8000,"station_id":"cpo3532slgdg3j2ikp40","pricing_plan_id":"cebpf4jnsgd1na2vs0mg"},{"bike_id":"2b7cb951-03a2-4661-9ae4-4caf1591ddb1","system_id":"levelo_inurba_marseille","lat":43.2618,"lon":5.40383,"is_reserved":false,"is_disabled":false,"rental_uris":{"android":"levelo://app?vid=2b7cb951-03a2-4661-9ae4-4caf1591ddb1","ios":"levelo://app?vid=2b7cb951-03a2-4661-9ae4-4caf1591ddb1"},"vehicle_type_id":"4","last_reported":1743026939,"current_range_meters":8000,"station_id":"ce4bhmh2rcd13ifvqgmg","pricing_plan_id":"cebpf4jnsgd1na2vs0mg"},{"bike_id":"a1dcf5bc-54fc-45f7-9928-5cf9485d7c58","system_id":"levelo_inurba_marseille","lat":43.23183,"lon":5.39984,"is_reserved":false,"is_disabled":false,"rental_uris":{"android":"levelo://app?vid=a1dcf5bc-54fc-45f7-9928-5cf9485d7c58","ios":"levelo://app?vid=a1dcf5bc-54fc-45f7-9928-5cf9485d7c58"},"vehicle_type_id":"4","last_reported":1743026939,"current_range_meters":8000,"station_id":"ce4bhn12rcd13ifvqgqg","pricing_plan_id":"cebpf4jnsgd1na2vs0mg"},{"bike_id":"41e5f267-ce12-4d49-85f8-a37604430f8e","system_id":"levelo_inurba_marseille","lat":43.22934,"lon":5.35374,"is_reserved":false,"is_disabled":false,"rental_uris":{"android":"levelo://app?vid=41e5f267-ce12-4d49-85f8-a37604430f8e","ios":"levelo://app?vid=41e5f267-ce12-4d49-85f8-a37604430f8e"},"vehicle_type_id":"4","last_reported":1743026939,"current_range_meters":8000,"station_id":"cpo3532slgdg3j2ikp40","pricing_plan_id":"cebpf4jnsgd1na2vs0mg"},{"bike_id":"8e6e3bce-7dca-4d93-b80d-7989d287a91c","system_id":"levelo_inurba_marseille","lat":43.25001,"lon":5.38926,"is_reserved":false,"is_disabled":false,"rental_uris":{"android":"levelo://app?vid=8e6e3bce-7dca-4d93-b80d-7989d287a91c","ios":"levelo://app?vid=8e6e3bce-7dca-4d93-b80d-7989d287a91c"},"vehicle_type_id":"4","last_reported":1743026939,"current_range_meters":8000,"station_id":"ce4bhgp2rcd13ifvqfd0","pricing_plan_id":"cebpf4jnsgd1na2vs0mg"},{"bike_id":"a01a2189-8b32-4968-87fa-f3888542280a","system_id":"levelo_inurba_marseille","lat":43.28685,"lon":5.37427,"is_reserved":false,"is_disabled":false,"rental_uris":{"android":"levelo://app?vid=a01a2189-8b32-4968-87fa-f3888542280a","ios":"levelo://app?vid=a01a2189-8b32-4968-87fa-f3888542280a"},"vehicle_type_id":"4","last_reported":1743026939,"current_range_meters":8400,"station_id":"ce4bh3p2rcd13ifvqdq0","pricing_plan_id":"cebpf4jnsgd1na2vs0mg"},{"bike_id":"45473374-eabb-4db3-bd6c-f156d2935509","system_id":"levelo_inurba_marseille","lat":43.26809,"lon":5.40259,"is_reserved":false,"is_disabled":false,"rental_uris":{"android":"levelo://app?vid=45473374-eabb-4db3-bd6c-f156d2935509","ios":"levelo://app?vid=45473374-eabb-4db3-bd6c-f156d2935509"},"vehicle_type_id":"4","last_reported":1743026939,"current_range_meters":8400,"station_id":"ce501612rcd8frsf0b60","pricing_plan_id":"cebpf4jnsgd1na2vs0mg"},{"bike_id":"da3d6c27-2c27-4041-b2d5-91965cb51916","system_id":"levelo_inurba_marseille","lat":43.26227,"lon":5.40466,"is_reserved":false,"is_disabled":false,"rental_uris":{"android":"levelo://app?vid=da3d6c27-2c27-4041-b2d5-91965cb51916","ios":"levelo://app?vid=da3d6c27-2c27-4041-b2d5-91965cb51916"},"vehicle_type_id":"4","last_reported":1743026939,"current_range_meters":8400,"station_id":"ce4bhmh2rcd13ifvqgmg","pricing_plan_id":"cebpf4jnsgd1na2vs0mg"},{"bike_id":"8a9602e7-e6f2-4dac-845f-cea224e49dd5","system_id":"levelo_inurba_marseille","lat":43.23067,"lon":5.35502,"is_reserved":false,"is_disabled":false,"rental_uris":{"android":"levelo://app?vid=8a9602e7-e6f2-4dac-845f-cea224e49dd5","ios":"levelo://app?vid=8a9602e7-e6f2-4dac-845f-cea224e49dd5"},"vehicle_type_id":"4","last_reported":1743026939,"current_range_meters":8400,"station_id":"cpo3342slgdg3j2ifvpg","pricing_plan_id":"cebpf4jnsgd1na2vs0mg"},{"bike_id":"ae64d049-3c54-4b63-a552-b1e07d06f548","system_id":"levelo_inurba_marseille","lat":43.29082,"lon":5.38166,"is_reserved":false,"is_disabled":true,"rental_uris":{"android":"levelo://app?vid=ae64d049-3c54-4b63-a552-b1e07d06f548","ios":"levelo://app?vid=ae64d049-3c54-4b63-a552-b1e07d06f548"},"vehicle_type_id":"4","last_reported":1743026939,"current_range_meters":8400,"station_id":"ce4bho12rcd13ifvqh1g","pricing_plan_id":"cebpf4jnsgd1na2vs0mg"},{"bike_id":"01cbffb0-3fb0-4769-96f8-4c2dd20b8277","system_id":"levelo_inurba_marseille","lat":43.28519,"lon":5.40565,"is_reserved":false,"is_disabled":false,"rental_uris":{"android":"levelo://app?vid=01cbffb0-3fb0-4769-96f8-4c2dd20b8277","ios":"levelo://app?vid=01cbffb0-3fb0-4769-96f8-4c2dd20b8277"},"vehicle_type_id":"4","last_reported":1743026939,"current_range_meters":8400,"station_id":"","pricing_plan_id":"cebpf4jnsgd1na2vs0mg"},{"bike_id":"cbb04385-b733-4245-8069-e7d5530c1471","system_id":"levelo_inurba_marseille","lat":43.31139,"lon":5.37747,"is_reserved":false,"is_disabled":false,"rental_uris":{"android":"levelo://app?vid=cbb04385-b733-4245-8069-e7d5530c1471","ios":"levelo://app?vid=cbb04385-b733-4245-8069-e7d5530c1471"},"vehicle_type_id":"4","last_reported":1743026939,"current_range_meters":8400,"station_id":"ce4bgt92rcd13ifvqcg0","pricing_plan_id":"cebpf4jnsgd1na2vs0mg"},{"bike_id":"01f4262b-bc44-4c46-ba8c-e293e5d3d64c","system_id":"levelo_inurba_marseille","lat":43.28617,"lon":5.35103,"is_reserved":false,"is_disabled":false,"rental_uris":{"android":"levelo://app?vid=01f4262b-bc44-4c46-ba8c-e293e5d3d64c","ios":"levelo://app?vid=01f4262b-bc44-4c46-ba8c-e293e5d3d64c"},"vehicle_type_id":"4","last_reported":1743026939,"current_range_meters":8400,"station_id":"ce4bhch2rcd13ifvqeug","pricing_plan_id":"cebpf4jnsgd1na2vs0mg"},{"bike_id":"b6d1df03-77c1-4db8-ae9c-49077f7d16d5","system_id":"levelo_inurba_marseille","lat":43.24646,"lon":5.3889,"is_reserved":false,"is_disabled":false,"rental_uris":{"android":"levelo://app?vid=b6d1df03-77c1-4db8-ae9c-49077f7d16d5","ios":"levelo://app?vid=b6d1df03-77c1-4db8-ae9c-49077f7d16d5"},"vehicle_type_id":"4","last_reported":1743026939,"current_range_meters":8400,"station_id":"ce4bhg12rcd13ifvqf60","pricing_plan_id":"cebpf4jnsgd1na2vs0mg"},{"bike_id":"bb0a4d83-0e37-4dfa-938b-228bbf7033c9","system_id":"levelo_inurba_marseille","lat":43.29017,"lon":5.39992,"is_reserved":false,"is_disabled":false,"rental_uris":{"android":"levelo://app?vid=bb0a4d83-0e37-4dfa-938b-228bbf7033c9","ios":"levelo://app?vid=bb0a4d83-0e37-4dfa-938b-228bbf7033c9"},"vehicle_type_id":"4","last_reported":1743026939,"current_range_meters":8400,"station_id":"ce4bh392rcd13ifvqdm0","pricing_plan_id":"cebpf4jnsgd1na2vs0mg"},{"bike_id":"b30d442b-7284-44ac-87ce-821b5a0ec057","system_id":"levelo_inurba_marseille","lat":43.32558,"lon":5.36574,"is_reserved":false,"is_disabled":false,"rental_uris":{"android":"levelo://app?vid=b30d442b-7284-44ac-87ce-821b5a0ec057","ios":"levelo://app?vid=b30d442b-7284-44ac-87ce-821b5a0ec057"},"vehicle_type_id":"4","last_reported":1743026939,"current_range_meters":8800,"station_id":"","pricing_plan_id":"cebpf4jnsgd1na2vs0mg"},{"bike_id":"40c6a433-8b8f-4963-93f1-4b8322344100","system_id":"levelo_inurba_marseille","lat":43.28414,"lon":5.34993,"is_reserved":false,"is_disabled":false,"rental_uris":{"android":"levelo://app?vid=40c6a433-8b8f-4963-93f1-4b8322344100","ios":"levelo://app?vid=40c6a433-8b8f-4963-93f1-4b8322344100"},"vehicle_type_id":"4","last_reported":1743026939,"current_range_meters":8800,"station_id":"ce4bhbh2rcd13ifvqepg","pricing_plan_id":"cebpf4jnsgd1na2vs0mg"},{"bike_id":"c80aa782-5a1c-49dc-82a9-5a6684179a01","system_id":"levelo_inurba_marseille","lat":43.28107,"lon":5.37805,"is_reserved":false,"is_disabled":false,"rental_uris":{"android":"levelo://app?vid=c80aa782-5a1c-49dc-82a9-5a6684179a01","ios":"levelo://app?vid=c80aa782-5a1c-49dc-82a9-5a6684179a01"},"vehicle_type_id":"4","last_reported":1743026939,"current_range_meters":8800,"station_id":"ce4bha12rcd13ifvqee0","pricing_plan_id":"cebpf4jnsgd1na2vs0mg"},{"bike_id":"0a6002c5-2e94-419c-9846-07e4397e2530","system_id":"levelo_inurba_marseille","lat":43.25826,"lon":5.39421,"is_reserved":false,"is_disabled":false,"rental_uris":{"android":"levelo://app?vid=0a6002c5-2e94-419c-9846-07e4397e2530","ios":"levelo://app?vid=0a6002c5-2e94-419c-9846-07e4397e2530"},"vehicle_type_id":"4","last_reported":1743026939,"current_range_meters":8800,"station_id":"ce4bhip2rcd13ifvqft0","pricing_plan_id":"cebpf4jnsgd1na2vs0mg"},{"bike_id":"da155e19-5157-4f97-8747-0c15b0609608","system_id":"levelo_inurba_marseille","lat":43.25743,"lon":5.41095,"is_reserved":false,"is_disabled":false,"rental_uris":{"android":"levelo://app?vid=da155e19-5157-4f97-8747-0c15b0609608","ios":"levelo://app?vid=da155e19-5157-4f97-8747-0c15b0609608"},"vehicle_type_id":"4","last_reported":1743026939,"current_range_meters":8800,"station_id":"ce4bhkp2rcd13ifvqgd0","pricing_plan_id":"cebpf4jnsgd1na2vs0mg"},{"bike_id":"974f5876-effd-44d0-911c-76ea7a107a8c","system_id":"levelo_inurba_marseille","lat":43.33358,"lon":5.35979,"is_reserved":false,"is_disabled":false,"rental_uris":{"android":"levelo://app?vid=974f5876-effd-44d0-911c-76ea7a107a8c","ios":"levelo://app?vid=974f5876-effd-44d0-911c-76ea7a107a8c"},"vehicle_type_id":"4","last_reported":1743026939,"current_range_meters":8800,"station_id":"","pricing_plan_id":"cebpf4jnsgd1na2vs0mg"},{"bike_id":"51812073-3de2-4905-a6fe-d16858cfd436","system_id":"levelo_inurba_marseille","lat":43.29777,"lon":5.39337,"is_reserved":false,"is_disabled":false,"rental_uris":{"android":"levelo://app?vid=51812073-3de2-4905-a6fe-d16858cfd436","ios":"levelo://app?vid=51812073-3de2-4905-a6fe-d16858cfd436"},"vehicle_type_id":"4","last_reported":1743026939,"current_range_meters":8800,"station_id":"chh1huq6cuj3fo74tm60","pricing_plan_id":"cebpf4jnsgd1na2vs0mg"},{"bike_id":"f35517ac-eefa-426f-a0d4-2d08f2ce4ebf","system_id":"levelo_inurba_marseille","lat":43.29262,"lon":5.37624,"is_reserved":false,"is_disabled":true,"rental_uris":{"android":"levelo://app?vid=f35517ac-eefa-426f-a0d4-2d08f2ce4ebf","ios":"levelo://app?vid=f35517ac-eefa-426f-a0d4-2d08f2ce4ebf"},"vehicle_type_id":"4","last_reported":1743026939,"current_range_meters":9200,"station_id":"ce4bgi12rcd13ifvqb80","pricing_plan_id":"cebpf4jnsgd1na2vs0mg"},{"bike_id":"ac227b8d-11e6-4a65-9136-f9cbd67e61e3","system_id":"levelo_inurba_marseille","lat":43.31067,"lon":5.38347,"is_reserved":false,"is_disabled":false,"rental_uris":{"android":"levelo://app?vid=ac227b8d-11e6-4a65-9136-f9cbd67e61e3","ios":"levelo://app?vid=ac227b8d-11e6-4a65-9136-f9cbd67e61e3"},"vehicle_type_id":"4","last_reported":1743026939,"current_range_meters":9200,"station_id":"ce4bgv92rcd13ifvqcr0","pricing_plan_id":"cebpf4jnsgd1na2vs0mg"},{"bike_id":"6d1a4408-f3fb-461d-b18d-a5d8df7692e3","system_id":"levelo_inurba_marseille","lat":43.3093,"lon":5.40149,"is_reserved":false,"is_disabled":false,"rental_uris":{"android":"levelo://app?vid=6d1a4408-f3fb-461d-b18d-a5d8df7692e3","ios":"levelo://app?vid=6d1a4408-f3fb-461d-b18d-a5d8df7692e3"},"vehicle_type_id":"4","last_reported":1743026939,"current_range_meters":9200,"station_id":"ce4bgvp2rcd13ifvqct0","pricing_plan_id":"cebpf4jnsgd1na2vs0mg"},{"bike_id":"84a7a785-5392-42bc-8088-fb903bcc7f5c","system_id":"levelo_inurba_marseille","lat":43.23063,"lon":5.35497,"is_reserved":false,"is_disabled":false,"rental_uris":{"android":"levelo://app?vid=84a7a785-5392-42bc-8088-fb903bcc7f5c","ios":"levelo://app?vid=84a7a785-5392-42bc-8088-fb903bcc7f5c"},"vehicle_type_id":"4","last_reported":1743026939,"current_range_meters":9200,"station_id":"cpo3342slgdg3j2ifvpg","pricing_plan_id":"cebpf4jnsgd1na2vs0mg"},{"bike_id":"887a7784-c70b-46f8-9882-d03745b5c9eb","system_id":"levelo_inurba_marseille","lat":43.31109,"lon":5.37784,"is_reserved":false,"is_disabled":false,"rental_uris":{"android":"levelo://app?vid=887a7784-c70b-46f8-9882-d03745b5c9eb","ios":"levelo://app?vid=887a7784-c70b-46f8-9882-d03745b5c9eb"},"vehicle_type_id":"4","last_reported":1743026939,"current_range_meters":9200,"station_id":"ce4bgt92rcd13ifvqcg0","pricing_plan_id":"cebpf4jnsgd1na2vs0mg"},{"bike_id":"3ebcb0b0-3bd6-455e-9b12-2091542e2b7d","system_id":"levelo_inurba_marseille","lat":43.31443,"lon":5.374,"is_reserved":false,"is_disabled":false,"rental_uris":{"android":"levelo://app?vid=3ebcb0b0-3bd6-455e-9b12-2091542e2b7d","ios":"levelo://app?vid=3ebcb0b0-3bd6-455e-9b12-2091542e2b7d"},"vehicle_type_id":"4","last_reported":1743026939,"current_range_meters":9200,"station_id":"","pricing_plan_id":"cebpf4jnsgd1na2vs0mg"},{"bike_id":"92ebc5a6-0d9f-45da-9a83-4dce7e1f76a7","system_id":"levelo_inurba_marseille","lat":43.31168,"lon":5.387173,"is_reserved":false,"is_disabled":false,"rental_uris":{"android":"levelo://app?vid=92ebc5a6-0d9f-45da-9a83-4dce7e1f76a7","ios":"levelo://app?vid=92ebc5a6-0d9f-45da-9a83-4dce7e1f76a7"},"vehicle_type_id":"4","last_reported":1743026939,"current_range_meters":9200,"station_id":"ce4bgv12rcd13ifvqcp0","pricing_plan_id":"cebpf4jnsgd1na2vs0mg"},{"bike_id":"434c3a2c-ae70-4bc5-828d-d60fb5859f24","system_id":"levelo_inurba_marseille","lat":43.31074,"lon":5.383532,"is_reserved":false,"is_disabled":false,"rental_uris":{"android":"levelo://app?vid=434c3a2c-ae70-4bc5-828d-d60fb5859f24","ios":"levelo://app?vid=434c3a2c-ae70-4bc5-828d-d60fb5859f24"},"vehicle_type_id":"4","last_reported":1743026939,"current_range_meters":9200,"station_id":"ce4bgv92rcd13ifvqcr0","pricing_plan_id":"cebpf4jnsgd1na2vs0mg"},{"bike_id":"ccdfac36-22da-4f2d-bd50-7bf147cc0fff","system_id":"levelo_inurba_marseille","lat":43.29899,"lon":5.43662,"is_reserved":false,"is_disabled":false,"rental_uris":{"android":"levelo://app?vid=ccdfac36-22da-4f2d-bd50-7bf147cc0fff","ios":"levelo://app?vid=ccdfac36-22da-4f2d-bd50-7bf147cc0fff"},"vehicle_type_id":"4","last_reported":1743026939,"current_range_meters":9600,"station_id":"ce4bhpp2rcd13ifvqhfg","pricing_plan_id":"cebpf4jnsgd1na2vs0mg"},{"bike_id":"a3e33307-29fc-40c5-8f9e-ebcba62a2490","system_id":"levelo_inurba_marseille","lat":43.31319,"lon":5.39696,"is_reserved":false,"is_disabled":false,"rental_uris":{"android":"levelo://app?vid=a3e33307-29fc-40c5-8f9e-ebcba62a2490","ios":"levelo://app?vid=a3e33307-29fc-40c5-8f9e-ebcba62a2490"},"vehicle_type_id":"4","last_reported":1743026939,"current_range_meters":9600,"station_id":"ce4bgvp2rcd13ifvqcu0","pricing_plan_id":"cebpf4jnsgd1na2vs0mg"},{"bike_id":"75d929dd-8790-4bc4-8f76-cddf94e4ef97","system_id":"levelo_inurba_marseille","lat":43.2924,"lon":5.38452,"is_reserved":false,"is_disabled":false,"rental_uris":{"android":"levelo://app?vid=75d929dd-8790-4bc4-8f76-cddf94e4ef97","ios":"levelo://app?vid=75d929dd-8790-4bc4-8f76-cddf94e4ef97"},"vehicle_type_id":"4","last_reported":1743026939,"current_range_meters":9600,"station_id":"ce4bh692rcd13ifvqea0","pricing_plan_id":"cebpf4jnsgd1na2vs0mg"},{"bike_id":"dd6c817f-9dd1-461c-8966-5dc19d9e6d2c","system_id":"levelo_inurba_marseille","lat":43.29413,"lon":5.38617,"is_reserved":false,"is_disabled":false,"rental_uris":{"android":"levelo://app?vid=dd6c817f-9dd1-461c-8966-5dc19d9e6d2c","ios":"levelo://app?vid=dd6c817f-9dd1-461c-8966-5dc19d9e6d2c"},"vehicle_type_id":"4","last_reported":1743026939,"current_range_meters":9600,"station_id":"ce4bh2h2rcd13ifvqdh0","pricing_plan_id":"cebpf4jnsgd1na2vs0mg"},{"bike_id":"d45a2f6c-957b-46cd-bd89-ee8e58d1536e","system_id":"levelo_inurba_marseille","lat":43.277284,"lon":5.407878,"is_reserved":false,"is_disabled":false,"rental_uris":{"android":"levelo://app?vid=d45a2f6c-957b-46cd-bd89-ee8e58d1536e","ios":"levelo://app?vid=d45a2f6c-957b-46cd-bd89-ee8e58d1536e"},"vehicle_type_id":"4","last_reported":1743026939,"current_range_meters":9600,"station_id":"","pricing_plan_id":"cebpf4jnsgd1na2vs0mg"},{"bike_id":"83490f64-aa62-4240-91b0-0dc5e05f1bcb","system_id":"levelo_inurba_marseille","lat":43.31112,"lon":5.37761,"is_reserved":false,"is_disabled":false,"rental_uris":{"android":"levelo://app?vid=83490f64-aa62-4240-91b0-0dc5e05f1bcb","ios":"levelo://app?vid=83490f64-aa62-4240-91b0-0dc5e05f1bcb"},"vehicle_type_id":"4","last_reported":1743026939,"current_range_meters":9600,"station_id":"ce4bgt92rcd13ifvqcg0","pricing_plan_id":"cebpf4jnsgd1na2vs0mg"},{"bike_id":"18f922e6-8f76-4a9e-840e-ad2bb8ff7720","system_id":"levelo_inurba_marseille","lat":43.289734,"lon":5.384791,"is_reserved":false,"is_disabled":false,"rental_uris":{"android":"levelo://app?vid=18f922e6-8f76-4a9e-840e-ad2bb8ff7720","ios":"levelo://app?vid=18f922e6-8f76-4a9e-840e-ad2bb8ff7720"},"vehicle_type_id":"4","last_reported":1743026939,"current_range_meters":9600,"station_id":"ce4bh512rcd13ifvqe3g","pricing_plan_id":"cebpf4jnsgd1na2vs0mg"},{"bike_id":"26c95be6-8955-419b-b506-8f03b71ec17d","system_id":"levelo_inurba_marseille","lat":43.3266,"lon":5.40994,"is_reserved":false,"is_disabled":false,"rental_uris":{"android":"levelo://app?vid=26c95be6-8955-419b-b506-8f03b71ec17d","ios":"levelo://app?vid=26c95be6-8955-419b-b506-8f03b71ec17d"},"vehicle_type_id":"4","last_reported":1743026939,"current_range_meters":9600,"station_id":"ce4bhpp2rcd13ifvqhgg","pricing_plan_id":"cebpf4jnsgd1na2vs0mg"},{"bike_id":"c78da9a2-101e-42b9-8412-e94531de750c","system_id":"levelo_inurba_marseille","lat":43.302614,"lon":5.400821,"is_reserved":false,"is_disabled":false,"rental_uris":{"android":"levelo://app?vid=c78da9a2-101e-42b9-8412-e94531de750c","ios":"levelo://app?vid=c78da9a2-101e-42b9-8412-e94531de750c"},"vehicle_type_id":"4","last_reported":1743026939,"current_range_meters":9600,"station_id":"ce4bgvh2rcd13ifvqcs0","pricing_plan_id":"cebpf4jnsgd1na2vs0mg"},{"bike_id":"818cfe2a-3205-453a-a960-4ebf1f298656","system_id":"levelo_inurba_marseille","lat":43.26674,"lon":5.38249,"is_reserved":false,"is_disabled":true,"rental_uris":{"android":"levelo://app?vid=818cfe2a-3205-453a-a960-4ebf1f298656","ios":"levelo://app?vid=818cfe2a-3205-453a-a960-4ebf1f298656"},"vehicle_type_id":"4","last_reported":1743026939,"current_range_meters":9600,"station_id":"ce4bhg92rcd13ifvqf90","pricing_plan_id":"cebpf4jnsgd1na2vs0mg"},{"bike_id":"6493a410-ba38-4b48-997d-2b0a0413cba6","system_id":"levelo_inurba_marseille","lat":43.30873,"lon":5.39629,"is_reserved":false,"is_disabled":false,"rental_uris":{"android":"levelo://app?vid=6493a410-ba38-4b48-997d-2b0a0413cba6","ios":"levelo://app?vid=6493a410-ba38-4b48-997d-2b0a0413cba6"},"vehicle_type_id":"4","last_reported":1743026939,"current_range_meters":9600,"station_id":"ce4bh012rcd13ifvqcv0","pricing_plan_id":"cebpf4jnsgd1na2vs0mg"},{"bike_id":"1f832459-222b-42fa-b88e-b9eccf46e63a","system_id":"levelo_inurba_marseille","lat":43.28867,"lon":5.35832,"is_reserved":false,"is_disabled":false,"rental_uris":{"android":"levelo://app?vid=1f832459-222b-42fa-b88e-b9eccf46e63a","ios":"levelo://app?vid=1f832459-222b-42fa-b88e-b9eccf46e63a"},"vehicle_type_id":"4","last_reported":1743026939,"current_range_meters":9600,"station_id":"ce4bhb12rcd13ifvqem0","pricing_plan_id":"cebpf4jnsgd1na2vs0mg"},{"bike_id":"67d3c8c2-e873-44b6-a622-5f7452e3a364","system_id":"levelo_inurba_marseille","lat":43.27807,"lon":5.40715,"is_reserved":false,"is_disabled":false,"rental_uris":{"android":"levelo://app?vid=67d3c8c2-e873-44b6-a622-5f7452e3a364","ios":"levelo://app?vid=67d3c8c2-e873-44b6-a622-5f7452e3a364"},"vehicle_type_id":"4","last_reported":1743026939,"current_range_meters":10000,"station_id":"ce4bhnh2rcd13ifvqgtg","pricing_plan_id":"cebpf4jnsgd1na2vs0mg"},{"bike_id":"c6760871-6fc1-4414-8469-9dedd0326558","system_id":"levelo_inurba_marseille","lat":43.28925,"lon":5.36381,"is_reserved":false,"is_disabled":false,"rental_uris":{"android":"levelo://app?vid=c6760871-6fc1-4414-8469-9dedd0326558","ios":"levelo://app?vid=c6760871-6fc1-4414-8469-9dedd0326558"},"vehicle_type_id":"4","last_reported":1743026939,"current_range_meters":10000,"station_id":"ce4bhc92rcd13ifvqetg","pricing_plan_id":"cebpf4jnsgd1na2vs0mg"},{"bike_id":"3b4d5f88-96cb-4d89-8aed-aac960da5a80","system_id":"levelo_inurba_marseille","lat":43.28703,"lon":5.39989,"is_reserved":false,"is_disabled":false,"rental_uris":{"android":"levelo://app?vid=3b4d5f88-96cb-4d89-8aed-aac960da5a80","ios":"levelo://app?vid=3b4d5f88-96cb-4d89-8aed-aac960da5a80"},"vehicle_type_id":"4","last_reported":1743026939,"current_range_meters":10000,"station_id":"ce4bho92rcd13ifvqh3g","pricing_plan_id":"cebpf4jnsgd1na2vs0mg"},{"bike_id":"629dc58e-f1fa-4c78-b496-582f20ae1d69","system_id":"levelo_inurba_marseille","lat":43.23129,"lon":5.43716,"is_reserved":false,"is_disabled":false,"rental_uris":{"android":"levelo://app?vid=629dc58e-f1fa-4c78-b496-582f20ae1d69","ios":"levelo://app?vid=629dc58e-f1fa-4c78-b496-582f20ae1d69"},"vehicle_type_id":"4","last_reported":1743026939,"current_range_meters":10000,"station_id":"ce4bhmp2rcd13ifvqgog","pricing_plan_id":"cebpf4jnsgd1na2vs0mg"},{"bike_id":"f408b4d4-0f69-4a55-bf3a-3c3c8e1647f7","system_id":"levelo_inurba_marseille","lat":43.23195,"lon":5.39994,"is_reserved":false,"is_disabled":false,"rental_uris":{"android":"levelo://app?vid=f408b4d4-0f69-4a55-bf3a-3c3c8e1647f7","ios":"levelo://app?vid=f408b4d4-0f69-4a55-bf3a-3c3c8e1647f7"},"vehicle_type_id":"4","last_reported":1743026939,"current_range_meters":10000,"station_id":"ce4bhn12rcd13ifvqgqg","pricing_plan_id":"cebpf4jnsgd1na2vs0mg"},{"bike_id":"6ab6b099-574d-454a-84a7-96bb5f8025c5","system_id":"levelo_inurba_marseille","lat":43.31171,"lon":5.38723,"is_reserved":false,"is_disabled":false,"rental_uris":{"android":"levelo://app?vid=6ab6b099-574d-454a-84a7-96bb5f8025c5","ios":"levelo://app?vid=6ab6b099-574d-454a-84a7-96bb5f8025c5"},"vehicle_type_id":"4","last_reported":1743026939,"current_range_meters":10800,"station_id":"ce4bgv12rcd13ifvqcp0","pricing_plan_id":"cebpf4jnsgd1na2vs0mg"},{"bike_id":"40046afd-c6aa-43ea-88bd-183a4d2ec61c","system_id":"levelo_inurba_marseille","lat":43.31598,"lon":5.41675,"is_reserved":false,"is_disabled":false,"rental_uris":{"android":"levelo://app?vid=40046afd-c6aa-43ea-88bd-183a4d2ec61c","ios":"levelo://app?vid=40046afd-c6aa-43ea-88bd-183a4d2ec61c"},"vehicle_type_id":"4","last_reported":1743026939,"current_range_meters":10800,"station_id":"","pricing_plan_id":"cebpf4jnsgd1na2vs0mg"},{"bike_id":"ee527ed9-d26c-4e8d-b008-038b46dba415","system_id":"levelo_inurba_marseille","lat":43.32008,"lon":5.38165,"is_reserved":false,"is_disabled":false,"rental_uris":{"android":"levelo://app?vid=ee527ed9-d26c-4e8d-b008-038b46dba415","ios":"levelo://app?vid=ee527ed9-d26c-4e8d-b008-038b46dba415"},"vehicle_type_id":"4","last_reported":1743026939,"current_range_meters":10800,"station_id":"ce4bhr12rcd13ifvqhpg","pricing_plan_id":"cebpf4jnsgd1na2vs0mg"},{"bike_id":"98615304-5366-4190-acab-7cc584bd4b11","system_id":"levelo_inurba_marseille","lat":43.29509,"lon":5.39385,"is_reserved":false,"is_disabled":false,"rental_uris":{"android":"levelo://app?vid=98615304-5366-4190-acab-7cc584bd4b11","ios":"levelo://app?vid=98615304-5366-4190-acab-7cc584bd4b11"},"vehicle_type_id":"4","last_reported":1743026939,"current_range_meters":10800,"station_id":"ce4bh292rcd13ifvqdf0","pricing_plan_id":"cebpf4jnsgd1na2vs0mg"},{"bike_id":"59a81975-3ccd-45d3-b034-018afc9fe0c6","system_id":"levelo_inurba_marseille","lat":43.27979,"lon":5.40026,"is_reserved":false,"is_disabled":false,"rental_uris":{"android":"levelo://app?vid=59a81975-3ccd-45d3-b034-018afc9fe0c6","ios":"levelo://app?vid=59a81975-3ccd-45d3-b034-018afc9fe0c6"},"vehicle_type_id":"4","last_reported":1743026939,"current_range_meters":10800,"station_id":"ce4bho92rcd13ifvqh4g","pricing_plan_id":"cebpf4jnsgd1na2vs0mg"},{"bike_id":"062a6a52-ce37-4b8a-b064-d518cd917789","system_id":"levelo_inurba_marseille","lat":43.317607,"lon":5.390164,"is_reserved":false,"is_disabled":false,"rental_uris":{"android":"levelo://app?vid=062a6a52-ce37-4b8a-b064-d518cd917789","ios":"levelo://app?vid=062a6a52-ce37-4b8a-b064-d518cd917789"},"vehicle_type_id":"4","last_reported":1743026939,"current_range_meters":10800,"station_id":"ce4bhpp2rcd13ifvqhfg","pricing_plan_id":"cebpf4jnsgd1na2vs0mg"},{"bike_id":"b9ab712c-57dc-45bf-b4d6-b9ecdf6edd13","system_id":"levelo_inurba_marseille","lat":43.28916,"lon":5.38394,"is_reserved":false,"is_disabled":false,"rental_uris":{"android":"levelo://app?vid=b9ab712c-57dc-45bf-b4d6-b9ecdf6edd13","ios":"levelo://app?vid=b9ab712c-57dc-45bf-b4d6-b9ecdf6edd13"},"vehicle_type_id":"4","last_reported":1743026939,"current_range_meters":10800,"station_id":"ce4bh612rcd13ifvqe6g","pricing_plan_id":"cebpf4jnsgd1na2vs0mg"},{"bike_id":"85d0fa0c-b5b9-41cd-ba43-951901672dab","system_id":"levelo_inurba_marseille","lat":43.256034,"lon":5.389906,"is_reserved":false,"is_disabled":false,"rental_uris":{"android":"levelo://app?vid=85d0fa0c-b5b9-41cd-ba43-951901672dab","ios":"levelo://app?vid=85d0fa0c-b5b9-41cd-ba43-951901672dab"},"vehicle_type_id":"4","last_reported":1743026939,"current_range_meters":10800,"station_id":"","pricing_plan_id":"cebpf4jnsgd1na2vs0mg"},{"bike_id":"da02046a-e8be-4732-a814-bea47c0457a4","system_id":"levelo_inurba_marseille","lat":43.31094,"lon":5.38342,"is_reserved":false,"is_disabled":true,"rental_uris":{"android":"levelo://app?vid=da02046a-e8be-4732-a814-bea47c0457a4","ios":"levelo://app?vid=da02046a-e8be-4732-a814-bea47c0457a4"},"vehicle_type_id":"4","last_reported":1743026939,"current_range_meters":10800,"station_id":"ce4bgv92rcd13ifvqcr0","pricing_plan_id":"cebpf4jnsgd1na2vs0mg"},{"bike_id":"44da117b-fb83-45ea-94f5-52598deb4d06","system_id":"levelo_inurba_marseille","lat":43.25824,"lon":5.39439,"is_reserved":false,"is_disabled":false,"rental_uris":{"android":"levelo://app?vid=44da117b-fb83-45ea-94f5-52598deb4d06","ios":"levelo://app?vid=44da117b-fb83-45ea-94f5-52598deb4d06"},"vehicle_type_id":"4","last_reported":1743026939,"current_range_meters":10800,"station_id":"ce4bhip2rcd13ifvqft0","pricing_plan_id":"cebpf4jnsgd1na2vs0mg"},{"bike_id":"216ebaad-8516-4ce9-9ec1-96fdb6235a26","system_id":"levelo_inurba_marseille","lat":43.26034,"lon":5.37545,"is_reserved":false,"is_disabled":false,"rental_uris":{"android":"levelo://app?vid=216ebaad-8516-4ce9-9ec1-96fdb6235a26","ios":"levelo://app?vid=216ebaad-8516-4ce9-9ec1-96fdb6235a26"},"vehicle_type_id":"4","last_reported":1743026939,"current_range_meters":10800,"station_id":"ce4bhgh2rcd13ifvqfa0","pricing_plan_id":"cebpf4jnsgd1na2vs0mg"},{"bike_id":"545812e7-3882-4d12-8395-ca516c30e2b7","system_id":"levelo_inurba_marseille","lat":43.30258,"lon":5.4009,"is_reserved":false,"is_disabled":false,"rental_uris":{"android":"levelo://app?vid=545812e7-3882-4d12-8395-ca516c30e2b7","ios":"levelo://app?vid=545812e7-3882-4d12-8395-ca516c30e2b7"},"vehicle_type_id":"4","last_reported":1743026939,"current_range_meters":10800,"station_id":"ce4bgvh2rcd13ifvqcs0","pricing_plan_id":"cebpf4jnsgd1na2vs0mg"},{"bike_id":"402cc30d-39ca-4056-ad42-effd69fbd9c9","system_id":"levelo_inurba_marseille","lat":43.2408,"lon":5.37759,"is_reserved":false,"is_disabled":false,"rental_uris":{"android":"levelo://app?vid=402cc30d-39ca-4056-ad42-effd69fbd9c9","ios":"levelo://app?vid=402cc30d-39ca-4056-ad42-effd69fbd9c9"},"vehicle_type_id":"4","last_reported":1743026939,"current_range_meters":10800,"station_id":"ce4bhnp2rcd13ifvqgvg","pricing_plan_id":"cebpf4jnsgd1na2vs0mg"},{"bike_id":"9f590b40-24ae-445e-8068-dc8ceebb8738","system_id":"levelo_inurba_marseille","lat":43.23966,"lon":5.3663,"is_reserved":false,"is_disabled":false,"rental_uris":{"android":"levelo://app?vid=9f590b40-24ae-445e-8068-dc8ceebb8738","ios":"levelo://app?vid=9f590b40-24ae-445e-8068-dc8ceebb8738"},"vehicle_type_id":"4","last_reported":1743026939,"current_range_meters":11200,"station_id":"ce4bhi12rcd13ifvqfp0","pricing_plan_id":"cebpf4jnsgd1na2vs0mg"},{"bike_id":"ad3a09d6-8194-4bae-a5b1-51b443e279f8","system_id":"levelo_inurba_marseille","lat":43.22932,"lon":5.35378,"is_reserved":false,"is_disabled":false,"rental_uris":{"android":"levelo://app?vid=ad3a09d6-8194-4bae-a5b1-51b443e279f8","ios":"levelo://app?vid=ad3a09d6-8194-4bae-a5b1-51b443e279f8"},"vehicle_type_id":"4","last_reported":1743026939,"current_range_meters":11200,"station_id":"cpo3532slgdg3j2ikp40","pricing_plan_id":"cebpf4jnsgd1na2vs0mg"},{"bike_id":"72ff2873-eb3d-4526-97dc-a6ed38586447","system_id":"levelo_inurba_marseille","lat":43.278234,"lon":5.407186,"is_reserved":false,"is_disabled":false,"rental_uris":{"android":"levelo://app?vid=72ff2873-eb3d-4526-97dc-a6ed38586447","ios":"levelo://app?vid=72ff2873-eb3d-4526-97dc-a6ed38586447"},"vehicle_type_id":"4","last_reported":1743026939,"current_range_meters":11200,"station_id":"ce4bhnh2rcd13ifvqgtg","pricing_plan_id":"cebpf4jnsgd1na2vs0mg"},{"bike_id":"00ccdc21-1544-425b-979c-c904f6636454","system_id":"levelo_inurba_marseille","lat":43.30562,"lon":5.38425,"is_reserved":false,"is_disabled":true,"rental_uris":{"android":"levelo://app?vid=00ccdc21-1544-425b-979c-c904f6636454","ios":"levelo://app?vid=00ccdc21-1544-425b-979c-c904f6636454"},"vehicle_type_id":"4","last_reported":1743026939,"current_range_meters":11200,"station_id":"ce4bgg92rcd13ifvqb30","pricing_plan_id":"cebpf4jnsgd1na2vs0mg"},{"bike_id":"0ae9da59-47e2-4aef-8a43-3c7465b3a120","system_id":"levelo_inurba_marseille","lat":43.28705,"lon":5.37941,"is_reserved":false,"is_disabled":false,"rental_uris":{"android":"levelo://app?vid=0ae9da59-47e2-4aef-8a43-3c7465b3a120","ios":"levelo://app?vid=0ae9da59-47e2-4aef-8a43-3c7465b3a120"},"vehicle_type_id":"4","last_reported":1743026939,"current_range_meters":11200,"station_id":"ce4bh9p2rcd13ifvqec0","pricing_plan_id":"cebpf4jnsgd1na2vs0mg"},{"bike_id":"7a8ef002-9f94-4c12-b6e9-506d43e6eaa6","system_id":"levelo_inurba_marseille","lat":43.30291,"lon":5.39208,"is_reserved":false,"is_disabled":false,"rental_uris":{"android":"levelo://app?vid=7a8ef002-9f94-4c12-b6e9-506d43e6eaa6","ios":"levelo://app?vid=7a8ef002-9f94-4c12-b6e9-506d43e6eaa6"},"vehicle_type_id":"4","last_reported":1743026939,"current_range_meters":11200,"station_id":"ce4bgkh2rcd13ifvqbk0","pricing_plan_id":"cebpf4jnsgd1na2vs0mg"},{"bike_id":"46bc7627-5963-437b-83ed-b3f9497370e8","system_id":"levelo_inurba_marseille","lat":43.29889,"lon":5.43675,"is_reserved":false,"is_disabled":false,"rental_uris":{"android":"levelo://app?vid=46bc7627-5963-437b-83ed-b3f9497370e8","ios":"levelo://app?vid=46bc7627-5963-437b-83ed-b3f9497370e8"},"vehicle_type_id":"4","last_reported":1743026939,"current_range_meters":11200,"station_id":"ce4bhpp2rcd13ifvqhfg","pricing_plan_id":"cebpf4jnsgd1na2vs0mg"},{"bike_id":"2f69c259-678f-4dc6-9847-fd43204ee42a","system_id":"levelo_inurba_marseille","lat":43.25084,"lon":5.39514,"is_reserved":false,"is_disabled":false,"rental_uris":{"android":"levelo://app?vid=2f69c259-678f-4dc6-9847-fd43204ee42a","ios":"levelo://app?vid=2f69c259-678f-4dc6-9847-fd43204ee42a"},"vehicle_type_id":"4","last_reported":1743026939,"current_range_meters":11200,"station_id":"ce4bhm12rcd13ifvqgkg","pricing_plan_id":"cebpf4jnsgd1na2vs0mg"},{"bike_id":"6f1a4c35-2f00-4faa-b039-6440525bf2e4","system_id":"levelo_inurba_marseille","lat":43.29798,"lon":5.40412,"is_reserved":false,"is_disabled":false,"rental_uris":{"android":"levelo://app?vid=6f1a4c35-2f00-4faa-b039-6440525bf2e4","ios":"levelo://app?vid=6f1a4c35-2f00-4faa-b039-6440525bf2e4"},"vehicle_type_id":"4","last_reported":1743026939,"current_range_meters":11200,"station_id":"ce4bh112rcd13ifvqd90","pricing_plan_id":"cebpf4jnsgd1na2vs0mg"},{"bike_id":"0efa9a85-a950-471a-88a8-073f5726d25d","system_id":"levelo_inurba_marseille","lat":43.292465,"lon":5.384359,"is_reserved":false,"is_disabled":true,"rental_uris":{"android":"levelo://app?vid=0efa9a85-a950-471a-88a8-073f5726d25d","ios":"levelo://app?vid=0efa9a85-a950-471a-88a8-073f5726d25d"},"vehicle_type_id":"4","last_reported":1743026939,"current_range_meters":11600,"station_id":"ce4bh692rcd13ifvqea0","pricing_plan_id":"cebpf4jnsgd1na2vs0mg"},{"bike_id":"46bc710b-ba5b-4a06-b139-1452387f1098","system_id":"levelo_inurba_marseille","lat":43.23147,"lon":5.43724,"is_reserved":false,"is_disabled":false,"rental_uris":{"android":"levelo://app?vid=46bc710b-ba5b-4a06-b139-1452387f1098","ios":"levelo://app?vid=46bc710b-ba5b-4a06-b139-1452387f1098"},"vehicle_type_id":"4","last_reported":1743026939,"current_range_meters":11600,"station_id":"ce4bhmp2rcd13ifvqgog","pricing_plan_id":"cebpf4jnsgd1na2vs0mg"},{"bike_id":"7ecdf1eb-1860-4582-8c16-fac7ab531f07","system_id":"levelo_inurba_marseille","lat":43.31323,"lon":5.397,"is_reserved":false,"is_disabled":false,"rental_uris":{"android":"levelo://app?vid=7ecdf1eb-1860-4582-8c16-fac7ab531f07","ios":"levelo://app?vid=7ecdf1eb-1860-4582-8c16-fac7ab531f07"},"vehicle_type_id":"4","last_reported":1743026939,"current_range_meters":11600,"station_id":"ce4bgvp2rcd13ifvqcu0","pricing_plan_id":"cebpf4jnsgd1na2vs0mg"},{"bike_id":"36fba024-c9eb-4ff6-a35c-b55c3c0dda63","system_id":"levelo_inurba_marseille","lat":43.24666,"lon":5.38152,"is_reserved":false,"is_disabled":false,"rental_uris":{"android":"levelo://app?vid=36fba024-c9eb-4ff6-a35c-b55c3c0dda63","ios":"levelo://app?vid=36fba024-c9eb-4ff6-a35c-b55c3c0dda63"},"vehicle_type_id":"4","last_reported":1743026939,"current_range_meters":11600,"station_id":"ce4bhih2rcd13ifvqfr0","pricing_plan_id":"cebpf4jnsgd1na2vs0mg"},{"bike_id":"f197cb8b-9f97-4e5c-956f-9f02c65bdee8","system_id":"levelo_inurba_marseille","lat":43.31531,"lon":5.38029,"is_reserved":false,"is_disabled":false,"rental_uris":{"android":"levelo://app?vid=f197cb8b-9f97-4e5c-956f-9f02c65bdee8","ios":"levelo://app?vid=f197cb8b-9f97-4e5c-956f-9f02c65bdee8"},"vehicle_type_id":"4","last_reported":1743026939,"current_range_meters":11600,"station_id":"ce4bhsp2rcd13ifvqi50","pricing_plan_id":"cebpf4jnsgd1na2vs0mg"},{"bike_id":"46abc687-cc63-467d-9328-afe177712ecf","system_id":"levelo_inurba_marseille","lat":43.30872,"lon":5.39625,"is_reserved":false,"is_disabled":false,"rental_uris":{"android":"levelo://app?vid=46abc687-cc63-467d-9328-afe177712ecf","ios":"levelo://app?vid=46abc687-cc63-467d-9328-afe177712ecf"},"vehicle_type_id":"4","last_reported":1743026939,"current_range_meters":11600,"station_id":"ce4bh012rcd13ifvqcv0","pricing_plan_id":"cebpf4jnsgd1na2vs0mg"},{"bike_id":"78e8f626-0a9f-4882-bad8-878b14e48f92","system_id":"levelo_inurba_marseille","lat":43.28461,"lon":5.35883,"is_reserved":false,"is_disabled":false,"rental_uris":{"android":"levelo://app?vid=78e8f626-0a9f-4882-bad8-878b14e48f92","ios":"levelo://app?vid=78e8f626-0a9f-4882-bad8-878b14e48f92"},"vehicle_type_id":"4","last_reported":1743026939,"current_range_meters":11600,"station_id":"ce4bhah2rcd13ifvqei0","pricing_plan_id":"cebpf4jnsgd1na2vs0mg"},{"bike_id":"3b2e9843-b1c3-484f-9767-13bc20f0e0c2","system_id":"levelo_inurba_marseille","lat":43.29415,"lon":5.38618,"is_reserved":false,"is_disabled":false,"rental_uris":{"android":"levelo://app?vid=3b2e9843-b1c3-484f-9767-13bc20f0e0c2","ios":"levelo://app?vid=3b2e9843-b1c3-484f-9767-13bc20f0e0c2"},"vehicle_type_id":"4","last_reported":1743026939,"current_range_meters":11600,"station_id":"ce4bh2h2rcd13ifvqdh0","pricing_plan_id":"cebpf4jnsgd1na2vs0mg"},{"bike_id":"81f38ba2-245e-46e2-a32a-b658925f22e6","system_id":"levelo_inurba_marseille","lat":43.31327,"lon":5.39691,"is_reserved":false,"is_disabled":false,"rental_uris":{"android":"levelo://app?vid=81f38ba2-245e-46e2-a32a-b658925f22e6","ios":"levelo://app?vid=81f38ba2-245e-46e2-a32a-b658925f22e6"},"vehicle_type_id":"4","last_reported":1743026939,"current_range_meters":11600,"station_id":"ce4bgvp2rcd13ifvqcu0","pricing_plan_id":"cebpf4jnsgd1na2vs0mg"},{"bike_id":"7a3dc8a9-b060-4ba6-9653-7b31fcad2624","system_id":"levelo_inurba_marseille","lat":43.295213,"lon":5.394019,"is_reserved":false,"is_disabled":false,"rental_uris":{"android":"levelo://app?vid=7a3dc8a9-b060-4ba6-9653-7b31fcad2624","ios":"levelo://app?vid=7a3dc8a9-b060-4ba6-9653-7b31fcad2624"},"vehicle_type_id":"4","last_reported":1743026939,"current_range_meters":11600,"station_id":"ce4bh292rcd13ifvqdf0","pricing_plan_id":"cebpf4jnsgd1na2vs0mg"},{"bike_id":"d47f8a08-fdba-472b-b4b8-90ef98ee48e2","system_id":"levelo_inurba_marseille","lat":43.30534,"lon":5.3842,"is_reserved":false,"is_disabled":false,"rental_uris":{"android":"levelo://app?vid=d47f8a08-fdba-472b-b4b8-90ef98ee48e2","ios":"levelo://app?vid=d47f8a08-fdba-472b-b4b8-90ef98ee48e2"},"vehicle_type_id":"4","last_reported":1743026939,"current_range_meters":12000,"station_id":"ce4bgg92rcd13ifvqb30","pricing_plan_id":"cebpf4jnsgd1na2vs0mg"},{"bike_id":"bce68610-5f8e-4ffb-8b6b-1bb1f2431af3","system_id":"levelo_inurba_marseille","lat":43.30937,"lon":5.40141,"is_reserved":false,"is_disabled":false,"rental_uris":{"android":"levelo://app?vid=bce68610-5f8e-4ffb-8b6b-1bb1f2431af3","ios":"levelo://app?vid=bce68610-5f8e-4ffb-8b6b-1bb1f2431af3"},"vehicle_type_id":"4","last_reported":1743026939,"current_range_meters":11600,"station_id":"ce4bgvp2rcd13ifvqct0","pricing_plan_id":"cebpf4jnsgd1na2vs0mg"},{"bike_id":"77f663d6-ed35-4cd4-84ab-40816bafa55e","system_id":"levelo_inurba_marseille","lat":43.31877,"lon":5.40749,"is_reserved":false,"is_disabled":false,"rental_uris":{"android":"levelo://app?vid=77f663d6-ed35-4cd4-84ab-40816bafa55e","ios":"levelo://app?vid=77f663d6-ed35-4cd4-84ab-40816bafa55e"},"vehicle_type_id":"4","last_reported":1743026939,"current_range_meters":12000,"station_id":"ce4bhq12rcd13ifvqhig","pricing_plan_id":"cebpf4jnsgd1na2vs0mg"},{"bike_id":"88d6965b-35b9-4a77-bbe7-48f3936aa54f","system_id":"levelo_inurba_marseille","lat":43.27177,"lon":5.409945,"is_reserved":false,"is_disabled":false,"rental_uris":{"android":"levelo://app?vid=88d6965b-35b9-4a77-bbe7-48f3936aa54f","ios":"levelo://app?vid=88d6965b-35b9-4a77-bbe7-48f3936aa54f"},"vehicle_type_id":"4","last_reported":1743026939,"current_range_meters":12000,"station_id":"ce4bhl12rcd13ifvqgf0","pricing_plan_id":"cebpf4jnsgd1na2vs0mg"},{"bike_id":"8d0823ae-772a-44ca-a395-27f0327bfeb4","system_id":"levelo_inurba_marseille","lat":43.31271,"lon":5.40173,"is_reserved":false,"is_disabled":false,"rental_uris":{"android":"levelo://app?vid=8d0823ae-772a-44ca-a395-27f0327bfeb4","ios":"levelo://app?vid=8d0823ae-772a-44ca-a395-27f0327bfeb4"},"vehicle_type_id":"4","last_reported":1743026939,"current_range_meters":12000,"station_id":"ce4bh092rcd13ifvqd30","pricing_plan_id":"cebpf4jnsgd1na2vs0mg"},{"bike_id":"5858988e-240b-451f-a0a5-81697b8307fc","system_id":"levelo_inurba_marseille","lat":43.30416,"lon":5.3891,"is_reserved":false,"is_disabled":false,"rental_uris":{"android":"levelo://app?vid=5858988e-240b-451f-a0a5-81697b8307fc","ios":"levelo://app?vid=5858988e-240b-451f-a0a5-81697b8307fc"},"vehicle_type_id":"4","last_reported":1743026939,"current_range_meters":12000,"station_id":"ce4bgk12rcd13ifvqbi0","pricing_plan_id":"cebpf4jnsgd1na2vs0mg"},{"bike_id":"5d97e6db-29aa-4dc3-a913-dd5ff76e3f8c","system_id":"levelo_inurba_marseille","lat":43.29424,"lon":5.38613,"is_reserved":false,"is_disabled":true,"rental_uris":{"android":"levelo://app?vid=5d97e6db-29aa-4dc3-a913-dd5ff76e3f8c","ios":"levelo://app?vid=5d97e6db-29aa-4dc3-a913-dd5ff76e3f8c"},"vehicle_type_id":"4","last_reported":1743026939,"current_range_meters":12400,"station_id":"ce4bh2h2rcd13ifvqdh0","pricing_plan_id":"cebpf4jnsgd1na2vs0mg"},{"bike_id":"1eaf6ce4-66c4-4c7b-afea-653680f1ffe5","system_id":"levelo_inurba_marseille","lat":43.30544,"lon":5.38428,"is_reserved":false,"is_disabled":false,"rental_uris":{"android":"levelo://app?vid=1eaf6ce4-66c4-4c7b-afea-653680f1ffe5","ios":"levelo://app?vid=1eaf6ce4-66c4-4c7b-afea-653680f1ffe5"},"vehicle_type_id":"4","last_reported":1743026939,"current_range_meters":12400,"station_id":"ce4bgg92rcd13ifvqb30","pricing_plan_id":"cebpf4jnsgd1na2vs0mg"},{"bike_id":"5fcb9fdf-6d01-4df5-8f26-0cf4e5feb66b","system_id":"levelo_inurba_marseille","lat":43.28678,"lon":5.38668,"is_reserved":false,"is_disabled":false,"rental_uris":{"android":"levelo://app?vid=5fcb9fdf-6d01-4df5-8f26-0cf4e5feb66b","ios":"levelo://app?vid=5fcb9fdf-6d01-4df5-8f26-0cf4e5feb66b"},"vehicle_type_id":"4","last_reported":1743026939,"current_range_meters":12400,"station_id":"ce4bh492rcd13ifvqdug","pricing_plan_id":"cebpf4jnsgd1na2vs0mg"},{"bike_id":"d848d252-107a-426f-bce4-de8ae36f4340","system_id":"levelo_inurba_marseille","lat":43.29081,"lon":5.38176,"is_reserved":false,"is_disabled":false,"rental_uris":{"android":"levelo://app?vid=d848d252-107a-426f-bce4-de8ae36f4340","ios":"levelo://app?vid=d848d252-107a-426f-bce4-de8ae36f4340"},"vehicle_type_id":"4","last_reported":1743026939,"current_range_meters":12400,"station_id":"ce4bh512rcd13ifvqe2g","pricing_plan_id":"cebpf4jnsgd1na2vs0mg"},{"bike_id":"ac9d8c4f-ced1-4271-9a6c-8b6cf7237652","system_id":"levelo_inurba_marseille","lat":43.32703,"lon":5.40925,"is_reserved":false,"is_disabled":false,"rental_uris":{"android":"levelo://app?vid=ac9d8c4f-ced1-4271-9a6c-8b6cf7237652","ios":"levelo://app?vid=ac9d8c4f-ced1-4271-9a6c-8b6cf7237652"},"vehicle_type_id":"4","last_reported":1743026939,"current_range_meters":12400,"station_id":"","pricing_plan_id":"cebpf4jnsgd1na2vs0mg"},{"bike_id":"4e647ac6-5d0c-4c95-a71f-e7593d444b64","system_id":"levelo_inurba_marseille","lat":43.29523,"lon":5.38551,"is_reserved":false,"is_disabled":false,"rental_uris":{"android":"levelo://app?vid=4e647ac6-5d0c-4c95-a71f-e7593d444b64","ios":"levelo://app?vid=4e647ac6-5d0c-4c95-a71f-e7593d444b64"},"vehicle_type_id":"4","last_reported":1743026939,"current_range_meters":12400,"station_id":"ce4bgih2rcd13ifvqba0","pricing_plan_id":"cebpf4jnsgd1na2vs0mg"},{"bike_id":"395c8128-6668-4fea-a2a8-183582182c86","system_id":"levelo_inurba_marseille","lat":43.24809,"lon":5.37445,"is_reserved":false,"is_disabled":false,"rental_uris":{"android":"levelo://app?vid=395c8128-6668-4fea-a2a8-183582182c86","ios":"levelo://app?vid=395c8128-6668-4fea-a2a8-183582182c86"},"vehicle_type_id":"4","last_reported":1743026939,"current_range_meters":12800,"station_id":"ce4bhgh2rcd13ifvqfb0","pricing_plan_id":"cebpf4jnsgd1na2vs0mg"},{"bike_id":"9cfd7c90-b6e3-46f4-aa30-982b38091cbc","system_id":"levelo_inurba_marseille","lat":43.28714,"lon":5.37941,"is_reserved":false,"is_disabled":false,"rental_uris":{"android":"levelo://app?vid=9cfd7c90-b6e3-46f4-aa30-982b38091cbc","ios":"levelo://app?vid=9cfd7c90-b6e3-46f4-aa30-982b38091cbc"},"vehicle_type_id":"4","last_reported":1743026939,"current_range_meters":12800,"station_id":"ce4bh9p2rcd13ifvqec0","pricing_plan_id":"cebpf4jnsgd1na2vs0mg"},{"bike_id":"0ac88cdf-dd3a-494f-aaa5-2b24d1ce393f","system_id":"levelo_inurba_marseille","lat":43.23182,"lon":5.35564,"is_reserved":false,"is_disabled":false,"rental_uris":{"android":"levelo://app?vid=0ac88cdf-dd3a-494f-aaa5-2b24d1ce393f","ios":"levelo://app?vid=0ac88cdf-dd3a-494f-aaa5-2b24d1ce393f"},"vehicle_type_id":"4","last_reported":1743026939,"current_range_meters":12800,"station_id":"ce4bhu92rcd13ifvqi70","pricing_plan_id":"cebpf4jnsgd1na2vs0mg"},{"bike_id":"67ad2b3c-4355-44a4-932c-978b36069287","system_id":"levelo_inurba_marseille","lat":43.29797,"lon":5.380899,"is_reserved":false,"is_disabled":false,"rental_uris":{"android":"levelo://app?vid=67ad2b3c-4355-44a4-932c-978b36069287","ios":"levelo://app?vid=67ad2b3c-4355-44a4-932c-978b36069287"},"vehicle_type_id":"4","last_reported":1743026939,"current_range_meters":12800,"station_id":"ce4bh112rcd13ifvqda0","pricing_plan_id":"cebpf4jnsgd1na2vs0mg"},{"bike_id":"c18155db-65c7-4d5a-8c5b-923eb75c675d","system_id":"levelo_inurba_marseille","lat":43.32116,"lon":5.36765,"is_reserved":false,"is_disabled":false,"rental_uris":{"android":"levelo://app?vid=c18155db-65c7-4d5a-8c5b-923eb75c675d","ios":"levelo://app?vid=c18155db-65c7-4d5a-8c5b-923eb75c675d"},"vehicle_type_id":"4","last_reported":1743026939,"current_range_meters":12800,"station_id":"ce4bhrh2rcd13ifvqhug","pricing_plan_id":"cebpf4jnsgd1na2vs0mg"},{"bike_id":"54e67b15-5609-498d-89ef-061094ddaf45","system_id":"levelo_inurba_marseille","lat":43.31175,"lon":5.38716,"is_reserved":false,"is_disabled":false,"rental_uris":{"android":"levelo://app?vid=54e67b15-5609-498d-89ef-061094ddaf45","ios":"levelo://app?vid=54e67b15-5609-498d-89ef-061094ddaf45"},"vehicle_type_id":"4","last_reported":1743026939,"current_range_meters":12800,"station_id":"ce4bgv12rcd13ifvqcp0","pricing_plan_id":"cebpf4jnsgd1na2vs0mg"},{"bike_id":"2c84af95-0236-4466-97eb-28fd7ee66649","system_id":"levelo_inurba_marseille","lat":43.30434,"lon":5.38908,"is_reserved":false,"is_disabled":false,"rental_uris":{"android":"levelo://app?vid=2c84af95-0236-4466-97eb-28fd7ee66649","ios":"levelo://app?vid=2c84af95-0236-4466-97eb-28fd7ee66649"},"vehicle_type_id":"4","last_reported":1743026939,"current_range_meters":12800,"station_id":"ce4bgk12rcd13ifvqbi0","pricing_plan_id":"cebpf4jnsgd1na2vs0mg"},{"bike_id":"8ace7717-c45a-48f1-9668-531396bc867c","system_id":"levelo_inurba_marseille","lat":43.27785,"lon":5.40658,"is_reserved":false,"is_disabled":false,"rental_uris":{"android":"levelo://app?vid=8ace7717-c45a-48f1-9668-531396bc867c","ios":"levelo://app?vid=8ace7717-c45a-48f1-9668-531396bc867c"},"vehicle_type_id":"4","last_reported":1743026939,"current_range_meters":12800,"station_id":"","pricing_plan_id":"cebpf4jnsgd1na2vs0mg"},{"bike_id":"5ca9ac81-53c9-444a-ab66-71f3af25a779","system_id":"levelo_inurba_marseille","lat":43.28006,"lon":5.40004,"is_reserved":false,"is_disabled":false,"rental_uris":{"android":"levelo://app?vid=5ca9ac81-53c9-444a-ab66-71f3af25a779","ios":"levelo://app?vid=5ca9ac81-53c9-444a-ab66-71f3af25a779"},"vehicle_type_id":"4","last_reported":1743026939,"current_range_meters":12800,"station_id":"ce4bho92rcd13ifvqh4g","pricing_plan_id":"cebpf4jnsgd1na2vs0mg"},{"bike_id":"ae1cb044-1267-46d3-955d-17f27576ac8f","system_id":"levelo_inurba_marseille","lat":43.28703,"lon":5.3741,"is_reserved":false,"is_disabled":false,"rental_uris":{"android":"levelo://app?vid=ae1cb044-1267-46d3-955d-17f27576ac8f","ios":"levelo://app?vid=ae1cb044-1267-46d3-955d-17f27576ac8f"},"vehicle_type_id":"4","last_reported":1743026939,"current_range_meters":13600,"station_id":"ce4bh3p2rcd13ifvqdq0","pricing_plan_id":"cebpf4jnsgd1na2vs0mg"},{"bike_id":"66e58a5f-3028-4234-b1e9-9dba949dad9d","system_id":"levelo_inurba_marseille","lat":43.31171,"lon":5.38715,"is_reserved":false,"is_disabled":false,"rental_uris":{"android":"levelo://app?vid=66e58a5f-3028-4234-b1e9-9dba949dad9d","ios":"levelo://app?vid=66e58a5f-3028-4234-b1e9-9dba949dad9d"},"vehicle_type_id":"4","last_reported":1743026939,"current_range_meters":13600,"station_id":"ce4bgv12rcd13ifvqcp0","pricing_plan_id":"cebpf4jnsgd1na2vs0mg"},{"bike_id":"75c7187b-7cb5-4136-b180-795a32bcbe1d","system_id":"levelo_inurba_marseille","lat":43.27974,"lon":5.38589,"is_reserved":false,"is_disabled":true,"rental_uris":{"android":"levelo://app?vid=75c7187b-7cb5-4136-b180-795a32bcbe1d","ios":"levelo://app?vid=75c7187b-7cb5-4136-b180-795a32bcbe1d"},"vehicle_type_id":"4","last_reported":1743026939,"current_range_meters":13600,"station_id":"","pricing_plan_id":"cebpf4jnsgd1na2vs0mg"},{"bike_id":"1b036368-9f49-48a1-b87f-7e268d514fd1","system_id":"levelo_inurba_marseille","lat":43.28947,"lon":5.36421,"is_reserved":false,"is_disabled":false,"rental_uris":{"android":"levelo://app?vid=1b036368-9f49-48a1-b87f-7e268d514fd1","ios":"levelo://app?vid=1b036368-9f49-48a1-b87f-7e268d514fd1"},"vehicle_type_id":"4","last_reported":1743026939,"current_range_meters":13600,"station_id":"ce4bhc92rcd13ifvqetg","pricing_plan_id":"cebpf4jnsgd1na2vs0mg"},{"bike_id":"a538ed85-744f-4367-9460-055418610e14","system_id":"levelo_inurba_marseille","lat":43.28674,"lon":5.38658,"is_reserved":false,"is_disabled":false,"rental_uris":{"android":"levelo://app?vid=a538ed85-744f-4367-9460-055418610e14","ios":"levelo://app?vid=a538ed85-744f-4367-9460-055418610e14"},"vehicle_type_id":"4","last_reported":1743026939,"current_range_meters":13600,"station_id":"ce4bh492rcd13ifvqdug","pricing_plan_id":"cebpf4jnsgd1na2vs0mg"},{"bike_id":"89c13152-f3e7-4c55-95f7-7d2066cc605b","system_id":"levelo_inurba_marseille","lat":43.29537,"lon":5.39034,"is_reserved":false,"is_disabled":false,"rental_uris":{"android":"levelo://app?vid=89c13152-f3e7-4c55-95f7-7d2066cc605b","ios":"levelo://app?vid=89c13152-f3e7-4c55-95f7-7d2066cc605b"},"vehicle_type_id":"4","last_reported":1743026939,"current_range_meters":13600,"station_id":"ce4bh3p2rcd13ifvqdp0","pricing_plan_id":"cebpf4jnsgd1na2vs0mg"},{"bike_id":"8e18d478-6616-40a5-bbce-0c27dd0e0aa9","system_id":"levelo_inurba_marseille","lat":43.29271,"lon":5.40114,"is_reserved":false,"is_disabled":false,"rental_uris":{"android":"levelo://app?vid=8e18d478-6616-40a5-bbce-0c27dd0e0aa9","ios":"levelo://app?vid=8e18d478-6616-40a5-bbce-0c27dd0e0aa9"},"vehicle_type_id":"4","last_reported":1743026939,"current_range_meters":14000,"station_id":"ce4bh312rcd13ifvqdk0","pricing_plan_id":"cebpf4jnsgd1na2vs0mg"},{"bike_id":"03fcd15e-64d1-4236-82cf-6968047d6073","system_id":"levelo_inurba_marseille","lat":43.30792,"lon":5.38147,"is_reserved":false,"is_disabled":false,"rental_uris":{"android":"levelo://app?vid=03fcd15e-64d1-4236-82cf-6968047d6073","ios":"levelo://app?vid=03fcd15e-64d1-4236-82cf-6968047d6073"},"vehicle_type_id":"4","last_reported":1743026939,"current_range_meters":14000,"station_id":"ce4bgt12rcd13ifvqce0","pricing_plan_id":"cebpf4jnsgd1na2vs0mg"},{"bike_id":"47a390b1-97d0-4459-9348-533507a01aef","system_id":"levelo_inurba_marseille","lat":43.29535,"lon":5.38535,"is_reserved":false,"is_disabled":false,"rental_uris":{"android":"levelo://app?vid=47a390b1-97d0-4459-9348-533507a01aef","ios":"levelo://app?vid=47a390b1-97d0-4459-9348-533507a01aef"},"vehicle_type_id":"4","last_reported":1743026939,"current_range_meters":14000,"station_id":"ce4bgih2rcd13ifvqba0","pricing_plan_id":"cebpf4jnsgd1na2vs0mg"},{"bike_id":"6e208957-05d3-430b-8247-5e3338f51f57","system_id":"levelo_inurba_marseille","lat":43.29899,"lon":5.38138,"is_reserved":false,"is_disabled":true,"rental_uris":{"android":"levelo://app?vid=6e208957-05d3-430b-8247-5e3338f51f57","ios":"levelo://app?vid=6e208957-05d3-430b-8247-5e3338f51f57"},"vehicle_type_id":"4","last_reported":1743026939,"current_range_meters":14000,"station_id":"ce4bgj12rcd13ifvqbc0","pricing_plan_id":"cebpf4jnsgd1na2vs0mg"},{"bike_id":"379879bf-1f7f-45f5-9cac-b09d574b3620","system_id":"levelo_inurba_marseille","lat":43.27822,"lon":5.4071,"is_reserved":false,"is_disabled":false,"rental_uris":{"android":"levelo://app?vid=379879bf-1f7f-45f5-9cac-b09d574b3620","ios":"levelo://app?vid=379879bf-1f7f-45f5-9cac-b09d574b3620"},"vehicle_type_id":"4","last_reported":1743026939,"current_range_meters":14000,"station_id":"ce4bhnh2rcd13ifvqgtg","pricing_plan_id":"cebpf4jnsgd1na2vs0mg"},{"bike_id":"e9fbcc8c-5ca5-47a7-a7cb-1b67ca13e267","system_id":"levelo_inurba_marseille","lat":43.30211,"lon":5.39473,"is_reserved":false,"is_disabled":false,"rental_uris":{"android":"levelo://app?vid=e9fbcc8c-5ca5-47a7-a7cb-1b67ca13e267","ios":"levelo://app?vid=e9fbcc8c-5ca5-47a7-a7cb-1b67ca13e267"},"vehicle_type_id":"4","last_reported":1743026939,"current_range_meters":14000,"station_id":"ce4bh0p2rcd13ifvqd70","pricing_plan_id":"cebpf4jnsgd1na2vs0mg"},{"bike_id":"e70f4190-15d7-4731-8181-781931044394","system_id":"levelo_inurba_marseille","lat":43.25113,"lon":5.40323,"is_reserved":false,"is_disabled":false,"rental_uris":{"android":"levelo://app?vid=e70f4190-15d7-4731-8181-781931044394","ios":"levelo://app?vid=e70f4190-15d7-4731-8181-781931044394"},"vehicle_type_id":"4","last_reported":1743026939,"current_range_meters":14000,"station_id":"ce4bhlh2rcd13ifvqgig","pricing_plan_id":"cebpf4jnsgd1na2vs0mg"},{"bike_id":"181b29e9-16fe-4559-9b24-eb1130bfc90a","system_id":"levelo_inurba_marseille","lat":43.28363,"lon":5.38091,"is_reserved":false,"is_disabled":false,"rental_uris":{"android":"levelo://app?vid=181b29e9-16fe-4559-9b24-eb1130bfc90a","ios":"levelo://app?vid=181b29e9-16fe-4559-9b24-eb1130bfc90a"},"vehicle_type_id":"4","last_reported":1743026939,"current_range_meters":14000,"station_id":"ce4bh412rcd13ifvqdr0","pricing_plan_id":"cebpf4jnsgd1na2vs0mg"},{"bike_id":"fc8e8371-f4e9-4721-bc19-563801e389dc","system_id":"levelo_inurba_marseille","lat":43.337444,"lon":5.374475,"is_reserved":false,"is_disabled":false,"rental_uris":{"android":"levelo://app?vid=fc8e8371-f4e9-4721-bc19-563801e389dc","ios":"levelo://app?vid=fc8e8371-f4e9-4721-bc19-563801e389dc"},"vehicle_type_id":"4","last_reported":1743026939,"current_range_meters":14000,"station_id":"","pricing_plan_id":"cebpf4jnsgd1na2vs0mg"},{"bike_id":"25c93242-72e6-4525-aea7-7d96e2cd1825","system_id":"levelo_inurba_marseille","lat":43.33085,"lon":5.40832,"is_reserved":false,"is_disabled":false,"rental_uris":{"android":"levelo://app?vid=25c93242-72e6-4525-aea7-7d96e2cd1825","ios":"levelo://app?vid=25c93242-72e6-4525-aea7-7d96e2cd1825"},"vehicle_type_id":"4","last_reported":1743026939,"current_range_meters":14400,"station_id":"","pricing_plan_id":"cebpf4jnsgd1na2vs0mg"},{"bike_id":"5018a59b-b386-4e99-b26c-192a8f1ed783","system_id":"levelo_inurba_marseille","lat":43.33321,"lon":5.359,"is_reserved":false,"is_disabled":false,"rental_uris":{"android":"levelo://app?vid=5018a59b-b386-4e99-b26c-192a8f1ed783","ios":"levelo://app?vid=5018a59b-b386-4e99-b26c-192a8f1ed783"},"vehicle_type_id":"4","last_reported":1743026939,"current_range_meters":14400,"station_id":"","pricing_plan_id":"cebpf4jnsgd1na2vs0mg"},{"bike_id":"a775bff2-22ab-4135-bf19-be293c4a554e","system_id":"levelo_inurba_marseille","lat":43.278329,"lon":5.407252,"is_reserved":false,"is_disabled":false,"rental_uris":{"android":"levelo://app?vid=a775bff2-22ab-4135-bf19-be293c4a554e","ios":"levelo://app?vid=a775bff2-22ab-4135-bf19-be293c4a554e"},"vehicle_type_id":"4","last_reported":1743026939,"current_range_meters":14400,"station_id":"ce4bhnh2rcd13ifvqgtg","pricing_plan_id":"cebpf4jnsgd1na2vs0mg"},{"bike_id":"91676e70-27fa-44e5-87c4-1051cdb96837","system_id":"levelo_inurba_marseille","lat":43.29789,"lon":5.37082,"is_reserved":false,"is_disabled":false,"rental_uris":{"android":"levelo://app?vid=91676e70-27fa-44e5-87c4-1051cdb96837","ios":"levelo://app?vid=91676e70-27fa-44e5-87c4-1051cdb96837"},"vehicle_type_id":"4","last_reported":1743026939,"current_range_meters":14400,"station_id":"ce4bgop2rcd13ifvqc1g","pricing_plan_id":"cebpf4jnsgd1na2vs0mg"},{"bike_id":"0d3b2fa3-6d38-4313-9d4c-1a25a1de4c49","system_id":"levelo_inurba_marseille","lat":43.30533,"lon":5.36717,"is_reserved":false,"is_disabled":false,"rental_uris":{"android":"levelo://app?vid=0d3b2fa3-6d38-4313-9d4c-1a25a1de4c49","ios":"levelo://app?vid=0d3b2fa3-6d38-4313-9d4c-1a25a1de4c49"},"vehicle_type_id":"4","last_reported":1743026939,"current_range_meters":14400,"station_id":"ce4bgrp2rcd13ifvqc9g","pricing_plan_id":"cebpf4jnsgd1na2vs0mg"},{"bike_id":"688f11bd-1c2b-44dc-a361-c45ea1323bb7","system_id":"levelo_inurba_marseille","lat":43.29881,"lon":5.3892,"is_reserved":false,"is_disabled":false,"rental_uris":{"android":"levelo://app?vid=688f11bd-1c2b-44dc-a361-c45ea1323bb7","ios":"levelo://app?vid=688f11bd-1c2b-44dc-a361-c45ea1323bb7"},"vehicle_type_id":"4","last_reported":1743026939,"current_range_meters":14800,"station_id":"ce4bh392rcd13ifvqdl0","pricing_plan_id":"cebpf4jnsgd1na2vs0mg"},{"bike_id":"80766474-85c0-44c4-a66d-af0f869abe8a","system_id":"levelo_inurba_marseille","lat":43.28103,"lon":5.37854,"is_reserved":false,"is_disabled":false,"rental_uris":{"android":"levelo://app?vid=80766474-85c0-44c4-a66d-af0f869abe8a","ios":"levelo://app?vid=80766474-85c0-44c4-a66d-af0f869abe8a"},"vehicle_type_id":"4","last_reported":1743026939,"current_range_meters":14800,"station_id":"ce4bha12rcd13ifvqee0","pricing_plan_id":"cebpf4jnsgd1na2vs0mg"},{"bike_id":"61a5e1c4-996c-42a0-b341-e7ddb3ace48a","system_id":"levelo_inurba_marseille","lat":43.30353,"lon":5.41883,"is_reserved":false,"is_disabled":false,"rental_uris":{"android":"levelo://app?vid=61a5e1c4-996c-42a0-b341-e7ddb3ace48a","ios":"levelo://app?vid=61a5e1c4-996c-42a0-b341-e7ddb3ace48a"},"vehicle_type_id":"4","last_reported":1743026939,"current_range_meters":14800,"station_id":"ce4bhop2rcd13ifvqh7g","pricing_plan_id":"cebpf4jnsgd1na2vs0mg"},{"bike_id":"64f0ea86-1180-4755-95e1-3cbc9c8d4cf5","system_id":"levelo_inurba_marseille","lat":43.32979,"lon":5.43946,"is_reserved":false,"is_disabled":true,"rental_uris":{"android":"levelo://app?vid=64f0ea86-1180-4755-95e1-3cbc9c8d4cf5","ios":"levelo://app?vid=64f0ea86-1180-4755-95e1-3cbc9c8d4cf5"},"vehicle_type_id":"4","last_reported":1743026939,"current_range_meters":14800,"station_id":"","pricing_plan_id":"cebpf4jnsgd1na2vs0mg"},{"bike_id":"39488e53-9d8e-4d87-9142-8e8db44e220c","system_id":"levelo_inurba_marseille","lat":43.30438,"lon":5.39747,"is_reserved":false,"is_disabled":false,"rental_uris":{"android":"levelo://app?vid=39488e53-9d8e-4d87-9142-8e8db44e220c","ios":"levelo://app?vid=39488e53-9d8e-4d87-9142-8e8db44e220c"},"vehicle_type_id":"4","last_reported":1743026939,"current_range_meters":14800,"station_id":"","pricing_plan_id":"cebpf4jnsgd1na2vs0mg"},{"bike_id":"e41f34e9-a34d-4577-8c68-ded341a3f709","system_id":"levelo_inurba_marseille","lat":43.23146,"lon":5.43731,"is_reserved":false,"is_disabled":false,"rental_uris":{"android":"levelo://app?vid=e41f34e9-a34d-4577-8c68-ded341a3f709","ios":"levelo://app?vid=e41f34e9-a34d-4577-8c68-ded341a3f709"},"vehicle_type_id":"4","last_reported":1743026939,"current_range_meters":14800,"station_id":"ce4bhmp2rcd13ifvqgog","pricing_plan_id":"cebpf4jnsgd1na2vs0mg"},{"bike_id":"0f234e82-6eca-409d-9cb7-b29704ec3547","system_id":"levelo_inurba_marseille","lat":43.28723,"lon":5.36085,"is_reserved":false,"is_disabled":false,"rental_uris":{"android":"levelo://app?vid=0f234e82-6eca-409d-9cb7-b29704ec3547","ios":"levelo://app?vid=0f234e82-6eca-409d-9cb7-b29704ec3547"},"vehicle_type_id":"4","last_reported":1743026939,"current_range_meters":14800,"station_id":"cki0cbj6b192h4jlfktg","pricing_plan_id":"cebpf4jnsgd1na2vs0mg"},{"bike_id":"f408f3ed-0fd5-4cd6-9bae-7da3a4cf8142","system_id":"levelo_inurba_marseille","lat":43.29715,"lon":5.36615,"is_reserved":false,"is_disabled":false,"rental_uris":{"android":"levelo://app?vid=f408f3ed-0fd5-4cd6-9bae-7da3a4cf8142","ios":"levelo://app?vid=f408f3ed-0fd5-4cd6-9bae-7da3a4cf8142"},"vehicle_type_id":"4","last_reported":1743026939,"current_range_meters":15200,"station_id":"ce4bgn12rcd13ifvqbt0","pricing_plan_id":"cebpf4jnsgd1na2vs0mg"},{"bike_id":"776cf818-eef5-4096-9df3-aa572959673c","system_id":"levelo_inurba_marseille","lat":43.28035,"lon":5.36938,"is_reserved":false,"is_disabled":false,"rental_uris":{"android":"levelo://app?vid=776cf818-eef5-4096-9df3-aa572959673c","ios":"levelo://app?vid=776cf818-eef5-4096-9df3-aa572959673c"},"vehicle_type_id":"4","last_reported":1743026939,"current_range_meters":15200,"station_id":"ce4bha12rcd13ifvqef0","pricing_plan_id":"cebpf4jnsgd1na2vs0mg"},{"bike_id":"ca065ff7-f860-4005-abf8-f85634523014","system_id":"levelo_inurba_marseille","lat":43.2952,"lon":5.39043,"is_reserved":false,"is_disabled":false,"rental_uris":{"android":"levelo://app?vid=ca065ff7-f860-4005-abf8-f85634523014","ios":"levelo://app?vid=ca065ff7-f860-4005-abf8-f85634523014"},"vehicle_type_id":"4","last_reported":1743026939,"current_range_meters":15200,"station_id":"ce4bh3p2rcd13ifvqdp0","pricing_plan_id":"cebpf4jnsgd1na2vs0mg"},{"bike_id":"a93f4fed-0669-4bda-8e20-4f04f1524f3e","system_id":"levelo_inurba_marseille","lat":43.29256,"lon":5.38432,"is_reserved":false,"is_disabled":false,"rental_uris":{"android":"levelo://app?vid=a93f4fed-0669-4bda-8e20-4f04f1524f3e","ios":"levelo://app?vid=a93f4fed-0669-4bda-8e20-4f04f1524f3e"},"vehicle_type_id":"4","last_reported":1743026939,"current_range_meters":15200,"station_id":"ce4bh692rcd13ifvqea0","pricing_plan_id":"cebpf4jnsgd1na2vs0mg"},{"bike_id":"f27f4e2d-79ee-4ac0-a91a-21e079f77825","system_id":"levelo_inurba_marseille","lat":43.32,"lon":5.38163,"is_reserved":false,"is_disabled":false,"rental_uris":{"android":"levelo://app?vid=f27f4e2d-79ee-4ac0-a91a-21e079f77825","ios":"levelo://app?vid=f27f4e2d-79ee-4ac0-a91a-21e079f77825"},"vehicle_type_id":"4","last_reported":1743026939,"current_range_meters":15200,"station_id":"ce4bhr12rcd13ifvqhpg","pricing_plan_id":"cebpf4jnsgd1na2vs0mg"},{"bike_id":"c9613f12-1591-4476-9e12-be50c7a263a9","system_id":"levelo_inurba_marseille","lat":43.30429,"lon":5.38874,"is_reserved":false,"is_disabled":false,"rental_uris":{"android":"levelo://app?vid=c9613f12-1591-4476-9e12-be50c7a263a9","ios":"levelo://app?vid=c9613f12-1591-4476-9e12-be50c7a263a9"},"vehicle_type_id":"4","last_reported":1743026939,"current_range_meters":15200,"station_id":"ce4bgk12rcd13ifvqbi0","pricing_plan_id":"cebpf4jnsgd1na2vs0mg"},{"bike_id":"8aca1d7d-9763-4a6d-9246-a8579eb91064","system_id":"levelo_inurba_marseille","lat":43.294653,"lon":5.378839,"is_reserved":false,"is_disabled":false,"rental_uris":{"android":"levelo://app?vid=8aca1d7d-9763-4a6d-9246-a8579eb91064","ios":"levelo://app?vid=8aca1d7d-9763-4a6d-9246-a8579eb91064"},"vehicle_type_id":"4","last_reported":1743026939,"current_range_meters":15200,"station_id":"ce4bh012rcd13ifvqd00","pricing_plan_id":"cebpf4jnsgd1na2vs0mg"},{"bike_id":"465c9a07-8e37-4ebc-b05c-f99a26268081","system_id":"levelo_inurba_marseille","lat":43.31313,"lon":5.39698,"is_reserved":false,"is_disabled":false,"rental_uris":{"android":"levelo://app?vid=465c9a07-8e37-4ebc-b05c-f99a26268081","ios":"levelo://app?vid=465c9a07-8e37-4ebc-b05c-f99a26268081"},"vehicle_type_id":"4","last_reported":1743026939,"current_range_meters":15200,"station_id":"ce4bgvp2rcd13ifvqcu0","pricing_plan_id":"cebpf4jnsgd1na2vs0mg"},{"bike_id":"2fe546b8-fa69-42c4-ae8f-4b3f4b863d6b","system_id":"levelo_inurba_marseille","lat":43.2814,"lon":5.42629,"is_reserved":false,"is_disabled":false,"rental_uris":{"android":"levelo://app?vid=2fe546b8-fa69-42c4-ae8f-4b3f4b863d6b","ios":"levelo://app?vid=2fe546b8-fa69-42c4-ae8f-4b3f4b863d6b"},"vehicle_type_id":"4","last_reported":1743026939,"current_range_meters":15200,"station_id":"ce4bhnh2rcd13ifvqgug","pricing_plan_id":"cebpf4jnsgd1na2vs0mg"},{"bike_id":"12de2a5d-af1a-406f-ae29-1792c23b418c","system_id":"levelo_inurba_marseille","lat":43.28416,"lon":5.35024,"is_reserved":false,"is_disabled":true,"rental_uris":{"android":"levelo://app?vid=12de2a5d-af1a-406f-ae29-1792c23b418c","ios":"levelo://app?vid=12de2a5d-af1a-406f-ae29-1792c23b418c"},"vehicle_type_id":"4","last_reported":1743026939,"current_range_meters":16000,"station_id":"ce4bhbh2rcd13ifvqepg","pricing_plan_id":"cebpf4jnsgd1na2vs0mg"},{"bike_id":"ab3f558c-590d-47a6-b1e8-7f233cd76dfc","system_id":"levelo_inurba_marseille","lat":43.29525,"lon":5.38547,"is_reserved":false,"is_disabled":false,"rental_uris":{"android":"levelo://app?vid=ab3f558c-590d-47a6-b1e8-7f233cd76dfc","ios":"levelo://app?vid=ab3f558c-590d-47a6-b1e8-7f233cd76dfc"},"vehicle_type_id":"4","last_reported":1743026939,"current_range_meters":16000,"station_id":"ce4bgih2rcd13ifvqba0","pricing_plan_id":"cebpf4jnsgd1na2vs0mg"},{"bike_id":"3db941ec-b056-48c9-99db-c4785bb67972","system_id":"levelo_inurba_marseille","lat":43.28701,"lon":5.39982,"is_reserved":false,"is_disabled":false,"rental_uris":{"android":"levelo://app?vid=3db941ec-b056-48c9-99db-c4785bb67972","ios":"levelo://app?vid=3db941ec-b056-48c9-99db-c4785bb67972"},"vehicle_type_id":"4","last_reported":1743026939,"current_range_meters":16000,"station_id":"ce4bho92rcd13ifvqh3g","pricing_plan_id":"cebpf4jnsgd1na2vs0mg"},{"bike_id":"3794eee4-f755-48a0-8699-76dca7fff8ee","system_id":"levelo_inurba_marseille","lat":43.212705,"lon":5.353921,"is_reserved":false,"is_disabled":false,"rental_uris":{"android":"levelo://app?vid=3794eee4-f755-48a0-8699-76dca7fff8ee","ios":"levelo://app?vid=3794eee4-f755-48a0-8699-76dca7fff8ee"},"vehicle_type_id":"4","last_reported":1743026939,"current_range_meters":16000,"station_id":"","pricing_plan_id":"cebpf4jnsgd1na2vs0mg"},{"bike_id":"7a5566a4-b495-47f9-86aa-a66a60ad2e0e","system_id":"levelo_inurba_marseille","lat":43.2868,"lon":5.38662,"is_reserved":false,"is_disabled":false,"rental_uris":{"android":"levelo://app?vid=7a5566a4-b495-47f9-86aa-a66a60ad2e0e","ios":"levelo://app?vid=7a5566a4-b495-47f9-86aa-a66a60ad2e0e"},"vehicle_type_id":"4","last_reported":1743026939,"current_range_meters":16000,"station_id":"ce4bh492rcd13ifvqdug","pricing_plan_id":"cebpf4jnsgd1na2vs0mg"},{"bike_id":"2079e143-15fb-4fca-b428-1dcdbd2da2aa","system_id":"levelo_inurba_marseille","lat":43.27784,"lon":5.40694,"is_reserved":false,"is_disabled":false,"rental_uris":{"android":"levelo://app?vid=2079e143-15fb-4fca-b428-1dcdbd2da2aa","ios":"levelo://app?vid=2079e143-15fb-4fca-b428-1dcdbd2da2aa"},"vehicle_type_id":"4","last_reported":1743026939,"current_range_meters":16000,"station_id":"ce4bhnh2rcd13ifvqgtg","pricing_plan_id":"cebpf4jnsgd1na2vs0mg"},{"bike_id":"b92531f3-1086-4aff-8df8-9ccdf666ba85","system_id":"levelo_inurba_marseille","lat":43.2974,"lon":5.37685,"is_reserved":false,"is_disabled":true,"rental_uris":{"android":"levelo://app?vid=b92531f3-1086-4aff-8df8-9ccdf666ba85","ios":"levelo://app?vid=b92531f3-1086-4aff-8df8-9ccdf666ba85"},"vehicle_type_id":"4","last_reported":1743026939,"current_range_meters":16000,"station_id":"ce4bgkh2rcd13ifvqbl0","pricing_plan_id":"cebpf4jnsgd1na2vs0mg"},{"bike_id":"24360c01-9d6b-43f7-a3ae-0bc2a86ec47d","system_id":"levelo_inurba_marseille","lat":43.28117,"lon":5.37891,"is_reserved":false,"is_disabled":false,"rental_uris":{"android":"levelo://app?vid=24360c01-9d6b-43f7-a3ae-0bc2a86ec47d","ios":"levelo://app?vid=24360c01-9d6b-43f7-a3ae-0bc2a86ec47d"},"vehicle_type_id":"4","last_reported":1743026939,"current_range_meters":16000,"station_id":"ce4bha12rcd13ifvqee0","pricing_plan_id":"cebpf4jnsgd1na2vs0mg"},{"bike_id":"de968d99-3956-4cb9-a0ec-5d685c63a3cb","system_id":"levelo_inurba_marseille","lat":43.27803,"lon":5.40718,"is_reserved":false,"is_disabled":false,"rental_uris":{"android":"levelo://app?vid=de968d99-3956-4cb9-a0ec-5d685c63a3cb","ios":"levelo://app?vid=de968d99-3956-4cb9-a0ec-5d685c63a3cb"},"vehicle_type_id":"4","last_reported":1743026939,"current_range_meters":16000,"station_id":"ce4bhnh2rcd13ifvqgtg","pricing_plan_id":"cebpf4jnsgd1na2vs0mg"},