{"last_updated":1719238080,"ttl":30,"version":"2.2","data":{"bikes":[{"bike_id":"b2a706aa-9fd5-4b19-a26c-0e7cdc7f2016","system_id":"levelo_inurba_marseille","lat":43.31341,"lon":5.367098,"is_reserved":false,"is_disabled":false,"rental_uris":{"android":"levelo://app?vid=b2a706aa-9fd5-4b19-a26c-0e7cdc7f2016","ios":"levelo://app?vid=b2a706aa-9fd5-4b19-a26c-0e7cdc7f2016"},"vehicle_type_id":"4","last_reported":1719238080,"current_range_meters":26400,"station_id":"ce4bgr92rcd13ifvqc6g","pricing_plan_id":"cebpf4jnsgd1na2vs0mg"},{"bike_id":"d8409057-282b-4c52-b64c-a173978e17e5","system_id":"levelo_inurba_marseille","lat":43.31341,"lon":5.367098,"is_reserved":false,"is_disabled":false,"rental_uris":{"android":"levelo://app?vid=d8409057-282b-4c52-b64c-a173978e17e5","ios":"levelo://app?vid=d8409057-282b-4c52-b64c-a173978e17e5"},"vehicle_type_id":"4","last_reported":1719238080,"current_range_meters":31200,"station_id":"ce4bgr92rcd13ifvqc6g","pricing_plan_id":"cebpf4jnsgd1na2vs0mg"},{"bike_id":"903c0f0e-7a22-4ae7-8842-ae5106cfdd59","system_id":"levelo_inurba_marseille","lat":43.312239,"lon":5.368562,"is_reserved":false,"is_disabled":false,"rental_uris":{"android":"levelo://app?vid=903c0f0e-7a22-4ae7-8842-ae5106cfdd59","ios":"levelo://app?vid=903c0f0e-7a22-4ae7-8842-ae5106cfdd59"},"vehicle_type_id":"4","last_reported":1719238080,"current_range_meters":12000,"station_id":"ce4bgl92rcd13ifvqbq0","pricing_plan_id":"cebpf4jnsgd1na2vs0mg"},{"bike_id":"ab321610-35ff-4339-9796-b4e95acc827d","system_id":"levelo_inurba_marseille","lat":43.312239,"lon":5.368562,"is_reserved":false,"is_disabled":false,"rental_uris":{"android":"levelo://app?vid=ab321610-35ff-4339-9796-b4e95acc827d","ios":"levelo://app?vid=ab321610-35ff-4339-9796-b4e95acc827d"},"vehicle_type_id":"4","last_reported":1719238080,"current_range_meters":4400,"station_id":"ce4bgl92rcd13ifvqbq0","pricing_plan_id":"cebpf4jnsgd1na2vs0mg"},{"bike_id":"b19ad25e-bdf1-4475-ae7b-041f13207f65","system_id":"levelo_inurba_marseille","lat":43.312239,"lon":5.368562,"is_reserved":false,"is_disabled":false,"rental_uris":{"android":"levelo://app?vid=b19ad25e-bdf1-4475-ae7b-041f13207f65","ios":"levelo://app?vid=b19ad25e-bdf1-4475-ae7b-041f13207f65"},"vehicle_type_id":"4","last_reported":1719238080,"current_range_meters":31200,"station_id":"ce4bgl92rcd13ifvqbq0","pricing_plan_id":"cebpf4jnsgd1na2vs0mg"},{"bike_id":"3a6c9a53-6d12-4f1d-8607-e04e6d9599ba","system_id":"levelo_inurba_marseille","lat":43.312239,"lon":5.368562,"is_reserved":false,"is_disabled":false,"rental_uris":{"android":"levelo://app?vid=3a6c9a53-6d12-4f1d-8607-e04e6d9599ba","ios":"levelo://app?vid=3a6c9a53-6d12-4f1d-8607-e04e6d9599ba"},"vehicle_type_id":"4","last_reported":1719238080,"current_range_meters":31600,"station_id":"ce4bgl92rcd13ifvqbq0","pricing_plan_id":"cebpf4jnsgd1na2vs0mg"},{"bike_id":"05fcb775-210e-495e-90c5-a6a8b65d0bdf","system_id":"levelo_inurba_marseille","lat":43.312239,"lon":5.368562,"is_reserved":false,"is_disabled":false,"rental_uris":{"android":"levelo://app?vid=05fcb775-210e-495e-90c5-a6a8b65d0bdf","ios":"levelo://app?vid=05fcb775-210e-495e-90c5-a6a8b65d0bdf"},"vehicle_type_id":"4","last_reported":1719238080,"current_range_meters":16400,"station_id":"ce4bgl92rcd13ifvqbq0","pricing_plan_id":"cebpf4jnsgd1na2vs0mg"},{"bike_id":"eb0b23ef-a6cf-44db-928a-438a4dcc0ffd","system_id":"levelo_inurba_marseille","lat":43.312239,"lon":5.368562,"is_reserved":false,"is_disabled":false,"rental_uris":{"android":"levelo://app?vid=eb0b23ef-a6cf-44db-928a-438a4dcc0ffd","ios":"levelo://app?vid=eb0b23ef-a6cf-44db-928a-438a4dcc0ffd"},"vehicle_type_id":"4","last_reported":1719238080,"current_range_meters":14400,"station_id":"ce4bgl92rcd13ifvqbq0","pricing_plan_id":"cebpf4jnsgd1na2vs0mg"},{"bike_id":"e088c916-7d8d-4a90-82e5-00d618751fed","system_id":"levelo_inurba_marseille","lat":43.312239,"lon":5.368562,"is_reserved":false,"is_disabled":false,"rental_uris":{"android":"levelo://app?vid=e088c916-7d8d-4a90-82e5-00d618751fed","ios":"levelo://app?vid=e088c916-7d8d-4a90-82e5-00d618751fed"},"vehicle_type_id":"4","last_reported":1719238080,"current_range_meters":400,"station_id":"ce4bgl92rcd13ifvqbq0","pricing_plan_id":"cebpf4jnsgd1na2vs0mg"},{"bike_id":"2263557f-eb99-4c7e-adcd-f1ddd19d4a29","system_id":"levelo_inurba_marseille","lat":43.312239,"lon":5.368562,"is_reserved":false,"is_disabled":false,"rental_uris":{"android":"levelo://app?vid=2263557f-eb99-4c7e-adcd-f1ddd19d4a29","ios":"levelo://app?vid=2263557f-eb99-4c7e-adcd-f1ddd19d4a29"},"vehicle_type_id":"4","last_reported":1719238080,"current_range_meters":4000,"station_id":"ce4bgl92rcd13ifvqbq0","pricing_plan_id":"cebpf4jnsgd1na2vs0mg"},{"bike_id":"0b2ff2e5-bcee-40e1-a9ad-781dfa94659b","system_id":"levelo_inurba_marseille","lat":43.312239,"lon":5.368562,"is_reserved":false,"is_disabled":false,"rental_uris":{"android":"levelo://app?vid=0b2ff2e5-bcee-40e1-a9ad-781dfa94659b","ios":"levelo://app?vid=0b2ff2e5-bcee-40e1-a9ad-781dfa94659b"},"vehicle_type_id":"4","last_reported":1719238080,"current_range_meters":24000,"station_id":"ce4bgl92rcd13ifvqbq0","pricing_plan_id":"cebpf4jnsgd1na2vs0mg"},{"bike_id":"342b5108-2141-47de-b6b9-8c9a5f364f62","system_id":"levelo_inurba_marseille","lat":43.312239,"lon":5.368562,"is_reserved":false,"is_disabled":false,"rental_uris":{"android":"levelo://app?vid=342b5108-2141-47de-b6b9-8c9a5f364f62","ios":"levelo://app?vid=342b5108-2141-47de-b6b9-8c9a5f364f62"},"vehicle_type_id":"4","last_reported":1719238080,"current_range_meters":12000,"station_id":"ce4bgl92rcd13ifvqbq0","pricing_plan_id":"cebpf4jnsgd1na2vs0mg"},{"bike_id":"bc6a33f2-8b1a-4531-bd85-beef392ed7b0","system_id":"levelo_inurba_marseille","lat":43.3108,"lon":5.36891,"is_reserved":false,"is_disabled":false,"rental_uris":{"android":"levelo://app?vid=bc6a33f2-8b1a-4531-bd85-beef392ed7b0","ios":"levelo://app?vid=bc6a33f2-8b1a-4531-bd85-beef392ed7b0"},"vehicle_type_id":"4","last_reported":1719238080,"current_range_meters":20800,"station_id":"","pricing_plan_id":"cebpf4jnsgd1na2vs0mg"},{"bike_id":"0c0b9473-ba76-4c2b-a997-4a8932359694","system_id":"levelo_inurba_marseille","lat":43.309076,"lon":5.368465,"is_reserved":false,"is_disabled":false,"rental_uris":{"android":"levelo://app?vid=0c0b9473-ba76-4c2b-a997-4a8932359694","ios":"levelo://app?vid=0c0b9473-ba76-4c2b-a997-4a8932359694"},"vehicle_type_id":"4","last_reported":1719238080,"current_range_meters":30800,"station_id":"ce4bgn92rcd13ifvqbvg","pricing_plan_id":"cebpf4jnsgd1na2vs0mg"},{"bike_id":"17e64eda-4f63-4f97-b99e-b2493d179314","system_id":"levelo_inurba_marseille","lat":43.309076,"lon":5.368465,"is_reserved":false,"is_disabled":false,"rental_uris":{"android":"levelo://app?vid=17e64eda-4f63-4f97-b99e-b2493d179314","ios":"levelo://app?vid=17e64eda-4f63-4f97-b99e-b2493d179314"},"vehicle_type_id":"4","last_reported":1719238080,"current_range_meters":25600,"station_id":"ce4bgn92rcd13ifvqbvg","pricing_plan_id":"cebpf4jnsgd1na2vs0mg"},{"bike_id":"a475d5fc-2008-419a-8678-b1a23e668643","system_id":"levelo_inurba_marseille","lat":43.309076,"lon":5.368465,"is_reserved":false,"is_disabled":false,"rental_uris":{"android":"levelo://app?vid=a475d5fc-2008-419a-8678-b1a23e668643","ios":"levelo://app?vid=a475d5fc-2008-419a-8678-b1a23e668643"},"vehicle_type_id":"4","last_reported":1719238080,"current_range_meters":22800,"station_id":"ce4bgn92rcd13ifvqbvg","pricing_plan_id":"cebpf4jnsgd1na2vs0mg"},{"bike_id":"b6a27d35-26ed-4f74-bf67-ad67db1caebd","system_id":"levelo_inurba_marseille","lat":43.31492,"lon":5.37307,"is_reserved":false,"is_disabled":false,"rental_uris":{"android":"levelo://app?vid=b6a27d35-26ed-4f74-bf67-ad67db1caebd","ios":"levelo://app?vid=b6a27d35-26ed-4f74-bf67-ad67db1caebd"},"vehicle_type_id":"4","last_reported":1719238080,"current_range_meters":30800,"station_id":"ce4bgt12rcd13ifvqcd0","pricing_plan_id":"cebpf4jnsgd1na2vs0mg"},{"bike_id":"7e7b2d02-63b2-48a4-9164-dc1fcc0fb9c9","system_id":"levelo_inurba_marseille","lat":43.314811,"lon":5.373103,"is_reserved":false,"is_disabled":false,"rental_uris":{"android":"levelo://app?vid=7e7b2d02-63b2-48a4-9164-dc1fcc0fb9c9","ios":"levelo://app?vid=7e7b2d02-63b2-48a4-9164-dc1fcc0fb9c9"},"vehicle_type_id":"4","last_reported":1719238080,"current_range_meters":21600,"station_id":"ce4bgt12rcd13ifvqcd0","pricing_plan_id":"cebpf4jnsgd1na2vs0mg"},{"bike_id":"adf0b04d-1972-458d-927c-edd0261cd576","system_id":"levelo_inurba_marseille","lat":43.31497,"lon":5.37312,"is_reserved":false,"is_disabled":false,"rental_uris":{"android":"levelo://app?vid=adf0b04d-1972-458d-927c-edd0261cd576","ios":"levelo://app?vid=adf0b04d-1972-458d-927c-edd0261cd576"},"vehicle_type_id":"4","last_reported":1719238080,"current_range_meters":29200,"station_id":"ce4bgt12rcd13ifvqcd0","pricing_plan_id":"cebpf4jnsgd1na2vs0mg"},{"bike_id":"e92c0637-a9fe-422a-93c9-73f863008a3d","system_id":"levelo_inurba_marseille","lat":43.31496,"lon":5.37313,"is_reserved":false,"is_disabled":false,"rental_uris":{"android":"levelo://app?vid=e92c0637-a9fe-422a-93c9-73f863008a3d","ios":"levelo://app?vid=e92c0637-a9fe-422a-93c9-73f863008a3d"},"vehicle_type_id":"4","last_reported":1719238080,"current_range_meters":2800,"station_id":"ce4bgt12rcd13ifvqcd0","pricing_plan_id":"cebpf4jnsgd1na2vs0mg"},{"bike_id":"5651355f-ab1d-4c37-990b-c6cd88141d5d","system_id":"levelo_inurba_marseille","lat":43.31496,"lon":5.37316,"is_reserved":false,"is_disabled":false,"rental_uris":{"android":"levelo://app?vid=5651355f-ab1d-4c37-990b-c6cd88141d5d","ios":"levelo://app?vid=5651355f-ab1d-4c37-990b-c6cd88141d5d"},"vehicle_type_id":"4","last_reported":1719238080,"current_range_meters":12800,"station_id":"ce4bgt12rcd13ifvqcd0","pricing_plan_id":"cebpf4jnsgd1na2vs0mg"},{"bike_id":"3e6229a9-daa1-4e8e-b7ec-60b28f97252f","system_id":"levelo_inurba_marseille","lat":43.31452,"lon":5.373706,"is_reserved":false,"is_disabled":false,"rental_uris":{"android":"levelo://app?vid=3e6229a9-daa1-4e8e-b7ec-60b28f97252f","ios":"levelo://app?vid=3e6229a9-daa1-4e8e-b7ec-60b28f97252f"},"vehicle_type_id":"4","last_reported":1719238080,"current_range_meters":2800,"station_id":"ce4bgt12rcd13ifvqcd0","pricing_plan_id":"cebpf4jnsgd1na2vs0mg"},{"bike_id":"77460ccb-960a-4153-8783-e0a172f31a95","system_id":"levelo_inurba_marseille","lat":43.314513,"lon":5.373723,"is_reserved":false,"is_disabled":false,"rental_uris":{"android":"levelo://app?vid=77460ccb-960a-4153-8783-e0a172f31a95","ios":"levelo://app?vid=77460ccb-960a-4153-8783-e0a172f31a95"},"vehicle_type_id":"4","last_reported":1719238080,"current_range_meters":6400,"station_id":"","pricing_plan_id":"cebpf4jnsgd1na2vs0mg"},{"bike_id":"6c2f67ac-3899-49d5-bf1b-1d029c32f894","system_id":"levelo_inurba_marseille","lat":43.309039,"lon":5.371797,"is_reserved":false,"is_disabled":false,"rental_uris":{"android":"levelo://app?vid=6c2f67ac-3899-49d5-bf1b-1d029c32f894","ios":"levelo://app?vid=6c2f67ac-3899-49d5-bf1b-1d029c32f894"},"vehicle_type_id":"4","last_reported":1719238080,"current_range_meters":20000,"station_id":"ce4bguh2rcd13ifvqckg","pricing_plan_id":"cebpf4jnsgd1na2vs0mg"},{"bike_id":"f310684d-0ea6-46ed-9fc4-031eb6db22e3","system_id":"levelo_inurba_marseille","lat":43.305989,"lon":5.37225,"is_reserved":false,"is_disabled":false,"rental_uris":{"android":"levelo://app?vid=f310684d-0ea6-46ed-9fc4-031eb6db22e3","ios":"levelo://app?vid=f310684d-0ea6-46ed-9fc4-031eb6db22e3"},"vehicle_type_id":"4","last_reported":1719238080,"current_range_meters":26800,"station_id":"ce4bgqh2rcd13ifvqc4g","pricing_plan_id":"cebpf4jnsgd1na2vs0mg"},{"bike_id":"11d6938a-a60a-463a-968d-db4eb192cc7c","system_id":"levelo_inurba_marseille","lat":43.305989,"lon":5.37225,"is_reserved":false,"is_disabled":false,"rental_uris":{"android":"levelo://app?vid=11d6938a-a60a-463a-968d-db4eb192cc7c","ios":"levelo://app?vid=11d6938a-a60a-463a-968d-db4eb192cc7c"},"vehicle_type_id":"4","last_reported":1719238080,"current_range_meters":26800,"station_id":"ce4bgqh2rcd13ifvqc4g","pricing_plan_id":"cebpf4jnsgd1na2vs0mg"},{"bike_id":"75b8a856-4785-4cc6-8570-5df619ce645d","system_id":"levelo_inurba_marseille","lat":43.305989,"lon":5.37225,"is_reserved":false,"is_disabled":false,"rental_uris":{"android":"levelo://app?vid=75b8a856-4785-4cc6-8570-5df619ce645d","ios":"levelo://app?vid=75b8a856-4785-4cc6-8570-5df619ce645d"},"vehicle_type_id":"4","last_reported":1719238080,"current_range_meters":23200,"station_id":"ce4bgqh2rcd13ifvqc4g","pricing_plan_id":"cebpf4jnsgd1na2vs0mg"},{"bike_id":"cd54c6f3-8850-4a23-8fe9-14593842f00d","system_id":"levelo_inurba_marseille","lat":43.305989,"lon":5.37225,"is_reserved":false,"is_disabled":false,"rental_uris":{"android":"levelo://app?vid=cd54c6f3-8850-4a23-8fe9-14593842f00d","ios":"levelo://app?vid=cd54c6f3-8850-4a23-8fe9-14593842f00d"},"vehicle_type_id":"4","last_reported":1719238080,"current_range_meters":26800,"station_id":"ce4bgqh2rcd13ifvqc4g","pricing_plan_id":"cebpf4jnsgd1na2vs0mg"},{"bike_id":"dd76993e-ad16-4edf-acd5-d5db3f18ed84","system_id":"levelo_inurba_marseille","lat":43.306113,"lon":5.372283,"is_reserved":false,"is_disabled":false,"rental_uris":{"android":"levelo://app?vid=dd76993e-ad16-4edf-acd5-d5db3f18ed84","ios":"levelo://app?vid=dd76993e-ad16-4edf-acd5-d5db3f18ed84"},"vehicle_type_id":"4","last_reported":1719238080,"current_range_meters":31200,"station_id":"ce4bgqh2rcd13ifvqc4g","pricing_plan_id":"cebpf4jnsgd1na2vs0mg"},{"bike_id":"9178c379-df1f-4a61-8080-abde93c33455","system_id":"levelo_inurba_marseille","lat":43.30608,"lon":5.37221,"is_reserved":false,"is_disabled":false,"rental_uris":{"android":"levelo://app?vid=9178c379-df1f-4a61-8080-abde93c33455","ios":"levelo://app?vid=9178c379-df1f-4a61-8080-abde93c33455"},"vehicle_type_id":"4","last_reported":1719238080,"current_range_meters":22000,"station_id":"ce4bgqh2rcd13ifvqc4g","pricing_plan_id":"cebpf4jnsgd1na2vs0mg"},{"bike_id":"11e0ab4d-b7c9-45cb-be75-b0b210b93cd5","system_id":"levelo_inurba_marseille","lat":43.305989,"lon":5.37225,"is_reserved":false,"is_disabled":false,"rental_uris":{"android":"levelo://app?vid=11e0ab4d-b7c9-45cb-be75-b0b210b93cd5","ios":"levelo://app?vid=11e0ab4d-b7c9-45cb-be75-b0b210b93cd5"},"vehicle_type_id":"4","last_reported":1719238080,"current_range_meters":8400,"station_id":"ce4bgqh2rcd13ifvqc4g","pricing_plan_id":"cebpf4jnsgd1na2vs0mg"},{"bike_id":"cac3d01a-ce1b-4ec3-a3e1-b33d9612fcd7","system_id":"levelo_inurba_marseille","lat":43.305989,"lon":5.37225,"is_reserved":false,"is_disabled":false,"rental_uris":{"android":"levelo://app?vid=cac3d01a-ce1b-4ec3-a3e1-b33d9612fcd7","ios":"levelo://app?vid=cac3d01a-ce1b-4ec3-a3e1-b33d9612fcd7"},"vehicle_type_id":"4","last_reported":1719238080,"current_range_meters":13200,"station_id":"ce4bgqh2rcd13ifvqc4g","pricing_plan_id":"cebpf4jnsgd1na2vs0mg"},{"bike_id":"bd620d3f-1830-4d93-887f-d2896927e246","system_id":"levelo_inurba_marseille","lat":43.305989,"lon":5.37225,"is_reserved":false,"is_disabled":false,"rental_uris":{"android":"levelo://app?vid=bd620d3f-1830-4d93-887f-d2896927e246","ios":"levelo://app?vid=bd620d3f-1830-4d93-887f-d2896927e246"},"vehicle_type_id":"4","last_reported":1719238080,"current_range_meters":1200,"station_id":"ce4bgqh2rcd13ifvqc4g","pricing_plan_id":"cebpf4jnsgd1na2vs0mg"},{"bike_id":"4b42755a-3d35-4f96-a6c9-9f5a9460c5ef","system_id":"levelo_inurba_marseille","lat":43.30609,"lon":5.37227,"is_reserved":false,"is_disabled":false,"rental_uris":{"android":"levelo://app?vid=4b42755a-3d35-4f96-a6c9-9f5a9460c5ef","ios":"levelo://app?vid=4b42755a-3d35-4f96-a6c9-9f5a9460c5ef"},"vehicle_type_id":"4","last_reported":1719238080,"current_range_meters":28000,"station_id":"ce4bgqh2rcd13ifvqc4g","pricing_plan_id":"cebpf4jnsgd1na2vs0mg"},{"bike_id":"f593285b-530f-4237-a91c-30a078dd088d","system_id":"levelo_inurba_marseille","lat":43.30602,"lon":5.37214,"is_reserved":false,"is_disabled":false,"rental_uris":{"android":"levelo://app?vid=f593285b-530f-4237-a91c-30a078dd088d","ios":"levelo://app?vid=f593285b-530f-4237-a91c-30a078dd088d"},"vehicle_type_id":"4","last_reported":1719238080,"current_range_meters":31200,"station_id":"ce4bgqh2rcd13ifvqc4g","pricing_plan_id":"cebpf4jnsgd1na2vs0mg"},{"bike_id":"93c13bc6-cdf4-4027-a6a5-65a76d62df8f","system_id":"levelo_inurba_marseille","lat":43.30601,"lon":5.3722,"is_reserved":false,"is_disabled":false,"rental_uris":{"android":"levelo://app?vid=93c13bc6-cdf4-4027-a6a5-65a76d62df8f","ios":"levelo://app?vid=93c13bc6-cdf4-4027-a6a5-65a76d62df8f"},"vehicle_type_id":"4","last_reported":1719238080,"current_range_meters":22800,"station_id":"ce4bgqh2rcd13ifvqc4g","pricing_plan_id":"cebpf4jnsgd1na2vs0mg"},{"bike_id":"0fa5d30d-96b2-4dcf-9845-647cd54ba08b","system_id":"levelo_inurba_marseille","lat":43.305989,"lon":5.37225,"is_reserved":false,"is_disabled":false,"rental_uris":{"android":"levelo://app?vid=0fa5d30d-96b2-4dcf-9845-647cd54ba08b","ios":"levelo://app?vid=0fa5d30d-96b2-4dcf-9845-647cd54ba08b"},"vehicle_type_id":"4","last_reported":1719238080,"current_range_meters":18000,"station_id":"ce4bgqh2rcd13ifvqc4g","pricing_plan_id":"cebpf4jnsgd1na2vs0mg"},{"bike_id":"05ebcc51-6017-48a5-9723-1163c6fdffa6","system_id":"levelo_inurba_marseille","lat":43.311131,"lon":5.377651,"is_reserved":false,"is_disabled":false,"rental_uris":{"android":"levelo://app?vid=05ebcc51-6017-48a5-9723-1163c6fdffa6","ios":"levelo://app?vid=05ebcc51-6017-48a5-9723-1163c6fdffa6"},"vehicle_type_id":"4","last_reported":1719238080,"current_range_meters":28400,"station_id":"ce4bgt92rcd13ifvqcg0","pricing_plan_id":"cebpf4jnsgd1na2vs0mg"},{"bike_id":"3dfa7353-4369-483f-b4f9-9d862a68bd06","system_id":"levelo_inurba_marseille","lat":43.307945,"lon":5.376487,"is_reserved":false,"is_disabled":false,"rental_uris":{"android":"levelo://app?vid=3dfa7353-4369-483f-b4f9-9d862a68bd06","ios":"levelo://app?vid=3dfa7353-4369-483f-b4f9-9d862a68bd06"},"vehicle_type_id":"4","last_reported":1719238080,"current_range_meters":17600,"station_id":"ce4bgv92rcd13ifvqcq0","pricing_plan_id":"cebpf4jnsgd1na2vs0mg"},{"bike_id":"62d6386c-1503-4b05-b0f4-18995a8e201f","system_id":"levelo_inurba_marseille","lat":43.30304,"lon":5.368987,"is_reserved":false,"is_disabled":false,"rental_uris":{"android":"levelo://app?vid=62d6386c-1503-4b05-b0f4-18995a8e201f","ios":"levelo://app?vid=62d6386c-1503-4b05-b0f4-18995a8e201f"},"vehicle_type_id":"4","last_reported":1719238080,"current_range_meters":16800,"station_id":"ce4bgqh2rcd13ifvqc5g","pricing_plan_id":"cebpf4jnsgd1na2vs0mg"},{"bike_id":"e7bc30fc-05ec-410d-a2c1-0261f395f8c3","system_id":"levelo_inurba_marseille","lat":43.315289,"lon":5.380349,"is_reserved":false,"is_disabled":false,"rental_uris":{"android":"levelo://app?vid=e7bc30fc-05ec-410d-a2c1-0261f395f8c3","ios":"levelo://app?vid=e7bc30fc-05ec-410d-a2c1-0261f395f8c3"},"vehicle_type_id":"4","last_reported":1719238080,"current_range_meters":9200,"station_id":"ce4bhsp2rcd13ifvqi50","pricing_plan_id":"cebpf4jnsgd1na2vs0mg"},{"bike_id":"ea6a9321-e6b4-4253-a700-339cf1e176ae","system_id":"levelo_inurba_marseille","lat":43.301939,"lon":5.366286,"is_reserved":false,"is_disabled":false,"rental_uris":{"android":"levelo://app?vid=ea6a9321-e6b4-4253-a700-339cf1e176ae","ios":"levelo://app?vid=ea6a9321-e6b4-4253-a700-339cf1e176ae"},"vehicle_type_id":"4","last_reported":1719238080,"current_range_meters":26000,"station_id":"ce4bgrh2rcd13ifvqc8g","pricing_plan_id":"cebpf4jnsgd1na2vs0mg"},{"bike_id":"37a50e93-fa85-4e3c-810c-4347dbff73f5","system_id":"levelo_inurba_marseille","lat":43.301939,"lon":5.366286,"is_reserved":false,"is_disabled":false,"rental_uris":{"android":"levelo://app?vid=37a50e93-fa85-4e3c-810c-4347dbff73f5","ios":"levelo://app?vid=37a50e93-fa85-4e3c-810c-4347dbff73f5"},"vehicle_type_id":"4","last_reported":1719238080,"current_range_meters":1200,"station_id":"ce4bgrh2rcd13ifvqc8g","pricing_plan_id":"cebpf4jnsgd1na2vs0mg"},{"bike_id":"1af1a197-f817-4420-b396-ece61ac77229","system_id":"levelo_inurba_marseille","lat":43.308012,"lon":5.381511,"is_reserved":false,"is_disabled":false,"rental_uris":{"android":"levelo://app?vid=1af1a197-f817-4420-b396-ece61ac77229","ios":"levelo://app?vid=1af1a197-f817-4420-b396-ece61ac77229"},"vehicle_type_id":"4","last_reported":1719238080,"current_range_meters":3200,"station_id":"ce4bgt12rcd13ifvqce0","pricing_plan_id":"cebpf4jnsgd1na2vs0mg"},{"bike_id":"11c3adf7-c65e-40ab-b3c9-74908b448b99","system_id":"levelo_inurba_marseille","lat":43.324771,"lon":5.36557,"is_reserved":false,"is_disabled":false,"rental_uris":{"android":"levelo://app?vid=11c3adf7-c65e-40ab-b3c9-74908b448b99","ios":"levelo://app?vid=11c3adf7-c65e-40ab-b3c9-74908b448b99"},"vehicle_type_id":"4","last_reported":1719238080,"current_range_meters":29200,"station_id":"ce4bhs12rcd13ifvqhvg","pricing_plan_id":"cebpf4jnsgd1na2vs0mg"},{"bike_id":"7abdbe9e-1c09-44cd-934a-8d35e276cc09","system_id":"levelo_inurba_marseille","lat":43.324771,"lon":5.36557,"is_reserved":false,"is_disabled":false,"rental_uris":{"android":"levelo://app?vid=7abdbe9e-1c09-44cd-934a-8d35e276cc09","ios":"levelo://app?vid=7abdbe9e-1c09-44cd-934a-8d35e276cc09"},"vehicle_type_id":"4","last_reported":1719238080,"current_range_meters":10000,"station_id":"ce4bhs12rcd13ifvqhvg","pricing_plan_id":"cebpf4jnsgd1na2vs0mg"},{"bike_id":"91243181-9773-47d7-a3ff-e24e0ed93767","system_id":"levelo_inurba_marseille","lat":43.324771,"lon":5.36557,"is_reserved":false,"is_disabled":false,"rental_uris":{"android":"levelo://app?vid=91243181-9773-47d7-a3ff-e24e0ed93767","ios":"levelo://app?vid=91243181-9773-47d7-a3ff-e24e0ed93767"},"vehicle_type_id":"4","last_reported":1719238080,"current_range_meters":22400,"station_id":"ce4bhs12rcd13ifvqhvg","pricing_plan_id":"cebpf4jnsgd1na2vs0mg"},{"bike_id":"373b1521-29c9-474c-bfd4-274a49584962","system_id":"levelo_inurba_marseille","lat":43.324771,"lon":5.36557,"is_reserved":false,"is_disabled":false,"rental_uris":{"android":"levelo://app?vid=373b1521-29c9-474c-bfd4-274a49584962","ios":"levelo://app?vid=373b1521-29c9-474c-bfd4-274a49584962"},"vehicle_type_id":"4","last_reported":1719238080,"current_range_meters":10000,"station_id":"ce4bhs12rcd13ifvqhvg","pricing_plan_id":"cebpf4jnsgd1na2vs0mg"},{"bike_id":"14c9c5f1-4f95-49d2-b1a2-dbfc7b5731c5","system_id":"levelo_inurba_marseille","lat":43.324771,"lon":5.36557,"is_reserved":false,"is_disabled":false,"rental_uris":{"android":"levelo://app?vid=14c9c5f1-4f95-49d2-b1a2-dbfc7b5731c5","ios":"levelo://app?vid=14c9c5f1-4f95-49d2-b1a2-dbfc7b5731c5"},"vehicle_type_id":"4","last_reported":1719238080,"current_range_meters":7200,"station_id":"ce4bhs12rcd13ifvqhvg","pricing_plan_id":"cebpf4jnsgd1na2vs0mg"},{"bike_id":"93afeaa8-0ffd-4853-b8dd-68068eeea4e1","system_id":"levelo_inurba_marseille","lat":43.324771,"lon":5.36557,"is_reserved":false,"is_disabled":false,"rental_uris":{"android":"levelo://app?vid=93afeaa8-0ffd-4853-b8dd-68068eeea4e1","ios":"levelo://app?vid=93afeaa8-0ffd-4853-b8dd-68068eeea4e1"},"vehicle_type_id":"4","last_reported":1719238080,"current_range_meters":14400,"station_id":"ce4bhs12rcd13ifvqhvg","pricing_plan_id":"cebpf4jnsgd1na2vs0mg"},{"bike_id":"f55ee702-4712-47a2-9d7a-4d7fc8adffe8","system_id":"levelo_inurba_marseille","lat":43.324771,"lon":5.36557,"is_reserved":false,"is_disabled":false,"rental_uris":{"android":"levelo://app?vid=f55ee702-4712-47a2-9d7a-4d7fc8adffe8","ios":"levelo://app?vid=f55ee702-4712-47a2-9d7a-4d7fc8adffe8"},"vehicle_type_id":"4","last_reported":1719238080,"current_range_meters":3600,"station_id":"ce4bhs12rcd13ifvqhvg","pricing_plan_id":"cebpf4jnsgd1na2vs0mg"},{"bike_id":"6f9afda5-63b5-42aa-808e-7c3daebaa319","system_id":"levelo_inurba_marseille","lat":43.302784,"lon":5.377158,"is_reserved":false,"is_disabled":false,"rental_uris":{"android":"levelo://app?vid=6f9afda5-63b5-42aa-808e-7c3daebaa319","ios":"levelo://app?vid=6f9afda5-63b5-42aa-808e-7c3daebaa319"},"vehicle_type_id":"4","last_reported":1719238080,"current_range_meters":21600,"station_id":"ce4bguh2rcd13ifvqcj0","pricing_plan_id":"cebpf4jnsgd1na2vs0mg"},{"bike_id":"e882f32c-3280-462e-a433-85966bc3c308","system_id":"levelo_inurba_marseille","lat":43.301429,"lon":5.37413,"is_reserved":false,"is_disabled":false,"rental_uris":{"android":"levelo://app?vid=e882f32c-3280-462e-a433-85966bc3c308","ios":"levelo://app?vid=e882f32c-3280-462e-a433-85966bc3c308"},"vehicle_type_id":"4","last_reported":1719238080,"current_range_meters":22800,"station_id":"ce4bgs92rcd13ifvqcc0","pricing_plan_id":"cebpf4jnsgd1na2vs0mg"},{"bike_id":"cbff3412-e782-46f3-902f-b36de1fa8d92","system_id":"levelo_inurba_marseille","lat":43.319935,"lon":5.381699,"is_reserved":false,"is_disabled":false,"rental_uris":{"android":"levelo://app?vid=cbff3412-e782-46f3-902f-b36de1fa8d92","ios":"levelo://app?vid=cbff3412-e782-46f3-902f-b36de1fa8d92"},"vehicle_type_id":"4","last_reported":1719238080,"current_range_meters":24000,"station_id":"ce4bhr12rcd13ifvqhpg","pricing_plan_id":"cebpf4jnsgd1na2vs0mg"},{"bike_id":"a2253144-bd83-44ad-8520-993386ec6e41","system_id":"levelo_inurba_marseille","lat":43.319935,"lon":5.381699,"is_reserved":false,"is_disabled":false,"rental_uris":{"android":"levelo://app?vid=a2253144-bd83-44ad-8520-993386ec6e41","ios":"levelo://app?vid=a2253144-bd83-44ad-8520-993386ec6e41"},"vehicle_type_id":"4","last_reported":1719238080,"current_range_meters":17200,"station_id":"ce4bhr12rcd13ifvqhpg","pricing_plan_id":"cebpf4jnsgd1na2vs0mg"},{"bike_id":"c5695249-6c1e-416a-aadd-b9b48ac62157","system_id":"levelo_inurba_marseille","lat":43.319935,"lon":5.381699,"is_reserved":false,"is_disabled":false,"rental_uris":{"android":"levelo://app?vid=c5695249-6c1e-416a-aadd-b9b48ac62157","ios":"levelo://app?vid=c5695249-6c1e-416a-aadd-b9b48ac62157"},"vehicle_type_id":"4","last_reported":1719238080,"current_range_meters":12800,"station_id":"ce4bhr12rcd13ifvqhpg","pricing_plan_id":"cebpf4jnsgd1na2vs0mg"},{"bike_id":"34e77192-d25a-4b63-8c10-d43a147c657b","system_id":"levelo_inurba_marseille","lat":43.313571,"lon":5.384829,"is_reserved":false,"is_disabled":false,"rental_uris":{"android":"levelo://app?vid=34e77192-d25a-4b63-8c10-d43a147c657b","ios":"levelo://app?vid=34e77192-d25a-4b63-8c10-d43a147c657b"},"vehicle_type_id":"4","last_reported":1719238080,"current_range_meters":25200,"station_id":"ce4bgt92rcd13ifvqcf0","pricing_plan_id":"cebpf4jnsgd1na2vs0mg"},{"bike_id":"ef8dce3a-2c8f-435a-9bba-7b01d995d0e7","system_id":"levelo_inurba_marseille","lat":43.299222,"lon":5.365554,"is_reserved":false,"is_disabled":false,"rental_uris":{"android":"levelo://app?vid=ef8dce3a-2c8f-435a-9bba-7b01d995d0e7","ios":"levelo://app?vid=ef8dce3a-2c8f-435a-9bba-7b01d995d0e7"},"vehicle_type_id":"4","last_reported":1719238080,"current_range_meters":8000,"station_id":"ce4bgm92rcd13ifvqbr0","pricing_plan_id":"cebpf4jnsgd1na2vs0mg"},{"bike_id":"687323fa-09f0-4ef5-a1f0-2ad76fb8d58d","system_id":"levelo_inurba_marseille","lat":43.299222,"lon":5.365554,"is_reserved":false,"is_disabled":false,"rental_uris":{"android":"levelo://app?vid=687323fa-09f0-4ef5-a1f0-2ad76fb8d58d","ios":"levelo://app?vid=687323fa-09f0-4ef5-a1f0-2ad76fb8d58d"},"vehicle_type_id":"4","last_reported":1719238080,"current_range_meters":31200,"station_id":"ce4bgm92rcd13ifvqbr0","pricing_plan_id":"cebpf4jnsgd1na2vs0mg"},{"bike_id":"a4d4066f-c774-4637-a9ef-33f7c6863eb3","system_id":"levelo_inurba_marseille","lat":43.299724,"lon":5.371829,"is_reserved":false,"is_disabled":false,"rental_uris":{"android":"levelo://app?vid=a4d4066f-c774-4637-a9ef-33f7c6863eb3","ios":"levelo://app?vid=a4d4066f-c774-4637-a9ef-33f7c6863eb3"},"vehicle_type_id":"4","last_reported":1719238080,"current_range_meters":31600,"station_id":"ce4bgr92rcd13ifvqc7g","pricing_plan_id":"cebpf4jnsgd1na2vs0mg"},{"bike_id":"98fc1e1e-31dd-4eee-9a69-fcfbabcafb3f","system_id":"levelo_inurba_marseille","lat":43.299724,"lon":5.371829,"is_reserved":false,"is_disabled":false,"rental_uris":{"android":"levelo://app?vid=98fc1e1e-31dd-4eee-9a69-fcfbabcafb3f","ios":"levelo://app?vid=98fc1e1e-31dd-4eee-9a69-fcfbabcafb3f"},"vehicle_type_id":"4","last_reported":1719238080,"current_range_meters":23200,"station_id":"ce4bgr92rcd13ifvqc7g","pricing_plan_id":"cebpf4jnsgd1na2vs0mg"},{"bike_id":"77cc766b-879a-4cb7-b244-d006bec69099","system_id":"levelo_inurba_marseille","lat":43.299209,"lon":5.365547,"is_reserved":false,"is_disabled":false,"rental_uris":{"android":"levelo://app?vid=77cc766b-879a-4cb7-b244-d006bec69099","ios":"levelo://app?vid=77cc766b-879a-4cb7-b244-d006bec69099"},"vehicle_type_id":"4","last_reported":1719238080,"current_range_meters":31200,"station_id":"ce4bgm92rcd13ifvqbr0","pricing_plan_id":"cebpf4jnsgd1na2vs0mg"},{"bike_id":"40c61b71-877a-4ff8-bb39-cd8cbad60bb4","system_id":"levelo_inurba_marseille","lat":43.30955,"lon":5.3863,"is_reserved":false,"is_disabled":false,"rental_uris":{"android":"levelo://app?vid=40c61b71-877a-4ff8-bb39-cd8cbad60bb4","ios":"levelo://app?vid=40c61b71-877a-4ff8-bb39-cd8cbad60bb4"},"vehicle_type_id":"4","last_reported":1719238080,"current_range_meters":27600,"station_id":"","pricing_plan_id":"cebpf4jnsgd1na2vs0mg"},{"bike_id":"6e0a2600-eed2-4783-a9c5-6f8b1a56fbff","system_id":"levelo_inurba_marseille","lat":43.298433,"lon":5.362774,"is_reserved":false,"is_disabled":false,"rental_uris":{"android":"levelo://app?vid=6e0a2600-eed2-4783-a9c5-6f8b1a56fbff","ios":"levelo://app?vid=6e0a2600-eed2-4783-a9c5-6f8b1a56fbff"},"vehicle_type_id":"4","last_reported":1719238080,"current_range_meters":23200,"station_id":"ce4bgpp2rcd13ifvqc3g","pricing_plan_id":"cebpf4jnsgd1na2vs0mg"},{"bike_id":"e54d2b6b-82d2-4b48-96c6-cffe727ce63f","system_id":"levelo_inurba_marseille","lat":43.298433,"lon":5.362774,"is_reserved":false,"is_disabled":false,"rental_uris":{"android":"levelo://app?vid=e54d2b6b-82d2-4b48-96c6-cffe727ce63f","ios":"levelo://app?vid=e54d2b6b-82d2-4b48-96c6-cffe727ce63f"},"vehicle_type_id":"4","last_reported":1719238080,"current_range_meters":28000,"station_id":"ce4bgpp2rcd13ifvqc3g","pricing_plan_id":"cebpf4jnsgd1na2vs0mg"},{"bike_id":"54752acb-b01e-44bd-b889-6412227a6c33","system_id":"levelo_inurba_marseille","lat":43.298433,"lon":5.362774,"is_reserved":false,"is_disabled":false,"rental_uris":{"android":"levelo://app?vid=54752acb-b01e-44bd-b889-6412227a6c33","ios":"levelo://app?vid=54752acb-b01e-44bd-b889-6412227a6c33"},"vehicle_type_id":"4","last_reported":1719238080,"current_range_meters":17200,"station_id":"ce4bgpp2rcd13ifvqc3g","pricing_plan_id":"cebpf4jnsgd1na2vs0mg"},{"bike_id":"9e5675e2-13c4-4a5b-9a36-a4299a40ddda","system_id":"levelo_inurba_marseille","lat":43.298433,"lon":5.362774,"is_reserved":false,"is_disabled":false,"rental_uris":{"android":"levelo://app?vid=9e5675e2-13c4-4a5b-9a36-a4299a40ddda","ios":"levelo://app?vid=9e5675e2-13c4-4a5b-9a36-a4299a40ddda"},"vehicle_type_id":"4","last_reported":1719238080,"current_range_meters":26800,"station_id":"ce4bgpp2rcd13ifvqc3g","pricing_plan_id":"cebpf4jnsgd1na2vs0mg"},{"bike_id":"c88733c2-dd11-4546-bbdc-38934b999002","system_id":"levelo_inurba_marseille","lat":43.299243,"lon":5.37481,"is_reserved":false,"is_disabled":false,"rental_uris":{"android":"levelo://app?vid=c88733c2-dd11-4546-bbdc-38934b999002","ios":"levelo://app?vid=c88733c2-dd11-4546-bbdc-38934b999002"},"vehicle_type_id":"4","last_reported":1719238080,"current_range_meters":7200,"station_id":"ce4bgjh2rcd13ifvqbg0","pricing_plan_id":"cebpf4jnsgd1na2vs0mg"},{"bike_id":"43caa3b4-2218-446d-bb51-889f381fb474","system_id":"levelo_inurba_marseille","lat":43.297774,"lon":5.370875,"is_reserved":false,"is_disabled":false,"rental_uris":{"android":"levelo://app?vid=43caa3b4-2218-446d-bb51-889f381fb474","ios":"levelo://app?vid=43caa3b4-2218-446d-bb51-889f381fb474"},"vehicle_type_id":"4","last_reported":1719238080,"current_range_meters":27200,"station_id":"ce4bgop2rcd13ifvqc1g","pricing_plan_id":"cebpf4jnsgd1na2vs0mg"},{"bike_id":"0c6ceac8-92bf-4378-899d-79d553771fc6","system_id":"levelo_inurba_marseille","lat":43.297774,"lon":5.370875,"is_reserved":false,"is_disabled":false,"rental_uris":{"android":"levelo://app?vid=0c6ceac8-92bf-4378-899d-79d553771fc6","ios":"levelo://app?vid=0c6ceac8-92bf-4378-899d-79d553771fc6"},"vehicle_type_id":"4","last_reported":1719238080,"current_range_meters":7600,"station_id":"ce4bgop2rcd13ifvqc1g","pricing_plan_id":"cebpf4jnsgd1na2vs0mg"},{"bike_id":"17f52c04-c5d3-4bfe-aa40-7cac43383ad1","system_id":"levelo_inurba_marseille","lat":43.2968,"lon":5.37291,"is_reserved":false,"is_disabled":false,"rental_uris":{"android":"levelo://app?vid=17f52c04-c5d3-4bfe-aa40-7cac43383ad1","ios":"levelo://app?vid=17f52c04-c5d3-4bfe-aa40-7cac43383ad1"},"vehicle_type_id":"4","last_reported":1719238080,"current_range_meters":6000,"station_id":"ce4bgk12rcd13ifvqbj0","pricing_plan_id":"cebpf4jnsgd1na2vs0mg"},{"bike_id":"05f8ba54-e83c-4efb-9ba5-9ffc676650b7","system_id":"levelo_inurba_marseille","lat":43.29573,"lon":5.367355,"is_reserved":false,"is_disabled":false,"rental_uris":{"android":"levelo://app?vid=05f8ba54-e83c-4efb-9ba5-9ffc676650b7","ios":"levelo://app?vid=05f8ba54-e83c-4efb-9ba5-9ffc676650b7"},"vehicle_type_id":"4","last_reported":1719238080,"current_range_meters":24800,"station_id":"ce4bgph2rcd13ifvqc2g","pricing_plan_id":"cebpf4jnsgd1na2vs0mg"},{"bike_id":"45ff860e-4222-4787-9727-f3c0f75120d6","system_id":"levelo_inurba_marseille","lat":43.29573,"lon":5.367355,"is_reserved":false,"is_disabled":false,"rental_uris":{"android":"levelo://app?vid=45ff860e-4222-4787-9727-f3c0f75120d6","ios":"levelo://app?vid=45ff860e-4222-4787-9727-f3c0f75120d6"},"vehicle_type_id":"4","last_reported":1719238080,"current_range_meters":30000,"station_id":"ce4bgph2rcd13ifvqc2g","pricing_plan_id":"cebpf4jnsgd1na2vs0mg"},{"bike_id":"7af94dac-97b5-4f59-94ff-fae440606ae0","system_id":"levelo_inurba_marseille","lat":43.30952,"lon":5.39034,"is_reserved":false,"is_disabled":false,"rental_uris":{"android":"levelo://app?vid=7af94dac-97b5-4f59-94ff-fae440606ae0","ios":"levelo://app?vid=7af94dac-97b5-4f59-94ff-fae440606ae0"},"vehicle_type_id":"4","last_reported":1719238080,"current_range_meters":4800,"station_id":"","pricing_plan_id":"cebpf4jnsgd1na2vs0mg"},{"bike_id":"c880616d-87bc-4426-9371-c24075a66cbf","system_id":"levelo_inurba_marseille","lat":43.309589,"lon":5.390258,"is_reserved":false,"is_disabled":false,"rental_uris":{"android":"levelo://app?vid=c880616d-87bc-4426-9371-c24075a66cbf","ios":"levelo://app?vid=c880616d-87bc-4426-9371-c24075a66cbf"},"vehicle_type_id":"4","last_reported":1719238080,"current_range_meters":18000,"station_id":"ce4bgup2rcd13ifvqco0","pricing_plan_id":"cebpf4jnsgd1na2vs0mg"},{"bike_id":"4f4e5d87-3471-4284-94d7-ccb2cb8520ce","system_id":"levelo_inurba_marseille","lat":43.29542,"lon":5.36428,"is_reserved":false,"is_disabled":false,"rental_uris":{"android":"levelo://app?vid=4f4e5d87-3471-4284-94d7-ccb2cb8520ce","ios":"levelo://app?vid=4f4e5d87-3471-4284-94d7-ccb2cb8520ce"},"vehicle_type_id":"4","last_reported":1719238080,"current_range_meters":21200,"station_id":"","pricing_plan_id":"cebpf4jnsgd1na2vs0mg"},{"bike_id":"d297cba4-e14d-44d0-9b20-887e6d4df984","system_id":"levelo_inurba_marseille","lat":43.29752,"lon":5.3792,"is_reserved":false,"is_disabled":false,"rental_uris":{"android":"levelo://app?vid=d297cba4-e14d-44d0-9b20-887e6d4df984","ios":"levelo://app?vid=d297cba4-e14d-44d0-9b20-887e6d4df984"},"vehicle_type_id":"4","last_reported":1719238080,"current_range_meters":9200,"station_id":"","pricing_plan_id":"cebpf4jnsgd1na2vs0mg"},{"bike_id":"dea883e5-50a5-4a1c-b0ca-34191f3c523a","system_id":"levelo_inurba_marseille","lat":43.295748,"lon":5.37522,"is_reserved":false,"is_disabled":false,"rental_uris":{"android":"levelo://app?vid=dea883e5-50a5-4a1c-b0ca-34191f3c523a","ios":"levelo://app?vid=dea883e5-50a5-4a1c-b0ca-34191f3c523a"},"vehicle_type_id":"4","last_reported":1719238080,"current_range_meters":25600,"station_id":"ce4bgh92rcd13ifvqb50","pricing_plan_id":"cebpf4jnsgd1na2vs0mg"},{"bike_id":"e81bf952-51d6-4ec5-9ca9-6f6ec4d1f94f","system_id":"levelo_inurba_marseille","lat":43.295748,"lon":5.37522,"is_reserved":false,"is_disabled":false,"rental_uris":{"android":"levelo://app?vid=e81bf952-51d6-4ec5-9ca9-6f6ec4d1f94f","ios":"levelo://app?vid=e81bf952-51d6-4ec5-9ca9-6f6ec4d1f94f"},"vehicle_type_id":"4","last_reported":1719238080,"current_range_meters":0,"station_id":"ce4bgh92rcd13ifvqb50","pricing_plan_id":"cebpf4jnsgd1na2vs0mg"},{"bike_id":"fc9ccf36-932f-438d-a2da-8035e781bd88","system_id":"levelo_inurba_marseille","lat":43.296263,"lon":5.377094,"is_reserved":false,"is_disabled":false,"rental_uris":{"android":"levelo://app?vid=fc9ccf36-932f-438d-a2da-8035e781bd88","ios":"levelo://app?vid=fc9ccf36-932f-438d-a2da-8035e781bd88"},"vehicle_type_id":"4","last_reported":1719238080,"current_range_meters":9200,"station_id":"ce4bgi92rcd13ifvqb90","pricing_plan_id":"cebpf4jnsgd1na2vs0mg"},{"bike_id":"0c34c19a-5730-4fd3-accd-bca4c8fec574","system_id":"levelo_inurba_marseille","lat":43.296277,"lon":5.377108,"is_reserved":false,"is_disabled":false,"rental_uris":{"android":"levelo://app?vid=0c34c19a-5730-4fd3-accd-bca4c8fec574","ios":"levelo://app?vid=0c34c19a-5730-4fd3-accd-bca4c8fec574"},"vehicle_type_id":"4","last_reported":1719238080,"current_range_meters":800,"station_id":"ce4bgi92rcd13ifvqb90","pricing_plan_id":"cebpf4jnsgd1na2vs0mg"},{"bike_id":"6556deee-efd1-4773-93a2-84a6ea13405b","system_id":"levelo_inurba_marseille","lat":43.296263,"lon":5.377094,"is_reserved":false,"is_disabled":false,"rental_uris":{"android":"levelo://app?vid=6556deee-efd1-4773-93a2-84a6ea13405b","ios":"levelo://app?vid=6556deee-efd1-4773-93a2-84a6ea13405b"},"vehicle_type_id":"4","last_reported":1719238080,"current_range_meters":3200,"station_id":"ce4bgi92rcd13ifvqb90","pricing_plan_id":"cebpf4jnsgd1na2vs0mg"},{"bike_id":"5772e6d2-9516-4d52-b500-3573162f8a71","system_id":"levelo_inurba_marseille","lat":43.296263,"lon":5.377094,"is_reserved":false,"is_disabled":false,"rental_uris":{"android":"levelo://app?vid=5772e6d2-9516-4d52-b500-3573162f8a71","ios":"levelo://app?vid=5772e6d2-9516-4d52-b500-3573162f8a71"},"vehicle_type_id":"4","last_reported":1719238080,"current_range_meters":28800,"station_id":"ce4bgi92rcd13ifvqb90","pricing_plan_id":"cebpf4jnsgd1na2vs0mg"},{"bike_id":"16a2daef-e625-4ec3-9f36-c804350a026c","system_id":"levelo_inurba_marseille","lat":43.296277,"lon":5.377108,"is_reserved":false,"is_disabled":false,"rental_uris":{"android":"levelo://app?vid=16a2daef-e625-4ec3-9f36-c804350a026c","ios":"levelo://app?vid=16a2daef-e625-4ec3-9f36-c804350a026c"},"vehicle_type_id":"4","last_reported":1719238080,"current_range_meters":18000,"station_id":"ce4bgi92rcd13ifvqb90","pricing_plan_id":"cebpf4jnsgd1na2vs0mg"},{"bike_id":"8ab6ad24-c5d4-4b03-9346-6b2cb2752682","system_id":"levelo_inurba_marseille","lat":43.299707,"lon":5.384859,"is_reserved":false,"is_disabled":false,"rental_uris":{"android":"levelo://app?vid=8ab6ad24-c5d4-4b03-9346-6b2cb2752682","ios":"levelo://app?vid=8ab6ad24-c5d4-4b03-9346-6b2cb2752682"},"vehicle_type_id":"4","last_reported":1719238080,"current_range_meters":19600,"station_id":"ce4bgj92rcd13ifvqbd0","pricing_plan_id":"cebpf4jnsgd1na2vs0mg"},{"bike_id":"db63d6aa-5ee8-402a-8d67-e3fe48186dff","system_id":"levelo_inurba_marseille","lat":43.29971,"lon":5.38479,"is_reserved":false,"is_disabled":false,"rental_uris":{"android":"levelo://app?vid=db63d6aa-5ee8-402a-8d67-e3fe48186dff","ios":"levelo://app?vid=db63d6aa-5ee8-402a-8d67-e3fe48186dff"},"vehicle_type_id":"4","last_reported":1719238080,"current_range_meters":24000,"station_id":"ce4bgj92rcd13ifvqbd0","pricing_plan_id":"cebpf4jnsgd1na2vs0mg"},{"bike_id":"ec99ad39-7c77-41d8-9742-79e2eff84593","system_id":"levelo_inurba_marseille","lat":43.299717,"lon":5.384845,"is_reserved":false,"is_disabled":false,"rental_uris":{"android":"levelo://app?vid=ec99ad39-7c77-41d8-9742-79e2eff84593","ios":"levelo://app?vid=ec99ad39-7c77-41d8-9742-79e2eff84593"},"vehicle_type_id":"4","last_reported":1719238080,"current_range_meters":28000,"station_id":"ce4bgj92rcd13ifvqbd0","pricing_plan_id":"cebpf4jnsgd1na2vs0mg"},{"bike_id":"0b3b68eb-cbc7-425e-947a-eb9831f8bb6f","system_id":"levelo_inurba_marseille","lat":43.299717,"lon":5.384845,"is_reserved":false,"is_disabled":false,"rental_uris":{"android":"levelo://app?vid=0b3b68eb-cbc7-425e-947a-eb9831f8bb6f","ios":"levelo://app?vid=0b3b68eb-cbc7-425e-947a-eb9831f8bb6f"},"vehicle_type_id":"4","last_reported":1719238080,"current_range_meters":26400,"station_id":"ce4bgj92rcd13ifvqbd0","pricing_plan_id":"cebpf4jnsgd1na2vs0mg"},{"bike_id":"4a09c88f-4c4a-466c-8ae5-728b8f61b742","system_id":"levelo_inurba_marseille","lat":43.299717,"lon":5.384845,"is_reserved":false,"is_disabled":false,"rental_uris":{"android":"levelo://app?vid=4a09c88f-4c4a-466c-8ae5-728b8f61b742","ios":"levelo://app?vid=4a09c88f-4c4a-466c-8ae5-728b8f61b742"},"vehicle_type_id":"4","last_reported":1719238080,"current_range_meters":1200,"station_id":"ce4bgj92rcd13ifvqbd0","pricing_plan_id":"cebpf4jnsgd1na2vs0mg"},{"bike_id":"87f01710-3466-470c-ac7f-685f8e5d40e2","system_id":"levelo_inurba_marseille","lat":43.299724,"lon":5.384848,"is_reserved":false,"is_disabled":false,"rental_uris":{"android":"levelo://app?vid=87f01710-3466-470c-ac7f-685f8e5d40e2","ios":"levelo://app?vid=87f01710-3466-470c-ac7f-685f8e5d40e2"},"vehicle_type_id":"4","last_reported":1719238080,"current_range_meters":28800,"station_id":"ce4bgj92rcd13ifvqbd0","pricing_plan_id":"cebpf4jnsgd1na2vs0mg"},{"bike_id":"72e25495-5807-4d9c-a18a-51f384a770df","system_id":"levelo_inurba_marseille","lat":43.299724,"lon":5.384848,"is_reserved":false,"is_disabled":false,"rental_uris":{"android":"levelo://app?vid=72e25495-5807-4d9c-a18a-51f384a770df","ios":"levelo://app?vid=72e25495-5807-4d9c-a18a-51f384a770df"},"vehicle_type_id":"4","last_reported":1719238080,"current_range_meters":1600,"station_id":"ce4bgj92rcd13ifvqbd0","pricing_plan_id":"cebpf4jnsgd1na2vs0mg"},{"bike_id":"54464600-8755-40f6-be7e-a2a3724abebd","system_id":"levelo_inurba_marseille","lat":43.295279,"lon":5.375048,"is_reserved":false,"is_disabled":false,"rental_uris":{"android":"levelo://app?vid=54464600-8755-40f6-be7e-a2a3724abebd","ios":"levelo://app?vid=54464600-8755-40f6-be7e-a2a3724abebd"},"vehicle_type_id":"4","last_reported":1719238080,"current_range_meters":0,"station_id":"ce4bgkp2rcd13ifvqbmg","pricing_plan_id":"cebpf4jnsgd1na2vs0mg"},{"bike_id":"f1bbfe1b-91e9-482a-ab47-59ce014cc9a1","system_id":"levelo_inurba_marseille","lat":43.299717,"lon":5.384845,"is_reserved":false,"is_disabled":false,"rental_uris":{"android":"levelo://app?vid=f1bbfe1b-91e9-482a-ab47-59ce014cc9a1","ios":"levelo://app?vid=f1bbfe1b-91e9-482a-ab47-59ce014cc9a1"},"vehicle_type_id":"4","last_reported":1719238080,"current_range_meters":31200,"station_id":"ce4bgj92rcd13ifvqbd0","pricing_plan_id":"cebpf4jnsgd1na2vs0mg"},{"bike_id":"a43ec2ef-7a45-4289-94c1-276dcbd7a159","system_id":"levelo_inurba_marseille","lat":43.299724,"lon":5.384848,"is_reserved":false,"is_disabled":false,"rental_uris":{"android":"levelo://app?vid=a43ec2ef-7a45-4289-94c1-276dcbd7a159","ios":"levelo://app?vid=a43ec2ef-7a45-4289-94c1-276dcbd7a159"},"vehicle_type_id":"4","last_reported":1719238080,"current_range_meters":20000,"station_id":"ce4bgj92rcd13ifvqbd0","pricing_plan_id":"cebpf4jnsgd1na2vs0mg"},{"bike_id":"0c8fe415-3a81-4df3-b103-899455228ff1","system_id":"levelo_inurba_marseille","lat":43.292749,"lon":5.368402,"is_reserved":false,"is_disabled":false,"rental_uris":{"android":"levelo://app?vid=0c8fe415-3a81-4df3-b103-899455228ff1","ios":"levelo://app?vid=0c8fe415-3a81-4df3-b103-899455228ff1"},"vehicle_type_id":"4","last_reported":1719238080,"current_range_meters":26400,"station_id":"ce4bhbp2rcd13ifvqesg","pricing_plan_id":"cebpf4jnsgd1na2vs0mg"},{"bike_id":"29394805-3bc3-4341-8075-2b5354e60ea1","system_id":"levelo_inurba_marseille","lat":43.292749,"lon":5.368402,"is_reserved":false,"is_disabled":false,"rental_uris":{"android":"levelo://app?vid=29394805-3bc3-4341-8075-2b5354e60ea1","ios":"levelo://app?vid=29394805-3bc3-4341-8075-2b5354e60ea1"},"vehicle_type_id":"4","last_reported":1719238080,"current_range_meters":7600,"station_id":"ce4bhbp2rcd13ifvqesg","pricing_plan_id":"cebpf4jnsgd1na2vs0mg"},{"bike_id":"a448466e-ff0d-4664-a141-0762cffb335b","system_id":"levelo_inurba_marseille","lat":43.293259,"lon":5.371586,"is_reserved":false,"is_disabled":false,"rental_uris":{"android":"levelo://app?vid=a448466e-ff0d-4664-a141-0762cffb335b","ios":"levelo://app?vid=a448466e-ff0d-4664-a141-0762cffb335b"},"vehicle_type_id":"4","last_reported":1719238080,"current_range_meters":26800,"station_id":"ce4bgh92rcd13ifvqb40","pricing_plan_id":"cebpf4jnsgd1na2vs0mg"},{"bike_id":"7ae52b43-e85c-4c66-b9c2-274c7f85a3c8","system_id":"levelo_inurba_marseille","lat":43.292749,"lon":5.368402,"is_reserved":false,"is_disabled":false,"rental_uris":{"android":"levelo://app?vid=7ae52b43-e85c-4c66-b9c2-274c7f85a3c8","ios":"levelo://app?vid=7ae52b43-e85c-4c66-b9c2-274c7f85a3c8"},"vehicle_type_id":"4","last_reported":1719238080,"current_range_meters":18400,"station_id":"ce4bhbp2rcd13ifvqesg","pricing_plan_id":"cebpf4jnsgd1na2vs0mg"},{"bike_id":"500ff8e5-203f-4521-9508-ecc3dc706cd2","system_id":"levelo_inurba_marseille","lat":43.293009,"lon":5.374584,"is_reserved":false,"is_disabled":false,"rental_uris":{"android":"levelo://app?vid=500ff8e5-203f-4521-9508-ecc3dc706cd2","ios":"levelo://app?vid=500ff8e5-203f-4521-9508-ecc3dc706cd2"},"vehicle_type_id":"4","last_reported":1719238080,"current_range_meters":29600,"station_id":"ce4bgi12rcd13ifvqb70","pricing_plan_id":"cebpf4jnsgd1na2vs0mg"},{"bike_id":"5d5fe31f-aaea-4cb4-9fad-909e5de5c5e1","system_id":"levelo_inurba_marseille","lat":43.29302,"lon":5.37466,"is_reserved":false,"is_disabled":false,"rental_uris":{"android":"levelo://app?vid=5d5fe31f-aaea-4cb4-9fad-909e5de5c5e1","ios":"levelo://app?vid=5d5fe31f-aaea-4cb4-9fad-909e5de5c5e1"},"vehicle_type_id":"4","last_reported":1719238080,"current_range_meters":31600,"station_id":"ce4bgi12rcd13ifvqb70","pricing_plan_id":"cebpf4jnsgd1na2vs0mg"},{"bike_id":"ca722c7f-fc5a-46e7-980b-3fecb19f4db2","system_id":"levelo_inurba_marseille","lat":43.293009,"lon":5.374584,"is_reserved":false,"is_disabled":false,"rental_uris":{"android":"levelo://app?vid=ca722c7f-fc5a-46e7-980b-3fecb19f4db2","ios":"levelo://app?vid=ca722c7f-fc5a-46e7-980b-3fecb19f4db2"},"vehicle_type_id":"4","last_reported":1719238080,"current_range_meters":25600,"station_id":"ce4bgi12rcd13ifvqb70","pricing_plan_id":"cebpf4jnsgd1na2vs0mg"},{"bike_id":"3c9f7475-a002-4598-924d-754fa01205bf","system_id":"levelo_inurba_marseille","lat":43.303002,"lon":5.392142,"is_reserved":false,"is_disabled":false,"rental_uris":{"android":"levelo://app?vid=3c9f7475-a002-4598-924d-754fa01205bf","ios":"levelo://app?vid=3c9f7475-a002-4598-924d-754fa01205bf"},"vehicle_type_id":"4","last_reported":1719238080,"current_range_meters":20000,"station_id":"ce4bgkh2rcd13ifvqbk0","pricing_plan_id":"cebpf4jnsgd1na2vs0mg"},{"bike_id":"1c729cf8-7470-43fd-932e-380408d19d04","system_id":"levelo_inurba_marseille","lat":43.302992,"lon":5.392136,"is_reserved":false,"is_disabled":false,"rental_uris":{"android":"levelo://app?vid=1c729cf8-7470-43fd-932e-380408d19d04","ios":"levelo://app?vid=1c729cf8-7470-43fd-932e-380408d19d04"},"vehicle_type_id":"4","last_reported":1719238080,"current_range_meters":15200,"station_id":"ce4bgkh2rcd13ifvqbk0","pricing_plan_id":"cebpf4jnsgd1na2vs0mg"},{"bike_id":"75367387-6880-4519-8a60-3a983fbf1b40","system_id":"levelo_inurba_marseille","lat":43.302992,"lon":5.392136,"is_reserved":false,"is_disabled":false,"rental_uris":{"android":"levelo://app?vid=75367387-6880-4519-8a60-3a983fbf1b40","ios":"levelo://app?vid=75367387-6880-4519-8a60-3a983fbf1b40"},"vehicle_type_id":"4","last_reported":1719238080,"current_range_meters":30400,"station_id":"ce4bgkh2rcd13ifvqbk0","pricing_plan_id":"cebpf4jnsgd1na2vs0mg"},{"bike_id":"69a473ca-6d49-42af-8d5e-6329714a3a99","system_id":"levelo_inurba_marseille","lat":43.30085,"lon":5.390856,"is_reserved":false,"is_disabled":false,"rental_uris":{"android":"levelo://app?vid=69a473ca-6d49-42af-8d5e-6329714a3a99","ios":"levelo://app?vid=69a473ca-6d49-42af-8d5e-6329714a3a99"},"vehicle_type_id":"4","last_reported":1719238080,"current_range_meters":19200,"station_id":"ce4bh192rcd13ifvqdb0","pricing_plan_id":"cebpf4jnsgd1na2vs0mg"},{"bike_id":"bad1353a-3540-4e16-8f81-c4064c20f1d6","system_id":"levelo_inurba_marseille","lat":43.29259,"lon":5.37628,"is_reserved":false,"is_disabled":false,"rental_uris":{"android":"levelo://app?vid=bad1353a-3540-4e16-8f81-c4064c20f1d6","ios":"levelo://app?vid=bad1353a-3540-4e16-8f81-c4064c20f1d6"},"vehicle_type_id":"4","last_reported":1719238080,"current_range_meters":0,"station_id":"","pricing_plan_id":"cebpf4jnsgd1na2vs0mg"},{"bike_id":"e149e7f7-32b0-4c77-ad2f-dca1d2ac04a7","system_id":"levelo_inurba_marseille","lat":43.291671,"lon":5.371575,"is_reserved":false,"is_disabled":false,"rental_uris":{"android":"levelo://app?vid=e149e7f7-32b0-4c77-ad2f-dca1d2ac04a7","ios":"levelo://app?vid=e149e7f7-32b0-4c77-ad2f-dca1d2ac04a7"},"vehicle_type_id":"4","last_reported":1719238080,"current_range_meters":13600,"station_id":"ce4bha92rcd13ifvqeh0","pricing_plan_id":"cebpf4jnsgd1na2vs0mg"},{"bike_id":"aacd2b7b-b83c-4b21-adc8-bd664391e0da","system_id":"levelo_inurba_marseille","lat":43.291994,"lon":5.357886,"is_reserved":false,"is_disabled":false,"rental_uris":{"android":"levelo://app?vid=aacd2b7b-b83c-4b21-adc8-bd664391e0da","ios":"levelo://app?vid=aacd2b7b-b83c-4b21-adc8-bd664391e0da"},"vehicle_type_id":"4","last_reported":1719238080,"current_range_meters":22000,"station_id":"ce4bhb12rcd13ifvqel0","pricing_plan_id":"cebpf4jnsgd1na2vs0mg"},{"bike_id":"8e7b7b96-54be-4c3d-9bb6-d29b52d58ff7","system_id":"levelo_inurba_marseille","lat":43.313291,"lon":5.396838,"is_reserved":false,"is_disabled":false,"rental_uris":{"android":"levelo://app?vid=8e7b7b96-54be-4c3d-9bb6-d29b52d58ff7","ios":"levelo://app?vid=8e7b7b96-54be-4c3d-9bb6-d29b52d58ff7"},"vehicle_type_id":"4","last_reported":1719238080,"current_range_meters":5200,"station_id":"ce4bgvp2rcd13ifvqcu0","pricing_plan_id":"cebpf4jnsgd1na2vs0mg"},{"bike_id":"c7148ac7-01c6-485b-b0b8-d13355df62ea","system_id":"levelo_inurba_marseille","lat":43.309047,"lon":5.396551,"is_reserved":false,"is_disabled":false,"rental_uris":{"android":"levelo://app?vid=c7148ac7-01c6-485b-b0b8-d13355df62ea","ios":"levelo://app?vid=c7148ac7-01c6-485b-b0b8-d13355df62ea"},"vehicle_type_id":"4","last_reported":1719238080,"current_range_meters":12800,"station_id":"ce4bh012rcd13ifvqcv0","pricing_plan_id":"cebpf4jnsgd1na2vs0mg"},{"bike_id":"68919665-a2bc-4f7b-821a-d007b70433b7","system_id":"levelo_inurba_marseille","lat":43.309047,"lon":5.396551,"is_reserved":false,"is_disabled":false,"rental_uris":{"android":"levelo://app?vid=68919665-a2bc-4f7b-821a-d007b70433b7","ios":"levelo://app?vid=68919665-a2bc-4f7b-821a-d007b70433b7"},"vehicle_type_id":"4","last_reported":1719238080,"current_range_meters":20800,"station_id":"ce4bh012rcd13ifvqcv0","pricing_plan_id":"cebpf4jnsgd1na2vs0mg"},{"bike_id":"ff86de5c-b9e1-4513-9f12-826451551176","system_id":"levelo_inurba_marseille","lat":43.313291,"lon":5.396838,"is_reserved":false,"is_disabled":false,"rental_uris":{"android":"levelo://app?vid=ff86de5c-b9e1-4513-9f12-826451551176","ios":"levelo://app?vid=ff86de5c-b9e1-4513-9f12-826451551176"},"vehicle_type_id":"4","last_reported":1719238080,"current_range_meters":21600,"station_id":"ce4bgvp2rcd13ifvqcu0","pricing_plan_id":"cebpf4jnsgd1na2vs0mg"},{"bike_id":"8ecdb498-04b1-4118-aaf8-e101e246964a","system_id":"levelo_inurba_marseille","lat":43.33211,"lon":5.38093,"is_reserved":false,"is_disabled":false,"rental_uris":{"android":"levelo://app?vid=8ecdb498-04b1-4118-aaf8-e101e246964a","ios":"levelo://app?vid=8ecdb498-04b1-4118-aaf8-e101e246964a"},"vehicle_type_id":"4","last_reported":1719238080,"current_range_meters":0,"station_id":"","pricing_plan_id":"cebpf4jnsgd1na2vs0mg"},{"bike_id":"dceadd9e-5174-4e3b-a495-1c6be31906df","system_id":"levelo_inurba_marseille","lat":43.309038,"lon":5.396546,"is_reserved":false,"is_disabled":false,"rental_uris":{"android":"levelo://app?vid=dceadd9e-5174-4e3b-a495-1c6be31906df","ios":"levelo://app?vid=dceadd9e-5174-4e3b-a495-1c6be31906df"},"vehicle_type_id":"4","last_reported":1719238080,"current_range_meters":24400,"station_id":"ce4bh012rcd13ifvqcv0","pricing_plan_id":"cebpf4jnsgd1na2vs0mg"},{"bike_id":"a83a8e47-f033-4b41-a8c3-5a0cb58f5f08","system_id":"levelo_inurba_marseille","lat":43.309047,"lon":5.396551,"is_reserved":false,"is_disabled":false,"rental_uris":{"android":"levelo://app?vid=a83a8e47-f033-4b41-a8c3-5a0cb58f5f08","ios":"levelo://app?vid=a83a8e47-f033-4b41-a8c3-5a0cb58f5f08"},"vehicle_type_id":"4","last_reported":1719238080,"current_range_meters":28400,"station_id":"ce4bh012rcd13ifvqcv0","pricing_plan_id":"cebpf4jnsgd1na2vs0mg"},{"bike_id":"8493e989-c159-48e9-ba70-3e37dbf25f9e","system_id":"levelo_inurba_marseille","lat":43.302008,"lon":5.394694,"is_reserved":false,"is_disabled":false,"rental_uris":{"android":"levelo://app?vid=8493e989-c159-48e9-ba70-3e37dbf25f9e","ios":"levelo://app?vid=8493e989-c159-48e9-ba70-3e37dbf25f9e"},"vehicle_type_id":"4","last_reported":1719238080,"current_range_meters":23200,"station_id":"ce4bh0p2rcd13ifvqd70","pricing_plan_id":"cebpf4jnsgd1na2vs0mg"},{"bike_id":"48862d5b-49f6-427e-ad58-638256bee3c5","system_id":"levelo_inurba_marseille","lat":43.290624,"lon":5.359245,"is_reserved":false,"is_disabled":false,"rental_uris":{"android":"levelo://app?vid=48862d5b-49f6-427e-ad58-638256bee3c5","ios":"levelo://app?vid=48862d5b-49f6-427e-ad58-638256bee3c5"},"vehicle_type_id":"4","last_reported":1719238080,"current_range_meters":4400,"station_id":"ce4bha92rcd13ifvqeg0","pricing_plan_id":"cebpf4jnsgd1na2vs0mg"},{"bike_id":"662c353a-417c-4593-93c3-b65ccabeda34","system_id":"levelo_inurba_marseille","lat":43.290631,"lon":5.359244,"is_reserved":false,"is_disabled":false,"rental_uris":{"android":"levelo://app?vid=662c353a-417c-4593-93c3-b65ccabeda34","ios":"levelo://app?vid=662c353a-417c-4593-93c3-b65ccabeda34"},"vehicle_type_id":"4","last_reported":1719238080,"current_range_meters":0,"station_id":"ce4bha92rcd13ifvqeg0","pricing_plan_id":"cebpf4jnsgd1na2vs0mg"},{"bike_id":"9b383a5c-dfd9-40aa-80be-df1aff96f86e","system_id":"levelo_inurba_marseille","lat":43.294153,"lon":5.386305,"is_reserved":false,"is_disabled":false,"rental_uris":{"android":"levelo://app?vid=9b383a5c-dfd9-40aa-80be-df1aff96f86e","ios":"levelo://app?vid=9b383a5c-dfd9-40aa-80be-df1aff96f86e"},"vehicle_type_id":"4","last_reported":1719238080,"current_range_meters":12800,"station_id":"ce4bh2h2rcd13ifvqdh0","pricing_plan_id":"cebpf4jnsgd1na2vs0mg"},{"bike_id":"d4e3a6e8-8273-452a-8856-65a3c201ee36","system_id":"levelo_inurba_marseille","lat":43.289184,"lon":5.366408,"is_reserved":false,"is_disabled":false,"rental_uris":{"android":"levelo://app?vid=d4e3a6e8-8273-452a-8856-65a3c201ee36","ios":"levelo://app?vid=d4e3a6e8-8273-452a-8856-65a3c201ee36"},"vehicle_type_id":"4","last_reported":1719238080,"current_range_meters":26800,"station_id":"ce4bhap2rcd13ifvqek0","pricing_plan_id":"cebpf4jnsgd1na2vs0mg"},{"bike_id":"f0d3a178-0e97-4943-b996-df92537c005c","system_id":"levelo_inurba_marseille","lat":43.289184,"lon":5.366408,"is_reserved":false,"is_disabled":false,"rental_uris":{"android":"levelo://app?vid=f0d3a178-0e97-4943-b996-df92537c005c","ios":"levelo://app?vid=f0d3a178-0e97-4943-b996-df92537c005c"},"vehicle_type_id":"4","last_reported":1719238080,"current_range_meters":27600,"station_id":"ce4bhap2rcd13ifvqek0","pricing_plan_id":"cebpf4jnsgd1na2vs0mg"},{"bike_id":"68d05875-d6e0-47d1-9c12-30dd9c8ea95e","system_id":"levelo_inurba_marseille","lat":43.289184,"lon":5.366408,"is_reserved":false,"is_disabled":false,"rental_uris":{"android":"levelo://app?vid=68d05875-d6e0-47d1-9c12-30dd9c8ea95e","ios":"levelo://app?vid=68d05875-d6e0-47d1-9c12-30dd9c8ea95e"},"vehicle_type_id":"4","last_reported":1719238080,"current_range_meters":25200,"station_id":"ce4bhap2rcd13ifvqek0","pricing_plan_id":"cebpf4jnsgd1na2vs0mg"},{"bike_id":"dd560e3f-3bb7-44c0-9389-d778c94a3e9d","system_id":"levelo_inurba_marseille","lat":43.289468,"lon":5.363719,"is_reserved":false,"is_disabled":false,"rental_uris":{"android":"levelo://app?vid=dd560e3f-3bb7-44c0-9389-d778c94a3e9d","ios":"levelo://app?vid=dd560e3f-3bb7-44c0-9389-d778c94a3e9d"},"vehicle_type_id":"4","last_reported":1719238080,"current_range_meters":20800,"station_id":"ce4bhc92rcd13ifvqetg","pricing_plan_id":"cebpf4jnsgd1na2vs0mg"},{"bike_id":"fe3d2595-926d-41df-909f-3359d38a31ab","system_id":"levelo_inurba_marseille","lat":43.304296,"lon":5.397513,"is_reserved":false,"is_disabled":false,"rental_uris":{"android":"levelo://app?vid=fe3d2595-926d-41df-909f-3359d38a31ab","ios":"levelo://app?vid=fe3d2595-926d-41df-909f-3359d38a31ab"},"vehicle_type_id":"4","last_reported":1719238080,"current_range_meters":22400,"station_id":"ce4bh092rcd13ifvqd20","pricing_plan_id":"cebpf4jnsgd1na2vs0mg"},{"bike_id":"2453cbc2-1b32-48da-84ae-bb1753bdaa47","system_id":"levelo_inurba_marseille","lat":43.290995,"lon":5.381361,"is_reserved":false,"is_disabled":false,"rental_uris":{"android":"levelo://app?vid=2453cbc2-1b32-48da-84ae-bb1753bdaa47","ios":"levelo://app?vid=2453cbc2-1b32-48da-84ae-bb1753bdaa47"},"vehicle_type_id":"4","last_reported":1719238080,"current_range_meters":28000,"station_id":"ce4bh512rcd13ifvqe2g","pricing_plan_id":"cebpf4jnsgd1na2vs0mg"},{"bike_id":"42eac385-3f8b-4a45-a021-f17d6deae192","system_id":"levelo_inurba_marseille","lat":43.29788,"lon":5.39336,"is_reserved":false,"is_disabled":false,"rental_uris":{"android":"levelo://app?vid=42eac385-3f8b-4a45-a021-f17d6deae192","ios":"levelo://app?vid=42eac385-3f8b-4a45-a021-f17d6deae192"},"vehicle_type_id":"4","last_reported":1719238080,"current_range_meters":15200,"station_id":"chh1huq6cuj3fo74tm60","pricing_plan_id":"cebpf4jnsgd1na2vs0mg"},{"bike_id":"421b7a3e-1f5f-4ba1-b0e8-67dbfa418047","system_id":"levelo_inurba_marseille","lat":43.297815,"lon":5.393548,"is_reserved":false,"is_disabled":false,"rental_uris":{"android":"levelo://app?vid=421b7a3e-1f5f-4ba1-b0e8-67dbfa418047","ios":"levelo://app?vid=421b7a3e-1f5f-4ba1-b0e8-67dbfa418047"},"vehicle_type_id":"4","last_reported":1719238080,"current_range_meters":9600,"station_id":"chh1huq6cuj3fo74tm60","pricing_plan_id":"cebpf4jnsgd1na2vs0mg"},{"bike_id":"8963461e-c7d0-488e-bf9b-ea6c795975c5","system_id":"levelo_inurba_marseille","lat":43.295169,"lon":5.390426,"is_reserved":false,"is_disabled":false,"rental_uris":{"android":"levelo://app?vid=8963461e-c7d0-488e-bf9b-ea6c795975c5","ios":"levelo://app?vid=8963461e-c7d0-488e-bf9b-ea6c795975c5"},"vehicle_type_id":"4","last_reported":1719238080,"current_range_meters":29600,"station_id":"ce4bh3p2rcd13ifvqdp0","pricing_plan_id":"cebpf4jnsgd1na2vs0mg"},{"bike_id":"69cffaa5-caa9-4462-9ac9-2d54d5e125e4","system_id":"levelo_inurba_marseille","lat":43.295169,"lon":5.390426,"is_reserved":false,"is_disabled":false,"rental_uris":{"android":"levelo://app?vid=69cffaa5-caa9-4462-9ac9-2d54d5e125e4","ios":"levelo://app?vid=69cffaa5-caa9-4462-9ac9-2d54d5e125e4"},"vehicle_type_id":"4","last_reported":1719238080,"current_range_meters":28400,"station_id":"ce4bh3p2rcd13ifvqdp0","pricing_plan_id":"cebpf4jnsgd1na2vs0mg"},{"bike_id":"032c82d0-9183-448e-b096-6d38ae2bbca9","system_id":"levelo_inurba_marseille","lat":43.330442,"lon":5.389148,"is_reserved":false,"is_disabled":false,"rental_uris":{"android":"levelo://app?vid=032c82d0-9183-448e-b096-6d38ae2bbca9","ios":"levelo://app?vid=032c82d0-9183-448e-b096-6d38ae2bbca9"},"vehicle_type_id":"4","last_reported":1719238080,"current_range_meters":31200,"station_id":"ce4bhr92rcd13ifvqhrg","pricing_plan_id":"cebpf4jnsgd1na2vs0mg"},{"bike_id":"512e8c0b-b115-498c-8bff-58d24c003b7b","system_id":"levelo_inurba_marseille","lat":43.330442,"lon":5.389148,"is_reserved":false,"is_disabled":false,"rental_uris":{"android":"levelo://app?vid=512e8c0b-b115-498c-8bff-58d24c003b7b","ios":"levelo://app?vid=512e8c0b-b115-498c-8bff-58d24c003b7b"},"vehicle_type_id":"4","last_reported":1719238080,"current_range_meters":22800,"station_id":"ce4bhr92rcd13ifvqhrg","pricing_plan_id":"cebpf4jnsgd1na2vs0mg"},{"bike_id":"c6d7ad8d-1780-4608-b9e4-440acc0692ee","system_id":"levelo_inurba_marseille","lat":43.290094,"lon":5.381264,"is_reserved":false,"is_disabled":false,"rental_uris":{"android":"levelo://app?vid=c6d7ad8d-1780-4608-b9e4-440acc0692ee","ios":"levelo://app?vid=c6d7ad8d-1780-4608-b9e4-440acc0692ee"},"vehicle_type_id":"4","last_reported":1719238080,"current_range_meters":14400,"station_id":"ce4bh4p2rcd13ifvqe1g","pricing_plan_id":"cebpf4jnsgd1na2vs0mg"},{"bike_id":"f7b4b313-24bd-42f3-9aff-fe3bebeeedd5","system_id":"levelo_inurba_marseille","lat":43.290094,"lon":5.381264,"is_reserved":false,"is_disabled":false,"rental_uris":{"android":"levelo://app?vid=f7b4b313-24bd-42f3-9aff-fe3bebeeedd5","ios":"levelo://app?vid=f7b4b313-24bd-42f3-9aff-fe3bebeeedd5"},"vehicle_type_id":"4","last_reported":1719238080,"current_range_meters":4400,"station_id":"ce4bh4p2rcd13ifvqe1g","pricing_plan_id":"cebpf4jnsgd1na2vs0mg"},{"bike_id":"cbff8e2e-87ad-4d9e-a09d-9b1fba1c0aeb","system_id":"levelo_inurba_marseille","lat":43.337313,"lon":5.374677,"is_reserved":false,"is_disabled":false,"rental_uris":{"android":"levelo://app?vid=cbff8e2e-87ad-4d9e-a09d-9b1fba1c0aeb","ios":"levelo://app?vid=cbff8e2e-87ad-4d9e-a09d-9b1fba1c0aeb"},"vehicle_type_id":"0","last_reported":1719238080,"current_range_meters":28400,"station_id":"","pricing_plan_id":"cebpf4jnsgd1na2vs0mg"},{"bike_id":"aa527c2c-31a5-479b-bfbe-daae0d9bb514","system_id":"levelo_inurba_marseille","lat":43.337373,"lon":5.374607,"is_reserved":false,"is_disabled":false,"rental_uris":{"android":"levelo://app?vid=aa527c2c-31a5-479b-bfbe-daae0d9bb514","ios":"levelo://app?vid=aa527c2c-31a5-479b-bfbe-daae0d9bb514"},"vehicle_type_id":"0","last_reported":1719238080,"current_range_meters":18400,"station_id":"","pricing_plan_id":"cebpf4jnsgd1na2vs0mg"},{"bike_id":"bb65fb70-df82-47d8-b27f-438620895501","system_id":"levelo_inurba_marseille","lat":43.33738,"lon":5.374595,"is_reserved":false,"is_disabled":false,"rental_uris":{"android":"levelo://app?vid=bb65fb70-df82-47d8-b27f-438620895501","ios":"levelo://app?vid=bb65fb70-df82-47d8-b27f-438620895501"},"vehicle_type_id":"0","last_reported":1719238080,"current_range_meters":23200,"station_id":"","pricing_plan_id":"cebpf4jnsgd1na2vs0mg"},{"bike_id":"286e1465-7813-47ee-9264-f92c73e39956","system_id":"levelo_inurba_marseille","lat":43.309371,"lon":5.401449,"is_reserved":false,"is_disabled":false,"rental_uris":{"android":"levelo://app?vid=286e1465-7813-47ee-9264-f92c73e39956","ios":"levelo://app?vid=286e1465-7813-47ee-9264-f92c73e39956"},"vehicle_type_id":"4","last_reported":1719238080,"current_range_meters":27600,"station_id":"ce4bgvp2rcd13ifvqct0","pricing_plan_id":"cebpf4jnsgd1na2vs0mg"},{"bike_id":"bd9a6c26-2db3-4e30-92c7-c85ae97147aa","system_id":"levelo_inurba_marseille","lat":43.33739,"lon":5.37469,"is_reserved":false,"is_disabled":false,"rental_uris":{"android":"levelo://app?vid=bd9a6c26-2db3-4e30-92c7-c85ae97147aa","ios":"levelo://app?vid=bd9a6c26-2db3-4e30-92c7-c85ae97147aa"},"vehicle_type_id":"0","last_reported":1719238080,"current_range_meters":30400,"station_id":"","pricing_plan_id":"cebpf4jnsgd1na2vs0mg"},{"bike_id":"9b81675f-44cd-4cbe-9733-2d36a516d8f7","system_id":"levelo_inurba_marseille","lat":43.33741,"lon":5.3746,"is_reserved":false,"is_disabled":false,"rental_uris":{"android":"levelo://app?vid=9b81675f-44cd-4cbe-9733-2d36a516d8f7","ios":"levelo://app?vid=9b81675f-44cd-4cbe-9733-2d36a516d8f7"},"vehicle_type_id":"0","last_reported":1719238080,"current_range_meters":28400,"station_id":"","pricing_plan_id":"cebpf4jnsgd1na2vs0mg"},{"bike_id":"11da98ef-d0c3-43c2-a7e4-890f2c23ccbc","system_id":"levelo_inurba_marseille","lat":43.33741,"lon":5.37461,"is_reserved":false,"is_disabled":false,"rental_uris":{"android":"levelo://app?vid=11da98ef-d0c3-43c2-a7e4-890f2c23ccbc","ios":"levelo://app?vid=11da98ef-d0c3-43c2-a7e4-890f2c23ccbc"},"vehicle_type_id":"0","last_reported":1719238080,"current_range_meters":21600,"station_id":"","pricing_plan_id":"cebpf4jnsgd1na2vs0mg"},{"bike_id":"2a0fb516-a307-4861-b129-104556c40f00","system_id":"levelo_inurba_marseille","lat":43.337405,"lon":5.374693,"is_reserved":false,"is_disabled":false,"rental_uris":{"android":"levelo://app?vid=2a0fb516-a307-4861-b129-104556c40f00","ios":"levelo://app?vid=2a0fb516-a307-4861-b129-104556c40f00"},"vehicle_type_id":"0","last_reported":1719238080,"current_range_meters":19600,"station_id":"","pricing_plan_id":"cebpf4jnsgd1na2vs0mg"},{"bike_id":"bf709b1a-1e81-4c69-a36a-dfef45d67fee","system_id":"levelo_inurba_marseille","lat":43.33744,"lon":5.37464,"is_reserved":false,"is_disabled":false,"rental_uris":{"android":"levelo://app?vid=bf709b1a-1e81-4c69-a36a-dfef45d67fee","ios":"levelo://app?vid=bf709b1a-1e81-4c69-a36a-dfef45d67fee"},"vehicle_type_id":"0","last_reported":1719238080,"current_range_meters":28000,"station_id":"","pricing_plan_id":"cebpf4jnsgd1na2vs0mg"},{"bike_id":"985eda3a-8205-4c72-8b0d-a44593dd15b5","system_id":"levelo_inurba_marseille","lat":43.337427,"lon":5.374733,"is_reserved":false,"is_disabled":false,"rental_uris":{"android":"levelo://app?vid=985eda3a-8205-4c72-8b0d-a44593dd15b5","ios":"levelo://app?vid=985eda3a-8205-4c72-8b0d-a44593dd15b5"},"vehicle_type_id":"0","last_reported":1719238080,"current_range_meters":22000,"station_id":"","pricing_plan_id":"cebpf4jnsgd1na2vs0mg"},{"bike_id":"8043cc8a-f702-4e45-9523-d56dfd7ee432","system_id":"levelo_inurba_marseille","lat":43.337433,"lon":5.3747,"is_reserved":false,"is_disabled":false,"rental_uris":{"android":"levelo://app?vid=8043cc8a-f702-4e45-9523-d56dfd7ee432","ios":"levelo://app?vid=8043cc8a-f702-4e45-9523-d56dfd7ee432"},"vehicle_type_id":"0","last_reported":1719238080,"current_range_meters":28000,"station_id":"","pricing_plan_id":"cebpf4jnsgd1na2vs0mg"},{"bike_id":"ab27f5ff-5c48-4717-a858-bc92e89f848f","system_id":"levelo_inurba_marseille","lat":43.309371,"lon":5.401449,"is_reserved":false,"is_disabled":false,"rental_uris":{"android":"levelo://app?vid=ab27f5ff-5c48-4717-a858-bc92e89f848f","ios":"levelo://app?vid=ab27f5ff-5c48-4717-a858-bc92e89f848f"},"vehicle_type_id":"4","last_reported":1719238080,"current_range_meters":14000,"station_id":"ce4bgvp2rcd13ifvqct0","pricing_plan_id":"cebpf4jnsgd1na2vs0mg"},{"bike_id":"c3ddbe4a-157d-4893-acf1-f1f626a65d21","system_id":"levelo_inurba_marseille","lat":43.337446,"lon":5.374694,"is_reserved":false,"is_disabled":false,"rental_uris":{"android":"levelo://app?vid=c3ddbe4a-157d-4893-acf1-f1f626a65d21","ios":"levelo://app?vid=c3ddbe4a-157d-4893-acf1-f1f626a65d21"},"vehicle_type_id":"0","last_reported":1719238080,"current_range_meters":15600,"station_id":"","pricing_plan_id":"cebpf4jnsgd1na2vs0mg"},{"bike_id":"c25a3696-e1cc-43ba-8656-23d4a118ee2e","system_id":"levelo_inurba_marseille","lat":43.3375,"lon":5.3747,"is_reserved":false,"is_disabled":false,"rental_uris":{"android":"levelo://app?vid=c25a3696-e1cc-43ba-8656-23d4a118ee2e","ios":"levelo://app?vid=c25a3696-e1cc-43ba-8656-23d4a118ee2e"},"vehicle_type_id":"0","last_reported":1719238080,"current_range_meters":28800,"station_id":"","pricing_plan_id":"cebpf4jnsgd1na2vs0mg"},{"bike_id":"f867320b-b3ee-4d44-8ef3-37d72db21942","system_id":"levelo_inurba_marseille","lat":43.33754,"lon":5.37456,"is_reserved":false,"is_disabled":false,"rental_uris":{"android":"levelo://app?vid=f867320b-b3ee-4d44-8ef3-37d72db21942","ios":"levelo://app?vid=f867320b-b3ee-4d44-8ef3-37d72db21942"},"vehicle_type_id":"4","last_reported":1719238080,"current_range_meters":30000,"station_id":"","pricing_plan_id":"cebpf4jnsgd1na2vs0mg"},{"bike_id":"e55f350b-cae1-43ff-af06-45e413f1c433","system_id":"levelo_inurba_marseille","lat":43.30642,"lon":5.401031,"is_reserved":false,"is_disabled":false,"rental_uris":{"android":"levelo://app?vid=e55f350b-cae1-43ff-af06-45e413f1c433","ios":"levelo://app?vid=e55f350b-cae1-43ff-af06-45e413f1c433"},"vehicle_type_id":"4","last_reported":1719238080,"current_range_meters":21200,"station_id":"ce4bh112rcd13ifvqda0","pricing_plan_id":"cebpf4jnsgd1na2vs0mg"},{"bike_id":"002c2320-f117-4211-a4da-173ecc5e72a5","system_id":"levelo_inurba_marseille","lat":43.301117,"lon":5.398795,"is_reserved":false,"is_disabled":false,"rental_uris":{"android":"levelo://app?vid=002c2320-f117-4211-a4da-173ecc5e72a5","ios":"levelo://app?vid=002c2320-f117-4211-a4da-173ecc5e72a5"},"vehicle_type_id":"4","last_reported":1719238080,"current_range_meters":24400,"station_id":"ce4bh0h2rcd13ifvqd40","pricing_plan_id":"cebpf4jnsgd1na2vs0mg"},{"bike_id":"577b6954-dde3-4ea3-9e9a-e50fbda9bf64","system_id":"levelo_inurba_marseille","lat":43.28715,"lon":5.37396,"is_reserved":false,"is_disabled":false,"rental_uris":{"android":"levelo://app?vid=577b6954-dde3-4ea3-9e9a-e50fbda9bf64","ios":"levelo://app?vid=577b6954-dde3-4ea3-9e9a-e50fbda9bf64"},"vehicle_type_id":"4","last_reported":1719238080,"current_range_meters":9600,"station_id":"ce4bh3p2rcd13ifvqdq0","pricing_plan_id":"cebpf4jnsgd1na2vs0mg"},{"bike_id":"6a5678e7-bd88-41ce-93d9-30682ebcd514","system_id":"levelo_inurba_marseille","lat":43.286961,"lon":5.373785,"is_reserved":false,"is_disabled":false,"rental_uris":{"android":"levelo://app?vid=6a5678e7-bd88-41ce-93d9-30682ebcd514","ios":"levelo://app?vid=6a5678e7-bd88-41ce-93d9-30682ebcd514"},"vehicle_type_id":"4","last_reported":1719238080,"current_range_meters":26400,"station_id":"ce4bh3p2rcd13ifvqdq0","pricing_plan_id":"cebpf4jnsgd1na2vs0mg"},{"bike_id":"9d352e9a-9e0b-4d54-89e2-f4ead6e4c814","system_id":"levelo_inurba_marseille","lat":43.286593,"lon":5.363346,"is_reserved":false,"is_disabled":false,"rental_uris":{"android":"levelo://app?vid=9d352e9a-9e0b-4d54-89e2-f4ead6e4c814","ios":"levelo://app?vid=9d352e9a-9e0b-4d54-89e2-f4ead6e4c814"},"vehicle_type_id":"4","last_reported":1719238080,"current_range_meters":800,"station_id":"ce4bhah2rcd13ifvqej0","pricing_plan_id":"cebpf4jnsgd1na2vs0mg"},{"bike_id":"08ddb14e-6297-4148-beb5-1c45f4719e41","system_id":"levelo_inurba_marseille","lat":43.286591,"lon":5.363346,"is_reserved":false,"is_disabled":false,"rental_uris":{"android":"levelo://app?vid=08ddb14e-6297-4148-beb5-1c45f4719e41","ios":"levelo://app?vid=08ddb14e-6297-4148-beb5-1c45f4719e41"},"vehicle_type_id":"4","last_reported":1719238080,"current_range_meters":8800,"station_id":"ce4bhah2rcd13ifvqej0","pricing_plan_id":"cebpf4jnsgd1na2vs0mg"},{"bike_id":"cc12d9a9-9476-4172-a1d9-7c30fa51a435","system_id":"levelo_inurba_marseille","lat":43.302759,"lon":5.400793,"is_reserved":false,"is_disabled":false,"rental_uris":{"android":"levelo://app?vid=cc12d9a9-9476-4172-a1d9-7c30fa51a435","ios":"levelo://app?vid=cc12d9a9-9476-4172-a1d9-7c30fa51a435"},"vehicle_type_id":"4","last_reported":1719238080,"current_range_meters":7600,"station_id":"ce4bgvh2rcd13ifvqcs0","pricing_plan_id":"cebpf4jnsgd1na2vs0mg"},{"bike_id":"a19e8e3b-3d74-4a15-9992-ff11a6ea4e39","system_id":"levelo_inurba_marseille","lat":43.302759,"lon":5.400793,"is_reserved":false,"is_disabled":false,"rental_uris":{"android":"levelo://app?vid=a19e8e3b-3d74-4a15-9992-ff11a6ea4e39","ios":"levelo://app?vid=a19e8e3b-3d74-4a15-9992-ff11a6ea4e39"},"vehicle_type_id":"4","last_reported":1719238080,"current_range_meters":5200,"station_id":"ce4bgvh2rcd13ifvqcs0","pricing_plan_id":"cebpf4jnsgd1na2vs0mg"},{"bike_id":"55a11d96-f71f-4f23-90b4-21fe7d1b5fd2","system_id":"levelo_inurba_marseille","lat":43.289307,"lon":5.38406,"is_reserved":false,"is_disabled":false,"rental_uris":{"android":"levelo://app?vid=55a11d96-f71f-4f23-90b4-21fe7d1b5fd2","ios":"levelo://app?vid=55a11d96-f71f-4f23-90b4-21fe7d1b5fd2"},"vehicle_type_id":"4","last_reported":1719238080,"current_range_meters":31200,"station_id":"ce4bh612rcd13ifvqe6g","pricing_plan_id":"cebpf4jnsgd1na2vs0mg"},{"bike_id":"228b9beb-8394-4f88-b264-709381715aa2","system_id":"levelo_inurba_marseille","lat":43.290336,"lon":5.386425,"is_reserved":false,"is_disabled":false,"rental_uris":{"android":"levelo://app?vid=228b9beb-8394-4f88-b264-709381715aa2","ios":"levelo://app?vid=228b9beb-8394-4f88-b264-709381715aa2"},"vehicle_type_id":"4","last_reported":1719238080,"current_range_meters":17200,"station_id":"ce4bh4p2rcd13ifvqe0g","pricing_plan_id":"cebpf4jnsgd1na2vs0mg"},{"bike_id":"c5c075e7-d21a-48c0-8e86-24fcaed0af17","system_id":"levelo_inurba_marseille","lat":43.302759,"lon":5.400793,"is_reserved":false,"is_disabled":false,"rental_uris":{"android":"levelo://app?vid=c5c075e7-d21a-48c0-8e86-24fcaed0af17","ios":"levelo://app?vid=c5c075e7-d21a-48c0-8e86-24fcaed0af17"},"vehicle_type_id":"4","last_reported":1719238080,"current_range_meters":16800,"station_id":"ce4bgvh2rcd13ifvqcs0","pricing_plan_id":"cebpf4jnsgd1na2vs0mg"},{"bike_id":"8f450c2c-502e-448a-90b9-8234ee2298c1","system_id":"levelo_inurba_marseille","lat":43.302759,"lon":5.400793,"is_reserved":false,"is_disabled":false,"rental_uris":{"android":"levelo://app?vid=8f450c2c-502e-448a-90b9-8234ee2298c1","ios":"levelo://app?vid=8f450c2c-502e-448a-90b9-8234ee2298c1"},"vehicle_type_id":"4","last_reported":1719238080,"current_range_meters":0,"station_id":"ce4bgvh2rcd13ifvqcs0","pricing_plan_id":"cebpf4jnsgd1na2vs0mg"},{"bike_id":"36bfc34e-9926-4eef-83ca-5d0bebc9144c","system_id":"levelo_inurba_marseille","lat":43.302759,"lon":5.400793,"is_reserved":false,"is_disabled":false,"rental_uris":{"android":"levelo://app?vid=36bfc34e-9926-4eef-83ca-5d0bebc9144c","ios":"levelo://app?vid=36bfc34e-9926-4eef-83ca-5d0bebc9144c"},"vehicle_type_id":"4","last_reported":1719238080,"current_range_meters":16800,"station_id":"ce4bgvh2rcd13ifvqcs0","pricing_plan_id":"cebpf4jnsgd1na2vs0mg"},{"bike_id":"9a6421bf-8246-48d8-b8fd-68fd1d97321b","system_id":"levelo_inurba_marseille","lat":43.316821,"lon":5.404737,"is_reserved":false,"is_disabled":false,"rental_uris":{"android":"levelo://app?vid=9a6421bf-8246-48d8-b8fd-68fd1d97321b","ios":"levelo://app?vid=9a6421bf-8246-48d8-b8fd-68fd1d97321b"},"vehicle_type_id":"4","last_reported":1719238080,"current_range_meters":22800,"station_id":"ce4bh012rcd13ifvqd00","pricing_plan_id":"cebpf4jnsgd1na2vs0mg"},{"bike_id":"8f782af0-6d29-4ea6-9e49-65e601c609b7","system_id":"levelo_inurba_marseille","lat":43.291994,"lon":5.392907,"is_reserved":false,"is_disabled":false,"rental_uris":{"android":"levelo://app?vid=8f782af0-6d29-4ea6-9e49-65e601c609b7","ios":"levelo://app?vid=8f782af0-6d29-4ea6-9e49-65e601c609b7"},"vehicle_type_id":"4","last_reported":1719238080,"current_range_meters":5200,"station_id":"ce4bh192rcd13ifvqdd0","pricing_plan_id":"cebpf4jnsgd1na2vs0mg"},{"bike_id":"150dba2a-313a-4ef0-9aa2-f60a24dff2a6","system_id":"levelo_inurba_marseille","lat":43.284538,"lon":5.358657,"is_reserved":false,"is_disabled":false,"rental_uris":{"android":"levelo://app?vid=150dba2a-313a-4ef0-9aa2-f60a24dff2a6","ios":"levelo://app?vid=150dba2a-313a-4ef0-9aa2-f60a24dff2a6"},"vehicle_type_id":"4","last_reported":1719238080,"current_range_meters":13200,"station_id":"ce4bhah2rcd13ifvqei0","pricing_plan_id":"cebpf4jnsgd1na2vs0mg"},{"bike_id":"f186e89f-18ac-4239-9bbb-752ea5634d9c","system_id":"levelo_inurba_marseille","lat":43.284538,"lon":5.358657,"is_reserved":false,"is_disabled":false,"rental_uris":{"android":"levelo://app?vid=f186e89f-18ac-4239-9bbb-752ea5634d9c","ios":"levelo://app?vid=f186e89f-18ac-4239-9bbb-752ea5634d9c"},"vehicle_type_id":"4","last_reported":1719238080,"current_range_meters":31200,"station_id":"ce4bhah2rcd13ifvqei0","pricing_plan_id":"cebpf4jnsgd1na2vs0mg"},{"bike_id":"f9328ff4-4218-4dff-bb42-8edf05ccda18","system_id":"levelo_inurba_marseille","lat":43.284534,"lon":5.358662,"is_reserved":false,"is_disabled":false,"rental_uris":{"android":"levelo://app?vid=f9328ff4-4218-4dff-bb42-8edf05ccda18","ios":"levelo://app?vid=f9328ff4-4218-4dff-bb42-8edf05ccda18"},"vehicle_type_id":"4","last_reported":1719238080,"current_range_meters":31200,"station_id":"ce4bhah2rcd13ifvqei0","pricing_plan_id":"cebpf4jnsgd1na2vs0mg"},{"bike_id":"1086eb39-ca31-4e89-9854-8e1930e91330","system_id":"levelo_inurba_marseille","lat":43.284534,"lon":5.358662,"is_reserved":false,"is_disabled":false,"rental_uris":{"android":"levelo://app?vid=1086eb39-ca31-4e89-9854-8e1930e91330","ios":"levelo://app?vid=1086eb39-ca31-4e89-9854-8e1930e91330"},"vehicle_type_id":"4","last_reported":1719238080,"current_range_meters":31200,"station_id":"ce4bhah2rcd13ifvqei0","pricing_plan_id":"cebpf4jnsgd1na2vs0mg"},{"bike_id":"f98cf978-5aec-4076-babf-418f1baf9cf3","system_id":"levelo_inurba_marseille","lat":43.284534,"lon":5.358662,"is_reserved":false,"is_disabled":false,"rental_uris":{"android":"levelo://app?vid=f98cf978-5aec-4076-babf-418f1baf9cf3","ios":"levelo://app?vid=f98cf978-5aec-4076-babf-418f1baf9cf3"},"vehicle_type_id":"4","last_reported":1719238080,"current_range_meters":25200,"station_id":"ce4bhah2rcd13ifvqei0","pricing_plan_id":"cebpf4jnsgd1na2vs0mg"},{"bike_id":"edc107a0-bc9a-45de-b735-5bf504ab502c","system_id":"levelo_inurba_marseille","lat":43.294314,"lon":5.397498,"is_reserved":false,"is_disabled":false,"rental_uris":{"android":"levelo://app?vid=edc107a0-bc9a-45de-b735-5bf504ab502c","ios":"levelo://app?vid=edc107a0-bc9a-45de-b735-5bf504ab502c"},"vehicle_type_id":"4","last_reported":1719238080,"current_range_meters":19600,"station_id":"ce4bh3h2rcd13ifvqdo0","pricing_plan_id":"cebpf4jnsgd1na2vs0mg"},{"bike_id":"fb53fd12-bd61-4718-b1cf-69a3f5160eb7","system_id":"levelo_inurba_marseille","lat":43.294314,"lon":5.397498,"is_reserved":false,"is_disabled":false,"rental_uris":{"android":"levelo://app?vid=fb53fd12-bd61-4718-b1cf-69a3f5160eb7","ios":"levelo://app?vid=fb53fd12-bd61-4718-b1cf-69a3f5160eb7"},"vehicle_type_id":"4","last_reported":1719238080,"current_range_meters":5600,"station_id":"ce4bh3h2rcd13ifvqdo0","pricing_plan_id":"cebpf4jnsgd1na2vs0mg"},{"bike_id":"f31159d2-cd0c-4cce-9400-2d41c3bc3f76","system_id":"levelo_inurba_marseille","lat":43.286203,"lon":5.351073,"is_reserved":false,"is_disabled":false,"rental_uris":{"android":"levelo://app?vid=f31159d2-cd0c-4cce-9400-2d41c3bc3f76","ios":"levelo://app?vid=f31159d2-cd0c-4cce-9400-2d41c3bc3f76"},"vehicle_type_id":"4","last_reported":1719238080,"current_range_meters":7200,"station_id":"ce4bhch2rcd13ifvqeug","pricing_plan_id":"cebpf4jnsgd1na2vs0mg"},{"bike_id":"0119339d-925b-4605-ab1d-ff616512c5b3","system_id":"levelo_inurba_marseille","lat":43.28619,"lon":5.3511,"is_reserved":false,"is_disabled":false,"rental_uris":{"android":"levelo://app?vid=0119339d-925b-4605-ab1d-ff616512c5b3","ios":"levelo://app?vid=0119339d-925b-4605-ab1d-ff616512c5b3"},"vehicle_type_id":"4","last_reported":1719238080,"current_range_meters":2800,"station_id":"ce4bhch2rcd13ifvqeug","pricing_plan_id":"cebpf4jnsgd1na2vs0mg"},{"bike_id":"f4c94b57-2fd5-4f62-b7bb-41b763c6a150","system_id":"levelo_inurba_marseille","lat":43.285848,"lon":5.350787,"is_reserved":false,"is_disabled":false,"rental_uris":{"android":"levelo://app?vid=f4c94b57-2fd5-4f62-b7bb-41b763c6a150","ios":"levelo://app?vid=f4c94b57-2fd5-4f62-b7bb-41b763c6a150"},"vehicle_type_id":"4","last_reported":1719238080,"current_range_meters":31200,"station_id":"ce4bhch2rcd13ifvqeug","pricing_plan_id":"cebpf4jnsgd1na2vs0mg"},{"bike_id":"34f2075c-3a97-4ec2-a39c-6a8effd88b7e","system_id":"levelo_inurba_marseille","lat":43.28621,"lon":5.35096,"is_reserved":false,"is_disabled":false,"rental_uris":{"android":"levelo://app?vid=34f2075c-3a97-4ec2-a39c-6a8effd88b7e","ios":"levelo://app?vid=34f2075c-3a97-4ec2-a39c-6a8effd88b7e"},"vehicle_type_id":"4","last_reported":1719238080,"current_range_meters":21200,"station_id":"ce4bhch2rcd13ifvqeug","pricing_plan_id":"cebpf4jnsgd1na2vs0mg"},{"bike_id":"2bee6d0c-221c-40f1-9ff6-16e3df609f3c","system_id":"levelo_inurba_marseille","lat":43.28615,"lon":5.35106,"is_reserved":false,"is_disabled":false,"rental_uris":{"android":"levelo://app?vid=2bee6d0c-221c-40f1-9ff6-16e3df609f3c","ios":"levelo://app?vid=2bee6d0c-221c-40f1-9ff6-16e3df609f3c"},"vehicle_type_id":"4","last_reported":1719238080,"current_range_meters":17600,"station_id":"ce4bhch2rcd13ifvqeug","pricing_plan_id":"cebpf4jnsgd1na2vs0mg"},{"bike_id":"e2e352af-05fd-457e-8b06-1b8d4db9ec23","system_id":"levelo_inurba_marseille","lat":43.285848,"lon":5.350787,"is_reserved":false,"is_disabled":false,"rental_uris":{"android":"levelo://app?vid=e2e352af-05fd-457e-8b06-1b8d4db9ec23","ios":"levelo://app?vid=e2e352af-05fd-457e-8b06-1b8d4db9ec23"},"vehicle_type_id":"4","last_reported":1719238080,"current_range_meters":21600,"station_id":"ce4bhch2rcd13ifvqeug","pricing_plan_id":"cebpf4jnsgd1na2vs0mg"},{"bike_id":"638ba26e-2c1a-400c-869d-9bbd18fef354","system_id":"levelo_inurba_marseille","lat":43.285856,"lon":5.350771,"is_reserved":false,"is_disabled":false,"rental_uris":{"android":"levelo://app?vid=638ba26e-2c1a-400c-869d-9bbd18fef354","ios":"levelo://app?vid=638ba26e-2c1a-400c-869d-9bbd18fef354"},"vehicle_type_id":"4","last_reported":1719238080,"current_range_meters":30000,"station_id":"ce4bhch2rcd13ifvqeug","pricing_plan_id":"cebpf4jnsgd1na2vs0mg"},{"bike_id":"adec6e65-3060-4752-9fec-d5f20690f7a5","system_id":"levelo_inurba_marseille","lat":43.295713,"lon":5.399639,"is_reserved":false,"is_disabled":false,"rental_uris":{"android":"levelo://app?vid=adec6e65-3060-4752-9fec-d5f20690f7a5","ios":"levelo://app?vid=adec6e65-3060-4752-9fec-d5f20690f7a5"},"vehicle_type_id":"4","last_reported":1719238080,"current_range_meters":5200,"station_id":"ce4bh312rcd13ifvqdj0","pricing_plan_id":"cebpf4jnsgd1na2vs0mg"},{"bike_id":"799383c9-025b-4d25-bb93-825c9d49d398","system_id":"levelo_inurba_marseille","lat":43.286595,"lon":5.386795,"is_reserved":false,"is_disabled":false,"rental_uris":{"android":"levelo://app?vid=799383c9-025b-4d25-bb93-825c9d49d398","ios":"levelo://app?vid=799383c9-025b-4d25-bb93-825c9d49d398"},"vehicle_type_id":"4","last_reported":1719238080,"current_range_meters":5600,"station_id":"ce4bh492rcd13ifvqdug","pricing_plan_id":"cebpf4jnsgd1na2vs0mg"},{"bike_id":"ea8aae81-8873-4ab7-83be-3e333daaa8f0","system_id":"levelo_inurba_marseille","lat":43.286595,"lon":5.386795,"is_reserved":false,"is_disabled":false,"rental_uris":{"android":"levelo://app?vid=ea8aae81-8873-4ab7-83be-3e333daaa8f0","ios":"levelo://app?vid=ea8aae81-8873-4ab7-83be-3e333daaa8f0"},"vehicle_type_id":"4","last_reported":1719238080,"current_range_meters":19600,"station_id":"ce4bh492rcd13ifvqdug","pricing_plan_id":"cebpf4jnsgd1na2vs0mg"},{"bike_id":"bd068052-446f-4fa0-acd2-87589ef3ba13","system_id":"levelo_inurba_marseille","lat":43.286595,"lon":5.386795,"is_reserved":false,"is_disabled":false,"rental_uris":{"android":"levelo://app?vid=bd068052-446f-4fa0-acd2-87589ef3ba13","ios":"levelo://app?vid=bd068052-446f-4fa0-acd2-87589ef3ba13"},"vehicle_type_id":"4","last_reported":1719238080,"current_range_meters":9600,"station_id":"ce4bh492rcd13ifvqdug","pricing_plan_id":"cebpf4jnsgd1na2vs0mg"},{"bike_id":"0e107605-5600-4751-9215-21d6b9e34346","system_id":"levelo_inurba_marseille","lat":43.33717,"lon":5.391857,"is_reserved":false,"is_disabled":false,"rental_uris":{"android":"levelo://app?vid=0e107605-5600-4751-9215-21d6b9e34346","ios":"levelo://app?vid=0e107605-5600-4751-9215-21d6b9e34346"},"vehicle_type_id":"4","last_reported":1719238080,"current_range_meters":14800,"station_id":"ce4bhr92rcd13ifvqhsg","pricing_plan_id":"cebpf4jnsgd1na2vs0mg"},{"bike_id":"f0970717-6189-41e5-916c-dde46ad8b577","system_id":"levelo_inurba_marseille","lat":43.323464,"lon":5.406297,"is_reserved":false,"is_disabled":false,"rental_uris":{"android":"levelo://app?vid=f0970717-6189-41e5-916c-dde46ad8b577","ios":"levelo://app?vid=f0970717-6189-41e5-916c-dde46ad8b577"},"vehicle_type_id":"4","last_reported":1719238080,"current_range_meters":17200,"station_id":"ce4bhq92rcd13ifvqhjg","pricing_plan_id":"cebpf4jnsgd1na2vs0mg"},{"bike_id":"9d8fa027-64d3-4504-b892-366646de05cd","system_id":"levelo_inurba_marseille","lat":43.33717,"lon":5.391857,"is_reserved":false,"is_disabled":false,"rental_uris":{"android":"levelo://app?vid=9d8fa027-64d3-4504-b892-366646de05cd","ios":"levelo://app?vid=9d8fa027-64d3-4504-b892-366646de05cd"},"vehicle_type_id":"4","last_reported":1719238080,"current_range_meters":19600,"station_id":"ce4bhr92rcd13ifvqhsg","pricing_plan_id":"cebpf4jnsgd1na2vs0mg"},{"bike_id":"6cde126e-f020-4d73-9711-9c1f98f5304b","system_id":"levelo_inurba_marseille","lat":43.323464,"lon":5.406297,"is_reserved":false,"is_disabled":false,"rental_uris":{"android":"levelo://app?vid=6cde126e-f020-4d73-9711-9c1f98f5304b","ios":"levelo://app?vid=6cde126e-f020-4d73-9711-9c1f98f5304b"},"vehicle_type_id":"4","last_reported":1719238080,"current_range_meters":15200,"station_id":"ce4bhq92rcd13ifvqhjg","pricing_plan_id":"cebpf4jnsgd1na2vs0mg"},{"bike_id":"8d27e9a4-19cb-44d2-91f7-772d674195ac","system_id":"levelo_inurba_marseille","lat":43.323464,"lon":5.406297,"is_reserved":false,"is_disabled":false,"rental_uris":{"android":"levelo://app?vid=8d27e9a4-19cb-44d2-91f7-772d674195ac","ios":"levelo://app?vid=8d27e9a4-19cb-44d2-91f7-772d674195ac"},"vehicle_type_id":"4","last_reported":1719238080,"current_range_meters":400,"station_id":"ce4bhq92rcd13ifvqhjg","pricing_plan_id":"cebpf4jnsgd1na2vs0mg"},{"bike_id":"c131bd2d-65ac-491c-83c8-1f3af0a2a548","system_id":"levelo_inurba_marseille","lat":43.337168,"lon":5.391825,"is_reserved":false,"is_disabled":false,"rental_uris":{"android":"levelo://app?vid=c131bd2d-65ac-491c-83c8-1f3af0a2a548","ios":"levelo://app?vid=c131bd2d-65ac-491c-83c8-1f3af0a2a548"},"vehicle_type_id":"4","last_reported":1719238080,"current_range_meters":31200,"station_id":"ce4bhr92rcd13ifvqhsg","pricing_plan_id":"cebpf4jnsgd1na2vs0mg"},{"bike_id":"cb8a7309-7e20-4c1c-8bc0-1d7ccc0ad3ef","system_id":"levelo_inurba_marseille","lat":43.33717,"lon":5.391857,"is_reserved":false,"is_disabled":false,"rental_uris":{"android":"levelo://app?vid=cb8a7309-7e20-4c1c-8bc0-1d7ccc0ad3ef","ios":"levelo://app?vid=cb8a7309-7e20-4c1c-8bc0-1d7ccc0ad3ef"},"vehicle_type_id":"4","last_reported":1719238080,"current_range_meters":31200,"station_id":"ce4bhr92rcd13ifvqhsg","pricing_plan_id":"cebpf4jnsgd1na2vs0mg"},{"bike_id":"f405856e-8f0d-4853-8b7e-6f830007b6c4","system_id":"levelo_inurba_marseille","lat":43.284787,"lon":5.384116,"is_reserved":false,"is_disabled":false,"rental_uris":{"android":"levelo://app?vid=f405856e-8f0d-4853-8b7e-6f830007b6c4","ios":"levelo://app?vid=f405856e-8f0d-4853-8b7e-6f830007b6c4"},"vehicle_type_id":"4","last_reported":1719238080,"current_range_meters":0,"station_id":"ce4bh512rcd13ifvqe3g","pricing_plan_id":"cebpf4jnsgd1na2vs0mg"},{"bike_id":"215cb770-bbf3-49f0-a7b8-9846fa56ecfd","system_id":"levelo_inurba_marseille","lat":43.284793,"lon":5.384119,"is_reserved":false,"is_disabled":false,"rental_uris":{"android":"levelo://app?vid=215cb770-bbf3-49f0-a7b8-9846fa56ecfd","ios":"levelo://app?vid=215cb770-bbf3-49f0-a7b8-9846fa56ecfd"},"vehicle_type_id":"4","last_reported":1719238080,"current_range_meters":12400,"station_id":"ce4bh512rcd13ifvqe3g","pricing_plan_id":"cebpf4jnsgd1na2vs0mg"},{"bike_id":"4497fba1-146d-4d51-b548-4fb00de21aa1","system_id":"levelo_inurba_marseille","lat":43.297946,"lon":5.404063,"is_reserved":false,"is_disabled":false,"rental_uris":{"android":"levelo://app?vid=4497fba1-146d-4d51-b548-4fb00de21aa1","ios":"levelo://app?vid=4497fba1-146d-4d51-b548-4fb00de21aa1"},"vehicle_type_id":"4","last_reported":1719238080,"current_range_meters":8800,"station_id":"ce4bh112rcd13ifvqd90","pricing_plan_id":"cebpf4jnsgd1na2vs0mg"},{"bike_id":"5206ccc8-e65c-458f-a5bc-f9a043f8c7eb","system_id":"levelo_inurba_marseille","lat":43.297946,"lon":5.404063,"is_reserved":false,"is_disabled":false,"rental_uris":{"android":"levelo://app?vid=5206ccc8-e65c-458f-a5bc-f9a043f8c7eb","ios":"levelo://app?vid=5206ccc8-e65c-458f-a5bc-f9a043f8c7eb"},"vehicle_type_id":"4","last_reported":1719238080,"current_range_meters":28000,"station_id":"ce4bh112rcd13ifvqd90","pricing_plan_id":"cebpf4jnsgd1na2vs0mg"},{"bike_id":"ad61dcc9-e5d2-4cb1-b136-845ea6983d31","system_id":"levelo_inurba_marseille","lat":43.28436,"lon":5.35008,"is_reserved":false,"is_disabled":false,"rental_uris":{"android":"levelo://app?vid=ad61dcc9-e5d2-4cb1-b136-845ea6983d31","ios":"levelo://app?vid=ad61dcc9-e5d2-4cb1-b136-845ea6983d31"},"vehicle_type_id":"4","last_reported":1719238080,"current_range_meters":31200,"station_id":"ce4bhbh2rcd13ifvqepg","pricing_plan_id":"cebpf4jnsgd1na2vs0mg"},{"bike_id":"ca9ef44e-247c-41fc-9628-b2ffe84ca91d","system_id":"levelo_inurba_marseille","lat":43.28434,"lon":5.35003,"is_reserved":false,"is_disabled":false,"rental_uris":{"android":"levelo://app?vid=ca9ef44e-247c-41fc-9628-b2ffe84ca91d","ios":"levelo://app?vid=ca9ef44e-247c-41fc-9628-b2ffe84ca91d"},"vehicle_type_id":"4","last_reported":1719238080,"current_range_meters":31200,"station_id":"ce4bhbh2rcd13ifvqepg","pricing_plan_id":"cebpf4jnsgd1na2vs0mg"},{"bike_id":"7a6b78f6-869f-4fa9-8df8-618df650e390","system_id":"levelo_inurba_marseille","lat":43.284214,"lon":5.349706,"is_reserved":false,"is_disabled":false,"rental_uris":{"android":"levelo://app?vid=7a6b78f6-869f-4fa9-8df8-618df650e390","ios":"levelo://app?vid=7a6b78f6-869f-4fa9-8df8-618df650e390"},"vehicle_type_id":"4","last_reported":1719238080,"current_range_meters":19200,"station_id":"ce4bhbh2rcd13ifvqepg","pricing_plan_id":"cebpf4jnsgd1na2vs0mg"},{"bike_id":"613bd3ac-3ba2-4a49-a8ef-ff26683755f3","system_id":"levelo_inurba_marseille","lat":43.28484,"lon":5.385505,"is_reserved":false,"is_disabled":false,"rental_uris":{"android":"levelo://app?vid=613bd3ac-3ba2-4a49-a8ef-ff26683755f3","ios":"levelo://app?vid=613bd3ac-3ba2-4a49-a8ef-ff26683755f3"},"vehicle_type_id":"4","last_reported":1719238080,"current_range_meters":26800,"station_id":"ce4bh8p2rcd13ifvqeb0","pricing_plan_id":"cebpf4jnsgd1na2vs0mg"},{"bike_id":"6e5a389f-79b2-41c7-8fee-5917103c94a5","system_id":"levelo_inurba_marseille","lat":43.284301,"lon":5.349937,"is_reserved":false,"is_disabled":false,"rental_uris":{"android":"levelo://app?vid=6e5a389f-79b2-41c7-8fee-5917103c94a5","ios":"levelo://app?vid=6e5a389f-79b2-41c7-8fee-5917103c94a5"},"vehicle_type_id":"4","last_reported":1719238080,"current_range_meters":31200,"station_id":"ce4bhbh2rcd13ifvqepg","pricing_plan_id":"cebpf4jnsgd1na2vs0mg"},{"bike_id":"92e6bd99-503f-4781-9162-5307fedf76ca","system_id":"levelo_inurba_marseille","lat":43.284214,"lon":5.349706,"is_reserved":false,"is_disabled":false,"rental_uris":{"android":"levelo://app?vid=92e6bd99-503f-4781-9162-5307fedf76ca","ios":"levelo://app?vid=92e6bd99-503f-4781-9162-5307fedf76ca"},"vehicle_type_id":"4","last_reported":1719238080,"current_range_meters":13200,"station_id":"ce4bhbh2rcd13ifvqepg","pricing_plan_id":"cebpf4jnsgd1na2vs0mg"},{"bike_id":"6261df30-65b2-497d-a7ca-66e0fe10ac35","system_id":"levelo_inurba_marseille","lat":43.284293,"lon":5.349937,"is_reserved":false,"is_disabled":false,"rental_uris":{"android":"levelo://app?vid=6261df30-65b2-497d-a7ca-66e0fe10ac35","ios":"levelo://app?vid=6261df30-65b2-497d-a7ca-66e0fe10ac35"},"vehicle_type_id":"4","last_reported":1719238080,"current_range_meters":31200,"station_id":"ce4bhbh2rcd13ifvqepg","pricing_plan_id":"cebpf4jnsgd1na2vs0mg"},{"bike_id":"28761dc2-c3e2-4105-ad39-2b45f9cf9ec1","system_id":"levelo_inurba_marseille","lat":43.28428,"lon":5.34994,"is_reserved":false,"is_disabled":false,"rental_uris":{"android":"levelo://app?vid=28761dc2-c3e2-4105-ad39-2b45f9cf9ec1","ios":"levelo://app?vid=28761dc2-c3e2-4105-ad39-2b45f9cf9ec1"},"vehicle_type_id":"4","last_reported":1719238080,"current_range_meters":24400,"station_id":"ce4bhbh2rcd13ifvqepg","pricing_plan_id":"cebpf4jnsgd1na2vs0mg"},{"bike_id":"407fcde9-2b2e-475a-bf14-e5f1f0dd46b7","system_id":"levelo_inurba_marseille","lat":43.284219,"lon":5.3497,"is_reserved":false,"is_disabled":false,"rental_uris":{"android":"levelo://app?vid=407fcde9-2b2e-475a-bf14-e5f1f0dd46b7","ios":"levelo://app?vid=407fcde9-2b2e-475a-bf14-e5f1f0dd46b7"},"vehicle_type_id":"4","last_reported":1719238080,"current_range_meters":21600,"station_id":"ce4bhbh2rcd13ifvqepg","pricing_plan_id":"cebpf4jnsgd1na2vs0mg"},{"bike_id":"2f41134a-50c6-47ee-b163-9054ce605318","system_id":"levelo_inurba_marseille","lat":43.28426,"lon":5.34995,"is_reserved":false,"is_disabled":false,"rental_uris":{"android":"levelo://app?vid=2f41134a-50c6-47ee-b163-9054ce605318","ios":"levelo://app?vid=2f41134a-50c6-47ee-b163-9054ce605318"},"vehicle_type_id":"4","last_reported":1719238080,"current_range_meters":11600,"station_id":"ce4bhbh2rcd13ifvqepg","pricing_plan_id":"cebpf4jnsgd1na2vs0mg"},{"bike_id":"28529686-90a7-43a0-b855-db47425338ba","system_id":"levelo_inurba_marseille","lat":43.28422,"lon":5.34997,"is_reserved":false,"is_disabled":false,"rental_uris":{"android":"levelo://app?vid=28529686-90a7-43a0-b855-db47425338ba","ios":"levelo://app?vid=28529686-90a7-43a0-b855-db47425338ba"},"vehicle_type_id":"4","last_reported":1719238080,"current_range_meters":17600,"station_id":"ce4bhbh2rcd13ifvqepg","pricing_plan_id":"cebpf4jnsgd1na2vs0mg"},{"bike_id":"c14dad49-36c9-473a-a157-edde3f3876e3","system_id":"levelo_inurba_marseille","lat":43.28424,"lon":5.3499,"is_reserved":false,"is_disabled":false,"rental_uris":{"android":"levelo://app?vid=c14dad49-36c9-473a-a157-edde3f3876e3","ios":"levelo://app?vid=c14dad49-36c9-473a-a157-edde3f3876e3"},"vehicle_type_id":"4","last_reported":1719238080,"current_range_meters":23200,"station_id":"ce4bhbh2rcd13ifvqepg","pricing_plan_id":"cebpf4jnsgd1na2vs0mg"},{"bike_id":"3bfefc30-0173-4904-9229-95c8d2e60a20","system_id":"levelo_inurba_marseille","lat":43.284228,"lon":5.349932,"is_reserved":false,"is_disabled":false,"rental_uris":{"android":"levelo://app?vid=3bfefc30-0173-4904-9229-95c8d2e60a20","ios":"levelo://app?vid=3bfefc30-0173-4904-9229-95c8d2e60a20"},"vehicle_type_id":"4","last_reported":1719238080,"current_range_meters":10400,"station_id":"ce4bhbh2rcd13ifvqepg","pricing_plan_id":"cebpf4jnsgd1na2vs0mg"},{"bike_id":"d8343602-5fce-48d2-be32-6f1db3e5570b","system_id":"levelo_inurba_marseille","lat":43.28424,"lon":5.34989,"is_reserved":false,"is_disabled":false,"rental_uris":{"android":"levelo://app?vid=d8343602-5fce-48d2-be32-6f1db3e5570b","ios":"levelo://app?vid=d8343602-5fce-48d2-be32-6f1db3e5570b"},"vehicle_type_id":"4","last_reported":1719238080,"current_range_meters":11600,"station_id":"ce4bhbh2rcd13ifvqepg","pricing_plan_id":"cebpf4jnsgd1na2vs0mg"},{"bike_id":"6e4f6d68-d97f-4c73-a474-9c6e34e73a11","system_id":"levelo_inurba_marseille","lat":43.28421,"lon":5.34995,"is_reserved":false,"is_disabled":false,"rental_uris":{"android":"levelo://app?vid=6e4f6d68-d97f-4c73-a474-9c6e34e73a11","ios":"levelo://app?vid=6e4f6d68-d97f-4c73-a474-9c6e34e73a11"},"vehicle_type_id":"4","last_reported":1719238080,"current_range_meters":27600,"station_id":"ce4bhbh2rcd13ifvqepg","pricing_plan_id":"cebpf4jnsgd1na2vs0mg"},{"bike_id":"e37859c9-a92c-48ab-a4cf-e748edb07589","system_id":"levelo_inurba_marseille","lat":43.2842,"lon":5.349978,"is_reserved":false,"is_disabled":false,"rental_uris":{"android":"levelo://app?vid=e37859c9-a92c-48ab-a4cf-e748edb07589","ios":"levelo://app?vid=e37859c9-a92c-48ab-a4cf-e748edb07589"},"vehicle_type_id":"4","last_reported":1719238080,"current_range_meters":9600,"station_id":"ce4bhbh2rcd13ifvqepg","pricing_plan_id":"cebpf4jnsgd1na2vs0mg"},{"bike_id":"b08987e2-312b-4608-9896-cfbfdb9f741a","system_id":"levelo_inurba_marseille","lat":43.284213,"lon":5.349933,"is_reserved":false,"is_disabled":false,"rental_uris":{"android":"levelo://app?vid=b08987e2-312b-4608-9896-cfbfdb9f741a","ios":"levelo://app?vid=b08987e2-312b-4608-9896-cfbfdb9f741a"},"vehicle_type_id":"4","last_reported":1719238080,"current_range_meters":6800,"station_id":"ce4bhbh2rcd13ifvqepg","pricing_plan_id":"cebpf4jnsgd1na2vs0mg"},{"bike_id":"1d028968-6409-4134-bdfd-228bad3a98bf","system_id":"levelo_inurba_marseille","lat":43.284214,"lon":5.349706,"is_reserved":false,"is_disabled":false,"rental_uris":{"android":"levelo://app?vid=1d028968-6409-4134-bdfd-228bad3a98bf","ios":"levelo://app?vid=1d028968-6409-4134-bdfd-228bad3a98bf"},"vehicle_type_id":"4","last_reported":1719238080,"current_range_meters":24800,"station_id":"ce4bhbh2rcd13ifvqepg","pricing_plan_id":"cebpf4jnsgd1na2vs0mg"},{"bike_id":"a6f312cc-de96-412b-85e0-2ada25df391e","system_id":"levelo_inurba_marseille","lat":43.28422,"lon":5.34985,"is_reserved":false,"is_disabled":false,"rental_uris":{"android":"levelo://app?vid=a6f312cc-de96-412b-85e0-2ada25df391e","ios":"levelo://app?vid=a6f312cc-de96-412b-85e0-2ada25df391e"},"vehicle_type_id":"4","last_reported":1719238080,"current_range_meters":11600,"station_id":"ce4bhbh2rcd13ifvqepg","pricing_plan_id":"cebpf4jnsgd1na2vs0mg"},{"bike_id":"7ed7d00d-4d0a-468b-bc36-edc1227f5fd3","system_id":"levelo_inurba_marseille","lat":43.28417,"lon":5.34998,"is_reserved":false,"is_disabled":false,"rental_uris":{"android":"levelo://app?vid=7ed7d00d-4d0a-468b-bc36-edc1227f5fd3","ios":"levelo://app?vid=7ed7d00d-4d0a-468b-bc36-edc1227f5fd3"},"vehicle_type_id":"4","last_reported":1719238080,"current_range_meters":30800,"station_id":"ce4bhbh2rcd13ifvqepg","pricing_plan_id":"cebpf4jnsgd1na2vs0mg"},{"bike_id":"f5819826-6ac5-4dbb-a576-0ce7ea46a91e","system_id":"levelo_inurba_marseille","lat":43.284214,"lon":5.349706,"is_reserved":false,"is_disabled":false,"rental_uris":{"android":"levelo://app?vid=f5819826-6ac5-4dbb-a576-0ce7ea46a91e","ios":"levelo://app?vid=f5819826-6ac5-4dbb-a576-0ce7ea46a91e"},"vehicle_type_id":"4","last_reported":1719238080,"current_range_meters":30400,"station_id":"ce4bhbh2rcd13ifvqepg","pricing_plan_id":"cebpf4jnsgd1na2vs0mg"},{"bike_id":"d1581586-f763-4d73-9f63-7e16251214d6","system_id":"levelo_inurba_marseille","lat":43.28417,"lon":5.34994,"is_reserved":false,"is_disabled":false,"rental_uris":{"android":"levelo://app?vid=d1581586-f763-4d73-9f63-7e16251214d6","ios":"levelo://app?vid=d1581586-f763-4d73-9f63-7e16251214d6"},"vehicle_type_id":"4","last_reported":1719238080,"current_range_meters":0,"station_id":"ce4bhbh2rcd13ifvqepg","pricing_plan_id":"cebpf4jnsgd1na2vs0mg"},{"bike_id":"717fae56-a0d1-4d49-8310-1b0eb2cc5dd6","system_id":"levelo_inurba_marseille","lat":43.284217,"lon":5.349697,"is_reserved":false,"is_disabled":false,"rental_uris":{"android":"levelo://app?vid=717fae56-a0d1-4d49-8310-1b0eb2cc5dd6","ios":"levelo://app?vid=717fae56-a0d1-4d49-8310-1b0eb2cc5dd6"},"vehicle_type_id":"4","last_reported":1719238080,"current_range_meters":23200,"station_id":"ce4bhbh2rcd13ifvqepg","pricing_plan_id":"cebpf4jnsgd1na2vs0mg"},{"bike_id":"82b8fab5-4b10-4ce7-9846-08cb2e45da0d","system_id":"levelo_inurba_marseille","lat":43.284217,"lon":5.349697,"is_reserved":false,"is_disabled":false,"rental_uris":{"android":"levelo://app?vid=82b8fab5-4b10-4ce7-9846-08cb2e45da0d","ios":"levelo://app?vid=82b8fab5-4b10-4ce7-9846-08cb2e45da0d"},"vehicle_type_id":"4","last_reported":1719238080,"current_range_meters":25200,"station_id":"ce4bhbh2rcd13ifvqepg","pricing_plan_id":"cebpf4jnsgd1na2vs0mg"},{"bike_id":"0804360a-1c8b-4d3d-a0c0-e77655245e1e","system_id":"levelo_inurba_marseille","lat":43.284214,"lon":5.349706,"is_reserved":false,"is_disabled":false,"rental_uris":{"android":"levelo://app?vid=0804360a-1c8b-4d3d-a0c0-e77655245e1e","ios":"levelo://app?vid=0804360a-1c8b-4d3d-a0c0-e77655245e1e"},"vehicle_type_id":"4","last_reported":1719238080,"current_range_meters":18000,"station_id":"ce4bhbh2rcd13ifvqepg","pricing_plan_id":"cebpf4jnsgd1na2vs0mg"},{"bike_id":"73ec2b97-2b38-4b3c-a2c7-0db6b5e7bdc2","system_id":"levelo_inurba_marseille","lat":43.284214,"lon":5.349706,"is_reserved":false,"is_disabled":false,"rental_uris":{"android":"levelo://app?vid=73ec2b97-2b38-4b3c-a2c7-0db6b5e7bdc2","ios":"levelo://app?vid=73ec2b97-2b38-4b3c-a2c7-0db6b5e7bdc2"},"vehicle_type_id":"4","last_reported":1719238080,"current_range_meters":30800,"station_id":"ce4bhbh2rcd13ifvqepg","pricing_plan_id":"cebpf4jnsgd1na2vs0mg"},{"bike_id":"f570ee3f-b34e-4b62-9dbb-26fb402d4016","system_id":"levelo_inurba_marseille","lat":43.284214,"lon":5.349706,"is_reserved":false,"is_disabled":false,"rental_uris":{"android":"levelo://app?vid=f570ee3f-b34e-4b62-9dbb-26fb402d4016","ios":"levelo://app?vid=f570ee3f-b34e-4b62-9dbb-26fb402d4016"},"vehicle_type_id":"4","last_reported":1719238080,"current_range_meters":10000,"station_id":"ce4bhbh2rcd13ifvqepg","pricing_plan_id":"cebpf4jnsgd1na2vs0mg"},