{"last_updated":1742465412,"ttl":60,"version":"2.2","data":{"bikes":[{"bike_id":"6ae6f76c-6a01-4d75-9d3f-dfa610803a78","system_id":"levelo_inurba_marseille","lat":43.23069,"lon":5.35617,"is_reserved":false,"is_disabled":false,"rental_uris":{"android":"levelo://app?vid=6ae6f76c-6a01-4d75-9d3f-dfa610803a78","ios":"levelo://app?vid=6ae6f76c-6a01-4d75-9d3f-dfa610803a78"},"vehicle_type_id":"4","last_reported":1742465412,"current_range_meters":2800,"station_id":"cpo3342slgdg3j2ifvpg","pricing_plan_id":"cebpf4jnsgd1na2vs0mg"},{"bike_id":"ca1c0a28-8faf-435f-9d8b-370c3a07ff34","system_id":"levelo_inurba_marseille","lat":43.24175,"lon":5.36394,"is_reserved":false,"is_disabled":false,"rental_uris":{"android":"levelo://app?vid=ca1c0a28-8faf-435f-9d8b-370c3a07ff34","ios":"levelo://app?vid=ca1c0a28-8faf-435f-9d8b-370c3a07ff34"},"vehicle_type_id":"4","last_reported":1742465412,"current_range_meters":2800,"station_id":"cpo36qri1sfpv3e86is0","pricing_plan_id":"cebpf4jnsgd1na2vs0mg"},{"bike_id":"5f0a8c53-ce4a-49d5-bc4d-ea5731f4db05","system_id":"levelo_inurba_marseille","lat":43.2408,"lon":5.3774,"is_reserved":false,"is_disabled":true,"rental_uris":{"android":"levelo://app?vid=5f0a8c53-ce4a-49d5-bc4d-ea5731f4db05","ios":"levelo://app?vid=5f0a8c53-ce4a-49d5-bc4d-ea5731f4db05"},"vehicle_type_id":"4","last_reported":1742465412,"current_range_meters":3200,"station_id":"ce4bhnp2rcd13ifvqgvg","pricing_plan_id":"cebpf4jnsgd1na2vs0mg"},{"bike_id":"ba924739-ffb9-4ee1-b21b-e33cc1d763a3","system_id":"levelo_inurba_marseille","lat":43.27496,"lon":5.42451,"is_reserved":false,"is_disabled":false,"rental_uris":{"android":"levelo://app?vid=ba924739-ffb9-4ee1-b21b-e33cc1d763a3","ios":"levelo://app?vid=ba924739-ffb9-4ee1-b21b-e33cc1d763a3"},"vehicle_type_id":"4","last_reported":1742465412,"current_range_meters":3200,"station_id":"ce4bhn92rcd13ifvqgrg","pricing_plan_id":"cebpf4jnsgd1na2vs0mg"},{"bike_id":"dc890f6f-bf06-4979-9443-dbc1b47337df","system_id":"levelo_inurba_marseille","lat":43.2512,"lon":5.40325,"is_reserved":false,"is_disabled":false,"rental_uris":{"android":"levelo://app?vid=dc890f6f-bf06-4979-9443-dbc1b47337df","ios":"levelo://app?vid=dc890f6f-bf06-4979-9443-dbc1b47337df"},"vehicle_type_id":"4","last_reported":1742465412,"current_range_meters":3200,"station_id":"ce4bhlh2rcd13ifvqgig","pricing_plan_id":"cebpf4jnsgd1na2vs0mg"},{"bike_id":"babad5d3-ea2c-40b3-8c84-0f41cfc74638","system_id":"levelo_inurba_marseille","lat":43.29913,"lon":5.38143,"is_reserved":false,"is_disabled":false,"rental_uris":{"android":"levelo://app?vid=babad5d3-ea2c-40b3-8c84-0f41cfc74638","ios":"levelo://app?vid=babad5d3-ea2c-40b3-8c84-0f41cfc74638"},"vehicle_type_id":"4","last_reported":1742465412,"current_range_meters":3200,"station_id":"ce4bgj12rcd13ifvqbc0","pricing_plan_id":"cebpf4jnsgd1na2vs0mg"},{"bike_id":"a28abf16-b269-4dd6-8a6b-7405838384a7","system_id":"levelo_inurba_marseille","lat":43.32513,"lon":5.36552,"is_reserved":false,"is_disabled":false,"rental_uris":{"android":"levelo://app?vid=a28abf16-b269-4dd6-8a6b-7405838384a7","ios":"levelo://app?vid=a28abf16-b269-4dd6-8a6b-7405838384a7"},"vehicle_type_id":"4","last_reported":1742465412,"current_range_meters":3200,"station_id":"ce4bhs12rcd13ifvqhvg","pricing_plan_id":"cebpf4jnsgd1na2vs0mg"},{"bike_id":"6c1383c4-ce25-49bd-9e8f-5404db35746c","system_id":"levelo_inurba_marseille","lat":43.23652,"lon":5.39126,"is_reserved":false,"is_disabled":false,"rental_uris":{"android":"levelo://app?vid=6c1383c4-ce25-49bd-9e8f-5404db35746c","ios":"levelo://app?vid=6c1383c4-ce25-49bd-9e8f-5404db35746c"},"vehicle_type_id":"4","last_reported":1742465412,"current_range_meters":3200,"station_id":"","pricing_plan_id":"cebpf4jnsgd1na2vs0mg"},{"bike_id":"a342afa1-fe1b-4de5-8f98-f3f81167fac6","system_id":"levelo_inurba_marseille","lat":43.22935,"lon":5.35374,"is_reserved":false,"is_disabled":false,"rental_uris":{"android":"levelo://app?vid=a342afa1-fe1b-4de5-8f98-f3f81167fac6","ios":"levelo://app?vid=a342afa1-fe1b-4de5-8f98-f3f81167fac6"},"vehicle_type_id":"4","last_reported":1742465412,"current_range_meters":3600,"station_id":"cpo3532slgdg3j2ikp40","pricing_plan_id":"cebpf4jnsgd1na2vs0mg"},{"bike_id":"6c25cfbd-1f7a-41b1-9966-98ff041098e0","system_id":"levelo_inurba_marseille","lat":43.27377,"lon":5.36246,"is_reserved":false,"is_disabled":false,"rental_uris":{"android":"levelo://app?vid=6c25cfbd-1f7a-41b1-9966-98ff041098e0","ios":"levelo://app?vid=6c25cfbd-1f7a-41b1-9966-98ff041098e0"},"vehicle_type_id":"4","last_reported":1742465412,"current_range_meters":3600,"station_id":"ce4bhbh2rcd13ifvqeo0","pricing_plan_id":"cebpf4jnsgd1na2vs0mg"},{"bike_id":"67b3eb3a-bb15-4124-954a-2bead63fd9c6","system_id":"levelo_inurba_marseille","lat":43.26737,"lon":5.39451,"is_reserved":false,"is_disabled":false,"rental_uris":{"android":"levelo://app?vid=67b3eb3a-bb15-4124-954a-2bead63fd9c6","ios":"levelo://app?vid=67b3eb3a-bb15-4124-954a-2bead63fd9c6"},"vehicle_type_id":"4","last_reported":1742465412,"current_range_meters":3600,"station_id":"ce4bhh12rcd13ifvqfg0","pricing_plan_id":"cebpf4jnsgd1na2vs0mg"},{"bike_id":"71b0bcc3-aeec-4495-9a97-a56e7135cbd3","system_id":"levelo_inurba_marseille","lat":43.26045,"lon":5.37538,"is_reserved":false,"is_disabled":false,"rental_uris":{"android":"levelo://app?vid=71b0bcc3-aeec-4495-9a97-a56e7135cbd3","ios":"levelo://app?vid=71b0bcc3-aeec-4495-9a97-a56e7135cbd3"},"vehicle_type_id":"4","last_reported":1742465412,"current_range_meters":3600,"station_id":"ce4bhgh2rcd13ifvqfa0","pricing_plan_id":"cebpf4jnsgd1na2vs0mg"},{"bike_id":"eb583d19-0742-4b56-b05e-93bdb506dacf","system_id":"levelo_inurba_marseille","lat":43.28274,"lon":5.35077,"is_reserved":false,"is_disabled":false,"rental_uris":{"android":"levelo://app?vid=eb583d19-0742-4b56-b05e-93bdb506dacf","ios":"levelo://app?vid=eb583d19-0742-4b56-b05e-93bdb506dacf"},"vehicle_type_id":"4","last_reported":1742465412,"current_range_meters":3200,"station_id":"ce4bhbp2rcd13ifvqerg","pricing_plan_id":"cebpf4jnsgd1na2vs0mg"},{"bike_id":"075320fe-da05-4497-96b7-d7a272174678","system_id":"levelo_inurba_marseille","lat":43.29559,"lon":5.38568,"is_reserved":false,"is_disabled":false,"rental_uris":{"android":"levelo://app?vid=075320fe-da05-4497-96b7-d7a272174678","ios":"levelo://app?vid=075320fe-da05-4497-96b7-d7a272174678"},"vehicle_type_id":"4","last_reported":1742465412,"current_range_meters":4000,"station_id":"ce4bgih2rcd13ifvqba0","pricing_plan_id":"cebpf4jnsgd1na2vs0mg"},{"bike_id":"89ec0cd9-fb27-4a74-b399-65006010a265","system_id":"levelo_inurba_marseille","lat":43.24667,"lon":5.38885,"is_reserved":false,"is_disabled":false,"rental_uris":{"android":"levelo://app?vid=89ec0cd9-fb27-4a74-b399-65006010a265","ios":"levelo://app?vid=89ec0cd9-fb27-4a74-b399-65006010a265"},"vehicle_type_id":"4","last_reported":1742465412,"current_range_meters":4000,"station_id":"ce4bhg12rcd13ifvqf60","pricing_plan_id":"cebpf4jnsgd1na2vs0mg"},{"bike_id":"5f8c7f3b-4916-441a-987d-e6442dc61089","system_id":"levelo_inurba_marseille","lat":43.30433,"lon":5.37904,"is_reserved":false,"is_disabled":false,"rental_uris":{"android":"levelo://app?vid=5f8c7f3b-4916-441a-987d-e6442dc61089","ios":"levelo://app?vid=5f8c7f3b-4916-441a-987d-e6442dc61089"},"vehicle_type_id":"4","last_reported":1742465412,"current_range_meters":4000,"station_id":"ce4bgup2rcd13ifvqcn0","pricing_plan_id":"cebpf4jnsgd1na2vs0mg"},{"bike_id":"55725b1c-0124-4aa2-ba58-ae581bd6382a","system_id":"levelo_inurba_marseille","lat":43.29916,"lon":5.3632,"is_reserved":false,"is_disabled":false,"rental_uris":{"android":"levelo://app?vid=55725b1c-0124-4aa2-ba58-ae581bd6382a","ios":"levelo://app?vid=55725b1c-0124-4aa2-ba58-ae581bd6382a"},"vehicle_type_id":"4","last_reported":1742465412,"current_range_meters":4000,"station_id":"","pricing_plan_id":"cebpf4jnsgd1na2vs0mg"},{"bike_id":"6e874ada-d5ab-4720-adee-6a24e9b93355","system_id":"levelo_inurba_marseille","lat":43.30147,"lon":5.39854,"is_reserved":false,"is_disabled":false,"rental_uris":{"android":"levelo://app?vid=6e874ada-d5ab-4720-adee-6a24e9b93355","ios":"levelo://app?vid=6e874ada-d5ab-4720-adee-6a24e9b93355"},"vehicle_type_id":"4","last_reported":1742465412,"current_range_meters":4000,"station_id":"ce4bh0h2rcd13ifvqd40","pricing_plan_id":"cebpf4jnsgd1na2vs0mg"},{"bike_id":"25b108b7-1e3a-488e-837b-1a07bec27047","system_id":"levelo_inurba_marseille","lat":43.26217,"lon":5.40432,"is_reserved":false,"is_disabled":false,"rental_uris":{"android":"levelo://app?vid=25b108b7-1e3a-488e-837b-1a07bec27047","ios":"levelo://app?vid=25b108b7-1e3a-488e-837b-1a07bec27047"},"vehicle_type_id":"4","last_reported":1742465412,"current_range_meters":4000,"station_id":"ce4bhmh2rcd13ifvqgmg","pricing_plan_id":"cebpf4jnsgd1na2vs0mg"},{"bike_id":"4156866b-a0ed-4dcf-b9d2-e7765ca102e2","system_id":"levelo_inurba_marseille","lat":43.305476,"lon":5.367076,"is_reserved":false,"is_disabled":true,"rental_uris":{"android":"levelo://app?vid=4156866b-a0ed-4dcf-b9d2-e7765ca102e2","ios":"levelo://app?vid=4156866b-a0ed-4dcf-b9d2-e7765ca102e2"},"vehicle_type_id":"4","last_reported":1742465412,"current_range_meters":4000,"station_id":"ce4bgrp2rcd13ifvqc9g","pricing_plan_id":"cebpf4jnsgd1na2vs0mg"},{"bike_id":"622a72f0-7ee7-4f87-9c95-f9a34d666f00","system_id":"levelo_inurba_marseille","lat":43.27504,"lon":5.42453,"is_reserved":false,"is_disabled":false,"rental_uris":{"android":"levelo://app?vid=622a72f0-7ee7-4f87-9c95-f9a34d666f00","ios":"levelo://app?vid=622a72f0-7ee7-4f87-9c95-f9a34d666f00"},"vehicle_type_id":"4","last_reported":1742465412,"current_range_meters":4400,"station_id":"ce4bhn92rcd13ifvqgrg","pricing_plan_id":"cebpf4jnsgd1na2vs0mg"},{"bike_id":"ba4aa91e-d2fa-4290-8e2c-3d263a218945","system_id":"levelo_inurba_marseille","lat":43.23151,"lon":5.43711,"is_reserved":false,"is_disabled":false,"rental_uris":{"android":"levelo://app?vid=ba4aa91e-d2fa-4290-8e2c-3d263a218945","ios":"levelo://app?vid=ba4aa91e-d2fa-4290-8e2c-3d263a218945"},"vehicle_type_id":"4","last_reported":1742465412,"current_range_meters":4400,"station_id":"ce4bhmp2rcd13ifvqgog","pricing_plan_id":"cebpf4jnsgd1na2vs0mg"},{"bike_id":"0d4678ad-d799-4c90-af99-058f6558adae","system_id":"levelo_inurba_marseille","lat":43.3012,"lon":5.37404,"is_reserved":false,"is_disabled":false,"rental_uris":{"android":"levelo://app?vid=0d4678ad-d799-4c90-af99-058f6558adae","ios":"levelo://app?vid=0d4678ad-d799-4c90-af99-058f6558adae"},"vehicle_type_id":"4","last_reported":1742465412,"current_range_meters":4800,"station_id":"ce4bgs92rcd13ifvqcc0","pricing_plan_id":"cebpf4jnsgd1na2vs0mg"},{"bike_id":"f69e4300-472c-43c9-a918-fef7aa35db41","system_id":"levelo_inurba_marseille","lat":43.30208,"lon":5.39466,"is_reserved":false,"is_disabled":false,"rental_uris":{"android":"levelo://app?vid=f69e4300-472c-43c9-a918-fef7aa35db41","ios":"levelo://app?vid=f69e4300-472c-43c9-a918-fef7aa35db41"},"vehicle_type_id":"4","last_reported":1742465412,"current_range_meters":4800,"station_id":"ce4bh0p2rcd13ifvqd70","pricing_plan_id":"cebpf4jnsgd1na2vs0mg"},{"bike_id":"af186a9b-c351-4701-9c35-4930def9b609","system_id":"levelo_inurba_marseille","lat":43.27493,"lon":5.4246,"is_reserved":false,"is_disabled":false,"rental_uris":{"android":"levelo://app?vid=af186a9b-c351-4701-9c35-4930def9b609","ios":"levelo://app?vid=af186a9b-c351-4701-9c35-4930def9b609"},"vehicle_type_id":"4","last_reported":1742465412,"current_range_meters":4800,"station_id":"ce4bhn92rcd13ifvqgrg","pricing_plan_id":"cebpf4jnsgd1na2vs0mg"},{"bike_id":"e149db91-9f61-4fdf-b875-da4f619e6fbc","system_id":"levelo_inurba_marseille","lat":43.30292,"lon":5.36899,"is_reserved":false,"is_disabled":false,"rental_uris":{"android":"levelo://app?vid=e149db91-9f61-4fdf-b875-da4f619e6fbc","ios":"levelo://app?vid=e149db91-9f61-4fdf-b875-da4f619e6fbc"},"vehicle_type_id":"4","last_reported":1742465412,"current_range_meters":4800,"station_id":"ce4bgqh2rcd13ifvqc5g","pricing_plan_id":"cebpf4jnsgd1na2vs0mg"},{"bike_id":"fbae5187-40e4-4cff-810f-4f841c03a14f","system_id":"levelo_inurba_marseille","lat":43.294128,"lon":5.358857,"is_reserved":false,"is_disabled":false,"rental_uris":{"android":"levelo://app?vid=fbae5187-40e4-4cff-810f-4f841c03a14f","ios":"levelo://app?vid=fbae5187-40e4-4cff-810f-4f841c03a14f"},"vehicle_type_id":"4","last_reported":1742465412,"current_range_meters":4800,"station_id":"ce4bhi12rcd13ifvqfo0","pricing_plan_id":"cebpf4jnsgd1na2vs0mg"},{"bike_id":"fb1ad5a3-bf20-4623-a330-14f00a29aca5","system_id":"levelo_inurba_marseille","lat":43.29557,"lon":5.37514,"is_reserved":false,"is_disabled":false,"rental_uris":{"android":"levelo://app?vid=fb1ad5a3-bf20-4623-a330-14f00a29aca5","ios":"levelo://app?vid=fb1ad5a3-bf20-4623-a330-14f00a29aca5"},"vehicle_type_id":"4","last_reported":1742465412,"current_range_meters":4800,"station_id":"ce4bgh92rcd13ifvqb50","pricing_plan_id":"cebpf4jnsgd1na2vs0mg"},{"bike_id":"5600a221-f74e-45fa-9a25-cecdef1bb530","system_id":"levelo_inurba_marseille","lat":43.337444,"lon":5.374475,"is_reserved":false,"is_disabled":false,"rental_uris":{"android":"levelo://app?vid=5600a221-f74e-45fa-9a25-cecdef1bb530","ios":"levelo://app?vid=5600a221-f74e-45fa-9a25-cecdef1bb530"},"vehicle_type_id":"4","last_reported":1742465412,"current_range_meters":5600,"station_id":"","pricing_plan_id":"cebpf4jnsgd1na2vs0mg"},{"bike_id":"ae9b1099-a0c3-4c6b-94c3-7604b9ad0326","system_id":"levelo_inurba_marseille","lat":43.23962,"lon":5.36635,"is_reserved":false,"is_disabled":false,"rental_uris":{"android":"levelo://app?vid=ae9b1099-a0c3-4c6b-94c3-7604b9ad0326","ios":"levelo://app?vid=ae9b1099-a0c3-4c6b-94c3-7604b9ad0326"},"vehicle_type_id":"4","last_reported":1742465412,"current_range_meters":5600,"station_id":"ce4bhi12rcd13ifvqfp0","pricing_plan_id":"cebpf4jnsgd1na2vs0mg"},{"bike_id":"23dbd4bf-d9c0-4a72-ac2c-7746907abe6c","system_id":"levelo_inurba_marseille","lat":43.26052,"lon":5.39382,"is_reserved":false,"is_disabled":false,"rental_uris":{"android":"levelo://app?vid=23dbd4bf-d9c0-4a72-ac2c-7746907abe6c","ios":"levelo://app?vid=23dbd4bf-d9c0-4a72-ac2c-7746907abe6c"},"vehicle_type_id":"4","last_reported":1742465412,"current_range_meters":6000,"station_id":"ce4bhh92rcd13ifvqfj0","pricing_plan_id":"cebpf4jnsgd1na2vs0mg"},{"bike_id":"1a21e5cd-f8cb-41de-9e14-744d0e845b88","system_id":"levelo_inurba_marseille","lat":43.28449,"lon":5.39199,"is_reserved":false,"is_disabled":false,"rental_uris":{"android":"levelo://app?vid=1a21e5cd-f8cb-41de-9e14-744d0e845b88","ios":"levelo://app?vid=1a21e5cd-f8cb-41de-9e14-744d0e845b88"},"vehicle_type_id":"4","last_reported":1742465412,"current_range_meters":6000,"station_id":"ce4bhoh2rcd13ifvqh5g","pricing_plan_id":"cebpf4jnsgd1na2vs0mg"},{"bike_id":"457d63c1-baf7-462f-8163-4d7bdba55f45","system_id":"levelo_inurba_marseille","lat":43.29258,"lon":5.38432,"is_reserved":false,"is_disabled":false,"rental_uris":{"android":"levelo://app?vid=457d63c1-baf7-462f-8163-4d7bdba55f45","ios":"levelo://app?vid=457d63c1-baf7-462f-8163-4d7bdba55f45"},"vehicle_type_id":"4","last_reported":1742465412,"current_range_meters":6000,"station_id":"","pricing_plan_id":"cebpf4jnsgd1na2vs0mg"},{"bike_id":"1fe8cbb2-e61f-4748-8f3f-eff906305549","system_id":"levelo_inurba_marseille","lat":43.23074,"lon":5.35495,"is_reserved":false,"is_disabled":false,"rental_uris":{"android":"levelo://app?vid=1fe8cbb2-e61f-4748-8f3f-eff906305549","ios":"levelo://app?vid=1fe8cbb2-e61f-4748-8f3f-eff906305549"},"vehicle_type_id":"4","last_reported":1742465412,"current_range_meters":6000,"station_id":"cpo3342slgdg3j2ifvpg","pricing_plan_id":"cebpf4jnsgd1na2vs0mg"},{"bike_id":"3612a167-3ac6-4bc0-8750-c86f570d16d0","system_id":"levelo_inurba_marseille","lat":43.30469,"lon":5.37895,"is_reserved":false,"is_disabled":false,"rental_uris":{"android":"levelo://app?vid=3612a167-3ac6-4bc0-8750-c86f570d16d0","ios":"levelo://app?vid=3612a167-3ac6-4bc0-8750-c86f570d16d0"},"vehicle_type_id":"4","last_reported":1742465412,"current_range_meters":6000,"station_id":"ce4bgup2rcd13ifvqcn0","pricing_plan_id":"cebpf4jnsgd1na2vs0mg"},{"bike_id":"3c0f86bf-2134-4462-a7ab-79aaede557c9","system_id":"levelo_inurba_marseille","lat":43.31718,"lon":5.43711,"is_reserved":false,"is_disabled":false,"rental_uris":{"android":"levelo://app?vid=3c0f86bf-2134-4462-a7ab-79aaede557c9","ios":"levelo://app?vid=3c0f86bf-2134-4462-a7ab-79aaede557c9"},"vehicle_type_id":"4","last_reported":1742465412,"current_range_meters":6000,"station_id":"ce4bhp92rcd13ifvqhcg","pricing_plan_id":"cebpf4jnsgd1na2vs0mg"},{"bike_id":"83e16311-feea-476b-b386-6821b2c9db24","system_id":"levelo_inurba_marseille","lat":43.29878,"lon":5.36304,"is_reserved":false,"is_disabled":false,"rental_uris":{"android":"levelo://app?vid=83e16311-feea-476b-b386-6821b2c9db24","ios":"levelo://app?vid=83e16311-feea-476b-b386-6821b2c9db24"},"vehicle_type_id":"4","last_reported":1742465412,"current_range_meters":6000,"station_id":"ce4bgpp2rcd13ifvqc3g","pricing_plan_id":"cebpf4jnsgd1na2vs0mg"},{"bike_id":"4c92b4eb-38db-4b14-9eee-161220d74edb","system_id":"levelo_inurba_marseille","lat":43.30124,"lon":5.37422,"is_reserved":false,"is_disabled":false,"rental_uris":{"android":"levelo://app?vid=4c92b4eb-38db-4b14-9eee-161220d74edb","ios":"levelo://app?vid=4c92b4eb-38db-4b14-9eee-161220d74edb"},"vehicle_type_id":"4","last_reported":1742465412,"current_range_meters":6000,"station_id":"ce4bgs92rcd13ifvqcc0","pricing_plan_id":"cebpf4jnsgd1na2vs0mg"},{"bike_id":"9b1ab9d1-6497-43c1-8958-d421383bc8b1","system_id":"levelo_inurba_marseille","lat":43.24072,"lon":5.37761,"is_reserved":false,"is_disabled":false,"rental_uris":{"android":"levelo://app?vid=9b1ab9d1-6497-43c1-8958-d421383bc8b1","ios":"levelo://app?vid=9b1ab9d1-6497-43c1-8958-d421383bc8b1"},"vehicle_type_id":"4","last_reported":1742465412,"current_range_meters":6000,"station_id":"ce4bhnp2rcd13ifvqgvg","pricing_plan_id":"cebpf4jnsgd1na2vs0mg"},{"bike_id":"d4c7a2f2-9f06-4b11-8e06-f914a2ac78d3","system_id":"levelo_inurba_marseille","lat":43.26672,"lon":5.38279,"is_reserved":false,"is_disabled":false,"rental_uris":{"android":"levelo://app?vid=d4c7a2f2-9f06-4b11-8e06-f914a2ac78d3","ios":"levelo://app?vid=d4c7a2f2-9f06-4b11-8e06-f914a2ac78d3"},"vehicle_type_id":"4","last_reported":1742465412,"current_range_meters":6000,"station_id":"ce4bhg92rcd13ifvqf90","pricing_plan_id":"cebpf4jnsgd1na2vs0mg"},{"bike_id":"1c2eb9ae-8b20-4038-a749-8645c9ead30a","system_id":"levelo_inurba_marseille","lat":43.30157,"lon":5.38082,"is_reserved":false,"is_disabled":false,"rental_uris":{"android":"levelo://app?vid=1c2eb9ae-8b20-4038-a749-8645c9ead30a","ios":"levelo://app?vid=1c2eb9ae-8b20-4038-a749-8645c9ead30a"},"vehicle_type_id":"4","last_reported":1742465412,"current_range_meters":6000,"station_id":"ce4bgjp2rcd13ifvqbh0","pricing_plan_id":"cebpf4jnsgd1na2vs0mg"},{"bike_id":"5da21120-765c-493a-addc-469da6f3f383","system_id":"levelo_inurba_marseille","lat":43.30833,"lon":5.37487,"is_reserved":false,"is_disabled":false,"rental_uris":{"android":"levelo://app?vid=5da21120-765c-493a-addc-469da6f3f383","ios":"levelo://app?vid=5da21120-765c-493a-addc-469da6f3f383"},"vehicle_type_id":"4","last_reported":1742465412,"current_range_meters":6400,"station_id":"","pricing_plan_id":"cebpf4jnsgd1na2vs0mg"},{"bike_id":"2325f5b6-ca51-4972-a198-1502dbbb7f0c","system_id":"levelo_inurba_marseille","lat":43.24078,"lon":5.37743,"is_reserved":false,"is_disabled":false,"rental_uris":{"android":"levelo://app?vid=2325f5b6-ca51-4972-a198-1502dbbb7f0c","ios":"levelo://app?vid=2325f5b6-ca51-4972-a198-1502dbbb7f0c"},"vehicle_type_id":"4","last_reported":1742465412,"current_range_meters":6400,"station_id":"ce4bhnp2rcd13ifvqgvg","pricing_plan_id":"cebpf4jnsgd1na2vs0mg"},{"bike_id":"2da29877-75e8-47c4-b01e-c1fc06d648ba","system_id":"levelo_inurba_marseille","lat":43.29305,"lon":5.37173,"is_reserved":false,"is_disabled":false,"rental_uris":{"android":"levelo://app?vid=2da29877-75e8-47c4-b01e-c1fc06d648ba","ios":"levelo://app?vid=2da29877-75e8-47c4-b01e-c1fc06d648ba"},"vehicle_type_id":"4","last_reported":1742465412,"current_range_meters":6400,"station_id":"ce4bgh92rcd13ifvqb40","pricing_plan_id":"cebpf4jnsgd1na2vs0mg"},{"bike_id":"6aa929e4-3884-409a-903f-33256b9ddb4f","system_id":"levelo_inurba_marseille","lat":43.292606,"lon":5.384367,"is_reserved":false,"is_disabled":false,"rental_uris":{"android":"levelo://app?vid=6aa929e4-3884-409a-903f-33256b9ddb4f","ios":"levelo://app?vid=6aa929e4-3884-409a-903f-33256b9ddb4f"},"vehicle_type_id":"4","last_reported":1742465412,"current_range_meters":6400,"station_id":"","pricing_plan_id":"cebpf4jnsgd1na2vs0mg"},{"bike_id":"227ea19f-289e-4a92-895e-218ec5d5c552","system_id":"levelo_inurba_marseille","lat":43.27485,"lon":5.42463,"is_reserved":false,"is_disabled":false,"rental_uris":{"android":"levelo://app?vid=227ea19f-289e-4a92-895e-218ec5d5c552","ios":"levelo://app?vid=227ea19f-289e-4a92-895e-218ec5d5c552"},"vehicle_type_id":"4","last_reported":1742465412,"current_range_meters":6400,"station_id":"ce4bhn92rcd13ifvqgrg","pricing_plan_id":"cebpf4jnsgd1na2vs0mg"},{"bike_id":"5d62495c-1a5a-4f19-b9bb-6f00a3cd19e9","system_id":"levelo_inurba_marseille","lat":43.25722,"lon":5.41117,"is_reserved":false,"is_disabled":false,"rental_uris":{"android":"levelo://app?vid=5d62495c-1a5a-4f19-b9bb-6f00a3cd19e9","ios":"levelo://app?vid=5d62495c-1a5a-4f19-b9bb-6f00a3cd19e9"},"vehicle_type_id":"4","last_reported":1742465412,"current_range_meters":6400,"station_id":"ce4bhkp2rcd13ifvqgd0","pricing_plan_id":"cebpf4jnsgd1na2vs0mg"},{"bike_id":"623747fa-aa50-44cb-8e64-0def85cd937f","system_id":"levelo_inurba_marseille","lat":43.29783,"lon":5.39336,"is_reserved":false,"is_disabled":false,"rental_uris":{"android":"levelo://app?vid=623747fa-aa50-44cb-8e64-0def85cd937f","ios":"levelo://app?vid=623747fa-aa50-44cb-8e64-0def85cd937f"},"vehicle_type_id":"4","last_reported":1742465412,"current_range_meters":6000,"station_id":"chh1huq6cuj3fo74tm60","pricing_plan_id":"cebpf4jnsgd1na2vs0mg"},{"bike_id":"4efdc655-ceca-43c8-a060-19b8543cc8ee","system_id":"levelo_inurba_marseille","lat":43.25495,"lon":5.37646,"is_reserved":false,"is_disabled":false,"rental_uris":{"android":"levelo://app?vid=4efdc655-ceca-43c8-a060-19b8543cc8ee","ios":"levelo://app?vid=4efdc655-ceca-43c8-a060-19b8543cc8ee"},"vehicle_type_id":"4","last_reported":1742465412,"current_range_meters":6000,"station_id":"ce4bhh12rcd13ifvqff0","pricing_plan_id":"cebpf4jnsgd1na2vs0mg"},{"bike_id":"2fae07c9-076f-4c39-b921-5cc913ddefb5","system_id":"levelo_inurba_marseille","lat":43.29601,"lon":5.36726,"is_reserved":false,"is_disabled":false,"rental_uris":{"android":"levelo://app?vid=2fae07c9-076f-4c39-b921-5cc913ddefb5","ios":"levelo://app?vid=2fae07c9-076f-4c39-b921-5cc913ddefb5"},"vehicle_type_id":"4","last_reported":1742465412,"current_range_meters":6800,"station_id":"ce4bgph2rcd13ifvqc2g","pricing_plan_id":"cebpf4jnsgd1na2vs0mg"},{"bike_id":"f5dd2f6e-efd6-4f0d-acdb-0f97db53c269","system_id":"levelo_inurba_marseille","lat":43.26228,"lon":5.40459,"is_reserved":false,"is_disabled":false,"rental_uris":{"android":"levelo://app?vid=f5dd2f6e-efd6-4f0d-acdb-0f97db53c269","ios":"levelo://app?vid=f5dd2f6e-efd6-4f0d-acdb-0f97db53c269"},"vehicle_type_id":"4","last_reported":1742465412,"current_range_meters":6800,"station_id":"ce4bhmh2rcd13ifvqgmg","pricing_plan_id":"cebpf4jnsgd1na2vs0mg"},{"bike_id":"4e0a029e-d1b7-445c-8044-a51b6ffb8f2e","system_id":"levelo_inurba_marseille","lat":43.31345,"lon":5.36728,"is_reserved":false,"is_disabled":false,"rental_uris":{"android":"levelo://app?vid=4e0a029e-d1b7-445c-8044-a51b6ffb8f2e","ios":"levelo://app?vid=4e0a029e-d1b7-445c-8044-a51b6ffb8f2e"},"vehicle_type_id":"4","last_reported":1742465412,"current_range_meters":6800,"station_id":"ce4bgr92rcd13ifvqc6g","pricing_plan_id":"cebpf4jnsgd1na2vs0mg"},{"bike_id":"287397f1-301a-46cd-a566-760697ced275","system_id":"levelo_inurba_marseille","lat":43.2816,"lon":5.4265,"is_reserved":false,"is_disabled":false,"rental_uris":{"android":"levelo://app?vid=287397f1-301a-46cd-a566-760697ced275","ios":"levelo://app?vid=287397f1-301a-46cd-a566-760697ced275"},"vehicle_type_id":"4","last_reported":1742465412,"current_range_meters":6800,"station_id":"ce4bhnh2rcd13ifvqgug","pricing_plan_id":"cebpf4jnsgd1na2vs0mg"},{"bike_id":"ff2e113c-48f4-4926-83e4-f03bf0925c08","system_id":"levelo_inurba_marseille","lat":43.24733,"lon":5.41185,"is_reserved":false,"is_disabled":false,"rental_uris":{"android":"levelo://app?vid=ff2e113c-48f4-4926-83e4-f03bf0925c08","ios":"levelo://app?vid=ff2e113c-48f4-4926-83e4-f03bf0925c08"},"vehicle_type_id":"4","last_reported":1742465412,"current_range_meters":6800,"station_id":"","pricing_plan_id":"cebpf4jnsgd1na2vs0mg"},{"bike_id":"0f635bde-4e1c-4f1b-b735-23eeb41e0e5e","system_id":"levelo_inurba_marseille","lat":43.23965,"lon":5.3663,"is_reserved":false,"is_disabled":false,"rental_uris":{"android":"levelo://app?vid=0f635bde-4e1c-4f1b-b735-23eeb41e0e5e","ios":"levelo://app?vid=0f635bde-4e1c-4f1b-b735-23eeb41e0e5e"},"vehicle_type_id":"4","last_reported":1742465412,"current_range_meters":6800,"station_id":"ce4bhi12rcd13ifvqfp0","pricing_plan_id":"cebpf4jnsgd1na2vs0mg"},{"bike_id":"2594311a-1142-468f-bd29-744d634c5f61","system_id":"levelo_inurba_marseille","lat":43.292609,"lon":5.384402,"is_reserved":false,"is_disabled":false,"rental_uris":{"android":"levelo://app?vid=2594311a-1142-468f-bd29-744d634c5f61","ios":"levelo://app?vid=2594311a-1142-468f-bd29-744d634c5f61"},"vehicle_type_id":"4","last_reported":1742465412,"current_range_meters":6800,"station_id":"","pricing_plan_id":"cebpf4jnsgd1na2vs0mg"},{"bike_id":"21a94eaa-add7-466b-9fdc-3f674594f151","system_id":"levelo_inurba_marseille","lat":43.33602,"lon":5.40992,"is_reserved":false,"is_disabled":false,"rental_uris":{"android":"levelo://app?vid=21a94eaa-add7-466b-9fdc-3f674594f151","ios":"levelo://app?vid=21a94eaa-add7-466b-9fdc-3f674594f151"},"vehicle_type_id":"4","last_reported":1742465412,"current_range_meters":6800,"station_id":"ce4bhqh2rcd13ifvqhmg","pricing_plan_id":"cebpf4jnsgd1na2vs0mg"},{"bike_id":"dfcc8bbb-6cc0-487f-9f53-6c4f09735ec3","system_id":"levelo_inurba_marseille","lat":43.27492,"lon":5.42452,"is_reserved":false,"is_disabled":true,"rental_uris":{"android":"levelo://app?vid=dfcc8bbb-6cc0-487f-9f53-6c4f09735ec3","ios":"levelo://app?vid=dfcc8bbb-6cc0-487f-9f53-6c4f09735ec3"},"vehicle_type_id":"4","last_reported":1742465412,"current_range_meters":6800,"station_id":"ce4bhn92rcd13ifvqgrg","pricing_plan_id":"cebpf4jnsgd1na2vs0mg"},{"bike_id":"66cab862-bce1-450f-b964-6c13927fb75a","system_id":"levelo_inurba_marseille","lat":43.2315,"lon":5.43719,"is_reserved":false,"is_disabled":false,"rental_uris":{"android":"levelo://app?vid=66cab862-bce1-450f-b964-6c13927fb75a","ios":"levelo://app?vid=66cab862-bce1-450f-b964-6c13927fb75a"},"vehicle_type_id":"4","last_reported":1742465412,"current_range_meters":7200,"station_id":"ce4bhmp2rcd13ifvqgog","pricing_plan_id":"cebpf4jnsgd1na2vs0mg"},{"bike_id":"3058eb37-35b9-4277-898b-f9025638e045","system_id":"levelo_inurba_marseille","lat":43.25917,"lon":5.40877,"is_reserved":false,"is_disabled":false,"rental_uris":{"android":"levelo://app?vid=3058eb37-35b9-4277-898b-f9025638e045","ios":"levelo://app?vid=3058eb37-35b9-4277-898b-f9025638e045"},"vehicle_type_id":"4","last_reported":1742465412,"current_range_meters":7200,"station_id":"ce4bhm92rcd13ifvqglg","pricing_plan_id":"cebpf4jnsgd1na2vs0mg"},{"bike_id":"0f0379d0-9e31-4d59-aa71-1b8fef29c39c","system_id":"levelo_inurba_marseille","lat":43.25737,"lon":5.41107,"is_reserved":false,"is_disabled":false,"rental_uris":{"android":"levelo://app?vid=0f0379d0-9e31-4d59-aa71-1b8fef29c39c","ios":"levelo://app?vid=0f0379d0-9e31-4d59-aa71-1b8fef29c39c"},"vehicle_type_id":"4","last_reported":1742465412,"current_range_meters":7200,"station_id":"ce4bhkp2rcd13ifvqgd0","pricing_plan_id":"cebpf4jnsgd1na2vs0mg"},{"bike_id":"d45aa902-4bcb-471b-8a0f-8cdc3416ec8c","system_id":"levelo_inurba_marseille","lat":43.276155,"lon":5.361215,"is_reserved":false,"is_disabled":false,"rental_uris":{"android":"levelo://app?vid=d45aa902-4bcb-471b-8a0f-8cdc3416ec8c","ios":"levelo://app?vid=d45aa902-4bcb-471b-8a0f-8cdc3416ec8c"},"vehicle_type_id":"4","last_reported":1742465412,"current_range_meters":7200,"station_id":"ce4bgj92rcd13ifvqbe0","pricing_plan_id":"cebpf4jnsgd1na2vs0mg"},{"bike_id":"3455258b-4135-46b9-9a26-10bf95160e40","system_id":"levelo_inurba_marseille","lat":43.23193,"lon":5.35558,"is_reserved":false,"is_disabled":false,"rental_uris":{"android":"levelo://app?vid=3455258b-4135-46b9-9a26-10bf95160e40","ios":"levelo://app?vid=3455258b-4135-46b9-9a26-10bf95160e40"},"vehicle_type_id":"4","last_reported":1742465412,"current_range_meters":7200,"station_id":"ce4bhu92rcd13ifvqi70","pricing_plan_id":"cebpf4jnsgd1na2vs0mg"},{"bike_id":"3d1faf25-8521-4340-956d-8a9046a5dc68","system_id":"levelo_inurba_marseille","lat":43.31751,"lon":5.39016,"is_reserved":false,"is_disabled":true,"rental_uris":{"android":"levelo://app?vid=3d1faf25-8521-4340-956d-8a9046a5dc68","ios":"levelo://app?vid=3d1faf25-8521-4340-956d-8a9046a5dc68"},"vehicle_type_id":"4","last_reported":1742465412,"current_range_meters":7200,"station_id":"ce4bhqp2rcd13ifvqhng","pricing_plan_id":"cebpf4jnsgd1na2vs0mg"},{"bike_id":"86369963-ae14-43a2-a00c-692cf61710c1","system_id":"levelo_inurba_marseille","lat":43.30184,"lon":5.381,"is_reserved":false,"is_disabled":false,"rental_uris":{"android":"levelo://app?vid=86369963-ae14-43a2-a00c-692cf61710c1","ios":"levelo://app?vid=86369963-ae14-43a2-a00c-692cf61710c1"},"vehicle_type_id":"4","last_reported":1742465412,"current_range_meters":7200,"station_id":"ce4bgjp2rcd13ifvqbh0","pricing_plan_id":"cebpf4jnsgd1na2vs0mg"},{"bike_id":"5ca79202-ecee-4365-b68a-a4a655659693","system_id":"levelo_inurba_marseille","lat":43.299652,"lon":5.384828,"is_reserved":false,"is_disabled":false,"rental_uris":{"android":"levelo://app?vid=5ca79202-ecee-4365-b68a-a4a655659693","ios":"levelo://app?vid=5ca79202-ecee-4365-b68a-a4a655659693"},"vehicle_type_id":"4","last_reported":1742465412,"current_range_meters":7200,"station_id":"ce4bgjp2rcd13ifvqbh0","pricing_plan_id":"cebpf4jnsgd1na2vs0mg"},{"bike_id":"e74fce09-490e-4ae2-9de7-a533dd9876c1","system_id":"levelo_inurba_marseille","lat":43.23156,"lon":5.4371,"is_reserved":false,"is_disabled":false,"rental_uris":{"android":"levelo://app?vid=e74fce09-490e-4ae2-9de7-a533dd9876c1","ios":"levelo://app?vid=e74fce09-490e-4ae2-9de7-a533dd9876c1"},"vehicle_type_id":"4","last_reported":1742465412,"current_range_meters":7200,"station_id":"ce4bhmp2rcd13ifvqgog","pricing_plan_id":"cebpf4jnsgd1na2vs0mg"},{"bike_id":"f8a815c3-87f5-43ce-90a0-b6153b8c59d1","system_id":"levelo_inurba_marseille","lat":43.30148,"lon":5.37409,"is_reserved":false,"is_disabled":false,"rental_uris":{"android":"levelo://app?vid=f8a815c3-87f5-43ce-90a0-b6153b8c59d1","ios":"levelo://app?vid=f8a815c3-87f5-43ce-90a0-b6153b8c59d1"},"vehicle_type_id":"4","last_reported":1742465412,"current_range_meters":7200,"station_id":"ce4bgs92rcd13ifvqcc0","pricing_plan_id":"cebpf4jnsgd1na2vs0mg"},{"bike_id":"69e2981b-cf61-41df-a4de-8adb4108b43d","system_id":"levelo_inurba_marseille","lat":43.31328,"lon":5.36534,"is_reserved":false,"is_disabled":false,"rental_uris":{"android":"levelo://app?vid=69e2981b-cf61-41df-a4de-8adb4108b43d","ios":"levelo://app?vid=69e2981b-cf61-41df-a4de-8adb4108b43d"},"vehicle_type_id":"4","last_reported":1742465412,"current_range_meters":7200,"station_id":"","pricing_plan_id":"cebpf4jnsgd1na2vs0mg"},{"bike_id":"827ad3da-a8d4-4d9c-97ee-552173880a95","system_id":"levelo_inurba_marseille","lat":43.30311,"lon":5.36905,"is_reserved":false,"is_disabled":false,"rental_uris":{"android":"levelo://app?vid=827ad3da-a8d4-4d9c-97ee-552173880a95","ios":"levelo://app?vid=827ad3da-a8d4-4d9c-97ee-552173880a95"},"vehicle_type_id":"4","last_reported":1742465412,"current_range_meters":7200,"station_id":"ce4bgqh2rcd13ifvqc5g","pricing_plan_id":"cebpf4jnsgd1na2vs0mg"},{"bike_id":"1fea0b3c-94ab-41af-b18e-d9bbaa7dda49","system_id":"levelo_inurba_marseille","lat":43.31703,"lon":5.43646,"is_reserved":false,"is_disabled":false,"rental_uris":{"android":"levelo://app?vid=1fea0b3c-94ab-41af-b18e-d9bbaa7dda49","ios":"levelo://app?vid=1fea0b3c-94ab-41af-b18e-d9bbaa7dda49"},"vehicle_type_id":"4","last_reported":1742465412,"current_range_meters":7200,"station_id":"ce4bhp92rcd13ifvqhcg","pricing_plan_id":"cebpf4jnsgd1na2vs0mg"},{"bike_id":"516a14f2-e527-4a6d-99db-d5ad118faf7c","system_id":"levelo_inurba_marseille","lat":43.25934,"lon":5.40872,"is_reserved":false,"is_disabled":false,"rental_uris":{"android":"levelo://app?vid=516a14f2-e527-4a6d-99db-d5ad118faf7c","ios":"levelo://app?vid=516a14f2-e527-4a6d-99db-d5ad118faf7c"},"vehicle_type_id":"4","last_reported":1742465412,"current_range_meters":7200,"station_id":"ce4bhm92rcd13ifvqglg","pricing_plan_id":"cebpf4jnsgd1na2vs0mg"},{"bike_id":"58e33d66-73b1-42e5-adf0-ae2ed48c5043","system_id":"levelo_inurba_marseille","lat":43.325,"lon":5.3657,"is_reserved":false,"is_disabled":false,"rental_uris":{"android":"levelo://app?vid=58e33d66-73b1-42e5-adf0-ae2ed48c5043","ios":"levelo://app?vid=58e33d66-73b1-42e5-adf0-ae2ed48c5043"},"vehicle_type_id":"4","last_reported":1742465412,"current_range_meters":8000,"station_id":"ce4bhs12rcd13ifvqhvg","pricing_plan_id":"cebpf4jnsgd1na2vs0mg"},{"bike_id":"e2d688eb-d486-419f-b3c8-5540fc641c5f","system_id":"levelo_inurba_marseille","lat":43.3047,"lon":5.37898,"is_reserved":false,"is_disabled":false,"rental_uris":{"android":"levelo://app?vid=e2d688eb-d486-419f-b3c8-5540fc641c5f","ios":"levelo://app?vid=e2d688eb-d486-419f-b3c8-5540fc641c5f"},"vehicle_type_id":"4","last_reported":1742465412,"current_range_meters":8000,"station_id":"ce4bgup2rcd13ifvqcn0","pricing_plan_id":"cebpf4jnsgd1na2vs0mg"},{"bike_id":"3acb9b83-7554-44ac-aaef-e0195a6f72a7","system_id":"levelo_inurba_marseille","lat":43.29003,"lon":5.35613,"is_reserved":false,"is_disabled":false,"rental_uris":{"android":"levelo://app?vid=3acb9b83-7554-44ac-aaef-e0195a6f72a7","ios":"levelo://app?vid=3acb9b83-7554-44ac-aaef-e0195a6f72a7"},"vehicle_type_id":"4","last_reported":1742465412,"current_range_meters":8000,"station_id":"ce4bhb92rcd13ifvqen0","pricing_plan_id":"cebpf4jnsgd1na2vs0mg"},{"bike_id":"4282d108-6040-4f41-aba2-80f764036a8f","system_id":"levelo_inurba_marseille","lat":43.29948,"lon":5.38144,"is_reserved":false,"is_disabled":false,"rental_uris":{"android":"levelo://app?vid=4282d108-6040-4f41-aba2-80f764036a8f","ios":"levelo://app?vid=4282d108-6040-4f41-aba2-80f764036a8f"},"vehicle_type_id":"4","last_reported":1742465412,"current_range_meters":8000,"station_id":"ce4bgj12rcd13ifvqbc0","pricing_plan_id":"cebpf4jnsgd1na2vs0mg"},{"bike_id":"c76a4d35-3f4b-4728-a54f-decfdc407403","system_id":"levelo_inurba_marseille","lat":43.24688,"lon":5.38135,"is_reserved":false,"is_disabled":false,"rental_uris":{"android":"levelo://app?vid=c76a4d35-3f4b-4728-a54f-decfdc407403","ios":"levelo://app?vid=c76a4d35-3f4b-4728-a54f-decfdc407403"},"vehicle_type_id":"4","last_reported":1742465412,"current_range_meters":8000,"station_id":"ce4bhih2rcd13ifvqfr0","pricing_plan_id":"cebpf4jnsgd1na2vs0mg"},{"bike_id":"bfd67b10-fd7c-4b25-bc6e-0830b23c1f4b","system_id":"levelo_inurba_marseille","lat":43.25845,"lon":5.39381,"is_reserved":false,"is_disabled":false,"rental_uris":{"android":"levelo://app?vid=bfd67b10-fd7c-4b25-bc6e-0830b23c1f4b","ios":"levelo://app?vid=bfd67b10-fd7c-4b25-bc6e-0830b23c1f4b"},"vehicle_type_id":"4","last_reported":1742465412,"current_range_meters":8000,"station_id":"","pricing_plan_id":"cebpf4jnsgd1na2vs0mg"},{"bike_id":"fa1662a9-4eda-49e6-92dc-fad2cd424f84","system_id":"levelo_inurba_marseille","lat":43.24167,"lon":5.36386,"is_reserved":false,"is_disabled":false,"rental_uris":{"android":"levelo://app?vid=fa1662a9-4eda-49e6-92dc-fad2cd424f84","ios":"levelo://app?vid=fa1662a9-4eda-49e6-92dc-fad2cd424f84"},"vehicle_type_id":"4","last_reported":1742465412,"current_range_meters":8000,"station_id":"cpo36qri1sfpv3e86is0","pricing_plan_id":"cebpf4jnsgd1na2vs0mg"},{"bike_id":"4cca65a9-4dd3-4b43-b23a-1819e695d45d","system_id":"levelo_inurba_marseille","lat":43.25578,"lon":5.3825,"is_reserved":false,"is_disabled":false,"rental_uris":{"android":"levelo://app?vid=4cca65a9-4dd3-4b43-b23a-1819e695d45d","ios":"levelo://app?vid=4cca65a9-4dd3-4b43-b23a-1819e695d45d"},"vehicle_type_id":"4","last_reported":1742465412,"current_range_meters":8000,"station_id":"ce4bhih2rcd13ifvqfs0","pricing_plan_id":"cebpf4jnsgd1na2vs0mg"},{"bike_id":"6de3a27b-f46e-4812-8654-c2ff22ce1ece","system_id":"levelo_inurba_marseille","lat":43.30455,"lon":5.37904,"is_reserved":false,"is_disabled":false,"rental_uris":{"android":"levelo://app?vid=6de3a27b-f46e-4812-8654-c2ff22ce1ece","ios":"levelo://app?vid=6de3a27b-f46e-4812-8654-c2ff22ce1ece"},"vehicle_type_id":"4","last_reported":1742465412,"current_range_meters":8000,"station_id":"ce4bgup2rcd13ifvqcn0","pricing_plan_id":"cebpf4jnsgd1na2vs0mg"},{"bike_id":"8bb4b799-1255-479c-918d-518471d4500a","system_id":"levelo_inurba_marseille","lat":43.288513,"lon":5.392806,"is_reserved":false,"is_disabled":false,"rental_uris":{"android":"levelo://app?vid=8bb4b799-1255-479c-918d-518471d4500a","ios":"levelo://app?vid=8bb4b799-1255-479c-918d-518471d4500a"},"vehicle_type_id":"4","last_reported":1742465412,"current_range_meters":7200,"station_id":"ce4bhh92rcd13ifvqfi0","pricing_plan_id":"cebpf4jnsgd1na2vs0mg"},{"bike_id":"02f43b01-3b74-45fa-a40e-2df823c84cda","system_id":"levelo_inurba_marseille","lat":43.24184,"lon":5.39713,"is_reserved":false,"is_disabled":false,"rental_uris":{"android":"levelo://app?vid=02f43b01-3b74-45fa-a40e-2df823c84cda","ios":"levelo://app?vid=02f43b01-3b74-45fa-a40e-2df823c84cda"},"vehicle_type_id":"4","last_reported":1742465412,"current_range_meters":8000,"station_id":"ce4bhn12rcd13ifvqgpg","pricing_plan_id":"cebpf4jnsgd1na2vs0mg"},{"bike_id":"f50d147c-9734-4224-8ebf-7d836679ba51","system_id":"levelo_inurba_marseille","lat":43.26487,"lon":5.3958,"is_reserved":false,"is_disabled":false,"rental_uris":{"android":"levelo://app?vid=f50d147c-9734-4224-8ebf-7d836679ba51","ios":"levelo://app?vid=f50d147c-9734-4224-8ebf-7d836679ba51"},"vehicle_type_id":"4","last_reported":1742465412,"current_range_meters":8000,"station_id":"ce4bhi12rcd13ifvqfq0","pricing_plan_id":"cebpf4jnsgd1na2vs0mg"},{"bike_id":"f8e532d6-e317-445d-91cb-19a6e01b4151","system_id":"levelo_inurba_marseille","lat":43.25913,"lon":5.4087,"is_reserved":false,"is_disabled":false,"rental_uris":{"android":"levelo://app?vid=f8e532d6-e317-445d-91cb-19a6e01b4151","ios":"levelo://app?vid=f8e532d6-e317-445d-91cb-19a6e01b4151"},"vehicle_type_id":"4","last_reported":1742465412,"current_range_meters":8000,"station_id":"ce4bhm92rcd13ifvqglg","pricing_plan_id":"cebpf4jnsgd1na2vs0mg"},{"bike_id":"a2fbad4d-f8eb-470e-bd18-0a6a6f86a53c","system_id":"levelo_inurba_marseille","lat":43.29299,"lon":5.37144,"is_reserved":false,"is_disabled":false,"rental_uris":{"android":"levelo://app?vid=a2fbad4d-f8eb-470e-bd18-0a6a6f86a53c","ios":"levelo://app?vid=a2fbad4d-f8eb-470e-bd18-0a6a6f86a53c"},"vehicle_type_id":"4","last_reported":1742465412,"current_range_meters":8000,"station_id":"ce4bgh92rcd13ifvqb40","pricing_plan_id":"cebpf4jnsgd1na2vs0mg"},{"bike_id":"963a17fa-4222-4f93-b414-09c4cce8d25a","system_id":"levelo_inurba_marseille","lat":43.28406,"lon":5.38495,"is_reserved":false,"is_disabled":false,"rental_uris":{"android":"levelo://app?vid=963a17fa-4222-4f93-b414-09c4cce8d25a","ios":"levelo://app?vid=963a17fa-4222-4f93-b414-09c4cce8d25a"},"vehicle_type_id":"4","last_reported":1742465412,"current_range_meters":8000,"station_id":"","pricing_plan_id":"cebpf4jnsgd1na2vs0mg"},{"bike_id":"0a036192-d13b-4f07-8611-5ad9f4f3f6ab","system_id":"levelo_inurba_marseille","lat":43.33035,"lon":5.39193,"is_reserved":false,"is_disabled":false,"rental_uris":{"android":"levelo://app?vid=0a036192-d13b-4f07-8611-5ad9f4f3f6ab","ios":"levelo://app?vid=0a036192-d13b-4f07-8611-5ad9f4f3f6ab"},"vehicle_type_id":"4","last_reported":1742465412,"current_range_meters":8000,"station_id":"","pricing_plan_id":"cebpf4jnsgd1na2vs0mg"},{"bike_id":"ca7a3df8-4d19-4a9e-8fab-8765954593c0","system_id":"levelo_inurba_marseille","lat":43.23153,"lon":5.43712,"is_reserved":false,"is_disabled":false,"rental_uris":{"android":"levelo://app?vid=ca7a3df8-4d19-4a9e-8fab-8765954593c0","ios":"levelo://app?vid=ca7a3df8-4d19-4a9e-8fab-8765954593c0"},"vehicle_type_id":"4","last_reported":1742465412,"current_range_meters":8400,"station_id":"ce4bhmp2rcd13ifvqgog","pricing_plan_id":"cebpf4jnsgd1na2vs0mg"},{"bike_id":"be3c72c1-6df8-4160-a164-723c89156a3f","system_id":"levelo_inurba_marseille","lat":43.25718,"lon":5.41109,"is_reserved":false,"is_disabled":false,"rental_uris":{"android":"levelo://app?vid=be3c72c1-6df8-4160-a164-723c89156a3f","ios":"levelo://app?vid=be3c72c1-6df8-4160-a164-723c89156a3f"},"vehicle_type_id":"4","last_reported":1742465412,"current_range_meters":8400,"station_id":"ce4bhkp2rcd13ifvqgd0","pricing_plan_id":"cebpf4jnsgd1na2vs0mg"},{"bike_id":"a8b8dae1-87ef-4f8a-a2c8-fe9fd9bf0f77","system_id":"levelo_inurba_marseille","lat":43.23547,"lon":5.37738,"is_reserved":false,"is_disabled":false,"rental_uris":{"android":"levelo://app?vid=a8b8dae1-87ef-4f8a-a2c8-fe9fd9bf0f77","ios":"levelo://app?vid=a8b8dae1-87ef-4f8a-a2c8-fe9fd9bf0f77"},"vehicle_type_id":"4","last_reported":1742465412,"current_range_meters":8400,"station_id":"","pricing_plan_id":"cebpf4jnsgd1na2vs0mg"},{"bike_id":"21b171b5-6533-4457-a9ad-50e105b3f2c4","system_id":"levelo_inurba_marseille","lat":43.29928,"lon":5.37448,"is_reserved":false,"is_disabled":false,"rental_uris":{"android":"levelo://app?vid=21b171b5-6533-4457-a9ad-50e105b3f2c4","ios":"levelo://app?vid=21b171b5-6533-4457-a9ad-50e105b3f2c4"},"vehicle_type_id":"4","last_reported":1742465412,"current_range_meters":8400,"station_id":"ce4bgjh2rcd13ifvqbg0","pricing_plan_id":"cebpf4jnsgd1na2vs0mg"},{"bike_id":"9d26c008-8ec1-4269-9cd2-f45774f03ccb","system_id":"levelo_inurba_marseille","lat":43.27941,"lon":5.37927,"is_reserved":false,"is_disabled":false,"rental_uris":{"android":"levelo://app?vid=9d26c008-8ec1-4269-9cd2-f45774f03ccb","ios":"levelo://app?vid=9d26c008-8ec1-4269-9cd2-f45774f03ccb"},"vehicle_type_id":"4","last_reported":1742465412,"current_range_meters":8400,"station_id":"","pricing_plan_id":"cebpf4jnsgd1na2vs0mg"},{"bike_id":"8a23c3e3-2c50-4427-a456-769d00dddd3a","system_id":"levelo_inurba_marseille","lat":43.29917,"lon":5.37477,"is_reserved":false,"is_disabled":false,"rental_uris":{"android":"levelo://app?vid=8a23c3e3-2c50-4427-a456-769d00dddd3a","ios":"levelo://app?vid=8a23c3e3-2c50-4427-a456-769d00dddd3a"},"vehicle_type_id":"4","last_reported":1742465412,"current_range_meters":8400,"station_id":"ce4bgjh2rcd13ifvqbg0","pricing_plan_id":"cebpf4jnsgd1na2vs0mg"},{"bike_id":"f418f00a-589e-4759-bd79-4b1f398046f7","system_id":"levelo_inurba_marseille","lat":43.30328,"lon":5.36883,"is_reserved":false,"is_disabled":false,"rental_uris":{"android":"levelo://app?vid=f418f00a-589e-4759-bd79-4b1f398046f7","ios":"levelo://app?vid=f418f00a-589e-4759-bd79-4b1f398046f7"},"vehicle_type_id":"4","last_reported":1742465412,"current_range_meters":8400,"station_id":"ce4bgqh2rcd13ifvqc5g","pricing_plan_id":"cebpf4jnsgd1na2vs0mg"},{"bike_id":"68b88cac-a742-43f0-bc60-0875bf4f281a","system_id":"levelo_inurba_marseille","lat":43.30536,"lon":5.38419,"is_reserved":false,"is_disabled":false,"rental_uris":{"android":"levelo://app?vid=68b88cac-a742-43f0-bc60-0875bf4f281a","ios":"levelo://app?vid=68b88cac-a742-43f0-bc60-0875bf4f281a"},"vehicle_type_id":"4","last_reported":1742465412,"current_range_meters":8000,"station_id":"ce4bgg92rcd13ifvqb30","pricing_plan_id":"cebpf4jnsgd1na2vs0mg"},{"bike_id":"3691e12e-962f-4298-9170-1cb5d85d0057","system_id":"levelo_inurba_marseille","lat":43.31369,"lon":5.36743,"is_reserved":false,"is_disabled":false,"rental_uris":{"android":"levelo://app?vid=3691e12e-962f-4298-9170-1cb5d85d0057","ios":"levelo://app?vid=3691e12e-962f-4298-9170-1cb5d85d0057"},"vehicle_type_id":"4","last_reported":1742465412,"current_range_meters":8400,"station_id":"ce4bgr92rcd13ifvqc6g","pricing_plan_id":"cebpf4jnsgd1na2vs0mg"},{"bike_id":"6eb98e18-92f8-411c-92c0-82d5569fb85c","system_id":"levelo_inurba_marseille","lat":43.32374,"lon":5.36752,"is_reserved":false,"is_disabled":false,"rental_uris":{"android":"levelo://app?vid=6eb98e18-92f8-411c-92c0-82d5569fb85c","ios":"levelo://app?vid=6eb98e18-92f8-411c-92c0-82d5569fb85c"},"vehicle_type_id":"4","last_reported":1742465412,"current_range_meters":8800,"station_id":"ce4bhsh2rcd13ifvqi2g","pricing_plan_id":"cebpf4jnsgd1na2vs0mg"},{"bike_id":"723f25d2-2788-4efb-9c99-163700f902c8","system_id":"levelo_inurba_marseille","lat":43.34142,"lon":5.40904,"is_reserved":false,"is_disabled":false,"rental_uris":{"android":"levelo://app?vid=723f25d2-2788-4efb-9c99-163700f902c8","ios":"levelo://app?vid=723f25d2-2788-4efb-9c99-163700f902c8"},"vehicle_type_id":"4","last_reported":1742465412,"current_range_meters":8400,"station_id":"ce4bhqh2rcd13ifvqhlg","pricing_plan_id":"cebpf4jnsgd1na2vs0mg"},{"bike_id":"6880d901-873f-4af3-a1be-e1217fc3dad4","system_id":"levelo_inurba_marseille","lat":43.32537,"lon":5.41452,"is_reserved":false,"is_disabled":false,"rental_uris":{"android":"levelo://app?vid=6880d901-873f-4af3-a1be-e1217fc3dad4","ios":"levelo://app?vid=6880d901-873f-4af3-a1be-e1217fc3dad4"},"vehicle_type_id":"4","last_reported":1742465412,"current_range_meters":8800,"station_id":"ce4bhq12rcd13ifvqhhg","pricing_plan_id":"cebpf4jnsgd1na2vs0mg"},{"bike_id":"8aa1b13a-c6d0-4a0c-b170-40497bfb73c8","system_id":"levelo_inurba_marseille","lat":43.27171,"lon":5.4099,"is_reserved":false,"is_disabled":false,"rental_uris":{"android":"levelo://app?vid=8aa1b13a-c6d0-4a0c-b170-40497bfb73c8","ios":"levelo://app?vid=8aa1b13a-c6d0-4a0c-b170-40497bfb73c8"},"vehicle_type_id":"4","last_reported":1742465412,"current_range_meters":8400,"station_id":"ce4bhl12rcd13ifvqgf0","pricing_plan_id":"cebpf4jnsgd1na2vs0mg"},{"bike_id":"447501e5-187a-4602-94d5-a210c774a3da","system_id":"levelo_inurba_marseille","lat":43.33599,"lon":5.41018,"is_reserved":false,"is_disabled":false,"rental_uris":{"android":"levelo://app?vid=447501e5-187a-4602-94d5-a210c774a3da","ios":"levelo://app?vid=447501e5-187a-4602-94d5-a210c774a3da"},"vehicle_type_id":"4","last_reported":1742465412,"current_range_meters":8800,"station_id":"ce4bhqh2rcd13ifvqhmg","pricing_plan_id":"cebpf4jnsgd1na2vs0mg"},{"bike_id":"172bfbbb-c4de-44e5-aaba-f8df6d28115d","system_id":"levelo_inurba_marseille","lat":43.23158,"lon":5.43722,"is_reserved":false,"is_disabled":false,"rental_uris":{"android":"levelo://app?vid=172bfbbb-c4de-44e5-aaba-f8df6d28115d","ios":"levelo://app?vid=172bfbbb-c4de-44e5-aaba-f8df6d28115d"},"vehicle_type_id":"4","last_reported":1742465412,"current_range_meters":8800,"station_id":"ce4bhmp2rcd13ifvqgog","pricing_plan_id":"cebpf4jnsgd1na2vs0mg"},{"bike_id":"ee0f687c-08bb-4e36-98a2-e3de6b954481","system_id":"levelo_inurba_marseille","lat":43.24183,"lon":5.39737,"is_reserved":false,"is_disabled":false,"rental_uris":{"android":"levelo://app?vid=ee0f687c-08bb-4e36-98a2-e3de6b954481","ios":"levelo://app?vid=ee0f687c-08bb-4e36-98a2-e3de6b954481"},"vehicle_type_id":"4","last_reported":1742465412,"current_range_meters":8800,"station_id":"ce4bhn12rcd13ifvqgpg","pricing_plan_id":"cebpf4jnsgd1na2vs0mg"},{"bike_id":"e6c8473b-6f16-40c7-9d09-903e0bcd4e87","system_id":"levelo_inurba_marseille","lat":43.32567,"lon":5.41936,"is_reserved":false,"is_disabled":false,"rental_uris":{"android":"levelo://app?vid=e6c8473b-6f16-40c7-9d09-903e0bcd4e87","ios":"levelo://app?vid=e6c8473b-6f16-40c7-9d09-903e0bcd4e87"},"vehicle_type_id":"4","last_reported":1742465412,"current_range_meters":8800,"station_id":"","pricing_plan_id":"cebpf4jnsgd1na2vs0mg"},{"bike_id":"62b4a984-e68a-416d-a9f1-8057bf199c03","system_id":"levelo_inurba_marseille","lat":43.26234,"lon":5.37445,"is_reserved":false,"is_disabled":false,"rental_uris":{"android":"levelo://app?vid=62b4a984-e68a-416d-a9f1-8057bf199c03","ios":"levelo://app?vid=62b4a984-e68a-416d-a9f1-8057bf199c03"},"vehicle_type_id":"4","last_reported":1742465412,"current_range_meters":8800,"station_id":"ce4bhgp2rcd13ifvqfc0","pricing_plan_id":"cebpf4jnsgd1na2vs0mg"},{"bike_id":"e4a9d85d-2055-4ede-b820-8ccf82ded668","system_id":"levelo_inurba_marseille","lat":43.29964,"lon":5.3716,"is_reserved":false,"is_disabled":false,"rental_uris":{"android":"levelo://app?vid=e4a9d85d-2055-4ede-b820-8ccf82ded668","ios":"levelo://app?vid=e4a9d85d-2055-4ede-b820-8ccf82ded668"},"vehicle_type_id":"4","last_reported":1742465412,"current_range_meters":8800,"station_id":"ce4bgr92rcd13ifvqc7g","pricing_plan_id":"cebpf4jnsgd1na2vs0mg"},{"bike_id":"b147f521-5b77-46f7-9b2e-03b6ac24a798","system_id":"levelo_inurba_marseille","lat":43.30946,"lon":5.36854,"is_reserved":false,"is_disabled":false,"rental_uris":{"android":"levelo://app?vid=b147f521-5b77-46f7-9b2e-03b6ac24a798","ios":"levelo://app?vid=b147f521-5b77-46f7-9b2e-03b6ac24a798"},"vehicle_type_id":"4","last_reported":1742465412,"current_range_meters":8800,"station_id":"ce4bgn92rcd13ifvqbvg","pricing_plan_id":"cebpf4jnsgd1na2vs0mg"},{"bike_id":"f73ea29f-f283-48fd-b3f6-955c325c870d","system_id":"levelo_inurba_marseille","lat":43.2594,"lon":5.40893,"is_reserved":false,"is_disabled":false,"rental_uris":{"android":"levelo://app?vid=f73ea29f-f283-48fd-b3f6-955c325c870d","ios":"levelo://app?vid=f73ea29f-f283-48fd-b3f6-955c325c870d"},"vehicle_type_id":"4","last_reported":1742465412,"current_range_meters":8800,"station_id":"ce4bhm92rcd13ifvqglg","pricing_plan_id":"cebpf4jnsgd1na2vs0mg"},{"bike_id":"f2248ccb-b340-49f4-ab69-abde93ec9875","system_id":"levelo_inurba_marseille","lat":43.30258,"lon":5.40075,"is_reserved":false,"is_disabled":false,"rental_uris":{"android":"levelo://app?vid=f2248ccb-b340-49f4-ab69-abde93ec9875","ios":"levelo://app?vid=f2248ccb-b340-49f4-ab69-abde93ec9875"},"vehicle_type_id":"4","last_reported":1742465412,"current_range_meters":8800,"station_id":"ce4bgvh2rcd13ifvqcs0","pricing_plan_id":"cebpf4jnsgd1na2vs0mg"},{"bike_id":"55ab7985-e7af-4307-8771-8ba0478e6b7d","system_id":"levelo_inurba_marseille","lat":43.30147,"lon":5.39865,"is_reserved":false,"is_disabled":false,"rental_uris":{"android":"levelo://app?vid=55ab7985-e7af-4307-8771-8ba0478e6b7d","ios":"levelo://app?vid=55ab7985-e7af-4307-8771-8ba0478e6b7d"},"vehicle_type_id":"4","last_reported":1742465412,"current_range_meters":8800,"station_id":"ce4bh0h2rcd13ifvqd40","pricing_plan_id":"cebpf4jnsgd1na2vs0mg"},{"bike_id":"e56c746f-bbbc-4ce0-b536-f255aa840643","system_id":"levelo_inurba_marseille","lat":43.29589,"lon":5.37511,"is_reserved":false,"is_disabled":false,"rental_uris":{"android":"levelo://app?vid=e56c746f-bbbc-4ce0-b536-f255aa840643","ios":"levelo://app?vid=e56c746f-bbbc-4ce0-b536-f255aa840643"},"vehicle_type_id":"4","last_reported":1742465412,"current_range_meters":8800,"station_id":"ce4bgh92rcd13ifvqb50","pricing_plan_id":"cebpf4jnsgd1na2vs0mg"},{"bike_id":"176d2e0b-da43-4b98-b92e-b45d4ab12b2f","system_id":"levelo_inurba_marseille","lat":43.30186,"lon":5.38466,"is_reserved":false,"is_disabled":false,"rental_uris":{"android":"levelo://app?vid=176d2e0b-da43-4b98-b92e-b45d4ab12b2f","ios":"levelo://app?vid=176d2e0b-da43-4b98-b92e-b45d4ab12b2f"},"vehicle_type_id":"4","last_reported":1742465412,"current_range_meters":8800,"station_id":"","pricing_plan_id":"cebpf4jnsgd1na2vs0mg"},{"bike_id":"e88b70bd-069b-4562-80f8-76128176147d","system_id":"levelo_inurba_marseille","lat":43.29566,"lon":5.37515,"is_reserved":false,"is_disabled":false,"rental_uris":{"android":"levelo://app?vid=e88b70bd-069b-4562-80f8-76128176147d","ios":"levelo://app?vid=e88b70bd-069b-4562-80f8-76128176147d"},"vehicle_type_id":"4","last_reported":1742465412,"current_range_meters":9200,"station_id":"ce4bgh92rcd13ifvqb50","pricing_plan_id":"cebpf4jnsgd1na2vs0mg"},{"bike_id":"df8fdc72-f4f0-42f3-90b7-957801e7040f","system_id":"levelo_inurba_marseille","lat":43.24086,"lon":5.37755,"is_reserved":false,"is_disabled":false,"rental_uris":{"android":"levelo://app?vid=df8fdc72-f4f0-42f3-90b7-957801e7040f","ios":"levelo://app?vid=df8fdc72-f4f0-42f3-90b7-957801e7040f"},"vehicle_type_id":"4","last_reported":1742465412,"current_range_meters":9200,"station_id":"ce4bhnp2rcd13ifvqgvg","pricing_plan_id":"cebpf4jnsgd1na2vs0mg"},{"bike_id":"f4c4bf6d-48a4-4198-942b-eda89b945e41","system_id":"levelo_inurba_marseille","lat":43.2737,"lon":5.36242,"is_reserved":false,"is_disabled":false,"rental_uris":{"android":"levelo://app?vid=f4c4bf6d-48a4-4198-942b-eda89b945e41","ios":"levelo://app?vid=f4c4bf6d-48a4-4198-942b-eda89b945e41"},"vehicle_type_id":"4","last_reported":1742465412,"current_range_meters":9200,"station_id":"ce4bhbh2rcd13ifvqeo0","pricing_plan_id":"cebpf4jnsgd1na2vs0mg"},{"bike_id":"471b8c1a-1a85-4080-b533-fb41f3dbfd81","system_id":"levelo_inurba_marseille","lat":43.231904,"lon":5.355608,"is_reserved":false,"is_disabled":false,"rental_uris":{"android":"levelo://app?vid=471b8c1a-1a85-4080-b533-fb41f3dbfd81","ios":"levelo://app?vid=471b8c1a-1a85-4080-b533-fb41f3dbfd81"},"vehicle_type_id":"4","last_reported":1742465412,"current_range_meters":9200,"station_id":"ce4bhu92rcd13ifvqi70","pricing_plan_id":"cebpf4jnsgd1na2vs0mg"},{"bike_id":"86eccc93-4fd8-4ef6-aed2-86921ac3f9c9","system_id":"levelo_inurba_marseille","lat":43.26683,"lon":5.38249,"is_reserved":false,"is_disabled":false,"rental_uris":{"android":"levelo://app?vid=86eccc93-4fd8-4ef6-aed2-86921ac3f9c9","ios":"levelo://app?vid=86eccc93-4fd8-4ef6-aed2-86921ac3f9c9"},"vehicle_type_id":"4","last_reported":1742465412,"current_range_meters":9200,"station_id":"ce4bhg92rcd13ifvqf90","pricing_plan_id":"cebpf4jnsgd1na2vs0mg"},{"bike_id":"5b640242-5a73-49f1-91a0-a4fb23abb3cc","system_id":"levelo_inurba_marseille","lat":43.27343,"lon":5.39078,"is_reserved":false,"is_disabled":false,"rental_uris":{"android":"levelo://app?vid=5b640242-5a73-49f1-91a0-a4fb23abb3cc","ios":"levelo://app?vid=5b640242-5a73-49f1-91a0-a4fb23abb3cc"},"vehicle_type_id":"4","last_reported":1742465412,"current_range_meters":9200,"station_id":"ce4bhgp2rcd13ifvqfe0","pricing_plan_id":"cebpf4jnsgd1na2vs0mg"},{"bike_id":"38ef6a60-533d-436e-9476-128c6e48a08b","system_id":"levelo_inurba_marseille","lat":43.25829,"lon":5.39418,"is_reserved":false,"is_disabled":false,"rental_uris":{"android":"levelo://app?vid=38ef6a60-533d-436e-9476-128c6e48a08b","ios":"levelo://app?vid=38ef6a60-533d-436e-9476-128c6e48a08b"},"vehicle_type_id":"4","last_reported":1742465412,"current_range_meters":9200,"station_id":"ce4bhip2rcd13ifvqft0","pricing_plan_id":"cebpf4jnsgd1na2vs0mg"},{"bike_id":"c6c8dd2d-5b6e-4c3a-8293-f6b60960b982","system_id":"levelo_inurba_marseille","lat":43.30898,"lon":5.37432,"is_reserved":false,"is_disabled":false,"rental_uris":{"android":"levelo://app?vid=c6c8dd2d-5b6e-4c3a-8293-f6b60960b982","ios":"levelo://app?vid=c6c8dd2d-5b6e-4c3a-8293-f6b60960b982"},"vehicle_type_id":"4","last_reported":1742465412,"current_range_meters":9200,"station_id":"","pricing_plan_id":"cebpf4jnsgd1na2vs0mg"},{"bike_id":"9b2a4ae1-45d2-42a7-b1d8-970226b193d0","system_id":"levelo_inurba_marseille","lat":43.24172,"lon":5.39733,"is_reserved":false,"is_disabled":false,"rental_uris":{"android":"levelo://app?vid=9b2a4ae1-45d2-42a7-b1d8-970226b193d0","ios":"levelo://app?vid=9b2a4ae1-45d2-42a7-b1d8-970226b193d0"},"vehicle_type_id":"4","last_reported":1742465412,"current_range_meters":9600,"station_id":"ce4bhn12rcd13ifvqgpg","pricing_plan_id":"cebpf4jnsgd1na2vs0mg"},{"bike_id":"671210b1-9e8f-4893-953f-985ab8b97e34","system_id":"levelo_inurba_marseille","lat":43.32105,"lon":5.36784,"is_reserved":false,"is_disabled":false,"rental_uris":{"android":"levelo://app?vid=671210b1-9e8f-4893-953f-985ab8b97e34","ios":"levelo://app?vid=671210b1-9e8f-4893-953f-985ab8b97e34"},"vehicle_type_id":"4","last_reported":1742465412,"current_range_meters":9600,"station_id":"ce4bhrh2rcd13ifvqhug","pricing_plan_id":"cebpf4jnsgd1na2vs0mg"},{"bike_id":"de84da4a-3571-420d-b198-b16185707696","system_id":"levelo_inurba_marseille","lat":43.25953,"lon":5.4091,"is_reserved":false,"is_disabled":false,"rental_uris":{"android":"levelo://app?vid=de84da4a-3571-420d-b198-b16185707696","ios":"levelo://app?vid=de84da4a-3571-420d-b198-b16185707696"},"vehicle_type_id":"4","last_reported":1742465412,"current_range_meters":9600,"station_id":"ce4bhm92rcd13ifvqglg","pricing_plan_id":"cebpf4jnsgd1na2vs0mg"},{"bike_id":"1689fa84-13f6-46a5-be92-d2be23b25286","system_id":"levelo_inurba_marseille","lat":43.3142,"lon":5.37606,"is_reserved":false,"is_disabled":false,"rental_uris":{"android":"levelo://app?vid=1689fa84-13f6-46a5-be92-d2be23b25286","ios":"levelo://app?vid=1689fa84-13f6-46a5-be92-d2be23b25286"},"vehicle_type_id":"4","last_reported":1742465412,"current_range_meters":9600,"station_id":"","pricing_plan_id":"cebpf4jnsgd1na2vs0mg"},{"bike_id":"b1760ddc-e429-4696-afac-991a8ea2a937","system_id":"levelo_inurba_marseille","lat":43.29863,"lon":5.36269,"is_reserved":false,"is_disabled":false,"rental_uris":{"android":"levelo://app?vid=b1760ddc-e429-4696-afac-991a8ea2a937","ios":"levelo://app?vid=b1760ddc-e429-4696-afac-991a8ea2a937"},"vehicle_type_id":"4","last_reported":1742465412,"current_range_meters":9600,"station_id":"ce4bgpp2rcd13ifvqc3g","pricing_plan_id":"cebpf4jnsgd1na2vs0mg"},{"bike_id":"1983241e-dcf4-412a-b965-b9e661a9d6d5","system_id":"levelo_inurba_marseille","lat":43.29829,"lon":5.40181,"is_reserved":false,"is_disabled":false,"rental_uris":{"android":"levelo://app?vid=1983241e-dcf4-412a-b965-b9e661a9d6d5","ios":"levelo://app?vid=1983241e-dcf4-412a-b965-b9e661a9d6d5"},"vehicle_type_id":"4","last_reported":1742465412,"current_range_meters":9600,"station_id":"","pricing_plan_id":"cebpf4jnsgd1na2vs0mg"},{"bike_id":"6c7e51d2-e2f9-4032-b4ac-95afc513e72e","system_id":"levelo_inurba_marseille","lat":43.27378,"lon":5.36265,"is_reserved":false,"is_disabled":false,"rental_uris":{"android":"levelo://app?vid=6c7e51d2-e2f9-4032-b4ac-95afc513e72e","ios":"levelo://app?vid=6c7e51d2-e2f9-4032-b4ac-95afc513e72e"},"vehicle_type_id":"4","last_reported":1742465412,"current_range_meters":10000,"station_id":"ce4bhbh2rcd13ifvqeo0","pricing_plan_id":"cebpf4jnsgd1na2vs0mg"},{"bike_id":"11bd8d6d-27dc-4740-9c7d-3b5375e8c83b","system_id":"levelo_inurba_marseille","lat":43.31627,"lon":5.39597,"is_reserved":false,"is_disabled":false,"rental_uris":{"android":"levelo://app?vid=11bd8d6d-27dc-4740-9c7d-3b5375e8c83b","ios":"levelo://app?vid=11bd8d6d-27dc-4740-9c7d-3b5375e8c83b"},"vehicle_type_id":"4","last_reported":1742465412,"current_range_meters":10000,"station_id":"","pricing_plan_id":"cebpf4jnsgd1na2vs0mg"},{"bike_id":"cb6062cd-3cfa-4917-b79b-5707b99e3c03","system_id":"levelo_inurba_marseille","lat":43.321185,"lon":5.367534,"is_reserved":false,"is_disabled":false,"rental_uris":{"android":"levelo://app?vid=cb6062cd-3cfa-4917-b79b-5707b99e3c03","ios":"levelo://app?vid=cb6062cd-3cfa-4917-b79b-5707b99e3c03"},"vehicle_type_id":"4","last_reported":1742465412,"current_range_meters":10000,"station_id":"ce4bho92rcd13ifvqh3g","pricing_plan_id":"cebpf4jnsgd1na2vs0mg"},{"bike_id":"ab1bdd34-fece-44e4-b228-9a9958ae49dc","system_id":"levelo_inurba_marseille","lat":43.26782,"lon":5.39414,"is_reserved":false,"is_disabled":false,"rental_uris":{"android":"levelo://app?vid=ab1bdd34-fece-44e4-b228-9a9958ae49dc","ios":"levelo://app?vid=ab1bdd34-fece-44e4-b228-9a9958ae49dc"},"vehicle_type_id":"4","last_reported":1742465412,"current_range_meters":10000,"station_id":"ce4bhh12rcd13ifvqfg0","pricing_plan_id":"cebpf4jnsgd1na2vs0mg"},{"bike_id":"efb9ed43-dd51-4c99-a034-3cda93bac910","system_id":"levelo_inurba_marseille","lat":43.29937,"lon":5.36521,"is_reserved":false,"is_disabled":false,"rental_uris":{"android":"levelo://app?vid=efb9ed43-dd51-4c99-a034-3cda93bac910","ios":"levelo://app?vid=efb9ed43-dd51-4c99-a034-3cda93bac910"},"vehicle_type_id":"4","last_reported":1742465412,"current_range_meters":10000,"station_id":"ce4bgm92rcd13ifvqbr0","pricing_plan_id":"cebpf4jnsgd1na2vs0mg"},{"bike_id":"e03fec9c-b67d-4584-8372-2485454a1b56","system_id":"levelo_inurba_marseille","lat":43.29559,"lon":5.37495,"is_reserved":false,"is_disabled":false,"rental_uris":{"android":"levelo://app?vid=e03fec9c-b67d-4584-8372-2485454a1b56","ios":"levelo://app?vid=e03fec9c-b67d-4584-8372-2485454a1b56"},"vehicle_type_id":"4","last_reported":1742465412,"current_range_meters":10000,"station_id":"ce4bgh92rcd13ifvqb50","pricing_plan_id":"cebpf4jnsgd1na2vs0mg"},{"bike_id":"a4d4d163-7460-4e1c-947d-c09d65f3d8ea","system_id":"levelo_inurba_marseille","lat":43.23155,"lon":5.43706,"is_reserved":false,"is_disabled":false,"rental_uris":{"android":"levelo://app?vid=a4d4d163-7460-4e1c-947d-c09d65f3d8ea","ios":"levelo://app?vid=a4d4d163-7460-4e1c-947d-c09d65f3d8ea"},"vehicle_type_id":"4","last_reported":1742465412,"current_range_meters":10000,"station_id":"ce4bhmp2rcd13ifvqgog","pricing_plan_id":"cebpf4jnsgd1na2vs0mg"},{"bike_id":"54d80695-56c9-49e8-8d60-5539cd68968c","system_id":"levelo_inurba_marseille","lat":43.24076,"lon":5.37731,"is_reserved":false,"is_disabled":false,"rental_uris":{"android":"levelo://app?vid=54d80695-56c9-49e8-8d60-5539cd68968c","ios":"levelo://app?vid=54d80695-56c9-49e8-8d60-5539cd68968c"},"vehicle_type_id":"4","last_reported":1742465412,"current_range_meters":10000,"station_id":"ce4bhnp2rcd13ifvqgvg","pricing_plan_id":"cebpf4jnsgd1na2vs0mg"},{"bike_id":"e682e9ba-6a8a-4834-9c4e-28c3b84b46d1","system_id":"levelo_inurba_marseille","lat":43.28949,"lon":5.36628,"is_reserved":false,"is_disabled":true,"rental_uris":{"android":"levelo://app?vid=e682e9ba-6a8a-4834-9c4e-28c3b84b46d1","ios":"levelo://app?vid=e682e9ba-6a8a-4834-9c4e-28c3b84b46d1"},"vehicle_type_id":"4","last_reported":1742465412,"current_range_meters":10000,"station_id":"","pricing_plan_id":"cebpf4jnsgd1na2vs0mg"},{"bike_id":"770766b9-6b3f-4a57-939a-0b30bccc9a59","system_id":"levelo_inurba_marseille","lat":43.2903,"lon":5.37558,"is_reserved":false,"is_disabled":false,"rental_uris":{"android":"levelo://app?vid=770766b9-6b3f-4a57-939a-0b30bccc9a59","ios":"levelo://app?vid=770766b9-6b3f-4a57-939a-0b30bccc9a59"},"vehicle_type_id":"4","last_reported":1742465412,"current_range_meters":10000,"station_id":"ce4bh692rcd13ifvqe90","pricing_plan_id":"cebpf4jnsgd1na2vs0mg"},{"bike_id":"d7645557-54c5-44ed-8c44-41e433a350da","system_id":"levelo_inurba_marseille","lat":43.29489,"lon":5.35565,"is_reserved":false,"is_disabled":false,"rental_uris":{"android":"levelo://app?vid=d7645557-54c5-44ed-8c44-41e433a350da","ios":"levelo://app?vid=d7645557-54c5-44ed-8c44-41e433a350da"},"vehicle_type_id":"4","last_reported":1742465412,"current_range_meters":10000,"station_id":"","pricing_plan_id":"cebpf4jnsgd1na2vs0mg"},{"bike_id":"7cbbb3c1-2761-487f-9114-77ea7742e394","system_id":"levelo_inurba_marseille","lat":43.29736,"lon":5.37708,"is_reserved":false,"is_disabled":false,"rental_uris":{"android":"levelo://app?vid=7cbbb3c1-2761-487f-9114-77ea7742e394","ios":"levelo://app?vid=7cbbb3c1-2761-487f-9114-77ea7742e394"},"vehicle_type_id":"4","last_reported":1742465412,"current_range_meters":10000,"station_id":"ce4bgkh2rcd13ifvqbl0","pricing_plan_id":"cebpf4jnsgd1na2vs0mg"},{"bike_id":"0d95e6a4-60fa-4989-a414-058ecea80aee","system_id":"levelo_inurba_marseille","lat":43.30542,"lon":5.36539,"is_reserved":false,"is_disabled":false,"rental_uris":{"android":"levelo://app?vid=0d95e6a4-60fa-4989-a414-058ecea80aee","ios":"levelo://app?vid=0d95e6a4-60fa-4989-a414-058ecea80aee"},"vehicle_type_id":"4","last_reported":1742465412,"current_range_meters":10800,"station_id":"ce4bgs12rcd13ifvqcag","pricing_plan_id":"cebpf4jnsgd1na2vs0mg"},{"bike_id":"e0f34bbf-31d2-438c-82c3-04e0df8ce1fd","system_id":"levelo_inurba_marseille","lat":43.28347,"lon":5.38097,"is_reserved":false,"is_disabled":false,"rental_uris":{"android":"levelo://app?vid=e0f34bbf-31d2-438c-82c3-04e0df8ce1fd","ios":"levelo://app?vid=e0f34bbf-31d2-438c-82c3-04e0df8ce1fd"},"vehicle_type_id":"4","last_reported":1742465412,"current_range_meters":10800,"station_id":"ce4bh412rcd13ifvqdr0","pricing_plan_id":"cebpf4jnsgd1na2vs0mg"},{"bike_id":"be05d50e-8ad2-48bb-97eb-0b1bd08dfeb0","system_id":"levelo_inurba_marseille","lat":43.31342,"lon":5.36714,"is_reserved":false,"is_disabled":false,"rental_uris":{"android":"levelo://app?vid=be05d50e-8ad2-48bb-97eb-0b1bd08dfeb0","ios":"levelo://app?vid=be05d50e-8ad2-48bb-97eb-0b1bd08dfeb0"},"vehicle_type_id":"4","last_reported":1742465412,"current_range_meters":10800,"station_id":"ce4bgr92rcd13ifvqc6g","pricing_plan_id":"cebpf4jnsgd1na2vs0mg"},{"bike_id":"a0deeb6c-62a7-4efb-834c-1bec837aaba6","system_id":"levelo_inurba_marseille","lat":43.33691,"lon":5.37817,"is_reserved":false,"is_disabled":false,"rental_uris":{"android":"levelo://app?vid=a0deeb6c-62a7-4efb-834c-1bec837aaba6","ios":"levelo://app?vid=a0deeb6c-62a7-4efb-834c-1bec837aaba6"},"vehicle_type_id":"4","last_reported":1742465412,"current_range_meters":10800,"station_id":"","pricing_plan_id":"cebpf4jnsgd1na2vs0mg"},{"bike_id":"aa31ce7d-83e3-4aaf-9f4b-0962ea28257a","system_id":"levelo_inurba_marseille","lat":43.31685,"lon":5.4047,"is_reserved":false,"is_disabled":false,"rental_uris":{"android":"levelo://app?vid=aa31ce7d-83e3-4aaf-9f4b-0962ea28257a","ios":"levelo://app?vid=aa31ce7d-83e3-4aaf-9f4b-0962ea28257a"},"vehicle_type_id":"4","last_reported":1742465412,"current_range_meters":10800,"station_id":"ce4bh012rcd13ifvqd00","pricing_plan_id":"cebpf4jnsgd1na2vs0mg"},{"bike_id":"75e8bee3-0a10-4522-9d7e-72ece2846129","system_id":"levelo_inurba_marseille","lat":43.33432,"lon":5.39613,"is_reserved":false,"is_disabled":false,"rental_uris":{"android":"levelo://app?vid=75e8bee3-0a10-4522-9d7e-72ece2846129","ios":"levelo://app?vid=75e8bee3-0a10-4522-9d7e-72ece2846129"},"vehicle_type_id":"4","last_reported":1742465412,"current_range_meters":10800,"station_id":"","pricing_plan_id":"cebpf4jnsgd1na2vs0mg"},{"bike_id":"85782564-15b3-42d4-8810-12088c1abb61","system_id":"levelo_inurba_marseille","lat":43.30161,"lon":5.38078,"is_reserved":false,"is_disabled":false,"rental_uris":{"android":"levelo://app?vid=85782564-15b3-42d4-8810-12088c1abb61","ios":"levelo://app?vid=85782564-15b3-42d4-8810-12088c1abb61"},"vehicle_type_id":"4","last_reported":1742465412,"current_range_meters":10800,"station_id":"ce4bgjp2rcd13ifvqbh0","pricing_plan_id":"cebpf4jnsgd1na2vs0mg"},{"bike_id":"c80669ac-c345-4701-b5f9-7d4bd3700c4b","system_id":"levelo_inurba_marseille","lat":43.2931,"lon":5.37156,"is_reserved":false,"is_disabled":false,"rental_uris":{"android":"levelo://app?vid=c80669ac-c345-4701-b5f9-7d4bd3700c4b","ios":"levelo://app?vid=c80669ac-c345-4701-b5f9-7d4bd3700c4b"},"vehicle_type_id":"4","last_reported":1742465412,"current_range_meters":10800,"station_id":"ce4bgh92rcd13ifvqb40","pricing_plan_id":"cebpf4jnsgd1na2vs0mg"},{"bike_id":"90813bb7-740a-47dc-84af-f93d05de1314","system_id":"levelo_inurba_marseille","lat":43.29583,"lon":5.37741,"is_reserved":false,"is_disabled":false,"rental_uris":{"android":"levelo://app?vid=90813bb7-740a-47dc-84af-f93d05de1314","ios":"levelo://app?vid=90813bb7-740a-47dc-84af-f93d05de1314"},"vehicle_type_id":"4","last_reported":1742465412,"current_range_meters":10800,"station_id":"ce4bgi92rcd13ifvqb90","pricing_plan_id":"cebpf4jnsgd1na2vs0mg"},{"bike_id":"b4f58fb9-f8fc-49f3-b537-d6ea695f1338","system_id":"levelo_inurba_marseille","lat":43.24662,"lon":5.38155,"is_reserved":false,"is_disabled":false,"rental_uris":{"android":"levelo://app?vid=b4f58fb9-f8fc-49f3-b537-d6ea695f1338","ios":"levelo://app?vid=b4f58fb9-f8fc-49f3-b537-d6ea695f1338"},"vehicle_type_id":"4","last_reported":1742465412,"current_range_meters":10800,"station_id":"ce4bhih2rcd13ifvqfr0","pricing_plan_id":"cebpf4jnsgd1na2vs0mg"},{"bike_id":"d172e309-f28a-4039-8dc4-a3d29f8bb4fb","system_id":"levelo_inurba_marseille","lat":43.23153,"lon":5.43719,"is_reserved":false,"is_disabled":false,"rental_uris":{"android":"levelo://app?vid=d172e309-f28a-4039-8dc4-a3d29f8bb4fb","ios":"levelo://app?vid=d172e309-f28a-4039-8dc4-a3d29f8bb4fb"},"vehicle_type_id":"4","last_reported":1742465412,"current_range_meters":11200,"station_id":"ce4bhmp2rcd13ifvqgog","pricing_plan_id":"cebpf4jnsgd1na2vs0mg"},{"bike_id":"c1b8df7b-2ef2-4d52-be47-f7e5821c9bef","system_id":"levelo_inurba_marseille","lat":43.32515,"lon":5.36561,"is_reserved":false,"is_disabled":false,"rental_uris":{"android":"levelo://app?vid=c1b8df7b-2ef2-4d52-be47-f7e5821c9bef","ios":"levelo://app?vid=c1b8df7b-2ef2-4d52-be47-f7e5821c9bef"},"vehicle_type_id":"4","last_reported":1742465412,"current_range_meters":11200,"station_id":"ce4bhs12rcd13ifvqhvg","pricing_plan_id":"cebpf4jnsgd1na2vs0mg"},{"bike_id":"fc5ce17a-4133-45f9-89b9-263e989c4a39","system_id":"levelo_inurba_marseille","lat":43.30463,"lon":5.37907,"is_reserved":false,"is_disabled":false,"rental_uris":{"android":"levelo://app?vid=fc5ce17a-4133-45f9-89b9-263e989c4a39","ios":"levelo://app?vid=fc5ce17a-4133-45f9-89b9-263e989c4a39"},"vehicle_type_id":"4","last_reported":1742465412,"current_range_meters":11200,"station_id":"ce4bgup2rcd13ifvqcn0","pricing_plan_id":"cebpf4jnsgd1na2vs0mg"},{"bike_id":"ffbee1c9-ab8d-45ee-b606-c546ab78c5f2","system_id":"levelo_inurba_marseille","lat":43.29741,"lon":5.37795,"is_reserved":false,"is_disabled":false,"rental_uris":{"android":"levelo://app?vid=ffbee1c9-ab8d-45ee-b606-c546ab78c5f2","ios":"levelo://app?vid=ffbee1c9-ab8d-45ee-b606-c546ab78c5f2"},"vehicle_type_id":"4","last_reported":1742465412,"current_range_meters":11200,"station_id":"","pricing_plan_id":"cebpf4jnsgd1na2vs0mg"},{"bike_id":"be5ad8ed-23f7-4b63-ab1b-628914f88e6f","system_id":"levelo_inurba_marseille","lat":43.29964,"lon":5.38495,"is_reserved":false,"is_disabled":false,"rental_uris":{"android":"levelo://app?vid=be5ad8ed-23f7-4b63-ab1b-628914f88e6f","ios":"levelo://app?vid=be5ad8ed-23f7-4b63-ab1b-628914f88e6f"},"vehicle_type_id":"4","last_reported":1742465412,"current_range_meters":10800,"station_id":"ce4bgj92rcd13ifvqbd0","pricing_plan_id":"cebpf4jnsgd1na2vs0mg"},{"bike_id":"1924c245-7215-48f8-94a1-1269e5777a7e","system_id":"levelo_inurba_marseille","lat":43.28567,"lon":5.39489,"is_reserved":false,"is_disabled":false,"rental_uris":{"android":"levelo://app?vid=1924c245-7215-48f8-94a1-1269e5777a7e","ios":"levelo://app?vid=1924c245-7215-48f8-94a1-1269e5777a7e"},"vehicle_type_id":"4","last_reported":1742465412,"current_range_meters":10800,"station_id":"ce4bh292rcd13ifvqdg0","pricing_plan_id":"cebpf4jnsgd1na2vs0mg"},{"bike_id":"e71a4828-d837-4677-91d2-366456a16072","system_id":"levelo_inurba_marseille","lat":43.29277,"lon":5.37669,"is_reserved":false,"is_disabled":false,"rental_uris":{"android":"levelo://app?vid=e71a4828-d837-4677-91d2-366456a16072","ios":"levelo://app?vid=e71a4828-d837-4677-91d2-366456a16072"},"vehicle_type_id":"4","last_reported":1742465412,"current_range_meters":11200,"station_id":"ce4bgi12rcd13ifvqb70","pricing_plan_id":"cebpf4jnsgd1na2vs0mg"},{"bike_id":"6883c811-8746-429a-bd41-848ecf4dd19e","system_id":"levelo_inurba_marseille","lat":43.23524,"lon":5.37747,"is_reserved":false,"is_disabled":false,"rental_uris":{"android":"levelo://app?vid=6883c811-8746-429a-bd41-848ecf4dd19e","ios":"levelo://app?vid=6883c811-8746-429a-bd41-848ecf4dd19e"},"vehicle_type_id":"4","last_reported":1742465412,"current_range_meters":11200,"station_id":"","pricing_plan_id":"cebpf4jnsgd1na2vs0mg"},{"bike_id":"181b1742-09ee-46ab-8712-67d8396af664","system_id":"levelo_inurba_marseille","lat":43.24202,"lon":5.39714,"is_reserved":false,"is_disabled":false,"rental_uris":{"android":"levelo://app?vid=181b1742-09ee-46ab-8712-67d8396af664","ios":"levelo://app?vid=181b1742-09ee-46ab-8712-67d8396af664"},"vehicle_type_id":"4","last_reported":1742465412,"current_range_meters":11200,"station_id":"ce4bhn12rcd13ifvqgpg","pricing_plan_id":"cebpf4jnsgd1na2vs0mg"},{"bike_id":"c5bb5dca-1dc9-450e-9a3d-9fa737cf345d","system_id":"levelo_inurba_marseille","lat":43.24693,"lon":5.38964,"is_reserved":false,"is_disabled":false,"rental_uris":{"android":"levelo://app?vid=c5bb5dca-1dc9-450e-9a3d-9fa737cf345d","ios":"levelo://app?vid=c5bb5dca-1dc9-450e-9a3d-9fa737cf345d"},"vehicle_type_id":"4","last_reported":1742465412,"current_range_meters":11200,"station_id":"ce4bhg12rcd13ifvqf60","pricing_plan_id":"cebpf4jnsgd1na2vs0mg"},{"bike_id":"0d7125f7-4ef3-4163-b501-e403ffb079c4","system_id":"levelo_inurba_marseille","lat":43.31896,"lon":5.40734,"is_reserved":false,"is_disabled":false,"rental_uris":{"android":"levelo://app?vid=0d7125f7-4ef3-4163-b501-e403ffb079c4","ios":"levelo://app?vid=0d7125f7-4ef3-4163-b501-e403ffb079c4"},"vehicle_type_id":"4","last_reported":1742465412,"current_range_meters":11200,"station_id":"ce4bhq12rcd13ifvqhig","pricing_plan_id":"cebpf4jnsgd1na2vs0mg"},{"bike_id":"443d0276-1141-4d03-9f61-68a97e28acd5","system_id":"levelo_inurba_marseille","lat":43.29732,"lon":5.36608,"is_reserved":false,"is_disabled":false,"rental_uris":{"android":"levelo://app?vid=443d0276-1141-4d03-9f61-68a97e28acd5","ios":"levelo://app?vid=443d0276-1141-4d03-9f61-68a97e28acd5"},"vehicle_type_id":"4","last_reported":1742465412,"current_range_meters":11200,"station_id":"ce4bgn12rcd13ifvqbt0","pricing_plan_id":"cebpf4jnsgd1na2vs0mg"},{"bike_id":"04d2a356-7d5e-4949-b4ea-4404597c7bfe","system_id":"levelo_inurba_marseille","lat":43.27963,"lon":5.38682,"is_reserved":false,"is_disabled":false,"rental_uris":{"android":"levelo://app?vid=04d2a356-7d5e-4949-b4ea-4404597c7bfe","ios":"levelo://app?vid=04d2a356-7d5e-4949-b4ea-4404597c7bfe"},"vehicle_type_id":"4","last_reported":1742465412,"current_range_meters":11600,"station_id":"","pricing_plan_id":"cebpf4jnsgd1na2vs0mg"},{"bike_id":"74840cc0-89b6-413b-83b8-0b71d906b04c","system_id":"levelo_inurba_marseille","lat":43.24066,"lon":5.37769,"is_reserved":false,"is_disabled":false,"rental_uris":{"android":"levelo://app?vid=74840cc0-89b6-413b-83b8-0b71d906b04c","ios":"levelo://app?vid=74840cc0-89b6-413b-83b8-0b71d906b04c"},"vehicle_type_id":"4","last_reported":1742465412,"current_range_meters":11600,"station_id":"ce4bhnp2rcd13ifvqgvg","pricing_plan_id":"cebpf4jnsgd1na2vs0mg"},{"bike_id":"b9e4bdd0-024c-4547-9a94-39d0c7923642","system_id":"levelo_inurba_marseille","lat":43.24168,"lon":5.36397,"is_reserved":false,"is_disabled":false,"rental_uris":{"android":"levelo://app?vid=b9e4bdd0-024c-4547-9a94-39d0c7923642","ios":"levelo://app?vid=b9e4bdd0-024c-4547-9a94-39d0c7923642"},"vehicle_type_id":"4","last_reported":1742465412,"current_range_meters":11600,"station_id":"cpo36qri1sfpv3e86is0","pricing_plan_id":"cebpf4jnsgd1na2vs0mg"},{"bike_id":"3e8a7fe5-1a9c-49c1-a2f4-4cecb2029059","system_id":"levelo_inurba_marseille","lat":43.27208,"lon":5.39184,"is_reserved":false,"is_disabled":false,"rental_uris":{"android":"levelo://app?vid=3e8a7fe5-1a9c-49c1-a2f4-4cecb2029059","ios":"levelo://app?vid=3e8a7fe5-1a9c-49c1-a2f4-4cecb2029059"},"vehicle_type_id":"4","last_reported":1742465412,"current_range_meters":11200,"station_id":"ce4bhhp2rcd13ifvqfm0","pricing_plan_id":"cebpf4jnsgd1na2vs0mg"},{"bike_id":"e4fa4be4-c48f-4bf6-af84-7a8304cec4b3","system_id":"levelo_inurba_marseille","lat":43.24171,"lon":5.39702,"is_reserved":false,"is_disabled":false,"rental_uris":{"android":"levelo://app?vid=e4fa4be4-c48f-4bf6-af84-7a8304cec4b3","ios":"levelo://app?vid=e4fa4be4-c48f-4bf6-af84-7a8304cec4b3"},"vehicle_type_id":"4","last_reported":1742465412,"current_range_meters":12000,"station_id":"ce4bhn12rcd13ifvqgpg","pricing_plan_id":"cebpf4jnsgd1na2vs0mg"},{"bike_id":"04289555-ccad-4789-9d09-8cd342f0f429","system_id":"levelo_inurba_marseille","lat":43.29579,"lon":5.37516,"is_reserved":false,"is_disabled":false,"rental_uris":{"android":"levelo://app?vid=04289555-ccad-4789-9d09-8cd342f0f429","ios":"levelo://app?vid=04289555-ccad-4789-9d09-8cd342f0f429"},"vehicle_type_id":"4","last_reported":1742465412,"current_range_meters":12000,"station_id":"ce4bgh92rcd13ifvqb50","pricing_plan_id":"cebpf4jnsgd1na2vs0mg"},{"bike_id":"c5544639-2d44-4b2d-a154-7c53abb9719f","system_id":"levelo_inurba_marseille","lat":43.24087,"lon":5.37746,"is_reserved":false,"is_disabled":false,"rental_uris":{"android":"levelo://app?vid=c5544639-2d44-4b2d-a154-7c53abb9719f","ios":"levelo://app?vid=c5544639-2d44-4b2d-a154-7c53abb9719f"},"vehicle_type_id":"4","last_reported":1742465412,"current_range_meters":12000,"station_id":"ce4bhnp2rcd13ifvqgvg","pricing_plan_id":"cebpf4jnsgd1na2vs0mg"},{"bike_id":"91bbc4d7-c30f-4b98-bc8f-0b3299ccfa54","system_id":"levelo_inurba_marseille","lat":43.27382,"lon":5.36229,"is_reserved":false,"is_disabled":false,"rental_uris":{"android":"levelo://app?vid=91bbc4d7-c30f-4b98-bc8f-0b3299ccfa54","ios":"levelo://app?vid=91bbc4d7-c30f-4b98-bc8f-0b3299ccfa54"},"vehicle_type_id":"4","last_reported":1742465412,"current_range_meters":12000,"station_id":"ce4bhbh2rcd13ifvqeo0","pricing_plan_id":"cebpf4jnsgd1na2vs0mg"},{"bike_id":"7a170ee8-b4ab-4e10-af41-b7d66fb221b0","system_id":"levelo_inurba_marseille","lat":43.26686,"lon":5.38261,"is_reserved":false,"is_disabled":false,"rental_uris":{"android":"levelo://app?vid=7a170ee8-b4ab-4e10-af41-b7d66fb221b0","ios":"levelo://app?vid=7a170ee8-b4ab-4e10-af41-b7d66fb221b0"},"vehicle_type_id":"4","last_reported":1742465412,"current_range_meters":12000,"station_id":"ce4bhg92rcd13ifvqf90","pricing_plan_id":"cebpf4jnsgd1na2vs0mg"},{"bike_id":"7c6d8120-118c-419e-9a61-b050de9f67a1","system_id":"levelo_inurba_marseille","lat":43.27498,"lon":5.42463,"is_reserved":false,"is_disabled":false,"rental_uris":{"android":"levelo://app?vid=7c6d8120-118c-419e-9a61-b050de9f67a1","ios":"levelo://app?vid=7c6d8120-118c-419e-9a61-b050de9f67a1"},"vehicle_type_id":"4","last_reported":1742465412,"current_range_meters":12000,"station_id":"ce4bhn92rcd13ifvqgrg","pricing_plan_id":"cebpf4jnsgd1na2vs0mg"},{"bike_id":"6370e802-1ce7-46b3-ab38-c299ec041499","system_id":"levelo_inurba_marseille","lat":43.267,"lon":5.38258,"is_reserved":false,"is_disabled":false,"rental_uris":{"android":"levelo://app?vid=6370e802-1ce7-46b3-ab38-c299ec041499","ios":"levelo://app?vid=6370e802-1ce7-46b3-ab38-c299ec041499"},"vehicle_type_id":"4","last_reported":1742465412,"current_range_meters":12000,"station_id":"ce4bhg92rcd13ifvqf90","pricing_plan_id":"cebpf4jnsgd1na2vs0mg"},{"bike_id":"067fb92d-3b64-43d5-9d88-fcb8897d2567","system_id":"levelo_inurba_marseille","lat":43.28622,"lon":5.35102,"is_reserved":false,"is_disabled":false,"rental_uris":{"android":"levelo://app?vid=067fb92d-3b64-43d5-9d88-fcb8897d2567","ios":"levelo://app?vid=067fb92d-3b64-43d5-9d88-fcb8897d2567"},"vehicle_type_id":"4","last_reported":1742465412,"current_range_meters":12000,"station_id":"ce4bhch2rcd13ifvqeug","pricing_plan_id":"cebpf4jnsgd1na2vs0mg"},{"bike_id":"951b55e5-c357-433d-a08f-c74abb765106","system_id":"levelo_inurba_marseille","lat":43.27215,"lon":5.39184,"is_reserved":false,"is_disabled":false,"rental_uris":{"android":"levelo://app?vid=951b55e5-c357-433d-a08f-c74abb765106","ios":"levelo://app?vid=951b55e5-c357-433d-a08f-c74abb765106"},"vehicle_type_id":"4","last_reported":1742465412,"current_range_meters":11600,"station_id":"ce4bhhp2rcd13ifvqfm0","pricing_plan_id":"cebpf4jnsgd1na2vs0mg"},{"bike_id":"17b7ce0e-fa79-47ab-b1dd-cb9cf0589424","system_id":"levelo_inurba_marseille","lat":43.30142,"lon":5.39859,"is_reserved":false,"is_disabled":false,"rental_uris":{"android":"levelo://app?vid=17b7ce0e-fa79-47ab-b1dd-cb9cf0589424","ios":"levelo://app?vid=17b7ce0e-fa79-47ab-b1dd-cb9cf0589424"},"vehicle_type_id":"4","last_reported":1742465412,"current_range_meters":12000,"station_id":"ce4bh0h2rcd13ifvqd40","pricing_plan_id":"cebpf4jnsgd1na2vs0mg"},{"bike_id":"77c325ba-2e1c-4b5f-812e-882a5e158ec8","system_id":"levelo_inurba_marseille","lat":43.27621,"lon":5.36119,"is_reserved":false,"is_disabled":false,"rental_uris":{"android":"levelo://app?vid=77c325ba-2e1c-4b5f-812e-882a5e158ec8","ios":"levelo://app?vid=77c325ba-2e1c-4b5f-812e-882a5e158ec8"},"vehicle_type_id":"4","last_reported":1742465412,"current_range_meters":12400,"station_id":"ce4bgj92rcd13ifvqbe0","pricing_plan_id":"cebpf4jnsgd1na2vs0mg"},{"bike_id":"fe8c0731-9c54-4d08-b903-bac2ba549fbe","system_id":"levelo_inurba_marseille","lat":43.29252,"lon":5.38436,"is_reserved":false,"is_disabled":false,"rental_uris":{"android":"levelo://app?vid=fe8c0731-9c54-4d08-b903-bac2ba549fbe","ios":"levelo://app?vid=fe8c0731-9c54-4d08-b903-bac2ba549fbe"},"vehicle_type_id":"4","last_reported":1742465412,"current_range_meters":12400,"station_id":"ce4bh692rcd13ifvqea0","pricing_plan_id":"cebpf4jnsgd1na2vs0mg"},{"bike_id":"a91d5e20-9e78-4378-87c9-e63cde34a384","system_id":"levelo_inurba_marseille","lat":43.30213,"lon":5.39466,"is_reserved":false,"is_disabled":false,"rental_uris":{"android":"levelo://app?vid=a91d5e20-9e78-4378-87c9-e63cde34a384","ios":"levelo://app?vid=a91d5e20-9e78-4378-87c9-e63cde34a384"},"vehicle_type_id":"4","last_reported":1742465412,"current_range_meters":12400,"station_id":"ce4bh0p2rcd13ifvqd70","pricing_plan_id":"cebpf4jnsgd1na2vs0mg"},{"bike_id":"5c4ada56-1442-42cb-933a-62cf2a981354","system_id":"levelo_inurba_marseille","lat":43.30156,"lon":5.39887,"is_reserved":false,"is_disabled":false,"rental_uris":{"android":"levelo://app?vid=5c4ada56-1442-42cb-933a-62cf2a981354","ios":"levelo://app?vid=5c4ada56-1442-42cb-933a-62cf2a981354"},"vehicle_type_id":"4","last_reported":1742465412,"current_range_meters":12400,"station_id":"ce4bh0h2rcd13ifvqd40","pricing_plan_id":"cebpf4jnsgd1na2vs0mg"},{"bike_id":"6cafd3b1-e277-4a22-9c98-e45f3bb304aa","system_id":"levelo_inurba_marseille","lat":43.29968,"lon":5.38491,"is_reserved":false,"is_disabled":false,"rental_uris":{"android":"levelo://app?vid=6cafd3b1-e277-4a22-9c98-e45f3bb304aa","ios":"levelo://app?vid=6cafd3b1-e277-4a22-9c98-e45f3bb304aa"},"vehicle_type_id":"4","last_reported":1742465412,"current_range_meters":12000,"station_id":"ce4bgj92rcd13ifvqbd0","pricing_plan_id":"cebpf4jnsgd1na2vs0mg"},{"bike_id":"69569813-02d5-4d0b-8c1f-9b2d237533ea","system_id":"levelo_inurba_marseille","lat":43.30469,"lon":5.37906,"is_reserved":false,"is_disabled":false,"rental_uris":{"android":"levelo://app?vid=69569813-02d5-4d0b-8c1f-9b2d237533ea","ios":"levelo://app?vid=69569813-02d5-4d0b-8c1f-9b2d237533ea"},"vehicle_type_id":"4","last_reported":1742465412,"current_range_meters":12400,"station_id":"ce4bgup2rcd13ifvqcn0","pricing_plan_id":"cebpf4jnsgd1na2vs0mg"},{"bike_id":"cfcd43ac-55d6-41fe-bcae-b87609468037","system_id":"levelo_inurba_marseille","lat":43.27689,"lon":5.3892,"is_reserved":false,"is_disabled":true,"rental_uris":{"android":"levelo://app?vid=cfcd43ac-55d6-41fe-bcae-b87609468037","ios":"levelo://app?vid=cfcd43ac-55d6-41fe-bcae-b87609468037"},"vehicle_type_id":"4","last_reported":1742465412,"current_range_meters":12400,"station_id":"ce4bhi12rcd13ifvqfo0","pricing_plan_id":"cebpf4jnsgd1na2vs0mg"},{"bike_id":"678019ab-656b-44fd-a1c8-6e8d72efdea3","system_id":"levelo_inurba_marseille","lat":43.29795,"lon":5.38112,"is_reserved":false,"is_disabled":false,"rental_uris":{"android":"levelo://app?vid=678019ab-656b-44fd-a1c8-6e8d72efdea3","ios":"levelo://app?vid=678019ab-656b-44fd-a1c8-6e8d72efdea3"},"vehicle_type_id":"4","last_reported":1742465412,"current_range_meters":12400,"station_id":"ce4bgip2rcd13ifvqbb0","pricing_plan_id":"cebpf4jnsgd1na2vs0mg"},{"bike_id":"4c44c71d-64d5-4bb1-9445-5c9bbff69c6e","system_id":"levelo_inurba_marseille","lat":43.24075,"lon":5.37758,"is_reserved":false,"is_disabled":false,"rental_uris":{"android":"levelo://app?vid=4c44c71d-64d5-4bb1-9445-5c9bbff69c6e","ios":"levelo://app?vid=4c44c71d-64d5-4bb1-9445-5c9bbff69c6e"},"vehicle_type_id":"4","last_reported":1742465412,"current_range_meters":12400,"station_id":"ce4bhnp2rcd13ifvqgvg","pricing_plan_id":"cebpf4jnsgd1na2vs0mg"},{"bike_id":"64998481-b10a-4fa2-9aa3-20137eb99f9d","system_id":"levelo_inurba_marseille","lat":43.2408,"lon":5.37753,"is_reserved":false,"is_disabled":false,"rental_uris":{"android":"levelo://app?vid=64998481-b10a-4fa2-9aa3-20137eb99f9d","ios":"levelo://app?vid=64998481-b10a-4fa2-9aa3-20137eb99f9d"},"vehicle_type_id":"4","last_reported":1742465412,"current_range_meters":12400,"station_id":"ce4bhnp2rcd13ifvqgvg","pricing_plan_id":"cebpf4jnsgd1na2vs0mg"},{"bike_id":"045aa55e-74cf-4aa3-a613-2a8c865c4f26","system_id":"levelo_inurba_marseille","lat":43.26554,"lon":5.37284,"is_reserved":false,"is_disabled":false,"rental_uris":{"android":"levelo://app?vid=045aa55e-74cf-4aa3-a613-2a8c865c4f26","ios":"levelo://app?vid=045aa55e-74cf-4aa3-a613-2a8c865c4f26"},"vehicle_type_id":"4","last_reported":1742465412,"current_range_meters":12800,"station_id":"ce4bhg12rcd13ifvqf70","pricing_plan_id":"cebpf4jnsgd1na2vs0mg"},{"bike_id":"11c5b5c4-7e0d-4f6d-8bab-07eec89ea109","system_id":"levelo_inurba_marseille","lat":43.29874,"lon":5.36308,"is_reserved":false,"is_disabled":false,"rental_uris":{"android":"levelo://app?vid=11c5b5c4-7e0d-4f6d-8bab-07eec89ea109","ios":"levelo://app?vid=11c5b5c4-7e0d-4f6d-8bab-07eec89ea109"},"vehicle_type_id":"4","last_reported":1742465412,"current_range_meters":12800,"station_id":"ce4bgpp2rcd13ifvqc3g","pricing_plan_id":"cebpf4jnsgd1na2vs0mg"},{"bike_id":"d5df86ef-06a8-444a-9e55-263a325b660d","system_id":"levelo_inurba_marseille","lat":43.29786,"lon":5.3709,"is_reserved":false,"is_disabled":false,"rental_uris":{"android":"levelo://app?vid=d5df86ef-06a8-444a-9e55-263a325b660d","ios":"levelo://app?vid=d5df86ef-06a8-444a-9e55-263a325b660d"},"vehicle_type_id":"4","last_reported":1742465412,"current_range_meters":12800,"station_id":"ce4bgop2rcd13ifvqc1g","pricing_plan_id":"cebpf4jnsgd1na2vs0mg"},{"bike_id":"bd0e8218-e309-41a5-8aa0-4b563c0916ca","system_id":"levelo_inurba_marseille","lat":43.30435,"lon":5.39336,"is_reserved":false,"is_disabled":false,"rental_uris":{"android":"levelo://app?vid=bd0e8218-e309-41a5-8aa0-4b563c0916ca","ios":"levelo://app?vid=bd0e8218-e309-41a5-8aa0-4b563c0916ca"},"vehicle_type_id":"4","last_reported":1742465412,"current_range_meters":12800,"station_id":"ce4bh0h2rcd13ifvqd40","pricing_plan_id":"cebpf4jnsgd1na2vs0mg"},{"bike_id":"c3344bdc-35f5-4929-a273-59267dbc0aa3","system_id":"levelo_inurba_marseille","lat":43.33613,"lon":5.41032,"is_reserved":false,"is_disabled":false,"rental_uris":{"android":"levelo://app?vid=c3344bdc-35f5-4929-a273-59267dbc0aa3","ios":"levelo://app?vid=c3344bdc-35f5-4929-a273-59267dbc0aa3"},"vehicle_type_id":"4","last_reported":1742465412,"current_range_meters":12800,"station_id":"ce4bhqh2rcd13ifvqhmg","pricing_plan_id":"cebpf4jnsgd1na2vs0mg"},{"bike_id":"16dd521d-50df-4f0b-a335-57ba62bdd742","system_id":"levelo_inurba_marseille","lat":43.24076,"lon":5.37759,"is_reserved":false,"is_disabled":false,"rental_uris":{"android":"levelo://app?vid=16dd521d-50df-4f0b-a335-57ba62bdd742","ios":"levelo://app?vid=16dd521d-50df-4f0b-a335-57ba62bdd742"},"vehicle_type_id":"4","last_reported":1742465412,"current_range_meters":13600,"station_id":"ce4bhnp2rcd13ifvqgvg","pricing_plan_id":"cebpf4jnsgd1na2vs0mg"},{"bike_id":"2b6e791c-fb0f-40c7-b17e-56dc02e6bdb2","system_id":"levelo_inurba_marseille","lat":43.31364,"lon":5.38492,"is_reserved":false,"is_disabled":false,"rental_uris":{"android":"levelo://app?vid=2b6e791c-fb0f-40c7-b17e-56dc02e6bdb2","ios":"levelo://app?vid=2b6e791c-fb0f-40c7-b17e-56dc02e6bdb2"},"vehicle_type_id":"4","last_reported":1742465412,"current_range_meters":12800,"station_id":"ce4bgt92rcd13ifvqcf0","pricing_plan_id":"cebpf4jnsgd1na2vs0mg"},{"bike_id":"af4ee203-06ac-4234-8175-ec65a2577393","system_id":"levelo_inurba_marseille","lat":43.29918,"lon":5.38144,"is_reserved":false,"is_disabled":false,"rental_uris":{"android":"levelo://app?vid=af4ee203-06ac-4234-8175-ec65a2577393","ios":"levelo://app?vid=af4ee203-06ac-4234-8175-ec65a2577393"},"vehicle_type_id":"4","last_reported":1742465412,"current_range_meters":13600,"station_id":"ce4bgj12rcd13ifvqbc0","pricing_plan_id":"cebpf4jnsgd1na2vs0mg"},{"bike_id":"efb0bc27-b8ec-4036-be31-f3c9e277cd92","system_id":"levelo_inurba_marseille","lat":43.23152,"lon":5.43721,"is_reserved":false,"is_disabled":false,"rental_uris":{"android":"levelo://app?vid=efb0bc27-b8ec-4036-be31-f3c9e277cd92","ios":"levelo://app?vid=efb0bc27-b8ec-4036-be31-f3c9e277cd92"},"vehicle_type_id":"4","last_reported":1742465412,"current_range_meters":13600,"station_id":"ce4bhmp2rcd13ifvqgog","pricing_plan_id":"cebpf4jnsgd1na2vs0mg"},{"bike_id":"74eba055-d07c-4ec5-982d-51190b75a7f4","system_id":"levelo_inurba_marseille","lat":43.29226,"lon":5.36078,"is_reserved":false,"is_disabled":false,"rental_uris":{"android":"levelo://app?vid=74eba055-d07c-4ec5-982d-51190b75a7f4","ios":"levelo://app?vid=74eba055-d07c-4ec5-982d-51190b75a7f4"},"vehicle_type_id":"4","last_reported":1742465412,"current_range_meters":13600,"station_id":"ce4bhbh2rcd13ifvqeqg","pricing_plan_id":"cebpf4jnsgd1na2vs0mg"},{"bike_id":"50a98ba2-aa5e-411b-a07d-d014288838ef","system_id":"levelo_inurba_marseille","lat":43.30792,"lon":5.43524,"is_reserved":false,"is_disabled":false,"rental_uris":{"android":"levelo://app?vid=50a98ba2-aa5e-411b-a07d-d014288838ef","ios":"levelo://app?vid=50a98ba2-aa5e-411b-a07d-d014288838ef"},"vehicle_type_id":"4","last_reported":1742465412,"current_range_meters":13600,"station_id":"ce4bhph2rcd13ifvqheg","pricing_plan_id":"cebpf4jnsgd1na2vs0mg"},{"bike_id":"8f398572-6cfe-422a-b8d4-e0c356c1e657","system_id":"levelo_inurba_marseille","lat":43.2749,"lon":5.42458,"is_reserved":false,"is_disabled":false,"rental_uris":{"android":"levelo://app?vid=8f398572-6cfe-422a-b8d4-e0c356c1e657","ios":"levelo://app?vid=8f398572-6cfe-422a-b8d4-e0c356c1e657"},"vehicle_type_id":"4","last_reported":1742465412,"current_range_meters":13600,"station_id":"ce4bhn92rcd13ifvqgrg","pricing_plan_id":"cebpf4jnsgd1na2vs0mg"},{"bike_id":"1c3b5361-695c-4ccc-94f9-aca7f37b6d45","system_id":"levelo_inurba_marseille","lat":43.2318,"lon":5.35531,"is_reserved":false,"is_disabled":false,"rental_uris":{"android":"levelo://app?vid=1c3b5361-695c-4ccc-94f9-aca7f37b6d45","ios":"levelo://app?vid=1c3b5361-695c-4ccc-94f9-aca7f37b6d45"},"vehicle_type_id":"4","last_reported":1742465412,"current_range_meters":14000,"station_id":"ce4bhu92rcd13ifvqi70","pricing_plan_id":"cebpf4jnsgd1na2vs0mg"},{"bike_id":"2696eb3c-f1eb-4a4c-a9fa-7c9a36261c03","system_id":"levelo_inurba_marseille","lat":43.23153,"lon":5.43717,"is_reserved":false,"is_disabled":false,"rental_uris":{"android":"levelo://app?vid=2696eb3c-f1eb-4a4c-a9fa-7c9a36261c03","ios":"levelo://app?vid=2696eb3c-f1eb-4a4c-a9fa-7c9a36261c03"},"vehicle_type_id":"4","last_reported":1742465412,"current_range_meters":14000,"station_id":"ce4bhmp2rcd13ifvqgog","pricing_plan_id":"cebpf4jnsgd1na2vs0mg"},{"bike_id":"42510201-02b4-4f38-82bc-9dc134d4342c","system_id":"levelo_inurba_marseille","lat":43.22927,"lon":5.35371,"is_reserved":false,"is_disabled":false,"rental_uris":{"android":"levelo://app?vid=42510201-02b4-4f38-82bc-9dc134d4342c","ios":"levelo://app?vid=42510201-02b4-4f38-82bc-9dc134d4342c"},"vehicle_type_id":"4","last_reported":1742465412,"current_range_meters":14000,"station_id":"cpo3532slgdg3j2ikp40","pricing_plan_id":"cebpf4jnsgd1na2vs0mg"},{"bike_id":"ca4f38ad-a911-4729-9bf0-9cd10d233cd4","system_id":"levelo_inurba_marseille","lat":43.31357,"lon":5.36716,"is_reserved":false,"is_disabled":false,"rental_uris":{"android":"levelo://app?vid=ca4f38ad-a911-4729-9bf0-9cd10d233cd4","ios":"levelo://app?vid=ca4f38ad-a911-4729-9bf0-9cd10d233cd4"},"vehicle_type_id":"4","last_reported":1742465412,"current_range_meters":14000,"station_id":"ce4bgr92rcd13ifvqc6g","pricing_plan_id":"cebpf4jnsgd1na2vs0mg"},{"bike_id":"8f25cf8b-1375-49a8-b8f2-e9ba57d13d59","system_id":"levelo_inurba_marseille","lat":43.23161,"lon":5.43702,"is_reserved":false,"is_disabled":false,"rental_uris":{"android":"levelo://app?vid=8f25cf8b-1375-49a8-b8f2-e9ba57d13d59","ios":"levelo://app?vid=8f25cf8b-1375-49a8-b8f2-e9ba57d13d59"},"vehicle_type_id":"4","last_reported":1742465412,"current_range_meters":14000,"station_id":"ce4bhmp2rcd13ifvqgog","pricing_plan_id":"cebpf4jnsgd1na2vs0mg"},{"bike_id":"33eac996-04c1-4244-862e-d262aa2b7f9f","system_id":"levelo_inurba_marseille","lat":43.29904,"lon":5.36522,"is_reserved":false,"is_disabled":false,"rental_uris":{"android":"levelo://app?vid=33eac996-04c1-4244-862e-d262aa2b7f9f","ios":"levelo://app?vid=33eac996-04c1-4244-862e-d262aa2b7f9f"},"vehicle_type_id":"4","last_reported":1742465412,"current_range_meters":14000,"station_id":"ce4bgm92rcd13ifvqbr0","pricing_plan_id":"cebpf4jnsgd1na2vs0mg"},{"bike_id":"d88871c7-84ca-4733-bb3b-a22d1cf9f7c3","system_id":"levelo_inurba_marseille","lat":43.25579,"lon":5.38235,"is_reserved":false,"is_disabled":false,"rental_uris":{"android":"levelo://app?vid=d88871c7-84ca-4733-bb3b-a22d1cf9f7c3","ios":"levelo://app?vid=d88871c7-84ca-4733-bb3b-a22d1cf9f7c3"},"vehicle_type_id":"4","last_reported":1742465412,"current_range_meters":14000,"station_id":"ce4bhih2rcd13ifvqfs0","pricing_plan_id":"cebpf4jnsgd1na2vs0mg"},{"bike_id":"83fe4b7d-c313-402b-a1b1-9f765824d193","system_id":"levelo_inurba_marseille","lat":43.26192,"lon":5.37447,"is_reserved":false,"is_disabled":false,"rental_uris":{"android":"levelo://app?vid=83fe4b7d-c313-402b-a1b1-9f765824d193","ios":"levelo://app?vid=83fe4b7d-c313-402b-a1b1-9f765824d193"},"vehicle_type_id":"4","last_reported":1742465412,"current_range_meters":14000,"station_id":"ce4bhgp2rcd13ifvqfc0","pricing_plan_id":"cebpf4jnsgd1na2vs0mg"},{"bike_id":"1d30afca-95f8-47f1-9bab-62e98fe2a186","system_id":"levelo_inurba_marseille","lat":43.31345,"lon":5.36733,"is_reserved":false,"is_disabled":false,"rental_uris":{"android":"levelo://app?vid=1d30afca-95f8-47f1-9bab-62e98fe2a186","ios":"levelo://app?vid=1d30afca-95f8-47f1-9bab-62e98fe2a186"},"vehicle_type_id":"4","last_reported":1742465412,"current_range_meters":14000,"station_id":"ce4bgr92rcd13ifvqc6g","pricing_plan_id":"cebpf4jnsgd1na2vs0mg"},{"bike_id":"95c34ac8-3d50-4192-bb59-32bffc4aefde","system_id":"levelo_inurba_marseille","lat":43.27895,"lon":5.38493,"is_reserved":false,"is_disabled":false,"rental_uris":{"android":"levelo://app?vid=95c34ac8-3d50-4192-bb59-32bffc4aefde","ios":"levelo://app?vid=95c34ac8-3d50-4192-bb59-32bffc4aefde"},"vehicle_type_id":"4","last_reported":1742465412,"current_range_meters":14400,"station_id":"ce4bhg12rcd13ifvqf80","pricing_plan_id":"cebpf4jnsgd1na2vs0mg"},{"bike_id":"91a8f49b-169f-4353-b115-068fd5862917","system_id":"levelo_inurba_marseille","lat":43.29977,"lon":5.3849,"is_reserved":false,"is_disabled":false,"rental_uris":{"android":"levelo://app?vid=91a8f49b-169f-4353-b115-068fd5862917","ios":"levelo://app?vid=91a8f49b-169f-4353-b115-068fd5862917"},"vehicle_type_id":"4","last_reported":1742465412,"current_range_meters":14400,"station_id":"ce4bgj92rcd13ifvqbd0","pricing_plan_id":"cebpf4jnsgd1na2vs0mg"},{"bike_id":"19eca8c7-ab95-494d-b9ee-b4c343a4467d","system_id":"levelo_inurba_marseille","lat":43.29852,"lon":5.36289,"is_reserved":false,"is_disabled":false,"rental_uris":{"android":"levelo://app?vid=19eca8c7-ab95-494d-b9ee-b4c343a4467d","ios":"levelo://app?vid=19eca8c7-ab95-494d-b9ee-b4c343a4467d"},"vehicle_type_id":"4","last_reported":1742465412,"current_range_meters":14400,"station_id":"ce4bgpp2rcd13ifvqc3g","pricing_plan_id":"cebpf4jnsgd1na2vs0mg"},{"bike_id":"5f70d216-c22b-4aba-8c0c-4a1deab6ce2e","system_id":"levelo_inurba_marseille","lat":43.29904,"lon":5.43698,"is_reserved":false,"is_disabled":false,"rental_uris":{"android":"levelo://app?vid=5f70d216-c22b-4aba-8c0c-4a1deab6ce2e","ios":"levelo://app?vid=5f70d216-c22b-4aba-8c0c-4a1deab6ce2e"},"vehicle_type_id":"4","last_reported":1742465412,"current_range_meters":14400,"station_id":"","pricing_plan_id":"cebpf4jnsgd1na2vs0mg"},{"bike_id":"5c641893-88a4-4948-9004-ecfa16881094","system_id":"levelo_inurba_marseille","lat":43.32546,"lon":5.41476,"is_reserved":false,"is_disabled":false,"rental_uris":{"android":"levelo://app?vid=5c641893-88a4-4948-9004-ecfa16881094","ios":"levelo://app?vid=5c641893-88a4-4948-9004-ecfa16881094"},"vehicle_type_id":"4","last_reported":1742465412,"current_range_meters":14400,"station_id":"ce4bhq12rcd13ifvqhhg","pricing_plan_id":"cebpf4jnsgd1na2vs0mg"},{"bike_id":"7d533c3d-be34-4b0e-b05d-d42132d55da9","system_id":"levelo_inurba_marseille","lat":43.30559,"lon":5.3654,"is_reserved":false,"is_disabled":false,"rental_uris":{"android":"levelo://app?vid=7d533c3d-be34-4b0e-b05d-d42132d55da9","ios":"levelo://app?vid=7d533c3d-be34-4b0e-b05d-d42132d55da9"},"vehicle_type_id":"4","last_reported":1742465412,"current_range_meters":14400,"station_id":"ce4bgs12rcd13ifvqcag","pricing_plan_id":"cebpf4jnsgd1na2vs0mg"},{"bike_id":"ffe97004-0ecd-4e8c-852b-393acdc2ea6d","system_id":"levelo_inurba_marseille","lat":43.25941,"lon":5.40903,"is_reserved":false,"is_disabled":false,"rental_uris":{"android":"levelo://app?vid=ffe97004-0ecd-4e8c-852b-393acdc2ea6d","ios":"levelo://app?vid=ffe97004-0ecd-4e8c-852b-393acdc2ea6d"},"vehicle_type_id":"4","last_reported":1742465412,"current_range_meters":14400,"station_id":"ce4bhm92rcd13ifvqglg","pricing_plan_id":"cebpf4jnsgd1na2vs0mg"},{"bike_id":"dab5b599-564f-470d-b857-a9674d507c49","system_id":"levelo_inurba_marseille","lat":43.2593,"lon":5.40889,"is_reserved":false,"is_disabled":false,"rental_uris":{"android":"levelo://app?vid=dab5b599-564f-470d-b857-a9674d507c49","ios":"levelo://app?vid=dab5b599-564f-470d-b857-a9674d507c49"},"vehicle_type_id":"4","last_reported":1742465412,"current_range_meters":14800,"station_id":"ce4bhm92rcd13ifvqglg","pricing_plan_id":"cebpf4jnsgd1na2vs0mg"},{"bike_id":"2678929a-312d-4089-b116-1e816de7db90","system_id":"levelo_inurba_marseille","lat":43.32123,"lon":5.3677,"is_reserved":false,"is_disabled":false,"rental_uris":{"android":"levelo://app?vid=2678929a-312d-4089-b116-1e816de7db90","ios":"levelo://app?vid=2678929a-312d-4089-b116-1e816de7db90"},"vehicle_type_id":"4","last_reported":1742465412,"current_range_meters":14800,"station_id":"ce4bhrh2rcd13ifvqhug","pricing_plan_id":"cebpf4jnsgd1na2vs0mg"},{"bike_id":"2205aec5-ba0e-4e3f-9bc9-5324ecb790de","system_id":"levelo_inurba_marseille","lat":43.30133,"lon":5.39861,"is_reserved":false,"is_disabled":false,"rental_uris":{"android":"levelo://app?vid=2205aec5-ba0e-4e3f-9bc9-5324ecb790de","ios":"levelo://app?vid=2205aec5-ba0e-4e3f-9bc9-5324ecb790de"},"vehicle_type_id":"4","last_reported":1742465412,"current_range_meters":14800,"station_id":"ce4bh0h2rcd13ifvqd40","pricing_plan_id":"cebpf4jnsgd1na2vs0mg"},{"bike_id":"e5d0630d-992a-4187-b18e-dd518b83d728","system_id":"levelo_inurba_marseille","lat":43.30539,"lon":5.36704,"is_reserved":false,"is_disabled":false,"rental_uris":{"android":"levelo://app?vid=e5d0630d-992a-4187-b18e-dd518b83d728","ios":"levelo://app?vid=e5d0630d-992a-4187-b18e-dd518b83d728"},"vehicle_type_id":"4","last_reported":1742465412,"current_range_meters":14800,"station_id":"ce4bgrp2rcd13ifvqc9g","pricing_plan_id":"cebpf4jnsgd1na2vs0mg"},{"bike_id":"750c8726-a58b-4b0e-b51b-8e8a5addc570","system_id":"levelo_inurba_marseille","lat":43.313615,"lon":5.367183,"is_reserved":false,"is_disabled":false,"rental_uris":{"android":"levelo://app?vid=750c8726-a58b-4b0e-b51b-8e8a5addc570","ios":"levelo://app?vid=750c8726-a58b-4b0e-b51b-8e8a5addc570"},"vehicle_type_id":"4","last_reported":1742465412,"current_range_meters":15200,"station_id":"ce4bgr92rcd13ifvqc6g","pricing_plan_id":"cebpf4jnsgd1na2vs0mg"},{"bike_id":"24ae0b54-9e9a-4b12-92c4-c1eb7c69a594","system_id":"levelo_inurba_marseille","lat":43.30923,"lon":5.40161,"is_reserved":false,"is_disabled":false,"rental_uris":{"android":"levelo://app?vid=24ae0b54-9e9a-4b12-92c4-c1eb7c69a594","ios":"levelo://app?vid=24ae0b54-9e9a-4b12-92c4-c1eb7c69a594"},"vehicle_type_id":"4","last_reported":1742465412,"current_range_meters":14800,"station_id":"ce4bgvp2rcd13ifvqct0","pricing_plan_id":"cebpf4jnsgd1na2vs0mg"},{"bike_id":"6bbc4c3f-1239-4d54-8147-b0d72c94d37b","system_id":"levelo_inurba_marseille","lat":43.24079,"lon":5.37753,"is_reserved":false,"is_disabled":false,"rental_uris":{"android":"levelo://app?vid=6bbc4c3f-1239-4d54-8147-b0d72c94d37b","ios":"levelo://app?vid=6bbc4c3f-1239-4d54-8147-b0d72c94d37b"},"vehicle_type_id":"4","last_reported":1742465412,"current_range_meters":14800,"station_id":"ce4bhnp2rcd13ifvqgvg","pricing_plan_id":"cebpf4jnsgd1na2vs0mg"},