{"last_updated":1726772791,"ttl":30,"version":"2.2","data":{"bikes":[{"bike_id":"dba4fc14-5c7c-41ce-a50c-db892dd09c55","system_id":"levelo_inurba_marseille","lat":43.30886,"lon":5.39652,"is_reserved":false,"is_disabled":false,"rental_uris":{"android":"levelo://app?vid=dba4fc14-5c7c-41ce-a50c-db892dd09c55","ios":"levelo://app?vid=dba4fc14-5c7c-41ce-a50c-db892dd09c55"},"vehicle_type_id":"4","last_reported":1726772791,"current_range_meters":36400,"station_id":"ce4bh012rcd13ifvqcv0","pricing_plan_id":"cebpf4jnsgd1na2vs0mg"},{"bike_id":"461e743b-06c2-49e4-97ae-9f334ad97d5f","system_id":"levelo_inurba_marseille","lat":43.28462,"lon":5.37505,"is_reserved":false,"is_disabled":false,"rental_uris":{"android":"levelo://app?vid=461e743b-06c2-49e4-97ae-9f334ad97d5f","ios":"levelo://app?vid=461e743b-06c2-49e4-97ae-9f334ad97d5f"},"vehicle_type_id":"4","last_reported":1726772791,"current_range_meters":33600,"station_id":"","pricing_plan_id":"cebpf4jnsgd1na2vs0mg"},{"bike_id":"eff80caa-ad27-410f-ae1b-bd64887d6ba2","system_id":"levelo_inurba_marseille","lat":43.27174,"lon":5.40987,"is_reserved":false,"is_disabled":false,"rental_uris":{"android":"levelo://app?vid=eff80caa-ad27-410f-ae1b-bd64887d6ba2","ios":"levelo://app?vid=eff80caa-ad27-410f-ae1b-bd64887d6ba2"},"vehicle_type_id":"4","last_reported":1726772791,"current_range_meters":26800,"station_id":"ce4bhl12rcd13ifvqgf0","pricing_plan_id":"cebpf4jnsgd1na2vs0mg"},{"bike_id":"051a64c7-9af5-4a0c-aa5b-cf724df48b00","system_id":"levelo_inurba_marseille","lat":43.28461,"lon":5.35887,"is_reserved":false,"is_disabled":false,"rental_uris":{"android":"levelo://app?vid=051a64c7-9af5-4a0c-aa5b-cf724df48b00","ios":"levelo://app?vid=051a64c7-9af5-4a0c-aa5b-cf724df48b00"},"vehicle_type_id":"4","last_reported":1726772791,"current_range_meters":10000,"station_id":"ce4bhah2rcd13ifvqei0","pricing_plan_id":"cebpf4jnsgd1na2vs0mg"},{"bike_id":"f42f8c78-cf59-4f75-8477-219681810e1d","system_id":"levelo_inurba_marseille","lat":43.292639,"lon":5.384381,"is_reserved":false,"is_disabled":false,"rental_uris":{"android":"levelo://app?vid=f42f8c78-cf59-4f75-8477-219681810e1d","ios":"levelo://app?vid=f42f8c78-cf59-4f75-8477-219681810e1d"},"vehicle_type_id":"4","last_reported":1726772791,"current_range_meters":4800,"station_id":"ce4bgkh2rcd13ifvqbk0","pricing_plan_id":"cebpf4jnsgd1na2vs0mg"},{"bike_id":"eb67e6e9-00dd-44c7-8445-13c3a76d39d6","system_id":"levelo_inurba_marseille","lat":43.31355,"lon":5.38505,"is_reserved":false,"is_disabled":false,"rental_uris":{"android":"levelo://app?vid=eb67e6e9-00dd-44c7-8445-13c3a76d39d6","ios":"levelo://app?vid=eb67e6e9-00dd-44c7-8445-13c3a76d39d6"},"vehicle_type_id":"4","last_reported":1726772791,"current_range_meters":23200,"station_id":"ce4bgt92rcd13ifvqcf0","pricing_plan_id":"cebpf4jnsgd1na2vs0mg"},{"bike_id":"a5ed4552-d0d2-4d14-bf49-8a55d4e2e324","system_id":"levelo_inurba_marseille","lat":43.30414,"lon":5.41284,"is_reserved":false,"is_disabled":false,"rental_uris":{"android":"levelo://app?vid=a5ed4552-d0d2-4d14-bf49-8a55d4e2e324","ios":"levelo://app?vid=a5ed4552-d0d2-4d14-bf49-8a55d4e2e324"},"vehicle_type_id":"4","last_reported":1726772791,"current_range_meters":34000,"station_id":"ce4bhop2rcd13ifvqh8g","pricing_plan_id":"cebpf4jnsgd1na2vs0mg"},{"bike_id":"e3fcdb64-97ac-4e7b-b412-e7b0581aa20f","system_id":"levelo_inurba_marseille","lat":43.29793,"lon":5.38101,"is_reserved":false,"is_disabled":false,"rental_uris":{"android":"levelo://app?vid=e3fcdb64-97ac-4e7b-b412-e7b0581aa20f","ios":"levelo://app?vid=e3fcdb64-97ac-4e7b-b412-e7b0581aa20f"},"vehicle_type_id":"4","last_reported":1726772791,"current_range_meters":28000,"station_id":"ce4bgip2rcd13ifvqbb0","pricing_plan_id":"cebpf4jnsgd1na2vs0mg"},{"bike_id":"226767f6-07f9-4318-852a-0a54365c2268","system_id":"levelo_inurba_marseille","lat":43.29529,"lon":5.39033,"is_reserved":false,"is_disabled":false,"rental_uris":{"android":"levelo://app?vid=226767f6-07f9-4318-852a-0a54365c2268","ios":"levelo://app?vid=226767f6-07f9-4318-852a-0a54365c2268"},"vehicle_type_id":"4","last_reported":1726772791,"current_range_meters":38000,"station_id":"ce4bh3p2rcd13ifvqdp0","pricing_plan_id":"cebpf4jnsgd1na2vs0mg"},{"bike_id":"e1a9fed6-9a74-43b7-90da-a31ab7628390","system_id":"levelo_inurba_marseille","lat":43.288464,"lon":5.392968,"is_reserved":false,"is_disabled":false,"rental_uris":{"android":"levelo://app?vid=e1a9fed6-9a74-43b7-90da-a31ab7628390","ios":"levelo://app?vid=e1a9fed6-9a74-43b7-90da-a31ab7628390"},"vehicle_type_id":"4","last_reported":1726772791,"current_range_meters":36000,"station_id":"ce4bh2p2rcd13ifvqdi0","pricing_plan_id":"cebpf4jnsgd1na2vs0mg"},{"bike_id":"da859f5b-898d-45f1-b0f2-ed397f95c187","system_id":"levelo_inurba_marseille","lat":43.292725,"lon":5.372762,"is_reserved":false,"is_disabled":false,"rental_uris":{"android":"levelo://app?vid=da859f5b-898d-45f1-b0f2-ed397f95c187","ios":"levelo://app?vid=da859f5b-898d-45f1-b0f2-ed397f95c187"},"vehicle_type_id":"4","last_reported":1726772791,"current_range_meters":31200,"station_id":"ce4bha92rcd13ifvqeh0","pricing_plan_id":"cebpf4jnsgd1na2vs0mg"},{"bike_id":"e532fd53-ad12-4848-82ea-70ac934c1c37","system_id":"levelo_inurba_marseille","lat":43.3375,"lon":5.37446,"is_reserved":false,"is_disabled":false,"rental_uris":{"android":"levelo://app?vid=e532fd53-ad12-4848-82ea-70ac934c1c37","ios":"levelo://app?vid=e532fd53-ad12-4848-82ea-70ac934c1c37"},"vehicle_type_id":"4","last_reported":1726772791,"current_range_meters":36400,"station_id":"","pricing_plan_id":"cebpf4jnsgd1na2vs0mg"},{"bike_id":"884261bd-baf9-4a1a-b722-288b9f294fd8","system_id":"levelo_inurba_marseille","lat":43.276245,"lon":5.361156,"is_reserved":false,"is_disabled":false,"rental_uris":{"android":"levelo://app?vid=884261bd-baf9-4a1a-b722-288b9f294fd8","ios":"levelo://app?vid=884261bd-baf9-4a1a-b722-288b9f294fd8"},"vehicle_type_id":"4","last_reported":1726772791,"current_range_meters":36000,"station_id":"ce4bgj92rcd13ifvqbe0","pricing_plan_id":"cebpf4jnsgd1na2vs0mg"},{"bike_id":"c30d4590-f321-425b-be9b-2aaffc6f166b","system_id":"levelo_inurba_marseille","lat":43.29175,"lon":5.37149,"is_reserved":false,"is_disabled":false,"rental_uris":{"android":"levelo://app?vid=c30d4590-f321-425b-be9b-2aaffc6f166b","ios":"levelo://app?vid=c30d4590-f321-425b-be9b-2aaffc6f166b"},"vehicle_type_id":"4","last_reported":1726772791,"current_range_meters":38800,"station_id":"ce4bha92rcd13ifvqeh0","pricing_plan_id":"cebpf4jnsgd1na2vs0mg"},{"bike_id":"8ceaecc8-718f-4488-8932-de6cb7c7ec9e","system_id":"levelo_inurba_marseille","lat":43.26809,"lon":5.40265,"is_reserved":false,"is_disabled":false,"rental_uris":{"android":"levelo://app?vid=8ceaecc8-718f-4488-8932-de6cb7c7ec9e","ios":"levelo://app?vid=8ceaecc8-718f-4488-8932-de6cb7c7ec9e"},"vehicle_type_id":"4","last_reported":1726772791,"current_range_meters":38800,"station_id":"ce501612rcd8frsf0b60","pricing_plan_id":"cebpf4jnsgd1na2vs0mg"},{"bike_id":"80490428-4cf9-4e64-9c06-c69737938659","system_id":"levelo_inurba_marseille","lat":43.28669,"lon":5.36366,"is_reserved":false,"is_disabled":false,"rental_uris":{"android":"levelo://app?vid=80490428-4cf9-4e64-9c06-c69737938659","ios":"levelo://app?vid=80490428-4cf9-4e64-9c06-c69737938659"},"vehicle_type_id":"4","last_reported":1726772791,"current_range_meters":6800,"station_id":"ce4bhah2rcd13ifvqej0","pricing_plan_id":"cebpf4jnsgd1na2vs0mg"},{"bike_id":"4003ddb6-27b9-4ca7-a1c8-fd627e4df448","system_id":"levelo_inurba_marseille","lat":43.307648,"lon":5.376608,"is_reserved":false,"is_disabled":false,"rental_uris":{"android":"levelo://app?vid=4003ddb6-27b9-4ca7-a1c8-fd627e4df448","ios":"levelo://app?vid=4003ddb6-27b9-4ca7-a1c8-fd627e4df448"},"vehicle_type_id":"4","last_reported":1726772791,"current_range_meters":31200,"station_id":"ce4bgv92rcd13ifvqcq0","pricing_plan_id":"cebpf4jnsgd1na2vs0mg"},{"bike_id":"eba669c2-dbe1-4f32-b6c5-931f9639d8d0","system_id":"levelo_inurba_marseille","lat":43.29945,"lon":5.38487,"is_reserved":false,"is_disabled":false,"rental_uris":{"android":"levelo://app?vid=eba669c2-dbe1-4f32-b6c5-931f9639d8d0","ios":"levelo://app?vid=eba669c2-dbe1-4f32-b6c5-931f9639d8d0"},"vehicle_type_id":"4","last_reported":1726772791,"current_range_meters":9200,"station_id":"ce4bgj92rcd13ifvqbd0","pricing_plan_id":"cebpf4jnsgd1na2vs0mg"},{"bike_id":"f9898cab-cb36-4e00-83b8-7f729aaf5652","system_id":"levelo_inurba_marseille","lat":43.32655,"lon":5.41001,"is_reserved":false,"is_disabled":false,"rental_uris":{"android":"levelo://app?vid=f9898cab-cb36-4e00-83b8-7f729aaf5652","ios":"levelo://app?vid=f9898cab-cb36-4e00-83b8-7f729aaf5652"},"vehicle_type_id":"4","last_reported":1726772791,"current_range_meters":38800,"station_id":"ce4bhpp2rcd13ifvqhgg","pricing_plan_id":"cebpf4jnsgd1na2vs0mg"},{"bike_id":"a17f5ffc-f55c-4584-bc7a-fa848bff16e2","system_id":"levelo_inurba_marseille","lat":43.29321,"lon":5.37452,"is_reserved":false,"is_disabled":false,"rental_uris":{"android":"levelo://app?vid=a17f5ffc-f55c-4584-bc7a-fa848bff16e2","ios":"levelo://app?vid=a17f5ffc-f55c-4584-bc7a-fa848bff16e2"},"vehicle_type_id":"4","last_reported":1726772791,"current_range_meters":38800,"station_id":"ce4bgi12rcd13ifvqb70","pricing_plan_id":"cebpf4jnsgd1na2vs0mg"},{"bike_id":"ed73572c-d473-48f9-8df9-10172947b181","system_id":"levelo_inurba_marseille","lat":43.27669,"lon":5.38907,"is_reserved":false,"is_disabled":false,"rental_uris":{"android":"levelo://app?vid=ed73572c-d473-48f9-8df9-10172947b181","ios":"levelo://app?vid=ed73572c-d473-48f9-8df9-10172947b181"},"vehicle_type_id":"4","last_reported":1726772791,"current_range_meters":16400,"station_id":"ce4bhi12rcd13ifvqfo0","pricing_plan_id":"cebpf4jnsgd1na2vs0mg"},{"bike_id":"358d45d8-4bcc-4c6b-8498-0598e66b4552","system_id":"levelo_inurba_marseille","lat":43.295288,"lon":5.385512,"is_reserved":false,"is_disabled":false,"rental_uris":{"android":"levelo://app?vid=358d45d8-4bcc-4c6b-8498-0598e66b4552","ios":"levelo://app?vid=358d45d8-4bcc-4c6b-8498-0598e66b4552"},"vehicle_type_id":"4","last_reported":1726772791,"current_range_meters":4400,"station_id":"ce4bgih2rcd13ifvqba0","pricing_plan_id":"cebpf4jnsgd1na2vs0mg"},{"bike_id":"e1e9539c-0c82-4ec1-9303-54251e81fca1","system_id":"levelo_inurba_marseille","lat":43.28713,"lon":5.37942,"is_reserved":false,"is_disabled":false,"rental_uris":{"android":"levelo://app?vid=e1e9539c-0c82-4ec1-9303-54251e81fca1","ios":"levelo://app?vid=e1e9539c-0c82-4ec1-9303-54251e81fca1"},"vehicle_type_id":"4","last_reported":1726772791,"current_range_meters":18000,"station_id":"ce4bh9p2rcd13ifvqec0","pricing_plan_id":"cebpf4jnsgd1na2vs0mg"},{"bike_id":"dc59c3b5-2484-4472-b269-239c5d51bc87","system_id":"levelo_inurba_marseille","lat":43.29415,"lon":5.38619,"is_reserved":false,"is_disabled":false,"rental_uris":{"android":"levelo://app?vid=dc59c3b5-2484-4472-b269-239c5d51bc87","ios":"levelo://app?vid=dc59c3b5-2484-4472-b269-239c5d51bc87"},"vehicle_type_id":"4","last_reported":1726772791,"current_range_meters":32800,"station_id":"ce4bh2h2rcd13ifvqdh0","pricing_plan_id":"cebpf4jnsgd1na2vs0mg"},{"bike_id":"2ec27a1b-7906-43e6-9e61-57843ca0301c","system_id":"levelo_inurba_marseille","lat":43.266785,"lon":5.382748,"is_reserved":false,"is_disabled":false,"rental_uris":{"android":"levelo://app?vid=2ec27a1b-7906-43e6-9e61-57843ca0301c","ios":"levelo://app?vid=2ec27a1b-7906-43e6-9e61-57843ca0301c"},"vehicle_type_id":"4","last_reported":1726772791,"current_range_meters":36800,"station_id":"ce4bh512rcd13ifvqe3g","pricing_plan_id":"cebpf4jnsgd1na2vs0mg"},{"bike_id":"0e6d9370-8da4-4f23-a42e-d76f6f525ae5","system_id":"levelo_inurba_marseille","lat":43.28854,"lon":5.3586,"is_reserved":false,"is_disabled":false,"rental_uris":{"android":"levelo://app?vid=0e6d9370-8da4-4f23-a42e-d76f6f525ae5","ios":"levelo://app?vid=0e6d9370-8da4-4f23-a42e-d76f6f525ae5"},"vehicle_type_id":"4","last_reported":1726772791,"current_range_meters":39200,"station_id":"ce4bhb12rcd13ifvqem0","pricing_plan_id":"cebpf4jnsgd1na2vs0mg"},{"bike_id":"1d669fcc-1fdc-4a47-bb39-513baf72b3d8","system_id":"levelo_inurba_marseille","lat":43.28103,"lon":5.37843,"is_reserved":false,"is_disabled":false,"rental_uris":{"android":"levelo://app?vid=1d669fcc-1fdc-4a47-bb39-513baf72b3d8","ios":"levelo://app?vid=1d669fcc-1fdc-4a47-bb39-513baf72b3d8"},"vehicle_type_id":"4","last_reported":1726772791,"current_range_meters":11200,"station_id":"ce4bha12rcd13ifvqee0","pricing_plan_id":"cebpf4jnsgd1na2vs0mg"},{"bike_id":"06eef320-c2b1-42ca-bda3-e896022e4f06","system_id":"levelo_inurba_marseille","lat":43.27072,"lon":5.42284,"is_reserved":false,"is_disabled":false,"rental_uris":{"android":"levelo://app?vid=06eef320-c2b1-42ca-bda3-e896022e4f06","ios":"levelo://app?vid=06eef320-c2b1-42ca-bda3-e896022e4f06"},"vehicle_type_id":"4","last_reported":1726772791,"current_range_meters":17600,"station_id":"ce4bhk92rcd13ifvqgb0","pricing_plan_id":"cebpf4jnsgd1na2vs0mg"},{"bike_id":"f8cc1cf2-da9d-4310-a640-f705ada80de1","system_id":"levelo_inurba_marseille","lat":43.29196,"lon":5.39312,"is_reserved":false,"is_disabled":false,"rental_uris":{"android":"levelo://app?vid=f8cc1cf2-da9d-4310-a640-f705ada80de1","ios":"levelo://app?vid=f8cc1cf2-da9d-4310-a640-f705ada80de1"},"vehicle_type_id":"4","last_reported":1726772791,"current_range_meters":16000,"station_id":"ce4bh192rcd13ifvqdd0","pricing_plan_id":"cebpf4jnsgd1na2vs0mg"},{"bike_id":"78c4ab59-d3e7-41d3-ad00-67e128709221","system_id":"levelo_inurba_marseille","lat":43.29695,"lon":5.37291,"is_reserved":false,"is_disabled":false,"rental_uris":{"android":"levelo://app?vid=78c4ab59-d3e7-41d3-ad00-67e128709221","ios":"levelo://app?vid=78c4ab59-d3e7-41d3-ad00-67e128709221"},"vehicle_type_id":"4","last_reported":1726772791,"current_range_meters":12000,"station_id":"ce4bgk12rcd13ifvqbj0","pricing_plan_id":"cebpf4jnsgd1na2vs0mg"},{"bike_id":"a244c4d4-d575-48e3-94b5-f5a8645dec63","system_id":"levelo_inurba_marseille","lat":43.31176,"lon":5.38722,"is_reserved":false,"is_disabled":false,"rental_uris":{"android":"levelo://app?vid=a244c4d4-d575-48e3-94b5-f5a8645dec63","ios":"levelo://app?vid=a244c4d4-d575-48e3-94b5-f5a8645dec63"},"vehicle_type_id":"4","last_reported":1726772791,"current_range_meters":38800,"station_id":"ce4bgv12rcd13ifvqcp0","pricing_plan_id":"cebpf4jnsgd1na2vs0mg"},{"bike_id":"3ddc290e-5a67-453f-a356-251b8cb031fe","system_id":"levelo_inurba_marseille","lat":43.3248,"lon":5.36574,"is_reserved":false,"is_disabled":false,"rental_uris":{"android":"levelo://app?vid=3ddc290e-5a67-453f-a356-251b8cb031fe","ios":"levelo://app?vid=3ddc290e-5a67-453f-a356-251b8cb031fe"},"vehicle_type_id":"4","last_reported":1726772791,"current_range_meters":4000,"station_id":"ce4bhs12rcd13ifvqhvg","pricing_plan_id":"cebpf4jnsgd1na2vs0mg"},{"bike_id":"1bcdb92b-8824-41cd-b6cf-d0ee92f5a1da","system_id":"levelo_inurba_marseille","lat":43.28035,"lon":5.3695,"is_reserved":false,"is_disabled":false,"rental_uris":{"android":"levelo://app?vid=1bcdb92b-8824-41cd-b6cf-d0ee92f5a1da","ios":"levelo://app?vid=1bcdb92b-8824-41cd-b6cf-d0ee92f5a1da"},"vehicle_type_id":"4","last_reported":1726772791,"current_range_meters":18000,"station_id":"ce4bha12rcd13ifvqef0","pricing_plan_id":"cebpf4jnsgd1na2vs0mg"},{"bike_id":"04394a73-34a5-4d88-bac1-80c0695aafe5","system_id":"levelo_inurba_marseille","lat":43.337444,"lon":5.374475,"is_reserved":false,"is_disabled":false,"rental_uris":{"android":"levelo://app?vid=04394a73-34a5-4d88-bac1-80c0695aafe5","ios":"levelo://app?vid=04394a73-34a5-4d88-bac1-80c0695aafe5"},"vehicle_type_id":"4","last_reported":1726772791,"current_range_meters":23200,"station_id":"","pricing_plan_id":"cebpf4jnsgd1na2vs0mg"},{"bike_id":"2bb3e148-93ab-445e-859b-72db66b984ff","system_id":"levelo_inurba_marseille","lat":43.29509,"lon":5.3905,"is_reserved":false,"is_disabled":false,"rental_uris":{"android":"levelo://app?vid=2bb3e148-93ab-445e-859b-72db66b984ff","ios":"levelo://app?vid=2bb3e148-93ab-445e-859b-72db66b984ff"},"vehicle_type_id":"4","last_reported":1726772791,"current_range_meters":21600,"station_id":"ce4bh3p2rcd13ifvqdp0","pricing_plan_id":"cebpf4jnsgd1na2vs0mg"},{"bike_id":"036ab25f-0c34-4c45-8e88-1fc9200da6fd","system_id":"levelo_inurba_marseille","lat":43.27193,"lon":5.427,"is_reserved":false,"is_disabled":false,"rental_uris":{"android":"levelo://app?vid=036ab25f-0c34-4c45-8e88-1fc9200da6fd","ios":"levelo://app?vid=036ab25f-0c34-4c45-8e88-1fc9200da6fd"},"vehicle_type_id":"4","last_reported":1726772791,"current_range_meters":28800,"station_id":"","pricing_plan_id":"cebpf4jnsgd1na2vs0mg"},{"bike_id":"40e5b403-5590-4098-a474-822a4163b2a7","system_id":"levelo_inurba_marseille","lat":43.24082,"lon":5.3775,"is_reserved":false,"is_disabled":false,"rental_uris":{"android":"levelo://app?vid=40e5b403-5590-4098-a474-822a4163b2a7","ios":"levelo://app?vid=40e5b403-5590-4098-a474-822a4163b2a7"},"vehicle_type_id":"4","last_reported":1726772791,"current_range_meters":27600,"station_id":"ce4bhnp2rcd13ifvqgvg","pricing_plan_id":"cebpf4jnsgd1na2vs0mg"},{"bike_id":"298ac1dc-024a-45f9-bee5-67e6e0d001f8","system_id":"levelo_inurba_marseille","lat":43.32287,"lon":5.38272,"is_reserved":false,"is_disabled":false,"rental_uris":{"android":"levelo://app?vid=298ac1dc-024a-45f9-bee5-67e6e0d001f8","ios":"levelo://app?vid=298ac1dc-024a-45f9-bee5-67e6e0d001f8"},"vehicle_type_id":"4","last_reported":1726772791,"current_range_meters":31200,"station_id":"ce4bhr12rcd13ifvqhqg","pricing_plan_id":"cebpf4jnsgd1na2vs0mg"},{"bike_id":"49c09012-1a34-4e5d-b36b-adc053935f57","system_id":"levelo_inurba_marseille","lat":43.29246,"lon":5.38446,"is_reserved":false,"is_disabled":false,"rental_uris":{"android":"levelo://app?vid=49c09012-1a34-4e5d-b36b-adc053935f57","ios":"levelo://app?vid=49c09012-1a34-4e5d-b36b-adc053935f57"},"vehicle_type_id":"4","last_reported":1726772791,"current_range_meters":22000,"station_id":"ce4bh692rcd13ifvqea0","pricing_plan_id":"cebpf4jnsgd1na2vs0mg"},{"bike_id":"fbcdb72d-e4ed-41ae-8b58-a86e1d74589c","system_id":"levelo_inurba_marseille","lat":43.27206,"lon":5.39201,"is_reserved":false,"is_disabled":false,"rental_uris":{"android":"levelo://app?vid=fbcdb72d-e4ed-41ae-8b58-a86e1d74589c","ios":"levelo://app?vid=fbcdb72d-e4ed-41ae-8b58-a86e1d74589c"},"vehicle_type_id":"4","last_reported":1726772791,"current_range_meters":37600,"station_id":"ce4bhhp2rcd13ifvqfm0","pricing_plan_id":"cebpf4jnsgd1na2vs0mg"},{"bike_id":"f385b4a6-31cf-416b-83d1-919567483ec0","system_id":"levelo_inurba_marseille","lat":43.295816,"lon":5.399623,"is_reserved":false,"is_disabled":false,"rental_uris":{"android":"levelo://app?vid=f385b4a6-31cf-416b-83d1-919567483ec0","ios":"levelo://app?vid=f385b4a6-31cf-416b-83d1-919567483ec0"},"vehicle_type_id":"4","last_reported":1726772791,"current_range_meters":36000,"station_id":"ce4bh312rcd13ifvqdj0","pricing_plan_id":"cebpf4jnsgd1na2vs0mg"},{"bike_id":"9c1a06c7-7ac8-4c29-8cae-f827bf9287a1","system_id":"levelo_inurba_marseille","lat":43.262041,"lon":5.379285,"is_reserved":false,"is_disabled":false,"rental_uris":{"android":"levelo://app?vid=9c1a06c7-7ac8-4c29-8cae-f827bf9287a1","ios":"levelo://app?vid=9c1a06c7-7ac8-4c29-8cae-f827bf9287a1"},"vehicle_type_id":"4","last_reported":1726772791,"current_range_meters":15200,"station_id":"ce4bhjp2rcd13ifvqg90","pricing_plan_id":"cebpf4jnsgd1na2vs0mg"},{"bike_id":"bee29bcb-5d53-4d22-b37e-20d7bd4525ff","system_id":"levelo_inurba_marseille","lat":43.30952,"lon":5.39043,"is_reserved":false,"is_disabled":false,"rental_uris":{"android":"levelo://app?vid=bee29bcb-5d53-4d22-b37e-20d7bd4525ff","ios":"levelo://app?vid=bee29bcb-5d53-4d22-b37e-20d7bd4525ff"},"vehicle_type_id":"4","last_reported":1726772791,"current_range_meters":38800,"station_id":"ce4bgup2rcd13ifvqco0","pricing_plan_id":"cebpf4jnsgd1na2vs0mg"},{"bike_id":"33065ea5-4482-48ea-97a8-c913fa094e14","system_id":"levelo_inurba_marseille","lat":43.31356,"lon":5.38499,"is_reserved":false,"is_disabled":false,"rental_uris":{"android":"levelo://app?vid=33065ea5-4482-48ea-97a8-c913fa094e14","ios":"levelo://app?vid=33065ea5-4482-48ea-97a8-c913fa094e14"},"vehicle_type_id":"4","last_reported":1726772791,"current_range_meters":32800,"station_id":"ce4bgt92rcd13ifvqcf0","pricing_plan_id":"cebpf4jnsgd1na2vs0mg"},{"bike_id":"7c9b18c3-8c9e-405d-991f-fca3c7f2c08e","system_id":"levelo_inurba_marseille","lat":43.2952,"lon":5.394291,"is_reserved":false,"is_disabled":false,"rental_uris":{"android":"levelo://app?vid=7c9b18c3-8c9e-405d-991f-fca3c7f2c08e","ios":"levelo://app?vid=7c9b18c3-8c9e-405d-991f-fca3c7f2c08e"},"vehicle_type_id":"4","last_reported":1726772791,"current_range_meters":34800,"station_id":"ce4bh292rcd13ifvqdf0","pricing_plan_id":"cebpf4jnsgd1na2vs0mg"},{"bike_id":"4e78cba5-c430-4a63-99ce-85df2a0cf3fd","system_id":"levelo_inurba_marseille","lat":43.27173,"lon":5.40992,"is_reserved":false,"is_disabled":false,"rental_uris":{"android":"levelo://app?vid=4e78cba5-c430-4a63-99ce-85df2a0cf3fd","ios":"levelo://app?vid=4e78cba5-c430-4a63-99ce-85df2a0cf3fd"},"vehicle_type_id":"4","last_reported":1726772791,"current_range_meters":38800,"station_id":"ce4bhl12rcd13ifvqgf0","pricing_plan_id":"cebpf4jnsgd1na2vs0mg"},{"bike_id":"93642131-a3d4-4b2e-9109-830ac043c670","system_id":"levelo_inurba_marseille","lat":43.296143,"lon":5.377297,"is_reserved":false,"is_disabled":false,"rental_uris":{"android":"levelo://app?vid=93642131-a3d4-4b2e-9109-830ac043c670","ios":"levelo://app?vid=93642131-a3d4-4b2e-9109-830ac043c670"},"vehicle_type_id":"4","last_reported":1726772791,"current_range_meters":24000,"station_id":"ce4bgi92rcd13ifvqb90","pricing_plan_id":"cebpf4jnsgd1na2vs0mg"},{"bike_id":"18265e8a-6b30-46bc-b1ba-c84856091400","system_id":"levelo_inurba_marseille","lat":43.28393,"lon":5.37527,"is_reserved":false,"is_disabled":false,"rental_uris":{"android":"levelo://app?vid=18265e8a-6b30-46bc-b1ba-c84856091400","ios":"levelo://app?vid=18265e8a-6b30-46bc-b1ba-c84856091400"},"vehicle_type_id":"4","last_reported":1726772791,"current_range_meters":35200,"station_id":"ce4bh412rcd13ifvqds0","pricing_plan_id":"cebpf4jnsgd1na2vs0mg"},{"bike_id":"1aa61e07-4a93-48ce-a193-7b24be190d60","system_id":"levelo_inurba_marseille","lat":43.27825,"lon":5.39211,"is_reserved":false,"is_disabled":false,"rental_uris":{"android":"levelo://app?vid=1aa61e07-4a93-48ce-a193-7b24be190d60","ios":"levelo://app?vid=1aa61e07-4a93-48ce-a193-7b24be190d60"},"vehicle_type_id":"4","last_reported":1726772791,"current_range_meters":8000,"station_id":"ce4bhjp2rcd13ifvqga0","pricing_plan_id":"cebpf4jnsgd1na2vs0mg"},{"bike_id":"53bae7c5-1b34-45d2-b215-b1b48b8d9579","system_id":"levelo_inurba_marseille","lat":43.29252,"lon":5.38454,"is_reserved":false,"is_disabled":false,"rental_uris":{"android":"levelo://app?vid=53bae7c5-1b34-45d2-b215-b1b48b8d9579","ios":"levelo://app?vid=53bae7c5-1b34-45d2-b215-b1b48b8d9579"},"vehicle_type_id":"4","last_reported":1726772791,"current_range_meters":30400,"station_id":"ce4bh692rcd13ifvqea0","pricing_plan_id":"cebpf4jnsgd1na2vs0mg"},{"bike_id":"d8620d82-55f2-43bd-9333-953bfa3c0e7f","system_id":"levelo_inurba_marseille","lat":43.293017,"lon":5.374586,"is_reserved":false,"is_disabled":false,"rental_uris":{"android":"levelo://app?vid=d8620d82-55f2-43bd-9333-953bfa3c0e7f","ios":"levelo://app?vid=d8620d82-55f2-43bd-9333-953bfa3c0e7f"},"vehicle_type_id":"4","last_reported":1726772791,"current_range_meters":23200,"station_id":"ce4bgi12rcd13ifvqb70","pricing_plan_id":"cebpf4jnsgd1na2vs0mg"},{"bike_id":"79f9170f-8de8-4fbe-9051-45aa1ac080c3","system_id":"levelo_inurba_marseille","lat":43.29452,"lon":5.39726,"is_reserved":false,"is_disabled":false,"rental_uris":{"android":"levelo://app?vid=79f9170f-8de8-4fbe-9051-45aa1ac080c3","ios":"levelo://app?vid=79f9170f-8de8-4fbe-9051-45aa1ac080c3"},"vehicle_type_id":"4","last_reported":1726772791,"current_range_meters":29600,"station_id":"ce4bh3h2rcd13ifvqdo0","pricing_plan_id":"cebpf4jnsgd1na2vs0mg"},{"bike_id":"d7eda0b8-49ac-451b-85a8-3ff13d8bcc35","system_id":"levelo_inurba_marseille","lat":43.29897,"lon":5.43663,"is_reserved":false,"is_disabled":false,"rental_uris":{"android":"levelo://app?vid=d7eda0b8-49ac-451b-85a8-3ff13d8bcc35","ios":"levelo://app?vid=d7eda0b8-49ac-451b-85a8-3ff13d8bcc35"},"vehicle_type_id":"4","last_reported":1726772791,"current_range_meters":11600,"station_id":"ce4bhpp2rcd13ifvqhfg","pricing_plan_id":"cebpf4jnsgd1na2vs0mg"},{"bike_id":"e96cd465-d7a5-419a-a269-0ee462c1d892","system_id":"levelo_inurba_marseille","lat":43.28668,"lon":5.36354,"is_reserved":false,"is_disabled":false,"rental_uris":{"android":"levelo://app?vid=e96cd465-d7a5-419a-a269-0ee462c1d892","ios":"levelo://app?vid=e96cd465-d7a5-419a-a269-0ee462c1d892"},"vehicle_type_id":"4","last_reported":1726772791,"current_range_meters":4800,"station_id":"ce4bhah2rcd13ifvqej0","pricing_plan_id":"cebpf4jnsgd1na2vs0mg"},{"bike_id":"c42d6b2f-7847-4248-848b-a4c3edc602d9","system_id":"levelo_inurba_marseille","lat":43.31994,"lon":5.38163,"is_reserved":false,"is_disabled":false,"rental_uris":{"android":"levelo://app?vid=c42d6b2f-7847-4248-848b-a4c3edc602d9","ios":"levelo://app?vid=c42d6b2f-7847-4248-848b-a4c3edc602d9"},"vehicle_type_id":"4","last_reported":1726772791,"current_range_meters":12000,"station_id":"ce4bhr12rcd13ifvqhpg","pricing_plan_id":"cebpf4jnsgd1na2vs0mg"},{"bike_id":"7efe107e-86e4-4fba-83a9-6ffe2afd3a54","system_id":"levelo_inurba_marseille","lat":43.29535,"lon":5.38551,"is_reserved":false,"is_disabled":false,"rental_uris":{"android":"levelo://app?vid=7efe107e-86e4-4fba-83a9-6ffe2afd3a54","ios":"levelo://app?vid=7efe107e-86e4-4fba-83a9-6ffe2afd3a54"},"vehicle_type_id":"4","last_reported":1726772791,"current_range_meters":27200,"station_id":"ce4bgih2rcd13ifvqba0","pricing_plan_id":"cebpf4jnsgd1na2vs0mg"},{"bike_id":"3f84e45e-eda6-4453-8c51-79d05df784f5","system_id":"levelo_inurba_marseille","lat":43.31756,"lon":5.39016,"is_reserved":false,"is_disabled":false,"rental_uris":{"android":"levelo://app?vid=3f84e45e-eda6-4453-8c51-79d05df784f5","ios":"levelo://app?vid=3f84e45e-eda6-4453-8c51-79d05df784f5"},"vehicle_type_id":"4","last_reported":1726772791,"current_range_meters":30000,"station_id":"ce4bhqp2rcd13ifvqhng","pricing_plan_id":"cebpf4jnsgd1na2vs0mg"},{"bike_id":"1d4dce81-26c9-4e90-9512-73a77179f3d4","system_id":"levelo_inurba_marseille","lat":43.23182,"lon":5.39985,"is_reserved":false,"is_disabled":false,"rental_uris":{"android":"levelo://app?vid=1d4dce81-26c9-4e90-9512-73a77179f3d4","ios":"levelo://app?vid=1d4dce81-26c9-4e90-9512-73a77179f3d4"},"vehicle_type_id":"4","last_reported":1726772791,"current_range_meters":10000,"station_id":"ce4bhn12rcd13ifvqgqg","pricing_plan_id":"cebpf4jnsgd1na2vs0mg"},{"bike_id":"43356356-1ebf-41d4-a9de-4fa2973940ef","system_id":"levelo_inurba_marseille","lat":43.29963,"lon":5.41329,"is_reserved":false,"is_disabled":false,"rental_uris":{"android":"levelo://app?vid=43356356-1ebf-41d4-a9de-4fa2973940ef","ios":"levelo://app?vid=43356356-1ebf-41d4-a9de-4fa2973940ef"},"vehicle_type_id":"4","last_reported":1726772791,"current_range_meters":36000,"station_id":"ce4bhp12rcd13ifvqh9g","pricing_plan_id":"cebpf4jnsgd1na2vs0mg"},{"bike_id":"d783d3ab-f446-431a-9764-5a6477f0ac4f","system_id":"levelo_inurba_marseille","lat":43.24663,"lon":5.38161,"is_reserved":false,"is_disabled":false,"rental_uris":{"android":"levelo://app?vid=d783d3ab-f446-431a-9764-5a6477f0ac4f","ios":"levelo://app?vid=d783d3ab-f446-431a-9764-5a6477f0ac4f"},"vehicle_type_id":"4","last_reported":1726772791,"current_range_meters":28000,"station_id":"ce4bhih2rcd13ifvqfr0","pricing_plan_id":"cebpf4jnsgd1na2vs0mg"},{"bike_id":"80737b3b-6508-42e9-b9a9-fec40a248ffe","system_id":"levelo_inurba_marseille","lat":43.2846,"lon":5.35881,"is_reserved":false,"is_disabled":false,"rental_uris":{"android":"levelo://app?vid=80737b3b-6508-42e9-b9a9-fec40a248ffe","ios":"levelo://app?vid=80737b3b-6508-42e9-b9a9-fec40a248ffe"},"vehicle_type_id":"4","last_reported":1726772791,"current_range_meters":38800,"station_id":"ce4bhah2rcd13ifvqei0","pricing_plan_id":"cebpf4jnsgd1na2vs0mg"},{"bike_id":"586337a7-ea44-4a0c-a2e4-774a4f46c373","system_id":"levelo_inurba_marseille","lat":43.31326,"lon":5.39694,"is_reserved":false,"is_disabled":false,"rental_uris":{"android":"levelo://app?vid=586337a7-ea44-4a0c-a2e4-774a4f46c373","ios":"levelo://app?vid=586337a7-ea44-4a0c-a2e4-774a4f46c373"},"vehicle_type_id":"4","last_reported":1726772791,"current_range_meters":28400,"station_id":"ce4bgvp2rcd13ifvqcu0","pricing_plan_id":"cebpf4jnsgd1na2vs0mg"},{"bike_id":"f91d86b2-456a-48aa-bac9-b4717c616eb8","system_id":"levelo_inurba_marseille","lat":43.25724,"lon":5.4111,"is_reserved":false,"is_disabled":false,"rental_uris":{"android":"levelo://app?vid=f91d86b2-456a-48aa-bac9-b4717c616eb8","ios":"levelo://app?vid=f91d86b2-456a-48aa-bac9-b4717c616eb8"},"vehicle_type_id":"4","last_reported":1726772791,"current_range_meters":8800,"station_id":"ce4bhkp2rcd13ifvqgd0","pricing_plan_id":"cebpf4jnsgd1na2vs0mg"},{"bike_id":"f689521a-328c-4627-83e8-a25c4f32e99b","system_id":"levelo_inurba_marseille","lat":43.2319,"lon":5.35563,"is_reserved":false,"is_disabled":false,"rental_uris":{"android":"levelo://app?vid=f689521a-328c-4627-83e8-a25c4f32e99b","ios":"levelo://app?vid=f689521a-328c-4627-83e8-a25c4f32e99b"},"vehicle_type_id":"4","last_reported":1726772791,"current_range_meters":29600,"station_id":"ce4bhu92rcd13ifvqi70","pricing_plan_id":"cebpf4jnsgd1na2vs0mg"},{"bike_id":"4c9dad28-bab3-4c54-867f-101b77a30cda","system_id":"levelo_inurba_marseille","lat":43.28451,"lon":5.35892,"is_reserved":false,"is_disabled":false,"rental_uris":{"android":"levelo://app?vid=4c9dad28-bab3-4c54-867f-101b77a30cda","ios":"levelo://app?vid=4c9dad28-bab3-4c54-867f-101b77a30cda"},"vehicle_type_id":"4","last_reported":1726772791,"current_range_meters":28800,"station_id":"ce4bhah2rcd13ifvqei0","pricing_plan_id":"cebpf4jnsgd1na2vs0mg"},{"bike_id":"3f83789d-3dd0-43cc-a9bb-a5b70cdc879e","system_id":"levelo_inurba_marseille","lat":43.28694,"lon":5.374,"is_reserved":false,"is_disabled":false,"rental_uris":{"android":"levelo://app?vid=3f83789d-3dd0-43cc-a9bb-a5b70cdc879e","ios":"levelo://app?vid=3f83789d-3dd0-43cc-a9bb-a5b70cdc879e"},"vehicle_type_id":"4","last_reported":1726772791,"current_range_meters":40000,"station_id":"ce4bh3p2rcd13ifvqdq0","pricing_plan_id":"cebpf4jnsgd1na2vs0mg"},{"bike_id":"8b52ab57-179c-4a72-8284-951453e82027","system_id":"levelo_inurba_marseille","lat":43.29035,"lon":5.38648,"is_reserved":false,"is_disabled":false,"rental_uris":{"android":"levelo://app?vid=8b52ab57-179c-4a72-8284-951453e82027","ios":"levelo://app?vid=8b52ab57-179c-4a72-8284-951453e82027"},"vehicle_type_id":"4","last_reported":1726772791,"current_range_meters":16400,"station_id":"ce4bh4p2rcd13ifvqe0g","pricing_plan_id":"cebpf4jnsgd1na2vs0mg"},{"bike_id":"ab180979-2163-43d0-b267-33004b099031","system_id":"levelo_inurba_marseille","lat":43.28412,"lon":5.3752,"is_reserved":false,"is_disabled":false,"rental_uris":{"android":"levelo://app?vid=ab180979-2163-43d0-b267-33004b099031","ios":"levelo://app?vid=ab180979-2163-43d0-b267-33004b099031"},"vehicle_type_id":"4","last_reported":1726772791,"current_range_meters":31200,"station_id":"ce4bh412rcd13ifvqds0","pricing_plan_id":"cebpf4jnsgd1na2vs0mg"},{"bike_id":"621a5c5f-9218-4d64-b2fe-ffcb395bffb6","system_id":"levelo_inurba_marseille","lat":43.299316,"lon":5.36555,"is_reserved":false,"is_disabled":false,"rental_uris":{"android":"levelo://app?vid=621a5c5f-9218-4d64-b2fe-ffcb395bffb6","ios":"levelo://app?vid=621a5c5f-9218-4d64-b2fe-ffcb395bffb6"},"vehicle_type_id":"4","last_reported":1726772791,"current_range_meters":18800,"station_id":"ce4bgm92rcd13ifvqbr0","pricing_plan_id":"cebpf4jnsgd1na2vs0mg"},{"bike_id":"89ff3b64-8a6d-4f5e-8e80-0f22ced6587c","system_id":"levelo_inurba_marseille","lat":43.31482,"lon":5.37319,"is_reserved":false,"is_disabled":false,"rental_uris":{"android":"levelo://app?vid=89ff3b64-8a6d-4f5e-8e80-0f22ced6587c","ios":"levelo://app?vid=89ff3b64-8a6d-4f5e-8e80-0f22ced6587c"},"vehicle_type_id":"4","last_reported":1726772791,"current_range_meters":34800,"station_id":"ce4bgt12rcd13ifvqcd0","pricing_plan_id":"cebpf4jnsgd1na2vs0mg"},{"bike_id":"d5c96f52-2358-4618-8613-689318873498","system_id":"levelo_inurba_marseille","lat":43.29534,"lon":5.39409,"is_reserved":false,"is_disabled":false,"rental_uris":{"android":"levelo://app?vid=d5c96f52-2358-4618-8613-689318873498","ios":"levelo://app?vid=d5c96f52-2358-4618-8613-689318873498"},"vehicle_type_id":"4","last_reported":1726772791,"current_range_meters":10000,"station_id":"ce4bh292rcd13ifvqdf0","pricing_plan_id":"cebpf4jnsgd1na2vs0mg"},{"bike_id":"0c3283fe-a4f9-4b2d-943b-044a31ac7f22","system_id":"levelo_inurba_marseille","lat":43.30259,"lon":5.37739,"is_reserved":false,"is_disabled":false,"rental_uris":{"android":"levelo://app?vid=0c3283fe-a4f9-4b2d-943b-044a31ac7f22","ios":"levelo://app?vid=0c3283fe-a4f9-4b2d-943b-044a31ac7f22"},"vehicle_type_id":"4","last_reported":1726772791,"current_range_meters":32800,"station_id":"ce4bguh2rcd13ifvqcj0","pricing_plan_id":"cebpf4jnsgd1na2vs0mg"},{"bike_id":"6308c6fe-4eaa-4c80-b0fc-418fbf8df48c","system_id":"levelo_inurba_marseille","lat":43.297882,"lon":5.393394,"is_reserved":false,"is_disabled":false,"rental_uris":{"android":"levelo://app?vid=6308c6fe-4eaa-4c80-b0fc-418fbf8df48c","ios":"levelo://app?vid=6308c6fe-4eaa-4c80-b0fc-418fbf8df48c"},"vehicle_type_id":"4","last_reported":1726772791,"current_range_meters":11200,"station_id":"chh1huq6cuj3fo74tm60","pricing_plan_id":"cebpf4jnsgd1na2vs0mg"},{"bike_id":"3cd5ff8d-fc85-490f-9c7b-27925dfcd802","system_id":"levelo_inurba_marseille","lat":43.30417,"lon":5.4128,"is_reserved":false,"is_disabled":false,"rental_uris":{"android":"levelo://app?vid=3cd5ff8d-fc85-490f-9c7b-27925dfcd802","ios":"levelo://app?vid=3cd5ff8d-fc85-490f-9c7b-27925dfcd802"},"vehicle_type_id":"4","last_reported":1726772791,"current_range_meters":25600,"station_id":"ce4bhop2rcd13ifvqh8g","pricing_plan_id":"cebpf4jnsgd1na2vs0mg"},{"bike_id":"248f6c8c-4a38-4d0a-a9ce-b8ca402697f7","system_id":"levelo_inurba_marseille","lat":43.262784,"lon":5.378958,"is_reserved":false,"is_disabled":false,"rental_uris":{"android":"levelo://app?vid=248f6c8c-4a38-4d0a-a9ce-b8ca402697f7","ios":"levelo://app?vid=248f6c8c-4a38-4d0a-a9ce-b8ca402697f7"},"vehicle_type_id":"4","last_reported":1726772791,"current_range_meters":3200,"station_id":"ce4bgjh2rcd13ifvqbg0","pricing_plan_id":"cebpf4jnsgd1na2vs0mg"},{"bike_id":"72afbc88-749c-4ec5-9ff0-ddd824e0a5ba","system_id":"levelo_inurba_marseille","lat":43.27183,"lon":5.40995,"is_reserved":false,"is_disabled":false,"rental_uris":{"android":"levelo://app?vid=72afbc88-749c-4ec5-9ff0-ddd824e0a5ba","ios":"levelo://app?vid=72afbc88-749c-4ec5-9ff0-ddd824e0a5ba"},"vehicle_type_id":"4","last_reported":1726772791,"current_range_meters":38800,"station_id":"ce4bhl12rcd13ifvqgf0","pricing_plan_id":"cebpf4jnsgd1na2vs0mg"},{"bike_id":"f72a2f64-cefa-4e40-ac0b-b2a473354945","system_id":"levelo_inurba_marseille","lat":43.30538,"lon":5.38429,"is_reserved":false,"is_disabled":false,"rental_uris":{"android":"levelo://app?vid=f72a2f64-cefa-4e40-ac0b-b2a473354945","ios":"levelo://app?vid=f72a2f64-cefa-4e40-ac0b-b2a473354945"},"vehicle_type_id":"4","last_reported":1726772791,"current_range_meters":26000,"station_id":"ce4bgg92rcd13ifvqb30","pricing_plan_id":"cebpf4jnsgd1na2vs0mg"},{"bike_id":"5767e1a9-48b0-4c74-8627-4d55bc18f357","system_id":"levelo_inurba_marseille","lat":43.27057,"lon":5.40264,"is_reserved":false,"is_disabled":false,"rental_uris":{"android":"levelo://app?vid=5767e1a9-48b0-4c74-8627-4d55bc18f357","ios":"levelo://app?vid=5767e1a9-48b0-4c74-8627-4d55bc18f357"},"vehicle_type_id":"4","last_reported":1726772791,"current_range_meters":22000,"station_id":"ce4bhkp2rcd13ifvqgd0","pricing_plan_id":"cebpf4jnsgd1na2vs0mg"},{"bike_id":"78de459a-8961-48d3-9d87-3a4dc50323f3","system_id":"levelo_inurba_marseille","lat":43.32365,"lon":5.38884,"is_reserved":false,"is_disabled":false,"rental_uris":{"android":"levelo://app?vid=78de459a-8961-48d3-9d87-3a4dc50323f3","ios":"levelo://app?vid=78de459a-8961-48d3-9d87-3a4dc50323f3"},"vehicle_type_id":"4","last_reported":1726772791,"current_range_meters":17200,"station_id":"ce4bhqp2rcd13ifvqhog","pricing_plan_id":"cebpf4jnsgd1na2vs0mg"},{"bike_id":"38dadd8c-d3a2-4d23-ab13-29b99dc8b37a","system_id":"levelo_inurba_marseille","lat":43.33025,"lon":5.39043,"is_reserved":false,"is_disabled":false,"rental_uris":{"android":"levelo://app?vid=38dadd8c-d3a2-4d23-ab13-29b99dc8b37a","ios":"levelo://app?vid=38dadd8c-d3a2-4d23-ab13-29b99dc8b37a"},"vehicle_type_id":"4","last_reported":1726772791,"current_range_meters":16800,"station_id":"ce4bhr92rcd13ifvqhrg","pricing_plan_id":"cebpf4jnsgd1na2vs0mg"},{"bike_id":"e300bc59-4965-4de2-859e-a118857eb8fb","system_id":"levelo_inurba_marseille","lat":43.27612,"lon":5.3612,"is_reserved":false,"is_disabled":false,"rental_uris":{"android":"levelo://app?vid=e300bc59-4965-4de2-859e-a118857eb8fb","ios":"levelo://app?vid=e300bc59-4965-4de2-859e-a118857eb8fb"},"vehicle_type_id":"4","last_reported":1726772791,"current_range_meters":38000,"station_id":"ce4bgj92rcd13ifvqbe0","pricing_plan_id":"cebpf4jnsgd1na2vs0mg"},{"bike_id":"4efe7750-b611-4207-ae49-c0c5cb87b661","system_id":"levelo_inurba_marseille","lat":43.27819,"lon":5.39213,"is_reserved":false,"is_disabled":false,"rental_uris":{"android":"levelo://app?vid=4efe7750-b611-4207-ae49-c0c5cb87b661","ios":"levelo://app?vid=4efe7750-b611-4207-ae49-c0c5cb87b661"},"vehicle_type_id":"4","last_reported":1726772791,"current_range_meters":27600,"station_id":"ce4bhjp2rcd13ifvqga0","pricing_plan_id":"cebpf4jnsgd1na2vs0mg"},{"bike_id":"8d47ac2c-6aff-4006-865b-6319f0339211","system_id":"levelo_inurba_marseille","lat":43.31753,"lon":5.39029,"is_reserved":false,"is_disabled":false,"rental_uris":{"android":"levelo://app?vid=8d47ac2c-6aff-4006-865b-6319f0339211","ios":"levelo://app?vid=8d47ac2c-6aff-4006-865b-6319f0339211"},"vehicle_type_id":"4","last_reported":1726772791,"current_range_meters":5600,"station_id":"ce4bhqp2rcd13ifvqhng","pricing_plan_id":"cebpf4jnsgd1na2vs0mg"},{"bike_id":"0f53cc12-21ea-4b2c-82be-e7ab4beb82bf","system_id":"levelo_inurba_marseille","lat":43.31758,"lon":5.39022,"is_reserved":false,"is_disabled":false,"rental_uris":{"android":"levelo://app?vid=0f53cc12-21ea-4b2c-82be-e7ab4beb82bf","ios":"levelo://app?vid=0f53cc12-21ea-4b2c-82be-e7ab4beb82bf"},"vehicle_type_id":"4","last_reported":1726772791,"current_range_meters":6800,"station_id":"ce4bhqp2rcd13ifvqhng","pricing_plan_id":"cebpf4jnsgd1na2vs0mg"},{"bike_id":"fadac423-1102-471d-b12e-f79a7c476377","system_id":"levelo_inurba_marseille","lat":43.27894,"lon":5.38007,"is_reserved":false,"is_disabled":false,"rental_uris":{"android":"levelo://app?vid=fadac423-1102-471d-b12e-f79a7c476377","ios":"levelo://app?vid=fadac423-1102-471d-b12e-f79a7c476377"},"vehicle_type_id":"4","last_reported":1726772791,"current_range_meters":33200,"station_id":"ce4bhf92rcd13ifvqf50","pricing_plan_id":"cebpf4jnsgd1na2vs0mg"},{"bike_id":"eea4bc74-da54-414c-a725-bf3b72b6e191","system_id":"levelo_inurba_marseille","lat":43.28862,"lon":5.35847,"is_reserved":false,"is_disabled":false,"rental_uris":{"android":"levelo://app?vid=eea4bc74-da54-414c-a725-bf3b72b6e191","ios":"levelo://app?vid=eea4bc74-da54-414c-a725-bf3b72b6e191"},"vehicle_type_id":"4","last_reported":1726772791,"current_range_meters":38800,"station_id":"ce4bhb12rcd13ifvqem0","pricing_plan_id":"cebpf4jnsgd1na2vs0mg"},{"bike_id":"c9a944a8-15a2-4ee6-9284-3397fed1de4e","system_id":"levelo_inurba_marseille","lat":43.26563,"lon":5.39002,"is_reserved":false,"is_disabled":false,"rental_uris":{"android":"levelo://app?vid=c9a944a8-15a2-4ee6-9284-3397fed1de4e","ios":"levelo://app?vid=c9a944a8-15a2-4ee6-9284-3397fed1de4e"},"vehicle_type_id":"4","last_reported":1726772791,"current_range_meters":26800,"station_id":"ce4bhe12rcd13ifvqf30","pricing_plan_id":"cebpf4jnsgd1na2vs0mg"},{"bike_id":"0f99561d-c3b7-4d71-8f6c-402f09bcbad6","system_id":"levelo_inurba_marseille","lat":43.25864,"lon":5.39904,"is_reserved":false,"is_disabled":false,"rental_uris":{"android":"levelo://app?vid=0f99561d-c3b7-4d71-8f6c-402f09bcbad6","ios":"levelo://app?vid=0f99561d-c3b7-4d71-8f6c-402f09bcbad6"},"vehicle_type_id":"4","last_reported":1726772791,"current_range_meters":32400,"station_id":"ce4bhl92rcd13ifvqghg","pricing_plan_id":"cebpf4jnsgd1na2vs0mg"},{"bike_id":"2c96f4ad-2c2e-44b8-8e08-a57b6c1eb2e5","system_id":"levelo_inurba_marseille","lat":43.33024,"lon":5.3904,"is_reserved":false,"is_disabled":false,"rental_uris":{"android":"levelo://app?vid=2c96f4ad-2c2e-44b8-8e08-a57b6c1eb2e5","ios":"levelo://app?vid=2c96f4ad-2c2e-44b8-8e08-a57b6c1eb2e5"},"vehicle_type_id":"4","last_reported":1726772791,"current_range_meters":34000,"station_id":"ce4bhr92rcd13ifvqhrg","pricing_plan_id":"cebpf4jnsgd1na2vs0mg"},{"bike_id":"1541f6e6-187d-4663-a964-15d1a4339418","system_id":"levelo_inurba_marseille","lat":43.25108,"lon":5.40327,"is_reserved":false,"is_disabled":false,"rental_uris":{"android":"levelo://app?vid=1541f6e6-187d-4663-a964-15d1a4339418","ios":"levelo://app?vid=1541f6e6-187d-4663-a964-15d1a4339418"},"vehicle_type_id":"4","last_reported":1726772791,"current_range_meters":14000,"station_id":"ce4bhlh2rcd13ifvqgig","pricing_plan_id":"cebpf4jnsgd1na2vs0mg"},{"bike_id":"d7c28f54-b817-4872-9fe3-e5cb5076e78d","system_id":"levelo_inurba_marseille","lat":43.304086,"lon":5.385288,"is_reserved":false,"is_disabled":false,"rental_uris":{"android":"levelo://app?vid=d7c28f54-b817-4872-9fe3-e5cb5076e78d","ios":"levelo://app?vid=d7c28f54-b817-4872-9fe3-e5cb5076e78d"},"vehicle_type_id":"4","last_reported":1726772791,"current_range_meters":4800,"station_id":"ce4bgg92rcd13ifvqb30","pricing_plan_id":"cebpf4jnsgd1na2vs0mg"},{"bike_id":"e9a5d37d-0cb5-44ff-a653-c77a5ca5838b","system_id":"levelo_inurba_marseille","lat":43.31756,"lon":5.39016,"is_reserved":false,"is_disabled":false,"rental_uris":{"android":"levelo://app?vid=e9a5d37d-0cb5-44ff-a653-c77a5ca5838b","ios":"levelo://app?vid=e9a5d37d-0cb5-44ff-a653-c77a5ca5838b"},"vehicle_type_id":"4","last_reported":1726772791,"current_range_meters":3200,"station_id":"ce4bhqp2rcd13ifvqhng","pricing_plan_id":"cebpf4jnsgd1na2vs0mg"},{"bike_id":"7b4b9870-da86-40f4-b324-647a49c85541","system_id":"levelo_inurba_marseille","lat":43.317225,"lon":5.423955,"is_reserved":false,"is_disabled":false,"rental_uris":{"android":"levelo://app?vid=7b4b9870-da86-40f4-b324-647a49c85541","ios":"levelo://app?vid=7b4b9870-da86-40f4-b324-647a49c85541"},"vehicle_type_id":"4","last_reported":1726772791,"current_range_meters":17600,"station_id":"ce4bhp92rcd13ifvqhbg","pricing_plan_id":"cebpf4jnsgd1na2vs0mg"},{"bike_id":"44da3e59-dcf2-4354-910f-f3fece0ed467","system_id":"levelo_inurba_marseille","lat":43.27064,"lon":5.4228,"is_reserved":false,"is_disabled":false,"rental_uris":{"android":"levelo://app?vid=44da3e59-dcf2-4354-910f-f3fece0ed467","ios":"levelo://app?vid=44da3e59-dcf2-4354-910f-f3fece0ed467"},"vehicle_type_id":"4","last_reported":1726772791,"current_range_meters":38800,"station_id":"ce4bhk92rcd13ifvqgb0","pricing_plan_id":"cebpf4jnsgd1na2vs0mg"},{"bike_id":"eb2ef9af-e9bb-4b94-aee1-3fb33b5e66f9","system_id":"levelo_inurba_marseille","lat":43.27988,"lon":5.41662,"is_reserved":false,"is_disabled":false,"rental_uris":{"android":"levelo://app?vid=eb2ef9af-e9bb-4b94-aee1-3fb33b5e66f9","ios":"levelo://app?vid=eb2ef9af-e9bb-4b94-aee1-3fb33b5e66f9"},"vehicle_type_id":"4","last_reported":1726772791,"current_range_meters":38800,"station_id":"ce4bho12rcd13ifvqh1g","pricing_plan_id":"cebpf4jnsgd1na2vs0mg"},{"bike_id":"4d781095-ebfa-42a4-adff-8958347ac1ee","system_id":"levelo_inurba_marseille","lat":43.24807,"lon":5.3746,"is_reserved":false,"is_disabled":false,"rental_uris":{"android":"levelo://app?vid=4d781095-ebfa-42a4-adff-8958347ac1ee","ios":"levelo://app?vid=4d781095-ebfa-42a4-adff-8958347ac1ee"},"vehicle_type_id":"4","last_reported":1726772791,"current_range_meters":16800,"station_id":"ce4bhgh2rcd13ifvqfb0","pricing_plan_id":"cebpf4jnsgd1na2vs0mg"},{"bike_id":"bbabc812-5d4f-4dde-ac4b-6c59e8a40a27","system_id":"levelo_inurba_marseille","lat":43.27497,"lon":5.42448,"is_reserved":false,"is_disabled":false,"rental_uris":{"android":"levelo://app?vid=bbabc812-5d4f-4dde-ac4b-6c59e8a40a27","ios":"levelo://app?vid=bbabc812-5d4f-4dde-ac4b-6c59e8a40a27"},"vehicle_type_id":"4","last_reported":1726772791,"current_range_meters":24800,"station_id":"ce4bhn92rcd13ifvqgrg","pricing_plan_id":"cebpf4jnsgd1na2vs0mg"},{"bike_id":"cfc731a7-6955-427a-9d72-0a0d0711b6b6","system_id":"levelo_inurba_marseille","lat":43.28928,"lon":5.36625,"is_reserved":false,"is_disabled":false,"rental_uris":{"android":"levelo://app?vid=cfc731a7-6955-427a-9d72-0a0d0711b6b6","ios":"levelo://app?vid=cfc731a7-6955-427a-9d72-0a0d0711b6b6"},"vehicle_type_id":"4","last_reported":1726772791,"current_range_meters":38800,"station_id":"ce4bhap2rcd13ifvqek0","pricing_plan_id":"cebpf4jnsgd1na2vs0mg"},{"bike_id":"d810728e-24c6-4407-9bf1-598954871fd1","system_id":"levelo_inurba_marseille","lat":43.29867,"lon":5.38912,"is_reserved":false,"is_disabled":false,"rental_uris":{"android":"levelo://app?vid=d810728e-24c6-4407-9bf1-598954871fd1","ios":"levelo://app?vid=d810728e-24c6-4407-9bf1-598954871fd1"},"vehicle_type_id":"4","last_reported":1726772791,"current_range_meters":26000,"station_id":"ce4bh392rcd13ifvqdl0","pricing_plan_id":"cebpf4jnsgd1na2vs0mg"},{"bike_id":"d095a2de-cb44-4d0b-9d57-524091713fe6","system_id":"levelo_inurba_marseille","lat":43.29198,"lon":5.3932,"is_reserved":false,"is_disabled":false,"rental_uris":{"android":"levelo://app?vid=d095a2de-cb44-4d0b-9d57-524091713fe6","ios":"levelo://app?vid=d095a2de-cb44-4d0b-9d57-524091713fe6"},"vehicle_type_id":"4","last_reported":1726772791,"current_range_meters":20400,"station_id":"ce4bh192rcd13ifvqdd0","pricing_plan_id":"cebpf4jnsgd1na2vs0mg"},{"bike_id":"cdc9519c-ef3f-4450-a247-dea0b9e55bab","system_id":"levelo_inurba_marseille","lat":43.25084,"lon":5.39531,"is_reserved":false,"is_disabled":false,"rental_uris":{"android":"levelo://app?vid=cdc9519c-ef3f-4450-a247-dea0b9e55bab","ios":"levelo://app?vid=cdc9519c-ef3f-4450-a247-dea0b9e55bab"},"vehicle_type_id":"4","last_reported":1726772791,"current_range_meters":38000,"station_id":"ce4bhm12rcd13ifvqgkg","pricing_plan_id":"cebpf4jnsgd1na2vs0mg"},{"bike_id":"75fb1de4-efdf-4419-b186-e35bfb197342","system_id":"levelo_inurba_marseille","lat":43.25539,"lon":5.38275,"is_reserved":false,"is_disabled":false,"rental_uris":{"android":"levelo://app?vid=75fb1de4-efdf-4419-b186-e35bfb197342","ios":"levelo://app?vid=75fb1de4-efdf-4419-b186-e35bfb197342"},"vehicle_type_id":"4","last_reported":1726772791,"current_range_meters":2000,"station_id":"","pricing_plan_id":"cebpf4jnsgd1na2vs0mg"},{"bike_id":"f03db928-7aff-487a-9523-0e85505bb8af","system_id":"levelo_inurba_marseille","lat":43.26498,"lon":5.39552,"is_reserved":false,"is_disabled":false,"rental_uris":{"android":"levelo://app?vid=f03db928-7aff-487a-9523-0e85505bb8af","ios":"levelo://app?vid=f03db928-7aff-487a-9523-0e85505bb8af"},"vehicle_type_id":"4","last_reported":1726772791,"current_range_meters":38800,"station_id":"ce4bhi12rcd13ifvqfq0","pricing_plan_id":"cebpf4jnsgd1na2vs0mg"},{"bike_id":"8bded9b1-4958-41a5-9529-392455536bc5","system_id":"levelo_inurba_marseille","lat":43.2749,"lon":5.42459,"is_reserved":false,"is_disabled":false,"rental_uris":{"android":"levelo://app?vid=8bded9b1-4958-41a5-9529-392455536bc5","ios":"levelo://app?vid=8bded9b1-4958-41a5-9529-392455536bc5"},"vehicle_type_id":"4","last_reported":1726772791,"current_range_meters":38800,"station_id":"ce4bhn92rcd13ifvqgrg","pricing_plan_id":"cebpf4jnsgd1na2vs0mg"},{"bike_id":"a2eb1526-071c-462b-ae89-1cca26b21959","system_id":"levelo_inurba_marseille","lat":43.31364,"lon":5.38497,"is_reserved":false,"is_disabled":false,"rental_uris":{"android":"levelo://app?vid=a2eb1526-071c-462b-ae89-1cca26b21959","ios":"levelo://app?vid=a2eb1526-071c-462b-ae89-1cca26b21959"},"vehicle_type_id":"4","last_reported":1726772791,"current_range_meters":10000,"station_id":"ce4bgt92rcd13ifvqcf0","pricing_plan_id":"cebpf4jnsgd1na2vs0mg"},{"bike_id":"4fa0ca0d-342c-4cd6-990b-f5e4ae40db2b","system_id":"levelo_inurba_marseille","lat":43.29959,"lon":5.4134,"is_reserved":false,"is_disabled":false,"rental_uris":{"android":"levelo://app?vid=4fa0ca0d-342c-4cd6-990b-f5e4ae40db2b","ios":"levelo://app?vid=4fa0ca0d-342c-4cd6-990b-f5e4ae40db2b"},"vehicle_type_id":"4","last_reported":1726772791,"current_range_meters":38800,"station_id":"ce4bhp12rcd13ifvqh9g","pricing_plan_id":"cebpf4jnsgd1na2vs0mg"},{"bike_id":"1b297945-7c8a-4e0e-b2c4-bc43a6c00be3","system_id":"levelo_inurba_marseille","lat":43.24649,"lon":5.388916,"is_reserved":false,"is_disabled":false,"rental_uris":{"android":"levelo://app?vid=1b297945-7c8a-4e0e-b2c4-bc43a6c00be3","ios":"levelo://app?vid=1b297945-7c8a-4e0e-b2c4-bc43a6c00be3"},"vehicle_type_id":"4","last_reported":1726772791,"current_range_meters":12400,"station_id":"ce4bhg12rcd13ifvqf60","pricing_plan_id":"cebpf4jnsgd1na2vs0mg"},{"bike_id":"220676d0-d8f4-4560-88ae-78e88aa4e063","system_id":"levelo_inurba_marseille","lat":43.28392,"lon":5.37534,"is_reserved":false,"is_disabled":false,"rental_uris":{"android":"levelo://app?vid=220676d0-d8f4-4560-88ae-78e88aa4e063","ios":"levelo://app?vid=220676d0-d8f4-4560-88ae-78e88aa4e063"},"vehicle_type_id":"4","last_reported":1726772791,"current_range_meters":2800,"station_id":"ce4bh412rcd13ifvqds0","pricing_plan_id":"cebpf4jnsgd1na2vs0mg"},{"bike_id":"89bbcf04-5349-4f9f-8846-0cca94b19a92","system_id":"levelo_inurba_marseille","lat":43.30881,"lon":5.39654,"is_reserved":false,"is_disabled":false,"rental_uris":{"android":"levelo://app?vid=89bbcf04-5349-4f9f-8846-0cca94b19a92","ios":"levelo://app?vid=89bbcf04-5349-4f9f-8846-0cca94b19a92"},"vehicle_type_id":"4","last_reported":1726772791,"current_range_meters":16000,"station_id":"ce4bh012rcd13ifvqcv0","pricing_plan_id":"cebpf4jnsgd1na2vs0mg"},{"bike_id":"86e14264-98ce-4651-9660-6db4febc9a54","system_id":"levelo_inurba_marseille","lat":43.30275,"lon":5.3771,"is_reserved":false,"is_disabled":false,"rental_uris":{"android":"levelo://app?vid=86e14264-98ce-4651-9660-6db4febc9a54","ios":"levelo://app?vid=86e14264-98ce-4651-9660-6db4febc9a54"},"vehicle_type_id":"4","last_reported":1726772791,"current_range_meters":6800,"station_id":"ce4bguh2rcd13ifvqcj0","pricing_plan_id":"cebpf4jnsgd1na2vs0mg"},{"bike_id":"8ddb8505-d52e-49ce-9975-e45c32ec5a49","system_id":"levelo_inurba_marseille","lat":43.29067,"lon":5.37161,"is_reserved":false,"is_disabled":false,"rental_uris":{"android":"levelo://app?vid=8ddb8505-d52e-49ce-9975-e45c32ec5a49","ios":"levelo://app?vid=8ddb8505-d52e-49ce-9975-e45c32ec5a49"},"vehicle_type_id":"4","last_reported":1726772791,"current_range_meters":35600,"station_id":"ce4bh5p2rcd13ifvqe4g","pricing_plan_id":"cebpf4jnsgd1na2vs0mg"},{"bike_id":"42a53ba1-3670-4516-addc-ffe001720501","system_id":"levelo_inurba_marseille","lat":43.26645,"lon":5.39493,"is_reserved":false,"is_disabled":false,"rental_uris":{"android":"levelo://app?vid=42a53ba1-3670-4516-addc-ffe001720501","ios":"levelo://app?vid=42a53ba1-3670-4516-addc-ffe001720501"},"vehicle_type_id":"4","last_reported":1726772791,"current_range_meters":22800,"station_id":"","pricing_plan_id":"cebpf4jnsgd1na2vs0mg"},{"bike_id":"8cec0694-5753-4a2d-b633-441d0154d25f","system_id":"levelo_inurba_marseille","lat":43.29248,"lon":5.38447,"is_reserved":false,"is_disabled":false,"rental_uris":{"android":"levelo://app?vid=8cec0694-5753-4a2d-b633-441d0154d25f","ios":"levelo://app?vid=8cec0694-5753-4a2d-b633-441d0154d25f"},"vehicle_type_id":"4","last_reported":1726772791,"current_range_meters":38800,"station_id":"ce4bh692rcd13ifvqea0","pricing_plan_id":"cebpf4jnsgd1na2vs0mg"},{"bike_id":"5705acbc-d503-4f36-a9f5-13b5f18aa34d","system_id":"levelo_inurba_marseille","lat":43.2396,"lon":5.36622,"is_reserved":false,"is_disabled":false,"rental_uris":{"android":"levelo://app?vid=5705acbc-d503-4f36-a9f5-13b5f18aa34d","ios":"levelo://app?vid=5705acbc-d503-4f36-a9f5-13b5f18aa34d"},"vehicle_type_id":"4","last_reported":1726772791,"current_range_meters":38000,"station_id":"ce4bhi12rcd13ifvqfp0","pricing_plan_id":"cebpf4jnsgd1na2vs0mg"},{"bike_id":"11228085-23e5-4c89-842a-c1aca906e3a6","system_id":"levelo_inurba_marseille","lat":43.27995,"lon":5.4166,"is_reserved":false,"is_disabled":false,"rental_uris":{"android":"levelo://app?vid=11228085-23e5-4c89-842a-c1aca906e3a6","ios":"levelo://app?vid=11228085-23e5-4c89-842a-c1aca906e3a6"},"vehicle_type_id":"4","last_reported":1726772791,"current_range_meters":38800,"station_id":"ce4bho12rcd13ifvqh1g","pricing_plan_id":"cebpf4jnsgd1na2vs0mg"},{"bike_id":"42163d67-f88f-41a0-9800-57a654cd11ec","system_id":"levelo_inurba_marseille","lat":43.275673,"lon":5.384287,"is_reserved":false,"is_disabled":false,"rental_uris":{"android":"levelo://app?vid=42163d67-f88f-41a0-9800-57a654cd11ec","ios":"levelo://app?vid=42163d67-f88f-41a0-9800-57a654cd11ec"},"vehicle_type_id":"4","last_reported":1726772791,"current_range_meters":8400,"station_id":"ce4bhh92rcd13ifvqfi0","pricing_plan_id":"cebpf4jnsgd1na2vs0mg"},{"bike_id":"48263b0d-1f86-401e-88d5-70e1c9e2470e","system_id":"levelo_inurba_marseille","lat":43.294138,"lon":5.386311,"is_reserved":false,"is_disabled":false,"rental_uris":{"android":"levelo://app?vid=48263b0d-1f86-401e-88d5-70e1c9e2470e","ios":"levelo://app?vid=48263b0d-1f86-401e-88d5-70e1c9e2470e"},"vehicle_type_id":"4","last_reported":1726772791,"current_range_meters":24800,"station_id":"ce4bh2h2rcd13ifvqdh0","pricing_plan_id":"cebpf4jnsgd1na2vs0mg"},{"bike_id":"3e0f5125-367d-4690-a8a7-b93a2989e337","system_id":"levelo_inurba_marseille","lat":43.29172,"lon":5.37151,"is_reserved":false,"is_disabled":false,"rental_uris":{"android":"levelo://app?vid=3e0f5125-367d-4690-a8a7-b93a2989e337","ios":"levelo://app?vid=3e0f5125-367d-4690-a8a7-b93a2989e337"},"vehicle_type_id":"4","last_reported":1726772791,"current_range_meters":39200,"station_id":"ce4bha92rcd13ifvqeh0","pricing_plan_id":"cebpf4jnsgd1na2vs0mg"},{"bike_id":"831e72df-83b0-4399-a44c-4d72db67d9c1","system_id":"levelo_inurba_marseille","lat":43.27534,"lon":5.42633,"is_reserved":false,"is_disabled":false,"rental_uris":{"android":"levelo://app?vid=831e72df-83b0-4399-a44c-4d72db67d9c1","ios":"levelo://app?vid=831e72df-83b0-4399-a44c-4d72db67d9c1"},"vehicle_type_id":"4","last_reported":1726772791,"current_range_meters":2000,"station_id":"","pricing_plan_id":"cebpf4jnsgd1na2vs0mg"},{"bike_id":"7b9dd459-340b-4978-bfb0-6c163a5263e8","system_id":"levelo_inurba_marseille","lat":43.23189,"lon":5.35553,"is_reserved":false,"is_disabled":false,"rental_uris":{"android":"levelo://app?vid=7b9dd459-340b-4978-bfb0-6c163a5263e8","ios":"levelo://app?vid=7b9dd459-340b-4978-bfb0-6c163a5263e8"},"vehicle_type_id":"4","last_reported":1726772791,"current_range_meters":39200,"station_id":"ce4bhu92rcd13ifvqi70","pricing_plan_id":"cebpf4jnsgd1na2vs0mg"},{"bike_id":"1fc234a9-761d-40c6-aeb5-4f18e9fef688","system_id":"levelo_inurba_marseille","lat":43.25576,"lon":5.38238,"is_reserved":false,"is_disabled":false,"rental_uris":{"android":"levelo://app?vid=1fc234a9-761d-40c6-aeb5-4f18e9fef688","ios":"levelo://app?vid=1fc234a9-761d-40c6-aeb5-4f18e9fef688"},"vehicle_type_id":"4","last_reported":1726772791,"current_range_meters":16000,"station_id":"ce4bhih2rcd13ifvqfs0","pricing_plan_id":"cebpf4jnsgd1na2vs0mg"},{"bike_id":"e3d2cb34-c757-45ad-beac-0be6b9457278","system_id":"levelo_inurba_marseille","lat":43.30803,"lon":5.43523,"is_reserved":false,"is_disabled":false,"rental_uris":{"android":"levelo://app?vid=e3d2cb34-c757-45ad-beac-0be6b9457278","ios":"levelo://app?vid=e3d2cb34-c757-45ad-beac-0be6b9457278"},"vehicle_type_id":"4","last_reported":1726772791,"current_range_meters":37600,"station_id":"ce4bhph2rcd13ifvqheg","pricing_plan_id":"cebpf4jnsgd1na2vs0mg"},{"bike_id":"87440cd1-4d99-421b-9f62-83acc0dd5fa9","system_id":"levelo_inurba_marseille","lat":43.32363,"lon":5.38882,"is_reserved":false,"is_disabled":false,"rental_uris":{"android":"levelo://app?vid=87440cd1-4d99-421b-9f62-83acc0dd5fa9","ios":"levelo://app?vid=87440cd1-4d99-421b-9f62-83acc0dd5fa9"},"vehicle_type_id":"4","last_reported":1726772791,"current_range_meters":3600,"station_id":"ce4bhqp2rcd13ifvqhog","pricing_plan_id":"cebpf4jnsgd1na2vs0mg"},{"bike_id":"d706a887-9dd3-46a7-95d4-e0ce09899150","system_id":"levelo_inurba_marseille","lat":43.299164,"lon":5.365254,"is_reserved":false,"is_disabled":false,"rental_uris":{"android":"levelo://app?vid=d706a887-9dd3-46a7-95d4-e0ce09899150","ios":"levelo://app?vid=d706a887-9dd3-46a7-95d4-e0ce09899150"},"vehicle_type_id":"4","last_reported":1726772791,"current_range_meters":35600,"station_id":"ce4bgm92rcd13ifvqbr0","pricing_plan_id":"cebpf4jnsgd1na2vs0mg"},{"bike_id":"dad38bd6-f634-4d80-9e1a-573af50bb627","system_id":"levelo_inurba_marseille","lat":43.31171,"lon":5.3873,"is_reserved":false,"is_disabled":false,"rental_uris":{"android":"levelo://app?vid=dad38bd6-f634-4d80-9e1a-573af50bb627","ios":"levelo://app?vid=dad38bd6-f634-4d80-9e1a-573af50bb627"},"vehicle_type_id":"4","last_reported":1726772791,"current_range_meters":11600,"station_id":"ce4bgv12rcd13ifvqcp0","pricing_plan_id":"cebpf4jnsgd1na2vs0mg"},{"bike_id":"010d89de-6be0-4954-8660-15897686fb5a","system_id":"levelo_inurba_marseille","lat":43.31172,"lon":5.38735,"is_reserved":false,"is_disabled":false,"rental_uris":{"android":"levelo://app?vid=010d89de-6be0-4954-8660-15897686fb5a","ios":"levelo://app?vid=010d89de-6be0-4954-8660-15897686fb5a"},"vehicle_type_id":"4","last_reported":1726772791,"current_range_meters":11600,"station_id":"ce4bgv12rcd13ifvqcp0","pricing_plan_id":"cebpf4jnsgd1na2vs0mg"},{"bike_id":"59526314-6814-428f-9df0-ead1cf1c2777","system_id":"levelo_inurba_marseille","lat":43.2593,"lon":5.40911,"is_reserved":false,"is_disabled":false,"rental_uris":{"android":"levelo://app?vid=59526314-6814-428f-9df0-ead1cf1c2777","ios":"levelo://app?vid=59526314-6814-428f-9df0-ead1cf1c2777"},"vehicle_type_id":"4","last_reported":1726772791,"current_range_meters":37600,"station_id":"ce4bhm92rcd13ifvqglg","pricing_plan_id":"cebpf4jnsgd1na2vs0mg"},{"bike_id":"36ddd37b-801c-49cb-a02b-44c764e132a4","system_id":"levelo_inurba_marseille","lat":43.24067,"lon":5.37759,"is_reserved":false,"is_disabled":false,"rental_uris":{"android":"levelo://app?vid=36ddd37b-801c-49cb-a02b-44c764e132a4","ios":"levelo://app?vid=36ddd37b-801c-49cb-a02b-44c764e132a4"},"vehicle_type_id":"4","last_reported":1726772791,"current_range_meters":32800,"station_id":"ce4bhnp2rcd13ifvqgvg","pricing_plan_id":"cebpf4jnsgd1na2vs0mg"},{"bike_id":"594f8628-e3cb-4129-b0df-c7a224bb10d0","system_id":"levelo_inurba_marseille","lat":43.28937,"lon":5.36637,"is_reserved":false,"is_disabled":false,"rental_uris":{"android":"levelo://app?vid=594f8628-e3cb-4129-b0df-c7a224bb10d0","ios":"levelo://app?vid=594f8628-e3cb-4129-b0df-c7a224bb10d0"},"vehicle_type_id":"4","last_reported":1726772791,"current_range_meters":28400,"station_id":"ce4bhap2rcd13ifvqek0","pricing_plan_id":"cebpf4jnsgd1na2vs0mg"},{"bike_id":"3415e021-2314-4328-9c88-bb98f6ae2754","system_id":"levelo_inurba_marseille","lat":43.30948,"lon":5.39043,"is_reserved":false,"is_disabled":false,"rental_uris":{"android":"levelo://app?vid=3415e021-2314-4328-9c88-bb98f6ae2754","ios":"levelo://app?vid=3415e021-2314-4328-9c88-bb98f6ae2754"},"vehicle_type_id":"4","last_reported":1726772791,"current_range_meters":35600,"station_id":"ce4bgup2rcd13ifvqco0","pricing_plan_id":"cebpf4jnsgd1na2vs0mg"},{"bike_id":"0eb2334d-7891-42f8-9d6c-4cd263904fad","system_id":"levelo_inurba_marseille","lat":43.3266,"lon":5.40993,"is_reserved":false,"is_disabled":false,"rental_uris":{"android":"levelo://app?vid=0eb2334d-7891-42f8-9d6c-4cd263904fad","ios":"levelo://app?vid=0eb2334d-7891-42f8-9d6c-4cd263904fad"},"vehicle_type_id":"4","last_reported":1726772791,"current_range_meters":2000,"station_id":"ce4bhpp2rcd13ifvqhgg","pricing_plan_id":"cebpf4jnsgd1na2vs0mg"},{"bike_id":"d28b7451-e74e-455d-898d-10e272314f3a","system_id":"levelo_inurba_marseille","lat":43.29251,"lon":5.38448,"is_reserved":false,"is_disabled":false,"rental_uris":{"android":"levelo://app?vid=d28b7451-e74e-455d-898d-10e272314f3a","ios":"levelo://app?vid=d28b7451-e74e-455d-898d-10e272314f3a"},"vehicle_type_id":"4","last_reported":1726772791,"current_range_meters":39200,"station_id":"ce4bh692rcd13ifvqea0","pricing_plan_id":"cebpf4jnsgd1na2vs0mg"},{"bike_id":"e8838fc0-3cd4-4213-84e3-c33f37fcda59","system_id":"levelo_inurba_marseille","lat":43.25824,"lon":5.39439,"is_reserved":false,"is_disabled":false,"rental_uris":{"android":"levelo://app?vid=e8838fc0-3cd4-4213-84e3-c33f37fcda59","ios":"levelo://app?vid=e8838fc0-3cd4-4213-84e3-c33f37fcda59"},"vehicle_type_id":"4","last_reported":1726772791,"current_range_meters":38800,"station_id":"ce4bhip2rcd13ifvqft0","pricing_plan_id":"cebpf4jnsgd1na2vs0mg"},{"bike_id":"b6d36420-b26c-42b4-a16a-ada2d6d760b7","system_id":"levelo_inurba_marseille","lat":43.23063,"lon":5.3549,"is_reserved":false,"is_disabled":false,"rental_uris":{"android":"levelo://app?vid=b6d36420-b26c-42b4-a16a-ada2d6d760b7","ios":"levelo://app?vid=b6d36420-b26c-42b4-a16a-ada2d6d760b7"},"vehicle_type_id":"4","last_reported":1726772791,"current_range_meters":36800,"station_id":"cpo3342slgdg3j2ifvpg","pricing_plan_id":"cebpf4jnsgd1na2vs0mg"},{"bike_id":"a6a4edd5-dbae-42c2-8f76-4761f9f99983","system_id":"levelo_inurba_marseille","lat":43.29877,"lon":5.38908,"is_reserved":false,"is_disabled":false,"rental_uris":{"android":"levelo://app?vid=a6a4edd5-dbae-42c2-8f76-4761f9f99983","ios":"levelo://app?vid=a6a4edd5-dbae-42c2-8f76-4761f9f99983"},"vehicle_type_id":"4","last_reported":1726772791,"current_range_meters":40000,"station_id":"ce4bh392rcd13ifvqdl0","pricing_plan_id":"cebpf4jnsgd1na2vs0mg"},{"bike_id":"984abb64-5fe6-49cd-bc77-cc278fa51bce","system_id":"levelo_inurba_marseille","lat":43.28153,"lon":5.42645,"is_reserved":false,"is_disabled":false,"rental_uris":{"android":"levelo://app?vid=984abb64-5fe6-49cd-bc77-cc278fa51bce","ios":"levelo://app?vid=984abb64-5fe6-49cd-bc77-cc278fa51bce"},"vehicle_type_id":"4","last_reported":1726772791,"current_range_meters":38400,"station_id":"ce4bhnh2rcd13ifvqgug","pricing_plan_id":"cebpf4jnsgd1na2vs0mg"},{"bike_id":"eb2bede7-1cfc-481d-95f0-4175f9ef21df","system_id":"levelo_inurba_marseille","lat":43.2594,"lon":5.40905,"is_reserved":false,"is_disabled":false,"rental_uris":{"android":"levelo://app?vid=eb2bede7-1cfc-481d-95f0-4175f9ef21df","ios":"levelo://app?vid=eb2bede7-1cfc-481d-95f0-4175f9ef21df"},"vehicle_type_id":"4","last_reported":1726772791,"current_range_meters":20000,"station_id":"ce4bhm92rcd13ifvqglg","pricing_plan_id":"cebpf4jnsgd1na2vs0mg"},{"bike_id":"17242049-2bc9-4a04-8413-0b10bd1f1a27","system_id":"levelo_inurba_marseille","lat":43.29266,"lon":5.38437,"is_reserved":false,"is_disabled":false,"rental_uris":{"android":"levelo://app?vid=17242049-2bc9-4a04-8413-0b10bd1f1a27","ios":"levelo://app?vid=17242049-2bc9-4a04-8413-0b10bd1f1a27"},"vehicle_type_id":"4","last_reported":1726772791,"current_range_meters":29600,"station_id":"ce4bh692rcd13ifvqea0","pricing_plan_id":"cebpf4jnsgd1na2vs0mg"},{"bike_id":"2ad34a0a-43c4-4edb-8e7b-1887ec6c0c2f","system_id":"levelo_inurba_marseille","lat":43.31122,"lon":5.37763,"is_reserved":false,"is_disabled":false,"rental_uris":{"android":"levelo://app?vid=2ad34a0a-43c4-4edb-8e7b-1887ec6c0c2f","ios":"levelo://app?vid=2ad34a0a-43c4-4edb-8e7b-1887ec6c0c2f"},"vehicle_type_id":"4","last_reported":1726772791,"current_range_meters":12800,"station_id":"ce4bgt92rcd13ifvqcg0","pricing_plan_id":"cebpf4jnsgd1na2vs0mg"},{"bike_id":"b639e14f-e095-4c35-8c20-ce3aa7b199ab","system_id":"levelo_inurba_marseille","lat":43.31167,"lon":5.38725,"is_reserved":false,"is_disabled":false,"rental_uris":{"android":"levelo://app?vid=b639e14f-e095-4c35-8c20-ce3aa7b199ab","ios":"levelo://app?vid=b639e14f-e095-4c35-8c20-ce3aa7b199ab"},"vehicle_type_id":"4","last_reported":1726772791,"current_range_meters":36400,"station_id":"ce4bgv12rcd13ifvqcp0","pricing_plan_id":"cebpf4jnsgd1na2vs0mg"},{"bike_id":"48b763f3-998e-4dd2-9e00-2859209a9afa","system_id":"levelo_inurba_marseille","lat":43.31325,"lon":5.3969,"is_reserved":false,"is_disabled":false,"rental_uris":{"android":"levelo://app?vid=48b763f3-998e-4dd2-9e00-2859209a9afa","ios":"levelo://app?vid=48b763f3-998e-4dd2-9e00-2859209a9afa"},"vehicle_type_id":"4","last_reported":1726772791,"current_range_meters":34800,"station_id":"ce4bgvp2rcd13ifvqcu0","pricing_plan_id":"cebpf4jnsgd1na2vs0mg"},{"bike_id":"6ee79763-bf7e-45cb-8655-58b72eee8fb9","system_id":"levelo_inurba_marseille","lat":43.29806,"lon":5.40407,"is_reserved":false,"is_disabled":false,"rental_uris":{"android":"levelo://app?vid=6ee79763-bf7e-45cb-8655-58b72eee8fb9","ios":"levelo://app?vid=6ee79763-bf7e-45cb-8655-58b72eee8fb9"},"vehicle_type_id":"4","last_reported":1726772791,"current_range_meters":38800,"station_id":"ce4bh112rcd13ifvqd90","pricing_plan_id":"cebpf4jnsgd1na2vs0mg"},{"bike_id":"82ea35eb-356c-435a-af7e-f3943eee0033","system_id":"levelo_inurba_marseille","lat":43.31522,"lon":5.38045,"is_reserved":false,"is_disabled":false,"rental_uris":{"android":"levelo://app?vid=82ea35eb-356c-435a-af7e-f3943eee0033","ios":"levelo://app?vid=82ea35eb-356c-435a-af7e-f3943eee0033"},"vehicle_type_id":"4","last_reported":1726772791,"current_range_meters":38800,"station_id":"ce4bhsp2rcd13ifvqi50","pricing_plan_id":"cebpf4jnsgd1na2vs0mg"},{"bike_id":"902190e7-1fe9-4270-9546-498dac581307","system_id":"levelo_inurba_marseille","lat":43.28009,"lon":5.40594,"is_reserved":false,"is_disabled":false,"rental_uris":{"android":"levelo://app?vid=902190e7-1fe9-4270-9546-498dac581307","ios":"levelo://app?vid=902190e7-1fe9-4270-9546-498dac581307"},"vehicle_type_id":"4","last_reported":1726772791,"current_range_meters":34800,"station_id":"","pricing_plan_id":"cebpf4jnsgd1na2vs0mg"},{"bike_id":"804b3646-259f-4a84-a03f-2f262500c2a5","system_id":"levelo_inurba_marseille","lat":43.31756,"lon":5.39014,"is_reserved":false,"is_disabled":false,"rental_uris":{"android":"levelo://app?vid=804b3646-259f-4a84-a03f-2f262500c2a5","ios":"levelo://app?vid=804b3646-259f-4a84-a03f-2f262500c2a5"},"vehicle_type_id":"4","last_reported":1726772791,"current_range_meters":38800,"station_id":"ce4bhqp2rcd13ifvqhng","pricing_plan_id":"cebpf4jnsgd1na2vs0mg"},{"bike_id":"5357f56d-8fda-4848-92ec-00c39d374ad6","system_id":"levelo_inurba_marseille","lat":43.28453,"lon":5.35896,"is_reserved":false,"is_disabled":false,"rental_uris":{"android":"levelo://app?vid=5357f56d-8fda-4848-92ec-00c39d374ad6","ios":"levelo://app?vid=5357f56d-8fda-4848-92ec-00c39d374ad6"},"vehicle_type_id":"4","last_reported":1726772791,"current_range_meters":24000,"station_id":"ce4bhah2rcd13ifvqei0","pricing_plan_id":"cebpf4jnsgd1na2vs0mg"},{"bike_id":"c48441d3-1273-46e7-8012-ad8941a2e1c7","system_id":"levelo_inurba_marseille","lat":43.31269,"lon":5.40174,"is_reserved":false,"is_disabled":false,"rental_uris":{"android":"levelo://app?vid=c48441d3-1273-46e7-8012-ad8941a2e1c7","ios":"levelo://app?vid=c48441d3-1273-46e7-8012-ad8941a2e1c7"},"vehicle_type_id":"4","last_reported":1726772791,"current_range_meters":6800,"station_id":"ce4bh092rcd13ifvqd30","pricing_plan_id":"cebpf4jnsgd1na2vs0mg"},{"bike_id":"c72671e4-48d1-4590-84cd-1cd1b432d06a","system_id":"levelo_inurba_marseille","lat":43.317078,"lon":5.377493,"is_reserved":false,"is_disabled":false,"rental_uris":{"android":"levelo://app?vid=c72671e4-48d1-4590-84cd-1cd1b432d06a","ios":"levelo://app?vid=c72671e4-48d1-4590-84cd-1cd1b432d06a"},"vehicle_type_id":"4","last_reported":1726772791,"current_range_meters":2800,"station_id":"ce4bgth2rcd13ifvqch0","pricing_plan_id":"cebpf4jnsgd1na2vs0mg"},{"bike_id":"e19749d0-5a6b-4c53-b81f-f5fe6798fbd6","system_id":"levelo_inurba_marseille","lat":43.28922,"lon":5.36404,"is_reserved":false,"is_disabled":false,"rental_uris":{"android":"levelo://app?vid=e19749d0-5a6b-4c53-b81f-f5fe6798fbd6","ios":"levelo://app?vid=e19749d0-5a6b-4c53-b81f-f5fe6798fbd6"},"vehicle_type_id":"4","last_reported":1726772791,"current_range_meters":27600,"station_id":"ce4bhc92rcd13ifvqetg","pricing_plan_id":"cebpf4jnsgd1na2vs0mg"},{"bike_id":"7c904801-7111-4d1d-a285-a9fb34472e47","system_id":"levelo_inurba_marseille","lat":43.29804,"lon":5.40408,"is_reserved":false,"is_disabled":false,"rental_uris":{"android":"levelo://app?vid=7c904801-7111-4d1d-a285-a9fb34472e47","ios":"levelo://app?vid=7c904801-7111-4d1d-a285-a9fb34472e47"},"vehicle_type_id":"4","last_reported":1726772791,"current_range_meters":39200,"station_id":"ce4bh112rcd13ifvqd90","pricing_plan_id":"cebpf4jnsgd1na2vs0mg"},{"bike_id":"db5bed51-afb9-4548-98e9-7b7ae226c501","system_id":"levelo_inurba_marseille","lat":43.33756,"lon":5.37453,"is_reserved":false,"is_disabled":false,"rental_uris":{"android":"levelo://app?vid=db5bed51-afb9-4548-98e9-7b7ae226c501","ios":"levelo://app?vid=db5bed51-afb9-4548-98e9-7b7ae226c501"},"vehicle_type_id":"4","last_reported":1726772791,"current_range_meters":20400,"station_id":"","pricing_plan_id":"cebpf4jnsgd1na2vs0mg"},{"bike_id":"630f2ed8-5212-4996-af32-0f87e53985a8","system_id":"levelo_inurba_marseille","lat":43.27988,"lon":5.4166,"is_reserved":false,"is_disabled":false,"rental_uris":{"android":"levelo://app?vid=630f2ed8-5212-4996-af32-0f87e53985a8","ios":"levelo://app?vid=630f2ed8-5212-4996-af32-0f87e53985a8"},"vehicle_type_id":"4","last_reported":1726772791,"current_range_meters":38800,"station_id":"ce4bho12rcd13ifvqh1g","pricing_plan_id":"cebpf4jnsgd1na2vs0mg"},{"bike_id":"06f07619-2b89-415a-93e9-fdf387c28b3d","system_id":"levelo_inurba_marseille","lat":43.2731,"lon":5.39088,"is_reserved":false,"is_disabled":false,"rental_uris":{"android":"levelo://app?vid=06f07619-2b89-415a-93e9-fdf387c28b3d","ios":"levelo://app?vid=06f07619-2b89-415a-93e9-fdf387c28b3d"},"vehicle_type_id":"4","last_reported":1726772791,"current_range_meters":9600,"station_id":"ce4bhgp2rcd13ifvqfe0","pricing_plan_id":"cebpf4jnsgd1na2vs0mg"},{"bike_id":"68d6aa5e-8be5-4288-a80d-5585cea731b7","system_id":"levelo_inurba_marseille","lat":43.32481,"lon":5.36572,"is_reserved":false,"is_disabled":false,"rental_uris":{"android":"levelo://app?vid=68d6aa5e-8be5-4288-a80d-5585cea731b7","ios":"levelo://app?vid=68d6aa5e-8be5-4288-a80d-5585cea731b7"},"vehicle_type_id":"4","last_reported":1726772791,"current_range_meters":35600,"station_id":"ce4bhs12rcd13ifvqhvg","pricing_plan_id":"cebpf4jnsgd1na2vs0mg"},{"bike_id":"69399783-5eae-4af9-ae4b-1495b2d249b1","system_id":"levelo_inurba_marseille","lat":43.2416,"lon":5.36399,"is_reserved":false,"is_disabled":false,"rental_uris":{"android":"levelo://app?vid=69399783-5eae-4af9-ae4b-1495b2d249b1","ios":"levelo://app?vid=69399783-5eae-4af9-ae4b-1495b2d249b1"},"vehicle_type_id":"4","last_reported":1726772791,"current_range_meters":31200,"station_id":"cpo36qri1sfpv3e86is0","pricing_plan_id":"cebpf4jnsgd1na2vs0mg"},{"bike_id":"f07b5134-a8aa-4ed7-926b-27aeeabcdc45","system_id":"levelo_inurba_marseille","lat":43.303284,"lon":5.389553,"is_reserved":false,"is_disabled":false,"rental_uris":{"android":"levelo://app?vid=f07b5134-a8aa-4ed7-926b-27aeeabcdc45","ios":"levelo://app?vid=f07b5134-a8aa-4ed7-926b-27aeeabcdc45"},"vehicle_type_id":"4","last_reported":1726772791,"current_range_meters":31200,"station_id":"ce4bgk12rcd13ifvqbi0","pricing_plan_id":"cebpf4jnsgd1na2vs0mg"},{"bike_id":"1005537b-abba-4a33-9073-3d27072603aa","system_id":"levelo_inurba_marseille","lat":43.27806,"lon":5.40714,"is_reserved":false,"is_disabled":false,"rental_uris":{"android":"levelo://app?vid=1005537b-abba-4a33-9073-3d27072603aa","ios":"levelo://app?vid=1005537b-abba-4a33-9073-3d27072603aa"},"vehicle_type_id":"4","last_reported":1726772791,"current_range_meters":22800,"station_id":"ce4bhnh2rcd13ifvqgtg","pricing_plan_id":"cebpf4jnsgd1na2vs0mg"},{"bike_id":"e0b355a4-8180-4a6f-a87e-67de69c780f3","system_id":"levelo_inurba_marseille","lat":43.3135,"lon":5.38502,"is_reserved":false,"is_disabled":false,"rental_uris":{"android":"levelo://app?vid=e0b355a4-8180-4a6f-a87e-67de69c780f3","ios":"levelo://app?vid=e0b355a4-8180-4a6f-a87e-67de69c780f3"},"vehicle_type_id":"4","last_reported":1726772791,"current_range_meters":12800,"station_id":"ce4bgt92rcd13ifvqcf0","pricing_plan_id":"cebpf4jnsgd1na2vs0mg"},{"bike_id":"d1ce861a-38c6-4e4f-b838-6d6094e18a65","system_id":"levelo_inurba_marseille","lat":43.3169,"lon":5.40472,"is_reserved":false,"is_disabled":false,"rental_uris":{"android":"levelo://app?vid=d1ce861a-38c6-4e4f-b838-6d6094e18a65","ios":"levelo://app?vid=d1ce861a-38c6-4e4f-b838-6d6094e18a65"},"vehicle_type_id":"4","last_reported":1726772791,"current_range_meters":18000,"station_id":"ce4bh012rcd13ifvqd00","pricing_plan_id":"cebpf4jnsgd1na2vs0mg"},{"bike_id":"9141f743-2307-4ad2-8b95-add4efe7bf50","system_id":"levelo_inurba_marseille","lat":43.29177,"lon":5.35814,"is_reserved":false,"is_disabled":false,"rental_uris":{"android":"levelo://app?vid=9141f743-2307-4ad2-8b95-add4efe7bf50","ios":"levelo://app?vid=9141f743-2307-4ad2-8b95-add4efe7bf50"},"vehicle_type_id":"4","last_reported":1726772791,"current_range_meters":38800,"station_id":"ce4bhb12rcd13ifvqel0","pricing_plan_id":"cebpf4jnsgd1na2vs0mg"},{"bike_id":"d8f0b5ed-65b7-42da-8474-b44b658a7fac","system_id":"levelo_inurba_marseille","lat":43.29249,"lon":5.38449,"is_reserved":false,"is_disabled":false,"rental_uris":{"android":"levelo://app?vid=d8f0b5ed-65b7-42da-8474-b44b658a7fac","ios":"levelo://app?vid=d8f0b5ed-65b7-42da-8474-b44b658a7fac"},"vehicle_type_id":"4","last_reported":1726772791,"current_range_meters":23200,"station_id":"ce4bh692rcd13ifvqea0","pricing_plan_id":"cebpf4jnsgd1na2vs0mg"},{"bike_id":"a7364ed1-6c69-4458-b841-c8a568496d80","system_id":"levelo_inurba_marseille","lat":43.28575,"lon":5.39502,"is_reserved":false,"is_disabled":false,"rental_uris":{"android":"levelo://app?vid=a7364ed1-6c69-4458-b841-c8a568496d80","ios":"levelo://app?vid=a7364ed1-6c69-4458-b841-c8a568496d80"},"vehicle_type_id":"4","last_reported":1726772791,"current_range_meters":16400,"station_id":"ce4bh292rcd13ifvqdg0","pricing_plan_id":"cebpf4jnsgd1na2vs0mg"},{"bike_id":"58014cc6-4f39-4119-a8a0-cdc0e2507820","system_id":"levelo_inurba_marseille","lat":43.32283,"lon":5.38281,"is_reserved":false,"is_disabled":false,"rental_uris":{"android":"levelo://app?vid=58014cc6-4f39-4119-a8a0-cdc0e2507820","ios":"levelo://app?vid=58014cc6-4f39-4119-a8a0-cdc0e2507820"},"vehicle_type_id":"4","last_reported":1726772791,"current_range_meters":39200,"station_id":"ce4bhr12rcd13ifvqhqg","pricing_plan_id":"cebpf4jnsgd1na2vs0mg"},{"bike_id":"77adac3b-c500-4162-8c4b-26e3b065e332","system_id":"levelo_inurba_marseille","lat":43.29265,"lon":5.36861,"is_reserved":false,"is_disabled":false,"rental_uris":{"android":"levelo://app?vid=77adac3b-c500-4162-8c4b-26e3b065e332","ios":"levelo://app?vid=77adac3b-c500-4162-8c4b-26e3b065e332"},"vehicle_type_id":"4","last_reported":1726772791,"current_range_meters":36000,"station_id":"ce4bhbp2rcd13ifvqesg","pricing_plan_id":"cebpf4jnsgd1na2vs0mg"},{"bike_id":"bb66a675-e8ae-403f-904f-6da11b8e7905","system_id":"levelo_inurba_marseille","lat":43.29017,"lon":5.37566,"is_reserved":false,"is_disabled":false,"rental_uris":{"android":"levelo://app?vid=bb66a675-e8ae-403f-904f-6da11b8e7905","ios":"levelo://app?vid=bb66a675-e8ae-403f-904f-6da11b8e7905"},"vehicle_type_id":"4","last_reported":1726772791,"current_range_meters":6400,"station_id":"ce4bh692rcd13ifvqe90","pricing_plan_id":"cebpf4jnsgd1na2vs0mg"},{"bike_id":"597568ba-36ac-4e4c-882d-268b19a1fc79","system_id":"levelo_inurba_marseille","lat":43.31711,"lon":5.43714,"is_reserved":false,"is_disabled":false,"rental_uris":{"android":"levelo://app?vid=597568ba-36ac-4e4c-882d-268b19a1fc79","ios":"levelo://app?vid=597568ba-36ac-4e4c-882d-268b19a1fc79"},"vehicle_type_id":"4","last_reported":1726772791,"current_range_meters":30000,"station_id":"ce4bhp92rcd13ifvqhcg","pricing_plan_id":"cebpf4jnsgd1na2vs0mg"},{"bike_id":"fcc85902-d8ff-44bb-a03d-fafa1f53c36a","system_id":"levelo_inurba_marseille","lat":43.27073,"lon":5.42278,"is_reserved":false,"is_disabled":false,"rental_uris":{"android":"levelo://app?vid=fcc85902-d8ff-44bb-a03d-fafa1f53c36a","ios":"levelo://app?vid=fcc85902-d8ff-44bb-a03d-fafa1f53c36a"},"vehicle_type_id":"4","last_reported":1726772791,"current_range_meters":17600,"station_id":"ce4bhk92rcd13ifvqgb0","pricing_plan_id":"cebpf4jnsgd1na2vs0mg"},{"bike_id":"51731c60-874e-40ad-abaa-df11ee95209a","system_id":"levelo_inurba_marseille","lat":43.303802,"lon":5.378738,"is_reserved":false,"is_disabled":false,"rental_uris":{"android":"levelo://app?vid=51731c60-874e-40ad-abaa-df11ee95209a","ios":"levelo://app?vid=51731c60-874e-40ad-abaa-df11ee95209a"},"vehicle_type_id":"4","last_reported":1726772791,"current_range_meters":24400,"station_id":"ce4bgup2rcd13ifvqcn0","pricing_plan_id":"cebpf4jnsgd1na2vs0mg"},{"bike_id":"817c2860-3c6b-4791-a756-8c3634b86c99","system_id":"levelo_inurba_marseille","lat":43.30134,"lon":5.38789,"is_reserved":false,"is_disabled":false,"rental_uris":{"android":"levelo://app?vid=817c2860-3c6b-4791-a756-8c3634b86c99","ios":"levelo://app?vid=817c2860-3c6b-4791-a756-8c3634b86c99"},"vehicle_type_id":"4","last_reported":1726772791,"current_range_meters":14400,"station_id":"ce4bghh2rcd13ifvqb60","pricing_plan_id":"cebpf4jnsgd1na2vs0mg"},{"bike_id":"bce83964-771d-421d-a795-c2b376c5b9dc","system_id":"levelo_inurba_marseille","lat":43.23191,"lon":5.35559,"is_reserved":false,"is_disabled":false,"rental_uris":{"android":"levelo://app?vid=bce83964-771d-421d-a795-c2b376c5b9dc","ios":"levelo://app?vid=bce83964-771d-421d-a795-c2b376c5b9dc"},"vehicle_type_id":"4","last_reported":1726772791,"current_range_meters":19200,"station_id":"ce4bhu92rcd13ifvqi70","pricing_plan_id":"cebpf4jnsgd1na2vs0mg"},{"bike_id":"ee034c90-f1c8-4080-9442-42d92e6a7c2c","system_id":"levelo_inurba_marseille","lat":43.28932,"lon":5.36635,"is_reserved":false,"is_disabled":false,"rental_uris":{"android":"levelo://app?vid=ee034c90-f1c8-4080-9442-42d92e6a7c2c","ios":"levelo://app?vid=ee034c90-f1c8-4080-9442-42d92e6a7c2c"},"vehicle_type_id":"4","last_reported":1726772791,"current_range_meters":30400,"station_id":"ce4bhap2rcd13ifvqek0","pricing_plan_id":"cebpf4jnsgd1na2vs0mg"},{"bike_id":"adc9346b-3bd9-4737-bbeb-f84afb48cedf","system_id":"levelo_inurba_marseille","lat":43.301697,"lon":5.366079,"is_reserved":false,"is_disabled":false,"rental_uris":{"android":"levelo://app?vid=adc9346b-3bd9-4737-bbeb-f84afb48cedf","ios":"levelo://app?vid=adc9346b-3bd9-4737-bbeb-f84afb48cedf"},"vehicle_type_id":"4","last_reported":1726772791,"current_range_meters":38800,"station_id":"ce4bgv12rcd13ifvqcp0","pricing_plan_id":"cebpf4jnsgd1na2vs0mg"},{"bike_id":"a522dbe7-cec0-4479-b119-911332786cfe","system_id":"levelo_inurba_marseille","lat":43.30906,"lon":5.36851,"is_reserved":false,"is_disabled":false,"rental_uris":{"android":"levelo://app?vid=a522dbe7-cec0-4479-b119-911332786cfe","ios":"levelo://app?vid=a522dbe7-cec0-4479-b119-911332786cfe"},"vehicle_type_id":"4","last_reported":1726772791,"current_range_meters":8400,"station_id":"ce4bgn92rcd13ifvqbvg","pricing_plan_id":"cebpf4jnsgd1na2vs0mg"},{"bike_id":"662c403a-b792-4919-b87e-59c04ae43543","system_id":"levelo_inurba_marseille","lat":43.28715,"lon":5.37951,"is_reserved":false,"is_disabled":false,"rental_uris":{"android":"levelo://app?vid=662c403a-b792-4919-b87e-59c04ae43543","ios":"levelo://app?vid=662c403a-b792-4919-b87e-59c04ae43543"},"vehicle_type_id":"4","last_reported":1726772791,"current_range_meters":30800,"station_id":"ce4bh9p2rcd13ifvqec0","pricing_plan_id":"cebpf4jnsgd1na2vs0mg"},{"bike_id":"ac8c2064-cd59-4c08-a0cc-57a6b4b1952f","system_id":"levelo_inurba_marseille","lat":43.29526,"lon":5.39039,"is_reserved":false,"is_disabled":false,"rental_uris":{"android":"levelo://app?vid=ac8c2064-cd59-4c08-a0cc-57a6b4b1952f","ios":"levelo://app?vid=ac8c2064-cd59-4c08-a0cc-57a6b4b1952f"},"vehicle_type_id":"4","last_reported":1726772791,"current_range_meters":3200,"station_id":"ce4bh3p2rcd13ifvqdp0","pricing_plan_id":"cebpf4jnsgd1na2vs0mg"},{"bike_id":"aff3f781-0b85-4632-b931-41379274a64a","system_id":"levelo_inurba_marseille","lat":43.28868,"lon":5.3584,"is_reserved":false,"is_disabled":false,"rental_uris":{"android":"levelo://app?vid=aff3f781-0b85-4632-b931-41379274a64a","ios":"levelo://app?vid=aff3f781-0b85-4632-b931-41379274a64a"},"vehicle_type_id":"4","last_reported":1726772791,"current_range_meters":39200,"station_id":"ce4bhb12rcd13ifvqem0","pricing_plan_id":"cebpf4jnsgd1na2vs0mg"},{"bike_id":"3bff283d-d1e6-4606-82ce-98d120ed504d","system_id":"levelo_inurba_marseille","lat":43.28723,"lon":5.37941,"is_reserved":false,"is_disabled":false,"rental_uris":{"android":"levelo://app?vid=3bff283d-d1e6-4606-82ce-98d120ed504d","ios":"levelo://app?vid=3bff283d-d1e6-4606-82ce-98d120ed504d"},"vehicle_type_id":"4","last_reported":1726772791,"current_range_meters":24800,"station_id":"ce4bh9p2rcd13ifvqec0","pricing_plan_id":"cebpf4jnsgd1na2vs0mg"},{"bike_id":"5c643d73-df91-4773-be66-12c4b540fa63","system_id":"levelo_inurba_marseille","lat":43.32363,"lon":5.38884,"is_reserved":false,"is_disabled":false,"rental_uris":{"android":"levelo://app?vid=5c643d73-df91-4773-be66-12c4b540fa63","ios":"levelo://app?vid=5c643d73-df91-4773-be66-12c4b540fa63"},"vehicle_type_id":"4","last_reported":1726772791,"current_range_meters":32800,"station_id":"ce4bhqp2rcd13ifvqhog","pricing_plan_id":"cebpf4jnsgd1na2vs0mg"},{"bike_id":"2f32a331-b49d-477f-aca0-35205690f6ac","system_id":"levelo_inurba_marseille","lat":43.31756,"lon":5.39017,"is_reserved":false,"is_disabled":false,"rental_uris":{"android":"levelo://app?vid=2f32a331-b49d-477f-aca0-35205690f6ac","ios":"levelo://app?vid=2f32a331-b49d-477f-aca0-35205690f6ac"},"vehicle_type_id":"4","last_reported":1726772791,"current_range_meters":4000,"station_id":"ce4bhqp2rcd13ifvqhng","pricing_plan_id":"cebpf4jnsgd1na2vs0mg"},{"bike_id":"b1ab4565-119f-404e-ac17-99dfc9fc3b01","system_id":"levelo_inurba_marseille","lat":43.3388,"lon":5.39164,"is_reserved":false,"is_disabled":false,"rental_uris":{"android":"levelo://app?vid=b1ab4565-119f-404e-ac17-99dfc9fc3b01","ios":"levelo://app?vid=b1ab4565-119f-404e-ac17-99dfc9fc3b01"},"vehicle_type_id":"4","last_reported":1726772791,"current_range_meters":2800,"station_id":"","pricing_plan_id":"cebpf4jnsgd1na2vs0mg"},{"bike_id":"486cd400-e632-4ee8-8f0d-302e2930cd91","system_id":"levelo_inurba_marseille","lat":43.28932,"lon":5.36634,"is_reserved":false,"is_disabled":false,"rental_uris":{"android":"levelo://app?vid=486cd400-e632-4ee8-8f0d-302e2930cd91","ios":"levelo://app?vid=486cd400-e632-4ee8-8f0d-302e2930cd91"},"vehicle_type_id":"4","last_reported":1726772791,"current_range_meters":30800,"station_id":"ce4bhap2rcd13ifvqek0","pricing_plan_id":"cebpf4jnsgd1na2vs0mg"},{"bike_id":"46b50205-10db-4489-9c4a-a2bb44ee29eb","system_id":"levelo_inurba_marseille","lat":43.279999,"lon":5.416601,"is_reserved":false,"is_disabled":false,"rental_uris":{"android":"levelo://app?vid=46b50205-10db-4489-9c4a-a2bb44ee29eb","ios":"levelo://app?vid=46b50205-10db-4489-9c4a-a2bb44ee29eb"},"vehicle_type_id":"4","last_reported":1726772791,"current_range_meters":6400,"station_id":"ce4bho12rcd13ifvqh1g","pricing_plan_id":"cebpf4jnsgd1na2vs0mg"},{"bike_id":"53d33d4e-916e-409b-ad96-797179331e5e","system_id":"levelo_inurba_marseille","lat":43.29579,"lon":5.36748,"is_reserved":false,"is_disabled":false,"rental_uris":{"android":"levelo://app?vid=53d33d4e-916e-409b-ad96-797179331e5e","ios":"levelo://app?vid=53d33d4e-916e-409b-ad96-797179331e5e"},"vehicle_type_id":"4","last_reported":1726772791,"current_range_meters":25600,"station_id":"ce4bgph2rcd13ifvqc2g","pricing_plan_id":"cebpf4jnsgd1na2vs0mg"},{"bike_id":"fa2e946d-01fe-4bb4-a2b0-55af60a0bcec","system_id":"levelo_inurba_marseille","lat":43.33726,"lon":5.3919,"is_reserved":false,"is_disabled":false,"rental_uris":{"android":"levelo://app?vid=fa2e946d-01fe-4bb4-a2b0-55af60a0bcec","ios":"levelo://app?vid=fa2e946d-01fe-4bb4-a2b0-55af60a0bcec"},"vehicle_type_id":"4","last_reported":1726772791,"current_range_meters":36800,"station_id":"ce4bhr92rcd13ifvqhsg","pricing_plan_id":"cebpf4jnsgd1na2vs0mg"},{"bike_id":"e30d9d0b-2d60-433f-8104-c98966672c96","system_id":"levelo_inurba_marseille","lat":43.2902,"lon":5.3814,"is_reserved":false,"is_disabled":false,"rental_uris":{"android":"levelo://app?vid=e30d9d0b-2d60-433f-8104-c98966672c96","ios":"levelo://app?vid=e30d9d0b-2d60-433f-8104-c98966672c96"},"vehicle_type_id":"4","last_reported":1726772791,"current_range_meters":18000,"station_id":"ce4bgi92rcd13ifvqb90","pricing_plan_id":"cebpf4jnsgd1na2vs0mg"},{"bike_id":"9ca298b8-395f-4950-bc15-ccc676d12a48","system_id":"levelo_inurba_marseille","lat":43.31756,"lon":5.39019,"is_reserved":false,"is_disabled":false,"rental_uris":{"android":"levelo://app?vid=9ca298b8-395f-4950-bc15-ccc676d12a48","ios":"levelo://app?vid=9ca298b8-395f-4950-bc15-ccc676d12a48"},"vehicle_type_id":"4","last_reported":1726772791,"current_range_meters":28400,"station_id":"ce4bhqp2rcd13ifvqhng","pricing_plan_id":"cebpf4jnsgd1na2vs0mg"},{"bike_id":"1e609859-2dd0-4e55-802b-9251228e63fa","system_id":"levelo_inurba_marseille","lat":43.302489,"lon":5.400835,"is_reserved":false,"is_disabled":false,"rental_uris":{"android":"levelo://app?vid=1e609859-2dd0-4e55-802b-9251228e63fa","ios":"levelo://app?vid=1e609859-2dd0-4e55-802b-9251228e63fa"},"vehicle_type_id":"4","last_reported":1726772791,"current_range_meters":30400,"station_id":"ce4bgvh2rcd13ifvqcs0","pricing_plan_id":"cebpf4jnsgd1na2vs0mg"},{"bike_id":"328d45f9-980e-4811-97c0-47d761861509","system_id":"levelo_inurba_marseille","lat":43.29847,"lon":5.37836,"is_reserved":false,"is_disabled":false,"rental_uris":{"android":"levelo://app?vid=328d45f9-980e-4811-97c0-47d761861509","ios":"levelo://app?vid=328d45f9-980e-4811-97c0-47d761861509"},"vehicle_type_id":"4","last_reported":1726772791,"current_range_meters":4800,"station_id":"","pricing_plan_id":"cebpf4jnsgd1na2vs0mg"},{"bike_id":"f675b1c8-b516-4c1e-aec8-a13b4f46a47f","system_id":"levelo_inurba_marseille","lat":43.29193,"lon":5.39315,"is_reserved":false,"is_disabled":false,"rental_uris":{"android":"levelo://app?vid=f675b1c8-b516-4c1e-aec8-a13b4f46a47f","ios":"levelo://app?vid=f675b1c8-b516-4c1e-aec8-a13b4f46a47f"},"vehicle_type_id":"4","last_reported":1726772791,"current_range_meters":36400,"station_id":"ce4bh192rcd13ifvqdd0","pricing_plan_id":"cebpf4jnsgd1na2vs0mg"},{"bike_id":"004d0760-71da-40ab-a315-3ee31ae9dd97","system_id":"levelo_inurba_marseille","lat":43.29868,"lon":5.39732,"is_reserved":false,"is_disabled":false,"rental_uris":{"android":"levelo://app?vid=004d0760-71da-40ab-a315-3ee31ae9dd97","ios":"levelo://app?vid=004d0760-71da-40ab-a315-3ee31ae9dd97"},"vehicle_type_id":"4","last_reported":1726772791,"current_range_meters":2800,"station_id":"ce4bh0h2rcd13ifvqd50","pricing_plan_id":"cebpf4jnsgd1na2vs0mg"},{"bike_id":"c82540e0-a9bc-4c48-8000-d9fea61a684f","system_id":"levelo_inurba_marseille","lat":43.323666,"lon":5.388812,"is_reserved":false,"is_disabled":false,"rental_uris":{"android":"levelo://app?vid=c82540e0-a9bc-4c48-8000-d9fea61a684f","ios":"levelo://app?vid=c82540e0-a9bc-4c48-8000-d9fea61a684f"},"vehicle_type_id":"4","last_reported":1726772791,"current_range_meters":38400,"station_id":"ce4bhqp2rcd13ifvqhog","pricing_plan_id":"cebpf4jnsgd1na2vs0mg"},{"bike_id":"f63bce6c-1e21-480d-87f5-fcd354b7da3b","system_id":"levelo_inurba_marseille","lat":43.28154,"lon":5.42642,"is_reserved":false,"is_disabled":false,"rental_uris":{"android":"levelo://app?vid=f63bce6c-1e21-480d-87f5-fcd354b7da3b","ios":"levelo://app?vid=f63bce6c-1e21-480d-87f5-fcd354b7da3b"},"vehicle_type_id":"4","last_reported":1726772791,"current_range_meters":3200,"station_id":"ce4bhnh2rcd13ifvqgug","pricing_plan_id":"cebpf4jnsgd1na2vs0mg"},{"bike_id":"fa690805-233a-4a70-a9f3-33f1b67cdb1f","system_id":"levelo_inurba_marseille","lat":43.32277,"lon":5.38272,"is_reserved":false,"is_disabled":false,"rental_uris":{"android":"levelo://app?vid=fa690805-233a-4a70-a9f3-33f1b67cdb1f","ios":"levelo://app?vid=fa690805-233a-4a70-a9f3-33f1b67cdb1f"},"vehicle_type_id":"4","last_reported":1726772791,"current_range_meters":22800,"station_id":"ce4bhr12rcd13ifvqhqg","pricing_plan_id":"cebpf4jnsgd1na2vs0mg"},{"bike_id":"8eb83656-73eb-4a94-bed3-5f48e43155db","system_id":"levelo_inurba_marseille","lat":43.26484,"lon":5.39551,"is_reserved":false,"is_disabled":false,"rental_uris":{"android":"levelo://app?vid=8eb83656-73eb-4a94-bed3-5f48e43155db","ios":"levelo://app?vid=8eb83656-73eb-4a94-bed3-5f48e43155db"},"vehicle_type_id":"4","last_reported":1726772791,"current_range_meters":26000,"station_id":"ce4bhi12rcd13ifvqfq0","pricing_plan_id":"cebpf4jnsgd1na2vs0mg"},{"bike_id":"6b78d7ee-236d-4b0e-a5aa-3b9305633033","system_id":"levelo_inurba_marseille","lat":43.28452,"lon":5.35889,"is_reserved":false,"is_disabled":false,"rental_uris":{"android":"levelo://app?vid=6b78d7ee-236d-4b0e-a5aa-3b9305633033","ios":"levelo://app?vid=6b78d7ee-236d-4b0e-a5aa-3b9305633033"},"vehicle_type_id":"4","last_reported":1726772791,"current_range_meters":27600,"station_id":"ce4bhah2rcd13ifvqei0","pricing_plan_id":"cebpf4jnsgd1na2vs0mg"},{"bike_id":"b2763354-ec6c-4733-8de6-6c4493759ae9","system_id":"levelo_inurba_marseille","lat":43.29073,"lon":5.40173,"is_reserved":false,"is_disabled":false,"rental_uris":{"android":"levelo://app?vid=b2763354-ec6c-4733-8de6-6c4493759ae9","ios":"levelo://app?vid=b2763354-ec6c-4733-8de6-6c4493759ae9"},"vehicle_type_id":"4","last_reported":1726772791,"current_range_meters":25200,"station_id":"","pricing_plan_id":"cebpf4jnsgd1na2vs0mg"},{"bike_id":"fa4f10c2-c300-4092-afc5-10efd226a879","system_id":"levelo_inurba_marseille","lat":43.28077,"lon":5.39654,"is_reserved":false,"is_disabled":false,"rental_uris":{"android":"levelo://app?vid=fa4f10c2-c300-4092-afc5-10efd226a879","ios":"levelo://app?vid=fa4f10c2-c300-4092-afc5-10efd226a879"},"vehicle_type_id":"4","last_reported":1726772791,"current_range_meters":38800,"station_id":"ce4bho12rcd13ifvqh2g","pricing_plan_id":"cebpf4jnsgd1na2vs0mg"},{"bike_id":"e091b79d-b4dd-4495-8b69-b79765ab19a2","system_id":"levelo_inurba_marseille","lat":43.2845,"lon":5.35891,"is_reserved":false,"is_disabled":false,"rental_uris":{"android":"levelo://app?vid=e091b79d-b4dd-4495-8b69-b79765ab19a2","ios":"levelo://app?vid=e091b79d-b4dd-4495-8b69-b79765ab19a2"},"vehicle_type_id":"4","last_reported":1726772791,"current_range_meters":10000,"station_id":"ce4bhah2rcd13ifvqei0","pricing_plan_id":"cebpf4jnsgd1na2vs0mg"},{"bike_id":"659d1d8c-0349-4f38-9fd0-3f7d1c365089","system_id":"levelo_inurba_marseille","lat":43.28369,"lon":5.3865,"is_reserved":false,"is_disabled":false,"rental_uris":{"android":"levelo://app?vid=659d1d8c-0349-4f38-9fd0-3f7d1c365089","ios":"levelo://app?vid=659d1d8c-0349-4f38-9fd0-3f7d1c365089"},"vehicle_type_id":"4","last_reported":1726772791,"current_range_meters":22000,"station_id":"ce4bh492rcd13ifvqdvg","pricing_plan_id":"cebpf4jnsgd1na2vs0mg"},{"bike_id":"8c131cce-fd58-4a11-9cb0-31ab18aa3188","system_id":"levelo_inurba_marseille","lat":43.31884,"lon":5.40746,"is_reserved":false,"is_disabled":false,"rental_uris":{"android":"levelo://app?vid=8c131cce-fd58-4a11-9cb0-31ab18aa3188","ios":"levelo://app?vid=8c131cce-fd58-4a11-9cb0-31ab18aa3188"},"vehicle_type_id":"4","last_reported":1726772791,"current_range_meters":39200,"station_id":"ce4bhq12rcd13ifvqhig","pricing_plan_id":"cebpf4jnsgd1na2vs0mg"},{"bike_id":"fe780c9c-7e13-4b38-81ce-ea43f071d76c","system_id":"levelo_inurba_marseille","lat":43.23063,"lon":5.35499,"is_reserved":false,"is_disabled":false,"rental_uris":{"android":"levelo://app?vid=fe780c9c-7e13-4b38-81ce-ea43f071d76c","ios":"levelo://app?vid=fe780c9c-7e13-4b38-81ce-ea43f071d76c"},"vehicle_type_id":"4","last_reported":1726772791,"current_range_meters":35600,"station_id":"cpo3342slgdg3j2ifvpg","pricing_plan_id":"cebpf4jnsgd1na2vs0mg"},{"bike_id":"b51d0467-8830-45c7-97f3-6aca23525a66","system_id":"levelo_inurba_marseille","lat":43.28994,"lon":5.35617,"is_reserved":false,"is_disabled":false,"rental_uris":{"android":"levelo://app?vid=b51d0467-8830-45c7-97f3-6aca23525a66","ios":"levelo://app?vid=b51d0467-8830-45c7-97f3-6aca23525a66"},"vehicle_type_id":"4","last_reported":1726772791,"current_range_meters":38800,"station_id":"ce4bhb92rcd13ifvqen0","pricing_plan_id":"cebpf4jnsgd1na2vs0mg"},{"bike_id":"fff22dbc-cd00-4e53-b7af-0e080e25248f","system_id":"levelo_inurba_marseille","lat":43.28931,"lon":5.36639,"is_reserved":false,"is_disabled":false,"rental_uris":{"android":"levelo://app?vid=fff22dbc-cd00-4e53-b7af-0e080e25248f","ios":"levelo://app?vid=fff22dbc-cd00-4e53-b7af-0e080e25248f"},"vehicle_type_id":"4","last_reported":1726772791,"current_range_meters":30800,"station_id":"ce4bhap2rcd13ifvqek0","pricing_plan_id":"cebpf4jnsgd1na2vs0mg"},{"bike_id":"38cb7dfd-06a0-4fa3-94e6-db5dd5315f15","system_id":"levelo_inurba_marseille","lat":43.25859,"lon":5.39914,"is_reserved":false,"is_disabled":false,"rental_uris":{"android":"levelo://app?vid=38cb7dfd-06a0-4fa3-94e6-db5dd5315f15","ios":"levelo://app?vid=38cb7dfd-06a0-4fa3-94e6-db5dd5315f15"},"vehicle_type_id":"4","last_reported":1726772791,"current_range_meters":8000,"station_id":"ce4bhl92rcd13ifvqghg","pricing_plan_id":"cebpf4jnsgd1na2vs0mg"},{"bike_id":"42737279-ffa2-4fde-8abb-3fc7aa8ed902","system_id":"levelo_inurba_marseille","lat":43.29805,"lon":5.40403,"is_reserved":false,"is_disabled":false,"rental_uris":{"android":"levelo://app?vid=42737279-ffa2-4fde-8abb-3fc7aa8ed902","ios":"levelo://app?vid=42737279-ffa2-4fde-8abb-3fc7aa8ed902"},"vehicle_type_id":"4","last_reported":1726772791,"current_range_meters":26000,"station_id":"ce4bh112rcd13ifvqd90","pricing_plan_id":"cebpf4jnsgd1na2vs0mg"},{"bike_id":"ac1ab480-eb92-426b-ba9d-b2e950b769ae","system_id":"levelo_inurba_marseille","lat":43.308,"lon":5.4353,"is_reserved":false,"is_disabled":false,"rental_uris":{"android":"levelo://app?vid=ac1ab480-eb92-426b-ba9d-b2e950b769ae","ios":"levelo://app?vid=ac1ab480-eb92-426b-ba9d-b2e950b769ae"},"vehicle_type_id":"4","last_reported":1726772791,"current_range_meters":10000,"station_id":"ce4bhph2rcd13ifvqheg","pricing_plan_id":"cebpf4jnsgd1na2vs0mg"},{"bike_id":"92dd1f62-4d48-4f0a-9710-c3047f413fb0","system_id":"levelo_inurba_marseille","lat":43.28032,"lon":5.36936,"is_reserved":false,"is_disabled":false,"rental_uris":{"android":"levelo://app?vid=92dd1f62-4d48-4f0a-9710-c3047f413fb0","ios":"levelo://app?vid=92dd1f62-4d48-4f0a-9710-c3047f413fb0"},"vehicle_type_id":"4","last_reported":1726772791,"current_range_meters":24800,"station_id":"ce4bha12rcd13ifvqef0","pricing_plan_id":"cebpf4jnsgd1na2vs0mg"},{"bike_id":"3b5c402c-27d5-4010-ae48-42592c44e1cb","system_id":"levelo_inurba_marseille","lat":43.292,"lon":5.38272,"is_reserved":false,"is_disabled":false,"rental_uris":{"android":"levelo://app?vid=3b5c402c-27d5-4010-ae48-42592c44e1cb","ios":"levelo://app?vid=3b5c402c-27d5-4010-ae48-42592c44e1cb"},"vehicle_type_id":"4","last_reported":1726772791,"current_range_meters":30400,"station_id":"","pricing_plan_id":"cebpf4jnsgd1na2vs0mg"},{"bike_id":"6062b5c3-611e-45af-92d0-d5471a666408","system_id":"levelo_inurba_marseille","lat":43.31148,"lon":5.37217,"is_reserved":false,"is_disabled":false,"rental_uris":{"android":"levelo://app?vid=6062b5c3-611e-45af-92d0-d5471a666408","ios":"levelo://app?vid=6062b5c3-611e-45af-92d0-d5471a666408"},"vehicle_type_id":"4","last_reported":1726772791,"current_range_meters":8400,"station_id":"","pricing_plan_id":"cebpf4jnsgd1na2vs0mg"},{"bike_id":"85c8641b-acb0-4bf3-81ad-edb9c4fca0a9","system_id":"levelo_inurba_marseille","lat":43.30951,"lon":5.39054,"is_reserved":false,"is_disabled":false,"rental_uris":{"android":"levelo://app?vid=85c8641b-acb0-4bf3-81ad-edb9c4fca0a9","ios":"levelo://app?vid=85c8641b-acb0-4bf3-81ad-edb9c4fca0a9"},"vehicle_type_id":"4","last_reported":1726772791,"current_range_meters":36400,"station_id":"ce4bgup2rcd13ifvqco0","pricing_plan_id":"cebpf4jnsgd1na2vs0mg"},{"bike_id":"f4cbd76f-e403-43db-8f45-875d12f4e2db","system_id":"levelo_inurba_marseille","lat":43.2902,"lon":5.37579,"is_reserved":false,"is_disabled":false,"rental_uris":{"android":"levelo://app?vid=f4cbd76f-e403-43db-8f45-875d12f4e2db","ios":"levelo://app?vid=f4cbd76f-e403-43db-8f45-875d12f4e2db"},"vehicle_type_id":"4","last_reported":1726772791,"current_range_meters":35600,"station_id":"ce4bh692rcd13ifvqe90","pricing_plan_id":"cebpf4jnsgd1na2vs0mg"},{"bike_id":"c2c9a555-6ec8-4b92-b33e-073571605c93","system_id":"levelo_inurba_marseille","lat":43.23193,"lon":5.35545,"is_reserved":false,"is_disabled":false,"rental_uris":{"android":"levelo://app?vid=c2c9a555-6ec8-4b92-b33e-073571605c93","ios":"levelo://app?vid=c2c9a555-6ec8-4b92-b33e-073571605c93"},"vehicle_type_id":"4","last_reported":1726772791,"current_range_meters":30400,"station_id":"ce4bhu92rcd13ifvqi70","pricing_plan_id":"cebpf4jnsgd1na2vs0mg"},{"bike_id":"807d4a68-6f4b-4f4c-8289-6912fadc53ee","system_id":"levelo_inurba_marseille","lat":43.314888,"lon":5.373071,"is_reserved":false,"is_disabled":false,"rental_uris":{"android":"levelo://app?vid=807d4a68-6f4b-4f4c-8289-6912fadc53ee","ios":"levelo://app?vid=807d4a68-6f4b-4f4c-8289-6912fadc53ee"},"vehicle_type_id":"4","last_reported":1726772791,"current_range_meters":36400,"station_id":"ce4bgt12rcd13ifvqcd0","pricing_plan_id":"cebpf4jnsgd1na2vs0mg"},{"bike_id":"787e322a-27b3-46ab-aebb-5b824e874f69","system_id":"levelo_inurba_marseille","lat":43.30947,"lon":5.39043,"is_reserved":false,"is_disabled":false,"rental_uris":{"android":"levelo://app?vid=787e322a-27b3-46ab-aebb-5b824e874f69","ios":"levelo://app?vid=787e322a-27b3-46ab-aebb-5b824e874f69"},"vehicle_type_id":"4","last_reported":1726772791,"current_range_meters":35200,"station_id":"ce4bgup2rcd13ifvqco0","pricing_plan_id":"cebpf4jnsgd1na2vs0mg"},{"bike_id":"62997862-0566-49dc-92c6-a8477c05ade8","system_id":"levelo_inurba_marseille","lat":43.27071,"lon":5.42284,"is_reserved":false,"is_disabled":false,"rental_uris":{"android":"levelo://app?vid=62997862-0566-49dc-92c6-a8477c05ade8","ios":"levelo://app?vid=62997862-0566-49dc-92c6-a8477c05ade8"},"vehicle_type_id":"4","last_reported":1726772791,"current_range_meters":38800,"station_id":"ce4bhk92rcd13ifvqgb0","pricing_plan_id":"cebpf4jnsgd1na2vs0mg"},{"bike_id":"910a3874-b7cd-4b0e-9cf9-46a3d2109ef7","system_id":"levelo_inurba_marseille","lat":43.30881,"lon":5.39649,"is_reserved":false,"is_disabled":false,"rental_uris":{"android":"levelo://app?vid=910a3874-b7cd-4b0e-9cf9-46a3d2109ef7","ios":"levelo://app?vid=910a3874-b7cd-4b0e-9cf9-46a3d2109ef7"},"vehicle_type_id":"4","last_reported":1726772791,"current_range_meters":10800,"station_id":"ce4bh012rcd13ifvqcv0","pricing_plan_id":"cebpf4jnsgd1na2vs0mg"},{"bike_id":"3ea8f54f-9145-4e7d-b8dd-375864b1fadc","system_id":"levelo_inurba_marseille","lat":43.31996,"lon":5.37208,"is_reserved":false,"is_disabled":false,"rental_uris":{"android":"levelo://app?vid=3ea8f54f-9145-4e7d-b8dd-375864b1fadc","ios":"levelo://app?vid=3ea8f54f-9145-4e7d-b8dd-375864b1fadc"},"vehicle_type_id":"4","last_reported":1726772791,"current_range_meters":17600,"station_id":"","pricing_plan_id":"cebpf4jnsgd1na2vs0mg"},{"bike_id":"0c3b866d-e00d-49a7-b536-211418e7a3cb","system_id":"levelo_inurba_marseille","lat":43.28657,"lon":5.3637,"is_reserved":false,"is_disabled":false,"rental_uris":{"android":"levelo://app?vid=0c3b866d-e00d-49a7-b536-211418e7a3cb","ios":"levelo://app?vid=0c3b866d-e00d-49a7-b536-211418e7a3cb"},"vehicle_type_id":"4","last_reported":1726772791,"current_range_meters":24400,"station_id":"ce4bhah2rcd13ifvqej0","pricing_plan_id":"cebpf4jnsgd1na2vs0mg"},{"bike_id":"a21eeab9-f6cf-48a0-b953-7797866f6789","system_id":"levelo_inurba_marseille","lat":43.27998,"lon":5.4002,"is_reserved":false,"is_disabled":false,"rental_uris":{"android":"levelo://app?vid=a21eeab9-f6cf-48a0-b953-7797866f6789","ios":"levelo://app?vid=a21eeab9-f6cf-48a0-b953-7797866f6789"},"vehicle_type_id":"4","last_reported":1726772791,"current_range_meters":17200,"station_id":"ce4bho92rcd13ifvqh4g","pricing_plan_id":"cebpf4jnsgd1na2vs0mg"},