{"last_updated":1721070384,"ttl":30,"version":"2.2","data":{"bikes":[{"bike_id":"20aec337-c201-4585-a1cc-fc8caf380b4d","system_id":"levelo_inurba_marseille","lat":43.313391,"lon":5.36706,"is_reserved":false,"is_disabled":false,"rental_uris":{"android":"levelo://app?vid=20aec337-c201-4585-a1cc-fc8caf380b4d","ios":"levelo://app?vid=20aec337-c201-4585-a1cc-fc8caf380b4d"},"vehicle_type_id":"4","last_reported":1721070384,"current_range_meters":6400,"station_id":"ce4bgr92rcd13ifvqc6g","pricing_plan_id":"cebpf4jnsgd1na2vs0mg"},{"bike_id":"772c6df2-576d-415a-b96e-a1ae86ee9bc2","system_id":"levelo_inurba_marseille","lat":43.314811,"lon":5.373104,"is_reserved":false,"is_disabled":false,"rental_uris":{"android":"levelo://app?vid=772c6df2-576d-415a-b96e-a1ae86ee9bc2","ios":"levelo://app?vid=772c6df2-576d-415a-b96e-a1ae86ee9bc2"},"vehicle_type_id":"4","last_reported":1721070384,"current_range_meters":0,"station_id":"ce4bgt12rcd13ifvqcd0","pricing_plan_id":"cebpf4jnsgd1na2vs0mg"},{"bike_id":"cac0b868-da8c-42e7-8f40-3e238d1c2b31","system_id":"levelo_inurba_marseille","lat":43.309034,"lon":5.371783,"is_reserved":false,"is_disabled":false,"rental_uris":{"android":"levelo://app?vid=cac0b868-da8c-42e7-8f40-3e238d1c2b31","ios":"levelo://app?vid=cac0b868-da8c-42e7-8f40-3e238d1c2b31"},"vehicle_type_id":"4","last_reported":1721070384,"current_range_meters":400,"station_id":"ce4bguh2rcd13ifvqckg","pricing_plan_id":"cebpf4jnsgd1na2vs0mg"},{"bike_id":"b5dad237-c82c-44ad-9896-7416ec24a5c0","system_id":"levelo_inurba_marseille","lat":43.30528,"lon":5.36547,"is_reserved":false,"is_disabled":false,"rental_uris":{"android":"levelo://app?vid=b5dad237-c82c-44ad-9896-7416ec24a5c0","ios":"levelo://app?vid=b5dad237-c82c-44ad-9896-7416ec24a5c0"},"vehicle_type_id":"4","last_reported":1721070384,"current_range_meters":0,"station_id":"ce4bgs12rcd13ifvqcag","pricing_plan_id":"cebpf4jnsgd1na2vs0mg"},{"bike_id":"f5690831-7e07-4300-ad83-72d0243cbb8c","system_id":"levelo_inurba_marseille","lat":43.30601,"lon":5.37242,"is_reserved":false,"is_disabled":false,"rental_uris":{"android":"levelo://app?vid=f5690831-7e07-4300-ad83-72d0243cbb8c","ios":"levelo://app?vid=f5690831-7e07-4300-ad83-72d0243cbb8c"},"vehicle_type_id":"4","last_reported":1721070384,"current_range_meters":17600,"station_id":"ce4bgqh2rcd13ifvqc4g","pricing_plan_id":"cebpf4jnsgd1na2vs0mg"},{"bike_id":"f89478e4-d4df-49f9-8119-0db8ca40a56b","system_id":"levelo_inurba_marseille","lat":43.311125,"lon":5.377624,"is_reserved":false,"is_disabled":false,"rental_uris":{"android":"levelo://app?vid=f89478e4-d4df-49f9-8119-0db8ca40a56b","ios":"levelo://app?vid=f89478e4-d4df-49f9-8119-0db8ca40a56b"},"vehicle_type_id":"4","last_reported":1721070384,"current_range_meters":400,"station_id":"ce4bgt92rcd13ifvqcg0","pricing_plan_id":"cebpf4jnsgd1na2vs0mg"},{"bike_id":"53692a49-96d2-463c-96ac-8f9c2dbaf818","system_id":"levelo_inurba_marseille","lat":43.311125,"lon":5.377624,"is_reserved":false,"is_disabled":false,"rental_uris":{"android":"levelo://app?vid=53692a49-96d2-463c-96ac-8f9c2dbaf818","ios":"levelo://app?vid=53692a49-96d2-463c-96ac-8f9c2dbaf818"},"vehicle_type_id":"4","last_reported":1721070384,"current_range_meters":400,"station_id":"ce4bgt92rcd13ifvqcg0","pricing_plan_id":"cebpf4jnsgd1na2vs0mg"},{"bike_id":"b8dd9588-1f87-4683-8176-2cbeaad852d3","system_id":"levelo_inurba_marseille","lat":43.311125,"lon":5.377624,"is_reserved":false,"is_disabled":false,"rental_uris":{"android":"levelo://app?vid=b8dd9588-1f87-4683-8176-2cbeaad852d3","ios":"levelo://app?vid=b8dd9588-1f87-4683-8176-2cbeaad852d3"},"vehicle_type_id":"4","last_reported":1721070384,"current_range_meters":7200,"station_id":"ce4bgt92rcd13ifvqcg0","pricing_plan_id":"cebpf4jnsgd1na2vs0mg"},{"bike_id":"0f1e76c4-642e-472e-8add-9fbbf4faf823","system_id":"levelo_inurba_marseille","lat":43.307945,"lon":5.376487,"is_reserved":false,"is_disabled":false,"rental_uris":{"android":"levelo://app?vid=0f1e76c4-642e-472e-8add-9fbbf4faf823","ios":"levelo://app?vid=0f1e76c4-642e-472e-8add-9fbbf4faf823"},"vehicle_type_id":"4","last_reported":1721070384,"current_range_meters":15200,"station_id":"ce4bgv92rcd13ifvqcq0","pricing_plan_id":"cebpf4jnsgd1na2vs0mg"},{"bike_id":"7025c5ff-af0c-4f71-bd6f-75efcd8dcbce","system_id":"levelo_inurba_marseille","lat":43.307945,"lon":5.376487,"is_reserved":false,"is_disabled":false,"rental_uris":{"android":"levelo://app?vid=7025c5ff-af0c-4f71-bd6f-75efcd8dcbce","ios":"levelo://app?vid=7025c5ff-af0c-4f71-bd6f-75efcd8dcbce"},"vehicle_type_id":"4","last_reported":1721070384,"current_range_meters":2800,"station_id":"ce4bgv92rcd13ifvqcq0","pricing_plan_id":"cebpf4jnsgd1na2vs0mg"},{"bike_id":"6a1479b7-9b65-4689-94dc-7ccad924ca8c","system_id":"levelo_inurba_marseille","lat":43.307945,"lon":5.376487,"is_reserved":false,"is_disabled":false,"rental_uris":{"android":"levelo://app?vid=6a1479b7-9b65-4689-94dc-7ccad924ca8c","ios":"levelo://app?vid=6a1479b7-9b65-4689-94dc-7ccad924ca8c"},"vehicle_type_id":"4","last_reported":1721070384,"current_range_meters":14000,"station_id":"ce4bgv92rcd13ifvqcq0","pricing_plan_id":"cebpf4jnsgd1na2vs0mg"},{"bike_id":"67b5c49c-bd16-44ac-97f1-c8047450ac13","system_id":"levelo_inurba_marseille","lat":43.317075,"lon":5.377367,"is_reserved":false,"is_disabled":false,"rental_uris":{"android":"levelo://app?vid=67b5c49c-bd16-44ac-97f1-c8047450ac13","ios":"levelo://app?vid=67b5c49c-bd16-44ac-97f1-c8047450ac13"},"vehicle_type_id":"4","last_reported":1721070384,"current_range_meters":0,"station_id":"ce4bgth2rcd13ifvqch0","pricing_plan_id":"cebpf4jnsgd1na2vs0mg"},{"bike_id":"6bdb53c8-e94c-43d8-a135-ae62ec296e92","system_id":"levelo_inurba_marseille","lat":43.315289,"lon":5.380349,"is_reserved":false,"is_disabled":false,"rental_uris":{"android":"levelo://app?vid=6bdb53c8-e94c-43d8-a135-ae62ec296e92","ios":"levelo://app?vid=6bdb53c8-e94c-43d8-a135-ae62ec296e92"},"vehicle_type_id":"4","last_reported":1721070384,"current_range_meters":0,"station_id":"ce4bhsp2rcd13ifvqi50","pricing_plan_id":"cebpf4jnsgd1na2vs0mg"},{"bike_id":"832f9f7a-7911-4775-8e76-d3834ae76a45","system_id":"levelo_inurba_marseille","lat":43.301939,"lon":5.366286,"is_reserved":false,"is_disabled":false,"rental_uris":{"android":"levelo://app?vid=832f9f7a-7911-4775-8e76-d3834ae76a45","ios":"levelo://app?vid=832f9f7a-7911-4775-8e76-d3834ae76a45"},"vehicle_type_id":"4","last_reported":1721070384,"current_range_meters":27600,"station_id":"ce4bgrh2rcd13ifvqc8g","pricing_plan_id":"cebpf4jnsgd1na2vs0mg"},{"bike_id":"886e7c5d-e885-4adc-8654-084fc5614d49","system_id":"levelo_inurba_marseille","lat":43.308012,"lon":5.381511,"is_reserved":false,"is_disabled":false,"rental_uris":{"android":"levelo://app?vid=886e7c5d-e885-4adc-8654-084fc5614d49","ios":"levelo://app?vid=886e7c5d-e885-4adc-8654-084fc5614d49"},"vehicle_type_id":"4","last_reported":1721070384,"current_range_meters":20800,"station_id":"ce4bgt12rcd13ifvqce0","pricing_plan_id":"cebpf4jnsgd1na2vs0mg"},{"bike_id":"aa759a6b-ffc9-43fe-bdbd-52b211442702","system_id":"levelo_inurba_marseille","lat":43.308012,"lon":5.381511,"is_reserved":false,"is_disabled":false,"rental_uris":{"android":"levelo://app?vid=aa759a6b-ffc9-43fe-bdbd-52b211442702","ios":"levelo://app?vid=aa759a6b-ffc9-43fe-bdbd-52b211442702"},"vehicle_type_id":"4","last_reported":1721070384,"current_range_meters":12800,"station_id":"ce4bgt12rcd13ifvqce0","pricing_plan_id":"cebpf4jnsgd1na2vs0mg"},{"bike_id":"b4b2583b-fe96-4992-b151-9c65df8a0f22","system_id":"levelo_inurba_marseille","lat":43.307948,"lon":5.381389,"is_reserved":false,"is_disabled":false,"rental_uris":{"android":"levelo://app?vid=b4b2583b-fe96-4992-b151-9c65df8a0f22","ios":"levelo://app?vid=b4b2583b-fe96-4992-b151-9c65df8a0f22"},"vehicle_type_id":"4","last_reported":1721070384,"current_range_meters":0,"station_id":"ce4bgt12rcd13ifvqce0","pricing_plan_id":"cebpf4jnsgd1na2vs0mg"},{"bike_id":"f563b532-902d-457e-b84f-0545d3e43331","system_id":"levelo_inurba_marseille","lat":43.308012,"lon":5.381511,"is_reserved":false,"is_disabled":false,"rental_uris":{"android":"levelo://app?vid=f563b532-902d-457e-b84f-0545d3e43331","ios":"levelo://app?vid=f563b532-902d-457e-b84f-0545d3e43331"},"vehicle_type_id":"4","last_reported":1721070384,"current_range_meters":7600,"station_id":"ce4bgt12rcd13ifvqce0","pricing_plan_id":"cebpf4jnsgd1na2vs0mg"},{"bike_id":"3cd3b4e5-7880-4214-b10c-f65d9bfa7c39","system_id":"levelo_inurba_marseille","lat":43.308012,"lon":5.381511,"is_reserved":false,"is_disabled":false,"rental_uris":{"android":"levelo://app?vid=3cd3b4e5-7880-4214-b10c-f65d9bfa7c39","ios":"levelo://app?vid=3cd3b4e5-7880-4214-b10c-f65d9bfa7c39"},"vehicle_type_id":"4","last_reported":1721070384,"current_range_meters":12800,"station_id":"ce4bgt12rcd13ifvqce0","pricing_plan_id":"cebpf4jnsgd1na2vs0mg"},{"bike_id":"2745b287-18b5-4381-8e19-f461698ded1c","system_id":"levelo_inurba_marseille","lat":43.308012,"lon":5.381511,"is_reserved":false,"is_disabled":false,"rental_uris":{"android":"levelo://app?vid=2745b287-18b5-4381-8e19-f461698ded1c","ios":"levelo://app?vid=2745b287-18b5-4381-8e19-f461698ded1c"},"vehicle_type_id":"4","last_reported":1721070384,"current_range_meters":1600,"station_id":"ce4bgt12rcd13ifvqce0","pricing_plan_id":"cebpf4jnsgd1na2vs0mg"},{"bike_id":"78763668-9861-4f99-90da-c985e69c86e5","system_id":"levelo_inurba_marseille","lat":43.30806,"lon":5.38158,"is_reserved":false,"is_disabled":false,"rental_uris":{"android":"levelo://app?vid=78763668-9861-4f99-90da-c985e69c86e5","ios":"levelo://app?vid=78763668-9861-4f99-90da-c985e69c86e5"},"vehicle_type_id":"4","last_reported":1721070384,"current_range_meters":18800,"station_id":"ce4bgt12rcd13ifvqce0","pricing_plan_id":"cebpf4jnsgd1na2vs0mg"},{"bike_id":"0c231e2e-81c6-4321-bb14-12915551a1c3","system_id":"levelo_inurba_marseille","lat":43.308012,"lon":5.381511,"is_reserved":false,"is_disabled":false,"rental_uris":{"android":"levelo://app?vid=0c231e2e-81c6-4321-bb14-12915551a1c3","ios":"levelo://app?vid=0c231e2e-81c6-4321-bb14-12915551a1c3"},"vehicle_type_id":"4","last_reported":1721070384,"current_range_meters":22000,"station_id":"ce4bgt12rcd13ifvqce0","pricing_plan_id":"cebpf4jnsgd1na2vs0mg"},{"bike_id":"5fcf4a71-da31-46f7-94aa-52454bfbc087","system_id":"levelo_inurba_marseille","lat":43.308012,"lon":5.381511,"is_reserved":false,"is_disabled":false,"rental_uris":{"android":"levelo://app?vid=5fcf4a71-da31-46f7-94aa-52454bfbc087","ios":"levelo://app?vid=5fcf4a71-da31-46f7-94aa-52454bfbc087"},"vehicle_type_id":"4","last_reported":1721070384,"current_range_meters":5200,"station_id":"ce4bgt12rcd13ifvqce0","pricing_plan_id":"cebpf4jnsgd1na2vs0mg"},{"bike_id":"6ec82950-3e59-4809-b032-78692daf4951","system_id":"levelo_inurba_marseille","lat":43.324771,"lon":5.36557,"is_reserved":false,"is_disabled":false,"rental_uris":{"android":"levelo://app?vid=6ec82950-3e59-4809-b032-78692daf4951","ios":"levelo://app?vid=6ec82950-3e59-4809-b032-78692daf4951"},"vehicle_type_id":"4","last_reported":1721070384,"current_range_meters":18000,"station_id":"ce4bhs12rcd13ifvqhvg","pricing_plan_id":"cebpf4jnsgd1na2vs0mg"},{"bike_id":"d77a49d9-9e08-4ef4-b7c0-95d5f935c20d","system_id":"levelo_inurba_marseille","lat":43.32479,"lon":5.36556,"is_reserved":false,"is_disabled":false,"rental_uris":{"android":"levelo://app?vid=d77a49d9-9e08-4ef4-b7c0-95d5f935c20d","ios":"levelo://app?vid=d77a49d9-9e08-4ef4-b7c0-95d5f935c20d"},"vehicle_type_id":"4","last_reported":1721070384,"current_range_meters":0,"station_id":"ce4bhs12rcd13ifvqhvg","pricing_plan_id":"cebpf4jnsgd1na2vs0mg"},{"bike_id":"54bb3e1a-bf0f-42db-8d8c-e31200f8540a","system_id":"levelo_inurba_marseille","lat":43.32485,"lon":5.36561,"is_reserved":false,"is_disabled":false,"rental_uris":{"android":"levelo://app?vid=54bb3e1a-bf0f-42db-8d8c-e31200f8540a","ios":"levelo://app?vid=54bb3e1a-bf0f-42db-8d8c-e31200f8540a"},"vehicle_type_id":"4","last_reported":1721070384,"current_range_meters":0,"station_id":"ce4bhs12rcd13ifvqhvg","pricing_plan_id":"cebpf4jnsgd1na2vs0mg"},{"bike_id":"11be19c2-17ca-467f-9d19-9a1543787327","system_id":"levelo_inurba_marseille","lat":43.301429,"lon":5.37413,"is_reserved":false,"is_disabled":false,"rental_uris":{"android":"levelo://app?vid=11be19c2-17ca-467f-9d19-9a1543787327","ios":"levelo://app?vid=11be19c2-17ca-467f-9d19-9a1543787327"},"vehicle_type_id":"4","last_reported":1721070384,"current_range_meters":26800,"station_id":"ce4bgs92rcd13ifvqcc0","pricing_plan_id":"cebpf4jnsgd1na2vs0mg"},{"bike_id":"6fe999c8-ca62-4f17-ae41-dc6dec4bd734","system_id":"levelo_inurba_marseille","lat":43.301429,"lon":5.37413,"is_reserved":false,"is_disabled":false,"rental_uris":{"android":"levelo://app?vid=6fe999c8-ca62-4f17-ae41-dc6dec4bd734","ios":"levelo://app?vid=6fe999c8-ca62-4f17-ae41-dc6dec4bd734"},"vehicle_type_id":"4","last_reported":1721070384,"current_range_meters":24800,"station_id":"ce4bgs92rcd13ifvqcc0","pricing_plan_id":"cebpf4jnsgd1na2vs0mg"},{"bike_id":"c064cd0b-ff1c-40de-8b9d-eefd3435dcf1","system_id":"levelo_inurba_marseille","lat":43.305942,"lon":5.381803,"is_reserved":false,"is_disabled":false,"rental_uris":{"android":"levelo://app?vid=c064cd0b-ff1c-40de-8b9d-eefd3435dcf1","ios":"levelo://app?vid=c064cd0b-ff1c-40de-8b9d-eefd3435dcf1"},"vehicle_type_id":"4","last_reported":1721070384,"current_range_meters":19600,"station_id":"","pricing_plan_id":"cebpf4jnsgd1na2vs0mg"},{"bike_id":"57f38072-eb11-4a6e-a523-07fe30b939bf","system_id":"levelo_inurba_marseille","lat":43.299222,"lon":5.365554,"is_reserved":false,"is_disabled":false,"rental_uris":{"android":"levelo://app?vid=57f38072-eb11-4a6e-a523-07fe30b939bf","ios":"levelo://app?vid=57f38072-eb11-4a6e-a523-07fe30b939bf"},"vehicle_type_id":"4","last_reported":1721070384,"current_range_meters":28400,"station_id":"ce4bgm92rcd13ifvqbr0","pricing_plan_id":"cebpf4jnsgd1na2vs0mg"},{"bike_id":"f019a042-4070-48a8-9ea6-4004ac7c061b","system_id":"levelo_inurba_marseille","lat":43.299724,"lon":5.371829,"is_reserved":false,"is_disabled":false,"rental_uris":{"android":"levelo://app?vid=f019a042-4070-48a8-9ea6-4004ac7c061b","ios":"levelo://app?vid=f019a042-4070-48a8-9ea6-4004ac7c061b"},"vehicle_type_id":"4","last_reported":1721070384,"current_range_meters":30800,"station_id":"ce4bgr92rcd13ifvqc7g","pricing_plan_id":"cebpf4jnsgd1na2vs0mg"},{"bike_id":"cf258fa1-c182-42e8-bb85-572cebf67eb2","system_id":"levelo_inurba_marseille","lat":43.305364,"lon":5.384119,"is_reserved":false,"is_disabled":false,"rental_uris":{"android":"levelo://app?vid=cf258fa1-c182-42e8-bb85-572cebf67eb2","ios":"levelo://app?vid=cf258fa1-c182-42e8-bb85-572cebf67eb2"},"vehicle_type_id":"4","last_reported":1721070384,"current_range_meters":8000,"station_id":"ce4bgg92rcd13ifvqb30","pricing_plan_id":"cebpf4jnsgd1na2vs0mg"},{"bike_id":"1ba8ffae-b1f2-44c3-b244-da0967f4562c","system_id":"levelo_inurba_marseille","lat":43.305364,"lon":5.384119,"is_reserved":false,"is_disabled":false,"rental_uris":{"android":"levelo://app?vid=1ba8ffae-b1f2-44c3-b244-da0967f4562c","ios":"levelo://app?vid=1ba8ffae-b1f2-44c3-b244-da0967f4562c"},"vehicle_type_id":"4","last_reported":1721070384,"current_range_meters":28000,"station_id":"ce4bgg92rcd13ifvqb30","pricing_plan_id":"cebpf4jnsgd1na2vs0mg"},{"bike_id":"3a0580ae-95f6-4ea5-8acd-c9985c01739b","system_id":"levelo_inurba_marseille","lat":43.298433,"lon":5.362774,"is_reserved":false,"is_disabled":false,"rental_uris":{"android":"levelo://app?vid=3a0580ae-95f6-4ea5-8acd-c9985c01739b","ios":"levelo://app?vid=3a0580ae-95f6-4ea5-8acd-c9985c01739b"},"vehicle_type_id":"4","last_reported":1721070384,"current_range_meters":12400,"station_id":"ce4bgpp2rcd13ifvqc3g","pricing_plan_id":"cebpf4jnsgd1na2vs0mg"},{"bike_id":"b1b39cc0-3c93-4793-910c-e22f0da52989","system_id":"levelo_inurba_marseille","lat":43.299707,"lon":5.384859,"is_reserved":false,"is_disabled":false,"rental_uris":{"android":"levelo://app?vid=b1b39cc0-3c93-4793-910c-e22f0da52989","ios":"levelo://app?vid=b1b39cc0-3c93-4793-910c-e22f0da52989"},"vehicle_type_id":"4","last_reported":1721070384,"current_range_meters":5600,"station_id":"ce4bgj92rcd13ifvqbd0","pricing_plan_id":"cebpf4jnsgd1na2vs0mg"},{"bike_id":"17dc9aad-d479-4133-8258-0be4b538bdba","system_id":"levelo_inurba_marseille","lat":43.298433,"lon":5.362774,"is_reserved":false,"is_disabled":false,"rental_uris":{"android":"levelo://app?vid=17dc9aad-d479-4133-8258-0be4b538bdba","ios":"levelo://app?vid=17dc9aad-d479-4133-8258-0be4b538bdba"},"vehicle_type_id":"4","last_reported":1721070384,"current_range_meters":28800,"station_id":"ce4bgpp2rcd13ifvqc3g","pricing_plan_id":"cebpf4jnsgd1na2vs0mg"},{"bike_id":"0c762a5a-b14f-470c-8b68-592db04c0ef9","system_id":"levelo_inurba_marseille","lat":43.297774,"lon":5.370875,"is_reserved":false,"is_disabled":false,"rental_uris":{"android":"levelo://app?vid=0c762a5a-b14f-470c-8b68-592db04c0ef9","ios":"levelo://app?vid=0c762a5a-b14f-470c-8b68-592db04c0ef9"},"vehicle_type_id":"4","last_reported":1721070384,"current_range_meters":31200,"station_id":"ce4bgop2rcd13ifvqc1g","pricing_plan_id":"cebpf4jnsgd1na2vs0mg"},{"bike_id":"8d545796-bfd1-4c71-b82b-41fd732c732d","system_id":"levelo_inurba_marseille","lat":43.3015,"lon":5.38088,"is_reserved":false,"is_disabled":false,"rental_uris":{"android":"levelo://app?vid=8d545796-bfd1-4c71-b82b-41fd732c732d","ios":"levelo://app?vid=8d545796-bfd1-4c71-b82b-41fd732c732d"},"vehicle_type_id":"4","last_reported":1721070384,"current_range_meters":22400,"station_id":"","pricing_plan_id":"cebpf4jnsgd1na2vs0mg"},{"bike_id":"d270f9a5-07f1-4b2c-baf6-6fb04a081afc","system_id":"levelo_inurba_marseille","lat":43.322872,"lon":5.382756,"is_reserved":false,"is_disabled":false,"rental_uris":{"android":"levelo://app?vid=d270f9a5-07f1-4b2c-baf6-6fb04a081afc","ios":"levelo://app?vid=d270f9a5-07f1-4b2c-baf6-6fb04a081afc"},"vehicle_type_id":"4","last_reported":1721070384,"current_range_meters":27600,"station_id":"ce4bhr12rcd13ifvqhqg","pricing_plan_id":"cebpf4jnsgd1na2vs0mg"},{"bike_id":"62fc1066-2660-4f1f-82b3-832515cad4e9","system_id":"levelo_inurba_marseille","lat":43.297163,"lon":5.365866,"is_reserved":false,"is_disabled":false,"rental_uris":{"android":"levelo://app?vid=62fc1066-2660-4f1f-82b3-832515cad4e9","ios":"levelo://app?vid=62fc1066-2660-4f1f-82b3-832515cad4e9"},"vehicle_type_id":"4","last_reported":1721070384,"current_range_meters":30000,"station_id":"ce4bgn12rcd13ifvqbt0","pricing_plan_id":"cebpf4jnsgd1na2vs0mg"},{"bike_id":"a0f50007-529d-45ee-be77-7541fedbf4c2","system_id":"levelo_inurba_marseille","lat":43.29573,"lon":5.367355,"is_reserved":false,"is_disabled":false,"rental_uris":{"android":"levelo://app?vid=a0f50007-529d-45ee-be77-7541fedbf4c2","ios":"levelo://app?vid=a0f50007-529d-45ee-be77-7541fedbf4c2"},"vehicle_type_id":"4","last_reported":1721070384,"current_range_meters":8800,"station_id":"ce4bgph2rcd13ifvqc2g","pricing_plan_id":"cebpf4jnsgd1na2vs0mg"},{"bike_id":"33a30149-8907-4625-af29-fc81f7969f22","system_id":"levelo_inurba_marseille","lat":43.29573,"lon":5.367355,"is_reserved":false,"is_disabled":false,"rental_uris":{"android":"levelo://app?vid=33a30149-8907-4625-af29-fc81f7969f22","ios":"levelo://app?vid=33a30149-8907-4625-af29-fc81f7969f22"},"vehicle_type_id":"4","last_reported":1721070384,"current_range_meters":4000,"station_id":"ce4bgph2rcd13ifvqc2g","pricing_plan_id":"cebpf4jnsgd1na2vs0mg"},{"bike_id":"48b4fc49-380c-4b38-8cbc-97a1a977b1c5","system_id":"levelo_inurba_marseille","lat":43.296277,"lon":5.377108,"is_reserved":false,"is_disabled":false,"rental_uris":{"android":"levelo://app?vid=48b4fc49-380c-4b38-8cbc-97a1a977b1c5","ios":"levelo://app?vid=48b4fc49-380c-4b38-8cbc-97a1a977b1c5"},"vehicle_type_id":"4","last_reported":1721070384,"current_range_meters":18400,"station_id":"ce4bgi92rcd13ifvqb90","pricing_plan_id":"cebpf4jnsgd1na2vs0mg"},{"bike_id":"2f73a2ee-c6f9-401d-80da-bc4a8feb1509","system_id":"levelo_inurba_marseille","lat":43.299028,"lon":5.381509,"is_reserved":false,"is_disabled":false,"rental_uris":{"android":"levelo://app?vid=2f73a2ee-c6f9-401d-80da-bc4a8feb1509","ios":"levelo://app?vid=2f73a2ee-c6f9-401d-80da-bc4a8feb1509"},"vehicle_type_id":"4","last_reported":1721070384,"current_range_meters":3600,"station_id":"ce4bgj12rcd13ifvqbc0","pricing_plan_id":"cebpf4jnsgd1na2vs0mg"},{"bike_id":"bd32439b-67ac-4ae1-85b0-aea9810e9318","system_id":"levelo_inurba_marseille","lat":43.32339,"lon":5.38581,"is_reserved":false,"is_disabled":false,"rental_uris":{"android":"levelo://app?vid=bd32439b-67ac-4ae1-85b0-aea9810e9318","ios":"levelo://app?vid=bd32439b-67ac-4ae1-85b0-aea9810e9318"},"vehicle_type_id":"4","last_reported":1721070384,"current_range_meters":29200,"station_id":"","pricing_plan_id":"cebpf4jnsgd1na2vs0mg"},{"bike_id":"53287a4d-7a24-4c93-92fe-6566b2503f87","system_id":"levelo_inurba_marseille","lat":43.317557,"lon":5.390173,"is_reserved":false,"is_disabled":false,"rental_uris":{"android":"levelo://app?vid=53287a4d-7a24-4c93-92fe-6566b2503f87","ios":"levelo://app?vid=53287a4d-7a24-4c93-92fe-6566b2503f87"},"vehicle_type_id":"4","last_reported":1721070384,"current_range_meters":13600,"station_id":"ce4bhqp2rcd13ifvqhng","pricing_plan_id":"cebpf4jnsgd1na2vs0mg"},{"bike_id":"01de10ba-0a6b-4604-b737-7c062d66667e","system_id":"levelo_inurba_marseille","lat":43.29797,"lon":5.38096,"is_reserved":false,"is_disabled":false,"rental_uris":{"android":"levelo://app?vid=01de10ba-0a6b-4604-b737-7c062d66667e","ios":"levelo://app?vid=01de10ba-0a6b-4604-b737-7c062d66667e"},"vehicle_type_id":"4","last_reported":1721070384,"current_range_meters":4000,"station_id":"ce4bgip2rcd13ifvqbb0","pricing_plan_id":"cebpf4jnsgd1na2vs0mg"},{"bike_id":"7dd7930b-40ec-4c29-b371-bb4ee3b708c9","system_id":"levelo_inurba_marseille","lat":43.304274,"lon":5.388873,"is_reserved":false,"is_disabled":false,"rental_uris":{"android":"levelo://app?vid=7dd7930b-40ec-4c29-b371-bb4ee3b708c9","ios":"levelo://app?vid=7dd7930b-40ec-4c29-b371-bb4ee3b708c9"},"vehicle_type_id":"4","last_reported":1721070384,"current_range_meters":6000,"station_id":"ce4bgk12rcd13ifvqbi0","pricing_plan_id":"cebpf4jnsgd1na2vs0mg"},{"bike_id":"19d6d60c-81ba-458c-b3c9-12093516b9bd","system_id":"levelo_inurba_marseille","lat":43.29575,"lon":5.37505,"is_reserved":false,"is_disabled":false,"rental_uris":{"android":"levelo://app?vid=19d6d60c-81ba-458c-b3c9-12093516b9bd","ios":"levelo://app?vid=19d6d60c-81ba-458c-b3c9-12093516b9bd"},"vehicle_type_id":"4","last_reported":1721070384,"current_range_meters":0,"station_id":"","pricing_plan_id":"cebpf4jnsgd1na2vs0mg"},{"bike_id":"719cefc8-1e84-4718-82d9-aebbb49edbdc","system_id":"levelo_inurba_marseille","lat":43.29628,"lon":5.37705,"is_reserved":false,"is_disabled":false,"rental_uris":{"android":"levelo://app?vid=719cefc8-1e84-4718-82d9-aebbb49edbdc","ios":"levelo://app?vid=719cefc8-1e84-4718-82d9-aebbb49edbdc"},"vehicle_type_id":"4","last_reported":1721070384,"current_range_meters":0,"station_id":"ce4bgi92rcd13ifvqb90","pricing_plan_id":"cebpf4jnsgd1na2vs0mg"},{"bike_id":"8d958db8-172e-4471-b04b-74cd121b2b4d","system_id":"levelo_inurba_marseille","lat":43.304274,"lon":5.388873,"is_reserved":false,"is_disabled":false,"rental_uris":{"android":"levelo://app?vid=8d958db8-172e-4471-b04b-74cd121b2b4d","ios":"levelo://app?vid=8d958db8-172e-4471-b04b-74cd121b2b4d"},"vehicle_type_id":"4","last_reported":1721070384,"current_range_meters":0,"station_id":"ce4bgk12rcd13ifvqbi0","pricing_plan_id":"cebpf4jnsgd1na2vs0mg"},{"bike_id":"631e6ea2-961b-42a2-af87-77daf4e3b71f","system_id":"levelo_inurba_marseille","lat":43.296277,"lon":5.377108,"is_reserved":false,"is_disabled":false,"rental_uris":{"android":"levelo://app?vid=631e6ea2-961b-42a2-af87-77daf4e3b71f","ios":"levelo://app?vid=631e6ea2-961b-42a2-af87-77daf4e3b71f"},"vehicle_type_id":"4","last_reported":1721070384,"current_range_meters":26000,"station_id":"ce4bgi92rcd13ifvqb90","pricing_plan_id":"cebpf4jnsgd1na2vs0mg"},{"bike_id":"80a39562-911b-42fb-ab9c-775bed8a43fd","system_id":"levelo_inurba_marseille","lat":43.296277,"lon":5.377108,"is_reserved":false,"is_disabled":false,"rental_uris":{"android":"levelo://app?vid=80a39562-911b-42fb-ab9c-775bed8a43fd","ios":"levelo://app?vid=80a39562-911b-42fb-ab9c-775bed8a43fd"},"vehicle_type_id":"4","last_reported":1721070384,"current_range_meters":15200,"station_id":"ce4bgi92rcd13ifvqb90","pricing_plan_id":"cebpf4jnsgd1na2vs0mg"},{"bike_id":"0c1d6f9c-cd03-4aed-a225-01442d54c2cc","system_id":"levelo_inurba_marseille","lat":43.2979,"lon":5.38108,"is_reserved":false,"is_disabled":false,"rental_uris":{"android":"levelo://app?vid=0c1d6f9c-cd03-4aed-a225-01442d54c2cc","ios":"levelo://app?vid=0c1d6f9c-cd03-4aed-a225-01442d54c2cc"},"vehicle_type_id":"4","last_reported":1721070384,"current_range_meters":18800,"station_id":"ce4bgip2rcd13ifvqbb0","pricing_plan_id":"cebpf4jnsgd1na2vs0mg"},{"bike_id":"25db49a5-6495-4d78-9052-ead83c349fbd","system_id":"levelo_inurba_marseille","lat":43.304278,"lon":5.388868,"is_reserved":false,"is_disabled":false,"rental_uris":{"android":"levelo://app?vid=25db49a5-6495-4d78-9052-ead83c349fbd","ios":"levelo://app?vid=25db49a5-6495-4d78-9052-ead83c349fbd"},"vehicle_type_id":"4","last_reported":1721070384,"current_range_meters":24000,"station_id":"ce4bgk12rcd13ifvqbi0","pricing_plan_id":"cebpf4jnsgd1na2vs0mg"},{"bike_id":"a866acee-f6c9-4f1f-9f60-60c79f69cb84","system_id":"levelo_inurba_marseille","lat":43.304274,"lon":5.388873,"is_reserved":false,"is_disabled":false,"rental_uris":{"android":"levelo://app?vid=a866acee-f6c9-4f1f-9f60-60c79f69cb84","ios":"levelo://app?vid=a866acee-f6c9-4f1f-9f60-60c79f69cb84"},"vehicle_type_id":"4","last_reported":1721070384,"current_range_meters":24400,"station_id":"ce4bgk12rcd13ifvqbi0","pricing_plan_id":"cebpf4jnsgd1na2vs0mg"},{"bike_id":"c2b9a112-cd1e-4528-8bc3-02e5bdd4972e","system_id":"levelo_inurba_marseille","lat":43.296277,"lon":5.377108,"is_reserved":false,"is_disabled":false,"rental_uris":{"android":"levelo://app?vid=c2b9a112-cd1e-4528-8bc3-02e5bdd4972e","ios":"levelo://app?vid=c2b9a112-cd1e-4528-8bc3-02e5bdd4972e"},"vehicle_type_id":"4","last_reported":1721070384,"current_range_meters":25200,"station_id":"ce4bgi92rcd13ifvqb90","pricing_plan_id":"cebpf4jnsgd1na2vs0mg"},{"bike_id":"03722b35-3df1-498c-bb24-d53fa78a2ee9","system_id":"levelo_inurba_marseille","lat":43.304278,"lon":5.388868,"is_reserved":false,"is_disabled":false,"rental_uris":{"android":"levelo://app?vid=03722b35-3df1-498c-bb24-d53fa78a2ee9","ios":"levelo://app?vid=03722b35-3df1-498c-bb24-d53fa78a2ee9"},"vehicle_type_id":"4","last_reported":1721070384,"current_range_meters":8800,"station_id":"ce4bgk12rcd13ifvqbi0","pricing_plan_id":"cebpf4jnsgd1na2vs0mg"},{"bike_id":"401f4b97-2bbe-4ce4-9f02-2072fe50c3d1","system_id":"levelo_inurba_marseille","lat":43.304278,"lon":5.388868,"is_reserved":false,"is_disabled":false,"rental_uris":{"android":"levelo://app?vid=401f4b97-2bbe-4ce4-9f02-2072fe50c3d1","ios":"levelo://app?vid=401f4b97-2bbe-4ce4-9f02-2072fe50c3d1"},"vehicle_type_id":"4","last_reported":1721070384,"current_range_meters":5200,"station_id":"ce4bgk12rcd13ifvqbi0","pricing_plan_id":"cebpf4jnsgd1na2vs0mg"},{"bike_id":"3aa968f9-9e67-4321-91ea-8f009c4b36d2","system_id":"levelo_inurba_marseille","lat":43.304278,"lon":5.388868,"is_reserved":false,"is_disabled":false,"rental_uris":{"android":"levelo://app?vid=3aa968f9-9e67-4321-91ea-8f009c4b36d2","ios":"levelo://app?vid=3aa968f9-9e67-4321-91ea-8f009c4b36d2"},"vehicle_type_id":"4","last_reported":1721070384,"current_range_meters":6400,"station_id":"ce4bgk12rcd13ifvqbi0","pricing_plan_id":"cebpf4jnsgd1na2vs0mg"},{"bike_id":"8f947775-029c-4fa4-9a80-908a97d91014","system_id":"levelo_inurba_marseille","lat":43.296277,"lon":5.377108,"is_reserved":false,"is_disabled":false,"rental_uris":{"android":"levelo://app?vid=8f947775-029c-4fa4-9a80-908a97d91014","ios":"levelo://app?vid=8f947775-029c-4fa4-9a80-908a97d91014"},"vehicle_type_id":"4","last_reported":1721070384,"current_range_meters":12400,"station_id":"ce4bgi92rcd13ifvqb90","pricing_plan_id":"cebpf4jnsgd1na2vs0mg"},{"bike_id":"42e3b071-ee5f-4dde-9cb2-62a928feb994","system_id":"levelo_inurba_marseille","lat":43.296277,"lon":5.377108,"is_reserved":false,"is_disabled":false,"rental_uris":{"android":"levelo://app?vid=42e3b071-ee5f-4dde-9cb2-62a928feb994","ios":"levelo://app?vid=42e3b071-ee5f-4dde-9cb2-62a928feb994"},"vehicle_type_id":"4","last_reported":1721070384,"current_range_meters":2800,"station_id":"ce4bgi92rcd13ifvqb90","pricing_plan_id":"cebpf4jnsgd1na2vs0mg"},{"bike_id":"0aee3f7a-1786-4528-acb8-a88ee73b9a50","system_id":"levelo_inurba_marseille","lat":43.299724,"lon":5.384848,"is_reserved":false,"is_disabled":false,"rental_uris":{"android":"levelo://app?vid=0aee3f7a-1786-4528-acb8-a88ee73b9a50","ios":"levelo://app?vid=0aee3f7a-1786-4528-acb8-a88ee73b9a50"},"vehicle_type_id":"4","last_reported":1721070384,"current_range_meters":18000,"station_id":"ce4bgj92rcd13ifvqbd0","pricing_plan_id":"cebpf4jnsgd1na2vs0mg"},{"bike_id":"239e0100-b84f-4d5b-85c7-945abfb4d8fa","system_id":"levelo_inurba_marseille","lat":43.29553,"lon":5.37723,"is_reserved":false,"is_disabled":false,"rental_uris":{"android":"levelo://app?vid=239e0100-b84f-4d5b-85c7-945abfb4d8fa","ios":"levelo://app?vid=239e0100-b84f-4d5b-85c7-945abfb4d8fa"},"vehicle_type_id":"4","last_reported":1721070384,"current_range_meters":9200,"station_id":"","pricing_plan_id":"cebpf4jnsgd1na2vs0mg"},{"bike_id":"a764d75b-df36-4516-8469-72101a7fa54f","system_id":"levelo_inurba_marseille","lat":43.301396,"lon":5.387812,"is_reserved":false,"is_disabled":false,"rental_uris":{"android":"levelo://app?vid=a764d75b-df36-4516-8469-72101a7fa54f","ios":"levelo://app?vid=a764d75b-df36-4516-8469-72101a7fa54f"},"vehicle_type_id":"4","last_reported":1721070384,"current_range_meters":12800,"station_id":"ce4bghh2rcd13ifvqb60","pricing_plan_id":"cebpf4jnsgd1na2vs0mg"},{"bike_id":"69fcc679-91be-498b-b527-b5aa349790d4","system_id":"levelo_inurba_marseille","lat":43.293009,"lon":5.374584,"is_reserved":false,"is_disabled":false,"rental_uris":{"android":"levelo://app?vid=69fcc679-91be-498b-b527-b5aa349790d4","ios":"levelo://app?vid=69fcc679-91be-498b-b527-b5aa349790d4"},"vehicle_type_id":"4","last_reported":1721070384,"current_range_meters":29600,"station_id":"ce4bgi12rcd13ifvqb70","pricing_plan_id":"cebpf4jnsgd1na2vs0mg"},{"bike_id":"db7c826f-38cc-43ee-8cd3-2ddf7f55f96c","system_id":"levelo_inurba_marseille","lat":43.29605,"lon":5.38097,"is_reserved":false,"is_disabled":false,"rental_uris":{"android":"levelo://app?vid=db7c826f-38cc-43ee-8cd3-2ddf7f55f96c","ios":"levelo://app?vid=db7c826f-38cc-43ee-8cd3-2ddf7f55f96c"},"vehicle_type_id":"4","last_reported":1721070384,"current_range_meters":25600,"station_id":"ce4bgl12rcd13ifvqbo0","pricing_plan_id":"cebpf4jnsgd1na2vs0mg"},{"bike_id":"c7784db3-0fee-4cb4-b070-c63474e8990c","system_id":"levelo_inurba_marseille","lat":43.29602,"lon":5.381084,"is_reserved":false,"is_disabled":false,"rental_uris":{"android":"levelo://app?vid=c7784db3-0fee-4cb4-b070-c63474e8990c","ios":"levelo://app?vid=c7784db3-0fee-4cb4-b070-c63474e8990c"},"vehicle_type_id":"4","last_reported":1721070384,"current_range_meters":14400,"station_id":"ce4bgl12rcd13ifvqbo0","pricing_plan_id":"cebpf4jnsgd1na2vs0mg"},{"bike_id":"c4dbd9a1-0a59-4a47-a882-ef10f1f7045e","system_id":"levelo_inurba_marseille","lat":43.29602,"lon":5.381084,"is_reserved":false,"is_disabled":false,"rental_uris":{"android":"levelo://app?vid=c4dbd9a1-0a59-4a47-a882-ef10f1f7045e","ios":"levelo://app?vid=c4dbd9a1-0a59-4a47-a882-ef10f1f7045e"},"vehicle_type_id":"4","last_reported":1721070384,"current_range_meters":8400,"station_id":"ce4bgl12rcd13ifvqbo0","pricing_plan_id":"cebpf4jnsgd1na2vs0mg"},{"bike_id":"7796358a-23d3-4bc7-b88b-b0c5e84da37d","system_id":"levelo_inurba_marseille","lat":43.29595,"lon":5.38102,"is_reserved":false,"is_disabled":false,"rental_uris":{"android":"levelo://app?vid=7796358a-23d3-4bc7-b88b-b0c5e84da37d","ios":"levelo://app?vid=7796358a-23d3-4bc7-b88b-b0c5e84da37d"},"vehicle_type_id":"4","last_reported":1721070384,"current_range_meters":13200,"station_id":"ce4bgl12rcd13ifvqbo0","pricing_plan_id":"cebpf4jnsgd1na2vs0mg"},{"bike_id":"d28b1918-e34b-4ff9-bae8-77ffd4af424d","system_id":"levelo_inurba_marseille","lat":43.305994,"lon":5.393687,"is_reserved":false,"is_disabled":false,"rental_uris":{"android":"levelo://app?vid=d28b1918-e34b-4ff9-bae8-77ffd4af424d","ios":"levelo://app?vid=d28b1918-e34b-4ff9-bae8-77ffd4af424d"},"vehicle_type_id":"4","last_reported":1721070384,"current_range_meters":12400,"station_id":"ce4bh0p2rcd13ifvqd80","pricing_plan_id":"cebpf4jnsgd1na2vs0mg"},{"bike_id":"d5a8d030-d7a3-4d6d-9965-87632a5372d0","system_id":"levelo_inurba_marseille","lat":43.293249,"lon":5.371578,"is_reserved":false,"is_disabled":false,"rental_uris":{"android":"levelo://app?vid=d5a8d030-d7a3-4d6d-9965-87632a5372d0","ios":"levelo://app?vid=d5a8d030-d7a3-4d6d-9965-87632a5372d0"},"vehicle_type_id":"4","last_reported":1721070384,"current_range_meters":13600,"station_id":"ce4bgh92rcd13ifvqb40","pricing_plan_id":"cebpf4jnsgd1na2vs0mg"},{"bike_id":"d451669e-8cf6-410f-9b4a-1ac8ac4abc04","system_id":"levelo_inurba_marseille","lat":43.292749,"lon":5.368402,"is_reserved":false,"is_disabled":false,"rental_uris":{"android":"levelo://app?vid=d451669e-8cf6-410f-9b4a-1ac8ac4abc04","ios":"levelo://app?vid=d451669e-8cf6-410f-9b4a-1ac8ac4abc04"},"vehicle_type_id":"4","last_reported":1721070384,"current_range_meters":0,"station_id":"ce4bhbp2rcd13ifvqesg","pricing_plan_id":"cebpf4jnsgd1na2vs0mg"},{"bike_id":"230ba4eb-76d9-499d-81eb-68a354c315d8","system_id":"levelo_inurba_marseille","lat":43.293259,"lon":5.371586,"is_reserved":false,"is_disabled":false,"rental_uris":{"android":"levelo://app?vid=230ba4eb-76d9-499d-81eb-68a354c315d8","ios":"levelo://app?vid=230ba4eb-76d9-499d-81eb-68a354c315d8"},"vehicle_type_id":"4","last_reported":1721070384,"current_range_meters":0,"station_id":"ce4bgh92rcd13ifvqb40","pricing_plan_id":"cebpf4jnsgd1na2vs0mg"},{"bike_id":"58b89672-cd07-40b0-b19f-2e1a09dd1d1b","system_id":"levelo_inurba_marseille","lat":43.292749,"lon":5.368398,"is_reserved":false,"is_disabled":false,"rental_uris":{"android":"levelo://app?vid=58b89672-cd07-40b0-b19f-2e1a09dd1d1b","ios":"levelo://app?vid=58b89672-cd07-40b0-b19f-2e1a09dd1d1b"},"vehicle_type_id":"4","last_reported":1721070384,"current_range_meters":22800,"station_id":"ce4bhbp2rcd13ifvqesg","pricing_plan_id":"cebpf4jnsgd1na2vs0mg"},{"bike_id":"b686c836-545f-4e37-ab49-22549c907236","system_id":"levelo_inurba_marseille","lat":43.293259,"lon":5.371586,"is_reserved":false,"is_disabled":false,"rental_uris":{"android":"levelo://app?vid=b686c836-545f-4e37-ab49-22549c907236","ios":"levelo://app?vid=b686c836-545f-4e37-ab49-22549c907236"},"vehicle_type_id":"4","last_reported":1721070384,"current_range_meters":4800,"station_id":"ce4bgh92rcd13ifvqb40","pricing_plan_id":"cebpf4jnsgd1na2vs0mg"},{"bike_id":"47e7c217-d120-43f2-b2e1-88a3f6df269e","system_id":"levelo_inurba_marseille","lat":43.293259,"lon":5.371586,"is_reserved":false,"is_disabled":false,"rental_uris":{"android":"levelo://app?vid=47e7c217-d120-43f2-b2e1-88a3f6df269e","ios":"levelo://app?vid=47e7c217-d120-43f2-b2e1-88a3f6df269e"},"vehicle_type_id":"4","last_reported":1721070384,"current_range_meters":23200,"station_id":"ce4bgh92rcd13ifvqb40","pricing_plan_id":"cebpf4jnsgd1na2vs0mg"},{"bike_id":"26017437-2a1f-4c43-8f94-081acaa74af1","system_id":"levelo_inurba_marseille","lat":43.293259,"lon":5.371586,"is_reserved":false,"is_disabled":false,"rental_uris":{"android":"levelo://app?vid=26017437-2a1f-4c43-8f94-081acaa74af1","ios":"levelo://app?vid=26017437-2a1f-4c43-8f94-081acaa74af1"},"vehicle_type_id":"4","last_reported":1721070384,"current_range_meters":3200,"station_id":"ce4bgh92rcd13ifvqb40","pricing_plan_id":"cebpf4jnsgd1na2vs0mg"},{"bike_id":"39a3c20d-2ad2-4225-bcf7-3c8e657cf264","system_id":"levelo_inurba_marseille","lat":43.293259,"lon":5.371586,"is_reserved":false,"is_disabled":false,"rental_uris":{"android":"levelo://app?vid=39a3c20d-2ad2-4225-bcf7-3c8e657cf264","ios":"levelo://app?vid=39a3c20d-2ad2-4225-bcf7-3c8e657cf264"},"vehicle_type_id":"4","last_reported":1721070384,"current_range_meters":9200,"station_id":"ce4bgh92rcd13ifvqb40","pricing_plan_id":"cebpf4jnsgd1na2vs0mg"},{"bike_id":"cdc4e77f-cb12-4e8e-8c77-37cbbbe2c3a7","system_id":"levelo_inurba_marseille","lat":43.29303,"lon":5.37174,"is_reserved":false,"is_disabled":false,"rental_uris":{"android":"levelo://app?vid=cdc4e77f-cb12-4e8e-8c77-37cbbbe2c3a7","ios":"levelo://app?vid=cdc4e77f-cb12-4e8e-8c77-37cbbbe2c3a7"},"vehicle_type_id":"4","last_reported":1721070384,"current_range_meters":26000,"station_id":"ce4bgh92rcd13ifvqb40","pricing_plan_id":"cebpf4jnsgd1na2vs0mg"},{"bike_id":"6c9d5335-4c89-411a-b0db-a82f7a1c60b3","system_id":"levelo_inurba_marseille","lat":43.29302,"lon":5.37173,"is_reserved":false,"is_disabled":false,"rental_uris":{"android":"levelo://app?vid=6c9d5335-4c89-411a-b0db-a82f7a1c60b3","ios":"levelo://app?vid=6c9d5335-4c89-411a-b0db-a82f7a1c60b3"},"vehicle_type_id":"4","last_reported":1721070384,"current_range_meters":0,"station_id":"ce4bgh92rcd13ifvqb40","pricing_plan_id":"cebpf4jnsgd1na2vs0mg"},{"bike_id":"c1c8292f-bd28-4100-8b0f-b9fe5908afd9","system_id":"levelo_inurba_marseille","lat":43.293259,"lon":5.371586,"is_reserved":false,"is_disabled":false,"rental_uris":{"android":"levelo://app?vid=c1c8292f-bd28-4100-8b0f-b9fe5908afd9","ios":"levelo://app?vid=c1c8292f-bd28-4100-8b0f-b9fe5908afd9"},"vehicle_type_id":"4","last_reported":1721070384,"current_range_meters":11200,"station_id":"ce4bgh92rcd13ifvqb40","pricing_plan_id":"cebpf4jnsgd1na2vs0mg"},{"bike_id":"faaeaa3d-03e2-4561-9bc6-e538bdb4e9b9","system_id":"levelo_inurba_marseille","lat":43.29295,"lon":5.37445,"is_reserved":false,"is_disabled":false,"rental_uris":{"android":"levelo://app?vid=faaeaa3d-03e2-4561-9bc6-e538bdb4e9b9","ios":"levelo://app?vid=faaeaa3d-03e2-4561-9bc6-e538bdb4e9b9"},"vehicle_type_id":"4","last_reported":1721070384,"current_range_meters":0,"station_id":"ce4bgi12rcd13ifvqb70","pricing_plan_id":"cebpf4jnsgd1na2vs0mg"},{"bike_id":"6acc5a30-6e61-4de4-adb9-787980b26b3b","system_id":"levelo_inurba_marseille","lat":43.305994,"lon":5.393687,"is_reserved":false,"is_disabled":false,"rental_uris":{"android":"levelo://app?vid=6acc5a30-6e61-4de4-adb9-787980b26b3b","ios":"levelo://app?vid=6acc5a30-6e61-4de4-adb9-787980b26b3b"},"vehicle_type_id":"4","last_reported":1721070384,"current_range_meters":0,"station_id":"ce4bh0p2rcd13ifvqd80","pricing_plan_id":"cebpf4jnsgd1na2vs0mg"},{"bike_id":"38d01375-614a-49bd-845b-31cc15ef0bae","system_id":"levelo_inurba_marseille","lat":43.293009,"lon":5.374584,"is_reserved":false,"is_disabled":false,"rental_uris":{"android":"levelo://app?vid=38d01375-614a-49bd-845b-31cc15ef0bae","ios":"levelo://app?vid=38d01375-614a-49bd-845b-31cc15ef0bae"},"vehicle_type_id":"4","last_reported":1721070384,"current_range_meters":28400,"station_id":"ce4bgi12rcd13ifvqb70","pricing_plan_id":"cebpf4jnsgd1na2vs0mg"},{"bike_id":"52b7b864-8011-4896-be1b-f996cb48fc20","system_id":"levelo_inurba_marseille","lat":43.305994,"lon":5.393687,"is_reserved":false,"is_disabled":false,"rental_uris":{"android":"levelo://app?vid=52b7b864-8011-4896-be1b-f996cb48fc20","ios":"levelo://app?vid=52b7b864-8011-4896-be1b-f996cb48fc20"},"vehicle_type_id":"4","last_reported":1721070384,"current_range_meters":2400,"station_id":"ce4bh0p2rcd13ifvqd80","pricing_plan_id":"cebpf4jnsgd1na2vs0mg"},{"bike_id":"7043fc93-2be2-43cc-9315-094e75a291c4","system_id":"levelo_inurba_marseille","lat":43.305994,"lon":5.393687,"is_reserved":false,"is_disabled":false,"rental_uris":{"android":"levelo://app?vid=7043fc93-2be2-43cc-9315-094e75a291c4","ios":"levelo://app?vid=7043fc93-2be2-43cc-9315-094e75a291c4"},"vehicle_type_id":"4","last_reported":1721070384,"current_range_meters":23600,"station_id":"ce4bh0p2rcd13ifvqd80","pricing_plan_id":"cebpf4jnsgd1na2vs0mg"},{"bike_id":"a8b4228e-a826-4f01-b09e-bfa8d1b18cda","system_id":"levelo_inurba_marseille","lat":43.302992,"lon":5.392136,"is_reserved":false,"is_disabled":false,"rental_uris":{"android":"levelo://app?vid=a8b4228e-a826-4f01-b09e-bfa8d1b18cda","ios":"levelo://app?vid=a8b4228e-a826-4f01-b09e-bfa8d1b18cda"},"vehicle_type_id":"4","last_reported":1721070384,"current_range_meters":17600,"station_id":"ce4bgkh2rcd13ifvqbk0","pricing_plan_id":"cebpf4jnsgd1na2vs0mg"},{"bike_id":"b0a913f4-9eac-405b-bcb5-9cf9d66357ee","system_id":"levelo_inurba_marseille","lat":43.302992,"lon":5.392136,"is_reserved":false,"is_disabled":false,"rental_uris":{"android":"levelo://app?vid=b0a913f4-9eac-405b-bcb5-9cf9d66357ee","ios":"levelo://app?vid=b0a913f4-9eac-405b-bcb5-9cf9d66357ee"},"vehicle_type_id":"4","last_reported":1721070384,"current_range_meters":4000,"station_id":"ce4bgkh2rcd13ifvqbk0","pricing_plan_id":"cebpf4jnsgd1na2vs0mg"},{"bike_id":"828d7da2-0372-4b5d-bbd8-11c43b1b5fd3","system_id":"levelo_inurba_marseille","lat":43.302992,"lon":5.392136,"is_reserved":false,"is_disabled":false,"rental_uris":{"android":"levelo://app?vid=828d7da2-0372-4b5d-bbd8-11c43b1b5fd3","ios":"levelo://app?vid=828d7da2-0372-4b5d-bbd8-11c43b1b5fd3"},"vehicle_type_id":"4","last_reported":1721070384,"current_range_meters":6800,"station_id":"ce4bgkh2rcd13ifvqbk0","pricing_plan_id":"cebpf4jnsgd1na2vs0mg"},{"bike_id":"63c52298-7d11-4abe-a47d-216929072e8a","system_id":"levelo_inurba_marseille","lat":43.2936,"lon":5.37835,"is_reserved":false,"is_disabled":false,"rental_uris":{"android":"levelo://app?vid=63c52298-7d11-4abe-a47d-216929072e8a","ios":"levelo://app?vid=63c52298-7d11-4abe-a47d-216929072e8a"},"vehicle_type_id":"4","last_reported":1721070384,"current_range_meters":0,"station_id":"ce4bgjh2rcd13ifvqbf0","pricing_plan_id":"cebpf4jnsgd1na2vs0mg"},{"bike_id":"de74d5c0-55d7-43d4-9636-ddece7a29e83","system_id":"levelo_inurba_marseille","lat":43.31162,"lon":5.39559,"is_reserved":false,"is_disabled":false,"rental_uris":{"android":"levelo://app?vid=de74d5c0-55d7-43d4-9636-ddece7a29e83","ios":"levelo://app?vid=de74d5c0-55d7-43d4-9636-ddece7a29e83"},"vehicle_type_id":"4","last_reported":1721070384,"current_range_meters":21600,"station_id":"","pricing_plan_id":"cebpf4jnsgd1na2vs0mg"},{"bike_id":"a74d940e-22a8-43f3-a915-86ff4da1efe9","system_id":"levelo_inurba_marseille","lat":43.31164,"lon":5.39565,"is_reserved":false,"is_disabled":false,"rental_uris":{"android":"levelo://app?vid=a74d940e-22a8-43f3-a915-86ff4da1efe9","ios":"levelo://app?vid=a74d940e-22a8-43f3-a915-86ff4da1efe9"},"vehicle_type_id":"4","last_reported":1721070384,"current_range_meters":1600,"station_id":"","pricing_plan_id":"cebpf4jnsgd1na2vs0mg"},{"bike_id":"085f9c36-1ac9-4a06-affb-d65bc38a8659","system_id":"levelo_inurba_marseille","lat":43.300852,"lon":5.390859,"is_reserved":false,"is_disabled":false,"rental_uris":{"android":"levelo://app?vid=085f9c36-1ac9-4a06-affb-d65bc38a8659","ios":"levelo://app?vid=085f9c36-1ac9-4a06-affb-d65bc38a8659"},"vehicle_type_id":"4","last_reported":1721070384,"current_range_meters":0,"station_id":"ce4bh192rcd13ifvqdb0","pricing_plan_id":"cebpf4jnsgd1na2vs0mg"},{"bike_id":"3c23a17e-a3dd-4ab8-b6a6-e1d5ee6a39d0","system_id":"levelo_inurba_marseille","lat":43.300852,"lon":5.390859,"is_reserved":false,"is_disabled":false,"rental_uris":{"android":"levelo://app?vid=3c23a17e-a3dd-4ab8-b6a6-e1d5ee6a39d0","ios":"levelo://app?vid=3c23a17e-a3dd-4ab8-b6a6-e1d5ee6a39d0"},"vehicle_type_id":"4","last_reported":1721070384,"current_range_meters":17200,"station_id":"ce4bh192rcd13ifvqdb0","pricing_plan_id":"cebpf4jnsgd1na2vs0mg"},{"bike_id":"bcf6e2c2-eb0e-42cb-92e6-66063fdd46ed","system_id":"levelo_inurba_marseille","lat":43.292195,"lon":5.360434,"is_reserved":false,"is_disabled":false,"rental_uris":{"android":"levelo://app?vid=bcf6e2c2-eb0e-42cb-92e6-66063fdd46ed","ios":"levelo://app?vid=bcf6e2c2-eb0e-42cb-92e6-66063fdd46ed"},"vehicle_type_id":"4","last_reported":1721070384,"current_range_meters":31200,"station_id":"ce4bhbh2rcd13ifvqeqg","pricing_plan_id":"cebpf4jnsgd1na2vs0mg"},{"bike_id":"a9ea6c3e-31db-4f47-b4fc-8068ed98d59e","system_id":"levelo_inurba_marseille","lat":43.291675,"lon":5.371583,"is_reserved":false,"is_disabled":false,"rental_uris":{"android":"levelo://app?vid=a9ea6c3e-31db-4f47-b4fc-8068ed98d59e","ios":"levelo://app?vid=a9ea6c3e-31db-4f47-b4fc-8068ed98d59e"},"vehicle_type_id":"4","last_reported":1721070384,"current_range_meters":16000,"station_id":"ce4bha92rcd13ifvqeh0","pricing_plan_id":"cebpf4jnsgd1na2vs0mg"},{"bike_id":"1b5f158e-674d-48a7-9b21-b7ba71b57944","system_id":"levelo_inurba_marseille","lat":43.292005,"lon":5.357875,"is_reserved":false,"is_disabled":false,"rental_uris":{"android":"levelo://app?vid=1b5f158e-674d-48a7-9b21-b7ba71b57944","ios":"levelo://app?vid=1b5f158e-674d-48a7-9b21-b7ba71b57944"},"vehicle_type_id":"4","last_reported":1721070384,"current_range_meters":0,"station_id":"ce4bhb12rcd13ifvqel0","pricing_plan_id":"cebpf4jnsgd1na2vs0mg"},{"bike_id":"e6a8c3cb-912e-48b2-b330-3e11a39aad87","system_id":"levelo_inurba_marseille","lat":43.313291,"lon":5.396838,"is_reserved":false,"is_disabled":false,"rental_uris":{"android":"levelo://app?vid=e6a8c3cb-912e-48b2-b330-3e11a39aad87","ios":"levelo://app?vid=e6a8c3cb-912e-48b2-b330-3e11a39aad87"},"vehicle_type_id":"4","last_reported":1721070384,"current_range_meters":15200,"station_id":"ce4bgvp2rcd13ifvqcu0","pricing_plan_id":"cebpf4jnsgd1na2vs0mg"},{"bike_id":"5c2e1d3a-6426-4d53-a993-1f0b196fb400","system_id":"levelo_inurba_marseille","lat":43.313291,"lon":5.396838,"is_reserved":false,"is_disabled":false,"rental_uris":{"android":"levelo://app?vid=5c2e1d3a-6426-4d53-a993-1f0b196fb400","ios":"levelo://app?vid=5c2e1d3a-6426-4d53-a993-1f0b196fb400"},"vehicle_type_id":"4","last_reported":1721070384,"current_range_meters":26400,"station_id":"ce4bgvp2rcd13ifvqcu0","pricing_plan_id":"cebpf4jnsgd1na2vs0mg"},{"bike_id":"70cdacac-422d-4e1d-9d48-dff337784b7f","system_id":"levelo_inurba_marseille","lat":43.309047,"lon":5.396551,"is_reserved":false,"is_disabled":false,"rental_uris":{"android":"levelo://app?vid=70cdacac-422d-4e1d-9d48-dff337784b7f","ios":"levelo://app?vid=70cdacac-422d-4e1d-9d48-dff337784b7f"},"vehicle_type_id":"4","last_reported":1721070384,"current_range_meters":5200,"station_id":"ce4bh012rcd13ifvqcv0","pricing_plan_id":"cebpf4jnsgd1na2vs0mg"},{"bike_id":"33855639-b5be-4d71-b9d0-9fad2b51f405","system_id":"levelo_inurba_marseille","lat":43.313291,"lon":5.396838,"is_reserved":false,"is_disabled":false,"rental_uris":{"android":"levelo://app?vid=33855639-b5be-4d71-b9d0-9fad2b51f405","ios":"levelo://app?vid=33855639-b5be-4d71-b9d0-9fad2b51f405"},"vehicle_type_id":"4","last_reported":1721070384,"current_range_meters":13200,"station_id":"ce4bgvp2rcd13ifvqcu0","pricing_plan_id":"cebpf4jnsgd1na2vs0mg"},{"bike_id":"e8d240aa-93c2-4d03-8ade-63a4dbc90522","system_id":"levelo_inurba_marseille","lat":43.309047,"lon":5.396551,"is_reserved":false,"is_disabled":false,"rental_uris":{"android":"levelo://app?vid=e8d240aa-93c2-4d03-8ade-63a4dbc90522","ios":"levelo://app?vid=e8d240aa-93c2-4d03-8ade-63a4dbc90522"},"vehicle_type_id":"4","last_reported":1721070384,"current_range_meters":2000,"station_id":"ce4bh012rcd13ifvqcv0","pricing_plan_id":"cebpf4jnsgd1na2vs0mg"},{"bike_id":"f4cb58ef-b92c-4b77-9265-d854d1ac1c15","system_id":"levelo_inurba_marseille","lat":43.309047,"lon":5.396551,"is_reserved":false,"is_disabled":false,"rental_uris":{"android":"levelo://app?vid=f4cb58ef-b92c-4b77-9265-d854d1ac1c15","ios":"levelo://app?vid=f4cb58ef-b92c-4b77-9265-d854d1ac1c15"},"vehicle_type_id":"4","last_reported":1721070384,"current_range_meters":28400,"station_id":"ce4bh012rcd13ifvqcv0","pricing_plan_id":"cebpf4jnsgd1na2vs0mg"},{"bike_id":"15da3e72-8666-4837-8273-d72f75de8adb","system_id":"levelo_inurba_marseille","lat":43.309047,"lon":5.396551,"is_reserved":false,"is_disabled":false,"rental_uris":{"android":"levelo://app?vid=15da3e72-8666-4837-8273-d72f75de8adb","ios":"levelo://app?vid=15da3e72-8666-4837-8273-d72f75de8adb"},"vehicle_type_id":"4","last_reported":1721070384,"current_range_meters":3600,"station_id":"ce4bh012rcd13ifvqcv0","pricing_plan_id":"cebpf4jnsgd1na2vs0mg"},{"bike_id":"bfabd9d4-9dbf-49f1-b31d-143a21fd61d7","system_id":"levelo_inurba_marseille","lat":43.30889,"lon":5.39655,"is_reserved":false,"is_disabled":false,"rental_uris":{"android":"levelo://app?vid=bfabd9d4-9dbf-49f1-b31d-143a21fd61d7","ios":"levelo://app?vid=bfabd9d4-9dbf-49f1-b31d-143a21fd61d7"},"vehicle_type_id":"4","last_reported":1721070384,"current_range_meters":800,"station_id":"ce4bh012rcd13ifvqcv0","pricing_plan_id":"cebpf4jnsgd1na2vs0mg"},{"bike_id":"2eb75c92-c566-44d9-9416-08cc4779a2da","system_id":"levelo_inurba_marseille","lat":43.29529,"lon":5.385581,"is_reserved":false,"is_disabled":false,"rental_uris":{"android":"levelo://app?vid=2eb75c92-c566-44d9-9416-08cc4779a2da","ios":"levelo://app?vid=2eb75c92-c566-44d9-9416-08cc4779a2da"},"vehicle_type_id":"4","last_reported":1721070384,"current_range_meters":25200,"station_id":"ce4bgih2rcd13ifvqba0","pricing_plan_id":"cebpf4jnsgd1na2vs0mg"},{"bike_id":"e9503f6d-1037-4f2d-aef8-89c0a7b0866b","system_id":"levelo_inurba_marseille","lat":43.29529,"lon":5.385581,"is_reserved":false,"is_disabled":false,"rental_uris":{"android":"levelo://app?vid=e9503f6d-1037-4f2d-aef8-89c0a7b0866b","ios":"levelo://app?vid=e9503f6d-1037-4f2d-aef8-89c0a7b0866b"},"vehicle_type_id":"4","last_reported":1721070384,"current_range_meters":15200,"station_id":"ce4bgih2rcd13ifvqba0","pricing_plan_id":"cebpf4jnsgd1na2vs0mg"},{"bike_id":"f1bf2e2e-7a02-410d-bece-2c81f74959c6","system_id":"levelo_inurba_marseille","lat":43.29529,"lon":5.385581,"is_reserved":false,"is_disabled":false,"rental_uris":{"android":"levelo://app?vid=f1bf2e2e-7a02-410d-bece-2c81f74959c6","ios":"levelo://app?vid=f1bf2e2e-7a02-410d-bece-2c81f74959c6"},"vehicle_type_id":"4","last_reported":1721070384,"current_range_meters":30000,"station_id":"ce4bgih2rcd13ifvqba0","pricing_plan_id":"cebpf4jnsgd1na2vs0mg"},{"bike_id":"192f1001-cab0-4e82-998e-bb85d687d03e","system_id":"levelo_inurba_marseille","lat":43.29529,"lon":5.385581,"is_reserved":false,"is_disabled":false,"rental_uris":{"android":"levelo://app?vid=192f1001-cab0-4e82-998e-bb85d687d03e","ios":"levelo://app?vid=192f1001-cab0-4e82-998e-bb85d687d03e"},"vehicle_type_id":"4","last_reported":1721070384,"current_range_meters":400,"station_id":"ce4bgih2rcd13ifvqba0","pricing_plan_id":"cebpf4jnsgd1na2vs0mg"},{"bike_id":"9729773b-09bc-4578-9cd0-5ed6597d0435","system_id":"levelo_inurba_marseille","lat":43.29529,"lon":5.385581,"is_reserved":false,"is_disabled":false,"rental_uris":{"android":"levelo://app?vid=9729773b-09bc-4578-9cd0-5ed6597d0435","ios":"levelo://app?vid=9729773b-09bc-4578-9cd0-5ed6597d0435"},"vehicle_type_id":"4","last_reported":1721070384,"current_range_meters":12400,"station_id":"ce4bgih2rcd13ifvqba0","pricing_plan_id":"cebpf4jnsgd1na2vs0mg"},{"bike_id":"8817e3f3-13f0-4fbe-94bc-7802815fb25d","system_id":"levelo_inurba_marseille","lat":43.29529,"lon":5.385581,"is_reserved":false,"is_disabled":false,"rental_uris":{"android":"levelo://app?vid=8817e3f3-13f0-4fbe-94bc-7802815fb25d","ios":"levelo://app?vid=8817e3f3-13f0-4fbe-94bc-7802815fb25d"},"vehicle_type_id":"4","last_reported":1721070384,"current_range_meters":2800,"station_id":"ce4bgih2rcd13ifvqba0","pricing_plan_id":"cebpf4jnsgd1na2vs0mg"},{"bike_id":"3b1d6c8c-e523-413e-a46a-7491a9dd218d","system_id":"levelo_inurba_marseille","lat":43.29529,"lon":5.385581,"is_reserved":false,"is_disabled":false,"rental_uris":{"android":"levelo://app?vid=3b1d6c8c-e523-413e-a46a-7491a9dd218d","ios":"levelo://app?vid=3b1d6c8c-e523-413e-a46a-7491a9dd218d"},"vehicle_type_id":"4","last_reported":1721070384,"current_range_meters":21200,"station_id":"ce4bgih2rcd13ifvqba0","pricing_plan_id":"cebpf4jnsgd1na2vs0mg"},{"bike_id":"32bdb6cb-bb18-44ac-8688-42f475042edf","system_id":"levelo_inurba_marseille","lat":43.290779,"lon":5.371482,"is_reserved":false,"is_disabled":false,"rental_uris":{"android":"levelo://app?vid=32bdb6cb-bb18-44ac-8688-42f475042edf","ios":"levelo://app?vid=32bdb6cb-bb18-44ac-8688-42f475042edf"},"vehicle_type_id":"4","last_reported":1721070384,"current_range_meters":22800,"station_id":"ce4bh5p2rcd13ifvqe4g","pricing_plan_id":"cebpf4jnsgd1na2vs0mg"},{"bike_id":"7e57e3d5-3318-406b-b56c-1f0e0a6d68c3","system_id":"levelo_inurba_marseille","lat":43.29063,"lon":5.37154,"is_reserved":false,"is_disabled":false,"rental_uris":{"android":"levelo://app?vid=7e57e3d5-3318-406b-b56c-1f0e0a6d68c3","ios":"levelo://app?vid=7e57e3d5-3318-406b-b56c-1f0e0a6d68c3"},"vehicle_type_id":"4","last_reported":1721070384,"current_range_meters":0,"station_id":"ce4bh5p2rcd13ifvqe4g","pricing_plan_id":"cebpf4jnsgd1na2vs0mg"},{"bike_id":"403f123f-060f-4544-ae91-2661da307c0c","system_id":"levelo_inurba_marseille","lat":43.302182,"lon":5.394719,"is_reserved":false,"is_disabled":false,"rental_uris":{"android":"levelo://app?vid=403f123f-060f-4544-ae91-2661da307c0c","ios":"levelo://app?vid=403f123f-060f-4544-ae91-2661da307c0c"},"vehicle_type_id":"4","last_reported":1721070384,"current_range_meters":0,"station_id":"","pricing_plan_id":"cebpf4jnsgd1na2vs0mg"},{"bike_id":"6305911a-9a54-4bee-a113-0887318d3a6e","system_id":"levelo_inurba_marseille","lat":43.30211,"lon":5.39473,"is_reserved":false,"is_disabled":false,"rental_uris":{"android":"levelo://app?vid=6305911a-9a54-4bee-a113-0887318d3a6e","ios":"levelo://app?vid=6305911a-9a54-4bee-a113-0887318d3a6e"},"vehicle_type_id":"4","last_reported":1721070384,"current_range_meters":16400,"station_id":"ce4bh0p2rcd13ifvqd70","pricing_plan_id":"cebpf4jnsgd1na2vs0mg"},{"bike_id":"7d7b571d-513d-48c4-83cd-83d9c6090cb5","system_id":"levelo_inurba_marseille","lat":43.290327,"lon":5.375711,"is_reserved":false,"is_disabled":false,"rental_uris":{"android":"levelo://app?vid=7d7b571d-513d-48c4-83cd-83d9c6090cb5","ios":"levelo://app?vid=7d7b571d-513d-48c4-83cd-83d9c6090cb5"},"vehicle_type_id":"4","last_reported":1721070384,"current_range_meters":23200,"station_id":"ce4bh692rcd13ifvqe90","pricing_plan_id":"cebpf4jnsgd1na2vs0mg"},{"bike_id":"61a2b08c-20f2-46bd-9731-0b1dee61372a","system_id":"levelo_inurba_marseille","lat":43.289184,"lon":5.366408,"is_reserved":false,"is_disabled":false,"rental_uris":{"android":"levelo://app?vid=61a2b08c-20f2-46bd-9731-0b1dee61372a","ios":"levelo://app?vid=61a2b08c-20f2-46bd-9731-0b1dee61372a"},"vehicle_type_id":"4","last_reported":1721070384,"current_range_meters":31200,"station_id":"ce4bhap2rcd13ifvqek0","pricing_plan_id":"cebpf4jnsgd1na2vs0mg"},{"bike_id":"c55b761a-ea13-4c54-907b-f83ddb21cbbd","system_id":"levelo_inurba_marseille","lat":43.294153,"lon":5.386305,"is_reserved":false,"is_disabled":false,"rental_uris":{"android":"levelo://app?vid=c55b761a-ea13-4c54-907b-f83ddb21cbbd","ios":"levelo://app?vid=c55b761a-ea13-4c54-907b-f83ddb21cbbd"},"vehicle_type_id":"4","last_reported":1721070384,"current_range_meters":0,"station_id":"ce4bh2h2rcd13ifvqdh0","pricing_plan_id":"cebpf4jnsgd1na2vs0mg"},{"bike_id":"c1ac2c5f-543c-409a-8d41-1b0f62912e33","system_id":"levelo_inurba_marseille","lat":43.294162,"lon":5.386292,"is_reserved":false,"is_disabled":false,"rental_uris":{"android":"levelo://app?vid=c1ac2c5f-543c-409a-8d41-1b0f62912e33","ios":"levelo://app?vid=c1ac2c5f-543c-409a-8d41-1b0f62912e33"},"vehicle_type_id":"4","last_reported":1721070384,"current_range_meters":20400,"station_id":"ce4bh2h2rcd13ifvqdh0","pricing_plan_id":"cebpf4jnsgd1na2vs0mg"},{"bike_id":"3a7daf3e-55c4-408e-bef2-f24bf6e1679c","system_id":"levelo_inurba_marseille","lat":43.2942,"lon":5.38627,"is_reserved":false,"is_disabled":false,"rental_uris":{"android":"levelo://app?vid=3a7daf3e-55c4-408e-bef2-f24bf6e1679c","ios":"levelo://app?vid=3a7daf3e-55c4-408e-bef2-f24bf6e1679c"},"vehicle_type_id":"4","last_reported":1721070384,"current_range_meters":25200,"station_id":"ce4bh2h2rcd13ifvqdh0","pricing_plan_id":"cebpf4jnsgd1na2vs0mg"},{"bike_id":"6d81243a-d667-4bcc-8b02-aed90bee92d4","system_id":"levelo_inurba_marseille","lat":43.29416,"lon":5.38623,"is_reserved":false,"is_disabled":false,"rental_uris":{"android":"levelo://app?vid=6d81243a-d667-4bcc-8b02-aed90bee92d4","ios":"levelo://app?vid=6d81243a-d667-4bcc-8b02-aed90bee92d4"},"vehicle_type_id":"4","last_reported":1721070384,"current_range_meters":4400,"station_id":"ce4bh2h2rcd13ifvqdh0","pricing_plan_id":"cebpf4jnsgd1na2vs0mg"},{"bike_id":"1d9272d4-d376-40cc-b1b9-e27c94aa74b4","system_id":"levelo_inurba_marseille","lat":43.29418,"lon":5.3863,"is_reserved":false,"is_disabled":false,"rental_uris":{"android":"levelo://app?vid=1d9272d4-d376-40cc-b1b9-e27c94aa74b4","ios":"levelo://app?vid=1d9272d4-d376-40cc-b1b9-e27c94aa74b4"},"vehicle_type_id":"4","last_reported":1721070384,"current_range_meters":23200,"station_id":"ce4bh2h2rcd13ifvqdh0","pricing_plan_id":"cebpf4jnsgd1na2vs0mg"},{"bike_id":"65f0ee40-4254-4be3-8258-3861a091955b","system_id":"levelo_inurba_marseille","lat":43.294162,"lon":5.386292,"is_reserved":false,"is_disabled":false,"rental_uris":{"android":"levelo://app?vid=65f0ee40-4254-4be3-8258-3861a091955b","ios":"levelo://app?vid=65f0ee40-4254-4be3-8258-3861a091955b"},"vehicle_type_id":"4","last_reported":1721070384,"current_range_meters":22000,"station_id":"ce4bh2h2rcd13ifvqdh0","pricing_plan_id":"cebpf4jnsgd1na2vs0mg"},{"bike_id":"4a62a630-8b34-4c43-8593-40f70dd9d2ec","system_id":"levelo_inurba_marseille","lat":43.289184,"lon":5.366408,"is_reserved":false,"is_disabled":false,"rental_uris":{"android":"levelo://app?vid=4a62a630-8b34-4c43-8593-40f70dd9d2ec","ios":"levelo://app?vid=4a62a630-8b34-4c43-8593-40f70dd9d2ec"},"vehicle_type_id":"4","last_reported":1721070384,"current_range_meters":22000,"station_id":"ce4bhap2rcd13ifvqek0","pricing_plan_id":"cebpf4jnsgd1na2vs0mg"},{"bike_id":"93eed511-5e77-4914-82f4-0297bd155256","system_id":"levelo_inurba_marseille","lat":43.289184,"lon":5.366408,"is_reserved":false,"is_disabled":false,"rental_uris":{"android":"levelo://app?vid=93eed511-5e77-4914-82f4-0297bd155256","ios":"levelo://app?vid=93eed511-5e77-4914-82f4-0297bd155256"},"vehicle_type_id":"4","last_reported":1721070384,"current_range_meters":6400,"station_id":"ce4bhap2rcd13ifvqek0","pricing_plan_id":"cebpf4jnsgd1na2vs0mg"},{"bike_id":"88d8e1e3-152b-4941-ab12-524fa7f0236e","system_id":"levelo_inurba_marseille","lat":43.289184,"lon":5.366408,"is_reserved":false,"is_disabled":false,"rental_uris":{"android":"levelo://app?vid=88d8e1e3-152b-4941-ab12-524fa7f0236e","ios":"levelo://app?vid=88d8e1e3-152b-4941-ab12-524fa7f0236e"},"vehicle_type_id":"4","last_reported":1721070384,"current_range_meters":6000,"station_id":"ce4bhap2rcd13ifvqek0","pricing_plan_id":"cebpf4jnsgd1na2vs0mg"},{"bike_id":"af97d958-0e9e-4bdc-8631-9fd7380e1123","system_id":"levelo_inurba_marseille","lat":43.292644,"lon":5.384257,"is_reserved":false,"is_disabled":false,"rental_uris":{"android":"levelo://app?vid=af97d958-0e9e-4bdc-8631-9fd7380e1123","ios":"levelo://app?vid=af97d958-0e9e-4bdc-8631-9fd7380e1123"},"vehicle_type_id":"4","last_reported":1721070384,"current_range_meters":27600,"station_id":"ce4bh692rcd13ifvqea0","pricing_plan_id":"cebpf4jnsgd1na2vs0mg"},{"bike_id":"38ed941f-1982-43ad-beb5-b9266f937c11","system_id":"levelo_inurba_marseille","lat":43.289184,"lon":5.366408,"is_reserved":false,"is_disabled":false,"rental_uris":{"android":"levelo://app?vid=38ed941f-1982-43ad-beb5-b9266f937c11","ios":"levelo://app?vid=38ed941f-1982-43ad-beb5-b9266f937c11"},"vehicle_type_id":"4","last_reported":1721070384,"current_range_meters":13600,"station_id":"ce4bhap2rcd13ifvqek0","pricing_plan_id":"cebpf4jnsgd1na2vs0mg"},{"bike_id":"e6f0b84d-a5a4-4556-8729-9320304cd709","system_id":"levelo_inurba_marseille","lat":43.29409,"lon":5.38634,"is_reserved":false,"is_disabled":false,"rental_uris":{"android":"levelo://app?vid=e6f0b84d-a5a4-4556-8729-9320304cd709","ios":"levelo://app?vid=e6f0b84d-a5a4-4556-8729-9320304cd709"},"vehicle_type_id":"4","last_reported":1721070384,"current_range_meters":31600,"station_id":"ce4bh2h2rcd13ifvqdh0","pricing_plan_id":"cebpf4jnsgd1na2vs0mg"},{"bike_id":"230e3004-9609-4e9d-91b9-3032fb784ca3","system_id":"levelo_inurba_marseille","lat":43.289184,"lon":5.366408,"is_reserved":false,"is_disabled":false,"rental_uris":{"android":"levelo://app?vid=230e3004-9609-4e9d-91b9-3032fb784ca3","ios":"levelo://app?vid=230e3004-9609-4e9d-91b9-3032fb784ca3"},"vehicle_type_id":"4","last_reported":1721070384,"current_range_meters":0,"station_id":"ce4bhap2rcd13ifvqek0","pricing_plan_id":"cebpf4jnsgd1na2vs0mg"},{"bike_id":"67b822e3-918b-47ab-9182-fb63b5a47055","system_id":"levelo_inurba_marseille","lat":43.29032,"lon":5.35737,"is_reserved":false,"is_disabled":false,"rental_uris":{"android":"levelo://app?vid=67b822e3-918b-47ab-9182-fb63b5a47055","ios":"levelo://app?vid=67b822e3-918b-47ab-9182-fb63b5a47055"},"vehicle_type_id":"4","last_reported":1721070384,"current_range_meters":6400,"station_id":"","pricing_plan_id":"cebpf4jnsgd1na2vs0mg"},{"bike_id":"a1f0b456-a71f-497d-8654-c84298ff2f52","system_id":"levelo_inurba_marseille","lat":43.292644,"lon":5.384257,"is_reserved":false,"is_disabled":false,"rental_uris":{"android":"levelo://app?vid=a1f0b456-a71f-497d-8654-c84298ff2f52","ios":"levelo://app?vid=a1f0b456-a71f-497d-8654-c84298ff2f52"},"vehicle_type_id":"4","last_reported":1721070384,"current_range_meters":30400,"station_id":"ce4bh692rcd13ifvqea0","pricing_plan_id":"cebpf4jnsgd1na2vs0mg"},{"bike_id":"3a4d6ae7-fa35-4d5c-b72e-1824fda904ee","system_id":"levelo_inurba_marseille","lat":43.292644,"lon":5.384257,"is_reserved":false,"is_disabled":false,"rental_uris":{"android":"levelo://app?vid=3a4d6ae7-fa35-4d5c-b72e-1824fda904ee","ios":"levelo://app?vid=3a4d6ae7-fa35-4d5c-b72e-1824fda904ee"},"vehicle_type_id":"4","last_reported":1721070384,"current_range_meters":18400,"station_id":"ce4bh692rcd13ifvqea0","pricing_plan_id":"cebpf4jnsgd1na2vs0mg"},{"bike_id":"f373e1b7-3743-47a5-acca-69a0a000ac91","system_id":"levelo_inurba_marseille","lat":43.292644,"lon":5.384257,"is_reserved":false,"is_disabled":false,"rental_uris":{"android":"levelo://app?vid=f373e1b7-3743-47a5-acca-69a0a000ac91","ios":"levelo://app?vid=f373e1b7-3743-47a5-acca-69a0a000ac91"},"vehicle_type_id":"4","last_reported":1721070384,"current_range_meters":8000,"station_id":"ce4bh692rcd13ifvqea0","pricing_plan_id":"cebpf4jnsgd1na2vs0mg"},{"bike_id":"70151565-0c89-4fde-830f-024a617c567d","system_id":"levelo_inurba_marseille","lat":43.304274,"lon":5.397513,"is_reserved":false,"is_disabled":false,"rental_uris":{"android":"levelo://app?vid=70151565-0c89-4fde-830f-024a617c567d","ios":"levelo://app?vid=70151565-0c89-4fde-830f-024a617c567d"},"vehicle_type_id":"4","last_reported":1721070384,"current_range_meters":0,"station_id":"ce4bh092rcd13ifvqd20","pricing_plan_id":"cebpf4jnsgd1na2vs0mg"},{"bike_id":"88499c99-1613-40d4-aeec-fe9bc79f9d40","system_id":"levelo_inurba_marseille","lat":43.29271,"lon":5.38448,"is_reserved":false,"is_disabled":false,"rental_uris":{"android":"levelo://app?vid=88499c99-1613-40d4-aeec-fe9bc79f9d40","ios":"levelo://app?vid=88499c99-1613-40d4-aeec-fe9bc79f9d40"},"vehicle_type_id":"4","last_reported":1721070384,"current_range_meters":19600,"station_id":"ce4bh692rcd13ifvqea0","pricing_plan_id":"cebpf4jnsgd1na2vs0mg"},{"bike_id":"2b7d9633-6693-479b-a69c-9384aef5c6dc","system_id":"levelo_inurba_marseille","lat":43.29261,"lon":5.38444,"is_reserved":false,"is_disabled":false,"rental_uris":{"android":"levelo://app?vid=2b7d9633-6693-479b-a69c-9384aef5c6dc","ios":"levelo://app?vid=2b7d9633-6693-479b-a69c-9384aef5c6dc"},"vehicle_type_id":"4","last_reported":1721070384,"current_range_meters":28800,"station_id":"","pricing_plan_id":"cebpf4jnsgd1na2vs0mg"},{"bike_id":"6fa8cefa-a681-4772-be99-9da03c66e7c2","system_id":"levelo_inurba_marseille","lat":43.292644,"lon":5.384257,"is_reserved":false,"is_disabled":false,"rental_uris":{"android":"levelo://app?vid=6fa8cefa-a681-4772-be99-9da03c66e7c2","ios":"levelo://app?vid=6fa8cefa-a681-4772-be99-9da03c66e7c2"},"vehicle_type_id":"4","last_reported":1721070384,"current_range_meters":28400,"station_id":"ce4bh692rcd13ifvqea0","pricing_plan_id":"cebpf4jnsgd1na2vs0mg"},{"bike_id":"fefebf9e-57dd-4752-8801-f907b11eb8a0","system_id":"levelo_inurba_marseille","lat":43.29005,"lon":5.35619,"is_reserved":false,"is_disabled":false,"rental_uris":{"android":"levelo://app?vid=fefebf9e-57dd-4752-8801-f907b11eb8a0","ios":"levelo://app?vid=fefebf9e-57dd-4752-8801-f907b11eb8a0"},"vehicle_type_id":"4","last_reported":1721070384,"current_range_meters":0,"station_id":"ce4bhb92rcd13ifvqen0","pricing_plan_id":"cebpf4jnsgd1na2vs0mg"},{"bike_id":"06454173-db3c-486c-bfe8-564ae2d13a73","system_id":"levelo_inurba_marseille","lat":43.290103,"lon":5.356114,"is_reserved":false,"is_disabled":false,"rental_uris":{"android":"levelo://app?vid=06454173-db3c-486c-bfe8-564ae2d13a73","ios":"levelo://app?vid=06454173-db3c-486c-bfe8-564ae2d13a73"},"vehicle_type_id":"4","last_reported":1721070384,"current_range_meters":1200,"station_id":"ce4bhb92rcd13ifvqen0","pricing_plan_id":"cebpf4jnsgd1na2vs0mg"},{"bike_id":"55de1040-1a36-480c-bf06-3d7eba8b409e","system_id":"levelo_inurba_marseille","lat":43.323159,"lon":5.396999,"is_reserved":false,"is_disabled":false,"rental_uris":{"android":"levelo://app?vid=55de1040-1a36-480c-bf06-3d7eba8b409e","ios":"levelo://app?vid=55de1040-1a36-480c-bf06-3d7eba8b409e"},"vehicle_type_id":"4","last_reported":1721070384,"current_range_meters":0,"station_id":"","pricing_plan_id":"cebpf4jnsgd1na2vs0mg"},{"bike_id":"b22528d5-f133-4490-9964-12a941adcb57","system_id":"levelo_inurba_marseille","lat":43.28985,"lon":5.37831,"is_reserved":false,"is_disabled":false,"rental_uris":{"android":"levelo://app?vid=b22528d5-f133-4490-9964-12a941adcb57","ios":"levelo://app?vid=b22528d5-f133-4490-9964-12a941adcb57"},"vehicle_type_id":"4","last_reported":1721070384,"current_range_meters":23200,"station_id":"ce4bh9p2rcd13ifvqed0","pricing_plan_id":"cebpf4jnsgd1na2vs0mg"},{"bike_id":"529063b4-63b9-4281-b367-a90a30d2febc","system_id":"levelo_inurba_marseille","lat":43.29781,"lon":5.39336,"is_reserved":false,"is_disabled":false,"rental_uris":{"android":"levelo://app?vid=529063b4-63b9-4281-b367-a90a30d2febc","ios":"levelo://app?vid=529063b4-63b9-4281-b367-a90a30d2febc"},"vehicle_type_id":"4","last_reported":1721070384,"current_range_meters":10800,"station_id":"chh1huq6cuj3fo74tm60","pricing_plan_id":"cebpf4jnsgd1na2vs0mg"},{"bike_id":"97a44eba-2b41-4813-9ded-14b398088a85","system_id":"levelo_inurba_marseille","lat":43.295169,"lon":5.390426,"is_reserved":false,"is_disabled":false,"rental_uris":{"android":"levelo://app?vid=97a44eba-2b41-4813-9ded-14b398088a85","ios":"levelo://app?vid=97a44eba-2b41-4813-9ded-14b398088a85"},"vehicle_type_id":"4","last_reported":1721070384,"current_range_meters":22000,"station_id":"ce4bh3p2rcd13ifvqdp0","pricing_plan_id":"cebpf4jnsgd1na2vs0mg"},{"bike_id":"3c16de7e-27f4-452b-90e6-28c158ec2981","system_id":"levelo_inurba_marseille","lat":43.330442,"lon":5.389148,"is_reserved":false,"is_disabled":false,"rental_uris":{"android":"levelo://app?vid=3c16de7e-27f4-452b-90e6-28c158ec2981","ios":"levelo://app?vid=3c16de7e-27f4-452b-90e6-28c158ec2981"},"vehicle_type_id":"4","last_reported":1721070384,"current_range_meters":23200,"station_id":"ce4bhr92rcd13ifvqhrg","pricing_plan_id":"cebpf4jnsgd1na2vs0mg"},{"bike_id":"ac7a6390-4258-4e3c-89f2-94e13a32fb5c","system_id":"levelo_inurba_marseille","lat":43.295169,"lon":5.390426,"is_reserved":false,"is_disabled":false,"rental_uris":{"android":"levelo://app?vid=ac7a6390-4258-4e3c-89f2-94e13a32fb5c","ios":"levelo://app?vid=ac7a6390-4258-4e3c-89f2-94e13a32fb5c"},"vehicle_type_id":"4","last_reported":1721070384,"current_range_meters":20800,"station_id":"ce4bh3p2rcd13ifvqdp0","pricing_plan_id":"cebpf4jnsgd1na2vs0mg"},{"bike_id":"db59eef8-5af7-4331-9cb5-3a605fa7878b","system_id":"levelo_inurba_marseille","lat":43.295169,"lon":5.390426,"is_reserved":false,"is_disabled":false,"rental_uris":{"android":"levelo://app?vid=db59eef8-5af7-4331-9cb5-3a605fa7878b","ios":"levelo://app?vid=db59eef8-5af7-4331-9cb5-3a605fa7878b"},"vehicle_type_id":"4","last_reported":1721070384,"current_range_meters":2000,"station_id":"ce4bh3p2rcd13ifvqdp0","pricing_plan_id":"cebpf4jnsgd1na2vs0mg"},{"bike_id":"0e4ae252-e5b1-46d8-83a9-6bc21f99457d","system_id":"levelo_inurba_marseille","lat":43.330442,"lon":5.389148,"is_reserved":false,"is_disabled":false,"rental_uris":{"android":"levelo://app?vid=0e4ae252-e5b1-46d8-83a9-6bc21f99457d","ios":"levelo://app?vid=0e4ae252-e5b1-46d8-83a9-6bc21f99457d"},"vehicle_type_id":"4","last_reported":1721070384,"current_range_meters":26000,"station_id":"ce4bhr92rcd13ifvqhrg","pricing_plan_id":"cebpf4jnsgd1na2vs0mg"},{"bike_id":"21130598-87a4-41e1-aed4-deeb6f4f8ac0","system_id":"levelo_inurba_marseille","lat":43.28972,"lon":5.35486,"is_reserved":false,"is_disabled":false,"rental_uris":{"android":"levelo://app?vid=21130598-87a4-41e1-aed4-deeb6f4f8ac0","ios":"levelo://app?vid=21130598-87a4-41e1-aed4-deeb6f4f8ac0"},"vehicle_type_id":"4","last_reported":1721070384,"current_range_meters":5200,"station_id":"","pricing_plan_id":"cebpf4jnsgd1na2vs0mg"},{"bike_id":"3317ff75-fc15-4d22-98b9-0cb0b752d799","system_id":"levelo_inurba_marseille","lat":43.290336,"lon":5.386425,"is_reserved":false,"is_disabled":false,"rental_uris":{"android":"levelo://app?vid=3317ff75-fc15-4d22-98b9-0cb0b752d799","ios":"levelo://app?vid=3317ff75-fc15-4d22-98b9-0cb0b752d799"},"vehicle_type_id":"4","last_reported":1721070384,"current_range_meters":0,"station_id":"ce4bh4p2rcd13ifvqe0g","pricing_plan_id":"cebpf4jnsgd1na2vs0mg"},{"bike_id":"e5f9b488-7ae3-4362-9941-63ecfec68cf1","system_id":"levelo_inurba_marseille","lat":43.289504,"lon":5.35486,"is_reserved":false,"is_disabled":false,"rental_uris":{"android":"levelo://app?vid=e5f9b488-7ae3-4362-9941-63ecfec68cf1","ios":"levelo://app?vid=e5f9b488-7ae3-4362-9941-63ecfec68cf1"},"vehicle_type_id":"4","last_reported":1721070384,"current_range_meters":1200,"station_id":"","pricing_plan_id":"cebpf4jnsgd1na2vs0mg"},{"bike_id":"88647270-d582-4258-926f-224cda3b017e","system_id":"levelo_inurba_marseille","lat":43.290094,"lon":5.381264,"is_reserved":false,"is_disabled":false,"rental_uris":{"android":"levelo://app?vid=88647270-d582-4258-926f-224cda3b017e","ios":"levelo://app?vid=88647270-d582-4258-926f-224cda3b017e"},"vehicle_type_id":"4","last_reported":1721070384,"current_range_meters":2000,"station_id":"ce4bh4p2rcd13ifvqe1g","pricing_plan_id":"cebpf4jnsgd1na2vs0mg"},{"bike_id":"6c77b165-1ba8-4998-ac16-3bc7825d3340","system_id":"levelo_inurba_marseille","lat":43.308698,"lon":5.401253,"is_reserved":false,"is_disabled":false,"rental_uris":{"android":"levelo://app?vid=6c77b165-1ba8-4998-ac16-3bc7825d3340","ios":"levelo://app?vid=6c77b165-1ba8-4998-ac16-3bc7825d3340"},"vehicle_type_id":"4","last_reported":1721070384,"current_range_meters":23600,"station_id":"ce4bgvp2rcd13ifvqct0","pricing_plan_id":"cebpf4jnsgd1na2vs0mg"},{"bike_id":"c7b9f676-b5be-4b9f-8d76-b5a9d590c5bf","system_id":"levelo_inurba_marseille","lat":43.309371,"lon":5.401449,"is_reserved":false,"is_disabled":false,"rental_uris":{"android":"levelo://app?vid=c7b9f676-b5be-4b9f-8d76-b5a9d590c5bf","ios":"levelo://app?vid=c7b9f676-b5be-4b9f-8d76-b5a9d590c5bf"},"vehicle_type_id":"4","last_reported":1721070384,"current_range_meters":12000,"station_id":"ce4bgvp2rcd13ifvqct0","pricing_plan_id":"cebpf4jnsgd1na2vs0mg"},{"bike_id":"14a2ccd3-51a3-44d4-8a38-da66449fe25f","system_id":"levelo_inurba_marseille","lat":43.287887,"lon":5.373733,"is_reserved":false,"is_disabled":false,"rental_uris":{"android":"levelo://app?vid=14a2ccd3-51a3-44d4-8a38-da66449fe25f","ios":"levelo://app?vid=14a2ccd3-51a3-44d4-8a38-da66449fe25f"},"vehicle_type_id":"4","last_reported":1721070384,"current_range_meters":24400,"station_id":"","pricing_plan_id":"cebpf4jnsgd1na2vs0mg"},{"bike_id":"2a308531-1388-41b0-85b9-f47f24abc394","system_id":"levelo_inurba_marseille","lat":43.309371,"lon":5.401449,"is_reserved":false,"is_disabled":false,"rental_uris":{"android":"levelo://app?vid=2a308531-1388-41b0-85b9-f47f24abc394","ios":"levelo://app?vid=2a308531-1388-41b0-85b9-f47f24abc394"},"vehicle_type_id":"4","last_reported":1721070384,"current_range_meters":0,"station_id":"ce4bgvp2rcd13ifvqct0","pricing_plan_id":"cebpf4jnsgd1na2vs0mg"},{"bike_id":"11e2a0c5-dab4-4134-ad65-c03b9bccd0e0","system_id":"levelo_inurba_marseille","lat":43.33749,"lon":5.37445,"is_reserved":false,"is_disabled":false,"rental_uris":{"android":"levelo://app?vid=11e2a0c5-dab4-4134-ad65-c03b9bccd0e0","ios":"levelo://app?vid=11e2a0c5-dab4-4134-ad65-c03b9bccd0e0"},"vehicle_type_id":"4","last_reported":1721070384,"current_range_meters":28000,"station_id":"","pricing_plan_id":"cebpf4jnsgd1na2vs0mg"},{"bike_id":"b8e3a504-91d6-4ecb-9dd7-42e03ebcc6c0","system_id":"levelo_inurba_marseille","lat":43.309371,"lon":5.401449,"is_reserved":false,"is_disabled":false,"rental_uris":{"android":"levelo://app?vid=b8e3a504-91d6-4ecb-9dd7-42e03ebcc6c0","ios":"levelo://app?vid=b8e3a504-91d6-4ecb-9dd7-42e03ebcc6c0"},"vehicle_type_id":"4","last_reported":1721070384,"current_range_meters":800,"station_id":"ce4bgvp2rcd13ifvqct0","pricing_plan_id":"cebpf4jnsgd1na2vs0mg"},{"bike_id":"ca2a4702-5496-49a4-9f15-7585bc2ccc1a","system_id":"levelo_inurba_marseille","lat":43.312609,"lon":5.401662,"is_reserved":false,"is_disabled":false,"rental_uris":{"android":"levelo://app?vid=ca2a4702-5496-49a4-9f15-7585bc2ccc1a","ios":"levelo://app?vid=ca2a4702-5496-49a4-9f15-7585bc2ccc1a"},"vehicle_type_id":"4","last_reported":1721070384,"current_range_meters":2800,"station_id":"ce4bh092rcd13ifvqd30","pricing_plan_id":"cebpf4jnsgd1na2vs0mg"},{"bike_id":"5e29faa5-737f-4677-875d-f28ec400b2e0","system_id":"levelo_inurba_marseille","lat":43.337481,"lon":5.37466,"is_reserved":false,"is_disabled":false,"rental_uris":{"android":"levelo://app?vid=5e29faa5-737f-4677-875d-f28ec400b2e0","ios":"levelo://app?vid=5e29faa5-737f-4677-875d-f28ec400b2e0"},"vehicle_type_id":"4","last_reported":1721070384,"current_range_meters":18800,"station_id":"","pricing_plan_id":"cebpf4jnsgd1na2vs0mg"},{"bike_id":"dc6bfe10-7a46-4264-a663-68b4b8478ca4","system_id":"levelo_inurba_marseille","lat":43.30642,"lon":5.401031,"is_reserved":false,"is_disabled":false,"rental_uris":{"android":"levelo://app?vid=dc6bfe10-7a46-4264-a663-68b4b8478ca4","ios":"levelo://app?vid=dc6bfe10-7a46-4264-a663-68b4b8478ca4"},"vehicle_type_id":"4","last_reported":1721070384,"current_range_meters":0,"station_id":"ce4bh112rcd13ifvqda0","pricing_plan_id":"cebpf4jnsgd1na2vs0mg"},{"bike_id":"bc181a61-1a7b-4496-ba49-e2799bac86fb","system_id":"levelo_inurba_marseille","lat":43.337654,"lon":5.374831,"is_reserved":false,"is_disabled":false,"rental_uris":{"android":"levelo://app?vid=bc181a61-1a7b-4496-ba49-e2799bac86fb","ios":"levelo://app?vid=bc181a61-1a7b-4496-ba49-e2799bac86fb"},"vehicle_type_id":"4","last_reported":1721070384,"current_range_meters":17600,"station_id":"","pricing_plan_id":"cebpf4jnsgd1na2vs0mg"},{"bike_id":"e71005c4-b193-4c68-a08a-43391ded7766","system_id":"levelo_inurba_marseille","lat":43.301117,"lon":5.398795,"is_reserved":false,"is_disabled":false,"rental_uris":{"android":"levelo://app?vid=e71005c4-b193-4c68-a08a-43391ded7766","ios":"levelo://app?vid=e71005c4-b193-4c68-a08a-43391ded7766"},"vehicle_type_id":"4","last_reported":1721070384,"current_range_meters":0,"station_id":"ce4bh0h2rcd13ifvqd40","pricing_plan_id":"cebpf4jnsgd1na2vs0mg"},{"bike_id":"77135c58-8904-45a2-8a17-8d1ca082af22","system_id":"levelo_inurba_marseille","lat":43.301117,"lon":5.398795,"is_reserved":false,"is_disabled":false,"rental_uris":{"android":"levelo://app?vid=77135c58-8904-45a2-8a17-8d1ca082af22","ios":"levelo://app?vid=77135c58-8904-45a2-8a17-8d1ca082af22"},"vehicle_type_id":"4","last_reported":1721070384,"current_range_meters":2000,"station_id":"ce4bh0h2rcd13ifvqd40","pricing_plan_id":"cebpf4jnsgd1na2vs0mg"},{"bike_id":"ec313208-a76c-4e9f-b419-fba1ea986c35","system_id":"levelo_inurba_marseille","lat":43.301117,"lon":5.398795,"is_reserved":false,"is_disabled":false,"rental_uris":{"android":"levelo://app?vid=ec313208-a76c-4e9f-b419-fba1ea986c35","ios":"levelo://app?vid=ec313208-a76c-4e9f-b419-fba1ea986c35"},"vehicle_type_id":"4","last_reported":1721070384,"current_range_meters":10000,"station_id":"ce4bh0h2rcd13ifvqd40","pricing_plan_id":"cebpf4jnsgd1na2vs0mg"},{"bike_id":"6a57604a-f443-44c6-98b8-251782b7f8c1","system_id":"levelo_inurba_marseille","lat":43.301117,"lon":5.398795,"is_reserved":false,"is_disabled":false,"rental_uris":{"android":"levelo://app?vid=6a57604a-f443-44c6-98b8-251782b7f8c1","ios":"levelo://app?vid=6a57604a-f443-44c6-98b8-251782b7f8c1"},"vehicle_type_id":"4","last_reported":1721070384,"current_range_meters":8000,"station_id":"ce4bh0h2rcd13ifvqd40","pricing_plan_id":"cebpf4jnsgd1na2vs0mg"},{"bike_id":"848d4244-9224-4ae4-ac93-1f29d2d73cdb","system_id":"levelo_inurba_marseille","lat":43.286961,"lon":5.373785,"is_reserved":false,"is_disabled":false,"rental_uris":{"android":"levelo://app?vid=848d4244-9224-4ae4-ac93-1f29d2d73cdb","ios":"levelo://app?vid=848d4244-9224-4ae4-ac93-1f29d2d73cdb"},"vehicle_type_id":"4","last_reported":1721070384,"current_range_meters":0,"station_id":"ce4bh3p2rcd13ifvqdq0","pricing_plan_id":"cebpf4jnsgd1na2vs0mg"},{"bike_id":"f23124b6-7d5b-4d19-8501-9adc569be459","system_id":"levelo_inurba_marseille","lat":43.29872,"lon":5.39725,"is_reserved":false,"is_disabled":false,"rental_uris":{"android":"levelo://app?vid=f23124b6-7d5b-4d19-8501-9adc569be459","ios":"levelo://app?vid=f23124b6-7d5b-4d19-8501-9adc569be459"},"vehicle_type_id":"4","last_reported":1721070384,"current_range_meters":6800,"station_id":"ce4bh0h2rcd13ifvqd50","pricing_plan_id":"cebpf4jnsgd1na2vs0mg"},{"bike_id":"9d481692-4eac-4f76-b097-455a3536005c","system_id":"levelo_inurba_marseille","lat":43.28703,"lon":5.37394,"is_reserved":false,"is_disabled":false,"rental_uris":{"android":"levelo://app?vid=9d481692-4eac-4f76-b097-455a3536005c","ios":"levelo://app?vid=9d481692-4eac-4f76-b097-455a3536005c"},"vehicle_type_id":"4","last_reported":1721070384,"current_range_meters":0,"station_id":"","pricing_plan_id":"cebpf4jnsgd1na2vs0mg"},{"bike_id":"fc9e50e9-7207-4071-a467-94f18badf9fd","system_id":"levelo_inurba_marseille","lat":43.286961,"lon":5.373785,"is_reserved":false,"is_disabled":false,"rental_uris":{"android":"levelo://app?vid=fc9e50e9-7207-4071-a467-94f18badf9fd","ios":"levelo://app?vid=fc9e50e9-7207-4071-a467-94f18badf9fd"},"vehicle_type_id":"4","last_reported":1721070384,"current_range_meters":18800,"station_id":"ce4bh3p2rcd13ifvqdq0","pricing_plan_id":"cebpf4jnsgd1na2vs0mg"},{"bike_id":"e8571763-4600-42d6-b3b2-5140cfcc27e9","system_id":"levelo_inurba_marseille","lat":43.289307,"lon":5.38406,"is_reserved":false,"is_disabled":false,"rental_uris":{"android":"levelo://app?vid=e8571763-4600-42d6-b3b2-5140cfcc27e9","ios":"levelo://app?vid=e8571763-4600-42d6-b3b2-5140cfcc27e9"},"vehicle_type_id":"4","last_reported":1721070384,"current_range_meters":3200,"station_id":"ce4bh612rcd13ifvqe6g","pricing_plan_id":"cebpf4jnsgd1na2vs0mg"},{"bike_id":"4075d8f5-f429-4dfb-a6ab-55333d80ccdf","system_id":"levelo_inurba_marseille","lat":43.28926,"lon":5.38386,"is_reserved":false,"is_disabled":false,"rental_uris":{"android":"levelo://app?vid=4075d8f5-f429-4dfb-a6ab-55333d80ccdf","ios":"levelo://app?vid=4075d8f5-f429-4dfb-a6ab-55333d80ccdf"},"vehicle_type_id":"4","last_reported":1721070384,"current_range_meters":0,"station_id":"ce4bh612rcd13ifvqe6g","pricing_plan_id":"cebpf4jnsgd1na2vs0mg"},{"bike_id":"04cd5033-1f0b-46fa-bbac-34aec145aa96","system_id":"levelo_inurba_marseille","lat":43.28929,"lon":5.38394,"is_reserved":false,"is_disabled":false,"rental_uris":{"android":"levelo://app?vid=04cd5033-1f0b-46fa-bbac-34aec145aa96","ios":"levelo://app?vid=04cd5033-1f0b-46fa-bbac-34aec145aa96"},"vehicle_type_id":"4","last_reported":1721070384,"current_range_meters":13600,"station_id":"ce4bh612rcd13ifvqe6g","pricing_plan_id":"cebpf4jnsgd1na2vs0mg"},{"bike_id":"9952b153-3c18-4115-9d2c-49b4a53f001f","system_id":"levelo_inurba_marseille","lat":43.302759,"lon":5.400793,"is_reserved":false,"is_disabled":false,"rental_uris":{"android":"levelo://app?vid=9952b153-3c18-4115-9d2c-49b4a53f001f","ios":"levelo://app?vid=9952b153-3c18-4115-9d2c-49b4a53f001f"},"vehicle_type_id":"4","last_reported":1721070384,"current_range_meters":400,"station_id":"ce4bgvh2rcd13ifvqcs0","pricing_plan_id":"cebpf4jnsgd1na2vs0mg"},{"bike_id":"f919545e-0d30-44e2-9ecf-f41490785f99","system_id":"levelo_inurba_marseille","lat":43.289307,"lon":5.38406,"is_reserved":false,"is_disabled":false,"rental_uris":{"android":"levelo://app?vid=f919545e-0d30-44e2-9ecf-f41490785f99","ios":"levelo://app?vid=f919545e-0d30-44e2-9ecf-f41490785f99"},"vehicle_type_id":"4","last_reported":1721070384,"current_range_meters":800,"station_id":"ce4bh612rcd13ifvqe6g","pricing_plan_id":"cebpf4jnsgd1na2vs0mg"},{"bike_id":"aa623cea-39f2-48fc-aae8-84c5da387502","system_id":"levelo_inurba_marseille","lat":43.289307,"lon":5.38406,"is_reserved":false,"is_disabled":false,"rental_uris":{"android":"levelo://app?vid=aa623cea-39f2-48fc-aae8-84c5da387502","ios":"levelo://app?vid=aa623cea-39f2-48fc-aae8-84c5da387502"},"vehicle_type_id":"4","last_reported":1721070384,"current_range_meters":2800,"station_id":"ce4bh612rcd13ifvqe6g","pricing_plan_id":"cebpf4jnsgd1na2vs0mg"},{"bike_id":"584fbf1d-5889-4e15-859c-842ae583f319","system_id":"levelo_inurba_marseille","lat":43.30248,"lon":5.40059,"is_reserved":false,"is_disabled":false,"rental_uris":{"android":"levelo://app?vid=584fbf1d-5889-4e15-859c-842ae583f319","ios":"levelo://app?vid=584fbf1d-5889-4e15-859c-842ae583f319"},"vehicle_type_id":"4","last_reported":1721070384,"current_range_meters":0,"station_id":"ce4bgvh2rcd13ifvqcs0","pricing_plan_id":"cebpf4jnsgd1na2vs0mg"},{"bike_id":"c6f8e3e8-6507-46a5-93d4-f8ed2b7e218d","system_id":"levelo_inurba_marseille","lat":43.28928,"lon":5.38404,"is_reserved":false,"is_disabled":false,"rental_uris":{"android":"levelo://app?vid=c6f8e3e8-6507-46a5-93d4-f8ed2b7e218d","ios":"levelo://app?vid=c6f8e3e8-6507-46a5-93d4-f8ed2b7e218d"},"vehicle_type_id":"4","last_reported":1721070384,"current_range_meters":29200,"station_id":"ce4bh612rcd13ifvqe6g","pricing_plan_id":"cebpf4jnsgd1na2vs0mg"},{"bike_id":"2d9f7bcd-d186-442d-a231-2e3bc1f407a5","system_id":"levelo_inurba_marseille","lat":43.32722,"lon":5.39754,"is_reserved":false,"is_disabled":false,"rental_uris":{"android":"levelo://app?vid=2d9f7bcd-d186-442d-a231-2e3bc1f407a5","ios":"levelo://app?vid=2d9f7bcd-d186-442d-a231-2e3bc1f407a5"},"vehicle_type_id":"4","last_reported":1721070384,"current_range_meters":5200,"station_id":"","pricing_plan_id":"cebpf4jnsgd1na2vs0mg"},{"bike_id":"171e7f82-6801-4996-bda6-0f06eee4ec59","system_id":"levelo_inurba_marseille","lat":43.290336,"lon":5.386425,"is_reserved":false,"is_disabled":false,"rental_uris":{"android":"levelo://app?vid=171e7f82-6801-4996-bda6-0f06eee4ec59","ios":"levelo://app?vid=171e7f82-6801-4996-bda6-0f06eee4ec59"},"vehicle_type_id":"4","last_reported":1721070384,"current_range_meters":400,"station_id":"ce4bh4p2rcd13ifvqe0g","pricing_plan_id":"cebpf4jnsgd1na2vs0mg"},{"bike_id":"f858c5f2-83c1-44a8-9df6-c03c431f0c21","system_id":"levelo_inurba_marseille","lat":43.290336,"lon":5.386425,"is_reserved":false,"is_disabled":false,"rental_uris":{"android":"levelo://app?vid=f858c5f2-83c1-44a8-9df6-c03c431f0c21","ios":"levelo://app?vid=f858c5f2-83c1-44a8-9df6-c03c431f0c21"},"vehicle_type_id":"4","last_reported":1721070384,"current_range_meters":22800,"station_id":"ce4bh4p2rcd13ifvqe0g","pricing_plan_id":"cebpf4jnsgd1na2vs0mg"},{"bike_id":"5ab7e91a-f9fb-4374-a476-d2fa1e0401a2","system_id":"levelo_inurba_marseille","lat":43.289232,"lon":5.384033,"is_reserved":false,"is_disabled":false,"rental_uris":{"android":"levelo://app?vid=5ab7e91a-f9fb-4374-a476-d2fa1e0401a2","ios":"levelo://app?vid=5ab7e91a-f9fb-4374-a476-d2fa1e0401a2"},"vehicle_type_id":"4","last_reported":1721070384,"current_range_meters":400,"station_id":"ce4bh612rcd13ifvqe6g","pricing_plan_id":"cebpf4jnsgd1na2vs0mg"},{"bike_id":"81eb9043-8b63-42b9-a23c-6b12a883088a","system_id":"levelo_inurba_marseille","lat":43.32752,"lon":5.39733,"is_reserved":false,"is_disabled":false,"rental_uris":{"android":"levelo://app?vid=81eb9043-8b63-42b9-a23c-6b12a883088a","ios":"levelo://app?vid=81eb9043-8b63-42b9-a23c-6b12a883088a"},"vehicle_type_id":"4","last_reported":1721070384,"current_range_meters":7200,"station_id":"","pricing_plan_id":"cebpf4jnsgd1na2vs0mg"},{"bike_id":"41b257e5-3def-4c10-ab2b-7c11df794486","system_id":"levelo_inurba_marseille","lat":43.302759,"lon":5.400793,"is_reserved":false,"is_disabled":false,"rental_uris":{"android":"levelo://app?vid=41b257e5-3def-4c10-ab2b-7c11df794486","ios":"levelo://app?vid=41b257e5-3def-4c10-ab2b-7c11df794486"},"vehicle_type_id":"4","last_reported":1721070384,"current_range_meters":13200,"station_id":"ce4bgvh2rcd13ifvqcs0","pricing_plan_id":"cebpf4jnsgd1na2vs0mg"},{"bike_id":"1a044857-a14e-427d-8445-2118e3fc8ae6","system_id":"levelo_inurba_marseille","lat":43.28612,"lon":5.37064,"is_reserved":false,"is_disabled":false,"rental_uris":{"android":"levelo://app?vid=1a044857-a14e-427d-8445-2118e3fc8ae6","ios":"levelo://app?vid=1a044857-a14e-427d-8445-2118e3fc8ae6"},"vehicle_type_id":"4","last_reported":1721070384,"current_range_meters":800,"station_id":"ce4bht12rcd13ifvqi60","pricing_plan_id":"cebpf4jnsgd1na2vs0mg"},{"bike_id":"e9e027d2-2f40-4fad-8f2b-96c7a9d61af3","system_id":"levelo_inurba_marseille","lat":43.28609,"lon":5.37069,"is_reserved":false,"is_disabled":false,"rental_uris":{"android":"levelo://app?vid=e9e027d2-2f40-4fad-8f2b-96c7a9d61af3","ios":"levelo://app?vid=e9e027d2-2f40-4fad-8f2b-96c7a9d61af3"},"vehicle_type_id":"4","last_reported":1721070384,"current_range_meters":2800,"station_id":"ce4bht12rcd13ifvqi60","pricing_plan_id":"cebpf4jnsgd1na2vs0mg"},{"bike_id":"ee4c913c-c887-4d3e-9670-64d77db50617","system_id":"levelo_inurba_marseille","lat":43.286039,"lon":5.370681,"is_reserved":false,"is_disabled":false,"rental_uris":{"android":"levelo://app?vid=ee4c913c-c887-4d3e-9670-64d77db50617","ios":"levelo://app?vid=ee4c913c-c887-4d3e-9670-64d77db50617"},"vehicle_type_id":"4","last_reported":1721070384,"current_range_meters":15600,"station_id":"ce4bht12rcd13ifvqi60","pricing_plan_id":"cebpf4jnsgd1na2vs0mg"},{"bike_id":"75762f6a-81cc-4194-99e6-7177ddf09fa3","system_id":"levelo_inurba_marseille","lat":43.286077,"lon":5.370649,"is_reserved":false,"is_disabled":false,"rental_uris":{"android":"levelo://app?vid=75762f6a-81cc-4194-99e6-7177ddf09fa3","ios":"levelo://app?vid=75762f6a-81cc-4194-99e6-7177ddf09fa3"},"vehicle_type_id":"4","last_reported":1721070384,"current_range_meters":8000,"station_id":"","pricing_plan_id":"cebpf4jnsgd1na2vs0mg"},{"bike_id":"fd0c7603-dc3c-451e-a08f-af47937409af","system_id":"levelo_inurba_marseille","lat":43.28606,"lon":5.37067,"is_reserved":false,"is_disabled":false,"rental_uris":{"android":"levelo://app?vid=fd0c7603-dc3c-451e-a08f-af47937409af","ios":"levelo://app?vid=fd0c7603-dc3c-451e-a08f-af47937409af"},"vehicle_type_id":"4","last_reported":1721070384,"current_range_meters":16800,"station_id":"ce4bht12rcd13ifvqi60","pricing_plan_id":"cebpf4jnsgd1na2vs0mg"},{"bike_id":"e2158d79-0465-49c1-a851-1d96ff64f5ba","system_id":"levelo_inurba_marseille","lat":43.287184,"lon":5.37937,"is_reserved":false,"is_disabled":false,"rental_uris":{"android":"levelo://app?vid=e2158d79-0465-49c1-a851-1d96ff64f5ba","ios":"levelo://app?vid=e2158d79-0465-49c1-a851-1d96ff64f5ba"},"vehicle_type_id":"4","last_reported":1721070384,"current_range_meters":0,"station_id":"ce4bh9p2rcd13ifvqec0","pricing_plan_id":"cebpf4jnsgd1na2vs0mg"},{"bike_id":"9edd6b6f-f8f0-4285-9a32-bd6c11fe96a8","system_id":"levelo_inurba_marseille","lat":43.2873,"lon":5.37944,"is_reserved":false,"is_disabled":false,"rental_uris":{"android":"levelo://app?vid=9edd6b6f-f8f0-4285-9a32-bd6c11fe96a8","ios":"levelo://app?vid=9edd6b6f-f8f0-4285-9a32-bd6c11fe96a8"},"vehicle_type_id":"4","last_reported":1721070384,"current_range_meters":0,"station_id":"ce4bh9p2rcd13ifvqec0","pricing_plan_id":"cebpf4jnsgd1na2vs0mg"},{"bike_id":"05caed85-3523-43f3-8742-8182199ee2f8","system_id":"levelo_inurba_marseille","lat":43.28794,"lon":5.382437,"is_reserved":false,"is_disabled":false,"rental_uris":{"android":"levelo://app?vid=05caed85-3523-43f3-8742-8182199ee2f8","ios":"levelo://app?vid=05caed85-3523-43f3-8742-8182199ee2f8"},"vehicle_type_id":"4","last_reported":1721070384,"current_range_meters":0,"station_id":"","pricing_plan_id":"cebpf4jnsgd1na2vs0mg"},{"bike_id":"012cfb6c-2bf2-4a7d-a7e8-7cfc399f8553","system_id":"levelo_inurba_marseille","lat":43.29877,"lon":5.39961,"is_reserved":false,"is_disabled":false,"rental_uris":{"android":"levelo://app?vid=012cfb6c-2bf2-4a7d-a7e8-7cfc399f8553","ios":"levelo://app?vid=012cfb6c-2bf2-4a7d-a7e8-7cfc399f8553"},"vehicle_type_id":"4","last_reported":1721070384,"current_range_meters":8800,"station_id":"","pricing_plan_id":"cebpf4jnsgd1na2vs0mg"},{"bike_id":"9dee7e39-87ac-4e3a-bf19-4a23cc5b086e","system_id":"levelo_inurba_marseille","lat":43.291966,"lon":5.393111,"is_reserved":false,"is_disabled":false,"rental_uris":{"android":"levelo://app?vid=9dee7e39-87ac-4e3a-bf19-4a23cc5b086e","ios":"levelo://app?vid=9dee7e39-87ac-4e3a-bf19-4a23cc5b086e"},"vehicle_type_id":"4","last_reported":1721070384,"current_range_meters":30400,"station_id":"ce4bh192rcd13ifvqdd0","pricing_plan_id":"cebpf4jnsgd1na2vs0mg"},{"bike_id":"90ee17e3-125c-463a-a75d-c1f00b3f9f9b","system_id":"levelo_inurba_marseille","lat":43.29202,"lon":5.39322,"is_reserved":false,"is_disabled":false,"rental_uris":{"android":"levelo://app?vid=90ee17e3-125c-463a-a75d-c1f00b3f9f9b","ios":"levelo://app?vid=90ee17e3-125c-463a-a75d-c1f00b3f9f9b"},"vehicle_type_id":"4","last_reported":1721070384,"current_range_meters":14800,"station_id":"ce4bh192rcd13ifvqdd0","pricing_plan_id":"cebpf4jnsgd1na2vs0mg"},{"bike_id":"a2af905a-0b57-46a5-9c89-12efcc7ba131","system_id":"levelo_inurba_marseille","lat":43.29192,"lon":5.3932,"is_reserved":false,"is_disabled":false,"rental_uris":{"android":"levelo://app?vid=a2af905a-0b57-46a5-9c89-12efcc7ba131","ios":"levelo://app?vid=a2af905a-0b57-46a5-9c89-12efcc7ba131"},"vehicle_type_id":"4","last_reported":1721070384,"current_range_meters":30800,"station_id":"ce4bh192rcd13ifvqdd0","pricing_plan_id":"cebpf4jnsgd1na2vs0mg"},{"bike_id":"4e514f8b-c1f0-4b4e-b754-bf6ceaff725b","system_id":"levelo_inurba_marseille","lat":43.284534,"lon":5.358662,"is_reserved":false,"is_disabled":false,"rental_uris":{"android":"levelo://app?vid=4e514f8b-c1f0-4b4e-b754-bf6ceaff725b","ios":"levelo://app?vid=4e514f8b-c1f0-4b4e-b754-bf6ceaff725b"},"vehicle_type_id":"4","last_reported":1721070384,"current_range_meters":2800,"station_id":"ce4bhah2rcd13ifvqei0","pricing_plan_id":"cebpf4jnsgd1na2vs0mg"},{"bike_id":"a7390627-8b6c-4149-9d20-d0ff687565c1","system_id":"levelo_inurba_marseille","lat":43.294465,"lon":5.397446,"is_reserved":false,"is_disabled":false,"rental_uris":{"android":"levelo://app?vid=a7390627-8b6c-4149-9d20-d0ff687565c1","ios":"levelo://app?vid=a7390627-8b6c-4149-9d20-d0ff687565c1"},"vehicle_type_id":"4","last_reported":1721070384,"current_range_meters":0,"station_id":"ce4bh3h2rcd13ifvqdo0","pricing_plan_id":"cebpf4jnsgd1na2vs0mg"},{"bike_id":"b47aff7d-803d-49af-a67e-7ebf2ecf237f","system_id":"levelo_inurba_marseille","lat":43.294314,"lon":5.397498,"is_reserved":false,"is_disabled":false,"rental_uris":{"android":"levelo://app?vid=b47aff7d-803d-49af-a67e-7ebf2ecf237f","ios":"levelo://app?vid=b47aff7d-803d-49af-a67e-7ebf2ecf237f"},"vehicle_type_id":"4","last_reported":1721070384,"current_range_meters":12800,"station_id":"ce4bh3h2rcd13ifvqdo0","pricing_plan_id":"cebpf4jnsgd1na2vs0mg"},{"bike_id":"e0800873-4bfb-4340-ac77-6b33c9302665","system_id":"levelo_inurba_marseille","lat":43.294494,"lon":5.397587,"is_reserved":false,"is_disabled":false,"rental_uris":{"android":"levelo://app?vid=e0800873-4bfb-4340-ac77-6b33c9302665","ios":"levelo://app?vid=e0800873-4bfb-4340-ac77-6b33c9302665"},"vehicle_type_id":"4","last_reported":1721070384,"current_range_meters":0,"station_id":"ce4bh3h2rcd13ifvqdo0","pricing_plan_id":"cebpf4jnsgd1na2vs0mg"},{"bike_id":"bf575f1b-86d2-46a3-be31-44951476bd18","system_id":"levelo_inurba_marseille","lat":43.294314,"lon":5.397498,"is_reserved":false,"is_disabled":false,"rental_uris":{"android":"levelo://app?vid=bf575f1b-86d2-46a3-be31-44951476bd18","ios":"levelo://app?vid=bf575f1b-86d2-46a3-be31-44951476bd18"},"vehicle_type_id":"4","last_reported":1721070384,"current_range_meters":27600,"station_id":"ce4bh3h2rcd13ifvqdo0","pricing_plan_id":"cebpf4jnsgd1na2vs0mg"},{"bike_id":"471e3e8f-46eb-4f5c-95b7-1e96d0254063","system_id":"levelo_inurba_marseille","lat":43.294314,"lon":5.397498,"is_reserved":false,"is_disabled":false,"rental_uris":{"android":"levelo://app?vid=471e3e8f-46eb-4f5c-95b7-1e96d0254063","ios":"levelo://app?vid=471e3e8f-46eb-4f5c-95b7-1e96d0254063"},"vehicle_type_id":"4","last_reported":1721070384,"current_range_meters":400,"station_id":"ce4bh3h2rcd13ifvqdo0","pricing_plan_id":"cebpf4jnsgd1na2vs0mg"},{"bike_id":"750fc214-d47a-4fba-a444-19fdbff6c8b5","system_id":"levelo_inurba_marseille","lat":43.295713,"lon":5.399639,"is_reserved":false,"is_disabled":false,"rental_uris":{"android":"levelo://app?vid=750fc214-d47a-4fba-a444-19fdbff6c8b5","ios":"levelo://app?vid=750fc214-d47a-4fba-a444-19fdbff6c8b5"},"vehicle_type_id":"4","last_reported":1721070384,"current_range_meters":5200,"station_id":"ce4bh312rcd13ifvqdj0","pricing_plan_id":"cebpf4jnsgd1na2vs0mg"},{"bike_id":"944b9313-e665-4187-9ff8-d6784f31766f","system_id":"levelo_inurba_marseille","lat":43.283998,"lon":5.375062,"is_reserved":false,"is_disabled":false,"rental_uris":{"android":"levelo://app?vid=944b9313-e665-4187-9ff8-d6784f31766f","ios":"levelo://app?vid=944b9313-e665-4187-9ff8-d6784f31766f"},"vehicle_type_id":"4","last_reported":1721070384,"current_range_meters":2000,"station_id":"ce4bh412rcd13ifvqds0","pricing_plan_id":"cebpf4jnsgd1na2vs0mg"},{"bike_id":"e8ccdc05-15bd-4f1e-bcda-5c0ea1a5b374","system_id":"levelo_inurba_marseille","lat":43.283998,"lon":5.375062,"is_reserved":false,"is_disabled":false,"rental_uris":{"android":"levelo://app?vid=e8ccdc05-15bd-4f1e-bcda-5c0ea1a5b374","ios":"levelo://app?vid=e8ccdc05-15bd-4f1e-bcda-5c0ea1a5b374"},"vehicle_type_id":"4","last_reported":1721070384,"current_range_meters":24800,"station_id":"ce4bh412rcd13ifvqds0","pricing_plan_id":"cebpf4jnsgd1na2vs0mg"},{"bike_id":"ec4511b3-cebe-4794-a689-4eb07dea0ebc","system_id":"levelo_inurba_marseille","lat":43.28413,"lon":5.37517,"is_reserved":false,"is_disabled":false,"rental_uris":{"android":"levelo://app?vid=ec4511b3-cebe-4794-a689-4eb07dea0ebc","ios":"levelo://app?vid=ec4511b3-cebe-4794-a689-4eb07dea0ebc"},"vehicle_type_id":"4","last_reported":1721070384,"current_range_meters":5200,"station_id":"ce4bh412rcd13ifvqds0","pricing_plan_id":"cebpf4jnsgd1na2vs0mg"},{"bike_id":"98bc4e64-99d6-4d6a-8dc0-5900bc765b0d","system_id":"levelo_inurba_marseille","lat":43.284102,"lon":5.375054,"is_reserved":false,"is_disabled":false,"rental_uris":{"android":"levelo://app?vid=98bc4e64-99d6-4d6a-8dc0-5900bc765b0d","ios":"levelo://app?vid=98bc4e64-99d6-4d6a-8dc0-5900bc765b0d"},"vehicle_type_id":"4","last_reported":1721070384,"current_range_meters":4000,"station_id":"ce4bh412rcd13ifvqds0","pricing_plan_id":"cebpf4jnsgd1na2vs0mg"},{"bike_id":"02708934-a716-4216-b1ca-787cc439ebc6","system_id":"levelo_inurba_marseille","lat":43.283998,"lon":5.375062,"is_reserved":false,"is_disabled":false,"rental_uris":{"android":"levelo://app?vid=02708934-a716-4216-b1ca-787cc439ebc6","ios":"levelo://app?vid=02708934-a716-4216-b1ca-787cc439ebc6"},"vehicle_type_id":"4","last_reported":1721070384,"current_range_meters":24800,"station_id":"ce4bh412rcd13ifvqds0","pricing_plan_id":"cebpf4jnsgd1na2vs0mg"},{"bike_id":"27aff6a5-0380-4558-ae55-df067fb36dea","system_id":"levelo_inurba_marseille","lat":43.283998,"lon":5.375062,"is_reserved":false,"is_disabled":false,"rental_uris":{"android":"levelo://app?vid=27aff6a5-0380-4558-ae55-df067fb36dea","ios":"levelo://app?vid=27aff6a5-0380-4558-ae55-df067fb36dea"},"vehicle_type_id":"4","last_reported":1721070384,"current_range_meters":9600,"station_id":"ce4bh412rcd13ifvqds0","pricing_plan_id":"cebpf4jnsgd1na2vs0mg"},{"bike_id":"f1945d49-d3d0-423a-a0c7-af6894e4deb5","system_id":"levelo_inurba_marseille","lat":43.295713,"lon":5.399639,"is_reserved":false,"is_disabled":false,"rental_uris":{"android":"levelo://app?vid=f1945d49-d3d0-423a-a0c7-af6894e4deb5","ios":"levelo://app?vid=f1945d49-d3d0-423a-a0c7-af6894e4deb5"},"vehicle_type_id":"4","last_reported":1721070384,"current_range_meters":20800,"station_id":"ce4bh312rcd13ifvqdj0","pricing_plan_id":"cebpf4jnsgd1na2vs0mg"},{"bike_id":"94a45130-c499-4fc0-9559-71120fe56926","system_id":"levelo_inurba_marseille","lat":43.283998,"lon":5.375062,"is_reserved":false,"is_disabled":false,"rental_uris":{"android":"levelo://app?vid=94a45130-c499-4fc0-9559-71120fe56926","ios":"levelo://app?vid=94a45130-c499-4fc0-9559-71120fe56926"},"vehicle_type_id":"4","last_reported":1721070384,"current_range_meters":17600,"station_id":"ce4bh412rcd13ifvqds0","pricing_plan_id":"cebpf4jnsgd1na2vs0mg"},{"bike_id":"a0ddb416-cba7-4f2a-b6f1-20d4457eddf7","system_id":"levelo_inurba_marseille","lat":43.28401,"lon":5.37517,"is_reserved":false,"is_disabled":false,"rental_uris":{"android":"levelo://app?vid=a0ddb416-cba7-4f2a-b6f1-20d4457eddf7","ios":"levelo://app?vid=a0ddb416-cba7-4f2a-b6f1-20d4457eddf7"},"vehicle_type_id":"4","last_reported":1721070384,"current_range_meters":30400,"station_id":"ce4bh412rcd13ifvqds0","pricing_plan_id":"cebpf4jnsgd1na2vs0mg"},{"bike_id":"ab43c5e8-dcca-4779-b51b-9eb01a18246a","system_id":"levelo_inurba_marseille","lat":43.286595,"lon":5.386795,"is_reserved":false,"is_disabled":false,"rental_uris":{"android":"levelo://app?vid=ab43c5e8-dcca-4779-b51b-9eb01a18246a","ios":"levelo://app?vid=ab43c5e8-dcca-4779-b51b-9eb01a18246a"},"vehicle_type_id":"4","last_reported":1721070384,"current_range_meters":25600,"station_id":"ce4bh492rcd13ifvqdug","pricing_plan_id":"cebpf4jnsgd1na2vs0mg"},{"bike_id":"350b491b-016a-43d6-8729-e2a6cf14e834","system_id":"levelo_inurba_marseille","lat":43.286595,"lon":5.386795,"is_reserved":false,"is_disabled":false,"rental_uris":{"android":"levelo://app?vid=350b491b-016a-43d6-8729-e2a6cf14e834","ios":"levelo://app?vid=350b491b-016a-43d6-8729-e2a6cf14e834"},"vehicle_type_id":"4","last_reported":1721070384,"current_range_meters":28000,"station_id":"ce4bh492rcd13ifvqdug","pricing_plan_id":"cebpf4jnsgd1na2vs0mg"},{"bike_id":"88a79bc8-1241-4a71-b58b-d75b2cff9f6e","system_id":"levelo_inurba_marseille","lat":43.31886,"lon":5.40747,"is_reserved":false,"is_disabled":false,"rental_uris":{"android":"levelo://app?vid=88a79bc8-1241-4a71-b58b-d75b2cff9f6e","ios":"levelo://app?vid=88a79bc8-1241-4a71-b58b-d75b2cff9f6e"},"vehicle_type_id":"4","last_reported":1721070384,"current_range_meters":31200,"station_id":"ce4bhq12rcd13ifvqhig","pricing_plan_id":"cebpf4jnsgd1na2vs0mg"},{"bike_id":"88dadc6a-50f9-4787-b7ca-226a52f849c0","system_id":"levelo_inurba_marseille","lat":43.323464,"lon":5.406297,"is_reserved":false,"is_disabled":false,"rental_uris":{"android":"levelo://app?vid=88dadc6a-50f9-4787-b7ca-226a52f849c0","ios":"levelo://app?vid=88dadc6a-50f9-4787-b7ca-226a52f849c0"},"vehicle_type_id":"4","last_reported":1721070384,"current_range_meters":16400,"station_id":"ce4bhq92rcd13ifvqhjg","pricing_plan_id":"cebpf4jnsgd1na2vs0mg"},{"bike_id":"63633e5b-b9ce-4a5b-85ab-2d60a2757316","system_id":"levelo_inurba_marseille","lat":43.3234,"lon":5.40625,"is_reserved":false,"is_disabled":false,"rental_uris":{"android":"levelo://app?vid=63633e5b-b9ce-4a5b-85ab-2d60a2757316","ios":"levelo://app?vid=63633e5b-b9ce-4a5b-85ab-2d60a2757316"},"vehicle_type_id":"4","last_reported":1721070384,"current_range_meters":31200,"station_id":"ce4bhq92rcd13ifvqhjg","pricing_plan_id":"cebpf4jnsgd1na2vs0mg"},