{"last_updated":1750752913,"ttl":60,"version":"2.2","data":{"bikes":[{"bike_id":"3da29fb8-fc97-44c6-b9ac-31dd456b2fd4","system_id":"levelo_inurba_marseille","lat":43.33771,"lon":5.37424,"is_reserved":false,"is_disabled":true,"rental_uris":{"android":"levelo://app?vid=3da29fb8-fc97-44c6-b9ac-31dd456b2fd4","ios":"levelo://app?vid=3da29fb8-fc97-44c6-b9ac-31dd456b2fd4"},"vehicle_type_id":"4","last_reported":1750752913,"current_range_meters":0,"station_id":"","pricing_plan_id":"cebpf4jnsgd1na2vs0mg"},{"bike_id":"01861ad8-a8d7-4be6-816e-651927c87584","system_id":"levelo_inurba_marseille","lat":43.33751,"lon":5.37456,"is_reserved":false,"is_disabled":true,"rental_uris":{"android":"levelo://app?vid=01861ad8-a8d7-4be6-816e-651927c87584","ios":"levelo://app?vid=01861ad8-a8d7-4be6-816e-651927c87584"},"vehicle_type_id":"4","last_reported":1750752913,"current_range_meters":0,"station_id":"","pricing_plan_id":"cebpf4jnsgd1na2vs0mg"},{"bike_id":"f0a1d594-9817-42ab-a8d6-aea4947e8858","system_id":"levelo_inurba_marseille","lat":43.28807,"lon":5.43438,"is_reserved":false,"is_disabled":true,"rental_uris":{"android":"levelo://app?vid=f0a1d594-9817-42ab-a8d6-aea4947e8858","ios":"levelo://app?vid=f0a1d594-9817-42ab-a8d6-aea4947e8858"},"vehicle_type_id":"4","last_reported":1750752913,"current_range_meters":0,"station_id":"","pricing_plan_id":"cebpf4jnsgd1na2vs0mg"},{"bike_id":"38fa1014-dc0c-49c9-ad0a-4ed146026865","system_id":"levelo_inurba_marseille","lat":43.212,"lon":5.35066,"is_reserved":false,"is_disabled":true,"rental_uris":{"android":"levelo://app?vid=38fa1014-dc0c-49c9-ad0a-4ed146026865","ios":"levelo://app?vid=38fa1014-dc0c-49c9-ad0a-4ed146026865"},"vehicle_type_id":"4","last_reported":1750752913,"current_range_meters":0,"station_id":"","pricing_plan_id":"cebpf4jnsgd1na2vs0mg"},{"bike_id":"62a493c7-4534-4419-ad43-0582de34a72a","system_id":"levelo_inurba_marseille","lat":43.21366,"lon":5.355183,"is_reserved":false,"is_disabled":true,"rental_uris":{"android":"levelo://app?vid=62a493c7-4534-4419-ad43-0582de34a72a","ios":"levelo://app?vid=62a493c7-4534-4419-ad43-0582de34a72a"},"vehicle_type_id":"4","last_reported":1750752913,"current_range_meters":0,"station_id":"","pricing_plan_id":"cebpf4jnsgd1na2vs0mg"},{"bike_id":"139d47bd-ff87-42d8-a4c6-89da4be6f80c","system_id":"levelo_inurba_marseille","lat":43.27962,"lon":5.44252,"is_reserved":false,"is_disabled":true,"rental_uris":{"android":"levelo://app?vid=139d47bd-ff87-42d8-a4c6-89da4be6f80c","ios":"levelo://app?vid=139d47bd-ff87-42d8-a4c6-89da4be6f80c"},"vehicle_type_id":"4","last_reported":1750752913,"current_range_meters":0,"station_id":"","pricing_plan_id":"cebpf4jnsgd1na2vs0mg"},{"bike_id":"d07b07aa-5732-4368-b606-c642421b7603","system_id":"levelo_inurba_marseille","lat":43.34332,"lon":5.34992,"is_reserved":false,"is_disabled":true,"rental_uris":{"android":"levelo://app?vid=d07b07aa-5732-4368-b606-c642421b7603","ios":"levelo://app?vid=d07b07aa-5732-4368-b606-c642421b7603"},"vehicle_type_id":"4","last_reported":1750752913,"current_range_meters":0,"station_id":"","pricing_plan_id":"cebpf4jnsgd1na2vs0mg"},{"bike_id":"b029dd7d-66f2-41c6-b792-e13f00a5aa4a","system_id":"levelo_inurba_marseille","lat":43.30844,"lon":5.38428,"is_reserved":false,"is_disabled":true,"rental_uris":{"android":"levelo://app?vid=b029dd7d-66f2-41c6-b792-e13f00a5aa4a","ios":"levelo://app?vid=b029dd7d-66f2-41c6-b792-e13f00a5aa4a"},"vehicle_type_id":"4","last_reported":1750752913,"current_range_meters":0,"station_id":"","pricing_plan_id":"cebpf4jnsgd1na2vs0mg"},{"bike_id":"3a3a1818-f20a-442b-bfcf-0e0a18008f43","system_id":"levelo_inurba_marseille","lat":43.26612,"lon":5.37491,"is_reserved":false,"is_disabled":true,"rental_uris":{"android":"levelo://app?vid=3a3a1818-f20a-442b-bfcf-0e0a18008f43","ios":"levelo://app?vid=3a3a1818-f20a-442b-bfcf-0e0a18008f43"},"vehicle_type_id":"4","last_reported":1750752913,"current_range_meters":0,"station_id":"","pricing_plan_id":"cebpf4jnsgd1na2vs0mg"},{"bike_id":"1077b5b0-6cc3-4ca3-a74a-ec713036c223","system_id":"levelo_inurba_marseille","lat":43.2973,"lon":5.38016,"is_reserved":false,"is_disabled":true,"rental_uris":{"android":"levelo://app?vid=1077b5b0-6cc3-4ca3-a74a-ec713036c223","ios":"levelo://app?vid=1077b5b0-6cc3-4ca3-a74a-ec713036c223"},"vehicle_type_id":"4","last_reported":1750752913,"current_range_meters":0,"station_id":"","pricing_plan_id":"cebpf4jnsgd1na2vs0mg"},{"bike_id":"d6609b4f-333b-43c1-9ebe-8726f5e76e88","system_id":"levelo_inurba_marseille","lat":43.337444,"lon":5.374475,"is_reserved":false,"is_disabled":true,"rental_uris":{"android":"levelo://app?vid=d6609b4f-333b-43c1-9ebe-8726f5e76e88","ios":"levelo://app?vid=d6609b4f-333b-43c1-9ebe-8726f5e76e88"},"vehicle_type_id":"4","last_reported":1750752913,"current_range_meters":0,"station_id":"","pricing_plan_id":"cebpf4jnsgd1na2vs0mg"},{"bike_id":"9cb193d0-906b-4ac2-85c5-eea810b1d20f","system_id":"levelo_inurba_marseille","lat":43.29405,"lon":5.43183,"is_reserved":false,"is_disabled":true,"rental_uris":{"android":"levelo://app?vid=9cb193d0-906b-4ac2-85c5-eea810b1d20f","ios":"levelo://app?vid=9cb193d0-906b-4ac2-85c5-eea810b1d20f"},"vehicle_type_id":"4","last_reported":1750752913,"current_range_meters":0,"station_id":"","pricing_plan_id":"cebpf4jnsgd1na2vs0mg"},{"bike_id":"bd17737b-22d2-4e4f-88e8-4eb661d864c4","system_id":"levelo_inurba_marseille","lat":43.29171,"lon":5.46067,"is_reserved":false,"is_disabled":true,"rental_uris":{"android":"levelo://app?vid=bd17737b-22d2-4e4f-88e8-4eb661d864c4","ios":"levelo://app?vid=bd17737b-22d2-4e4f-88e8-4eb661d864c4"},"vehicle_type_id":"4","last_reported":1750752913,"current_range_meters":0,"station_id":"","pricing_plan_id":"cebpf4jnsgd1na2vs0mg"},{"bike_id":"0c86cdad-b64a-47bf-ba91-5b398064181c","system_id":"levelo_inurba_marseille","lat":43.384196,"lon":5.358629,"is_reserved":false,"is_disabled":true,"rental_uris":{"android":"levelo://app?vid=0c86cdad-b64a-47bf-ba91-5b398064181c","ios":"levelo://app?vid=0c86cdad-b64a-47bf-ba91-5b398064181c"},"vehicle_type_id":"4","last_reported":1750752913,"current_range_meters":0,"station_id":"","pricing_plan_id":"cebpf4jnsgd1na2vs0mg"},{"bike_id":"5d8d4a37-f1d7-4561-89e7-a9621ebd96c2","system_id":"levelo_inurba_marseille","lat":43.32579,"lon":5.41491,"is_reserved":false,"is_disabled":true,"rental_uris":{"android":"levelo://app?vid=5d8d4a37-f1d7-4561-89e7-a9621ebd96c2","ios":"levelo://app?vid=5d8d4a37-f1d7-4561-89e7-a9621ebd96c2"},"vehicle_type_id":"4","last_reported":1750752913,"current_range_meters":0,"station_id":"","pricing_plan_id":"cebpf4jnsgd1na2vs0mg"},{"bike_id":"da6edd56-d860-47e3-9988-161d9bab9087","system_id":"levelo_inurba_marseille","lat":43.31341,"lon":5.36703,"is_reserved":false,"is_disabled":true,"rental_uris":{"android":"levelo://app?vid=da6edd56-d860-47e3-9988-161d9bab9087","ios":"levelo://app?vid=da6edd56-d860-47e3-9988-161d9bab9087"},"vehicle_type_id":"4","last_reported":1750752913,"current_range_meters":0,"station_id":"ce4bgr92rcd13ifvqc6g","pricing_plan_id":"cebpf4jnsgd1na2vs0mg"},{"bike_id":"72d4d8b1-4ee7-4da6-aca8-64a1977977ea","system_id":"levelo_inurba_marseille","lat":43.314858,"lon":5.373098,"is_reserved":false,"is_disabled":true,"rental_uris":{"android":"levelo://app?vid=72d4d8b1-4ee7-4da6-aca8-64a1977977ea","ios":"levelo://app?vid=72d4d8b1-4ee7-4da6-aca8-64a1977977ea"},"vehicle_type_id":"4","last_reported":1750752913,"current_range_meters":0,"station_id":"ce4bgt12rcd13ifvqcd0","pricing_plan_id":"cebpf4jnsgd1na2vs0mg"},{"bike_id":"c8c5e31e-637e-407e-8668-5f53ee16bb94","system_id":"levelo_inurba_marseille","lat":43.28488,"lon":5.38417,"is_reserved":false,"is_disabled":true,"rental_uris":{"android":"levelo://app?vid=c8c5e31e-637e-407e-8668-5f53ee16bb94","ios":"levelo://app?vid=c8c5e31e-637e-407e-8668-5f53ee16bb94"},"vehicle_type_id":"4","last_reported":1750752913,"current_range_meters":0,"station_id":"ce4bh512rcd13ifvqe3g","pricing_plan_id":"cebpf4jnsgd1na2vs0mg"},{"bike_id":"1414e526-d84b-4cf1-bd8a-e4798a70cf8d","system_id":"levelo_inurba_marseille","lat":43.27874,"lon":5.39222,"is_reserved":false,"is_disabled":true,"rental_uris":{"android":"levelo://app?vid=1414e526-d84b-4cf1-bd8a-e4798a70cf8d","ios":"levelo://app?vid=1414e526-d84b-4cf1-bd8a-e4798a70cf8d"},"vehicle_type_id":"4","last_reported":1750752913,"current_range_meters":0,"station_id":"ce4bhjp2rcd13ifvqga0","pricing_plan_id":"cebpf4jnsgd1na2vs0mg"},{"bike_id":"41c8c0a1-8e5d-49b3-b232-d30cbb38ba09","system_id":"levelo_inurba_marseille","lat":43.23152,"lon":5.4371,"is_reserved":false,"is_disabled":true,"rental_uris":{"android":"levelo://app?vid=41c8c0a1-8e5d-49b3-b232-d30cbb38ba09","ios":"levelo://app?vid=41c8c0a1-8e5d-49b3-b232-d30cbb38ba09"},"vehicle_type_id":"4","last_reported":1750752913,"current_range_meters":0,"station_id":"ce4bhmp2rcd13ifvqgog","pricing_plan_id":"cebpf4jnsgd1na2vs0mg"},{"bike_id":"e324236b-d280-44b2-8e88-455c30f219da","system_id":"levelo_inurba_marseille","lat":43.23141,"lon":5.43707,"is_reserved":false,"is_disabled":true,"rental_uris":{"android":"levelo://app?vid=e324236b-d280-44b2-8e88-455c30f219da","ios":"levelo://app?vid=e324236b-d280-44b2-8e88-455c30f219da"},"vehicle_type_id":"4","last_reported":1750752913,"current_range_meters":0,"station_id":"ce4bhmp2rcd13ifvqgog","pricing_plan_id":"cebpf4jnsgd1na2vs0mg"},{"bike_id":"9c2ca8b7-b9be-4794-bd25-0dd99fea6b8e","system_id":"levelo_inurba_marseille","lat":43.27809,"lon":5.40717,"is_reserved":false,"is_disabled":true,"rental_uris":{"android":"levelo://app?vid=9c2ca8b7-b9be-4794-bd25-0dd99fea6b8e","ios":"levelo://app?vid=9c2ca8b7-b9be-4794-bd25-0dd99fea6b8e"},"vehicle_type_id":"4","last_reported":1750752913,"current_range_meters":0,"station_id":"ce4bhnh2rcd13ifvqgtg","pricing_plan_id":"cebpf4jnsgd1na2vs0mg"},{"bike_id":"939895bb-d002-478c-b875-e934bfc5d605","system_id":"levelo_inurba_marseille","lat":43.3248,"lon":5.36546,"is_reserved":false,"is_disabled":true,"rental_uris":{"android":"levelo://app?vid=939895bb-d002-478c-b875-e934bfc5d605","ios":"levelo://app?vid=939895bb-d002-478c-b875-e934bfc5d605"},"vehicle_type_id":"4","last_reported":1750752913,"current_range_meters":0,"station_id":"ce4bhs12rcd13ifvqhvg","pricing_plan_id":"cebpf4jnsgd1na2vs0mg"},{"bike_id":"865bbb88-7360-4b95-9f96-ca53c92110dc","system_id":"levelo_inurba_marseille","lat":43.324778,"lon":5.365716,"is_reserved":false,"is_disabled":true,"rental_uris":{"android":"levelo://app?vid=865bbb88-7360-4b95-9f96-ca53c92110dc","ios":"levelo://app?vid=865bbb88-7360-4b95-9f96-ca53c92110dc"},"vehicle_type_id":"4","last_reported":1750752913,"current_range_meters":0,"station_id":"ce4bhs12rcd13ifvqhvg","pricing_plan_id":"cebpf4jnsgd1na2vs0mg"},{"bike_id":"6a285c26-e300-4c7a-ac4f-4d943996d660","system_id":"levelo_inurba_marseille","lat":43.32359,"lon":5.36762,"is_reserved":false,"is_disabled":true,"rental_uris":{"android":"levelo://app?vid=6a285c26-e300-4c7a-ac4f-4d943996d660","ios":"levelo://app?vid=6a285c26-e300-4c7a-ac4f-4d943996d660"},"vehicle_type_id":"4","last_reported":1750752913,"current_range_meters":0,"station_id":"ce4bhsh2rcd13ifvqi2g","pricing_plan_id":"cebpf4jnsgd1na2vs0mg"},{"bike_id":"de002d9d-83b0-41e6-99fe-f9eb013d6ff3","system_id":"levelo_inurba_marseille","lat":43.21745,"lon":5.34602,"is_reserved":false,"is_disabled":true,"rental_uris":{"android":"levelo://app?vid=de002d9d-83b0-41e6-99fe-f9eb013d6ff3","ios":"levelo://app?vid=de002d9d-83b0-41e6-99fe-f9eb013d6ff3"},"vehicle_type_id":"4","last_reported":1750752913,"current_range_meters":0,"station_id":"st_cvj6r9ubvosntc0bgbag","pricing_plan_id":"cebpf4jnsgd1na2vs0mg"},{"bike_id":"0503e1d2-ec4f-4cb3-9ea6-e4f3eb558d3e","system_id":"levelo_inurba_marseille","lat":43.299239,"lon":5.369351,"is_reserved":false,"is_disabled":true,"rental_uris":{"android":"levelo://app?vid=0503e1d2-ec4f-4cb3-9ea6-e4f3eb558d3e","ios":"levelo://app?vid=0503e1d2-ec4f-4cb3-9ea6-e4f3eb558d3e"},"vehicle_type_id":"4","last_reported":1750752913,"current_range_meters":400,"station_id":"","pricing_plan_id":"cebpf4jnsgd1na2vs0mg"},{"bike_id":"e1476c83-e928-4d2e-8749-4651c68ec3e5","system_id":"levelo_inurba_marseille","lat":43.31107,"lon":5.37749,"is_reserved":false,"is_disabled":true,"rental_uris":{"android":"levelo://app?vid=e1476c83-e928-4d2e-8749-4651c68ec3e5","ios":"levelo://app?vid=e1476c83-e928-4d2e-8749-4651c68ec3e5"},"vehicle_type_id":"4","last_reported":1750752913,"current_range_meters":400,"station_id":"ce4bgt92rcd13ifvqcg0","pricing_plan_id":"cebpf4jnsgd1na2vs0mg"},{"bike_id":"fd9794ba-e8c3-4ec3-86e4-77dd1d151c0a","system_id":"levelo_inurba_marseille","lat":43.286588,"lon":5.386692,"is_reserved":false,"is_disabled":false,"rental_uris":{"android":"levelo://app?vid=fd9794ba-e8c3-4ec3-86e4-77dd1d151c0a","ios":"levelo://app?vid=fd9794ba-e8c3-4ec3-86e4-77dd1d151c0a"},"vehicle_type_id":"4","last_reported":1750752913,"current_range_meters":400,"station_id":"ce4bh492rcd13ifvqdug","pricing_plan_id":"cebpf4jnsgd1na2vs0mg"},{"bike_id":"fbfb6d81-a19b-4c39-b03c-6735d016a58f","system_id":"levelo_inurba_marseille","lat":43.29259,"lon":5.3844,"is_reserved":false,"is_disabled":true,"rental_uris":{"android":"levelo://app?vid=fbfb6d81-a19b-4c39-b03c-6735d016a58f","ios":"levelo://app?vid=fbfb6d81-a19b-4c39-b03c-6735d016a58f"},"vehicle_type_id":"4","last_reported":1750752913,"current_range_meters":400,"station_id":"ce4bh692rcd13ifvqea0","pricing_plan_id":"cebpf4jnsgd1na2vs0mg"},{"bike_id":"341b52d3-d636-4e81-8040-fa03c16cdde2","system_id":"levelo_inurba_marseille","lat":43.28975,"lon":5.37835,"is_reserved":false,"is_disabled":true,"rental_uris":{"android":"levelo://app?vid=341b52d3-d636-4e81-8040-fa03c16cdde2","ios":"levelo://app?vid=341b52d3-d636-4e81-8040-fa03c16cdde2"},"vehicle_type_id":"4","last_reported":1750752913,"current_range_meters":400,"station_id":"ce4bh9p2rcd13ifvqed0","pricing_plan_id":"cebpf4jnsgd1na2vs0mg"},{"bike_id":"8d1488ef-b02b-4ada-a780-924e578f36dc","system_id":"levelo_inurba_marseille","lat":43.31083,"lon":5.42431,"is_reserved":false,"is_disabled":true,"rental_uris":{"android":"levelo://app?vid=8d1488ef-b02b-4ada-a780-924e578f36dc","ios":"levelo://app?vid=8d1488ef-b02b-4ada-a780-924e578f36dc"},"vehicle_type_id":"4","last_reported":1750752913,"current_range_meters":400,"station_id":"ce4bhp92rcd13ifvqhag","pricing_plan_id":"cebpf4jnsgd1na2vs0mg"},{"bike_id":"b1d602c0-8e2c-4268-b2ee-5f9e237053f7","system_id":"levelo_inurba_marseille","lat":43.26955,"lon":5.40281,"is_reserved":false,"is_disabled":true,"rental_uris":{"android":"levelo://app?vid=b1d602c0-8e2c-4268-b2ee-5f9e237053f7","ios":"levelo://app?vid=b1d602c0-8e2c-4268-b2ee-5f9e237053f7"},"vehicle_type_id":"4","last_reported":1750752913,"current_range_meters":400,"station_id":"cjm6bp8fraef2m0cb0m0","pricing_plan_id":"cebpf4jnsgd1na2vs0mg"},{"bike_id":"3d07ef76-af52-42e0-81f1-5f4963c9ee29","system_id":"levelo_inurba_marseille","lat":43.294701,"lon":5.438349,"is_reserved":false,"is_disabled":true,"rental_uris":{"android":"levelo://app?vid=3d07ef76-af52-42e0-81f1-5f4963c9ee29","ios":"levelo://app?vid=3d07ef76-af52-42e0-81f1-5f4963c9ee29"},"vehicle_type_id":"4","last_reported":1750752913,"current_range_meters":800,"station_id":"","pricing_plan_id":"cebpf4jnsgd1na2vs0mg"},{"bike_id":"2f17ee34-76e9-4b04-981f-25e2e317411d","system_id":"levelo_inurba_marseille","lat":43.30777,"lon":5.37669,"is_reserved":false,"is_disabled":true,"rental_uris":{"android":"levelo://app?vid=2f17ee34-76e9-4b04-981f-25e2e317411d","ios":"levelo://app?vid=2f17ee34-76e9-4b04-981f-25e2e317411d"},"vehicle_type_id":"4","last_reported":1750752913,"current_range_meters":800,"station_id":"ce4bgv92rcd13ifvqcq0","pricing_plan_id":"cebpf4jnsgd1na2vs0mg"},{"bike_id":"fcfd3950-37ff-49f6-90df-91e04f8aea74","system_id":"levelo_inurba_marseille","lat":43.30411,"lon":5.39757,"is_reserved":false,"is_disabled":true,"rental_uris":{"android":"levelo://app?vid=fcfd3950-37ff-49f6-90df-91e04f8aea74","ios":"levelo://app?vid=fcfd3950-37ff-49f6-90df-91e04f8aea74"},"vehicle_type_id":"4","last_reported":1750752913,"current_range_meters":800,"station_id":"ce4bh092rcd13ifvqd20","pricing_plan_id":"cebpf4jnsgd1na2vs0mg"},{"bike_id":"55151e6a-fffd-492c-b570-d5e812b4fdba","system_id":"levelo_inurba_marseille","lat":43.29094,"lon":5.3812,"is_reserved":false,"is_disabled":true,"rental_uris":{"android":"levelo://app?vid=55151e6a-fffd-492c-b570-d5e812b4fdba","ios":"levelo://app?vid=55151e6a-fffd-492c-b570-d5e812b4fdba"},"vehicle_type_id":"4","last_reported":1750752913,"current_range_meters":800,"station_id":"ce4bh512rcd13ifvqe2g","pricing_plan_id":"cebpf4jnsgd1na2vs0mg"},{"bike_id":"8aa545cb-9b66-4c36-8eae-0522d5cc1905","system_id":"levelo_inurba_marseille","lat":43.28271,"lon":5.35062,"is_reserved":false,"is_disabled":true,"rental_uris":{"android":"levelo://app?vid=8aa545cb-9b66-4c36-8eae-0522d5cc1905","ios":"levelo://app?vid=8aa545cb-9b66-4c36-8eae-0522d5cc1905"},"vehicle_type_id":"4","last_reported":1750752913,"current_range_meters":800,"station_id":"ce4bhbp2rcd13ifvqerg","pricing_plan_id":"cebpf4jnsgd1na2vs0mg"},{"bike_id":"27e6f658-5309-45ce-bf82-0029f63ab7b4","system_id":"levelo_inurba_marseille","lat":43.25944,"lon":5.40908,"is_reserved":false,"is_disabled":true,"rental_uris":{"android":"levelo://app?vid=27e6f658-5309-45ce-bf82-0029f63ab7b4","ios":"levelo://app?vid=27e6f658-5309-45ce-bf82-0029f63ab7b4"},"vehicle_type_id":"4","last_reported":1750752913,"current_range_meters":800,"station_id":"ce4bhm92rcd13ifvqglg","pricing_plan_id":"cebpf4jnsgd1na2vs0mg"},{"bike_id":"8c6e24d1-bd63-4022-8358-393ba5ce7be0","system_id":"levelo_inurba_marseille","lat":43.2418,"lon":5.39719,"is_reserved":false,"is_disabled":true,"rental_uris":{"android":"levelo://app?vid=8c6e24d1-bd63-4022-8358-393ba5ce7be0","ios":"levelo://app?vid=8c6e24d1-bd63-4022-8358-393ba5ce7be0"},"vehicle_type_id":"4","last_reported":1750752913,"current_range_meters":800,"station_id":"ce4bhn12rcd13ifvqgpg","pricing_plan_id":"cebpf4jnsgd1na2vs0mg"},{"bike_id":"77b559e8-f59f-4a3e-8643-e6adb2d227b9","system_id":"levelo_inurba_marseille","lat":43.30373,"lon":5.42494,"is_reserved":false,"is_disabled":true,"rental_uris":{"android":"levelo://app?vid=77b559e8-f59f-4a3e-8643-e6adb2d227b9","ios":"levelo://app?vid=77b559e8-f59f-4a3e-8643-e6adb2d227b9"},"vehicle_type_id":"4","last_reported":1750752913,"current_range_meters":800,"station_id":"ce4bhoh2rcd13ifvqh6g","pricing_plan_id":"cebpf4jnsgd1na2vs0mg"},{"bike_id":"0032b41f-e702-48e0-a561-160b8fb6cb78","system_id":"levelo_inurba_marseille","lat":43.28945,"lon":5.39039,"is_reserved":false,"is_disabled":true,"rental_uris":{"android":"levelo://app?vid=0032b41f-e702-48e0-a561-160b8fb6cb78","ios":"levelo://app?vid=0032b41f-e702-48e0-a561-160b8fb6cb78"},"vehicle_type_id":"4","last_reported":1750752913,"current_range_meters":1200,"station_id":"","pricing_plan_id":"cebpf4jnsgd1na2vs0mg"},{"bike_id":"a81874ad-fc76-423f-9980-583e52efe161","system_id":"levelo_inurba_marseille","lat":43.29797,"lon":5.3812,"is_reserved":false,"is_disabled":true,"rental_uris":{"android":"levelo://app?vid=a81874ad-fc76-423f-9980-583e52efe161","ios":"levelo://app?vid=a81874ad-fc76-423f-9980-583e52efe161"},"vehicle_type_id":"4","last_reported":1750752913,"current_range_meters":1200,"station_id":"ce4bgip2rcd13ifvqbb0","pricing_plan_id":"cebpf4jnsgd1na2vs0mg"},{"bike_id":"dbcef6c9-1d9c-44be-8ccc-3621d2a826fa","system_id":"levelo_inurba_marseille","lat":43.28978,"lon":5.37833,"is_reserved":false,"is_disabled":true,"rental_uris":{"android":"levelo://app?vid=dbcef6c9-1d9c-44be-8ccc-3621d2a826fa","ios":"levelo://app?vid=dbcef6c9-1d9c-44be-8ccc-3621d2a826fa"},"vehicle_type_id":"4","last_reported":1750752913,"current_range_meters":1200,"station_id":"ce4bh9p2rcd13ifvqed0","pricing_plan_id":"cebpf4jnsgd1na2vs0mg"},{"bike_id":"ac49569c-40dc-447d-a62e-cc4ff9bf11e5","system_id":"levelo_inurba_marseille","lat":43.27919,"lon":5.39596,"is_reserved":false,"is_disabled":true,"rental_uris":{"android":"levelo://app?vid=ac49569c-40dc-447d-a62e-cc4ff9bf11e5","ios":"levelo://app?vid=ac49569c-40dc-447d-a62e-cc4ff9bf11e5"},"vehicle_type_id":"4","last_reported":1750752913,"current_range_meters":1200,"station_id":"ce4bhf92rcd13ifvqf40","pricing_plan_id":"cebpf4jnsgd1na2vs0mg"},{"bike_id":"8b98346d-d192-4788-805b-c1a205804161","system_id":"levelo_inurba_marseille","lat":43.26224,"lon":5.40448,"is_reserved":false,"is_disabled":true,"rental_uris":{"android":"levelo://app?vid=8b98346d-d192-4788-805b-c1a205804161","ios":"levelo://app?vid=8b98346d-d192-4788-805b-c1a205804161"},"vehicle_type_id":"4","last_reported":1750752913,"current_range_meters":1200,"station_id":"ce4bhmh2rcd13ifvqgmg","pricing_plan_id":"cebpf4jnsgd1na2vs0mg"},{"bike_id":"94f87fa7-8354-4ab6-be51-eb9e5b84356b","system_id":"levelo_inurba_marseille","lat":43.24174,"lon":5.39722,"is_reserved":false,"is_disabled":true,"rental_uris":{"android":"levelo://app?vid=94f87fa7-8354-4ab6-be51-eb9e5b84356b","ios":"levelo://app?vid=94f87fa7-8354-4ab6-be51-eb9e5b84356b"},"vehicle_type_id":"4","last_reported":1750752913,"current_range_meters":1200,"station_id":"ce4bhn12rcd13ifvqgpg","pricing_plan_id":"cebpf4jnsgd1na2vs0mg"},{"bike_id":"8f7e85ba-2c5e-4139-97ba-57e4d316f011","system_id":"levelo_inurba_marseille","lat":43.323593,"lon":5.367537,"is_reserved":false,"is_disabled":true,"rental_uris":{"android":"levelo://app?vid=8f7e85ba-2c5e-4139-97ba-57e4d316f011","ios":"levelo://app?vid=8f7e85ba-2c5e-4139-97ba-57e4d316f011"},"vehicle_type_id":"4","last_reported":1750752913,"current_range_meters":1200,"station_id":"ce4bhsh2rcd13ifvqi2g","pricing_plan_id":"cebpf4jnsgd1na2vs0mg"},{"bike_id":"f26adf9d-531e-4cb2-be46-e0c0329bac4d","system_id":"levelo_inurba_marseille","lat":43.2835,"lon":5.38106,"is_reserved":false,"is_disabled":true,"rental_uris":{"android":"levelo://app?vid=f26adf9d-531e-4cb2-be46-e0c0329bac4d","ios":"levelo://app?vid=f26adf9d-531e-4cb2-be46-e0c0329bac4d"},"vehicle_type_id":"4","last_reported":1750752913,"current_range_meters":1600,"station_id":"ce4bh412rcd13ifvqdr0","pricing_plan_id":"cebpf4jnsgd1na2vs0mg"},{"bike_id":"b7eb4ae0-d5cd-4dcd-bbf7-7dc251b3873c","system_id":"levelo_inurba_marseille","lat":43.27055,"lon":5.40256,"is_reserved":false,"is_disabled":true,"rental_uris":{"android":"levelo://app?vid=b7eb4ae0-d5cd-4dcd-bbf7-7dc251b3873c","ios":"levelo://app?vid=b7eb4ae0-d5cd-4dcd-bbf7-7dc251b3873c"},"vehicle_type_id":"4","last_reported":1750752913,"current_range_meters":1600,"station_id":"ce4bhk92rcd13ifvqgc0","pricing_plan_id":"cebpf4jnsgd1na2vs0mg"},{"bike_id":"7d0551dd-cdde-41ae-ab69-36f65b0ec27d","system_id":"levelo_inurba_marseille","lat":43.324781,"lon":5.365727,"is_reserved":false,"is_disabled":true,"rental_uris":{"android":"levelo://app?vid=7d0551dd-cdde-41ae-ab69-36f65b0ec27d","ios":"levelo://app?vid=7d0551dd-cdde-41ae-ab69-36f65b0ec27d"},"vehicle_type_id":"4","last_reported":1750752913,"current_range_meters":1600,"station_id":"ce4bhs12rcd13ifvqhvg","pricing_plan_id":"cebpf4jnsgd1na2vs0mg"},{"bike_id":"80033258-6fc8-4285-b052-8bc6ae615125","system_id":"levelo_inurba_marseille","lat":43.29575,"lon":5.37532,"is_reserved":false,"is_disabled":true,"rental_uris":{"android":"levelo://app?vid=80033258-6fc8-4285-b052-8bc6ae615125","ios":"levelo://app?vid=80033258-6fc8-4285-b052-8bc6ae615125"},"vehicle_type_id":"4","last_reported":1750752913,"current_range_meters":2000,"station_id":"ce4bgh92rcd13ifvqb50","pricing_plan_id":"cebpf4jnsgd1na2vs0mg"},{"bike_id":"2f7a5c29-b812-44a1-9ca2-ad18ebedbd66","system_id":"levelo_inurba_marseille","lat":43.30319,"lon":5.40442,"is_reserved":false,"is_disabled":false,"rental_uris":{"android":"levelo://app?vid=2f7a5c29-b812-44a1-9ca2-ad18ebedbd66","ios":"levelo://app?vid=2f7a5c29-b812-44a1-9ca2-ad18ebedbd66"},"vehicle_type_id":"4","last_reported":1750752913,"current_range_meters":2000,"station_id":"ce4bh012rcd13ifvqd10","pricing_plan_id":"cebpf4jnsgd1na2vs0mg"},{"bike_id":"e02e2df7-e370-413f-a98a-930e963bea18","system_id":"levelo_inurba_marseille","lat":43.304307,"lon":5.397431,"is_reserved":false,"is_disabled":true,"rental_uris":{"android":"levelo://app?vid=e02e2df7-e370-413f-a98a-930e963bea18","ios":"levelo://app?vid=e02e2df7-e370-413f-a98a-930e963bea18"},"vehicle_type_id":"4","last_reported":1750752913,"current_range_meters":2000,"station_id":"ce4bh092rcd13ifvqd20","pricing_plan_id":"cebpf4jnsgd1na2vs0mg"},{"bike_id":"0b0fbd26-db4e-477f-bd74-1d93712d1e94","system_id":"levelo_inurba_marseille","lat":43.3013,"lon":5.39869,"is_reserved":false,"is_disabled":true,"rental_uris":{"android":"levelo://app?vid=0b0fbd26-db4e-477f-bd74-1d93712d1e94","ios":"levelo://app?vid=0b0fbd26-db4e-477f-bd74-1d93712d1e94"},"vehicle_type_id":"4","last_reported":1750752913,"current_range_meters":2000,"station_id":"ce4bh0h2rcd13ifvqd40","pricing_plan_id":"cebpf4jnsgd1na2vs0mg"},{"bike_id":"b1da8c6a-259e-4c37-96a7-e605530c9cd7","system_id":"levelo_inurba_marseille","lat":43.30648,"lon":5.401,"is_reserved":false,"is_disabled":true,"rental_uris":{"android":"levelo://app?vid=b1da8c6a-259e-4c37-96a7-e605530c9cd7","ios":"levelo://app?vid=b1da8c6a-259e-4c37-96a7-e605530c9cd7"},"vehicle_type_id":"4","last_reported":1750752913,"current_range_meters":2000,"station_id":"ce4bh112rcd13ifvqda0","pricing_plan_id":"cebpf4jnsgd1na2vs0mg"},{"bike_id":"5da3a38a-c200-4aea-bf70-11f89f4fb439","system_id":"levelo_inurba_marseille","lat":43.28615,"lon":5.35103,"is_reserved":false,"is_disabled":true,"rental_uris":{"android":"levelo://app?vid=5da3a38a-c200-4aea-bf70-11f89f4fb439","ios":"levelo://app?vid=5da3a38a-c200-4aea-bf70-11f89f4fb439"},"vehicle_type_id":"4","last_reported":1750752913,"current_range_meters":2000,"station_id":"ce4bhch2rcd13ifvqeug","pricing_plan_id":"cebpf4jnsgd1na2vs0mg"},{"bike_id":"9e2660c2-e8e7-4ec5-a66e-e2145d95e096","system_id":"levelo_inurba_marseille","lat":43.26684,"lon":5.38275,"is_reserved":false,"is_disabled":true,"rental_uris":{"android":"levelo://app?vid=9e2660c2-e8e7-4ec5-a66e-e2145d95e096","ios":"levelo://app?vid=9e2660c2-e8e7-4ec5-a66e-e2145d95e096"},"vehicle_type_id":"4","last_reported":1750752913,"current_range_meters":2000,"station_id":"ce4bhg92rcd13ifvqf90","pricing_plan_id":"cebpf4jnsgd1na2vs0mg"},{"bike_id":"ccce5b2a-d1c8-4ec6-8753-4b70c0993133","system_id":"levelo_inurba_marseille","lat":43.25501,"lon":5.37655,"is_reserved":false,"is_disabled":false,"rental_uris":{"android":"levelo://app?vid=ccce5b2a-d1c8-4ec6-8753-4b70c0993133","ios":"levelo://app?vid=ccce5b2a-d1c8-4ec6-8753-4b70c0993133"},"vehicle_type_id":"4","last_reported":1750752913,"current_range_meters":2000,"station_id":"ce4bhh12rcd13ifvqff0","pricing_plan_id":"cebpf4jnsgd1na2vs0mg"},{"bike_id":"171d0483-e0ba-4032-a751-6bee0021c1d8","system_id":"levelo_inurba_marseille","lat":43.25868,"lon":5.39899,"is_reserved":false,"is_disabled":true,"rental_uris":{"android":"levelo://app?vid=171d0483-e0ba-4032-a751-6bee0021c1d8","ios":"levelo://app?vid=171d0483-e0ba-4032-a751-6bee0021c1d8"},"vehicle_type_id":"4","last_reported":1750752913,"current_range_meters":2000,"station_id":"ce4bhl92rcd13ifvqghg","pricing_plan_id":"cebpf4jnsgd1na2vs0mg"},{"bike_id":"a47de035-4052-42ff-b95c-57b0edffab68","system_id":"levelo_inurba_marseille","lat":43.26494,"lon":5.39543,"is_reserved":false,"is_disabled":false,"rental_uris":{"android":"levelo://app?vid=a47de035-4052-42ff-b95c-57b0edffab68","ios":"levelo://app?vid=a47de035-4052-42ff-b95c-57b0edffab68"},"vehicle_type_id":"4","last_reported":1750752913,"current_range_meters":2800,"station_id":"ce4bhi12rcd13ifvqfq0","pricing_plan_id":"cebpf4jnsgd1na2vs0mg"},{"bike_id":"3b412db3-7b28-4b20-9fbd-864878f86385","system_id":"levelo_inurba_marseille","lat":43.24181,"lon":5.39723,"is_reserved":false,"is_disabled":false,"rental_uris":{"android":"levelo://app?vid=3b412db3-7b28-4b20-9fbd-864878f86385","ios":"levelo://app?vid=3b412db3-7b28-4b20-9fbd-864878f86385"},"vehicle_type_id":"4","last_reported":1750752913,"current_range_meters":2800,"station_id":"ce4bhn12rcd13ifvqgpg","pricing_plan_id":"cebpf4jnsgd1na2vs0mg"},{"bike_id":"31f44d96-88b9-4a96-be36-c907af9d36e1","system_id":"levelo_inurba_marseille","lat":43.31344,"lon":5.36778,"is_reserved":false,"is_disabled":false,"rental_uris":{"android":"levelo://app?vid=31f44d96-88b9-4a96-be36-c907af9d36e1","ios":"levelo://app?vid=31f44d96-88b9-4a96-be36-c907af9d36e1"},"vehicle_type_id":"4","last_reported":1750752913,"current_range_meters":3200,"station_id":"","pricing_plan_id":"cebpf4jnsgd1na2vs0mg"},{"bike_id":"a66e40d1-a633-4688-a1ba-b3644c656c7f","system_id":"levelo_inurba_marseille","lat":43.33032,"lon":5.37157,"is_reserved":false,"is_disabled":false,"rental_uris":{"android":"levelo://app?vid=a66e40d1-a633-4688-a1ba-b3644c656c7f","ios":"levelo://app?vid=a66e40d1-a633-4688-a1ba-b3644c656c7f"},"vehicle_type_id":"4","last_reported":1750752913,"current_range_meters":3200,"station_id":"","pricing_plan_id":"cebpf4jnsgd1na2vs0mg"},{"bike_id":"85c58f10-925d-4344-b389-09267487a6fc","system_id":"levelo_inurba_marseille","lat":43.2109,"lon":5.41954,"is_reserved":false,"is_disabled":false,"rental_uris":{"android":"levelo://app?vid=85c58f10-925d-4344-b389-09267487a6fc","ios":"levelo://app?vid=85c58f10-925d-4344-b389-09267487a6fc"},"vehicle_type_id":"4","last_reported":1750752913,"current_range_meters":3200,"station_id":"","pricing_plan_id":"cebpf4jnsgd1na2vs0mg"},{"bike_id":"b192c26c-f26b-4fca-9235-10338b8b427a","system_id":"levelo_inurba_marseille","lat":43.303,"lon":5.39228,"is_reserved":false,"is_disabled":false,"rental_uris":{"android":"levelo://app?vid=b192c26c-f26b-4fca-9235-10338b8b427a","ios":"levelo://app?vid=b192c26c-f26b-4fca-9235-10338b8b427a"},"vehicle_type_id":"4","last_reported":1750752913,"current_range_meters":3200,"station_id":"ce4bgkh2rcd13ifvqbk0","pricing_plan_id":"cebpf4jnsgd1na2vs0mg"},{"bike_id":"3457d662-44e8-45a5-9ad4-0c705caa051e","system_id":"levelo_inurba_marseille","lat":43.25711,"lon":5.41111,"is_reserved":false,"is_disabled":false,"rental_uris":{"android":"levelo://app?vid=3457d662-44e8-45a5-9ad4-0c705caa051e","ios":"levelo://app?vid=3457d662-44e8-45a5-9ad4-0c705caa051e"},"vehicle_type_id":"4","last_reported":1750752913,"current_range_meters":3200,"station_id":"ce4bhkp2rcd13ifvqgd0","pricing_plan_id":"cebpf4jnsgd1na2vs0mg"},{"bike_id":"4d81f0da-db3f-48c6-976e-b6191f230ad8","system_id":"levelo_inurba_marseille","lat":43.314898,"lon":5.37311,"is_reserved":false,"is_disabled":false,"rental_uris":{"android":"levelo://app?vid=4d81f0da-db3f-48c6-976e-b6191f230ad8","ios":"levelo://app?vid=4d81f0da-db3f-48c6-976e-b6191f230ad8"},"vehicle_type_id":"4","last_reported":1750752913,"current_range_meters":3600,"station_id":"ce4bgt12rcd13ifvqcd0","pricing_plan_id":"cebpf4jnsgd1na2vs0mg"},{"bike_id":"edbe87f6-def4-4745-93b7-3abf1db71992","system_id":"levelo_inurba_marseille","lat":43.286682,"lon":5.351697,"is_reserved":false,"is_disabled":false,"rental_uris":{"android":"levelo://app?vid=edbe87f6-def4-4745-93b7-3abf1db71992","ios":"levelo://app?vid=edbe87f6-def4-4745-93b7-3abf1db71992"},"vehicle_type_id":"4","last_reported":1750752913,"current_range_meters":3600,"station_id":"ce4bhbp2rcd13ifvqerg","pricing_plan_id":"cebpf4jnsgd1na2vs0mg"},{"bike_id":"d8ebbab0-82fc-40f4-8898-ced54acf3e92","system_id":"levelo_inurba_marseille","lat":43.27937,"lon":5.38693,"is_reserved":false,"is_disabled":false,"rental_uris":{"android":"levelo://app?vid=d8ebbab0-82fc-40f4-8898-ced54acf3e92","ios":"levelo://app?vid=d8ebbab0-82fc-40f4-8898-ced54acf3e92"},"vehicle_type_id":"4","last_reported":1750752913,"current_range_meters":3600,"station_id":"ce4bhg12rcd13ifvqf80","pricing_plan_id":"cebpf4jnsgd1na2vs0mg"},{"bike_id":"01f2a692-824c-49db-b272-bcf28e20e086","system_id":"levelo_inurba_marseille","lat":43.28129,"lon":5.44194,"is_reserved":false,"is_disabled":false,"rental_uris":{"android":"levelo://app?vid=01f2a692-824c-49db-b272-bcf28e20e086","ios":"levelo://app?vid=01f2a692-824c-49db-b272-bcf28e20e086"},"vehicle_type_id":"4","last_reported":1750752913,"current_range_meters":4000,"station_id":"","pricing_plan_id":"cebpf4jnsgd1na2vs0mg"},{"bike_id":"658db781-d5e0-4bf3-aa19-4ddcd56d1eed","system_id":"levelo_inurba_marseille","lat":43.31317,"lon":5.3674,"is_reserved":false,"is_disabled":false,"rental_uris":{"android":"levelo://app?vid=658db781-d5e0-4bf3-aa19-4ddcd56d1eed","ios":"levelo://app?vid=658db781-d5e0-4bf3-aa19-4ddcd56d1eed"},"vehicle_type_id":"4","last_reported":1750752913,"current_range_meters":4000,"station_id":"ce4bgr92rcd13ifvqc6g","pricing_plan_id":"cebpf4jnsgd1na2vs0mg"},{"bike_id":"f7ffa5c7-9ede-4738-b463-b3dcaec4b9fd","system_id":"levelo_inurba_marseille","lat":43.30146,"lon":5.38085,"is_reserved":false,"is_disabled":false,"rental_uris":{"android":"levelo://app?vid=f7ffa5c7-9ede-4738-b463-b3dcaec4b9fd","ios":"levelo://app?vid=f7ffa5c7-9ede-4738-b463-b3dcaec4b9fd"},"vehicle_type_id":"4","last_reported":1750752913,"current_range_meters":4400,"station_id":"ce4bgjp2rcd13ifvqbh0","pricing_plan_id":"cebpf4jnsgd1na2vs0mg"},{"bike_id":"88eb00cc-141e-48ec-b6e0-db45ab8c5b4e","system_id":"levelo_inurba_marseille","lat":43.3095,"lon":5.39034,"is_reserved":false,"is_disabled":false,"rental_uris":{"android":"levelo://app?vid=88eb00cc-141e-48ec-b6e0-db45ab8c5b4e","ios":"levelo://app?vid=88eb00cc-141e-48ec-b6e0-db45ab8c5b4e"},"vehicle_type_id":"4","last_reported":1750752913,"current_range_meters":4400,"station_id":"ce4bgup2rcd13ifvqco0","pricing_plan_id":"cebpf4jnsgd1na2vs0mg"},{"bike_id":"51bb4466-8471-448f-af7c-04f3988778d9","system_id":"levelo_inurba_marseille","lat":43.3127,"lon":5.40179,"is_reserved":false,"is_disabled":false,"rental_uris":{"android":"levelo://app?vid=51bb4466-8471-448f-af7c-04f3988778d9","ios":"levelo://app?vid=51bb4466-8471-448f-af7c-04f3988778d9"},"vehicle_type_id":"4","last_reported":1750752913,"current_range_meters":4400,"station_id":"ce4bh092rcd13ifvqd30","pricing_plan_id":"cebpf4jnsgd1na2vs0mg"},{"bike_id":"a4ccc670-d896-4d24-bc0d-1e5f23b4f656","system_id":"levelo_inurba_marseille","lat":43.2792,"lon":5.39579,"is_reserved":false,"is_disabled":false,"rental_uris":{"android":"levelo://app?vid=a4ccc670-d896-4d24-bc0d-1e5f23b4f656","ios":"levelo://app?vid=a4ccc670-d896-4d24-bc0d-1e5f23b4f656"},"vehicle_type_id":"4","last_reported":1750752913,"current_range_meters":4400,"station_id":"ce4bhf92rcd13ifvqf40","pricing_plan_id":"cebpf4jnsgd1na2vs0mg"},{"bike_id":"d1a32e84-ee91-4887-a80e-acc8807888fe","system_id":"levelo_inurba_marseille","lat":43.2668,"lon":5.38274,"is_reserved":false,"is_disabled":false,"rental_uris":{"android":"levelo://app?vid=d1a32e84-ee91-4887-a80e-acc8807888fe","ios":"levelo://app?vid=d1a32e84-ee91-4887-a80e-acc8807888fe"},"vehicle_type_id":"4","last_reported":1750752913,"current_range_meters":4400,"station_id":"ce4bhg92rcd13ifvqf90","pricing_plan_id":"cebpf4jnsgd1na2vs0mg"},{"bike_id":"23fc56ad-3b47-4a93-99ba-20cec3f37029","system_id":"levelo_inurba_marseille","lat":43.27574,"lon":5.38418,"is_reserved":false,"is_disabled":false,"rental_uris":{"android":"levelo://app?vid=23fc56ad-3b47-4a93-99ba-20cec3f37029","ios":"levelo://app?vid=23fc56ad-3b47-4a93-99ba-20cec3f37029"},"vehicle_type_id":"4","last_reported":1750752913,"current_range_meters":4400,"station_id":"ce4bhh92rcd13ifvqfi0","pricing_plan_id":"cebpf4jnsgd1na2vs0mg"},{"bike_id":"97be1abb-9b31-4e97-ab51-4566a81c9c1e","system_id":"levelo_inurba_marseille","lat":43.32359,"lon":5.36759,"is_reserved":false,"is_disabled":false,"rental_uris":{"android":"levelo://app?vid=97be1abb-9b31-4e97-ab51-4566a81c9c1e","ios":"levelo://app?vid=97be1abb-9b31-4e97-ab51-4566a81c9c1e"},"vehicle_type_id":"4","last_reported":1750752913,"current_range_meters":4400,"station_id":"ce4bhsh2rcd13ifvqi2g","pricing_plan_id":"cebpf4jnsgd1na2vs0mg"},{"bike_id":"8c6de0c1-9eaf-4c18-8155-d956789067ae","system_id":"levelo_inurba_marseille","lat":43.27971,"lon":5.44252,"is_reserved":false,"is_disabled":false,"rental_uris":{"android":"levelo://app?vid=8c6de0c1-9eaf-4c18-8155-d956789067ae","ios":"levelo://app?vid=8c6de0c1-9eaf-4c18-8155-d956789067ae"},"vehicle_type_id":"4","last_reported":1750752913,"current_range_meters":4800,"station_id":"","pricing_plan_id":"cebpf4jnsgd1na2vs0mg"},{"bike_id":"a9e5e555-fdaf-49c0-b286-f0f2659b17d0","system_id":"levelo_inurba_marseille","lat":43.283058,"lon":5.432401,"is_reserved":false,"is_disabled":false,"rental_uris":{"android":"levelo://app?vid=a9e5e555-fdaf-49c0-b286-f0f2659b17d0","ios":"levelo://app?vid=a9e5e555-fdaf-49c0-b286-f0f2659b17d0"},"vehicle_type_id":"4","last_reported":1750752913,"current_range_meters":4800,"station_id":"","pricing_plan_id":"cebpf4jnsgd1na2vs0mg"},{"bike_id":"335fe09e-8a7d-4eac-87b4-9f864b8c8756","system_id":"levelo_inurba_marseille","lat":43.30588,"lon":5.39353,"is_reserved":false,"is_disabled":false,"rental_uris":{"android":"levelo://app?vid=335fe09e-8a7d-4eac-87b4-9f864b8c8756","ios":"levelo://app?vid=335fe09e-8a7d-4eac-87b4-9f864b8c8756"},"vehicle_type_id":"4","last_reported":1750752913,"current_range_meters":4800,"station_id":"ce4bh0p2rcd13ifvqd80","pricing_plan_id":"cebpf4jnsgd1na2vs0mg"},{"bike_id":"903e5fff-e121-4261-a7a9-e4e6a9a358ec","system_id":"levelo_inurba_marseille","lat":43.25508,"lon":5.37663,"is_reserved":false,"is_disabled":false,"rental_uris":{"android":"levelo://app?vid=903e5fff-e121-4261-a7a9-e4e6a9a358ec","ios":"levelo://app?vid=903e5fff-e121-4261-a7a9-e4e6a9a358ec"},"vehicle_type_id":"4","last_reported":1750752913,"current_range_meters":4800,"station_id":"ce4bhh12rcd13ifvqff0","pricing_plan_id":"cebpf4jnsgd1na2vs0mg"},{"bike_id":"2eb78acd-d44a-4d23-8924-1970d196397a","system_id":"levelo_inurba_marseille","lat":43.266782,"lon":5.382741,"is_reserved":false,"is_disabled":false,"rental_uris":{"android":"levelo://app?vid=2eb78acd-d44a-4d23-8924-1970d196397a","ios":"levelo://app?vid=2eb78acd-d44a-4d23-8924-1970d196397a"},"vehicle_type_id":"4","last_reported":1750752913,"current_range_meters":4800,"station_id":"ce4bhi12rcd13ifvqfp0","pricing_plan_id":"cebpf4jnsgd1na2vs0mg"},{"bike_id":"9eceafb3-edc3-445a-8120-aaae8887c94f","system_id":"levelo_inurba_marseille","lat":43.32543,"lon":5.41462,"is_reserved":false,"is_disabled":false,"rental_uris":{"android":"levelo://app?vid=9eceafb3-edc3-445a-8120-aaae8887c94f","ios":"levelo://app?vid=9eceafb3-edc3-445a-8120-aaae8887c94f"},"vehicle_type_id":"4","last_reported":1750752913,"current_range_meters":4800,"station_id":"ce4bhq12rcd13ifvqhhg","pricing_plan_id":"cebpf4jnsgd1na2vs0mg"},{"bike_id":"5db18a16-177a-49e6-850a-05463ff04e1b","system_id":"levelo_inurba_marseille","lat":43.32492,"lon":5.41458,"is_reserved":false,"is_disabled":false,"rental_uris":{"android":"levelo://app?vid=5db18a16-177a-49e6-850a-05463ff04e1b","ios":"levelo://app?vid=5db18a16-177a-49e6-850a-05463ff04e1b"},"vehicle_type_id":"4","last_reported":1750752913,"current_range_meters":4800,"station_id":"ce4bhq12rcd13ifvqhhg","pricing_plan_id":"cebpf4jnsgd1na2vs0mg"},{"bike_id":"7c078f3c-ded9-4245-8c56-f45050bc8cdd","system_id":"levelo_inurba_marseille","lat":43.32545,"lon":5.41427,"is_reserved":false,"is_disabled":false,"rental_uris":{"android":"levelo://app?vid=7c078f3c-ded9-4245-8c56-f45050bc8cdd","ios":"levelo://app?vid=7c078f3c-ded9-4245-8c56-f45050bc8cdd"},"vehicle_type_id":"4","last_reported":1750752913,"current_range_meters":4800,"station_id":"ce4bhq12rcd13ifvqhhg","pricing_plan_id":"cebpf4jnsgd1na2vs0mg"},{"bike_id":"da56bc2a-74b3-4663-a098-0e2f8ed1c5d5","system_id":"levelo_inurba_marseille","lat":43.32359,"lon":5.36757,"is_reserved":false,"is_disabled":false,"rental_uris":{"android":"levelo://app?vid=da56bc2a-74b3-4663-a098-0e2f8ed1c5d5","ios":"levelo://app?vid=da56bc2a-74b3-4663-a098-0e2f8ed1c5d5"},"vehicle_type_id":"4","last_reported":1750752913,"current_range_meters":4800,"station_id":"ce4bhsh2rcd13ifvqi2g","pricing_plan_id":"cebpf4jnsgd1na2vs0mg"},{"bike_id":"66a61950-5fe0-430d-aab1-9fd03f291255","system_id":"levelo_inurba_marseille","lat":43.241669,"lon":5.363916,"is_reserved":false,"is_disabled":false,"rental_uris":{"android":"levelo://app?vid=66a61950-5fe0-430d-aab1-9fd03f291255","ios":"levelo://app?vid=66a61950-5fe0-430d-aab1-9fd03f291255"},"vehicle_type_id":"4","last_reported":1750752913,"current_range_meters":4800,"station_id":"cpo36qri1sfpv3e86is0","pricing_plan_id":"cebpf4jnsgd1na2vs0mg"},{"bike_id":"d7c56714-1585-4954-976a-05b319c2a630","system_id":"levelo_inurba_marseille","lat":43.3077,"lon":5.37439,"is_reserved":false,"is_disabled":false,"rental_uris":{"android":"levelo://app?vid=d7c56714-1585-4954-976a-05b319c2a630","ios":"levelo://app?vid=d7c56714-1585-4954-976a-05b319c2a630"},"vehicle_type_id":"4","last_reported":1750752913,"current_range_meters":5600,"station_id":"","pricing_plan_id":"cebpf4jnsgd1na2vs0mg"},{"bike_id":"4cccec2d-899f-42a9-9662-c7d42793342e","system_id":"levelo_inurba_marseille","lat":43.29296,"lon":5.37465,"is_reserved":false,"is_disabled":false,"rental_uris":{"android":"levelo://app?vid=4cccec2d-899f-42a9-9662-c7d42793342e","ios":"levelo://app?vid=4cccec2d-899f-42a9-9662-c7d42793342e"},"vehicle_type_id":"4","last_reported":1750752913,"current_range_meters":5600,"station_id":"ce4bgi12rcd13ifvqb70","pricing_plan_id":"cebpf4jnsgd1na2vs0mg"},{"bike_id":"5f8e401d-f5e9-467e-8253-eda24ef0c519","system_id":"levelo_inurba_marseille","lat":43.30968,"lon":5.3903,"is_reserved":false,"is_disabled":false,"rental_uris":{"android":"levelo://app?vid=5f8e401d-f5e9-467e-8253-eda24ef0c519","ios":"levelo://app?vid=5f8e401d-f5e9-467e-8253-eda24ef0c519"},"vehicle_type_id":"4","last_reported":1750752913,"current_range_meters":5600,"station_id":"ce4bgup2rcd13ifvqco0","pricing_plan_id":"cebpf4jnsgd1na2vs0mg"},{"bike_id":"c8d80e08-6ebd-4eea-bbf0-c9b72a06a61a","system_id":"levelo_inurba_marseille","lat":43.2315,"lon":5.43716,"is_reserved":false,"is_disabled":false,"rental_uris":{"android":"levelo://app?vid=c8d80e08-6ebd-4eea-bbf0-c9b72a06a61a","ios":"levelo://app?vid=c8d80e08-6ebd-4eea-bbf0-c9b72a06a61a"},"vehicle_type_id":"4","last_reported":1750752913,"current_range_meters":5600,"station_id":"ce4bhmp2rcd13ifvqgog","pricing_plan_id":"cebpf4jnsgd1na2vs0mg"},{"bike_id":"c8a888f0-a5ad-413f-b002-e2eb93c57fae","system_id":"levelo_inurba_marseille","lat":43.27503,"lon":5.42442,"is_reserved":false,"is_disabled":false,"rental_uris":{"android":"levelo://app?vid=c8a888f0-a5ad-413f-b002-e2eb93c57fae","ios":"levelo://app?vid=c8a888f0-a5ad-413f-b002-e2eb93c57fae"},"vehicle_type_id":"4","last_reported":1750752913,"current_range_meters":5600,"station_id":"ce4bhn92rcd13ifvqgrg","pricing_plan_id":"cebpf4jnsgd1na2vs0mg"},{"bike_id":"f8ec349e-9813-4b53-8a75-d2ce2a0c1838","system_id":"levelo_inurba_marseille","lat":43.30953,"lon":5.3903,"is_reserved":false,"is_disabled":false,"rental_uris":{"android":"levelo://app?vid=f8ec349e-9813-4b53-8a75-d2ce2a0c1838","ios":"levelo://app?vid=f8ec349e-9813-4b53-8a75-d2ce2a0c1838"},"vehicle_type_id":"4","last_reported":1750752913,"current_range_meters":6000,"station_id":"ce4bgup2rcd13ifvqco0","pricing_plan_id":"cebpf4jnsgd1na2vs0mg"},{"bike_id":"98e8ebb5-e759-4b2a-98b2-a6d517058646","system_id":"levelo_inurba_marseille","lat":43.2872,"lon":5.37946,"is_reserved":false,"is_disabled":false,"rental_uris":{"android":"levelo://app?vid=98e8ebb5-e759-4b2a-98b2-a6d517058646","ios":"levelo://app?vid=98e8ebb5-e759-4b2a-98b2-a6d517058646"},"vehicle_type_id":"4","last_reported":1750752913,"current_range_meters":6000,"station_id":"ce4bh9p2rcd13ifvqec0","pricing_plan_id":"cebpf4jnsgd1na2vs0mg"},{"bike_id":"f5c51af8-7241-41d9-981e-c04e5c230aee","system_id":"levelo_inurba_marseille","lat":43.25721,"lon":5.41113,"is_reserved":false,"is_disabled":false,"rental_uris":{"android":"levelo://app?vid=f5c51af8-7241-41d9-981e-c04e5c230aee","ios":"levelo://app?vid=f5c51af8-7241-41d9-981e-c04e5c230aee"},"vehicle_type_id":"4","last_reported":1750752913,"current_range_meters":6000,"station_id":"ce4bhkp2rcd13ifvqgd0","pricing_plan_id":"cebpf4jnsgd1na2vs0mg"},{"bike_id":"8ae60179-0ea5-4862-9a4b-79211458231c","system_id":"levelo_inurba_marseille","lat":43.24181,"lon":5.397249,"is_reserved":false,"is_disabled":false,"rental_uris":{"android":"levelo://app?vid=8ae60179-0ea5-4862-9a4b-79211458231c","ios":"levelo://app?vid=8ae60179-0ea5-4862-9a4b-79211458231c"},"vehicle_type_id":"4","last_reported":1750752913,"current_range_meters":6400,"station_id":"","pricing_plan_id":"cebpf4jnsgd1na2vs0mg"},{"bike_id":"db2bf933-d1a9-4921-b56a-0081ed423fc2","system_id":"levelo_inurba_marseille","lat":43.291681,"lon":5.421175,"is_reserved":false,"is_disabled":false,"rental_uris":{"android":"levelo://app?vid=db2bf933-d1a9-4921-b56a-0081ed423fc2","ios":"levelo://app?vid=db2bf933-d1a9-4921-b56a-0081ed423fc2"},"vehicle_type_id":"4","last_reported":1750752913,"current_range_meters":6400,"station_id":"","pricing_plan_id":"cebpf4jnsgd1na2vs0mg"},{"bike_id":"3d641927-975d-4e46-ae74-f7666cd21c20","system_id":"levelo_inurba_marseille","lat":43.317,"lon":5.37746,"is_reserved":false,"is_disabled":false,"rental_uris":{"android":"levelo://app?vid=3d641927-975d-4e46-ae74-f7666cd21c20","ios":"levelo://app?vid=3d641927-975d-4e46-ae74-f7666cd21c20"},"vehicle_type_id":"4","last_reported":1750752913,"current_range_meters":6400,"station_id":"ce4bgth2rcd13ifvqch0","pricing_plan_id":"cebpf4jnsgd1na2vs0mg"},{"bike_id":"dbc1935a-37f1-405a-b29a-0c866729c89c","system_id":"levelo_inurba_marseille","lat":43.29626,"lon":5.40595,"is_reserved":false,"is_disabled":false,"rental_uris":{"android":"levelo://app?vid=dbc1935a-37f1-405a-b29a-0c866729c89c","ios":"levelo://app?vid=dbc1935a-37f1-405a-b29a-0c866729c89c"},"vehicle_type_id":"4","last_reported":1750752913,"current_range_meters":6400,"station_id":"ce4bh0h2rcd13ifvqd60","pricing_plan_id":"cebpf4jnsgd1na2vs0mg"},{"bike_id":"6400ecc8-68d5-4c1b-8cdc-e10914052b61","system_id":"levelo_inurba_marseille","lat":43.24171,"lon":5.39706,"is_reserved":false,"is_disabled":false,"rental_uris":{"android":"levelo://app?vid=6400ecc8-68d5-4c1b-8cdc-e10914052b61","ios":"levelo://app?vid=6400ecc8-68d5-4c1b-8cdc-e10914052b61"},"vehicle_type_id":"4","last_reported":1750752913,"current_range_meters":6400,"station_id":"ce4bhn12rcd13ifvqgpg","pricing_plan_id":"cebpf4jnsgd1na2vs0mg"},{"bike_id":"d8e5a371-0f06-435a-a949-73649003e62f","system_id":"levelo_inurba_marseille","lat":43.32476,"lon":5.365724,"is_reserved":false,"is_disabled":false,"rental_uris":{"android":"levelo://app?vid=d8e5a371-0f06-435a-a949-73649003e62f","ios":"levelo://app?vid=d8e5a371-0f06-435a-a949-73649003e62f"},"vehicle_type_id":"4","last_reported":1750752913,"current_range_meters":6400,"station_id":"ce4bhs12rcd13ifvqhvg","pricing_plan_id":"cebpf4jnsgd1na2vs0mg"},{"bike_id":"f10e38ce-c08a-4001-873a-ec3e8846285a","system_id":"levelo_inurba_marseille","lat":43.32969,"lon":5.38042,"is_reserved":false,"is_disabled":false,"rental_uris":{"android":"levelo://app?vid=f10e38ce-c08a-4001-873a-ec3e8846285a","ios":"levelo://app?vid=f10e38ce-c08a-4001-873a-ec3e8846285a"},"vehicle_type_id":"4","last_reported":1750752913,"current_range_meters":6800,"station_id":"","pricing_plan_id":"cebpf4jnsgd1na2vs0mg"},{"bike_id":"2afb10a5-568e-48ae-9131-6596849224ab","system_id":"levelo_inurba_marseille","lat":43.30138,"lon":5.38069,"is_reserved":false,"is_disabled":false,"rental_uris":{"android":"levelo://app?vid=2afb10a5-568e-48ae-9131-6596849224ab","ios":"levelo://app?vid=2afb10a5-568e-48ae-9131-6596849224ab"},"vehicle_type_id":"4","last_reported":1750752913,"current_range_meters":6800,"station_id":"ce4bgjp2rcd13ifvqbh0","pricing_plan_id":"cebpf4jnsgd1na2vs0mg"},{"bike_id":"1cf64885-4bef-4d74-b82e-592d13031009","system_id":"levelo_inurba_marseille","lat":43.29258,"lon":5.40902,"is_reserved":false,"is_disabled":false,"rental_uris":{"android":"levelo://app?vid=1cf64885-4bef-4d74-b82e-592d13031009","ios":"levelo://app?vid=1cf64885-4bef-4d74-b82e-592d13031009"},"vehicle_type_id":"4","last_reported":1750752913,"current_range_meters":6800,"station_id":"ce4bh192rcd13ifvqdc0","pricing_plan_id":"cebpf4jnsgd1na2vs0mg"},{"bike_id":"003c0064-cb6d-4f66-b6ce-b1e87e37a33d","system_id":"levelo_inurba_marseille","lat":43.28613,"lon":5.35106,"is_reserved":false,"is_disabled":false,"rental_uris":{"android":"levelo://app?vid=003c0064-cb6d-4f66-b6ce-b1e87e37a33d","ios":"levelo://app?vid=003c0064-cb6d-4f66-b6ce-b1e87e37a33d"},"vehicle_type_id":"4","last_reported":1750752913,"current_range_meters":6800,"station_id":"ce4bhch2rcd13ifvqeug","pricing_plan_id":"cebpf4jnsgd1na2vs0mg"},{"bike_id":"575c3ba3-89a4-44ac-9206-0407a92f442c","system_id":"levelo_inurba_marseille","lat":43.270749,"lon":5.422839,"is_reserved":false,"is_disabled":false,"rental_uris":{"android":"levelo://app?vid=575c3ba3-89a4-44ac-9206-0407a92f442c","ios":"levelo://app?vid=575c3ba3-89a4-44ac-9206-0407a92f442c"},"vehicle_type_id":"4","last_reported":1750752913,"current_range_meters":6800,"station_id":"ce4bhk92rcd13ifvqgb0","pricing_plan_id":"cebpf4jnsgd1na2vs0mg"},{"bike_id":"36a6f5ba-696d-469f-9dfb-8c2b9ce389c7","system_id":"levelo_inurba_marseille","lat":43.25917,"lon":5.40907,"is_reserved":false,"is_disabled":false,"rental_uris":{"android":"levelo://app?vid=36a6f5ba-696d-469f-9dfb-8c2b9ce389c7","ios":"levelo://app?vid=36a6f5ba-696d-469f-9dfb-8c2b9ce389c7"},"vehicle_type_id":"4","last_reported":1750752913,"current_range_meters":6800,"station_id":"ce4bhm92rcd13ifvqglg","pricing_plan_id":"cebpf4jnsgd1na2vs0mg"},{"bike_id":"41f079ba-12c9-4654-af9f-1c035bcd275a","system_id":"levelo_inurba_marseille","lat":43.25931,"lon":5.409,"is_reserved":false,"is_disabled":false,"rental_uris":{"android":"levelo://app?vid=41f079ba-12c9-4654-af9f-1c035bcd275a","ios":"levelo://app?vid=41f079ba-12c9-4654-af9f-1c035bcd275a"},"vehicle_type_id":"4","last_reported":1750752913,"current_range_meters":6800,"station_id":"ce4bhm92rcd13ifvqglg","pricing_plan_id":"cebpf4jnsgd1na2vs0mg"},{"bike_id":"eab8035e-591b-4718-a25c-0bebb462e41f","system_id":"levelo_inurba_marseille","lat":43.32483,"lon":5.36572,"is_reserved":false,"is_disabled":false,"rental_uris":{"android":"levelo://app?vid=eab8035e-591b-4718-a25c-0bebb462e41f","ios":"levelo://app?vid=eab8035e-591b-4718-a25c-0bebb462e41f"},"vehicle_type_id":"4","last_reported":1750752913,"current_range_meters":6800,"station_id":"ce4bhs12rcd13ifvqhvg","pricing_plan_id":"cebpf4jnsgd1na2vs0mg"},{"bike_id":"6ed60de0-d4d8-4bcf-87eb-77bc6bd99ae7","system_id":"levelo_inurba_marseille","lat":43.30859,"lon":5.38184,"is_reserved":false,"is_disabled":false,"rental_uris":{"android":"levelo://app?vid=6ed60de0-d4d8-4bcf-87eb-77bc6bd99ae7","ios":"levelo://app?vid=6ed60de0-d4d8-4bcf-87eb-77bc6bd99ae7"},"vehicle_type_id":"4","last_reported":1750752913,"current_range_meters":7200,"station_id":"","pricing_plan_id":"cebpf4jnsgd1na2vs0mg"},{"bike_id":"ca2ee7a1-1dea-41f8-918b-75676a2c5103","system_id":"levelo_inurba_marseille","lat":43.29582,"lon":5.3752,"is_reserved":false,"is_disabled":false,"rental_uris":{"android":"levelo://app?vid=ca2ee7a1-1dea-41f8-918b-75676a2c5103","ios":"levelo://app?vid=ca2ee7a1-1dea-41f8-918b-75676a2c5103"},"vehicle_type_id":"4","last_reported":1750752913,"current_range_meters":7200,"station_id":"ce4bgh92rcd13ifvqb50","pricing_plan_id":"cebpf4jnsgd1na2vs0mg"},{"bike_id":"80afd81b-1a97-4444-b0c7-b2a2a82a3d42","system_id":"levelo_inurba_marseille","lat":43.29714,"lon":5.37699,"is_reserved":false,"is_disabled":false,"rental_uris":{"android":"levelo://app?vid=80afd81b-1a97-4444-b0c7-b2a2a82a3d42","ios":"levelo://app?vid=80afd81b-1a97-4444-b0c7-b2a2a82a3d42"},"vehicle_type_id":"4","last_reported":1750752913,"current_range_meters":7200,"station_id":"ce4bgkh2rcd13ifvqbl0","pricing_plan_id":"cebpf4jnsgd1na2vs0mg"},{"bike_id":"4acc9837-351f-4119-83d3-897383da79ed","system_id":"levelo_inurba_marseille","lat":43.3091,"lon":5.36851,"is_reserved":false,"is_disabled":false,"rental_uris":{"android":"levelo://app?vid=4acc9837-351f-4119-83d3-897383da79ed","ios":"levelo://app?vid=4acc9837-351f-4119-83d3-897383da79ed"},"vehicle_type_id":"4","last_reported":1750752913,"current_range_meters":7200,"station_id":"ce4bgn92rcd13ifvqbvg","pricing_plan_id":"cebpf4jnsgd1na2vs0mg"},{"bike_id":"69f50f15-e6f6-4683-aa4a-1244889bef4b","system_id":"levelo_inurba_marseille","lat":43.28268,"lon":5.35077,"is_reserved":false,"is_disabled":false,"rental_uris":{"android":"levelo://app?vid=69f50f15-e6f6-4683-aa4a-1244889bef4b","ios":"levelo://app?vid=69f50f15-e6f6-4683-aa4a-1244889bef4b"},"vehicle_type_id":"4","last_reported":1750752913,"current_range_meters":7200,"station_id":"ce4bhbp2rcd13ifvqerg","pricing_plan_id":"cebpf4jnsgd1na2vs0mg"},{"bike_id":"20942cfe-936a-46ca-b62e-9ad2167bf510","system_id":"levelo_inurba_marseille","lat":43.321006,"lon":5.367672,"is_reserved":false,"is_disabled":false,"rental_uris":{"android":"levelo://app?vid=20942cfe-936a-46ca-b62e-9ad2167bf510","ios":"levelo://app?vid=20942cfe-936a-46ca-b62e-9ad2167bf510"},"vehicle_type_id":"4","last_reported":1750752913,"current_range_meters":7200,"station_id":"ce4bhrh2rcd13ifvqhug","pricing_plan_id":"cebpf4jnsgd1na2vs0mg"},{"bike_id":"6609a24d-085d-4d78-adc9-29a5eee1202d","system_id":"levelo_inurba_marseille","lat":43.32444,"lon":5.36538,"is_reserved":false,"is_disabled":false,"rental_uris":{"android":"levelo://app?vid=6609a24d-085d-4d78-adc9-29a5eee1202d","ios":"levelo://app?vid=6609a24d-085d-4d78-adc9-29a5eee1202d"},"vehicle_type_id":"4","last_reported":1750752913,"current_range_meters":7200,"station_id":"ce4bhs12rcd13ifvqhvg","pricing_plan_id":"cebpf4jnsgd1na2vs0mg"},{"bike_id":"c4ebbb54-6e67-41a7-a293-35ab2f88fcf0","system_id":"levelo_inurba_marseille","lat":43.32479,"lon":5.36569,"is_reserved":false,"is_disabled":false,"rental_uris":{"android":"levelo://app?vid=c4ebbb54-6e67-41a7-a293-35ab2f88fcf0","ios":"levelo://app?vid=c4ebbb54-6e67-41a7-a293-35ab2f88fcf0"},"vehicle_type_id":"4","last_reported":1750752913,"current_range_meters":7200,"station_id":"ce4bhs12rcd13ifvqhvg","pricing_plan_id":"cebpf4jnsgd1na2vs0mg"},{"bike_id":"70764641-799a-4261-99bd-903918c1b74a","system_id":"levelo_inurba_marseille","lat":43.3291,"lon":5.38387,"is_reserved":false,"is_disabled":false,"rental_uris":{"android":"levelo://app?vid=70764641-799a-4261-99bd-903918c1b74a","ios":"levelo://app?vid=70764641-799a-4261-99bd-903918c1b74a"},"vehicle_type_id":"4","last_reported":1750752913,"current_range_meters":8000,"station_id":"","pricing_plan_id":"cebpf4jnsgd1na2vs0mg"},{"bike_id":"37e588df-f5eb-43d3-92ed-f74ff4de22b8","system_id":"levelo_inurba_marseille","lat":43.29531,"lon":5.38537,"is_reserved":false,"is_disabled":false,"rental_uris":{"android":"levelo://app?vid=37e588df-f5eb-43d3-92ed-f74ff4de22b8","ios":"levelo://app?vid=37e588df-f5eb-43d3-92ed-f74ff4de22b8"},"vehicle_type_id":"4","last_reported":1750752913,"current_range_meters":8000,"station_id":"ce4bgih2rcd13ifvqba0","pricing_plan_id":"cebpf4jnsgd1na2vs0mg"},{"bike_id":"8e7bde1b-03bf-41dd-8428-2f8beba0e27e","system_id":"levelo_inurba_marseille","lat":43.31367,"lon":5.36722,"is_reserved":false,"is_disabled":false,"rental_uris":{"android":"levelo://app?vid=8e7bde1b-03bf-41dd-8428-2f8beba0e27e","ios":"levelo://app?vid=8e7bde1b-03bf-41dd-8428-2f8beba0e27e"},"vehicle_type_id":"4","last_reported":1750752913,"current_range_meters":8000,"station_id":"ce4bgr92rcd13ifvqc6g","pricing_plan_id":"cebpf4jnsgd1na2vs0mg"},{"bike_id":"e746e79a-3800-4fea-b7a5-d7ac2497a2e1","system_id":"levelo_inurba_marseille","lat":43.30535,"lon":5.36705,"is_reserved":false,"is_disabled":false,"rental_uris":{"android":"levelo://app?vid=e746e79a-3800-4fea-b7a5-d7ac2497a2e1","ios":"levelo://app?vid=e746e79a-3800-4fea-b7a5-d7ac2497a2e1"},"vehicle_type_id":"4","last_reported":1750752913,"current_range_meters":8000,"station_id":"ce4bgrp2rcd13ifvqc9g","pricing_plan_id":"cebpf4jnsgd1na2vs0mg"},{"bike_id":"8ab7cf53-a934-4f28-9fd6-8a85c44a152d","system_id":"levelo_inurba_marseille","lat":43.30945,"lon":5.39035,"is_reserved":false,"is_disabled":false,"rental_uris":{"android":"levelo://app?vid=8ab7cf53-a934-4f28-9fd6-8a85c44a152d","ios":"levelo://app?vid=8ab7cf53-a934-4f28-9fd6-8a85c44a152d"},"vehicle_type_id":"4","last_reported":1750752913,"current_range_meters":8000,"station_id":"ce4bgup2rcd13ifvqco0","pricing_plan_id":"cebpf4jnsgd1na2vs0mg"},{"bike_id":"708a5153-e9eb-4b8c-828a-f2918a7ff712","system_id":"levelo_inurba_marseille","lat":43.33761,"lon":5.39189,"is_reserved":false,"is_disabled":false,"rental_uris":{"android":"levelo://app?vid=708a5153-e9eb-4b8c-828a-f2918a7ff712","ios":"levelo://app?vid=708a5153-e9eb-4b8c-828a-f2918a7ff712"},"vehicle_type_id":"4","last_reported":1750752913,"current_range_meters":8000,"station_id":"ce4bhr92rcd13ifvqhsg","pricing_plan_id":"cebpf4jnsgd1na2vs0mg"},{"bike_id":"fe592f42-985e-4dc2-bcca-397b079b77d2","system_id":"levelo_inurba_marseille","lat":43.29307,"lon":5.37173,"is_reserved":false,"is_disabled":false,"rental_uris":{"android":"levelo://app?vid=fe592f42-985e-4dc2-bcca-397b079b77d2","ios":"levelo://app?vid=fe592f42-985e-4dc2-bcca-397b079b77d2"},"vehicle_type_id":"4","last_reported":1750752913,"current_range_meters":8400,"station_id":"ce4bgh92rcd13ifvqb40","pricing_plan_id":"cebpf4jnsgd1na2vs0mg"},{"bike_id":"cba4114f-f543-4693-a5b0-622cad7d3d6b","system_id":"levelo_inurba_marseille","lat":43.312231,"lon":5.368639,"is_reserved":false,"is_disabled":false,"rental_uris":{"android":"levelo://app?vid=cba4114f-f543-4693-a5b0-622cad7d3d6b","ios":"levelo://app?vid=cba4114f-f543-4693-a5b0-622cad7d3d6b"},"vehicle_type_id":"4","last_reported":1750752913,"current_range_meters":8400,"station_id":"ce4bgl92rcd13ifvqbq0","pricing_plan_id":"cebpf4jnsgd1na2vs0mg"},{"bike_id":"5fc4b091-86bf-412c-9589-29e42ad5f115","system_id":"levelo_inurba_marseille","lat":43.30909,"lon":5.36842,"is_reserved":false,"is_disabled":false,"rental_uris":{"android":"levelo://app?vid=5fc4b091-86bf-412c-9589-29e42ad5f115","ios":"levelo://app?vid=5fc4b091-86bf-412c-9589-29e42ad5f115"},"vehicle_type_id":"4","last_reported":1750752913,"current_range_meters":8400,"station_id":"ce4bgn92rcd13ifvqbvg","pricing_plan_id":"cebpf4jnsgd1na2vs0mg"},{"bike_id":"6926376f-ac31-4613-b3e9-2ad607dd3e46","system_id":"levelo_inurba_marseille","lat":43.30461,"lon":5.37905,"is_reserved":false,"is_disabled":false,"rental_uris":{"android":"levelo://app?vid=6926376f-ac31-4613-b3e9-2ad607dd3e46","ios":"levelo://app?vid=6926376f-ac31-4613-b3e9-2ad607dd3e46"},"vehicle_type_id":"4","last_reported":1750752913,"current_range_meters":8400,"station_id":"ce4bgup2rcd13ifvqcn0","pricing_plan_id":"cebpf4jnsgd1na2vs0mg"},{"bike_id":"02b8caa6-5e2c-49d2-b361-2d267531c126","system_id":"levelo_inurba_marseille","lat":43.23157,"lon":5.43702,"is_reserved":false,"is_disabled":false,"rental_uris":{"android":"levelo://app?vid=02b8caa6-5e2c-49d2-b361-2d267531c126","ios":"levelo://app?vid=02b8caa6-5e2c-49d2-b361-2d267531c126"},"vehicle_type_id":"4","last_reported":1750752913,"current_range_meters":8400,"station_id":"ce4bhmp2rcd13ifvqgog","pricing_plan_id":"cebpf4jnsgd1na2vs0mg"},{"bike_id":"8db616e2-9b85-463c-b9ec-a921956427ff","system_id":"levelo_inurba_marseille","lat":43.3256,"lon":5.41464,"is_reserved":false,"is_disabled":false,"rental_uris":{"android":"levelo://app?vid=8db616e2-9b85-463c-b9ec-a921956427ff","ios":"levelo://app?vid=8db616e2-9b85-463c-b9ec-a921956427ff"},"vehicle_type_id":"4","last_reported":1750752913,"current_range_meters":8400,"station_id":"ce4bhq12rcd13ifvqhhg","pricing_plan_id":"cebpf4jnsgd1na2vs0mg"},{"bike_id":"d1dbc170-fe56-4491-9a11-c3d149082527","system_id":"levelo_inurba_marseille","lat":43.32479,"lon":5.36575,"is_reserved":false,"is_disabled":false,"rental_uris":{"android":"levelo://app?vid=d1dbc170-fe56-4491-9a11-c3d149082527","ios":"levelo://app?vid=d1dbc170-fe56-4491-9a11-c3d149082527"},"vehicle_type_id":"4","last_reported":1750752913,"current_range_meters":8400,"station_id":"ce4bhs12rcd13ifvqhvg","pricing_plan_id":"cebpf4jnsgd1na2vs0mg"},{"bike_id":"465d2323-f97d-48b0-a820-bc5fa54ae0fa","system_id":"levelo_inurba_marseille","lat":43.283836,"lon":5.459589,"is_reserved":false,"is_disabled":false,"rental_uris":{"android":"levelo://app?vid=465d2323-f97d-48b0-a820-bc5fa54ae0fa","ios":"levelo://app?vid=465d2323-f97d-48b0-a820-bc5fa54ae0fa"},"vehicle_type_id":"4","last_reported":1750752913,"current_range_meters":8800,"station_id":"","pricing_plan_id":"cebpf4jnsgd1na2vs0mg"},{"bike_id":"edf4f17b-e73b-4915-88db-aa0dd370cb75","system_id":"levelo_inurba_marseille","lat":43.29713,"lon":5.37687,"is_reserved":false,"is_disabled":false,"rental_uris":{"android":"levelo://app?vid=edf4f17b-e73b-4915-88db-aa0dd370cb75","ios":"levelo://app?vid=edf4f17b-e73b-4915-88db-aa0dd370cb75"},"vehicle_type_id":"4","last_reported":1750752913,"current_range_meters":8800,"station_id":"ce4bgkh2rcd13ifvqbl0","pricing_plan_id":"cebpf4jnsgd1na2vs0mg"},{"bike_id":"b03f484c-f1d4-4e89-90e6-72dc53b99482","system_id":"levelo_inurba_marseille","lat":43.3122,"lon":5.36861,"is_reserved":false,"is_disabled":false,"rental_uris":{"android":"levelo://app?vid=b03f484c-f1d4-4e89-90e6-72dc53b99482","ios":"levelo://app?vid=b03f484c-f1d4-4e89-90e6-72dc53b99482"},"vehicle_type_id":"4","last_reported":1750752913,"current_range_meters":8800,"station_id":"ce4bgl92rcd13ifvqbq0","pricing_plan_id":"cebpf4jnsgd1na2vs0mg"},{"bike_id":"675ca601-8d61-4b30-b170-2f48adbb7843","system_id":"levelo_inurba_marseille","lat":43.2558,"lon":5.38244,"is_reserved":false,"is_disabled":false,"rental_uris":{"android":"levelo://app?vid=675ca601-8d61-4b30-b170-2f48adbb7843","ios":"levelo://app?vid=675ca601-8d61-4b30-b170-2f48adbb7843"},"vehicle_type_id":"4","last_reported":1750752913,"current_range_meters":8800,"station_id":"ce4bhih2rcd13ifvqfs0","pricing_plan_id":"cebpf4jnsgd1na2vs0mg"},{"bike_id":"8b1bec8f-7c47-4261-bf9f-f1bb6397af1b","system_id":"levelo_inurba_marseille","lat":43.2315,"lon":5.43717,"is_reserved":false,"is_disabled":false,"rental_uris":{"android":"levelo://app?vid=8b1bec8f-7c47-4261-bf9f-f1bb6397af1b","ios":"levelo://app?vid=8b1bec8f-7c47-4261-bf9f-f1bb6397af1b"},"vehicle_type_id":"4","last_reported":1750752913,"current_range_meters":8800,"station_id":"ce4bhmp2rcd13ifvqgog","pricing_plan_id":"cebpf4jnsgd1na2vs0mg"},{"bike_id":"1f08f7dd-81d1-4d74-8c05-d1848c9c8a8a","system_id":"levelo_inurba_marseille","lat":43.324758,"lon":5.365714,"is_reserved":false,"is_disabled":false,"rental_uris":{"android":"levelo://app?vid=1f08f7dd-81d1-4d74-8c05-d1848c9c8a8a","ios":"levelo://app?vid=1f08f7dd-81d1-4d74-8c05-d1848c9c8a8a"},"vehicle_type_id":"4","last_reported":1750752913,"current_range_meters":8800,"station_id":"ce4bhs12rcd13ifvqhvg","pricing_plan_id":"cebpf4jnsgd1na2vs0mg"},{"bike_id":"4fea24f6-8129-4855-93ea-7b45e309b5f8","system_id":"levelo_inurba_marseille","lat":43.21193,"lon":5.35077,"is_reserved":false,"is_disabled":false,"rental_uris":{"android":"levelo://app?vid=4fea24f6-8129-4855-93ea-7b45e309b5f8","ios":"levelo://app?vid=4fea24f6-8129-4855-93ea-7b45e309b5f8"},"vehicle_type_id":"4","last_reported":1750752913,"current_range_meters":8800,"station_id":"st_cvj6sg6p6f1abm77japg","pricing_plan_id":"cebpf4jnsgd1na2vs0mg"},{"bike_id":"5026cdb4-a1eb-42b7-96f0-e06fd4695fec","system_id":"levelo_inurba_marseille","lat":43.31068,"lon":5.40083,"is_reserved":false,"is_disabled":false,"rental_uris":{"android":"levelo://app?vid=5026cdb4-a1eb-42b7-96f0-e06fd4695fec","ios":"levelo://app?vid=5026cdb4-a1eb-42b7-96f0-e06fd4695fec"},"vehicle_type_id":"4","last_reported":1750752913,"current_range_meters":9200,"station_id":"","pricing_plan_id":"cebpf4jnsgd1na2vs0mg"},{"bike_id":"7165284b-b9fe-49e7-a072-e2d51df5d3b4","system_id":"levelo_inurba_marseille","lat":43.33746,"lon":5.37436,"is_reserved":false,"is_disabled":false,"rental_uris":{"android":"levelo://app?vid=7165284b-b9fe-49e7-a072-e2d51df5d3b4","ios":"levelo://app?vid=7165284b-b9fe-49e7-a072-e2d51df5d3b4"},"vehicle_type_id":"4","last_reported":1750752913,"current_range_meters":9200,"station_id":"","pricing_plan_id":"cebpf4jnsgd1na2vs0mg"},{"bike_id":"205b3b37-f491-4abe-94b0-22ef1461e4e0","system_id":"levelo_inurba_marseille","lat":43.26685,"lon":5.38275,"is_reserved":false,"is_disabled":false,"rental_uris":{"android":"levelo://app?vid=205b3b37-f491-4abe-94b0-22ef1461e4e0","ios":"levelo://app?vid=205b3b37-f491-4abe-94b0-22ef1461e4e0"},"vehicle_type_id":"4","last_reported":1750752913,"current_range_meters":9200,"station_id":"ce4bhg92rcd13ifvqf90","pricing_plan_id":"cebpf4jnsgd1na2vs0mg"},{"bike_id":"73f0613a-b681-469b-9478-3a5490a7609e","system_id":"levelo_inurba_marseille","lat":43.23152,"lon":5.43708,"is_reserved":false,"is_disabled":false,"rental_uris":{"android":"levelo://app?vid=73f0613a-b681-469b-9478-3a5490a7609e","ios":"levelo://app?vid=73f0613a-b681-469b-9478-3a5490a7609e"},"vehicle_type_id":"4","last_reported":1750752913,"current_range_meters":9200,"station_id":"ce4bhmp2rcd13ifvqgog","pricing_plan_id":"cebpf4jnsgd1na2vs0mg"},{"bike_id":"904c346f-0774-47b9-aba4-0f561e2081f0","system_id":"levelo_inurba_marseille","lat":43.33603,"lon":5.41031,"is_reserved":false,"is_disabled":false,"rental_uris":{"android":"levelo://app?vid=904c346f-0774-47b9-aba4-0f561e2081f0","ios":"levelo://app?vid=904c346f-0774-47b9-aba4-0f561e2081f0"},"vehicle_type_id":"4","last_reported":1750752913,"current_range_meters":9200,"station_id":"ce4bhqh2rcd13ifvqhmg","pricing_plan_id":"cebpf4jnsgd1na2vs0mg"},{"bike_id":"af1ee2aa-9649-4a84-92f8-a833c0e1efe3","system_id":"levelo_inurba_marseille","lat":43.32352,"lon":5.36748,"is_reserved":false,"is_disabled":false,"rental_uris":{"android":"levelo://app?vid=af1ee2aa-9649-4a84-92f8-a833c0e1efe3","ios":"levelo://app?vid=af1ee2aa-9649-4a84-92f8-a833c0e1efe3"},"vehicle_type_id":"4","last_reported":1750752913,"current_range_meters":9200,"station_id":"ce4bhsh2rcd13ifvqi2g","pricing_plan_id":"cebpf4jnsgd1na2vs0mg"},{"bike_id":"9ad43fe6-1b49-4ea3-9f06-a5733a9a82aa","system_id":"levelo_inurba_marseille","lat":43.211918,"lon":5.350743,"is_reserved":false,"is_disabled":false,"rental_uris":{"android":"levelo://app?vid=9ad43fe6-1b49-4ea3-9f06-a5733a9a82aa","ios":"levelo://app?vid=9ad43fe6-1b49-4ea3-9f06-a5733a9a82aa"},"vehicle_type_id":"4","last_reported":1750752913,"current_range_meters":9600,"station_id":"","pricing_plan_id":"cebpf4jnsgd1na2vs0mg"},{"bike_id":"c808a9b8-3721-426c-96cb-f70bdf059300","system_id":"levelo_inurba_marseille","lat":43.24805,"lon":5.37458,"is_reserved":false,"is_disabled":false,"rental_uris":{"android":"levelo://app?vid=c808a9b8-3721-426c-96cb-f70bdf059300","ios":"levelo://app?vid=c808a9b8-3721-426c-96cb-f70bdf059300"},"vehicle_type_id":"4","last_reported":1750752913,"current_range_meters":9600,"station_id":"ce4bhgh2rcd13ifvqfb0","pricing_plan_id":"cebpf4jnsgd1na2vs0mg"},{"bike_id":"cca0ab99-35a6-44a8-9efd-ef917fe7d810","system_id":"levelo_inurba_marseille","lat":43.24386,"lon":5.37065,"is_reserved":false,"is_disabled":false,"rental_uris":{"android":"levelo://app?vid=cca0ab99-35a6-44a8-9efd-ef917fe7d810","ios":"levelo://app?vid=cca0ab99-35a6-44a8-9efd-ef917fe7d810"},"vehicle_type_id":"4","last_reported":1750752913,"current_range_meters":9600,"station_id":"ce4bhhh2rcd13ifvqfk0","pricing_plan_id":"cebpf4jnsgd1na2vs0mg"},{"bike_id":"5832c915-901d-4eeb-80b0-bae78ff8eccf","system_id":"levelo_inurba_marseille","lat":43.26202,"lon":5.37936,"is_reserved":false,"is_disabled":false,"rental_uris":{"android":"levelo://app?vid=5832c915-901d-4eeb-80b0-bae78ff8eccf","ios":"levelo://app?vid=5832c915-901d-4eeb-80b0-bae78ff8eccf"},"vehicle_type_id":"4","last_reported":1750752913,"current_range_meters":9600,"station_id":"ce4bhjp2rcd13ifvqg90","pricing_plan_id":"cebpf4jnsgd1na2vs0mg"},{"bike_id":"b43979bf-4593-440d-a054-668a71da02e2","system_id":"levelo_inurba_marseille","lat":43.321972,"lon":5.412076,"is_reserved":false,"is_disabled":false,"rental_uris":{"android":"levelo://app?vid=b43979bf-4593-440d-a054-668a71da02e2","ios":"levelo://app?vid=b43979bf-4593-440d-a054-668a71da02e2"},"vehicle_type_id":"4","last_reported":1750752913,"current_range_meters":9600,"station_id":"ce4bhqh2rcd13ifvqhmg","pricing_plan_id":"cebpf4jnsgd1na2vs0mg"},{"bike_id":"087f2159-7753-4646-b13a-36c8508d6b4f","system_id":"levelo_inurba_marseille","lat":43.32482,"lon":5.36539,"is_reserved":false,"is_disabled":false,"rental_uris":{"android":"levelo://app?vid=087f2159-7753-4646-b13a-36c8508d6b4f","ios":"levelo://app?vid=087f2159-7753-4646-b13a-36c8508d6b4f"},"vehicle_type_id":"4","last_reported":1750752913,"current_range_meters":9600,"station_id":"ce4bhs12rcd13ifvqhvg","pricing_plan_id":"cebpf4jnsgd1na2vs0mg"},{"bike_id":"bb655025-1fa6-4b73-a5c9-0aa281c97c1a","system_id":"levelo_inurba_marseille","lat":43.31538,"lon":5.38023,"is_reserved":false,"is_disabled":false,"rental_uris":{"android":"levelo://app?vid=bb655025-1fa6-4b73-a5c9-0aa281c97c1a","ios":"levelo://app?vid=bb655025-1fa6-4b73-a5c9-0aa281c97c1a"},"vehicle_type_id":"4","last_reported":1750752913,"current_range_meters":9600,"station_id":"ce4bhsp2rcd13ifvqi50","pricing_plan_id":"cebpf4jnsgd1na2vs0mg"},{"bike_id":"a092c41c-0118-4d86-b43e-981a2615e33e","system_id":"levelo_inurba_marseille","lat":43.34689,"lon":5.34548,"is_reserved":false,"is_disabled":false,"rental_uris":{"android":"levelo://app?vid=a092c41c-0118-4d86-b43e-981a2615e33e","ios":"levelo://app?vid=a092c41c-0118-4d86-b43e-981a2615e33e"},"vehicle_type_id":"4","last_reported":1750752913,"current_range_meters":10000,"station_id":"","pricing_plan_id":"cebpf4jnsgd1na2vs0mg"},{"bike_id":"e127ef7e-24d3-4248-81fa-66c5e7c3e582","system_id":"levelo_inurba_marseille","lat":43.296125,"lon":5.379441,"is_reserved":false,"is_disabled":false,"rental_uris":{"android":"levelo://app?vid=e127ef7e-24d3-4248-81fa-66c5e7c3e582","ios":"levelo://app?vid=e127ef7e-24d3-4248-81fa-66c5e7c3e582"},"vehicle_type_id":"4","last_reported":1750752913,"current_range_meters":10000,"station_id":"","pricing_plan_id":"cebpf4jnsgd1na2vs0mg"},{"bike_id":"0f8a17d8-ca6e-4acb-9bb7-92544d829fbf","system_id":"levelo_inurba_marseille","lat":43.31388,"lon":5.36684,"is_reserved":false,"is_disabled":false,"rental_uris":{"android":"levelo://app?vid=0f8a17d8-ca6e-4acb-9bb7-92544d829fbf","ios":"levelo://app?vid=0f8a17d8-ca6e-4acb-9bb7-92544d829fbf"},"vehicle_type_id":"4","last_reported":1750752913,"current_range_meters":10000,"station_id":"","pricing_plan_id":"cebpf4jnsgd1na2vs0mg"},{"bike_id":"ccf1b8a2-36ec-4706-892e-e99b1f1dc32e","system_id":"levelo_inurba_marseille","lat":43.30927,"lon":5.3686,"is_reserved":false,"is_disabled":false,"rental_uris":{"android":"levelo://app?vid=ccf1b8a2-36ec-4706-892e-e99b1f1dc32e","ios":"levelo://app?vid=ccf1b8a2-36ec-4706-892e-e99b1f1dc32e"},"vehicle_type_id":"4","last_reported":1750752913,"current_range_meters":10000,"station_id":"ce4bgn92rcd13ifvqbvg","pricing_plan_id":"cebpf4jnsgd1na2vs0mg"},{"bike_id":"23eda1de-7440-4504-9e5b-607db57c6e71","system_id":"levelo_inurba_marseille","lat":43.31351,"lon":5.36718,"is_reserved":false,"is_disabled":false,"rental_uris":{"android":"levelo://app?vid=23eda1de-7440-4504-9e5b-607db57c6e71","ios":"levelo://app?vid=23eda1de-7440-4504-9e5b-607db57c6e71"},"vehicle_type_id":"4","last_reported":1750752913,"current_range_meters":10000,"station_id":"ce4bgr92rcd13ifvqc6g","pricing_plan_id":"cebpf4jnsgd1na2vs0mg"},{"bike_id":"72ec418c-5493-441a-b62e-343e44824110","system_id":"levelo_inurba_marseille","lat":43.24999,"lon":5.38924,"is_reserved":false,"is_disabled":false,"rental_uris":{"android":"levelo://app?vid=72ec418c-5493-441a-b62e-343e44824110","ios":"levelo://app?vid=72ec418c-5493-441a-b62e-343e44824110"},"vehicle_type_id":"4","last_reported":1750752913,"current_range_meters":10000,"station_id":"ce4bhgp2rcd13ifvqfd0","pricing_plan_id":"cebpf4jnsgd1na2vs0mg"},{"bike_id":"946234dd-e3db-421e-b920-e1de76cbdc51","system_id":"levelo_inurba_marseille","lat":43.26199,"lon":5.37931,"is_reserved":false,"is_disabled":false,"rental_uris":{"android":"levelo://app?vid=946234dd-e3db-421e-b920-e1de76cbdc51","ios":"levelo://app?vid=946234dd-e3db-421e-b920-e1de76cbdc51"},"vehicle_type_id":"4","last_reported":1750752913,"current_range_meters":10000,"station_id":"ce4bhjp2rcd13ifvqg90","pricing_plan_id":"cebpf4jnsgd1na2vs0mg"},{"bike_id":"bd58d58d-5e35-4da8-8d20-de8db6a96b22","system_id":"levelo_inurba_marseille","lat":43.33618,"lon":5.41029,"is_reserved":false,"is_disabled":false,"rental_uris":{"android":"levelo://app?vid=bd58d58d-5e35-4da8-8d20-de8db6a96b22","ios":"levelo://app?vid=bd58d58d-5e35-4da8-8d20-de8db6a96b22"},"vehicle_type_id":"4","last_reported":1750752913,"current_range_meters":10000,"station_id":"ce4bhqh2rcd13ifvqhmg","pricing_plan_id":"cebpf4jnsgd1na2vs0mg"},{"bike_id":"1ff66e05-8f8c-4d27-a908-f8991b9c0df6","system_id":"levelo_inurba_marseille","lat":43.32478,"lon":5.36566,"is_reserved":false,"is_disabled":false,"rental_uris":{"android":"levelo://app?vid=1ff66e05-8f8c-4d27-a908-f8991b9c0df6","ios":"levelo://app?vid=1ff66e05-8f8c-4d27-a908-f8991b9c0df6"},"vehicle_type_id":"4","last_reported":1750752913,"current_range_meters":10000,"station_id":"ce4bhs12rcd13ifvqhvg","pricing_plan_id":"cebpf4jnsgd1na2vs0mg"},{"bike_id":"bfb1dd3c-6ab5-4a18-99cd-c30d43e6bde6","system_id":"levelo_inurba_marseille","lat":43.269423,"lon":5.402654,"is_reserved":false,"is_disabled":false,"rental_uris":{"android":"levelo://app?vid=bfb1dd3c-6ab5-4a18-99cd-c30d43e6bde6","ios":"levelo://app?vid=bfb1dd3c-6ab5-4a18-99cd-c30d43e6bde6"},"vehicle_type_id":"4","last_reported":1750752913,"current_range_meters":10800,"station_id":"","pricing_plan_id":"cebpf4jnsgd1na2vs0mg"},{"bike_id":"9f754f6a-d755-48d0-bb43-98e338a9df6d","system_id":"levelo_inurba_marseille","lat":43.30908,"lon":5.36841,"is_reserved":false,"is_disabled":false,"rental_uris":{"android":"levelo://app?vid=9f754f6a-d755-48d0-bb43-98e338a9df6d","ios":"levelo://app?vid=9f754f6a-d755-48d0-bb43-98e338a9df6d"},"vehicle_type_id":"4","last_reported":1750752913,"current_range_meters":10800,"station_id":"ce4bgn92rcd13ifvqbvg","pricing_plan_id":"cebpf4jnsgd1na2vs0mg"},{"bike_id":"18fa55f1-0cbd-46cc-b443-f568df0614dd","system_id":"levelo_inurba_marseille","lat":43.30136,"lon":5.3741,"is_reserved":false,"is_disabled":false,"rental_uris":{"android":"levelo://app?vid=18fa55f1-0cbd-46cc-b443-f568df0614dd","ios":"levelo://app?vid=18fa55f1-0cbd-46cc-b443-f568df0614dd"},"vehicle_type_id":"4","last_reported":1750752913,"current_range_meters":10800,"station_id":"ce4bgs92rcd13ifvqcc0","pricing_plan_id":"cebpf4jnsgd1na2vs0mg"},{"bike_id":"a7794009-9fb0-4d03-b8f8-6edf9031eddf","system_id":"levelo_inurba_marseille","lat":43.26562,"lon":5.39015,"is_reserved":false,"is_disabled":false,"rental_uris":{"android":"levelo://app?vid=a7794009-9fb0-4d03-b8f8-6edf9031eddf","ios":"levelo://app?vid=a7794009-9fb0-4d03-b8f8-6edf9031eddf"},"vehicle_type_id":"4","last_reported":1750752913,"current_range_meters":10800,"station_id":"ce4bhe12rcd13ifvqf30","pricing_plan_id":"cebpf4jnsgd1na2vs0mg"},{"bike_id":"82be2e4a-0f66-4ddf-a9de-dc4a5d8121a0","system_id":"levelo_inurba_marseille","lat":43.24652,"lon":5.38893,"is_reserved":false,"is_disabled":false,"rental_uris":{"android":"levelo://app?vid=82be2e4a-0f66-4ddf-a9de-dc4a5d8121a0","ios":"levelo://app?vid=82be2e4a-0f66-4ddf-a9de-dc4a5d8121a0"},"vehicle_type_id":"4","last_reported":1750752913,"current_range_meters":10800,"station_id":"ce4bhg12rcd13ifvqf60","pricing_plan_id":"cebpf4jnsgd1na2vs0mg"},{"bike_id":"fcb287e3-3e27-417b-bfa2-ab3be453e5bf","system_id":"levelo_inurba_marseille","lat":43.24653,"lon":5.38895,"is_reserved":false,"is_disabled":false,"rental_uris":{"android":"levelo://app?vid=fcb287e3-3e27-417b-bfa2-ab3be453e5bf","ios":"levelo://app?vid=fcb287e3-3e27-417b-bfa2-ab3be453e5bf"},"vehicle_type_id":"4","last_reported":1750752913,"current_range_meters":10800,"station_id":"ce4bhg12rcd13ifvqf60","pricing_plan_id":"cebpf4jnsgd1na2vs0mg"},{"bike_id":"20ee7690-aced-4e48-9e5e-0d7fdfa26dae","system_id":"levelo_inurba_marseille","lat":43.33722,"lon":5.39188,"is_reserved":false,"is_disabled":false,"rental_uris":{"android":"levelo://app?vid=20ee7690-aced-4e48-9e5e-0d7fdfa26dae","ios":"levelo://app?vid=20ee7690-aced-4e48-9e5e-0d7fdfa26dae"},"vehicle_type_id":"4","last_reported":1750752913,"current_range_meters":10800,"station_id":"ce4bhr92rcd13ifvqhsg","pricing_plan_id":"cebpf4jnsgd1na2vs0mg"},{"bike_id":"9213f417-38fe-4ac6-ba73-fa7495d6b748","system_id":"levelo_inurba_marseille","lat":43.24173,"lon":5.36394,"is_reserved":false,"is_disabled":false,"rental_uris":{"android":"levelo://app?vid=9213f417-38fe-4ac6-ba73-fa7495d6b748","ios":"levelo://app?vid=9213f417-38fe-4ac6-ba73-fa7495d6b748"},"vehicle_type_id":"4","last_reported":1750752913,"current_range_meters":10800,"station_id":"cpo36qri1sfpv3e86is0","pricing_plan_id":"cebpf4jnsgd1na2vs0mg"},{"bike_id":"c2037e73-e207-4cb2-8c83-5f6c70ae1ecd","system_id":"levelo_inurba_marseille","lat":43.21753,"lon":5.34602,"is_reserved":false,"is_disabled":false,"rental_uris":{"android":"levelo://app?vid=c2037e73-e207-4cb2-8c83-5f6c70ae1ecd","ios":"levelo://app?vid=c2037e73-e207-4cb2-8c83-5f6c70ae1ecd"},"vehicle_type_id":"4","last_reported":1750752913,"current_range_meters":10800,"station_id":"st_cvj6r9ubvosntc0bgbag","pricing_plan_id":"cebpf4jnsgd1na2vs0mg"},{"bike_id":"cada33e7-7feb-4285-bb16-b2e63d63815b","system_id":"levelo_inurba_marseille","lat":43.23671,"lon":5.3917,"is_reserved":false,"is_disabled":false,"rental_uris":{"android":"levelo://app?vid=cada33e7-7feb-4285-bb16-b2e63d63815b","ios":"levelo://app?vid=cada33e7-7feb-4285-bb16-b2e63d63815b"},"vehicle_type_id":"4","last_reported":1750752913,"current_range_meters":11200,"station_id":"","pricing_plan_id":"cebpf4jnsgd1na2vs0mg"},{"bike_id":"11453444-4ae0-471d-93be-a047ef0b0d85","system_id":"levelo_inurba_marseille","lat":43.30912,"lon":5.36856,"is_reserved":false,"is_disabled":false,"rental_uris":{"android":"levelo://app?vid=11453444-4ae0-471d-93be-a047ef0b0d85","ios":"levelo://app?vid=11453444-4ae0-471d-93be-a047ef0b0d85"},"vehicle_type_id":"4","last_reported":1750752913,"current_range_meters":11200,"station_id":"ce4bgn92rcd13ifvqbvg","pricing_plan_id":"cebpf4jnsgd1na2vs0mg"},{"bike_id":"7effef4e-27de-49b2-8f91-b52155b43836","system_id":"levelo_inurba_marseille","lat":43.30136,"lon":5.37423,"is_reserved":false,"is_disabled":false,"rental_uris":{"android":"levelo://app?vid=7effef4e-27de-49b2-8f91-b52155b43836","ios":"levelo://app?vid=7effef4e-27de-49b2-8f91-b52155b43836"},"vehicle_type_id":"4","last_reported":1750752913,"current_range_meters":11200,"station_id":"ce4bgs92rcd13ifvqcc0","pricing_plan_id":"cebpf4jnsgd1na2vs0mg"},{"bike_id":"e892ea9a-aae2-461c-b4a8-60432557574a","system_id":"levelo_inurba_marseille","lat":43.30125,"lon":5.37444,"is_reserved":false,"is_disabled":false,"rental_uris":{"android":"levelo://app?vid=e892ea9a-aae2-461c-b4a8-60432557574a","ios":"levelo://app?vid=e892ea9a-aae2-461c-b4a8-60432557574a"},"vehicle_type_id":"4","last_reported":1750752913,"current_range_meters":11200,"station_id":"ce4bgs92rcd13ifvqcc0","pricing_plan_id":"cebpf4jnsgd1na2vs0mg"},{"bike_id":"ed20304c-a604-457d-be3c-d5c4979a2763","system_id":"levelo_inurba_marseille","lat":43.23191,"lon":5.35556,"is_reserved":false,"is_disabled":false,"rental_uris":{"android":"levelo://app?vid=ed20304c-a604-457d-be3c-d5c4979a2763","ios":"levelo://app?vid=ed20304c-a604-457d-be3c-d5c4979a2763"},"vehicle_type_id":"4","last_reported":1750752913,"current_range_meters":11200,"station_id":"ce4bhu92rcd13ifvqi70","pricing_plan_id":"cebpf4jnsgd1na2vs0mg"},{"bike_id":"82daa609-66e4-4b91-8a1c-a20f4b557675","system_id":"levelo_inurba_marseille","lat":43.30336,"lon":5.36691,"is_reserved":false,"is_disabled":false,"rental_uris":{"android":"levelo://app?vid=82daa609-66e4-4b91-8a1c-a20f4b557675","ios":"levelo://app?vid=82daa609-66e4-4b91-8a1c-a20f4b557675"},"vehicle_type_id":"4","last_reported":1750752913,"current_range_meters":11600,"station_id":"","pricing_plan_id":"cebpf4jnsgd1na2vs0mg"},{"bike_id":"db03ee7a-36f7-4744-b897-906f94947310","system_id":"levelo_inurba_marseille","lat":43.30916,"lon":5.36841,"is_reserved":false,"is_disabled":false,"rental_uris":{"android":"levelo://app?vid=db03ee7a-36f7-4744-b897-906f94947310","ios":"levelo://app?vid=db03ee7a-36f7-4744-b897-906f94947310"},"vehicle_type_id":"4","last_reported":1750752913,"current_range_meters":11600,"station_id":"ce4bgn92rcd13ifvqbvg","pricing_plan_id":"cebpf4jnsgd1na2vs0mg"},{"bike_id":"9a1d9e0b-ed07-4edc-870d-e9ae7a2d5946","system_id":"levelo_inurba_marseille","lat":43.30141,"lon":5.37422,"is_reserved":false,"is_disabled":false,"rental_uris":{"android":"levelo://app?vid=9a1d9e0b-ed07-4edc-870d-e9ae7a2d5946","ios":"levelo://app?vid=9a1d9e0b-ed07-4edc-870d-e9ae7a2d5946"},"vehicle_type_id":"4","last_reported":1750752913,"current_range_meters":11600,"station_id":"ce4bgs92rcd13ifvqcc0","pricing_plan_id":"cebpf4jnsgd1na2vs0mg"},{"bike_id":"fd26efd6-7952-4c0b-b8b8-891346e58d3d","system_id":"levelo_inurba_marseille","lat":43.23967,"lon":5.36624,"is_reserved":false,"is_disabled":false,"rental_uris":{"android":"levelo://app?vid=fd26efd6-7952-4c0b-b8b8-891346e58d3d","ios":"levelo://app?vid=fd26efd6-7952-4c0b-b8b8-891346e58d3d"},"vehicle_type_id":"4","last_reported":1750752913,"current_range_meters":11600,"station_id":"ce4bhi12rcd13ifvqfp0","pricing_plan_id":"cebpf4jnsgd1na2vs0mg"},{"bike_id":"ea21cd37-1e08-4455-9ef7-f9a6f91a8071","system_id":"levelo_inurba_marseille","lat":43.2587,"lon":5.39892,"is_reserved":false,"is_disabled":false,"rental_uris":{"android":"levelo://app?vid=ea21cd37-1e08-4455-9ef7-f9a6f91a8071","ios":"levelo://app?vid=ea21cd37-1e08-4455-9ef7-f9a6f91a8071"},"vehicle_type_id":"4","last_reported":1750752913,"current_range_meters":11600,"station_id":"ce4bhl92rcd13ifvqghg","pricing_plan_id":"cebpf4jnsgd1na2vs0mg"},{"bike_id":"5a3c89c2-3450-4abf-8f80-3c018505aaa7","system_id":"levelo_inurba_marseille","lat":43.32109,"lon":5.36772,"is_reserved":false,"is_disabled":false,"rental_uris":{"android":"levelo://app?vid=5a3c89c2-3450-4abf-8f80-3c018505aaa7","ios":"levelo://app?vid=5a3c89c2-3450-4abf-8f80-3c018505aaa7"},"vehicle_type_id":"4","last_reported":1750752913,"current_range_meters":11600,"station_id":"ce4bhrh2rcd13ifvqhug","pricing_plan_id":"cebpf4jnsgd1na2vs0mg"},{"bike_id":"ba7009b7-dbb9-4c29-8645-d0a68dca7b4f","system_id":"levelo_inurba_marseille","lat":43.312975,"lon":5.445535,"is_reserved":false,"is_disabled":false,"rental_uris":{"android":"levelo://app?vid=ba7009b7-dbb9-4c29-8645-d0a68dca7b4f","ios":"levelo://app?vid=ba7009b7-dbb9-4c29-8645-d0a68dca7b4f"},"vehicle_type_id":"4","last_reported":1750752913,"current_range_meters":12000,"station_id":"","pricing_plan_id":"cebpf4jnsgd1na2vs0mg"},{"bike_id":"450a3642-ad05-4765-9a3a-f8f356367bc2","system_id":"levelo_inurba_marseille","lat":43.30576,"lon":5.36508,"is_reserved":false,"is_disabled":false,"rental_uris":{"android":"levelo://app?vid=450a3642-ad05-4765-9a3a-f8f356367bc2","ios":"levelo://app?vid=450a3642-ad05-4765-9a3a-f8f356367bc2"},"vehicle_type_id":"4","last_reported":1750752913,"current_range_meters":12000,"station_id":"ce4bgs12rcd13ifvqcag","pricing_plan_id":"cebpf4jnsgd1na2vs0mg"},{"bike_id":"0cfa9b1e-3760-4b52-9794-e79464e99e3a","system_id":"levelo_inurba_marseille","lat":43.266853,"lon":5.38277,"is_reserved":false,"is_disabled":false,"rental_uris":{"android":"levelo://app?vid=0cfa9b1e-3760-4b52-9794-e79464e99e3a","ios":"levelo://app?vid=0cfa9b1e-3760-4b52-9794-e79464e99e3a"},"vehicle_type_id":"4","last_reported":1750752913,"current_range_meters":12000,"station_id":"ce4bhg92rcd13ifvqf90","pricing_plan_id":"cebpf4jnsgd1na2vs0mg"},{"bike_id":"83a45e80-8938-4c17-9b8a-7973752b8bea","system_id":"levelo_inurba_marseille","lat":43.27354,"lon":5.39092,"is_reserved":false,"is_disabled":false,"rental_uris":{"android":"levelo://app?vid=83a45e80-8938-4c17-9b8a-7973752b8bea","ios":"levelo://app?vid=83a45e80-8938-4c17-9b8a-7973752b8bea"},"vehicle_type_id":"4","last_reported":1750752913,"current_range_meters":12000,"station_id":"ce4bhgp2rcd13ifvqfe0","pricing_plan_id":"cebpf4jnsgd1na2vs0mg"},{"bike_id":"a49e2c5f-fd2a-42ef-b552-0344c014bff5","system_id":"levelo_inurba_marseille","lat":43.23149,"lon":5.43705,"is_reserved":false,"is_disabled":false,"rental_uris":{"android":"levelo://app?vid=a49e2c5f-fd2a-42ef-b552-0344c014bff5","ios":"levelo://app?vid=a49e2c5f-fd2a-42ef-b552-0344c014bff5"},"vehicle_type_id":"4","last_reported":1750752913,"current_range_meters":12000,"station_id":"ce4bhmp2rcd13ifvqgog","pricing_plan_id":"cebpf4jnsgd1na2vs0mg"},{"bike_id":"d3b4acd1-475d-43e1-bb04-3b5b22c96457","system_id":"levelo_inurba_marseille","lat":43.29886,"lon":5.43643,"is_reserved":false,"is_disabled":false,"rental_uris":{"android":"levelo://app?vid=d3b4acd1-475d-43e1-bb04-3b5b22c96457","ios":"levelo://app?vid=d3b4acd1-475d-43e1-bb04-3b5b22c96457"},"vehicle_type_id":"4","last_reported":1750752913,"current_range_meters":12000,"station_id":"ce4bhpp2rcd13ifvqhfg","pricing_plan_id":"cebpf4jnsgd1na2vs0mg"},{"bike_id":"27612213-eb2e-48d3-bf6d-7b57ea381647","system_id":"levelo_inurba_marseille","lat":43.3052,"lon":5.37764,"is_reserved":false,"is_disabled":false,"rental_uris":{"android":"levelo://app?vid=27612213-eb2e-48d3-bf6d-7b57ea381647","ios":"levelo://app?vid=27612213-eb2e-48d3-bf6d-7b57ea381647"},"vehicle_type_id":"4","last_reported":1750752913,"current_range_meters":12400,"station_id":"ce4bgup2rcd13ifvqcn0","pricing_plan_id":"cebpf4jnsgd1na2vs0mg"},{"bike_id":"d2e1b98a-634f-4855-93a4-ea6d65e8ff0d","system_id":"levelo_inurba_marseille","lat":43.33608,"lon":5.4103,"is_reserved":false,"is_disabled":false,"rental_uris":{"android":"levelo://app?vid=d2e1b98a-634f-4855-93a4-ea6d65e8ff0d","ios":"levelo://app?vid=d2e1b98a-634f-4855-93a4-ea6d65e8ff0d"},"vehicle_type_id":"4","last_reported":1750752913,"current_range_meters":12400,"station_id":"ce4bhqh2rcd13ifvqhmg","pricing_plan_id":"cebpf4jnsgd1na2vs0mg"},{"bike_id":"66fe660e-bbbe-4cd1-b5fb-9344c71cb66e","system_id":"levelo_inurba_marseille","lat":43.211894,"lon":5.350733,"is_reserved":false,"is_disabled":false,"rental_uris":{"android":"levelo://app?vid=66fe660e-bbbe-4cd1-b5fb-9344c71cb66e","ios":"levelo://app?vid=66fe660e-bbbe-4cd1-b5fb-9344c71cb66e"},"vehicle_type_id":"4","last_reported":1750752913,"current_range_meters":12400,"station_id":"st_cvj6sg6p6f1abm77japg","pricing_plan_id":"cebpf4jnsgd1na2vs0mg"},{"bike_id":"9bba0450-8058-454f-bf64-d7d8d9cb601e","system_id":"levelo_inurba_marseille","lat":43.312507,"lon":5.36843,"is_reserved":false,"is_disabled":false,"rental_uris":{"android":"levelo://app?vid=9bba0450-8058-454f-bf64-d7d8d9cb601e","ios":"levelo://app?vid=9bba0450-8058-454f-bf64-d7d8d9cb601e"},"vehicle_type_id":"4","last_reported":1750752913,"current_range_meters":12800,"station_id":"ce4bgl92rcd13ifvqbq0","pricing_plan_id":"cebpf4jnsgd1na2vs0mg"},{"bike_id":"dca35525-34c4-421b-9a05-4363e87d2cab","system_id":"levelo_inurba_marseille","lat":43.28351,"lon":5.38109,"is_reserved":false,"is_disabled":false,"rental_uris":{"android":"levelo://app?vid=dca35525-34c4-421b-9a05-4363e87d2cab","ios":"levelo://app?vid=dca35525-34c4-421b-9a05-4363e87d2cab"},"vehicle_type_id":"4","last_reported":1750752913,"current_range_meters":12800,"station_id":"ce4bh412rcd13ifvqdr0","pricing_plan_id":"cebpf4jnsgd1na2vs0mg"},{"bike_id":"43f32577-c258-4f7b-a1bc-01408470628d","system_id":"levelo_inurba_marseille","lat":43.28937,"lon":5.36635,"is_reserved":false,"is_disabled":false,"rental_uris":{"android":"levelo://app?vid=43f32577-c258-4f7b-a1bc-01408470628d","ios":"levelo://app?vid=43f32577-c258-4f7b-a1bc-01408470628d"},"vehicle_type_id":"4","last_reported":1750752913,"current_range_meters":12800,"station_id":"ce4bhap2rcd13ifvqek0","pricing_plan_id":"cebpf4jnsgd1na2vs0mg"},{"bike_id":"21189056-4f83-41a9-a23e-40efe14ca570","system_id":"levelo_inurba_marseille","lat":43.23967,"lon":5.36618,"is_reserved":false,"is_disabled":false,"rental_uris":{"android":"levelo://app?vid=21189056-4f83-41a9-a23e-40efe14ca570","ios":"levelo://app?vid=21189056-4f83-41a9-a23e-40efe14ca570"},"vehicle_type_id":"4","last_reported":1750752913,"current_range_meters":12800,"station_id":"ce4bhi12rcd13ifvqfp0","pricing_plan_id":"cebpf4jnsgd1na2vs0mg"},{"bike_id":"11987b5c-26ac-4854-8322-bb533a1e4efa","system_id":"levelo_inurba_marseille","lat":43.23151,"lon":5.43717,"is_reserved":false,"is_disabled":false,"rental_uris":{"android":"levelo://app?vid=11987b5c-26ac-4854-8322-bb533a1e4efa","ios":"levelo://app?vid=11987b5c-26ac-4854-8322-bb533a1e4efa"},"vehicle_type_id":"4","last_reported":1750752913,"current_range_meters":12800,"station_id":"ce4bhmp2rcd13ifvqgog","pricing_plan_id":"cebpf4jnsgd1na2vs0mg"},{"bike_id":"e8bdcbbe-1b11-4971-a078-f8f587629944","system_id":"levelo_inurba_marseille","lat":43.33717,"lon":5.39197,"is_reserved":false,"is_disabled":false,"rental_uris":{"android":"levelo://app?vid=e8bdcbbe-1b11-4971-a078-f8f587629944","ios":"levelo://app?vid=e8bdcbbe-1b11-4971-a078-f8f587629944"},"vehicle_type_id":"4","last_reported":1750752913,"current_range_meters":12800,"station_id":"ce4bhr92rcd13ifvqhsg","pricing_plan_id":"cebpf4jnsgd1na2vs0mg"},{"bike_id":"ff359b06-e82b-4518-b602-f9c62162a27d","system_id":"levelo_inurba_marseille","lat":43.211898,"lon":5.350764,"is_reserved":false,"is_disabled":false,"rental_uris":{"android":"levelo://app?vid=ff359b06-e82b-4518-b602-f9c62162a27d","ios":"levelo://app?vid=ff359b06-e82b-4518-b602-f9c62162a27d"},"vehicle_type_id":"4","last_reported":1750752913,"current_range_meters":12800,"station_id":"st_cvj6sg6p6f1abm77japg","pricing_plan_id":"cebpf4jnsgd1na2vs0mg"},{"bike_id":"07dfafb5-92cc-4e8a-ba82-70efbf9b4e21","system_id":"levelo_inurba_marseille","lat":43.27697,"lon":5.41532,"is_reserved":false,"is_disabled":false,"rental_uris":{"android":"levelo://app?vid=07dfafb5-92cc-4e8a-ba82-70efbf9b4e21","ios":"levelo://app?vid=07dfafb5-92cc-4e8a-ba82-70efbf9b4e21"},"vehicle_type_id":"4","last_reported":1750752913,"current_range_meters":13600,"station_id":"","pricing_plan_id":"cebpf4jnsgd1na2vs0mg"},{"bike_id":"095eabd1-5dcf-4106-9219-bdac4470d970","system_id":"levelo_inurba_marseille","lat":43.328228,"lon":5.43362,"is_reserved":false,"is_disabled":false,"rental_uris":{"android":"levelo://app?vid=095eabd1-5dcf-4106-9219-bdac4470d970","ios":"levelo://app?vid=095eabd1-5dcf-4106-9219-bdac4470d970"},"vehicle_type_id":"4","last_reported":1750752913,"current_range_meters":13600,"station_id":"","pricing_plan_id":"cebpf4jnsgd1na2vs0mg"},{"bike_id":"ea58c5af-7e24-472a-9042-4626112e91cb","system_id":"levelo_inurba_marseille","lat":43.291979,"lon":5.358054,"is_reserved":false,"is_disabled":false,"rental_uris":{"android":"levelo://app?vid=ea58c5af-7e24-472a-9042-4626112e91cb","ios":"levelo://app?vid=ea58c5af-7e24-472a-9042-4626112e91cb"},"vehicle_type_id":"4","last_reported":1750752913,"current_range_meters":13600,"station_id":"","pricing_plan_id":"cebpf4jnsgd1na2vs0mg"},{"bike_id":"b019ab83-ff42-4131-b3d0-503f9d099561","system_id":"levelo_inurba_marseille","lat":43.26204,"lon":5.3793,"is_reserved":false,"is_disabled":false,"rental_uris":{"android":"levelo://app?vid=b019ab83-ff42-4131-b3d0-503f9d099561","ios":"levelo://app?vid=b019ab83-ff42-4131-b3d0-503f9d099561"},"vehicle_type_id":"4","last_reported":1750752913,"current_range_meters":13600,"station_id":"ce4bhjp2rcd13ifvqg90","pricing_plan_id":"cebpf4jnsgd1na2vs0mg"},{"bike_id":"94c9b4b7-f1b2-4e1a-bb69-ef0e1d78a809","system_id":"levelo_inurba_marseille","lat":43.32538,"lon":5.41436,"is_reserved":false,"is_disabled":false,"rental_uris":{"android":"levelo://app?vid=94c9b4b7-f1b2-4e1a-bb69-ef0e1d78a809","ios":"levelo://app?vid=94c9b4b7-f1b2-4e1a-bb69-ef0e1d78a809"},"vehicle_type_id":"4","last_reported":1750752913,"current_range_meters":13600,"station_id":"ce4bhq12rcd13ifvqhhg","pricing_plan_id":"cebpf4jnsgd1na2vs0mg"},{"bike_id":"3e0f5345-cfae-479a-9b41-9237c8726756","system_id":"levelo_inurba_marseille","lat":43.29682,"lon":5.36331,"is_reserved":false,"is_disabled":false,"rental_uris":{"android":"levelo://app?vid=3e0f5345-cfae-479a-9b41-9237c8726756","ios":"levelo://app?vid=3e0f5345-cfae-479a-9b41-9237c8726756"},"vehicle_type_id":"4","last_reported":1750752913,"current_range_meters":14000,"station_id":"","pricing_plan_id":"cebpf4jnsgd1na2vs0mg"},{"bike_id":"dfe1dcd7-5ca9-4034-bc31-0102149cd03c","system_id":"levelo_inurba_marseille","lat":43.30116,"lon":5.37429,"is_reserved":false,"is_disabled":false,"rental_uris":{"android":"levelo://app?vid=dfe1dcd7-5ca9-4034-bc31-0102149cd03c","ios":"levelo://app?vid=dfe1dcd7-5ca9-4034-bc31-0102149cd03c"},"vehicle_type_id":"4","last_reported":1750752913,"current_range_meters":14000,"station_id":"ce4bgs92rcd13ifvqcc0","pricing_plan_id":"cebpf4jnsgd1na2vs0mg"},{"bike_id":"d56e3cc1-393e-4a14-9e0d-6b48e0b46d94","system_id":"levelo_inurba_marseille","lat":43.30146,"lon":5.37426,"is_reserved":false,"is_disabled":false,"rental_uris":{"android":"levelo://app?vid=d56e3cc1-393e-4a14-9e0d-6b48e0b46d94","ios":"levelo://app?vid=d56e3cc1-393e-4a14-9e0d-6b48e0b46d94"},"vehicle_type_id":"4","last_reported":1750752913,"current_range_meters":14000,"station_id":"ce4bgs92rcd13ifvqcc0","pricing_plan_id":"cebpf4jnsgd1na2vs0mg"},{"bike_id":"5251eac8-9c2c-4ca6-8037-935cccf8a183","system_id":"levelo_inurba_marseille","lat":43.31124,"lon":5.37769,"is_reserved":false,"is_disabled":false,"rental_uris":{"android":"levelo://app?vid=5251eac8-9c2c-4ca6-8037-935cccf8a183","ios":"levelo://app?vid=5251eac8-9c2c-4ca6-8037-935cccf8a183"},"vehicle_type_id":"4","last_reported":1750752913,"current_range_meters":14000,"station_id":"ce4bgt92rcd13ifvqcg0","pricing_plan_id":"cebpf4jnsgd1na2vs0mg"},{"bike_id":"9298631a-90a5-43bb-ab8b-70a917f2bfcd","system_id":"levelo_inurba_marseille","lat":43.24173,"lon":5.3973,"is_reserved":false,"is_disabled":false,"rental_uris":{"android":"levelo://app?vid=9298631a-90a5-43bb-ab8b-70a917f2bfcd","ios":"levelo://app?vid=9298631a-90a5-43bb-ab8b-70a917f2bfcd"},"vehicle_type_id":"4","last_reported":1750752913,"current_range_meters":14000,"station_id":"ce4bhn12rcd13ifvqgpg","pricing_plan_id":"cebpf4jnsgd1na2vs0mg"},{"bike_id":"63b39fca-ed27-4772-81ae-09fb65d920d1","system_id":"levelo_inurba_marseille","lat":43.30815,"lon":5.435573,"is_reserved":false,"is_disabled":false,"rental_uris":{"android":"levelo://app?vid=63b39fca-ed27-4772-81ae-09fb65d920d1","ios":"levelo://app?vid=63b39fca-ed27-4772-81ae-09fb65d920d1"},"vehicle_type_id":"4","last_reported":1750752913,"current_range_meters":14000,"station_id":"ce4bhph2rcd13ifvqheg","pricing_plan_id":"cebpf4jnsgd1na2vs0mg"},{"bike_id":"303cf90f-7c2e-4e76-ba5f-2dcd6b7d7d88","system_id":"levelo_inurba_marseille","lat":43.31757,"lon":5.39026,"is_reserved":false,"is_disabled":false,"rental_uris":{"android":"levelo://app?vid=303cf90f-7c2e-4e76-ba5f-2dcd6b7d7d88","ios":"levelo://app?vid=303cf90f-7c2e-4e76-ba5f-2dcd6b7d7d88"},"vehicle_type_id":"4","last_reported":1750752913,"current_range_meters":14000,"station_id":"ce4bhqp2rcd13ifvqhng","pricing_plan_id":"cebpf4jnsgd1na2vs0mg"},{"bike_id":"b6b861fa-fd27-43ad-89fb-4be1a264be92","system_id":"levelo_inurba_marseille","lat":43.25307,"lon":5.37497,"is_reserved":false,"is_disabled":false,"rental_uris":{"android":"levelo://app?vid=b6b861fa-fd27-43ad-89fb-4be1a264be92","ios":"levelo://app?vid=b6b861fa-fd27-43ad-89fb-4be1a264be92"},"vehicle_type_id":"4","last_reported":1750752913,"current_range_meters":14400,"station_id":"","pricing_plan_id":"cebpf4jnsgd1na2vs0mg"},{"bike_id":"7c3f6852-4f29-42a9-a8c1-e2b82bb43fcf","system_id":"levelo_inurba_marseille","lat":43.29258,"lon":5.42657,"is_reserved":false,"is_disabled":false,"rental_uris":{"android":"levelo://app?vid=7c3f6852-4f29-42a9-a8c1-e2b82bb43fcf","ios":"levelo://app?vid=7c3f6852-4f29-42a9-a8c1-e2b82bb43fcf"},"vehicle_type_id":"4","last_reported":1750752913,"current_range_meters":14400,"station_id":"","pricing_plan_id":"cebpf4jnsgd1na2vs0mg"},{"bike_id":"d9b0964f-876a-42a8-a2b5-8341c6af695d","system_id":"levelo_inurba_marseille","lat":43.31181,"lon":5.38727,"is_reserved":false,"is_disabled":false,"rental_uris":{"android":"levelo://app?vid=d9b0964f-876a-42a8-a2b5-8341c6af695d","ios":"levelo://app?vid=d9b0964f-876a-42a8-a2b5-8341c6af695d"},"vehicle_type_id":"4","last_reported":1750752913,"current_range_meters":14400,"station_id":"ce4bgv12rcd13ifvqcp0","pricing_plan_id":"cebpf4jnsgd1na2vs0mg"},{"bike_id":"c961ed78-744d-4209-9fd6-8e9c8b488c01","system_id":"levelo_inurba_marseille","lat":43.28418,"lon":5.34991,"is_reserved":false,"is_disabled":false,"rental_uris":{"android":"levelo://app?vid=c961ed78-744d-4209-9fd6-8e9c8b488c01","ios":"levelo://app?vid=c961ed78-744d-4209-9fd6-8e9c8b488c01"},"vehicle_type_id":"4","last_reported":1750752913,"current_range_meters":14400,"station_id":"ce4bhbh2rcd13ifvqepg","pricing_plan_id":"cebpf4jnsgd1na2vs0mg"},{"bike_id":"be044bbe-e11d-44a2-91cd-ec8782dbb9fd","system_id":"levelo_inurba_marseille","lat":43.28263,"lon":5.35059,"is_reserved":false,"is_disabled":false,"rental_uris":{"android":"levelo://app?vid=be044bbe-e11d-44a2-91cd-ec8782dbb9fd","ios":"levelo://app?vid=be044bbe-e11d-44a2-91cd-ec8782dbb9fd"},"vehicle_type_id":"4","last_reported":1750752913,"current_range_meters":14400,"station_id":"ce4bhbp2rcd13ifvqerg","pricing_plan_id":"cebpf4jnsgd1na2vs0mg"},{"bike_id":"f7a54ac4-9a89-4f24-aa11-1bbf0a3c1e58","system_id":"levelo_inurba_marseille","lat":43.258662,"lon":5.399052,"is_reserved":false,"is_disabled":false,"rental_uris":{"android":"levelo://app?vid=f7a54ac4-9a89-4f24-aa11-1bbf0a3c1e58","ios":"levelo://app?vid=f7a54ac4-9a89-4f24-aa11-1bbf0a3c1e58"},"vehicle_type_id":"4","last_reported":1750752913,"current_range_meters":14400,"station_id":"ce4bhl92rcd13ifvqghg","pricing_plan_id":"cebpf4jnsgd1na2vs0mg"},{"bike_id":"98c5a76b-133d-4c70-8e92-6bdccae4f6dc","system_id":"levelo_inurba_marseille","lat":43.25913,"lon":5.40903,"is_reserved":false,"is_disabled":false,"rental_uris":{"android":"levelo://app?vid=98c5a76b-133d-4c70-8e92-6bdccae4f6dc","ios":"levelo://app?vid=98c5a76b-133d-4c70-8e92-6bdccae4f6dc"},"vehicle_type_id":"4","last_reported":1750752913,"current_range_meters":14400,"station_id":"ce4bhm92rcd13ifvqglg","pricing_plan_id":"cebpf4jnsgd1na2vs0mg"},{"bike_id":"22ac3dc8-99b9-4c5b-9dca-0b08b9aefb6d","system_id":"levelo_inurba_marseille","lat":43.30411,"lon":5.38564,"is_reserved":false,"is_disabled":false,"rental_uris":{"android":"levelo://app?vid=22ac3dc8-99b9-4c5b-9dca-0b08b9aefb6d","ios":"levelo://app?vid=22ac3dc8-99b9-4c5b-9dca-0b08b9aefb6d"},"vehicle_type_id":"4","last_reported":1750752913,"current_range_meters":14400,"station_id":"ce4bhn92rcd13ifvqgrg","pricing_plan_id":"cebpf4jnsgd1na2vs0mg"},{"bike_id":"5bc624af-5810-481b-8c52-9b1b928d5fc3","system_id":"levelo_inurba_marseille","lat":43.28448,"lon":5.39206,"is_reserved":false,"is_disabled":false,"rental_uris":{"android":"levelo://app?vid=5bc624af-5810-481b-8c52-9b1b928d5fc3","ios":"levelo://app?vid=5bc624af-5810-481b-8c52-9b1b928d5fc3"},"vehicle_type_id":"4","last_reported":1750752913,"current_range_meters":14400,"station_id":"ce4bhoh2rcd13ifvqh5g","pricing_plan_id":"cebpf4jnsgd1na2vs0mg"},{"bike_id":"ff2e6b3f-7f50-4c45-93be-8b3f0719130f","system_id":"levelo_inurba_marseille","lat":43.31231,"lon":5.36871,"is_reserved":false,"is_disabled":false,"rental_uris":{"android":"levelo://app?vid=ff2e6b3f-7f50-4c45-93be-8b3f0719130f","ios":"levelo://app?vid=ff2e6b3f-7f50-4c45-93be-8b3f0719130f"},"vehicle_type_id":"4","last_reported":1750752913,"current_range_meters":14800,"station_id":"ce4bgl92rcd13ifvqbq0","pricing_plan_id":"cebpf4jnsgd1na2vs0mg"},{"bike_id":"48decd8b-e5a9-4c8a-93f5-61d71b90f148","system_id":"levelo_inurba_marseille","lat":43.26682,"lon":5.38257,"is_reserved":false,"is_disabled":false,"rental_uris":{"android":"levelo://app?vid=48decd8b-e5a9-4c8a-93f5-61d71b90f148","ios":"levelo://app?vid=48decd8b-e5a9-4c8a-93f5-61d71b90f148"},"vehicle_type_id":"4","last_reported":1750752913,"current_range_meters":14800,"station_id":"ce4bhg92rcd13ifvqf90","pricing_plan_id":"cebpf4jnsgd1na2vs0mg"},{"bike_id":"05feefc5-9a5b-4eb2-8fcd-8e22e54b8893","system_id":"levelo_inurba_marseille","lat":43.21189,"lon":5.35075,"is_reserved":false,"is_disabled":false,"rental_uris":{"android":"levelo://app?vid=05feefc5-9a5b-4eb2-8fcd-8e22e54b8893","ios":"levelo://app?vid=05feefc5-9a5b-4eb2-8fcd-8e22e54b8893"},"vehicle_type_id":"4","last_reported":1750752913,"current_range_meters":14800,"station_id":"st_cvj6sg6p6f1abm77japg","pricing_plan_id":"cebpf4jnsgd1na2vs0mg"},