{"last_updated":1730142444,"ttl":60,"version":"2.2","data":{"bikes":[{"bike_id":"21703174-b68d-4073-b01e-033ff258086b","system_id":"levelo_inurba_marseille","lat":43.279785,"lon":5.387457,"is_reserved":false,"is_disabled":false,"rental_uris":{"android":"levelo://app?vid=21703174-b68d-4073-b01e-033ff258086b","ios":"levelo://app?vid=21703174-b68d-4073-b01e-033ff258086b"},"vehicle_type_id":"4","last_reported":1730142444,"current_range_meters":38800,"station_id":"ce4bhg12rcd13ifvqf80","pricing_plan_id":"cebpf4jnsgd1na2vs0mg"},{"bike_id":"5b6da0fb-5d65-41eb-8aa7-edd3cba55e1e","system_id":"levelo_inurba_marseille","lat":43.30352,"lon":5.41881,"is_reserved":false,"is_disabled":false,"rental_uris":{"android":"levelo://app?vid=5b6da0fb-5d65-41eb-8aa7-edd3cba55e1e","ios":"levelo://app?vid=5b6da0fb-5d65-41eb-8aa7-edd3cba55e1e"},"vehicle_type_id":"4","last_reported":1730142444,"current_range_meters":6000,"station_id":"ce4bhop2rcd13ifvqh7g","pricing_plan_id":"cebpf4jnsgd1na2vs0mg"},{"bike_id":"9e4044e9-dd72-4f58-b85b-2423a1de6b75","system_id":"levelo_inurba_marseille","lat":43.271843,"lon":5.409993,"is_reserved":false,"is_disabled":false,"rental_uris":{"android":"levelo://app?vid=9e4044e9-dd72-4f58-b85b-2423a1de6b75","ios":"levelo://app?vid=9e4044e9-dd72-4f58-b85b-2423a1de6b75"},"vehicle_type_id":"4","last_reported":1730142444,"current_range_meters":10800,"station_id":"ce4bhl12rcd13ifvqgf0","pricing_plan_id":"cebpf4jnsgd1na2vs0mg"},{"bike_id":"4aebdb59-bbc7-456e-b060-33c91b8172d0","system_id":"levelo_inurba_marseille","lat":43.29911,"lon":5.38258,"is_reserved":false,"is_disabled":false,"rental_uris":{"android":"levelo://app?vid=4aebdb59-bbc7-456e-b060-33c91b8172d0","ios":"levelo://app?vid=4aebdb59-bbc7-456e-b060-33c91b8172d0"},"vehicle_type_id":"4","last_reported":1730142444,"current_range_meters":30000,"station_id":"","pricing_plan_id":"cebpf4jnsgd1na2vs0mg"},{"bike_id":"83f7db1f-5175-4f37-854b-cde355acc9c6","system_id":"levelo_inurba_marseille","lat":43.3228,"lon":5.38279,"is_reserved":false,"is_disabled":false,"rental_uris":{"android":"levelo://app?vid=83f7db1f-5175-4f37-854b-cde355acc9c6","ios":"levelo://app?vid=83f7db1f-5175-4f37-854b-cde355acc9c6"},"vehicle_type_id":"4","last_reported":1730142444,"current_range_meters":33200,"station_id":"ce4bhr12rcd13ifvqhqg","pricing_plan_id":"cebpf4jnsgd1na2vs0mg"},{"bike_id":"e4d1cd35-4221-4d90-8bf3-ff8059b8aeb1","system_id":"levelo_inurba_marseille","lat":43.3302,"lon":5.39045,"is_reserved":false,"is_disabled":false,"rental_uris":{"android":"levelo://app?vid=e4d1cd35-4221-4d90-8bf3-ff8059b8aeb1","ios":"levelo://app?vid=e4d1cd35-4221-4d90-8bf3-ff8059b8aeb1"},"vehicle_type_id":"4","last_reported":1730142444,"current_range_meters":24800,"station_id":"ce4bhr92rcd13ifvqhrg","pricing_plan_id":"cebpf4jnsgd1na2vs0mg"},{"bike_id":"a5b6a568-8ad5-427b-a790-d24b56179168","system_id":"levelo_inurba_marseille","lat":43.30588,"lon":5.39358,"is_reserved":false,"is_disabled":false,"rental_uris":{"android":"levelo://app?vid=a5b6a568-8ad5-427b-a790-d24b56179168","ios":"levelo://app?vid=a5b6a568-8ad5-427b-a790-d24b56179168"},"vehicle_type_id":"4","last_reported":1730142444,"current_range_meters":34800,"station_id":"ce4bh0p2rcd13ifvqd80","pricing_plan_id":"cebpf4jnsgd1na2vs0mg"},{"bike_id":"dba258ff-14b7-4d22-9c30-828b334021e9","system_id":"levelo_inurba_marseille","lat":43.29804,"lon":5.40408,"is_reserved":false,"is_disabled":false,"rental_uris":{"android":"levelo://app?vid=dba258ff-14b7-4d22-9c30-828b334021e9","ios":"levelo://app?vid=dba258ff-14b7-4d22-9c30-828b334021e9"},"vehicle_type_id":"4","last_reported":1730142444,"current_range_meters":39200,"station_id":"ce4bh112rcd13ifvqd90","pricing_plan_id":"cebpf4jnsgd1na2vs0mg"},{"bike_id":"d55c9e77-4a35-4dfb-8600-34e8d3a87e3b","system_id":"levelo_inurba_marseille","lat":43.30309,"lon":5.39209,"is_reserved":false,"is_disabled":false,"rental_uris":{"android":"levelo://app?vid=d55c9e77-4a35-4dfb-8600-34e8d3a87e3b","ios":"levelo://app?vid=d55c9e77-4a35-4dfb-8600-34e8d3a87e3b"},"vehicle_type_id":"4","last_reported":1730142444,"current_range_meters":33600,"station_id":"ce4bgkh2rcd13ifvqbk0","pricing_plan_id":"cebpf4jnsgd1na2vs0mg"},{"bike_id":"6218379d-346d-49e8-8a98-2ff5e2caa053","system_id":"levelo_inurba_marseille","lat":43.28614,"lon":5.35102,"is_reserved":false,"is_disabled":false,"rental_uris":{"android":"levelo://app?vid=6218379d-346d-49e8-8a98-2ff5e2caa053","ios":"levelo://app?vid=6218379d-346d-49e8-8a98-2ff5e2caa053"},"vehicle_type_id":"4","last_reported":1730142444,"current_range_meters":38800,"station_id":"ce4bhch2rcd13ifvqeug","pricing_plan_id":"cebpf4jnsgd1na2vs0mg"},{"bike_id":"41cc269b-2a6f-4882-97a4-3ee17581e23b","system_id":"levelo_inurba_marseille","lat":43.33023,"lon":5.39043,"is_reserved":false,"is_disabled":false,"rental_uris":{"android":"levelo://app?vid=41cc269b-2a6f-4882-97a4-3ee17581e23b","ios":"levelo://app?vid=41cc269b-2a6f-4882-97a4-3ee17581e23b"},"vehicle_type_id":"4","last_reported":1730142444,"current_range_meters":8000,"station_id":"ce4bhr92rcd13ifvqhrg","pricing_plan_id":"cebpf4jnsgd1na2vs0mg"},{"bike_id":"d7df649e-8ed2-480b-a05f-265d1242a675","system_id":"levelo_inurba_marseille","lat":43.29798,"lon":5.39345,"is_reserved":false,"is_disabled":false,"rental_uris":{"android":"levelo://app?vid=d7df649e-8ed2-480b-a05f-265d1242a675","ios":"levelo://app?vid=d7df649e-8ed2-480b-a05f-265d1242a675"},"vehicle_type_id":"4","last_reported":1730142444,"current_range_meters":13600,"station_id":"chh1huq6cuj3fo74tm60","pricing_plan_id":"cebpf4jnsgd1na2vs0mg"},{"bike_id":"e544d2a1-a367-4ddc-85eb-e0d7ed43b5cc","system_id":"levelo_inurba_marseille","lat":43.29197,"lon":5.39307,"is_reserved":false,"is_disabled":false,"rental_uris":{"android":"levelo://app?vid=e544d2a1-a367-4ddc-85eb-e0d7ed43b5cc","ios":"levelo://app?vid=e544d2a1-a367-4ddc-85eb-e0d7ed43b5cc"},"vehicle_type_id":"4","last_reported":1730142444,"current_range_meters":30800,"station_id":"ce4bh192rcd13ifvqdd0","pricing_plan_id":"cebpf4jnsgd1na2vs0mg"},{"bike_id":"d2ac1fc9-25ff-492d-8d29-5a0f34791c02","system_id":"levelo_inurba_marseille","lat":43.29581,"lon":5.38078,"is_reserved":false,"is_disabled":false,"rental_uris":{"android":"levelo://app?vid=d2ac1fc9-25ff-492d-8d29-5a0f34791c02","ios":"levelo://app?vid=d2ac1fc9-25ff-492d-8d29-5a0f34791c02"},"vehicle_type_id":"4","last_reported":1730142444,"current_range_meters":14800,"station_id":"ce4bgl12rcd13ifvqbo0","pricing_plan_id":"cebpf4jnsgd1na2vs0mg"},{"bike_id":"b1e16966-c3aa-45be-a67b-65a50dbd800a","system_id":"levelo_inurba_marseille","lat":43.27998,"lon":5.41657,"is_reserved":false,"is_disabled":false,"rental_uris":{"android":"levelo://app?vid=b1e16966-c3aa-45be-a67b-65a50dbd800a","ios":"levelo://app?vid=b1e16966-c3aa-45be-a67b-65a50dbd800a"},"vehicle_type_id":"4","last_reported":1730142444,"current_range_meters":6000,"station_id":"ce4bho12rcd13ifvqh1g","pricing_plan_id":"cebpf4jnsgd1na2vs0mg"},{"bike_id":"0415be9b-88d6-4d85-9d1e-3930b85f0223","system_id":"levelo_inurba_marseille","lat":43.3043,"lon":5.39763,"is_reserved":false,"is_disabled":false,"rental_uris":{"android":"levelo://app?vid=0415be9b-88d6-4d85-9d1e-3930b85f0223","ios":"levelo://app?vid=0415be9b-88d6-4d85-9d1e-3930b85f0223"},"vehicle_type_id":"4","last_reported":1730142444,"current_range_meters":38800,"station_id":"ce4bh092rcd13ifvqd20","pricing_plan_id":"cebpf4jnsgd1na2vs0mg"},{"bike_id":"8d191566-d8a6-44ba-bebe-2a9d6ff01fde","system_id":"levelo_inurba_marseille","lat":43.27239,"lon":5.387,"is_reserved":false,"is_disabled":false,"rental_uris":{"android":"levelo://app?vid=8d191566-d8a6-44ba-bebe-2a9d6ff01fde","ios":"levelo://app?vid=8d191566-d8a6-44ba-bebe-2a9d6ff01fde"},"vehicle_type_id":"4","last_reported":1730142444,"current_range_meters":27200,"station_id":"","pricing_plan_id":"cebpf4jnsgd1na2vs0mg"},{"bike_id":"91dec084-bb38-4da5-8771-160af9476950","system_id":"levelo_inurba_marseille","lat":43.28853,"lon":5.35849,"is_reserved":false,"is_disabled":false,"rental_uris":{"android":"levelo://app?vid=91dec084-bb38-4da5-8771-160af9476950","ios":"levelo://app?vid=91dec084-bb38-4da5-8771-160af9476950"},"vehicle_type_id":"4","last_reported":1730142444,"current_range_meters":14400,"station_id":"ce4bha92rcd13ifvqeh0","pricing_plan_id":"cebpf4jnsgd1na2vs0mg"},{"bike_id":"2bd35a6a-d0d2-457d-9f52-82502bc8add1","system_id":"levelo_inurba_marseille","lat":43.28656,"lon":5.3635,"is_reserved":false,"is_disabled":false,"rental_uris":{"android":"levelo://app?vid=2bd35a6a-d0d2-457d-9f52-82502bc8add1","ios":"levelo://app?vid=2bd35a6a-d0d2-457d-9f52-82502bc8add1"},"vehicle_type_id":"4","last_reported":1730142444,"current_range_meters":25600,"station_id":"ce4bhah2rcd13ifvqej0","pricing_plan_id":"cebpf4jnsgd1na2vs0mg"},{"bike_id":"611ceb36-aaba-4d75-8de4-83ef7c78d7f4","system_id":"levelo_inurba_marseille","lat":43.24386,"lon":5.37064,"is_reserved":false,"is_disabled":false,"rental_uris":{"android":"levelo://app?vid=611ceb36-aaba-4d75-8de4-83ef7c78d7f4","ios":"levelo://app?vid=611ceb36-aaba-4d75-8de4-83ef7c78d7f4"},"vehicle_type_id":"4","last_reported":1730142444,"current_range_meters":10800,"station_id":"ce4bhhh2rcd13ifvqfk0","pricing_plan_id":"cebpf4jnsgd1na2vs0mg"},{"bike_id":"f442b0cf-aa2d-407f-9034-2236eb8a37bf","system_id":"levelo_inurba_marseille","lat":43.304693,"lon":5.379116,"is_reserved":false,"is_disabled":false,"rental_uris":{"android":"levelo://app?vid=f442b0cf-aa2d-407f-9034-2236eb8a37bf","ios":"levelo://app?vid=f442b0cf-aa2d-407f-9034-2236eb8a37bf"},"vehicle_type_id":"4","last_reported":1730142444,"current_range_meters":14000,"station_id":"ce4bgup2rcd13ifvqcn0","pricing_plan_id":"cebpf4jnsgd1na2vs0mg"},{"bike_id":"57f116d6-2ee5-45cf-9ead-4e7daae35aa0","system_id":"levelo_inurba_marseille","lat":43.29254,"lon":5.38444,"is_reserved":false,"is_disabled":false,"rental_uris":{"android":"levelo://app?vid=57f116d6-2ee5-45cf-9ead-4e7daae35aa0","ios":"levelo://app?vid=57f116d6-2ee5-45cf-9ead-4e7daae35aa0"},"vehicle_type_id":"4","last_reported":1730142444,"current_range_meters":38800,"station_id":"ce4bh692rcd13ifvqea0","pricing_plan_id":"cebpf4jnsgd1na2vs0mg"},{"bike_id":"c4589ab5-bcbe-4008-b577-c015e773a1a8","system_id":"levelo_inurba_marseille","lat":43.32341,"lon":5.40614,"is_reserved":false,"is_disabled":false,"rental_uris":{"android":"levelo://app?vid=c4589ab5-bcbe-4008-b577-c015e773a1a8","ios":"levelo://app?vid=c4589ab5-bcbe-4008-b577-c015e773a1a8"},"vehicle_type_id":"4","last_reported":1730142444,"current_range_meters":20400,"station_id":"ce4bhq92rcd13ifvqhjg","pricing_plan_id":"cebpf4jnsgd1na2vs0mg"},{"bike_id":"559e0993-d3ec-4994-8a4d-edbc5593d328","system_id":"levelo_inurba_marseille","lat":43.22934,"lon":5.35378,"is_reserved":false,"is_disabled":false,"rental_uris":{"android":"levelo://app?vid=559e0993-d3ec-4994-8a4d-edbc5593d328","ios":"levelo://app?vid=559e0993-d3ec-4994-8a4d-edbc5593d328"},"vehicle_type_id":"4","last_reported":1730142444,"current_range_meters":4000,"station_id":"cpo3532slgdg3j2ikp40","pricing_plan_id":"cebpf4jnsgd1na2vs0mg"},{"bike_id":"9c5b07c0-3d6d-4bbd-9de2-f3ea24926a82","system_id":"levelo_inurba_marseille","lat":43.297856,"lon":5.393368,"is_reserved":false,"is_disabled":false,"rental_uris":{"android":"levelo://app?vid=9c5b07c0-3d6d-4bbd-9de2-f3ea24926a82","ios":"levelo://app?vid=9c5b07c0-3d6d-4bbd-9de2-f3ea24926a82"},"vehicle_type_id":"4","last_reported":1730142444,"current_range_meters":36000,"station_id":"chh1huq6cuj3fo74tm60","pricing_plan_id":"cebpf4jnsgd1na2vs0mg"},{"bike_id":"8154e18f-1c39-45e8-9a9e-44280c04660d","system_id":"levelo_inurba_marseille","lat":43.30783,"lon":5.37647,"is_reserved":false,"is_disabled":false,"rental_uris":{"android":"levelo://app?vid=8154e18f-1c39-45e8-9a9e-44280c04660d","ios":"levelo://app?vid=8154e18f-1c39-45e8-9a9e-44280c04660d"},"vehicle_type_id":"4","last_reported":1730142444,"current_range_meters":17600,"station_id":"ce4bgv92rcd13ifvqcq0","pricing_plan_id":"cebpf4jnsgd1na2vs0mg"},{"bike_id":"8ba2fca5-9471-490e-bc44-2bba6618a5e6","system_id":"levelo_inurba_marseille","lat":43.2784,"lon":5.39208,"is_reserved":false,"is_disabled":false,"rental_uris":{"android":"levelo://app?vid=8ba2fca5-9471-490e-bc44-2bba6618a5e6","ios":"levelo://app?vid=8ba2fca5-9471-490e-bc44-2bba6618a5e6"},"vehicle_type_id":"4","last_reported":1730142444,"current_range_meters":8400,"station_id":"ce4bhjp2rcd13ifvqga0","pricing_plan_id":"cebpf4jnsgd1na2vs0mg"},{"bike_id":"d1dacee6-8f47-4ca5-823b-a2ea6c3413e8","system_id":"levelo_inurba_marseille","lat":43.23195,"lon":5.35559,"is_reserved":false,"is_disabled":false,"rental_uris":{"android":"levelo://app?vid=d1dacee6-8f47-4ca5-823b-a2ea6c3413e8","ios":"levelo://app?vid=d1dacee6-8f47-4ca5-823b-a2ea6c3413e8"},"vehicle_type_id":"4","last_reported":1730142444,"current_range_meters":38800,"station_id":"ce4bhu92rcd13ifvqi70","pricing_plan_id":"cebpf4jnsgd1na2vs0mg"},{"bike_id":"7a608df9-d38c-4539-9618-def54653a395","system_id":"levelo_inurba_marseille","lat":43.2978,"lon":5.37112,"is_reserved":false,"is_disabled":false,"rental_uris":{"android":"levelo://app?vid=7a608df9-d38c-4539-9618-def54653a395","ios":"levelo://app?vid=7a608df9-d38c-4539-9618-def54653a395"},"vehicle_type_id":"4","last_reported":1730142444,"current_range_meters":34000,"station_id":"ce4bgop2rcd13ifvqc1g","pricing_plan_id":"cebpf4jnsgd1na2vs0mg"},{"bike_id":"97c61ba7-a09d-4cba-8027-b654cf50d5c2","system_id":"levelo_inurba_marseille","lat":43.29804,"lon":5.40403,"is_reserved":false,"is_disabled":false,"rental_uris":{"android":"levelo://app?vid=97c61ba7-a09d-4cba-8027-b654cf50d5c2","ios":"levelo://app?vid=97c61ba7-a09d-4cba-8027-b654cf50d5c2"},"vehicle_type_id":"4","last_reported":1730142444,"current_range_meters":39200,"station_id":"ce4bh112rcd13ifvqd90","pricing_plan_id":"cebpf4jnsgd1na2vs0mg"},{"bike_id":"20aaaa67-2f82-4fdb-aaed-8054a72878bc","system_id":"levelo_inurba_marseille","lat":43.29044,"lon":5.38649,"is_reserved":false,"is_disabled":false,"rental_uris":{"android":"levelo://app?vid=20aaaa67-2f82-4fdb-aaed-8054a72878bc","ios":"levelo://app?vid=20aaaa67-2f82-4fdb-aaed-8054a72878bc"},"vehicle_type_id":"4","last_reported":1730142444,"current_range_meters":7200,"station_id":"ce4bh4p2rcd13ifvqe0g","pricing_plan_id":"cebpf4jnsgd1na2vs0mg"},{"bike_id":"ff4fa59f-df4e-4303-83f9-bad00f804abe","system_id":"levelo_inurba_marseille","lat":43.28414,"lon":5.37509,"is_reserved":false,"is_disabled":false,"rental_uris":{"android":"levelo://app?vid=ff4fa59f-df4e-4303-83f9-bad00f804abe","ios":"levelo://app?vid=ff4fa59f-df4e-4303-83f9-bad00f804abe"},"vehicle_type_id":"4","last_reported":1730142444,"current_range_meters":12400,"station_id":"ce4bh412rcd13ifvqds0","pricing_plan_id":"cebpf4jnsgd1na2vs0mg"},{"bike_id":"d098c645-6e8b-4145-bb29-e7a488f72916","system_id":"levelo_inurba_marseille","lat":43.28667,"lon":5.36347,"is_reserved":false,"is_disabled":false,"rental_uris":{"android":"levelo://app?vid=d098c645-6e8b-4145-bb29-e7a488f72916","ios":"levelo://app?vid=d098c645-6e8b-4145-bb29-e7a488f72916"},"vehicle_type_id":"4","last_reported":1730142444,"current_range_meters":10000,"station_id":"ce4bhah2rcd13ifvqej0","pricing_plan_id":"cebpf4jnsgd1na2vs0mg"},{"bike_id":"c16b6332-9e31-4663-9e0a-0812dfb800e1","system_id":"levelo_inurba_marseille","lat":43.30428,"lon":5.38899,"is_reserved":false,"is_disabled":false,"rental_uris":{"android":"levelo://app?vid=c16b6332-9e31-4663-9e0a-0812dfb800e1","ios":"levelo://app?vid=c16b6332-9e31-4663-9e0a-0812dfb800e1"},"vehicle_type_id":"4","last_reported":1730142444,"current_range_meters":3600,"station_id":"ce4bgk12rcd13ifvqbi0","pricing_plan_id":"cebpf4jnsgd1na2vs0mg"},{"bike_id":"e7cda502-d90a-4e92-a0b0-4996a0d5b4e5","system_id":"levelo_inurba_marseille","lat":43.28926,"lon":5.38389,"is_reserved":false,"is_disabled":false,"rental_uris":{"android":"levelo://app?vid=e7cda502-d90a-4e92-a0b0-4996a0d5b4e5","ios":"levelo://app?vid=e7cda502-d90a-4e92-a0b0-4996a0d5b4e5"},"vehicle_type_id":"4","last_reported":1730142444,"current_range_meters":8400,"station_id":"ce4bh612rcd13ifvqe6g","pricing_plan_id":"cebpf4jnsgd1na2vs0mg"},{"bike_id":"2e1fce0a-3004-44e6-a8a7-230939b2ccd9","system_id":"levelo_inurba_marseille","lat":43.27071,"lon":5.42283,"is_reserved":false,"is_disabled":false,"rental_uris":{"android":"levelo://app?vid=2e1fce0a-3004-44e6-a8a7-230939b2ccd9","ios":"levelo://app?vid=2e1fce0a-3004-44e6-a8a7-230939b2ccd9"},"vehicle_type_id":"4","last_reported":1730142444,"current_range_meters":3200,"station_id":"ce4bh0h2rcd13ifvqd40","pricing_plan_id":"cebpf4jnsgd1na2vs0mg"},{"bike_id":"24144648-962c-46c1-934d-8a4138ea4d9a","system_id":"levelo_inurba_marseille","lat":43.3117,"lon":5.38718,"is_reserved":false,"is_disabled":false,"rental_uris":{"android":"levelo://app?vid=24144648-962c-46c1-934d-8a4138ea4d9a","ios":"levelo://app?vid=24144648-962c-46c1-934d-8a4138ea4d9a"},"vehicle_type_id":"4","last_reported":1730142444,"current_range_meters":24800,"station_id":"ce4bgv12rcd13ifvqcp0","pricing_plan_id":"cebpf4jnsgd1na2vs0mg"},{"bike_id":"59b2dd1b-b660-42a3-a43d-8e6aed7f2663","system_id":"levelo_inurba_marseille","lat":43.29257,"lon":5.38441,"is_reserved":false,"is_disabled":false,"rental_uris":{"android":"levelo://app?vid=59b2dd1b-b660-42a3-a43d-8e6aed7f2663","ios":"levelo://app?vid=59b2dd1b-b660-42a3-a43d-8e6aed7f2663"},"vehicle_type_id":"4","last_reported":1730142444,"current_range_meters":16800,"station_id":"ce4bh692rcd13ifvqea0","pricing_plan_id":"cebpf4jnsgd1na2vs0mg"},{"bike_id":"22eaac0f-d69c-4ebf-a829-b644bb798f9c","system_id":"levelo_inurba_marseille","lat":43.23963,"lon":5.36646,"is_reserved":false,"is_disabled":false,"rental_uris":{"android":"levelo://app?vid=22eaac0f-d69c-4ebf-a829-b644bb798f9c","ios":"levelo://app?vid=22eaac0f-d69c-4ebf-a829-b644bb798f9c"},"vehicle_type_id":"4","last_reported":1730142444,"current_range_meters":8400,"station_id":"ce4bhi12rcd13ifvqfp0","pricing_plan_id":"cebpf4jnsgd1na2vs0mg"},{"bike_id":"44b2f53a-49a0-4d6b-aef9-231f1c033683","system_id":"levelo_inurba_marseille","lat":43.30596,"lon":5.3723,"is_reserved":false,"is_disabled":false,"rental_uris":{"android":"levelo://app?vid=44b2f53a-49a0-4d6b-aef9-231f1c033683","ios":"levelo://app?vid=44b2f53a-49a0-4d6b-aef9-231f1c033683"},"vehicle_type_id":"4","last_reported":1730142444,"current_range_meters":14800,"station_id":"ce4bgqh2rcd13ifvqc4g","pricing_plan_id":"cebpf4jnsgd1na2vs0mg"},{"bike_id":"edee228c-76f1-4f9d-b4f7-5773b8a0b850","system_id":"levelo_inurba_marseille","lat":43.23193,"lon":5.35552,"is_reserved":false,"is_disabled":false,"rental_uris":{"android":"levelo://app?vid=edee228c-76f1-4f9d-b4f7-5773b8a0b850","ios":"levelo://app?vid=edee228c-76f1-4f9d-b4f7-5773b8a0b850"},"vehicle_type_id":"4","last_reported":1730142444,"current_range_meters":24000,"station_id":"ce4bhu92rcd13ifvqi70","pricing_plan_id":"cebpf4jnsgd1na2vs0mg"},{"bike_id":"00d6e38b-a4c2-4553-823f-8faf7996fb52","system_id":"levelo_inurba_marseille","lat":43.29331,"lon":5.37689,"is_reserved":false,"is_disabled":false,"rental_uris":{"android":"levelo://app?vid=00d6e38b-a4c2-4553-823f-8faf7996fb52","ios":"levelo://app?vid=00d6e38b-a4c2-4553-823f-8faf7996fb52"},"vehicle_type_id":"4","last_reported":1730142444,"current_range_meters":8400,"station_id":"ce4bgi92rcd13ifvqb90","pricing_plan_id":"cebpf4jnsgd1na2vs0mg"},{"bike_id":"27a3bee1-4ace-4ffd-b4ef-7e7fd88242e2","system_id":"levelo_inurba_marseille","lat":43.31111,"lon":5.37771,"is_reserved":false,"is_disabled":false,"rental_uris":{"android":"levelo://app?vid=27a3bee1-4ace-4ffd-b4ef-7e7fd88242e2","ios":"levelo://app?vid=27a3bee1-4ace-4ffd-b4ef-7e7fd88242e2"},"vehicle_type_id":"4","last_reported":1730142444,"current_range_meters":36800,"station_id":"ce4bgt92rcd13ifvqcg0","pricing_plan_id":"cebpf4jnsgd1na2vs0mg"},{"bike_id":"ebe0eeeb-8a09-4022-9b28-e1dd47503425","system_id":"levelo_inurba_marseille","lat":43.29194,"lon":5.39336,"is_reserved":false,"is_disabled":false,"rental_uris":{"android":"levelo://app?vid=ebe0eeeb-8a09-4022-9b28-e1dd47503425","ios":"levelo://app?vid=ebe0eeeb-8a09-4022-9b28-e1dd47503425"},"vehicle_type_id":"4","last_reported":1730142444,"current_range_meters":4000,"station_id":"ce4bh192rcd13ifvqdd0","pricing_plan_id":"cebpf4jnsgd1na2vs0mg"},{"bike_id":"cc4f48bc-1ebf-481e-a42a-ef03c2092f7c","system_id":"levelo_inurba_marseille","lat":43.279128,"lon":5.380242,"is_reserved":false,"is_disabled":false,"rental_uris":{"android":"levelo://app?vid=cc4f48bc-1ebf-481e-a42a-ef03c2092f7c","ios":"levelo://app?vid=cc4f48bc-1ebf-481e-a42a-ef03c2092f7c"},"vehicle_type_id":"4","last_reported":1730142444,"current_range_meters":22400,"station_id":"ce4bhf92rcd13ifvqf50","pricing_plan_id":"cebpf4jnsgd1na2vs0mg"},{"bike_id":"8dc16d0a-6108-45a3-84a3-87d1dc18cadf","system_id":"levelo_inurba_marseille","lat":43.29091,"lon":5.38136,"is_reserved":false,"is_disabled":false,"rental_uris":{"android":"levelo://app?vid=8dc16d0a-6108-45a3-84a3-87d1dc18cadf","ios":"levelo://app?vid=8dc16d0a-6108-45a3-84a3-87d1dc18cadf"},"vehicle_type_id":"4","last_reported":1730142444,"current_range_meters":11200,"station_id":"ce4bh512rcd13ifvqe2g","pricing_plan_id":"cebpf4jnsgd1na2vs0mg"},{"bike_id":"2f921f60-1890-404a-898c-6dae28d2ff64","system_id":"levelo_inurba_marseille","lat":43.32108,"lon":5.36779,"is_reserved":false,"is_disabled":false,"rental_uris":{"android":"levelo://app?vid=2f921f60-1890-404a-898c-6dae28d2ff64","ios":"levelo://app?vid=2f921f60-1890-404a-898c-6dae28d2ff64"},"vehicle_type_id":"4","last_reported":1730142444,"current_range_meters":38800,"station_id":"ce4bhrh2rcd13ifvqhug","pricing_plan_id":"cebpf4jnsgd1na2vs0mg"},{"bike_id":"e4b5c7c4-a37f-4a0f-ba5b-b290a8f3951e","system_id":"levelo_inurba_marseille","lat":43.27908,"lon":5.37997,"is_reserved":false,"is_disabled":false,"rental_uris":{"android":"levelo://app?vid=e4b5c7c4-a37f-4a0f-ba5b-b290a8f3951e","ios":"levelo://app?vid=e4b5c7c4-a37f-4a0f-ba5b-b290a8f3951e"},"vehicle_type_id":"4","last_reported":1730142444,"current_range_meters":1200,"station_id":"ce4bhf92rcd13ifvqf50","pricing_plan_id":"cebpf4jnsgd1na2vs0mg"},{"bike_id":"9989b398-ea1f-43b4-92f6-cb3a0e8d8247","system_id":"levelo_inurba_marseille","lat":43.31332,"lon":5.39698,"is_reserved":false,"is_disabled":false,"rental_uris":{"android":"levelo://app?vid=9989b398-ea1f-43b4-92f6-cb3a0e8d8247","ios":"levelo://app?vid=9989b398-ea1f-43b4-92f6-cb3a0e8d8247"},"vehicle_type_id":"4","last_reported":1730142444,"current_range_meters":38800,"station_id":"ce4bgvp2rcd13ifvqcu0","pricing_plan_id":"cebpf4jnsgd1na2vs0mg"},{"bike_id":"f317e473-e411-4b39-90b0-bf18546cc65b","system_id":"levelo_inurba_marseille","lat":43.309,"lon":5.37174,"is_reserved":false,"is_disabled":false,"rental_uris":{"android":"levelo://app?vid=f317e473-e411-4b39-90b0-bf18546cc65b","ios":"levelo://app?vid=f317e473-e411-4b39-90b0-bf18546cc65b"},"vehicle_type_id":"4","last_reported":1730142444,"current_range_meters":9200,"station_id":"ce4bguh2rcd13ifvqckg","pricing_plan_id":"cebpf4jnsgd1na2vs0mg"},{"bike_id":"84bc3b91-5cb9-4da4-9bfb-d3d528c91170","system_id":"levelo_inurba_marseille","lat":43.31701,"lon":5.37728,"is_reserved":false,"is_disabled":false,"rental_uris":{"android":"levelo://app?vid=84bc3b91-5cb9-4da4-9bfb-d3d528c91170","ios":"levelo://app?vid=84bc3b91-5cb9-4da4-9bfb-d3d528c91170"},"vehicle_type_id":"4","last_reported":1730142444,"current_range_meters":38800,"station_id":"ce4bgth2rcd13ifvqch0","pricing_plan_id":"cebpf4jnsgd1na2vs0mg"},{"bike_id":"cd8988cf-34e0-4cd8-92c1-67d3cd8c964e","system_id":"levelo_inurba_marseille","lat":43.23961,"lon":5.36628,"is_reserved":false,"is_disabled":false,"rental_uris":{"android":"levelo://app?vid=cd8988cf-34e0-4cd8-92c1-67d3cd8c964e","ios":"levelo://app?vid=cd8988cf-34e0-4cd8-92c1-67d3cd8c964e"},"vehicle_type_id":"4","last_reported":1730142444,"current_range_meters":9600,"station_id":"ce4bhi12rcd13ifvqfp0","pricing_plan_id":"cebpf4jnsgd1na2vs0mg"},{"bike_id":"58750843-dc43-4f10-8f78-8975e20a15ef","system_id":"levelo_inurba_marseille","lat":43.27183,"lon":5.4099,"is_reserved":false,"is_disabled":false,"rental_uris":{"android":"levelo://app?vid=58750843-dc43-4f10-8f78-8975e20a15ef","ios":"levelo://app?vid=58750843-dc43-4f10-8f78-8975e20a15ef"},"vehicle_type_id":"4","last_reported":1730142444,"current_range_meters":3600,"station_id":"ce4bhl12rcd13ifvqgf0","pricing_plan_id":"cebpf4jnsgd1na2vs0mg"},{"bike_id":"829b23d3-e634-4969-80ac-99f26bc6d5d6","system_id":"levelo_inurba_marseille","lat":43.29442,"lon":5.39749,"is_reserved":false,"is_disabled":false,"rental_uris":{"android":"levelo://app?vid=829b23d3-e634-4969-80ac-99f26bc6d5d6","ios":"levelo://app?vid=829b23d3-e634-4969-80ac-99f26bc6d5d6"},"vehicle_type_id":"4","last_reported":1730142444,"current_range_meters":33200,"station_id":"ce4bh3h2rcd13ifvqdo0","pricing_plan_id":"cebpf4jnsgd1na2vs0mg"},{"bike_id":"f01ef421-a5d6-47be-9be9-d36938802df2","system_id":"levelo_inurba_marseille","lat":43.28855,"lon":5.3932,"is_reserved":false,"is_disabled":false,"rental_uris":{"android":"levelo://app?vid=f01ef421-a5d6-47be-9be9-d36938802df2","ios":"levelo://app?vid=f01ef421-a5d6-47be-9be9-d36938802df2"},"vehicle_type_id":"4","last_reported":1730142444,"current_range_meters":6000,"station_id":"ce4bh2p2rcd13ifvqdi0","pricing_plan_id":"cebpf4jnsgd1na2vs0mg"},{"bike_id":"df61b96c-b629-4fb1-8a4b-d3354e3de566","system_id":"levelo_inurba_marseille","lat":43.2828,"lon":5.35074,"is_reserved":false,"is_disabled":false,"rental_uris":{"android":"levelo://app?vid=df61b96c-b629-4fb1-8a4b-d3354e3de566","ios":"levelo://app?vid=df61b96c-b629-4fb1-8a4b-d3354e3de566"},"vehicle_type_id":"4","last_reported":1730142444,"current_range_meters":38800,"station_id":"ce4bhbp2rcd13ifvqerg","pricing_plan_id":"cebpf4jnsgd1na2vs0mg"},{"bike_id":"cdb47324-5f09-417b-9c69-253828aede39","system_id":"levelo_inurba_marseille","lat":43.30324,"lon":5.40441,"is_reserved":false,"is_disabled":false,"rental_uris":{"android":"levelo://app?vid=cdb47324-5f09-417b-9c69-253828aede39","ios":"levelo://app?vid=cdb47324-5f09-417b-9c69-253828aede39"},"vehicle_type_id":"4","last_reported":1730142444,"current_range_meters":38800,"station_id":"ce4bh012rcd13ifvqd10","pricing_plan_id":"cebpf4jnsgd1na2vs0mg"},{"bike_id":"fe0f4ad9-8221-48ed-be5d-c64547a2f47a","system_id":"levelo_inurba_marseille","lat":43.28633,"lon":5.3835,"is_reserved":false,"is_disabled":false,"rental_uris":{"android":"levelo://app?vid=fe0f4ad9-8221-48ed-be5d-c64547a2f47a","ios":"levelo://app?vid=fe0f4ad9-8221-48ed-be5d-c64547a2f47a"},"vehicle_type_id":"4","last_reported":1730142444,"current_range_meters":20000,"station_id":"ce4bh4p2rcd13ifvqe1g","pricing_plan_id":"cebpf4jnsgd1na2vs0mg"},{"bike_id":"874cf7cd-35e4-40b8-9bd0-202ef026488c","system_id":"levelo_inurba_marseille","lat":43.30647,"lon":5.40102,"is_reserved":false,"is_disabled":false,"rental_uris":{"android":"levelo://app?vid=874cf7cd-35e4-40b8-9bd0-202ef026488c","ios":"levelo://app?vid=874cf7cd-35e4-40b8-9bd0-202ef026488c"},"vehicle_type_id":"4","last_reported":1730142444,"current_range_meters":22400,"station_id":"ce4bh112rcd13ifvqda0","pricing_plan_id":"cebpf4jnsgd1na2vs0mg"},{"bike_id":"a846678d-cd93-4890-9fdc-977c67090280","system_id":"levelo_inurba_marseille","lat":43.2841,"lon":5.37507,"is_reserved":false,"is_disabled":false,"rental_uris":{"android":"levelo://app?vid=a846678d-cd93-4890-9fdc-977c67090280","ios":"levelo://app?vid=a846678d-cd93-4890-9fdc-977c67090280"},"vehicle_type_id":"4","last_reported":1730142444,"current_range_meters":35200,"station_id":"ce4bh412rcd13ifvqds0","pricing_plan_id":"cebpf4jnsgd1na2vs0mg"},{"bike_id":"d4188e16-8406-4b53-aa64-16ff21bddc18","system_id":"levelo_inurba_marseille","lat":43.27561,"lon":5.38417,"is_reserved":false,"is_disabled":false,"rental_uris":{"android":"levelo://app?vid=d4188e16-8406-4b53-aa64-16ff21bddc18","ios":"levelo://app?vid=d4188e16-8406-4b53-aa64-16ff21bddc18"},"vehicle_type_id":"4","last_reported":1730142444,"current_range_meters":38800,"station_id":"ce4bhh92rcd13ifvqfi0","pricing_plan_id":"cebpf4jnsgd1na2vs0mg"},{"bike_id":"c103f3cf-a699-4d79-9cc1-df1ab22121e9","system_id":"levelo_inurba_marseille","lat":43.28654,"lon":5.3635,"is_reserved":false,"is_disabled":false,"rental_uris":{"android":"levelo://app?vid=c103f3cf-a699-4d79-9cc1-df1ab22121e9","ios":"levelo://app?vid=c103f3cf-a699-4d79-9cc1-df1ab22121e9"},"vehicle_type_id":"4","last_reported":1730142444,"current_range_meters":36400,"station_id":"ce4bhah2rcd13ifvqej0","pricing_plan_id":"cebpf4jnsgd1na2vs0mg"},{"bike_id":"21b0d405-022c-4046-9483-b0c711fb60b5","system_id":"levelo_inurba_marseille","lat":43.29554,"lon":5.42293,"is_reserved":false,"is_disabled":false,"rental_uris":{"android":"levelo://app?vid=21b0d405-022c-4046-9483-b0c711fb60b5","ios":"levelo://app?vid=21b0d405-022c-4046-9483-b0c711fb60b5"},"vehicle_type_id":"4","last_reported":1730142444,"current_range_meters":39200,"station_id":"ce4bhph2rcd13ifvqhdg","pricing_plan_id":"cebpf4jnsgd1na2vs0mg"},{"bike_id":"5e85322d-4012-4b69-83e1-6a863ca66319","system_id":"levelo_inurba_marseille","lat":43.2797,"lon":5.38735,"is_reserved":false,"is_disabled":false,"rental_uris":{"android":"levelo://app?vid=5e85322d-4012-4b69-83e1-6a863ca66319","ios":"levelo://app?vid=5e85322d-4012-4b69-83e1-6a863ca66319"},"vehicle_type_id":"4","last_reported":1730142444,"current_range_meters":27200,"station_id":"ce4bhg12rcd13ifvqf80","pricing_plan_id":"cebpf4jnsgd1na2vs0mg"},{"bike_id":"af8e4aee-b9ec-4afd-8d36-160e39221522","system_id":"levelo_inurba_marseille","lat":43.29617,"lon":5.37727,"is_reserved":false,"is_disabled":false,"rental_uris":{"android":"levelo://app?vid=af8e4aee-b9ec-4afd-8d36-160e39221522","ios":"levelo://app?vid=af8e4aee-b9ec-4afd-8d36-160e39221522"},"vehicle_type_id":"4","last_reported":1730142444,"current_range_meters":37600,"station_id":"ce4bgi92rcd13ifvqb90","pricing_plan_id":"cebpf4jnsgd1na2vs0mg"},{"bike_id":"79609b51-a065-4d06-b8d1-eebcccc359b5","system_id":"levelo_inurba_marseille","lat":43.30524,"lon":5.36716,"is_reserved":false,"is_disabled":false,"rental_uris":{"android":"levelo://app?vid=79609b51-a065-4d06-b8d1-eebcccc359b5","ios":"levelo://app?vid=79609b51-a065-4d06-b8d1-eebcccc359b5"},"vehicle_type_id":"4","last_reported":1730142444,"current_range_meters":17600,"station_id":"ce4bgrp2rcd13ifvqc9g","pricing_plan_id":"cebpf4jnsgd1na2vs0mg"},{"bike_id":"e113f747-4daa-44f7-a218-9e030daa2565","system_id":"levelo_inurba_marseille","lat":43.32105,"lon":5.36779,"is_reserved":false,"is_disabled":false,"rental_uris":{"android":"levelo://app?vid=e113f747-4daa-44f7-a218-9e030daa2565","ios":"levelo://app?vid=e113f747-4daa-44f7-a218-9e030daa2565"},"vehicle_type_id":"4","last_reported":1730142444,"current_range_meters":19600,"station_id":"ce4bhrh2rcd13ifvqhug","pricing_plan_id":"cebpf4jnsgd1na2vs0mg"},{"bike_id":"66e28388-948c-4989-b2c4-2a01d249c29c","system_id":"levelo_inurba_marseille","lat":43.29535,"lon":5.38544,"is_reserved":false,"is_disabled":false,"rental_uris":{"android":"levelo://app?vid=66e28388-948c-4989-b2c4-2a01d249c29c","ios":"levelo://app?vid=66e28388-948c-4989-b2c4-2a01d249c29c"},"vehicle_type_id":"4","last_reported":1730142444,"current_range_meters":21600,"station_id":"ce4bgih2rcd13ifvqba0","pricing_plan_id":"cebpf4jnsgd1na2vs0mg"},{"bike_id":"c83bf92a-895e-4031-90cc-0a4806604b3f","system_id":"levelo_inurba_marseille","lat":43.23054,"lon":5.35491,"is_reserved":false,"is_disabled":false,"rental_uris":{"android":"levelo://app?vid=c83bf92a-895e-4031-90cc-0a4806604b3f","ios":"levelo://app?vid=c83bf92a-895e-4031-90cc-0a4806604b3f"},"vehicle_type_id":"4","last_reported":1730142444,"current_range_meters":36400,"station_id":"cpo3342slgdg3j2ifvpg","pricing_plan_id":"cebpf4jnsgd1na2vs0mg"},{"bike_id":"888296a8-ebef-44a6-aee3-777a3fd858ca","system_id":"levelo_inurba_marseille","lat":43.25111,"lon":5.40324,"is_reserved":false,"is_disabled":false,"rental_uris":{"android":"levelo://app?vid=888296a8-ebef-44a6-aee3-777a3fd858ca","ios":"levelo://app?vid=888296a8-ebef-44a6-aee3-777a3fd858ca"},"vehicle_type_id":"4","last_reported":1730142444,"current_range_meters":16800,"station_id":"ce4bhlh2rcd13ifvqgig","pricing_plan_id":"cebpf4jnsgd1na2vs0mg"},{"bike_id":"3f4e9f7d-d364-447b-b7a3-5938ab5df8c4","system_id":"levelo_inurba_marseille","lat":43.3248,"lon":5.36569,"is_reserved":false,"is_disabled":false,"rental_uris":{"android":"levelo://app?vid=3f4e9f7d-d364-447b-b7a3-5938ab5df8c4","ios":"levelo://app?vid=3f4e9f7d-d364-447b-b7a3-5938ab5df8c4"},"vehicle_type_id":"4","last_reported":1730142444,"current_range_meters":16800,"station_id":"ce4bhs12rcd13ifvqhvg","pricing_plan_id":"cebpf4jnsgd1na2vs0mg"},{"bike_id":"9fd56fad-5f3d-42b4-b491-7b57b76bc0cf","system_id":"levelo_inurba_marseille","lat":43.27817,"lon":5.4072,"is_reserved":false,"is_disabled":false,"rental_uris":{"android":"levelo://app?vid=9fd56fad-5f3d-42b4-b491-7b57b76bc0cf","ios":"levelo://app?vid=9fd56fad-5f3d-42b4-b491-7b57b76bc0cf"},"vehicle_type_id":"4","last_reported":1730142444,"current_range_meters":15200,"station_id":"ce4bhnh2rcd13ifvqgtg","pricing_plan_id":"cebpf4jnsgd1na2vs0mg"},{"bike_id":"8bfee190-61d2-4f92-b1a1-1cacff6f3b15","system_id":"levelo_inurba_marseille","lat":43.24185,"lon":5.39731,"is_reserved":false,"is_disabled":false,"rental_uris":{"android":"levelo://app?vid=8bfee190-61d2-4f92-b1a1-1cacff6f3b15","ios":"levelo://app?vid=8bfee190-61d2-4f92-b1a1-1cacff6f3b15"},"vehicle_type_id":"4","last_reported":1730142444,"current_range_meters":29600,"station_id":"ce4bhn12rcd13ifvqgpg","pricing_plan_id":"cebpf4jnsgd1na2vs0mg"},{"bike_id":"ea9a4f01-9797-436c-bdf8-71f23d4bac17","system_id":"levelo_inurba_marseille","lat":43.306674,"lon":5.400601,"is_reserved":false,"is_disabled":false,"rental_uris":{"android":"levelo://app?vid=ea9a4f01-9797-436c-bdf8-71f23d4bac17","ios":"levelo://app?vid=ea9a4f01-9797-436c-bdf8-71f23d4bac17"},"vehicle_type_id":"4","last_reported":1730142444,"current_range_meters":16800,"station_id":"ce4bh112rcd13ifvqda0","pricing_plan_id":"cebpf4jnsgd1na2vs0mg"},{"bike_id":"817841de-45b8-450f-a0c6-5a2991569958","system_id":"levelo_inurba_marseille","lat":43.28926,"lon":5.36405,"is_reserved":false,"is_disabled":false,"rental_uris":{"android":"levelo://app?vid=817841de-45b8-450f-a0c6-5a2991569958","ios":"levelo://app?vid=817841de-45b8-450f-a0c6-5a2991569958"},"vehicle_type_id":"4","last_reported":1730142444,"current_range_meters":33200,"station_id":"ce4bhc92rcd13ifvqetg","pricing_plan_id":"cebpf4jnsgd1na2vs0mg"},{"bike_id":"6b249044-491c-41f7-8de1-e88f243e176c","system_id":"levelo_inurba_marseille","lat":43.27842,"lon":5.39208,"is_reserved":false,"is_disabled":false,"rental_uris":{"android":"levelo://app?vid=6b249044-491c-41f7-8de1-e88f243e176c","ios":"levelo://app?vid=6b249044-491c-41f7-8de1-e88f243e176c"},"vehicle_type_id":"4","last_reported":1730142444,"current_range_meters":7200,"station_id":"ce4bhjp2rcd13ifvqga0","pricing_plan_id":"cebpf4jnsgd1na2vs0mg"},{"bike_id":"0ec3a7cf-929f-4346-aee3-4aeb1022d5f0","system_id":"levelo_inurba_marseille","lat":43.28412,"lon":5.37512,"is_reserved":false,"is_disabled":false,"rental_uris":{"android":"levelo://app?vid=0ec3a7cf-929f-4346-aee3-4aeb1022d5f0","ios":"levelo://app?vid=0ec3a7cf-929f-4346-aee3-4aeb1022d5f0"},"vehicle_type_id":"4","last_reported":1730142444,"current_range_meters":25200,"station_id":"ce4bh412rcd13ifvqds0","pricing_plan_id":"cebpf4jnsgd1na2vs0mg"},{"bike_id":"d02854e0-ae39-49e8-bde0-60f3ac2caf3f","system_id":"levelo_inurba_marseille","lat":43.30206,"lon":5.39462,"is_reserved":false,"is_disabled":false,"rental_uris":{"android":"levelo://app?vid=d02854e0-ae39-49e8-bde0-60f3ac2caf3f","ios":"levelo://app?vid=d02854e0-ae39-49e8-bde0-60f3ac2caf3f"},"vehicle_type_id":"4","last_reported":1730142444,"current_range_meters":12400,"station_id":"ce4bh0p2rcd13ifvqd70","pricing_plan_id":"cebpf4jnsgd1na2vs0mg"},{"bike_id":"4d66afb4-54af-4867-a686-241e6de1cbbd","system_id":"levelo_inurba_marseille","lat":43.32546,"lon":5.41439,"is_reserved":false,"is_disabled":false,"rental_uris":{"android":"levelo://app?vid=4d66afb4-54af-4867-a686-241e6de1cbbd","ios":"levelo://app?vid=4d66afb4-54af-4867-a686-241e6de1cbbd"},"vehicle_type_id":"4","last_reported":1730142444,"current_range_meters":36800,"station_id":"ce4bhq12rcd13ifvqhhg","pricing_plan_id":"cebpf4jnsgd1na2vs0mg"},{"bike_id":"45eaf231-2671-4086-8d1f-485423372edf","system_id":"levelo_inurba_marseille","lat":43.3091,"lon":5.3685,"is_reserved":false,"is_disabled":false,"rental_uris":{"android":"levelo://app?vid=45eaf231-2671-4086-8d1f-485423372edf","ios":"levelo://app?vid=45eaf231-2671-4086-8d1f-485423372edf"},"vehicle_type_id":"4","last_reported":1730142444,"current_range_meters":26800,"station_id":"ce4bgn92rcd13ifvqbvg","pricing_plan_id":"cebpf4jnsgd1na2vs0mg"},{"bike_id":"35801575-7069-4945-a5e0-e6d02da6bd00","system_id":"levelo_inurba_marseille","lat":43.28459,"lon":5.3589,"is_reserved":false,"is_disabled":false,"rental_uris":{"android":"levelo://app?vid=35801575-7069-4945-a5e0-e6d02da6bd00","ios":"levelo://app?vid=35801575-7069-4945-a5e0-e6d02da6bd00"},"vehicle_type_id":"4","last_reported":1730142444,"current_range_meters":12800,"station_id":"ce4bhah2rcd13ifvqei0","pricing_plan_id":"cebpf4jnsgd1na2vs0mg"},{"bike_id":"9f4019b5-7060-4766-8f27-beaadf9a37c4","system_id":"levelo_inurba_marseille","lat":43.31367,"lon":5.38501,"is_reserved":false,"is_disabled":false,"rental_uris":{"android":"levelo://app?vid=9f4019b5-7060-4766-8f27-beaadf9a37c4","ios":"levelo://app?vid=9f4019b5-7060-4766-8f27-beaadf9a37c4"},"vehicle_type_id":"4","last_reported":1730142444,"current_range_meters":9600,"station_id":"ce4bgt92rcd13ifvqcf0","pricing_plan_id":"cebpf4jnsgd1na2vs0mg"},{"bike_id":"fb23470d-7641-43ea-b4ed-3c02e42d147a","system_id":"levelo_inurba_marseille","lat":43.29033,"lon":5.38652,"is_reserved":false,"is_disabled":false,"rental_uris":{"android":"levelo://app?vid=fb23470d-7641-43ea-b4ed-3c02e42d147a","ios":"levelo://app?vid=fb23470d-7641-43ea-b4ed-3c02e42d147a"},"vehicle_type_id":"4","last_reported":1730142444,"current_range_meters":30400,"station_id":"ce4bh4p2rcd13ifvqe0g","pricing_plan_id":"cebpf4jnsgd1na2vs0mg"},{"bike_id":"f3b058ed-8a0e-4829-adb4-cf1ea18a2a53","system_id":"levelo_inurba_marseille","lat":43.29795,"lon":5.39345,"is_reserved":false,"is_disabled":false,"rental_uris":{"android":"levelo://app?vid=f3b058ed-8a0e-4829-adb4-cf1ea18a2a53","ios":"levelo://app?vid=f3b058ed-8a0e-4829-adb4-cf1ea18a2a53"},"vehicle_type_id":"4","last_reported":1730142444,"current_range_meters":18800,"station_id":"chh1huq6cuj3fo74tm60","pricing_plan_id":"cebpf4jnsgd1na2vs0mg"},{"bike_id":"ceb3f434-da37-46ca-99e5-763e65dc55e2","system_id":"levelo_inurba_marseille","lat":43.279765,"lon":5.387158,"is_reserved":false,"is_disabled":false,"rental_uris":{"android":"levelo://app?vid=ceb3f434-da37-46ca-99e5-763e65dc55e2","ios":"levelo://app?vid=ceb3f434-da37-46ca-99e5-763e65dc55e2"},"vehicle_type_id":"4","last_reported":1730142444,"current_range_meters":38800,"station_id":"ce4bhg12rcd13ifvqf80","pricing_plan_id":"cebpf4jnsgd1na2vs0mg"},{"bike_id":"0767fba8-2acc-437e-85a2-d8e45257d9b6","system_id":"levelo_inurba_marseille","lat":43.31333,"lon":5.39687,"is_reserved":false,"is_disabled":false,"rental_uris":{"android":"levelo://app?vid=0767fba8-2acc-437e-85a2-d8e45257d9b6","ios":"levelo://app?vid=0767fba8-2acc-437e-85a2-d8e45257d9b6"},"vehicle_type_id":"4","last_reported":1730142444,"current_range_meters":23200,"station_id":"ce4bgvp2rcd13ifvqcu0","pricing_plan_id":"cebpf4jnsgd1na2vs0mg"},{"bike_id":"dc9dcad7-42f0-42a3-a1ed-1a0a385a0d23","system_id":"levelo_inurba_marseille","lat":43.29896,"lon":5.43672,"is_reserved":false,"is_disabled":false,"rental_uris":{"android":"levelo://app?vid=dc9dcad7-42f0-42a3-a1ed-1a0a385a0d23","ios":"levelo://app?vid=dc9dcad7-42f0-42a3-a1ed-1a0a385a0d23"},"vehicle_type_id":"4","last_reported":1730142444,"current_range_meters":24400,"station_id":"ce4bhpp2rcd13ifvqhfg","pricing_plan_id":"cebpf4jnsgd1na2vs0mg"},{"bike_id":"f7a50275-88a4-4be4-ac33-5cce1242cfaa","system_id":"levelo_inurba_marseille","lat":43.31657,"lon":5.37687,"is_reserved":false,"is_disabled":false,"rental_uris":{"android":"levelo://app?vid=f7a50275-88a4-4be4-ac33-5cce1242cfaa","ios":"levelo://app?vid=f7a50275-88a4-4be4-ac33-5cce1242cfaa"},"vehicle_type_id":"4","last_reported":1730142444,"current_range_meters":38000,"station_id":"","pricing_plan_id":"cebpf4jnsgd1na2vs0mg"},{"bike_id":"66c39b5f-2513-4b02-a44c-4e982859f58d","system_id":"levelo_inurba_marseille","lat":43.30431,"lon":5.38883,"is_reserved":false,"is_disabled":false,"rental_uris":{"android":"levelo://app?vid=66c39b5f-2513-4b02-a44c-4e982859f58d","ios":"levelo://app?vid=66c39b5f-2513-4b02-a44c-4e982859f58d"},"vehicle_type_id":"4","last_reported":1730142444,"current_range_meters":5600,"station_id":"ce4bgk12rcd13ifvqbi0","pricing_plan_id":"cebpf4jnsgd1na2vs0mg"},{"bike_id":"d0349594-fc03-4c53-8328-2d46b1ff154b","system_id":"levelo_inurba_marseille","lat":43.28607,"lon":5.37065,"is_reserved":false,"is_disabled":false,"rental_uris":{"android":"levelo://app?vid=d0349594-fc03-4c53-8328-2d46b1ff154b","ios":"levelo://app?vid=d0349594-fc03-4c53-8328-2d46b1ff154b"},"vehicle_type_id":"4","last_reported":1730142444,"current_range_meters":26800,"station_id":"ce4bht12rcd13ifvqi60","pricing_plan_id":"cebpf4jnsgd1na2vs0mg"},{"bike_id":"6627e12e-9cb1-4b91-ab1a-b51812344191","system_id":"levelo_inurba_marseille","lat":43.27073,"lon":5.42282,"is_reserved":false,"is_disabled":false,"rental_uris":{"android":"levelo://app?vid=6627e12e-9cb1-4b91-ab1a-b51812344191","ios":"levelo://app?vid=6627e12e-9cb1-4b91-ab1a-b51812344191"},"vehicle_type_id":"4","last_reported":1730142444,"current_range_meters":24000,"station_id":"ce4bhk92rcd13ifvqgb0","pricing_plan_id":"cebpf4jnsgd1na2vs0mg"},{"bike_id":"4a7d2e78-51b9-46d2-bf89-98a48709d13a","system_id":"levelo_inurba_marseille","lat":43.31722,"lon":5.42395,"is_reserved":false,"is_disabled":false,"rental_uris":{"android":"levelo://app?vid=4a7d2e78-51b9-46d2-bf89-98a48709d13a","ios":"levelo://app?vid=4a7d2e78-51b9-46d2-bf89-98a48709d13a"},"vehicle_type_id":"4","last_reported":1730142444,"current_range_meters":25600,"station_id":"ce4bhp92rcd13ifvqhbg","pricing_plan_id":"cebpf4jnsgd1na2vs0mg"},{"bike_id":"bdad40da-4714-4179-a84e-4bbe5a2c808e","system_id":"levelo_inurba_marseille","lat":43.268147,"lon":5.411201,"is_reserved":false,"is_disabled":false,"rental_uris":{"android":"levelo://app?vid=bdad40da-4714-4179-a84e-4bbe5a2c808e","ios":"levelo://app?vid=bdad40da-4714-4179-a84e-4bbe5a2c808e"},"vehicle_type_id":"4","last_reported":1730142444,"current_range_meters":23200,"station_id":"","pricing_plan_id":"cebpf4jnsgd1na2vs0mg"},{"bike_id":"0c53382f-83fb-45ec-871d-d4e880c7383e","system_id":"levelo_inurba_marseille","lat":43.28,"lon":5.40021,"is_reserved":false,"is_disabled":false,"rental_uris":{"android":"levelo://app?vid=0c53382f-83fb-45ec-871d-d4e880c7383e","ios":"levelo://app?vid=0c53382f-83fb-45ec-871d-d4e880c7383e"},"vehicle_type_id":"4","last_reported":1730142444,"current_range_meters":16400,"station_id":"ce4bho92rcd13ifvqh4g","pricing_plan_id":"cebpf4jnsgd1na2vs0mg"},{"bike_id":"0c464364-0985-4449-97d4-21a2c884e64a","system_id":"levelo_inurba_marseille","lat":43.28848,"lon":5.35846,"is_reserved":false,"is_disabled":false,"rental_uris":{"android":"levelo://app?vid=0c464364-0985-4449-97d4-21a2c884e64a","ios":"levelo://app?vid=0c464364-0985-4449-97d4-21a2c884e64a"},"vehicle_type_id":"4","last_reported":1730142444,"current_range_meters":7200,"station_id":"ce4bhch2rcd13ifvqeug","pricing_plan_id":"cebpf4jnsgd1na2vs0mg"},{"bike_id":"6f487d93-ed54-4bc3-8917-f0af52bd63dd","system_id":"levelo_inurba_marseille","lat":43.27922,"lon":5.39582,"is_reserved":false,"is_disabled":false,"rental_uris":{"android":"levelo://app?vid=6f487d93-ed54-4bc3-8917-f0af52bd63dd","ios":"levelo://app?vid=6f487d93-ed54-4bc3-8917-f0af52bd63dd"},"vehicle_type_id":"4","last_reported":1730142444,"current_range_meters":8400,"station_id":"ce4bhf92rcd13ifvqf40","pricing_plan_id":"cebpf4jnsgd1na2vs0mg"},{"bike_id":"9befed88-9f8c-464c-b07b-093bd97066bb","system_id":"levelo_inurba_marseille","lat":43.29805,"lon":5.37136,"is_reserved":false,"is_disabled":false,"rental_uris":{"android":"levelo://app?vid=9befed88-9f8c-464c-b07b-093bd97066bb","ios":"levelo://app?vid=9befed88-9f8c-464c-b07b-093bd97066bb"},"vehicle_type_id":"4","last_reported":1730142444,"current_range_meters":14000,"station_id":"","pricing_plan_id":"cebpf4jnsgd1na2vs0mg"},{"bike_id":"f37e3b02-a49c-4c4e-b112-f9c8c24edf90","system_id":"levelo_inurba_marseille","lat":43.26224,"lon":5.37581,"is_reserved":false,"is_disabled":false,"rental_uris":{"android":"levelo://app?vid=f37e3b02-a49c-4c4e-b112-f9c8c24edf90","ios":"levelo://app?vid=f37e3b02-a49c-4c4e-b112-f9c8c24edf90"},"vehicle_type_id":"4","last_reported":1730142444,"current_range_meters":4400,"station_id":"ce4bhu92rcd13ifvqi70","pricing_plan_id":"cebpf4jnsgd1na2vs0mg"},{"bike_id":"3761702a-da3f-458d-a4c7-3ce124457418","system_id":"levelo_inurba_marseille","lat":43.29055,"lon":5.37167,"is_reserved":false,"is_disabled":false,"rental_uris":{"android":"levelo://app?vid=3761702a-da3f-458d-a4c7-3ce124457418","ios":"levelo://app?vid=3761702a-da3f-458d-a4c7-3ce124457418"},"vehicle_type_id":"4","last_reported":1730142444,"current_range_meters":20800,"station_id":"ce4bh5p2rcd13ifvqe4g","pricing_plan_id":"cebpf4jnsgd1na2vs0mg"},{"bike_id":"9bfe4f20-6ac4-4372-aec3-cf444f192a78","system_id":"levelo_inurba_marseille","lat":43.29905,"lon":5.43659,"is_reserved":false,"is_disabled":false,"rental_uris":{"android":"levelo://app?vid=9bfe4f20-6ac4-4372-aec3-cf444f192a78","ios":"levelo://app?vid=9bfe4f20-6ac4-4372-aec3-cf444f192a78"},"vehicle_type_id":"4","last_reported":1730142444,"current_range_meters":26000,"station_id":"ce4bhpp2rcd13ifvqhfg","pricing_plan_id":"cebpf4jnsgd1na2vs0mg"},{"bike_id":"030d5436-e5c6-49ae-96dd-772652ca16f5","system_id":"levelo_inurba_marseille","lat":43.30533,"lon":5.36542,"is_reserved":false,"is_disabled":false,"rental_uris":{"android":"levelo://app?vid=030d5436-e5c6-49ae-96dd-772652ca16f5","ios":"levelo://app?vid=030d5436-e5c6-49ae-96dd-772652ca16f5"},"vehicle_type_id":"4","last_reported":1730142444,"current_range_meters":38400,"station_id":"","pricing_plan_id":"cebpf4jnsgd1na2vs0mg"},{"bike_id":"36c258b2-310f-4ff7-8342-92eaa5855b65","system_id":"levelo_inurba_marseille","lat":43.27954,"lon":5.41056,"is_reserved":false,"is_disabled":false,"rental_uris":{"android":"levelo://app?vid=36c258b2-310f-4ff7-8342-92eaa5855b65","ios":"levelo://app?vid=36c258b2-310f-4ff7-8342-92eaa5855b65"},"vehicle_type_id":"4","last_reported":1730142444,"current_range_meters":24400,"station_id":"ce4bhnp2rcd13ifvqh0g","pricing_plan_id":"cebpf4jnsgd1na2vs0mg"},{"bike_id":"a2a857b1-2c49-4e6d-b5ff-4e7bf4e45328","system_id":"levelo_inurba_marseille","lat":43.3092,"lon":5.40151,"is_reserved":false,"is_disabled":false,"rental_uris":{"android":"levelo://app?vid=a2a857b1-2c49-4e6d-b5ff-4e7bf4e45328","ios":"levelo://app?vid=a2a857b1-2c49-4e6d-b5ff-4e7bf4e45328"},"vehicle_type_id":"4","last_reported":1730142444,"current_range_meters":20000,"station_id":"ce4bgvp2rcd13ifvqct0","pricing_plan_id":"cebpf4jnsgd1na2vs0mg"},{"bike_id":"db407270-14e4-450d-916b-188e766022fd","system_id":"levelo_inurba_marseille","lat":43.2808,"lon":5.39664,"is_reserved":false,"is_disabled":false,"rental_uris":{"android":"levelo://app?vid=db407270-14e4-450d-916b-188e766022fd","ios":"levelo://app?vid=db407270-14e4-450d-916b-188e766022fd"},"vehicle_type_id":"4","last_reported":1730142444,"current_range_meters":20400,"station_id":"ce4bho12rcd13ifvqh2g","pricing_plan_id":"cebpf4jnsgd1na2vs0mg"},{"bike_id":"f68dc970-d8a8-4e53-8938-a63c87b03da2","system_id":"levelo_inurba_marseille","lat":43.29935,"lon":5.36552,"is_reserved":false,"is_disabled":false,"rental_uris":{"android":"levelo://app?vid=f68dc970-d8a8-4e53-8938-a63c87b03da2","ios":"levelo://app?vid=f68dc970-d8a8-4e53-8938-a63c87b03da2"},"vehicle_type_id":"4","last_reported":1730142444,"current_range_meters":29600,"station_id":"ce4bgm92rcd13ifvqbr0","pricing_plan_id":"cebpf4jnsgd1na2vs0mg"},{"bike_id":"d68f8255-cc10-4db7-bc68-d9dd662dbe47","system_id":"levelo_inurba_marseille","lat":43.29515,"lon":5.39044,"is_reserved":false,"is_disabled":false,"rental_uris":{"android":"levelo://app?vid=d68f8255-cc10-4db7-bc68-d9dd662dbe47","ios":"levelo://app?vid=d68f8255-cc10-4db7-bc68-d9dd662dbe47"},"vehicle_type_id":"4","last_reported":1730142444,"current_range_meters":3200,"station_id":"ce4bh3p2rcd13ifvqdp0","pricing_plan_id":"cebpf4jnsgd1na2vs0mg"},{"bike_id":"5c0ea9d8-333e-456e-9344-9aecc004ff2b","system_id":"levelo_inurba_marseille","lat":43.30887,"lon":5.3965,"is_reserved":false,"is_disabled":false,"rental_uris":{"android":"levelo://app?vid=5c0ea9d8-333e-456e-9344-9aecc004ff2b","ios":"levelo://app?vid=5c0ea9d8-333e-456e-9344-9aecc004ff2b"},"vehicle_type_id":"4","last_reported":1730142444,"current_range_meters":2000,"station_id":"ce4bh012rcd13ifvqcv0","pricing_plan_id":"cebpf4jnsgd1na2vs0mg"},{"bike_id":"2579ba1e-accb-40d4-9cb9-c6e2550b114e","system_id":"levelo_inurba_marseille","lat":43.28316,"lon":5.38526,"is_reserved":false,"is_disabled":false,"rental_uris":{"android":"levelo://app?vid=2579ba1e-accb-40d4-9cb9-c6e2550b114e","ios":"levelo://app?vid=2579ba1e-accb-40d4-9cb9-c6e2550b114e"},"vehicle_type_id":"4","last_reported":1730142444,"current_range_meters":38000,"station_id":"ce4bh492rcd13ifvqdvg","pricing_plan_id":"cebpf4jnsgd1na2vs0mg"},{"bike_id":"87da4275-bf5e-48a3-be54-f983ddef361f","system_id":"levelo_inurba_marseille","lat":43.29972,"lon":5.37184,"is_reserved":false,"is_disabled":false,"rental_uris":{"android":"levelo://app?vid=87da4275-bf5e-48a3-be54-f983ddef361f","ios":"levelo://app?vid=87da4275-bf5e-48a3-be54-f983ddef361f"},"vehicle_type_id":"4","last_reported":1730142444,"current_range_meters":32800,"station_id":"ce4bgr92rcd13ifvqc7g","pricing_plan_id":"cebpf4jnsgd1na2vs0mg"},{"bike_id":"a1035a29-a74a-4b9f-9e4d-7ac1d937177d","system_id":"levelo_inurba_marseille","lat":43.29849,"lon":5.39234,"is_reserved":false,"is_disabled":false,"rental_uris":{"android":"levelo://app?vid=a1035a29-a74a-4b9f-9e4d-7ac1d937177d","ios":"levelo://app?vid=a1035a29-a74a-4b9f-9e4d-7ac1d937177d"},"vehicle_type_id":"4","last_reported":1730142444,"current_range_meters":6000,"station_id":"chh1huq6cuj3fo74tm60","pricing_plan_id":"cebpf4jnsgd1na2vs0mg"},{"bike_id":"700312e4-d1d7-4ee4-a801-2116094ff46b","system_id":"levelo_inurba_marseille","lat":43.29601,"lon":5.38108,"is_reserved":false,"is_disabled":false,"rental_uris":{"android":"levelo://app?vid=700312e4-d1d7-4ee4-a801-2116094ff46b","ios":"levelo://app?vid=700312e4-d1d7-4ee4-a801-2116094ff46b"},"vehicle_type_id":"4","last_reported":1730142444,"current_range_meters":6400,"station_id":"ce4bgl12rcd13ifvqbo0","pricing_plan_id":"cebpf4jnsgd1na2vs0mg"},{"bike_id":"e31650d1-6313-4c09-96ff-bc5a7403b852","system_id":"levelo_inurba_marseille","lat":43.323303,"lon":5.406317,"is_reserved":false,"is_disabled":false,"rental_uris":{"android":"levelo://app?vid=e31650d1-6313-4c09-96ff-bc5a7403b852","ios":"levelo://app?vid=e31650d1-6313-4c09-96ff-bc5a7403b852"},"vehicle_type_id":"4","last_reported":1730142444,"current_range_meters":38800,"station_id":"ce4bhq92rcd13ifvqhjg","pricing_plan_id":"cebpf4jnsgd1na2vs0mg"},{"bike_id":"aefac986-b0c6-43dd-b63b-a00cd751d12d","system_id":"levelo_inurba_marseille","lat":43.31997,"lon":5.38161,"is_reserved":false,"is_disabled":false,"rental_uris":{"android":"levelo://app?vid=aefac986-b0c6-43dd-b63b-a00cd751d12d","ios":"levelo://app?vid=aefac986-b0c6-43dd-b63b-a00cd751d12d"},"vehicle_type_id":"4","last_reported":1730142444,"current_range_meters":35600,"station_id":"ce4bhr12rcd13ifvqhpg","pricing_plan_id":"cebpf4jnsgd1na2vs0mg"},{"bike_id":"f581e29b-f342-4b13-9690-dc98c45a898a","system_id":"levelo_inurba_marseille","lat":43.28656,"lon":5.36354,"is_reserved":false,"is_disabled":false,"rental_uris":{"android":"levelo://app?vid=f581e29b-f342-4b13-9690-dc98c45a898a","ios":"levelo://app?vid=f581e29b-f342-4b13-9690-dc98c45a898a"},"vehicle_type_id":"4","last_reported":1730142444,"current_range_meters":26000,"station_id":"ce4bhah2rcd13ifvqej0","pricing_plan_id":"cebpf4jnsgd1na2vs0mg"},{"bike_id":"18ae6d45-7cb9-4820-9e9c-32fc9c8ef0cd","system_id":"levelo_inurba_marseille","lat":43.28106,"lon":5.37845,"is_reserved":false,"is_disabled":false,"rental_uris":{"android":"levelo://app?vid=18ae6d45-7cb9-4820-9e9c-32fc9c8ef0cd","ios":"levelo://app?vid=18ae6d45-7cb9-4820-9e9c-32fc9c8ef0cd"},"vehicle_type_id":"4","last_reported":1730142444,"current_range_meters":3600,"station_id":"ce4bha12rcd13ifvqee0","pricing_plan_id":"cebpf4jnsgd1na2vs0mg"},{"bike_id":"2f918fb7-3364-47e6-a4f0-9d10844c4908","system_id":"levelo_inurba_marseille","lat":43.2942,"lon":5.38626,"is_reserved":false,"is_disabled":false,"rental_uris":{"android":"levelo://app?vid=2f918fb7-3364-47e6-a4f0-9d10844c4908","ios":"levelo://app?vid=2f918fb7-3364-47e6-a4f0-9d10844c4908"},"vehicle_type_id":"4","last_reported":1730142444,"current_range_meters":9200,"station_id":"ce4bh2h2rcd13ifvqdh0","pricing_plan_id":"cebpf4jnsgd1na2vs0mg"},{"bike_id":"5002b26a-a976-4817-951f-7e1d96948e09","system_id":"levelo_inurba_marseille","lat":43.30324,"lon":5.40436,"is_reserved":false,"is_disabled":false,"rental_uris":{"android":"levelo://app?vid=5002b26a-a976-4817-951f-7e1d96948e09","ios":"levelo://app?vid=5002b26a-a976-4817-951f-7e1d96948e09"},"vehicle_type_id":"4","last_reported":1730142444,"current_range_meters":16800,"station_id":"ce4bh012rcd13ifvqd10","pricing_plan_id":"cebpf4jnsgd1na2vs0mg"},{"bike_id":"a115272b-d982-443a-87c0-8ebb7cafe252","system_id":"levelo_inurba_marseille","lat":43.24072,"lon":5.37762,"is_reserved":false,"is_disabled":false,"rental_uris":{"android":"levelo://app?vid=a115272b-d982-443a-87c0-8ebb7cafe252","ios":"levelo://app?vid=a115272b-d982-443a-87c0-8ebb7cafe252"},"vehicle_type_id":"4","last_reported":1730142444,"current_range_meters":27200,"station_id":"ce4bhnp2rcd13ifvqgvg","pricing_plan_id":"cebpf4jnsgd1na2vs0mg"},{"bike_id":"e9d21191-c6a6-4908-9641-483ac77be378","system_id":"levelo_inurba_marseille","lat":43.31705,"lon":5.37755,"is_reserved":false,"is_disabled":false,"rental_uris":{"android":"levelo://app?vid=e9d21191-c6a6-4908-9641-483ac77be378","ios":"levelo://app?vid=e9d21191-c6a6-4908-9641-483ac77be378"},"vehicle_type_id":"4","last_reported":1730142444,"current_range_meters":38800,"station_id":"ce4bgth2rcd13ifvqch0","pricing_plan_id":"cebpf4jnsgd1na2vs0mg"},{"bike_id":"b7c42eaa-6f41-4bc8-9fdf-775fc8c8bc19","system_id":"levelo_inurba_marseille","lat":43.29024,"lon":5.38667,"is_reserved":false,"is_disabled":false,"rental_uris":{"android":"levelo://app?vid=b7c42eaa-6f41-4bc8-9fdf-775fc8c8bc19","ios":"levelo://app?vid=b7c42eaa-6f41-4bc8-9fdf-775fc8c8bc19"},"vehicle_type_id":"4","last_reported":1730142444,"current_range_meters":32400,"station_id":"ce4bh4p2rcd13ifvqe0g","pricing_plan_id":"cebpf4jnsgd1na2vs0mg"},{"bike_id":"e6847b7b-eb1f-4d99-945b-62ee7bbd79aa","system_id":"levelo_inurba_marseille","lat":43.30905,"lon":5.36842,"is_reserved":false,"is_disabled":false,"rental_uris":{"android":"levelo://app?vid=e6847b7b-eb1f-4d99-945b-62ee7bbd79aa","ios":"levelo://app?vid=e6847b7b-eb1f-4d99-945b-62ee7bbd79aa"},"vehicle_type_id":"4","last_reported":1730142444,"current_range_meters":38800,"station_id":"ce4bgn92rcd13ifvqbvg","pricing_plan_id":"cebpf4jnsgd1na2vs0mg"},{"bike_id":"8a3c82db-71fe-4b91-90fd-9e7a7a77c6e7","system_id":"levelo_inurba_marseille","lat":43.27915,"lon":5.39586,"is_reserved":false,"is_disabled":false,"rental_uris":{"android":"levelo://app?vid=8a3c82db-71fe-4b91-90fd-9e7a7a77c6e7","ios":"levelo://app?vid=8a3c82db-71fe-4b91-90fd-9e7a7a77c6e7"},"vehicle_type_id":"4","last_reported":1730142444,"current_range_meters":12800,"station_id":"ce4bhf92rcd13ifvqf40","pricing_plan_id":"cebpf4jnsgd1na2vs0mg"},{"bike_id":"0ba4cb7d-61e4-488a-b49a-562e7e6e9db0","system_id":"levelo_inurba_marseille","lat":43.25867,"lon":5.39902,"is_reserved":false,"is_disabled":false,"rental_uris":{"android":"levelo://app?vid=0ba4cb7d-61e4-488a-b49a-562e7e6e9db0","ios":"levelo://app?vid=0ba4cb7d-61e4-488a-b49a-562e7e6e9db0"},"vehicle_type_id":"4","last_reported":1730142444,"current_range_meters":27600,"station_id":"ce4bhl92rcd13ifvqghg","pricing_plan_id":"cebpf4jnsgd1na2vs0mg"},{"bike_id":"2377c047-704c-449e-8321-95aaf27846fa","system_id":"levelo_inurba_marseille","lat":43.30546,"lon":5.36697,"is_reserved":false,"is_disabled":false,"rental_uris":{"android":"levelo://app?vid=2377c047-704c-449e-8321-95aaf27846fa","ios":"levelo://app?vid=2377c047-704c-449e-8321-95aaf27846fa"},"vehicle_type_id":"4","last_reported":1730142444,"current_range_meters":38800,"station_id":"ce4bgrp2rcd13ifvqc9g","pricing_plan_id":"cebpf4jnsgd1na2vs0mg"},{"bike_id":"b7b757a2-a7e7-4145-a8b9-d6dd6d0329b7","system_id":"levelo_inurba_marseille","lat":43.29783,"lon":5.39331,"is_reserved":false,"is_disabled":false,"rental_uris":{"android":"levelo://app?vid=b7b757a2-a7e7-4145-a8b9-d6dd6d0329b7","ios":"levelo://app?vid=b7b757a2-a7e7-4145-a8b9-d6dd6d0329b7"},"vehicle_type_id":"4","last_reported":1730142444,"current_range_meters":6000,"station_id":"chh1huq6cuj3fo74tm60","pricing_plan_id":"cebpf4jnsgd1na2vs0mg"},{"bike_id":"99a1b965-d757-4e72-b315-33e640f9b9ea","system_id":"levelo_inurba_marseille","lat":43.30646,"lon":5.40098,"is_reserved":false,"is_disabled":false,"rental_uris":{"android":"levelo://app?vid=99a1b965-d757-4e72-b315-33e640f9b9ea","ios":"levelo://app?vid=99a1b965-d757-4e72-b315-33e640f9b9ea"},"vehicle_type_id":"4","last_reported":1730142444,"current_range_meters":22800,"station_id":"ce4bh112rcd13ifvqda0","pricing_plan_id":"cebpf4jnsgd1na2vs0mg"},{"bike_id":"c32b2515-fc2f-4e72-8c5a-816d6e3eb033","system_id":"levelo_inurba_marseille","lat":43.28704,"lon":5.3998,"is_reserved":false,"is_disabled":false,"rental_uris":{"android":"levelo://app?vid=c32b2515-fc2f-4e72-8c5a-816d6e3eb033","ios":"levelo://app?vid=c32b2515-fc2f-4e72-8c5a-816d6e3eb033"},"vehicle_type_id":"4","last_reported":1730142444,"current_range_meters":3600,"station_id":"ce4bho92rcd13ifvqh3g","pricing_plan_id":"cebpf4jnsgd1na2vs0mg"},{"bike_id":"69c88f8f-1831-485c-9ac6-dbea15a91a6e","system_id":"levelo_inurba_marseille","lat":43.33024,"lon":5.39037,"is_reserved":false,"is_disabled":false,"rental_uris":{"android":"levelo://app?vid=69c88f8f-1831-485c-9ac6-dbea15a91a6e","ios":"levelo://app?vid=69c88f8f-1831-485c-9ac6-dbea15a91a6e"},"vehicle_type_id":"4","last_reported":1730142444,"current_range_meters":15200,"station_id":"ce4bhr92rcd13ifvqhrg","pricing_plan_id":"cebpf4jnsgd1na2vs0mg"},{"bike_id":"17cd2bc1-8730-4cf9-9503-abfbdf972ef1","system_id":"levelo_inurba_marseille","lat":43.27828,"lon":5.39205,"is_reserved":false,"is_disabled":false,"rental_uris":{"android":"levelo://app?vid=17cd2bc1-8730-4cf9-9503-abfbdf972ef1","ios":"levelo://app?vid=17cd2bc1-8730-4cf9-9503-abfbdf972ef1"},"vehicle_type_id":"4","last_reported":1730142444,"current_range_meters":5600,"station_id":"ce4bhjp2rcd13ifvqga0","pricing_plan_id":"cebpf4jnsgd1na2vs0mg"},{"bike_id":"d9c5cdf6-0492-44b5-b006-acd6d03f420c","system_id":"levelo_inurba_marseille","lat":43.3021,"lon":5.39475,"is_reserved":false,"is_disabled":false,"rental_uris":{"android":"levelo://app?vid=d9c5cdf6-0492-44b5-b006-acd6d03f420c","ios":"levelo://app?vid=d9c5cdf6-0492-44b5-b006-acd6d03f420c"},"vehicle_type_id":"4","last_reported":1730142444,"current_range_meters":30800,"station_id":"ce4bh0p2rcd13ifvqd70","pricing_plan_id":"cebpf4jnsgd1na2vs0mg"},{"bike_id":"617ee951-2e5c-473e-b71d-f9df52efa0cd","system_id":"levelo_inurba_marseille","lat":43.27981,"lon":5.38755,"is_reserved":false,"is_disabled":false,"rental_uris":{"android":"levelo://app?vid=617ee951-2e5c-473e-b71d-f9df52efa0cd","ios":"levelo://app?vid=617ee951-2e5c-473e-b71d-f9df52efa0cd"},"vehicle_type_id":"4","last_reported":1730142444,"current_range_meters":38800,"station_id":"ce4bhg12rcd13ifvqf80","pricing_plan_id":"cebpf4jnsgd1na2vs0mg"},{"bike_id":"2634287c-bf1e-44f0-a146-6650cad2b3f9","system_id":"levelo_inurba_marseille","lat":43.3019,"lon":5.36632,"is_reserved":false,"is_disabled":false,"rental_uris":{"android":"levelo://app?vid=2634287c-bf1e-44f0-a146-6650cad2b3f9","ios":"levelo://app?vid=2634287c-bf1e-44f0-a146-6650cad2b3f9"},"vehicle_type_id":"4","last_reported":1730142444,"current_range_meters":36000,"station_id":"ce4bgrh2rcd13ifvqc8g","pricing_plan_id":"cebpf4jnsgd1na2vs0mg"},{"bike_id":"e5ca89be-3f1d-4a02-b77b-5871bb4c30b0","system_id":"levelo_inurba_marseille","lat":43.28427,"lon":5.35004,"is_reserved":false,"is_disabled":false,"rental_uris":{"android":"levelo://app?vid=e5ca89be-3f1d-4a02-b77b-5871bb4c30b0","ios":"levelo://app?vid=e5ca89be-3f1d-4a02-b77b-5871bb4c30b0"},"vehicle_type_id":"4","last_reported":1730142444,"current_range_meters":38400,"station_id":"ce4bhbh2rcd13ifvqepg","pricing_plan_id":"cebpf4jnsgd1na2vs0mg"},{"bike_id":"fd541e4a-7b9a-453a-8959-e0c3ee2ad888","system_id":"levelo_inurba_marseille","lat":43.29599,"lon":5.38095,"is_reserved":false,"is_disabled":false,"rental_uris":{"android":"levelo://app?vid=fd541e4a-7b9a-453a-8959-e0c3ee2ad888","ios":"levelo://app?vid=fd541e4a-7b9a-453a-8959-e0c3ee2ad888"},"vehicle_type_id":"4","last_reported":1730142444,"current_range_meters":38800,"station_id":"ce4bgl12rcd13ifvqbo0","pricing_plan_id":"cebpf4jnsgd1na2vs0mg"},{"bike_id":"87cef7e7-5334-44f0-b9ca-d39f7f76b137","system_id":"levelo_inurba_marseille","lat":43.31171,"lon":5.38715,"is_reserved":false,"is_disabled":false,"rental_uris":{"android":"levelo://app?vid=87cef7e7-5334-44f0-b9ca-d39f7f76b137","ios":"levelo://app?vid=87cef7e7-5334-44f0-b9ca-d39f7f76b137"},"vehicle_type_id":"4","last_reported":1730142444,"current_range_meters":19200,"station_id":"ce4bgv12rcd13ifvqcp0","pricing_plan_id":"cebpf4jnsgd1na2vs0mg"},{"bike_id":"6c989b59-f0e3-41c6-86f1-089e9e21af13","system_id":"levelo_inurba_marseille","lat":43.29031,"lon":5.38649,"is_reserved":false,"is_disabled":false,"rental_uris":{"android":"levelo://app?vid=6c989b59-f0e3-41c6-86f1-089e9e21af13","ios":"levelo://app?vid=6c989b59-f0e3-41c6-86f1-089e9e21af13"},"vehicle_type_id":"4","last_reported":1730142444,"current_range_meters":27600,"station_id":"ce4bh4p2rcd13ifvqe0g","pricing_plan_id":"cebpf4jnsgd1na2vs0mg"},{"bike_id":"32b98ac3-6707-4a0e-99d1-5729694815fc","system_id":"levelo_inurba_marseille","lat":43.31692,"lon":5.37726,"is_reserved":false,"is_disabled":false,"rental_uris":{"android":"levelo://app?vid=32b98ac3-6707-4a0e-99d1-5729694815fc","ios":"levelo://app?vid=32b98ac3-6707-4a0e-99d1-5729694815fc"},"vehicle_type_id":"4","last_reported":1730142444,"current_range_meters":19200,"station_id":"ce4bgth2rcd13ifvqch0","pricing_plan_id":"cebpf4jnsgd1na2vs0mg"},{"bike_id":"5d820ce0-2d55-46e5-b74d-cc75a18e2e27","system_id":"levelo_inurba_marseille","lat":43.27004,"lon":5.39247,"is_reserved":false,"is_disabled":false,"rental_uris":{"android":"levelo://app?vid=5d820ce0-2d55-46e5-b74d-cc75a18e2e27","ios":"levelo://app?vid=5d820ce0-2d55-46e5-b74d-cc75a18e2e27"},"vehicle_type_id":"4","last_reported":1730142444,"current_range_meters":30400,"station_id":"ce4bgh92rcd13ifvqb40","pricing_plan_id":"cebpf4jnsgd1na2vs0mg"},{"bike_id":"b6613872-5a49-4f4f-b142-06b7be6e62ce","system_id":"levelo_inurba_marseille","lat":43.28607,"lon":5.37068,"is_reserved":false,"is_disabled":false,"rental_uris":{"android":"levelo://app?vid=b6613872-5a49-4f4f-b142-06b7be6e62ce","ios":"levelo://app?vid=b6613872-5a49-4f4f-b142-06b7be6e62ce"},"vehicle_type_id":"4","last_reported":1730142444,"current_range_meters":17200,"station_id":"ce4bht12rcd13ifvqi60","pricing_plan_id":"cebpf4jnsgd1na2vs0mg"},{"bike_id":"e94be738-1f81-4ef2-8919-b6162fbe12c8","system_id":"levelo_inurba_marseille","lat":43.32365,"lon":5.38889,"is_reserved":false,"is_disabled":false,"rental_uris":{"android":"levelo://app?vid=e94be738-1f81-4ef2-8919-b6162fbe12c8","ios":"levelo://app?vid=e94be738-1f81-4ef2-8919-b6162fbe12c8"},"vehicle_type_id":"4","last_reported":1730142444,"current_range_meters":38800,"station_id":"ce4bhqp2rcd13ifvqhog","pricing_plan_id":"cebpf4jnsgd1na2vs0mg"},{"bike_id":"3aa95283-e0a1-4387-beea-1da1d304aa3e","system_id":"levelo_inurba_marseille","lat":43.30283,"lon":5.40055,"is_reserved":false,"is_disabled":false,"rental_uris":{"android":"levelo://app?vid=3aa95283-e0a1-4387-beea-1da1d304aa3e","ios":"levelo://app?vid=3aa95283-e0a1-4387-beea-1da1d304aa3e"},"vehicle_type_id":"4","last_reported":1730142444,"current_range_meters":38800,"station_id":"ce4bh0p2rcd13ifvqd80","pricing_plan_id":"cebpf4jnsgd1na2vs0mg"},{"bike_id":"7fda42aa-28d7-4fc7-858b-960ce986865c","system_id":"levelo_inurba_marseille","lat":43.232016,"lon":5.355485,"is_reserved":false,"is_disabled":false,"rental_uris":{"android":"levelo://app?vid=7fda42aa-28d7-4fc7-858b-960ce986865c","ios":"levelo://app?vid=7fda42aa-28d7-4fc7-858b-960ce986865c"},"vehicle_type_id":"4","last_reported":1730142444,"current_range_meters":21600,"station_id":"ce4bhu92rcd13ifvqi70","pricing_plan_id":"cebpf4jnsgd1na2vs0mg"},{"bike_id":"563435b8-cdb7-4252-b25a-fb30629cb719","system_id":"levelo_inurba_marseille","lat":43.26567,"lon":5.38995,"is_reserved":false,"is_disabled":false,"rental_uris":{"android":"levelo://app?vid=563435b8-cdb7-4252-b25a-fb30629cb719","ios":"levelo://app?vid=563435b8-cdb7-4252-b25a-fb30629cb719"},"vehicle_type_id":"4","last_reported":1730142444,"current_range_meters":7200,"station_id":"ce4bhe12rcd13ifvqf30","pricing_plan_id":"cebpf4jnsgd1na2vs0mg"},{"bike_id":"3bf790f7-c5c6-4790-9ac2-3f0ade3f09b5","system_id":"levelo_inurba_marseille","lat":43.28445,"lon":5.35893,"is_reserved":false,"is_disabled":false,"rental_uris":{"android":"levelo://app?vid=3bf790f7-c5c6-4790-9ac2-3f0ade3f09b5","ios":"levelo://app?vid=3bf790f7-c5c6-4790-9ac2-3f0ade3f09b5"},"vehicle_type_id":"4","last_reported":1730142444,"current_range_meters":4800,"station_id":"ce4bhah2rcd13ifvqei0","pricing_plan_id":"cebpf4jnsgd1na2vs0mg"},{"bike_id":"5bc1cefa-b826-46bb-9d14-908c41c66532","system_id":"levelo_inurba_marseille","lat":43.29263,"lon":5.38446,"is_reserved":false,"is_disabled":false,"rental_uris":{"android":"levelo://app?vid=5bc1cefa-b826-46bb-9d14-908c41c66532","ios":"levelo://app?vid=5bc1cefa-b826-46bb-9d14-908c41c66532"},"vehicle_type_id":"4","last_reported":1730142444,"current_range_meters":32800,"station_id":"ce4bh692rcd13ifvqea0","pricing_plan_id":"cebpf4jnsgd1na2vs0mg"},{"bike_id":"3dae3a55-06c7-4e02-9931-dea43d2074fa","system_id":"levelo_inurba_marseille","lat":43.29006,"lon":5.35608,"is_reserved":false,"is_disabled":false,"rental_uris":{"android":"levelo://app?vid=3dae3a55-06c7-4e02-9931-dea43d2074fa","ios":"levelo://app?vid=3dae3a55-06c7-4e02-9931-dea43d2074fa"},"vehicle_type_id":"4","last_reported":1730142444,"current_range_meters":38800,"station_id":"ce4bhb92rcd13ifvqen0","pricing_plan_id":"cebpf4jnsgd1na2vs0mg"},{"bike_id":"4e947fac-5822-4715-9cc7-b960ba5a13b3","system_id":"levelo_inurba_marseille","lat":43.28475,"lon":5.38424,"is_reserved":false,"is_disabled":false,"rental_uris":{"android":"levelo://app?vid=4e947fac-5822-4715-9cc7-b960ba5a13b3","ios":"levelo://app?vid=4e947fac-5822-4715-9cc7-b960ba5a13b3"},"vehicle_type_id":"4","last_reported":1730142444,"current_range_meters":8400,"station_id":"ce4bh512rcd13ifvqe3g","pricing_plan_id":"cebpf4jnsgd1na2vs0mg"},{"bike_id":"0e1d9b17-1018-43c0-97c2-8abf2fb98f56","system_id":"levelo_inurba_marseille","lat":43.27378,"lon":5.36253,"is_reserved":false,"is_disabled":false,"rental_uris":{"android":"levelo://app?vid=0e1d9b17-1018-43c0-97c2-8abf2fb98f56","ios":"levelo://app?vid=0e1d9b17-1018-43c0-97c2-8abf2fb98f56"},"vehicle_type_id":"4","last_reported":1730142444,"current_range_meters":32000,"station_id":"ce4bhbh2rcd13ifvqeo0","pricing_plan_id":"cebpf4jnsgd1na2vs0mg"},{"bike_id":"905ee73a-bd78-4f81-ab92-1dbaba9937aa","system_id":"levelo_inurba_marseille","lat":43.29531,"lon":5.37499,"is_reserved":false,"is_disabled":false,"rental_uris":{"android":"levelo://app?vid=905ee73a-bd78-4f81-ab92-1dbaba9937aa","ios":"levelo://app?vid=905ee73a-bd78-4f81-ab92-1dbaba9937aa"},"vehicle_type_id":"4","last_reported":1730142444,"current_range_meters":8800,"station_id":"ce4bgkp2rcd13ifvqbmg","pricing_plan_id":"cebpf4jnsgd1na2vs0mg"},{"bike_id":"9fcb6089-7406-43af-bee1-c142a90f597d","system_id":"levelo_inurba_marseille","lat":43.27499,"lon":5.42451,"is_reserved":false,"is_disabled":false,"rental_uris":{"android":"levelo://app?vid=9fcb6089-7406-43af-bee1-c142a90f597d","ios":"levelo://app?vid=9fcb6089-7406-43af-bee1-c142a90f597d"},"vehicle_type_id":"4","last_reported":1730142444,"current_range_meters":38800,"station_id":"ce4bhn92rcd13ifvqgrg","pricing_plan_id":"cebpf4jnsgd1na2vs0mg"},{"bike_id":"5c05f131-a563-4378-9457-751dbcbf2546","system_id":"levelo_inurba_marseille","lat":43.28848,"lon":5.3585,"is_reserved":false,"is_disabled":false,"rental_uris":{"android":"levelo://app?vid=5c05f131-a563-4378-9457-751dbcbf2546","ios":"levelo://app?vid=5c05f131-a563-4378-9457-751dbcbf2546"},"vehicle_type_id":"4","last_reported":1730142444,"current_range_meters":11600,"station_id":"ce4bhb12rcd13ifvqem0","pricing_plan_id":"cebpf4jnsgd1na2vs0mg"},{"bike_id":"b813d4d8-9d97-470a-b667-136139dc5331","system_id":"levelo_inurba_marseille","lat":43.30896,"lon":5.37193,"is_reserved":false,"is_disabled":false,"rental_uris":{"android":"levelo://app?vid=b813d4d8-9d97-470a-b667-136139dc5331","ios":"levelo://app?vid=b813d4d8-9d97-470a-b667-136139dc5331"},"vehicle_type_id":"4","last_reported":1730142444,"current_range_meters":39200,"station_id":"ce4bguh2rcd13ifvqckg","pricing_plan_id":"cebpf4jnsgd1na2vs0mg"},{"bike_id":"f48f991b-9120-46a6-aa6b-30b79590f171","system_id":"levelo_inurba_marseille","lat":43.29707,"lon":5.3662,"is_reserved":false,"is_disabled":false,"rental_uris":{"android":"levelo://app?vid=f48f991b-9120-46a6-aa6b-30b79590f171","ios":"levelo://app?vid=f48f991b-9120-46a6-aa6b-30b79590f171"},"vehicle_type_id":"4","last_reported":1730142444,"current_range_meters":4400,"station_id":"ce4bgn12rcd13ifvqbt0","pricing_plan_id":"cebpf4jnsgd1na2vs0mg"},{"bike_id":"37635e21-b06e-48a7-92ec-abffe892e01e","system_id":"levelo_inurba_marseille","lat":43.30886,"lon":5.37199,"is_reserved":false,"is_disabled":false,"rental_uris":{"android":"levelo://app?vid=37635e21-b06e-48a7-92ec-abffe892e01e","ios":"levelo://app?vid=37635e21-b06e-48a7-92ec-abffe892e01e"},"vehicle_type_id":"4","last_reported":1730142444,"current_range_meters":38800,"station_id":"ce4bguh2rcd13ifvqckg","pricing_plan_id":"cebpf4jnsgd1na2vs0mg"},{"bike_id":"25916912-0b1f-49b6-aaf3-e194317aab5e","system_id":"levelo_inurba_marseille","lat":43.29225,"lon":5.38015,"is_reserved":false,"is_disabled":false,"rental_uris":{"android":"levelo://app?vid=25916912-0b1f-49b6-aaf3-e194317aab5e","ios":"levelo://app?vid=25916912-0b1f-49b6-aaf3-e194317aab5e"},"vehicle_type_id":"4","last_reported":1730142444,"current_range_meters":30800,"station_id":"ce4bh512rcd13ifvqe3g","pricing_plan_id":"cebpf4jnsgd1na2vs0mg"},{"bike_id":"b3508a52-b1ff-4f15-8be4-b943e080cf50","system_id":"levelo_inurba_marseille","lat":43.2827,"lon":5.3506,"is_reserved":false,"is_disabled":false,"rental_uris":{"android":"levelo://app?vid=b3508a52-b1ff-4f15-8be4-b943e080cf50","ios":"levelo://app?vid=b3508a52-b1ff-4f15-8be4-b943e080cf50"},"vehicle_type_id":"4","last_reported":1730142444,"current_range_meters":17600,"station_id":"ce4bhbp2rcd13ifvqerg","pricing_plan_id":"cebpf4jnsgd1na2vs0mg"},{"bike_id":"4cf9cbb8-9c24-4e6e-ba5f-a4bad1e53069","system_id":"levelo_inurba_marseille","lat":43.31683,"lon":5.40475,"is_reserved":false,"is_disabled":false,"rental_uris":{"android":"levelo://app?vid=4cf9cbb8-9c24-4e6e-ba5f-a4bad1e53069","ios":"levelo://app?vid=4cf9cbb8-9c24-4e6e-ba5f-a4bad1e53069"},"vehicle_type_id":"4","last_reported":1730142444,"current_range_meters":2800,"station_id":"ce4bh012rcd13ifvqd00","pricing_plan_id":"cebpf4jnsgd1na2vs0mg"},{"bike_id":"1fcd3223-ff2b-47b7-8567-0be995b0330f","system_id":"levelo_inurba_marseille","lat":43.27497,"lon":5.42448,"is_reserved":false,"is_disabled":false,"rental_uris":{"android":"levelo://app?vid=1fcd3223-ff2b-47b7-8567-0be995b0330f","ios":"levelo://app?vid=1fcd3223-ff2b-47b7-8567-0be995b0330f"},"vehicle_type_id":"4","last_reported":1730142444,"current_range_meters":38800,"station_id":"ce4bhn92rcd13ifvqgrg","pricing_plan_id":"cebpf4jnsgd1na2vs0mg"},{"bike_id":"5ee787f4-b1e1-43d7-afec-192952f8f431","system_id":"levelo_inurba_marseille","lat":43.2397,"lon":5.36633,"is_reserved":false,"is_disabled":false,"rental_uris":{"android":"levelo://app?vid=5ee787f4-b1e1-43d7-afec-192952f8f431","ios":"levelo://app?vid=5ee787f4-b1e1-43d7-afec-192952f8f431"},"vehicle_type_id":"4","last_reported":1730142444,"current_range_meters":9600,"station_id":"ce4bhi12rcd13ifvqfp0","pricing_plan_id":"cebpf4jnsgd1na2vs0mg"},{"bike_id":"8fac999c-77b0-4bab-95c9-b9a6a3bb48b2","system_id":"levelo_inurba_marseille","lat":43.3128,"lon":5.40166,"is_reserved":false,"is_disabled":false,"rental_uris":{"android":"levelo://app?vid=8fac999c-77b0-4bab-95c9-b9a6a3bb48b2","ios":"levelo://app?vid=8fac999c-77b0-4bab-95c9-b9a6a3bb48b2"},"vehicle_type_id":"4","last_reported":1730142444,"current_range_meters":32000,"station_id":"ce4bh092rcd13ifvqd30","pricing_plan_id":"cebpf4jnsgd1na2vs0mg"},{"bike_id":"4f21f473-d6ef-4678-b028-ed29a51ab020","system_id":"levelo_inurba_marseille","lat":43.31676,"lon":5.43557,"is_reserved":false,"is_disabled":false,"rental_uris":{"android":"levelo://app?vid=4f21f473-d6ef-4678-b028-ed29a51ab020","ios":"levelo://app?vid=4f21f473-d6ef-4678-b028-ed29a51ab020"},"vehicle_type_id":"4","last_reported":1730142444,"current_range_meters":27600,"station_id":"","pricing_plan_id":"cebpf4jnsgd1na2vs0mg"},{"bike_id":"5b16d41b-0739-4f65-9404-ebc1b67b3282","system_id":"levelo_inurba_marseille","lat":43.28614,"lon":5.37063,"is_reserved":false,"is_disabled":false,"rental_uris":{"android":"levelo://app?vid=5b16d41b-0739-4f65-9404-ebc1b67b3282","ios":"levelo://app?vid=5b16d41b-0739-4f65-9404-ebc1b67b3282"},"vehicle_type_id":"4","last_reported":1730142444,"current_range_meters":11200,"station_id":"ce4bht12rcd13ifvqi60","pricing_plan_id":"cebpf4jnsgd1na2vs0mg"},{"bike_id":"d97d7e58-0bdb-4114-9249-8f863e0e9a7c","system_id":"levelo_inurba_marseille","lat":43.28414,"lon":5.37511,"is_reserved":false,"is_disabled":false,"rental_uris":{"android":"levelo://app?vid=d97d7e58-0bdb-4114-9249-8f863e0e9a7c","ios":"levelo://app?vid=d97d7e58-0bdb-4114-9249-8f863e0e9a7c"},"vehicle_type_id":"4","last_reported":1730142444,"current_range_meters":9600,"station_id":"ce4bh412rcd13ifvqds0","pricing_plan_id":"cebpf4jnsgd1na2vs0mg"},{"bike_id":"f06a33d9-a4b8-4248-8422-bfa380d536dc","system_id":"levelo_inurba_marseille","lat":43.281059,"lon":5.378331,"is_reserved":false,"is_disabled":false,"rental_uris":{"android":"levelo://app?vid=f06a33d9-a4b8-4248-8422-bfa380d536dc","ios":"levelo://app?vid=f06a33d9-a4b8-4248-8422-bfa380d536dc"},"vehicle_type_id":"4","last_reported":1730142444,"current_range_meters":8400,"station_id":"ce4bha12rcd13ifvqee0","pricing_plan_id":"cebpf4jnsgd1na2vs0mg"},{"bike_id":"6287583f-3e71-4fd6-9bc2-e500f957fe4b","system_id":"levelo_inurba_marseille","lat":43.298676,"lon":5.403775,"is_reserved":false,"is_disabled":false,"rental_uris":{"android":"levelo://app?vid=6287583f-3e71-4fd6-9bc2-e500f957fe4b","ios":"levelo://app?vid=6287583f-3e71-4fd6-9bc2-e500f957fe4b"},"vehicle_type_id":"4","last_reported":1730142444,"current_range_meters":35600,"station_id":"ce4bh112rcd13ifvqd90","pricing_plan_id":"cebpf4jnsgd1na2vs0mg"},{"bike_id":"19b4af98-6f14-4a0b-b7f7-e8837d686c1e","system_id":"levelo_inurba_marseille","lat":43.29712,"lon":5.36616,"is_reserved":false,"is_disabled":false,"rental_uris":{"android":"levelo://app?vid=19b4af98-6f14-4a0b-b7f7-e8837d686c1e","ios":"levelo://app?vid=19b4af98-6f14-4a0b-b7f7-e8837d686c1e"},"vehicle_type_id":"4","last_reported":1730142444,"current_range_meters":36800,"station_id":"ce4bgn12rcd13ifvqbt0","pricing_plan_id":"cebpf4jnsgd1na2vs0mg"},{"bike_id":"b7cdb225-b8d2-428a-9659-1844801c9c20","system_id":"levelo_inurba_marseille","lat":43.31321,"lon":5.39696,"is_reserved":false,"is_disabled":false,"rental_uris":{"android":"levelo://app?vid=b7cdb225-b8d2-428a-9659-1844801c9c20","ios":"levelo://app?vid=b7cdb225-b8d2-428a-9659-1844801c9c20"},"vehicle_type_id":"4","last_reported":1730142444,"current_range_meters":36000,"station_id":"ce4bgvp2rcd13ifvqcu0","pricing_plan_id":"cebpf4jnsgd1na2vs0mg"},{"bike_id":"1e425206-3d22-418a-85a2-4ae68fe46c74","system_id":"levelo_inurba_marseille","lat":43.29615,"lon":5.37733,"is_reserved":false,"is_disabled":false,"rental_uris":{"android":"levelo://app?vid=1e425206-3d22-418a-85a2-4ae68fe46c74","ios":"levelo://app?vid=1e425206-3d22-418a-85a2-4ae68fe46c74"},"vehicle_type_id":"4","last_reported":1730142444,"current_range_meters":27200,"station_id":"ce4bgi92rcd13ifvqb90","pricing_plan_id":"cebpf4jnsgd1na2vs0mg"},{"bike_id":"587f35f1-4ca3-4726-938e-103307e4500f","system_id":"levelo_inurba_marseille","lat":43.28932,"lon":5.36393,"is_reserved":false,"is_disabled":false,"rental_uris":{"android":"levelo://app?vid=587f35f1-4ca3-4726-938e-103307e4500f","ios":"levelo://app?vid=587f35f1-4ca3-4726-938e-103307e4500f"},"vehicle_type_id":"4","last_reported":1730142444,"current_range_meters":16000,"station_id":"ce4bhc92rcd13ifvqetg","pricing_plan_id":"cebpf4jnsgd1na2vs0mg"},{"bike_id":"15dececf-6035-41e4-90ea-8d917a9f1da7","system_id":"levelo_inurba_marseille","lat":43.29813,"lon":5.38145,"is_reserved":false,"is_disabled":false,"rental_uris":{"android":"levelo://app?vid=15dececf-6035-41e4-90ea-8d917a9f1da7","ios":"levelo://app?vid=15dececf-6035-41e4-90ea-8d917a9f1da7"},"vehicle_type_id":"4","last_reported":1730142444,"current_range_meters":37600,"station_id":"ce4bgip2rcd13ifvqbb0","pricing_plan_id":"cebpf4jnsgd1na2vs0mg"},{"bike_id":"43c840d6-1774-42a0-a272-c2cbce879e7e","system_id":"levelo_inurba_marseille","lat":43.3062,"lon":5.37241,"is_reserved":false,"is_disabled":false,"rental_uris":{"android":"levelo://app?vid=43c840d6-1774-42a0-a272-c2cbce879e7e","ios":"levelo://app?vid=43c840d6-1774-42a0-a272-c2cbce879e7e"},"vehicle_type_id":"4","last_reported":1730142444,"current_range_meters":38800,"station_id":"ce4bgh92rcd13ifvqb50","pricing_plan_id":"cebpf4jnsgd1na2vs0mg"},{"bike_id":"2e132625-0bc6-4ffc-9b34-88db153bb307","system_id":"levelo_inurba_marseille","lat":43.28004,"lon":5.40011,"is_reserved":false,"is_disabled":false,"rental_uris":{"android":"levelo://app?vid=2e132625-0bc6-4ffc-9b34-88db153bb307","ios":"levelo://app?vid=2e132625-0bc6-4ffc-9b34-88db153bb307"},"vehicle_type_id":"4","last_reported":1730142444,"current_range_meters":38800,"station_id":"ce4bho92rcd13ifvqh4g","pricing_plan_id":"cebpf4jnsgd1na2vs0mg"},{"bike_id":"5a3eccb6-ab64-462d-a678-b301d864c3d3","system_id":"levelo_inurba_marseille","lat":43.292511,"lon":5.38444,"is_reserved":false,"is_disabled":false,"rental_uris":{"android":"levelo://app?vid=5a3eccb6-ab64-462d-a678-b301d864c3d3","ios":"levelo://app?vid=5a3eccb6-ab64-462d-a678-b301d864c3d3"},"vehicle_type_id":"4","last_reported":1730142444,"current_range_meters":9200,"station_id":"ce4bgk12rcd13ifvqbj0","pricing_plan_id":"cebpf4jnsgd1na2vs0mg"},{"bike_id":"cfee1988-9f0f-43b5-972d-658b297c2748","system_id":"levelo_inurba_marseille","lat":43.30288,"lon":5.39201,"is_reserved":false,"is_disabled":false,"rental_uris":{"android":"levelo://app?vid=cfee1988-9f0f-43b5-972d-658b297c2748","ios":"levelo://app?vid=cfee1988-9f0f-43b5-972d-658b297c2748"},"vehicle_type_id":"4","last_reported":1730142444,"current_range_meters":35200,"station_id":"ce4bgkh2rcd13ifvqbk0","pricing_plan_id":"cebpf4jnsgd1na2vs0mg"},{"bike_id":"df4da2d7-04e5-48a1-8925-07bc05ee873d","system_id":"levelo_inurba_marseille","lat":43.23965,"lon":5.36631,"is_reserved":false,"is_disabled":false,"rental_uris":{"android":"levelo://app?vid=df4da2d7-04e5-48a1-8925-07bc05ee873d","ios":"levelo://app?vid=df4da2d7-04e5-48a1-8925-07bc05ee873d"},"vehicle_type_id":"4","last_reported":1730142444,"current_range_meters":6000,"station_id":"ce4bhi12rcd13ifvqfp0","pricing_plan_id":"cebpf4jnsgd1na2vs0mg"},{"bike_id":"5f99b084-402e-4f12-8ba3-9ce6da7b8739","system_id":"levelo_inurba_marseille","lat":43.29416,"lon":5.38625,"is_reserved":false,"is_disabled":false,"rental_uris":{"android":"levelo://app?vid=5f99b084-402e-4f12-8ba3-9ce6da7b8739","ios":"levelo://app?vid=5f99b084-402e-4f12-8ba3-9ce6da7b8739"},"vehicle_type_id":"4","last_reported":1730142444,"current_range_meters":22800,"station_id":"ce4bh2h2rcd13ifvqdh0","pricing_plan_id":"cebpf4jnsgd1na2vs0mg"},{"bike_id":"737837b8-7066-4d20-89f3-91917ea0193c","system_id":"levelo_inurba_marseille","lat":43.28464,"lon":5.35896,"is_reserved":false,"is_disabled":false,"rental_uris":{"android":"levelo://app?vid=737837b8-7066-4d20-89f3-91917ea0193c","ios":"levelo://app?vid=737837b8-7066-4d20-89f3-91917ea0193c"},"vehicle_type_id":"4","last_reported":1730142444,"current_range_meters":22800,"station_id":"ce4bhah2rcd13ifvqei0","pricing_plan_id":"cebpf4jnsgd1na2vs0mg"},{"bike_id":"bacfa137-a25e-4452-8aee-de3488773d17","system_id":"levelo_inurba_marseille","lat":43.2804,"lon":5.36946,"is_reserved":false,"is_disabled":false,"rental_uris":{"android":"levelo://app?vid=bacfa137-a25e-4452-8aee-de3488773d17","ios":"levelo://app?vid=bacfa137-a25e-4452-8aee-de3488773d17"},"vehicle_type_id":"4","last_reported":1730142444,"current_range_meters":10000,"station_id":"ce4bha12rcd13ifvqef0","pricing_plan_id":"cebpf4jnsgd1na2vs0mg"},{"bike_id":"b3d19fe9-784a-4138-a42f-b8e41f21cf22","system_id":"levelo_inurba_marseille","lat":43.27955,"lon":5.41047,"is_reserved":false,"is_disabled":false,"rental_uris":{"android":"levelo://app?vid=b3d19fe9-784a-4138-a42f-b8e41f21cf22","ios":"levelo://app?vid=b3d19fe9-784a-4138-a42f-b8e41f21cf22"},"vehicle_type_id":"4","last_reported":1730142444,"current_range_meters":8800,"station_id":"ce4bhnp2rcd13ifvqh0g","pricing_plan_id":"cebpf4jnsgd1na2vs0mg"},{"bike_id":"9b77feaa-aa05-4a1a-94ea-2ca88a711d39","system_id":"levelo_inurba_marseille","lat":43.29573,"lon":5.39982,"is_reserved":false,"is_disabled":false,"rental_uris":{"android":"levelo://app?vid=9b77feaa-aa05-4a1a-94ea-2ca88a711d39","ios":"levelo://app?vid=9b77feaa-aa05-4a1a-94ea-2ca88a711d39"},"vehicle_type_id":"4","last_reported":1730142444,"current_range_meters":20400,"station_id":"ce4bh312rcd13ifvqdj0","pricing_plan_id":"cebpf4jnsgd1na2vs0mg"},{"bike_id":"1f02a00c-e697-4446-8389-72dcdacc9f45","system_id":"levelo_inurba_marseille","lat":43.3249,"lon":5.36569,"is_reserved":false,"is_disabled":false,"rental_uris":{"android":"levelo://app?vid=1f02a00c-e697-4446-8389-72dcdacc9f45","ios":"levelo://app?vid=1f02a00c-e697-4446-8389-72dcdacc9f45"},"vehicle_type_id":"4","last_reported":1730142444,"current_range_meters":32400,"station_id":"ce4bhs12rcd13ifvqhvg","pricing_plan_id":"cebpf4jnsgd1na2vs0mg"},{"bike_id":"8e93bc1b-1b4f-4129-bbbf-603daf4b7dff","system_id":"levelo_inurba_marseille","lat":43.295757,"lon":5.39966,"is_reserved":false,"is_disabled":false,"rental_uris":{"android":"levelo://app?vid=8e93bc1b-1b4f-4129-bbbf-603daf4b7dff","ios":"levelo://app?vid=8e93bc1b-1b4f-4129-bbbf-603daf4b7dff"},"vehicle_type_id":"4","last_reported":1730142444,"current_range_meters":38800,"station_id":"ce4bh312rcd13ifvqdj0","pricing_plan_id":"cebpf4jnsgd1na2vs0mg"},{"bike_id":"5647b16d-b0f4-42fc-b25d-011ac9831fbc","system_id":"levelo_inurba_marseille","lat":43.28465,"lon":5.35879,"is_reserved":false,"is_disabled":false,"rental_uris":{"android":"levelo://app?vid=5647b16d-b0f4-42fc-b25d-011ac9831fbc","ios":"levelo://app?vid=5647b16d-b0f4-42fc-b25d-011ac9831fbc"},"vehicle_type_id":"4","last_reported":1730142444,"current_range_meters":27600,"station_id":"ce4bhah2rcd13ifvqei0","pricing_plan_id":"cebpf4jnsgd1na2vs0mg"},{"bike_id":"0fffbad9-1cc4-4db2-ae2a-0c7ad8401b15","system_id":"levelo_inurba_marseille","lat":43.28857,"lon":5.39323,"is_reserved":false,"is_disabled":false,"rental_uris":{"android":"levelo://app?vid=0fffbad9-1cc4-4db2-ae2a-0c7ad8401b15","ios":"levelo://app?vid=0fffbad9-1cc4-4db2-ae2a-0c7ad8401b15"},"vehicle_type_id":"4","last_reported":1730142444,"current_range_meters":29600,"station_id":"ce4bh2p2rcd13ifvqdi0","pricing_plan_id":"cebpf4jnsgd1na2vs0mg"},{"bike_id":"f578f67f-a581-4ebc-b1e5-0a15798f37d2","system_id":"levelo_inurba_marseille","lat":43.29001,"lon":5.35613,"is_reserved":false,"is_disabled":false,"rental_uris":{"android":"levelo://app?vid=f578f67f-a581-4ebc-b1e5-0a15798f37d2","ios":"levelo://app?vid=f578f67f-a581-4ebc-b1e5-0a15798f37d2"},"vehicle_type_id":"4","last_reported":1730142444,"current_range_meters":18800,"station_id":"ce4bhb92rcd13ifvqen0","pricing_plan_id":"cebpf4jnsgd1na2vs0mg"},{"bike_id":"d004fa5e-30c3-42b8-ab1e-e4fab5c21a38","system_id":"levelo_inurba_marseille","lat":43.299634,"lon":5.384892,"is_reserved":false,"is_disabled":false,"rental_uris":{"android":"levelo://app?vid=d004fa5e-30c3-42b8-ab1e-e4fab5c21a38","ios":"levelo://app?vid=d004fa5e-30c3-42b8-ab1e-e4fab5c21a38"},"vehicle_type_id":"4","last_reported":1730142444,"current_range_meters":28800,"station_id":"ce4bgj92rcd13ifvqbd0","pricing_plan_id":"cebpf4jnsgd1na2vs0mg"},{"bike_id":"b58344b2-0596-4519-acb1-31f568d12e30","system_id":"levelo_inurba_marseille","lat":43.298052,"lon":5.403728,"is_reserved":false,"is_disabled":false,"rental_uris":{"android":"levelo://app?vid=b58344b2-0596-4519-acb1-31f568d12e30","ios":"levelo://app?vid=b58344b2-0596-4519-acb1-31f568d12e30"},"vehicle_type_id":"4","last_reported":1730142444,"current_range_meters":14400,"station_id":"ce4bh112rcd13ifvqd90","pricing_plan_id":"cebpf4jnsgd1na2vs0mg"},{"bike_id":"6d92f4d9-0cdd-41cd-aecc-2b7f33713104","system_id":"levelo_inurba_marseille","lat":43.29116,"lon":5.41746,"is_reserved":false,"is_disabled":false,"rental_uris":{"android":"levelo://app?vid=6d92f4d9-0cdd-41cd-aecc-2b7f33713104","ios":"levelo://app?vid=6d92f4d9-0cdd-41cd-aecc-2b7f33713104"},"vehicle_type_id":"4","last_reported":1730142444,"current_range_meters":8400,"station_id":"","pricing_plan_id":"cebpf4jnsgd1na2vs0mg"},{"bike_id":"9f809271-3945-487f-b507-21cbbbf9f774","system_id":"levelo_inurba_marseille","lat":43.28934,"lon":5.38397,"is_reserved":false,"is_disabled":false,"rental_uris":{"android":"levelo://app?vid=9f809271-3945-487f-b507-21cbbbf9f774","ios":"levelo://app?vid=9f809271-3945-487f-b507-21cbbbf9f774"},"vehicle_type_id":"4","last_reported":1730142444,"current_range_meters":2800,"station_id":"ce4bh612rcd13ifvqe6g","pricing_plan_id":"cebpf4jnsgd1na2vs0mg"},{"bike_id":"56e8ec01-0bee-4d15-be5f-5b8e46da9fd2","system_id":"levelo_inurba_marseille","lat":43.3042,"lon":5.38579,"is_reserved":false,"is_disabled":false,"rental_uris":{"android":"levelo://app?vid=56e8ec01-0bee-4d15-be5f-5b8e46da9fd2","ios":"levelo://app?vid=56e8ec01-0bee-4d15-be5f-5b8e46da9fd2"},"vehicle_type_id":"4","last_reported":1730142444,"current_range_meters":24800,"station_id":"ce4bgt12rcd13ifvqce0","pricing_plan_id":"cebpf4jnsgd1na2vs0mg"},{"bike_id":"bf96e1c5-f9c1-438b-b5f4-fccd61dc341d","system_id":"levelo_inurba_marseille","lat":43.24805,"lon":5.37462,"is_reserved":false,"is_disabled":false,"rental_uris":{"android":"levelo://app?vid=bf96e1c5-f9c1-438b-b5f4-fccd61dc341d","ios":"levelo://app?vid=bf96e1c5-f9c1-438b-b5f4-fccd61dc341d"},"vehicle_type_id":"4","last_reported":1730142444,"current_range_meters":18000,"station_id":"ce4bhgh2rcd13ifvqfb0","pricing_plan_id":"cebpf4jnsgd1na2vs0mg"},{"bike_id":"f70afad5-389d-4240-9eb0-01b954e62fa9","system_id":"levelo_inurba_marseille","lat":43.24542,"lon":5.39531,"is_reserved":false,"is_disabled":false,"rental_uris":{"android":"levelo://app?vid=f70afad5-389d-4240-9eb0-01b954e62fa9","ios":"levelo://app?vid=f70afad5-389d-4240-9eb0-01b954e62fa9"},"vehicle_type_id":"4","last_reported":1730142444,"current_range_meters":2800,"station_id":"ce4bhlp2rcd13ifvqgjg","pricing_plan_id":"cebpf4jnsgd1na2vs0mg"},{"bike_id":"0611bcc3-a3c0-4998-9ace-3db937549733","system_id":"levelo_inurba_marseille","lat":43.28932,"lon":5.36381,"is_reserved":false,"is_disabled":false,"rental_uris":{"android":"levelo://app?vid=0611bcc3-a3c0-4998-9ace-3db937549733","ios":"levelo://app?vid=0611bcc3-a3c0-4998-9ace-3db937549733"},"vehicle_type_id":"4","last_reported":1730142444,"current_range_meters":39200,"station_id":"ce4bhc92rcd13ifvqetg","pricing_plan_id":"cebpf4jnsgd1na2vs0mg"},{"bike_id":"a8e88f2f-ddb8-4d03-aa57-c1856446f956","system_id":"levelo_inurba_marseille","lat":43.29809,"lon":5.404,"is_reserved":false,"is_disabled":false,"rental_uris":{"android":"levelo://app?vid=a8e88f2f-ddb8-4d03-aa57-c1856446f956","ios":"levelo://app?vid=a8e88f2f-ddb8-4d03-aa57-c1856446f956"},"vehicle_type_id":"4","last_reported":1730142444,"current_range_meters":39200,"station_id":"ce4bh112rcd13ifvqd90","pricing_plan_id":"cebpf4jnsgd1na2vs0mg"},{"bike_id":"2cb25abe-a4bf-4a82-b770-8b7dc0456ae6","system_id":"levelo_inurba_marseille","lat":43.31276,"lon":5.40164,"is_reserved":false,"is_disabled":false,"rental_uris":{"android":"levelo://app?vid=2cb25abe-a4bf-4a82-b770-8b7dc0456ae6","ios":"levelo://app?vid=2cb25abe-a4bf-4a82-b770-8b7dc0456ae6"},"vehicle_type_id":"4","last_reported":1730142444,"current_range_meters":38800,"station_id":"ce4bh092rcd13ifvqd30","pricing_plan_id":"cebpf4jnsgd1na2vs0mg"},{"bike_id":"38071c36-ed9c-48b0-869a-9c16b04e3126","system_id":"levelo_inurba_marseille","lat":43.28616,"lon":5.35104,"is_reserved":false,"is_disabled":false,"rental_uris":{"android":"levelo://app?vid=38071c36-ed9c-48b0-869a-9c16b04e3126","ios":"levelo://app?vid=38071c36-ed9c-48b0-869a-9c16b04e3126"},"vehicle_type_id":"4","last_reported":1730142444,"current_range_meters":19600,"station_id":"ce4bhch2rcd13ifvqeug","pricing_plan_id":"cebpf4jnsgd1na2vs0mg"},{"bike_id":"6a6fe5b8-bf7c-4fdc-b9dd-e9328619a2a0","system_id":"levelo_inurba_marseille","lat":43.241681,"lon":5.364059,"is_reserved":false,"is_disabled":false,"rental_uris":{"android":"levelo://app?vid=6a6fe5b8-bf7c-4fdc-b9dd-e9328619a2a0","ios":"levelo://app?vid=6a6fe5b8-bf7c-4fdc-b9dd-e9328619a2a0"},"vehicle_type_id":"4","last_reported":1730142444,"current_range_meters":12400,"station_id":"cpo36qri1sfpv3e86is0","pricing_plan_id":"cebpf4jnsgd1na2vs0mg"},{"bike_id":"1b65bad1-6199-47b2-bf81-1031e5a2c2ec","system_id":"levelo_inurba_marseille","lat":43.28618,"lon":5.35109,"is_reserved":false,"is_disabled":false,"rental_uris":{"android":"levelo://app?vid=1b65bad1-6199-47b2-bf81-1031e5a2c2ec","ios":"levelo://app?vid=1b65bad1-6199-47b2-bf81-1031e5a2c2ec"},"vehicle_type_id":"4","last_reported":1730142444,"current_range_meters":39200,"station_id":"ce4bhch2rcd13ifvqeug","pricing_plan_id":"cebpf4jnsgd1na2vs0mg"},{"bike_id":"0bbdf646-65cf-4b5f-98cb-46a8b961e208","system_id":"levelo_inurba_marseille","lat":43.31083,"lon":5.42432,"is_reserved":false,"is_disabled":false,"rental_uris":{"android":"levelo://app?vid=0bbdf646-65cf-4b5f-98cb-46a8b961e208","ios":"levelo://app?vid=0bbdf646-65cf-4b5f-98cb-46a8b961e208"},"vehicle_type_id":"4","last_reported":1730142444,"current_range_meters":38800,"station_id":"ce4bhp92rcd13ifvqhag","pricing_plan_id":"cebpf4jnsgd1na2vs0mg"},{"bike_id":"825d9cb8-81c5-4b2c-8290-178fb9e1c182","system_id":"levelo_inurba_marseille","lat":43.30934,"lon":5.3708,"is_reserved":false,"is_disabled":false,"rental_uris":{"android":"levelo://app?vid=825d9cb8-81c5-4b2c-8290-178fb9e1c182","ios":"levelo://app?vid=825d9cb8-81c5-4b2c-8290-178fb9e1c182"},"vehicle_type_id":"4","last_reported":1730142444,"current_range_meters":29600,"station_id":"ce4bha92rcd13ifvqeg0","pricing_plan_id":"cebpf4jnsgd1na2vs0mg"},{"bike_id":"a3c986df-8bb4-4aa0-9365-ff741272c0c9","system_id":"levelo_inurba_marseille","lat":43.32292,"lon":5.38264,"is_reserved":false,"is_disabled":false,"rental_uris":{"android":"levelo://app?vid=a3c986df-8bb4-4aa0-9365-ff741272c0c9","ios":"levelo://app?vid=a3c986df-8bb4-4aa0-9365-ff741272c0c9"},"vehicle_type_id":"4","last_reported":1730142444,"current_range_meters":19600,"station_id":"ce4bhr12rcd13ifvqhqg","pricing_plan_id":"cebpf4jnsgd1na2vs0mg"},{"bike_id":"266575d8-09f9-4cd7-833a-204d10e502df","system_id":"levelo_inurba_marseille","lat":43.32105,"lon":5.36778,"is_reserved":false,"is_disabled":false,"rental_uris":{"android":"levelo://app?vid=266575d8-09f9-4cd7-833a-204d10e502df","ios":"levelo://app?vid=266575d8-09f9-4cd7-833a-204d10e502df"},"vehicle_type_id":"4","last_reported":1730142444,"current_range_meters":29600,"station_id":"ce4bhrh2rcd13ifvqhug","pricing_plan_id":"cebpf4jnsgd1na2vs0mg"},{"bike_id":"e853fd97-ae66-4ecf-b9b3-385110041550","system_id":"levelo_inurba_marseille","lat":43.26138,"lon":5.40098,"is_reserved":false,"is_disabled":false,"rental_uris":{"android":"levelo://app?vid=e853fd97-ae66-4ecf-b9b3-385110041550","ios":"levelo://app?vid=e853fd97-ae66-4ecf-b9b3-385110041550"},"vehicle_type_id":"4","last_reported":1730142444,"current_range_meters":12400,"station_id":"","pricing_plan_id":"cebpf4jnsgd1na2vs0mg"},{"bike_id":"1483f105-c6fe-4e94-881d-ef3e9ec0abf6","system_id":"levelo_inurba_marseille","lat":43.269483,"lon":5.386228,"is_reserved":false,"is_disabled":false,"rental_uris":{"android":"levelo://app?vid=1483f105-c6fe-4e94-881d-ef3e9ec0abf6","ios":"levelo://app?vid=1483f105-c6fe-4e94-881d-ef3e9ec0abf6"},"vehicle_type_id":"4","last_reported":1730142444,"current_range_meters":1600,"station_id":"ce4bhh92rcd13ifvqfh0","pricing_plan_id":"cebpf4jnsgd1na2vs0mg"},{"bike_id":"8d0fe31c-fea6-4df7-9e06-a095e3af6f9e","system_id":"levelo_inurba_marseille","lat":43.30434,"lon":5.38898,"is_reserved":false,"is_disabled":false,"rental_uris":{"android":"levelo://app?vid=8d0fe31c-fea6-4df7-9e06-a095e3af6f9e","ios":"levelo://app?vid=8d0fe31c-fea6-4df7-9e06-a095e3af6f9e"},"vehicle_type_id":"4","last_reported":1730142444,"current_range_meters":10800,"station_id":"ce4bgk12rcd13ifvqbi0","pricing_plan_id":"cebpf4jnsgd1na2vs0mg"},{"bike_id":"9314d5b9-d0f3-44eb-a61b-3e0f33c81286","system_id":"levelo_inurba_marseille","lat":43.28862,"lon":5.35834,"is_reserved":false,"is_disabled":false,"rental_uris":{"android":"levelo://app?vid=9314d5b9-d0f3-44eb-a61b-3e0f33c81286","ios":"levelo://app?vid=9314d5b9-d0f3-44eb-a61b-3e0f33c81286"},"vehicle_type_id":"4","last_reported":1730142444,"current_range_meters":38800,"station_id":"ce4bhb12rcd13ifvqem0","pricing_plan_id":"cebpf4jnsgd1na2vs0mg"},{"bike_id":"2d918293-d8d5-4c70-abad-22401e5f01d4","system_id":"levelo_inurba_marseille","lat":43.27828,"lon":5.3921,"is_reserved":false,"is_disabled":false,"rental_uris":{"android":"levelo://app?vid=2d918293-d8d5-4c70-abad-22401e5f01d4","ios":"levelo://app?vid=2d918293-d8d5-4c70-abad-22401e5f01d4"},"vehicle_type_id":"4","last_reported":1730142444,"current_range_meters":9200,"station_id":"ce4bhjp2rcd13ifvqga0","pricing_plan_id":"cebpf4jnsgd1na2vs0mg"},{"bike_id":"d2d25175-79f5-46f3-bd4e-5254bbfb905f","system_id":"levelo_inurba_marseille","lat":43.31893,"lon":5.4074,"is_reserved":false,"is_disabled":false,"rental_uris":{"android":"levelo://app?vid=d2d25175-79f5-46f3-bd4e-5254bbfb905f","ios":"levelo://app?vid=d2d25175-79f5-46f3-bd4e-5254bbfb905f"},"vehicle_type_id":"4","last_reported":1730142444,"current_range_meters":8000,"station_id":"ce4bhq12rcd13ifvqhig","pricing_plan_id":"cebpf4jnsgd1na2vs0mg"},{"bike_id":"0da1b385-97b7-4ecf-87d8-dddf103e8f30","system_id":"levelo_inurba_marseille","lat":43.27572,"lon":5.38414,"is_reserved":false,"is_disabled":false,"rental_uris":{"android":"levelo://app?vid=0da1b385-97b7-4ecf-87d8-dddf103e8f30","ios":"levelo://app?vid=0da1b385-97b7-4ecf-87d8-dddf103e8f30"},"vehicle_type_id":"4","last_reported":1730142444,"current_range_meters":13600,"station_id":"ce4bhh92rcd13ifvqfi0","pricing_plan_id":"cebpf4jnsgd1na2vs0mg"},{"bike_id":"64ac11d1-ddce-4e6a-a96b-e8944dcffcc8","system_id":"levelo_inurba_marseille","lat":43.2781,"lon":5.40713,"is_reserved":false,"is_disabled":false,"rental_uris":{"android":"levelo://app?vid=64ac11d1-ddce-4e6a-a96b-e8944dcffcc8","ios":"levelo://app?vid=64ac11d1-ddce-4e6a-a96b-e8944dcffcc8"},"vehicle_type_id":"4","last_reported":1730142444,"current_range_meters":10800,"station_id":"ce4bhnh2rcd13ifvqgtg","pricing_plan_id":"cebpf4jnsgd1na2vs0mg"},{"bike_id":"5e3d1de0-005e-497a-91f6-07d7f76d2880","system_id":"levelo_inurba_marseille","lat":43.26196,"lon":5.3745,"is_reserved":false,"is_disabled":false,"rental_uris":{"android":"levelo://app?vid=5e3d1de0-005e-497a-91f6-07d7f76d2880","ios":"levelo://app?vid=5e3d1de0-005e-497a-91f6-07d7f76d2880"},"vehicle_type_id":"4","last_reported":1730142444,"current_range_meters":27600,"station_id":"ce4bhgp2rcd13ifvqfc0","pricing_plan_id":"cebpf4jnsgd1na2vs0mg"},{"bike_id":"6a66b1ae-6685-4f17-a8bd-618511eda9e2","system_id":"levelo_inurba_marseille","lat":43.32479,"lon":5.36561,"is_reserved":false,"is_disabled":false,"rental_uris":{"android":"levelo://app?vid=6a66b1ae-6685-4f17-a8bd-618511eda9e2","ios":"levelo://app?vid=6a66b1ae-6685-4f17-a8bd-618511eda9e2"},"vehicle_type_id":"4","last_reported":1730142444,"current_range_meters":38000,"station_id":"ce4bhs12rcd13ifvqhvg","pricing_plan_id":"cebpf4jnsgd1na2vs0mg"},{"bike_id":"502deee3-eb35-4cdb-953d-9112b9c9b54a","system_id":"levelo_inurba_marseille","lat":43.3112,"lon":5.37778,"is_reserved":false,"is_disabled":false,"rental_uris":{"android":"levelo://app?vid=502deee3-eb35-4cdb-953d-9112b9c9b54a","ios":"levelo://app?vid=502deee3-eb35-4cdb-953d-9112b9c9b54a"},"vehicle_type_id":"4","last_reported":1730142444,"current_range_meters":25600,"station_id":"ce4bgt92rcd13ifvqcg0","pricing_plan_id":"cebpf4jnsgd1na2vs0mg"},{"bike_id":"c1e42e45-2a2c-4576-b4f9-9d8b874aaf0e","system_id":"levelo_inurba_marseille","lat":43.31487,"lon":5.37316,"is_reserved":false,"is_disabled":false,"rental_uris":{"android":"levelo://app?vid=c1e42e45-2a2c-4576-b4f9-9d8b874aaf0e","ios":"levelo://app?vid=c1e42e45-2a2c-4576-b4f9-9d8b874aaf0e"},"vehicle_type_id":"4","last_reported":1730142444,"current_range_meters":5600,"station_id":"ce4bgt12rcd13ifvqcd0","pricing_plan_id":"cebpf4jnsgd1na2vs0mg"},{"bike_id":"bfcad535-ef54-447e-85f7-14f022c7fbfa","system_id":"levelo_inurba_marseille","lat":43.314651,"lon":5.392132,"is_reserved":false,"is_disabled":false,"rental_uris":{"android":"levelo://app?vid=bfcad535-ef54-447e-85f7-14f022c7fbfa","ios":"levelo://app?vid=bfcad535-ef54-447e-85f7-14f022c7fbfa"},"vehicle_type_id":"4","last_reported":1730142444,"current_range_meters":8800,"station_id":"ce4bgvp2rcd13ifvqcu0","pricing_plan_id":"cebpf4jnsgd1na2vs0mg"},{"bike_id":"03b89aea-1482-4224-9a9c-419d7e9d072e","system_id":"levelo_inurba_marseille","lat":43.26064,"lon":5.39398,"is_reserved":false,"is_disabled":false,"rental_uris":{"android":"levelo://app?vid=03b89aea-1482-4224-9a9c-419d7e9d072e","ios":"levelo://app?vid=03b89aea-1482-4224-9a9c-419d7e9d072e"},"vehicle_type_id":"4","last_reported":1730142444,"current_range_meters":10800,"station_id":"ce4bhh92rcd13ifvqfj0","pricing_plan_id":"cebpf4jnsgd1na2vs0mg"},{"bike_id":"c02ff1c6-a4ad-4148-bd84-5056232f90dd","system_id":"levelo_inurba_marseille","lat":43.32109,"lon":5.36775,"is_reserved":false,"is_disabled":false,"rental_uris":{"android":"levelo://app?vid=c02ff1c6-a4ad-4148-bd84-5056232f90dd","ios":"levelo://app?vid=c02ff1c6-a4ad-4148-bd84-5056232f90dd"},"vehicle_type_id":"4","last_reported":1730142444,"current_range_meters":36800,"station_id":"ce4bhrh2rcd13ifvqhug","pricing_plan_id":"cebpf4jnsgd1na2vs0mg"},{"bike_id":"c6b246f0-da85-421d-9abe-b49b91a046db","system_id":"levelo_inurba_marseille","lat":43.28658,"lon":5.36357,"is_reserved":false,"is_disabled":false,"rental_uris":{"android":"levelo://app?vid=c6b246f0-da85-421d-9abe-b49b91a046db","ios":"levelo://app?vid=c6b246f0-da85-421d-9abe-b49b91a046db"},"vehicle_type_id":"4","last_reported":1730142444,"current_range_meters":19200,"station_id":"ce4bhah2rcd13ifvqej0","pricing_plan_id":"cebpf4jnsgd1na2vs0mg"},{"bike_id":"c282ac55-b4b2-4f9e-9b4b-42ee7ca7c6f5","system_id":"levelo_inurba_marseille","lat":43.23056,"lon":5.35499,"is_reserved":false,"is_disabled":false,"rental_uris":{"android":"levelo://app?vid=c282ac55-b4b2-4f9e-9b4b-42ee7ca7c6f5","ios":"levelo://app?vid=c282ac55-b4b2-4f9e-9b4b-42ee7ca7c6f5"},"vehicle_type_id":"4","last_reported":1730142444,"current_range_meters":24400,"station_id":"cpo3342slgdg3j2ifvpg","pricing_plan_id":"cebpf4jnsgd1na2vs0mg"},