{"last_updated":1726101756,"ttl":30,"version":"2.2","data":{"bikes":[{"bike_id":"c5ee4a7a-4999-466c-95dc-e8e2c567a21c","system_id":"levelo_inurba_marseille","lat":43.27181,"lon":5.40991,"is_reserved":false,"is_disabled":false,"rental_uris":{"android":"levelo://app?vid=c5ee4a7a-4999-466c-95dc-e8e2c567a21c","ios":"levelo://app?vid=c5ee4a7a-4999-466c-95dc-e8e2c567a21c"},"vehicle_type_id":"4","last_reported":1726101757,"current_range_meters":22400,"station_id":"ce4bhl12rcd13ifvqgf0","pricing_plan_id":"cebpf4jnsgd1na2vs0mg"},{"bike_id":"29e9de13-18ed-43c4-99f9-4e96b406362a","system_id":"levelo_inurba_marseille","lat":43.26504,"lon":5.39569,"is_reserved":false,"is_disabled":false,"rental_uris":{"android":"levelo://app?vid=29e9de13-18ed-43c4-99f9-4e96b406362a","ios":"levelo://app?vid=29e9de13-18ed-43c4-99f9-4e96b406362a"},"vehicle_type_id":"4","last_reported":1726101757,"current_range_meters":38800,"station_id":"ce4bhi12rcd13ifvqfq0","pricing_plan_id":"cebpf4jnsgd1na2vs0mg"},{"bike_id":"4b38a238-757c-4094-bae9-4fcc987cc55d","system_id":"levelo_inurba_marseille","lat":43.31171,"lon":5.3871,"is_reserved":false,"is_disabled":false,"rental_uris":{"android":"levelo://app?vid=4b38a238-757c-4094-bae9-4fcc987cc55d","ios":"levelo://app?vid=4b38a238-757c-4094-bae9-4fcc987cc55d"},"vehicle_type_id":"4","last_reported":1726101757,"current_range_meters":24800,"station_id":"ce4bgv12rcd13ifvqcp0","pricing_plan_id":"cebpf4jnsgd1na2vs0mg"},{"bike_id":"f72ede0a-438e-4eb2-9ccd-07c552028339","system_id":"levelo_inurba_marseille","lat":43.24396,"lon":5.37063,"is_reserved":false,"is_disabled":false,"rental_uris":{"android":"levelo://app?vid=f72ede0a-438e-4eb2-9ccd-07c552028339","ios":"levelo://app?vid=f72ede0a-438e-4eb2-9ccd-07c552028339"},"vehicle_type_id":"4","last_reported":1726101757,"current_range_meters":36800,"station_id":"ce4bhhh2rcd13ifvqfk0","pricing_plan_id":"cebpf4jnsgd1na2vs0mg"},{"bike_id":"2e4787fb-289c-4d26-9cf5-9d43dc019d88","system_id":"levelo_inurba_marseille","lat":43.27838,"lon":5.39208,"is_reserved":false,"is_disabled":false,"rental_uris":{"android":"levelo://app?vid=2e4787fb-289c-4d26-9cf5-9d43dc019d88","ios":"levelo://app?vid=2e4787fb-289c-4d26-9cf5-9d43dc019d88"},"vehicle_type_id":"4","last_reported":1726101757,"current_range_meters":10800,"station_id":"ce4bhjp2rcd13ifvqga0","pricing_plan_id":"cebpf4jnsgd1na2vs0mg"},{"bike_id":"a85d2524-270b-4a56-8aee-7a41a1e4e1b6","system_id":"levelo_inurba_marseille","lat":43.31333,"lon":5.39699,"is_reserved":false,"is_disabled":false,"rental_uris":{"android":"levelo://app?vid=a85d2524-270b-4a56-8aee-7a41a1e4e1b6","ios":"levelo://app?vid=a85d2524-270b-4a56-8aee-7a41a1e4e1b6"},"vehicle_type_id":"4","last_reported":1726101757,"current_range_meters":6000,"station_id":"ce4bgvp2rcd13ifvqcu0","pricing_plan_id":"cebpf4jnsgd1na2vs0mg"},{"bike_id":"c83b1ddb-4161-4995-aa60-5bb4950cf536","system_id":"levelo_inurba_marseille","lat":43.29006,"lon":5.35615,"is_reserved":false,"is_disabled":false,"rental_uris":{"android":"levelo://app?vid=c83b1ddb-4161-4995-aa60-5bb4950cf536","ios":"levelo://app?vid=c83b1ddb-4161-4995-aa60-5bb4950cf536"},"vehicle_type_id":"4","last_reported":1726101757,"current_range_meters":38800,"station_id":"ce4bhb92rcd13ifvqen0","pricing_plan_id":"cebpf4jnsgd1na2vs0mg"},{"bike_id":"683651e2-686d-4cf8-b3c8-52f4698c9c78","system_id":"levelo_inurba_marseille","lat":43.30415,"lon":5.41286,"is_reserved":false,"is_disabled":false,"rental_uris":{"android":"levelo://app?vid=683651e2-686d-4cf8-b3c8-52f4698c9c78","ios":"levelo://app?vid=683651e2-686d-4cf8-b3c8-52f4698c9c78"},"vehicle_type_id":"4","last_reported":1726101757,"current_range_meters":14000,"station_id":"ce4bhop2rcd13ifvqh8g","pricing_plan_id":"cebpf4jnsgd1na2vs0mg"},{"bike_id":"2e3a80ac-1202-4ede-be1c-23af14716ca8","system_id":"levelo_inurba_marseille","lat":43.22935,"lon":5.35408,"is_reserved":false,"is_disabled":false,"rental_uris":{"android":"levelo://app?vid=2e3a80ac-1202-4ede-be1c-23af14716ca8","ios":"levelo://app?vid=2e3a80ac-1202-4ede-be1c-23af14716ca8"},"vehicle_type_id":"4","last_reported":1726101757,"current_range_meters":37600,"station_id":"cpo3532slgdg3j2ikp40","pricing_plan_id":"cebpf4jnsgd1na2vs0mg"},{"bike_id":"f4bf8ac8-fb68-44ef-9403-30e935a63f2f","system_id":"levelo_inurba_marseille","lat":43.28098,"lon":5.37836,"is_reserved":false,"is_disabled":false,"rental_uris":{"android":"levelo://app?vid=f4bf8ac8-fb68-44ef-9403-30e935a63f2f","ios":"levelo://app?vid=f4bf8ac8-fb68-44ef-9403-30e935a63f2f"},"vehicle_type_id":"4","last_reported":1726101757,"current_range_meters":24800,"station_id":"ce4bha12rcd13ifvqee0","pricing_plan_id":"cebpf4jnsgd1na2vs0mg"},{"bike_id":"fffd6d98-9aa9-4c52-8fec-a8c210be0600","system_id":"levelo_inurba_marseille","lat":43.30807,"lon":5.43526,"is_reserved":false,"is_disabled":false,"rental_uris":{"android":"levelo://app?vid=fffd6d98-9aa9-4c52-8fec-a8c210be0600","ios":"levelo://app?vid=fffd6d98-9aa9-4c52-8fec-a8c210be0600"},"vehicle_type_id":"4","last_reported":1726101757,"current_range_meters":21600,"station_id":"ce4bhph2rcd13ifvqheg","pricing_plan_id":"cebpf4jnsgd1na2vs0mg"},{"bike_id":"104b4b06-aa21-4676-82be-8beb29b6896a","system_id":"levelo_inurba_marseille","lat":43.30782,"lon":5.37652,"is_reserved":false,"is_disabled":false,"rental_uris":{"android":"levelo://app?vid=104b4b06-aa21-4676-82be-8beb29b6896a","ios":"levelo://app?vid=104b4b06-aa21-4676-82be-8beb29b6896a"},"vehicle_type_id":"4","last_reported":1726101757,"current_range_meters":30800,"station_id":"ce4bgv92rcd13ifvqcq0","pricing_plan_id":"cebpf4jnsgd1na2vs0mg"},{"bike_id":"82e92ab4-4087-4bfd-90db-64e2b92bc3e0","system_id":"levelo_inurba_marseille","lat":43.27988,"lon":5.38729,"is_reserved":false,"is_disabled":false,"rental_uris":{"android":"levelo://app?vid=82e92ab4-4087-4bfd-90db-64e2b92bc3e0","ios":"levelo://app?vid=82e92ab4-4087-4bfd-90db-64e2b92bc3e0"},"vehicle_type_id":"4","last_reported":1726101757,"current_range_meters":34000,"station_id":"ce4bhg12rcd13ifvqf80","pricing_plan_id":"cebpf4jnsgd1na2vs0mg"},{"bike_id":"4a36f624-934a-49c6-8d82-beb2e7aa8fd3","system_id":"levelo_inurba_marseille","lat":43.31274,"lon":5.40165,"is_reserved":false,"is_disabled":false,"rental_uris":{"android":"levelo://app?vid=4a36f624-934a-49c6-8d82-beb2e7aa8fd3","ios":"levelo://app?vid=4a36f624-934a-49c6-8d82-beb2e7aa8fd3"},"vehicle_type_id":"4","last_reported":1726101757,"current_range_meters":38000,"station_id":"ce4bh092rcd13ifvqd30","pricing_plan_id":"cebpf4jnsgd1na2vs0mg"},{"bike_id":"44afa468-7a10-4ffd-b2f6-c33d839b594f","system_id":"levelo_inurba_marseille","lat":43.30797,"lon":5.3814,"is_reserved":false,"is_disabled":false,"rental_uris":{"android":"levelo://app?vid=44afa468-7a10-4ffd-b2f6-c33d839b594f","ios":"levelo://app?vid=44afa468-7a10-4ffd-b2f6-c33d839b594f"},"vehicle_type_id":"4","last_reported":1726101757,"current_range_meters":30000,"station_id":"ce4bgt12rcd13ifvqce0","pricing_plan_id":"cebpf4jnsgd1na2vs0mg"},{"bike_id":"4cc1de90-e417-416e-bd48-06cd56c6cf5b","system_id":"levelo_inurba_marseille","lat":43.27612,"lon":5.36124,"is_reserved":false,"is_disabled":false,"rental_uris":{"android":"levelo://app?vid=4cc1de90-e417-416e-bd48-06cd56c6cf5b","ios":"levelo://app?vid=4cc1de90-e417-416e-bd48-06cd56c6cf5b"},"vehicle_type_id":"4","last_reported":1726101757,"current_range_meters":24000,"station_id":"ce4bgj92rcd13ifvqbe0","pricing_plan_id":"cebpf4jnsgd1na2vs0mg"},{"bike_id":"6d652d86-bc45-4ad5-a7fa-e28e43df0423","system_id":"levelo_inurba_marseille","lat":43.30241,"lon":5.36908,"is_reserved":false,"is_disabled":false,"rental_uris":{"android":"levelo://app?vid=6d652d86-bc45-4ad5-a7fa-e28e43df0423","ios":"levelo://app?vid=6d652d86-bc45-4ad5-a7fa-e28e43df0423"},"vehicle_type_id":"4","last_reported":1726101757,"current_range_meters":17200,"station_id":"","pricing_plan_id":"cebpf4jnsgd1na2vs0mg"},{"bike_id":"9e0b801e-5e69-49f7-9046-a0346f58d51e","system_id":"levelo_inurba_marseille","lat":43.2707,"lon":5.42275,"is_reserved":false,"is_disabled":false,"rental_uris":{"android":"levelo://app?vid=9e0b801e-5e69-49f7-9046-a0346f58d51e","ios":"levelo://app?vid=9e0b801e-5e69-49f7-9046-a0346f58d51e"},"vehicle_type_id":"4","last_reported":1726101757,"current_range_meters":36400,"station_id":"ce4bhk92rcd13ifvqgb0","pricing_plan_id":"cebpf4jnsgd1na2vs0mg"},{"bike_id":"b3be17d8-c440-49f0-8452-97666668cbf6","system_id":"levelo_inurba_marseille","lat":43.28037,"lon":5.36952,"is_reserved":false,"is_disabled":false,"rental_uris":{"android":"levelo://app?vid=b3be17d8-c440-49f0-8452-97666668cbf6","ios":"levelo://app?vid=b3be17d8-c440-49f0-8452-97666668cbf6"},"vehicle_type_id":"4","last_reported":1726101757,"current_range_meters":17600,"station_id":"ce4bha12rcd13ifvqef0","pricing_plan_id":"cebpf4jnsgd1na2vs0mg"},{"bike_id":"13ec4916-f0ea-4897-8afc-596425b42c42","system_id":"levelo_inurba_marseille","lat":43.23192,"lon":5.35563,"is_reserved":false,"is_disabled":false,"rental_uris":{"android":"levelo://app?vid=13ec4916-f0ea-4897-8afc-596425b42c42","ios":"levelo://app?vid=13ec4916-f0ea-4897-8afc-596425b42c42"},"vehicle_type_id":"4","last_reported":1726101757,"current_range_meters":37600,"station_id":"ce4bhu92rcd13ifvqi70","pricing_plan_id":"cebpf4jnsgd1na2vs0mg"},{"bike_id":"5ce6cd8b-eaf4-4670-977f-004d099d9e83","system_id":"levelo_inurba_marseille","lat":43.31328,"lon":5.39699,"is_reserved":false,"is_disabled":false,"rental_uris":{"android":"levelo://app?vid=5ce6cd8b-eaf4-4670-977f-004d099d9e83","ios":"levelo://app?vid=5ce6cd8b-eaf4-4670-977f-004d099d9e83"},"vehicle_type_id":"4","last_reported":1726101757,"current_range_meters":6000,"station_id":"ce4bgvp2rcd13ifvqcu0","pricing_plan_id":"cebpf4jnsgd1na2vs0mg"},{"bike_id":"c06e6f62-13de-401b-b5c8-f9af3504478a","system_id":"levelo_inurba_marseille","lat":43.30882,"lon":5.3965,"is_reserved":false,"is_disabled":false,"rental_uris":{"android":"levelo://app?vid=c06e6f62-13de-401b-b5c8-f9af3504478a","ios":"levelo://app?vid=c06e6f62-13de-401b-b5c8-f9af3504478a"},"vehicle_type_id":"4","last_reported":1726101757,"current_range_meters":26000,"station_id":"ce4bh012rcd13ifvqcv0","pricing_plan_id":"cebpf4jnsgd1na2vs0mg"},{"bike_id":"14eb325a-a9cd-4b99-b9d3-342aa10e345f","system_id":"levelo_inurba_marseille","lat":43.31066,"lon":5.38351,"is_reserved":false,"is_disabled":false,"rental_uris":{"android":"levelo://app?vid=14eb325a-a9cd-4b99-b9d3-342aa10e345f","ios":"levelo://app?vid=14eb325a-a9cd-4b99-b9d3-342aa10e345f"},"vehicle_type_id":"4","last_reported":1726101757,"current_range_meters":37600,"station_id":"ce4bgv92rcd13ifvqcr0","pricing_plan_id":"cebpf4jnsgd1na2vs0mg"},{"bike_id":"8f1994d1-01e1-4dd7-98fe-ffede7321f06","system_id":"levelo_inurba_marseille","lat":43.32287,"lon":5.38287,"is_reserved":false,"is_disabled":false,"rental_uris":{"android":"levelo://app?vid=8f1994d1-01e1-4dd7-98fe-ffede7321f06","ios":"levelo://app?vid=8f1994d1-01e1-4dd7-98fe-ffede7321f06"},"vehicle_type_id":"4","last_reported":1726101757,"current_range_meters":34000,"station_id":"ce4bhr12rcd13ifvqhqg","pricing_plan_id":"cebpf4jnsgd1na2vs0mg"},{"bike_id":"0f91d877-641e-414e-a620-6dbaf08191c2","system_id":"levelo_inurba_marseille","lat":43.262896,"lon":5.378462,"is_reserved":false,"is_disabled":false,"rental_uris":{"android":"levelo://app?vid=0f91d877-641e-414e-a620-6dbaf08191c2","ios":"levelo://app?vid=0f91d877-641e-414e-a620-6dbaf08191c2"},"vehicle_type_id":"4","last_reported":1726101757,"current_range_meters":0,"station_id":"ce4bhjp2rcd13ifvqg90","pricing_plan_id":"cebpf4jnsgd1na2vs0mg"},{"bike_id":"e02e3914-0bec-4c44-8d16-7bad1b137433","system_id":"levelo_inurba_marseille","lat":43.28612,"lon":5.35099,"is_reserved":false,"is_disabled":false,"rental_uris":{"android":"levelo://app?vid=e02e3914-0bec-4c44-8d16-7bad1b137433","ios":"levelo://app?vid=e02e3914-0bec-4c44-8d16-7bad1b137433"},"vehicle_type_id":"4","last_reported":1726101757,"current_range_meters":36400,"station_id":"ce4bhch2rcd13ifvqeug","pricing_plan_id":"cebpf4jnsgd1na2vs0mg"},{"bike_id":"52fab483-8ee3-4a31-b738-42b2ad293f1a","system_id":"levelo_inurba_marseille","lat":43.30883,"lon":5.3718,"is_reserved":false,"is_disabled":false,"rental_uris":{"android":"levelo://app?vid=52fab483-8ee3-4a31-b738-42b2ad293f1a","ios":"levelo://app?vid=52fab483-8ee3-4a31-b738-42b2ad293f1a"},"vehicle_type_id":"4","last_reported":1726101757,"current_range_meters":38800,"station_id":"ce4bguh2rcd13ifvqckg","pricing_plan_id":"cebpf4jnsgd1na2vs0mg"},{"bike_id":"28f4ccce-dc02-47dd-b435-6d4942df0a9e","system_id":"levelo_inurba_marseille","lat":43.28702,"lon":5.37391,"is_reserved":false,"is_disabled":false,"rental_uris":{"android":"levelo://app?vid=28f4ccce-dc02-47dd-b435-6d4942df0a9e","ios":"levelo://app?vid=28f4ccce-dc02-47dd-b435-6d4942df0a9e"},"vehicle_type_id":"4","last_reported":1726101757,"current_range_meters":19200,"station_id":"ce4bh3p2rcd13ifvqdq0","pricing_plan_id":"cebpf4jnsgd1na2vs0mg"},{"bike_id":"b1b83f73-809e-4485-a2f7-7ca08c7f840a","system_id":"levelo_inurba_marseille","lat":43.24668,"lon":5.38156,"is_reserved":false,"is_disabled":false,"rental_uris":{"android":"levelo://app?vid=b1b83f73-809e-4485-a2f7-7ca08c7f840a","ios":"levelo://app?vid=b1b83f73-809e-4485-a2f7-7ca08c7f840a"},"vehicle_type_id":"4","last_reported":1726101757,"current_range_meters":36400,"station_id":"ce4bhih2rcd13ifvqfr0","pricing_plan_id":"cebpf4jnsgd1na2vs0mg"},{"bike_id":"74c67d55-8a5f-40c9-8066-d68354718f8c","system_id":"levelo_inurba_marseille","lat":43.23188,"lon":5.35553,"is_reserved":false,"is_disabled":false,"rental_uris":{"android":"levelo://app?vid=74c67d55-8a5f-40c9-8066-d68354718f8c","ios":"levelo://app?vid=74c67d55-8a5f-40c9-8066-d68354718f8c"},"vehicle_type_id":"4","last_reported":1726101757,"current_range_meters":34800,"station_id":"ce4bhu92rcd13ifvqi70","pricing_plan_id":"cebpf4jnsgd1na2vs0mg"},{"bike_id":"8c778480-3aec-4905-9f95-39ffc7f00a7f","system_id":"levelo_inurba_marseille","lat":43.32481,"lon":5.36573,"is_reserved":false,"is_disabled":false,"rental_uris":{"android":"levelo://app?vid=8c778480-3aec-4905-9f95-39ffc7f00a7f","ios":"levelo://app?vid=8c778480-3aec-4905-9f95-39ffc7f00a7f"},"vehicle_type_id":"4","last_reported":1726101757,"current_range_meters":30400,"station_id":"ce4bhs12rcd13ifvqhvg","pricing_plan_id":"cebpf4jnsgd1na2vs0mg"},{"bike_id":"e7a5839c-8fe9-4805-a0e8-ec1c242be023","system_id":"levelo_inurba_marseille","lat":43.2987,"lon":5.38088,"is_reserved":false,"is_disabled":false,"rental_uris":{"android":"levelo://app?vid=e7a5839c-8fe9-4805-a0e8-ec1c242be023","ios":"levelo://app?vid=e7a5839c-8fe9-4805-a0e8-ec1c242be023"},"vehicle_type_id":"4","last_reported":1726101757,"current_range_meters":8800,"station_id":"ce4bgj12rcd13ifvqbc0","pricing_plan_id":"cebpf4jnsgd1na2vs0mg"},{"bike_id":"00bc0390-302c-4d2c-89e7-9beddfef4f35","system_id":"levelo_inurba_marseille","lat":43.30418,"lon":5.41284,"is_reserved":false,"is_disabled":false,"rental_uris":{"android":"levelo://app?vid=00bc0390-302c-4d2c-89e7-9beddfef4f35","ios":"levelo://app?vid=00bc0390-302c-4d2c-89e7-9beddfef4f35"},"vehicle_type_id":"4","last_reported":1726101757,"current_range_meters":39200,"station_id":"ce4bhop2rcd13ifvqh8g","pricing_plan_id":"cebpf4jnsgd1na2vs0mg"},{"bike_id":"85726505-2756-442d-bada-eb8487eab4ef","system_id":"levelo_inurba_marseille","lat":43.30265,"lon":5.377,"is_reserved":false,"is_disabled":false,"rental_uris":{"android":"levelo://app?vid=85726505-2756-442d-bada-eb8487eab4ef","ios":"levelo://app?vid=85726505-2756-442d-bada-eb8487eab4ef"},"vehicle_type_id":"4","last_reported":1726101757,"current_range_meters":36400,"station_id":"ce4bguh2rcd13ifvqcj0","pricing_plan_id":"cebpf4jnsgd1na2vs0mg"},{"bike_id":"2ae72ef9-8ea0-4afb-adfa-56518bd25486","system_id":"levelo_inurba_marseille","lat":43.26945,"lon":5.40244,"is_reserved":false,"is_disabled":false,"rental_uris":{"android":"levelo://app?vid=2ae72ef9-8ea0-4afb-adfa-56518bd25486","ios":"levelo://app?vid=2ae72ef9-8ea0-4afb-adfa-56518bd25486"},"vehicle_type_id":"4","last_reported":1726101757,"current_range_meters":38400,"station_id":"cjm6bp8fraef2m0cb0m0","pricing_plan_id":"cebpf4jnsgd1na2vs0mg"},{"bike_id":"f89dc3a4-b5ff-4ffe-b079-97cd11a5f5cc","system_id":"levelo_inurba_marseille","lat":43.27075,"lon":5.42274,"is_reserved":false,"is_disabled":false,"rental_uris":{"android":"levelo://app?vid=f89dc3a4-b5ff-4ffe-b079-97cd11a5f5cc","ios":"levelo://app?vid=f89dc3a4-b5ff-4ffe-b079-97cd11a5f5cc"},"vehicle_type_id":"4","last_reported":1726101757,"current_range_meters":12800,"station_id":"ce4bhk92rcd13ifvqgb0","pricing_plan_id":"cebpf4jnsgd1na2vs0mg"},{"bike_id":"806a049a-8bb4-48ba-8e8d-68d67e9ab5af","system_id":"levelo_inurba_marseille","lat":43.30933,"lon":5.40146,"is_reserved":false,"is_disabled":false,"rental_uris":{"android":"levelo://app?vid=806a049a-8bb4-48ba-8e8d-68d67e9ab5af","ios":"levelo://app?vid=806a049a-8bb4-48ba-8e8d-68d67e9ab5af"},"vehicle_type_id":"4","last_reported":1726101757,"current_range_meters":15200,"station_id":"ce4bgvp2rcd13ifvqct0","pricing_plan_id":"cebpf4jnsgd1na2vs0mg"},{"bike_id":"607a3565-b9bb-4b2e-b454-663b98029887","system_id":"levelo_inurba_marseille","lat":43.3136,"lon":5.385,"is_reserved":false,"is_disabled":false,"rental_uris":{"android":"levelo://app?vid=607a3565-b9bb-4b2e-b454-663b98029887","ios":"levelo://app?vid=607a3565-b9bb-4b2e-b454-663b98029887"},"vehicle_type_id":"4","last_reported":1726101757,"current_range_meters":12800,"station_id":"ce4bgt92rcd13ifvqcf0","pricing_plan_id":"cebpf4jnsgd1na2vs0mg"},{"bike_id":"2ff6e11c-a488-4da1-b459-2efaeedc89ed","system_id":"levelo_inurba_marseille","lat":43.30599,"lon":5.37216,"is_reserved":false,"is_disabled":false,"rental_uris":{"android":"levelo://app?vid=2ff6e11c-a488-4da1-b459-2efaeedc89ed","ios":"levelo://app?vid=2ff6e11c-a488-4da1-b459-2efaeedc89ed"},"vehicle_type_id":"4","last_reported":1726101757,"current_range_meters":17200,"station_id":"ce4bgqh2rcd13ifvqc4g","pricing_plan_id":"cebpf4jnsgd1na2vs0mg"},{"bike_id":"955bdae3-2060-4fdf-8a61-09bf65101716","system_id":"levelo_inurba_marseille","lat":43.29432,"lon":5.39735,"is_reserved":false,"is_disabled":false,"rental_uris":{"android":"levelo://app?vid=955bdae3-2060-4fdf-8a61-09bf65101716","ios":"levelo://app?vid=955bdae3-2060-4fdf-8a61-09bf65101716"},"vehicle_type_id":"4","last_reported":1726101757,"current_range_meters":30400,"station_id":"ce4bh3h2rcd13ifvqdo0","pricing_plan_id":"cebpf4jnsgd1na2vs0mg"},{"bike_id":"b0af54d1-a7ee-48fb-b3e6-0eb7ce098886","system_id":"levelo_inurba_marseille","lat":43.28,"lon":5.40011,"is_reserved":false,"is_disabled":false,"rental_uris":{"android":"levelo://app?vid=b0af54d1-a7ee-48fb-b3e6-0eb7ce098886","ios":"levelo://app?vid=b0af54d1-a7ee-48fb-b3e6-0eb7ce098886"},"vehicle_type_id":"4","last_reported":1726101757,"current_range_meters":26800,"station_id":"ce4bho92rcd13ifvqh4g","pricing_plan_id":"cebpf4jnsgd1na2vs0mg"},{"bike_id":"5c0f68c3-c0df-44ef-9646-1853c3c3a82b","system_id":"levelo_inurba_marseille","lat":43.24803,"lon":5.37455,"is_reserved":false,"is_disabled":false,"rental_uris":{"android":"levelo://app?vid=5c0f68c3-c0df-44ef-9646-1853c3c3a82b","ios":"levelo://app?vid=5c0f68c3-c0df-44ef-9646-1853c3c3a82b"},"vehicle_type_id":"4","last_reported":1726101757,"current_range_meters":33600,"station_id":"ce4bhgh2rcd13ifvqfb0","pricing_plan_id":"cebpf4jnsgd1na2vs0mg"},{"bike_id":"44cce5c3-9169-4471-8e60-b61f75dddc48","system_id":"levelo_inurba_marseille","lat":43.315,"lon":5.37283,"is_reserved":false,"is_disabled":false,"rental_uris":{"android":"levelo://app?vid=44cce5c3-9169-4471-8e60-b61f75dddc48","ios":"levelo://app?vid=44cce5c3-9169-4471-8e60-b61f75dddc48"},"vehicle_type_id":"4","last_reported":1726101757,"current_range_meters":38400,"station_id":"ce4bgt12rcd13ifvqcd0","pricing_plan_id":"cebpf4jnsgd1na2vs0mg"},{"bike_id":"1a72cf7c-c534-48b7-ad61-cf837f94acd5","system_id":"levelo_inurba_marseille","lat":43.23187,"lon":5.39982,"is_reserved":false,"is_disabled":false,"rental_uris":{"android":"levelo://app?vid=1a72cf7c-c534-48b7-ad61-cf837f94acd5","ios":"levelo://app?vid=1a72cf7c-c534-48b7-ad61-cf837f94acd5"},"vehicle_type_id":"4","last_reported":1726101757,"current_range_meters":38800,"station_id":"ce4bhn12rcd13ifvqgqg","pricing_plan_id":"cebpf4jnsgd1na2vs0mg"},{"bike_id":"f3e9fb72-97c1-4ee2-b1d1-e2d99af572a4","system_id":"levelo_inurba_marseille","lat":43.32539,"lon":5.41455,"is_reserved":false,"is_disabled":false,"rental_uris":{"android":"levelo://app?vid=f3e9fb72-97c1-4ee2-b1d1-e2d99af572a4","ios":"levelo://app?vid=f3e9fb72-97c1-4ee2-b1d1-e2d99af572a4"},"vehicle_type_id":"4","last_reported":1726101757,"current_range_meters":30000,"station_id":"ce4bhq12rcd13ifvqhhg","pricing_plan_id":"cebpf4jnsgd1na2vs0mg"},{"bike_id":"96f76945-9546-4b69-acf4-cf27cbf0afdf","system_id":"levelo_inurba_marseille","lat":43.31754,"lon":5.39034,"is_reserved":false,"is_disabled":false,"rental_uris":{"android":"levelo://app?vid=96f76945-9546-4b69-acf4-cf27cbf0afdf","ios":"levelo://app?vid=96f76945-9546-4b69-acf4-cf27cbf0afdf"},"vehicle_type_id":"4","last_reported":1726101757,"current_range_meters":24400,"station_id":"ce4bhqp2rcd13ifvqhng","pricing_plan_id":"cebpf4jnsgd1na2vs0mg"},{"bike_id":"3203158c-ba5a-4569-8d5d-a3eeab16fc77","system_id":"levelo_inurba_marseille","lat":43.295609,"lon":5.422868,"is_reserved":false,"is_disabled":false,"rental_uris":{"android":"levelo://app?vid=3203158c-ba5a-4569-8d5d-a3eeab16fc77","ios":"levelo://app?vid=3203158c-ba5a-4569-8d5d-a3eeab16fc77"},"vehicle_type_id":"4","last_reported":1726101757,"current_range_meters":38800,"station_id":"ce4bhph2rcd13ifvqhdg","pricing_plan_id":"cebpf4jnsgd1na2vs0mg"},{"bike_id":"80e6d3d9-0ff3-448c-ac54-a89f568840c4","system_id":"levelo_inurba_marseille","lat":43.30982,"lon":5.37934,"is_reserved":false,"is_disabled":false,"rental_uris":{"android":"levelo://app?vid=80e6d3d9-0ff3-448c-ac54-a89f568840c4","ios":"levelo://app?vid=80e6d3d9-0ff3-448c-ac54-a89f568840c4"},"vehicle_type_id":"4","last_reported":1726101757,"current_range_meters":26000,"station_id":"","pricing_plan_id":"cebpf4jnsgd1na2vs0mg"},{"bike_id":"99f0aec7-1483-4350-b742-6bb29ef84dd5","system_id":"levelo_inurba_marseille","lat":43.31116,"lon":5.37764,"is_reserved":false,"is_disabled":false,"rental_uris":{"android":"levelo://app?vid=99f0aec7-1483-4350-b742-6bb29ef84dd5","ios":"levelo://app?vid=99f0aec7-1483-4350-b742-6bb29ef84dd5"},"vehicle_type_id":"4","last_reported":1726101757,"current_range_meters":23200,"station_id":"ce4bgt92rcd13ifvqcg0","pricing_plan_id":"cebpf4jnsgd1na2vs0mg"},{"bike_id":"c3a84de0-e074-45d2-96a4-3ff17abba9fe","system_id":"levelo_inurba_marseille","lat":43.2408,"lon":5.3774,"is_reserved":false,"is_disabled":false,"rental_uris":{"android":"levelo://app?vid=c3a84de0-e074-45d2-96a4-3ff17abba9fe","ios":"levelo://app?vid=c3a84de0-e074-45d2-96a4-3ff17abba9fe"},"vehicle_type_id":"4","last_reported":1726101757,"current_range_meters":12000,"station_id":"ce4bhnp2rcd13ifvqgvg","pricing_plan_id":"cebpf4jnsgd1na2vs0mg"},{"bike_id":"860e8e16-d241-4579-a82b-a2556547c624","system_id":"levelo_inurba_marseille","lat":43.31759,"lon":5.39017,"is_reserved":false,"is_disabled":false,"rental_uris":{"android":"levelo://app?vid=860e8e16-d241-4579-a82b-a2556547c624","ios":"levelo://app?vid=860e8e16-d241-4579-a82b-a2556547c624"},"vehicle_type_id":"4","last_reported":1726101757,"current_range_meters":27600,"station_id":"ce4bhqp2rcd13ifvqhng","pricing_plan_id":"cebpf4jnsgd1na2vs0mg"},{"bike_id":"c62bfb1c-0174-4256-a6d3-9b9b288f6ffb","system_id":"levelo_inurba_marseille","lat":43.25085,"lon":5.39518,"is_reserved":false,"is_disabled":false,"rental_uris":{"android":"levelo://app?vid=c62bfb1c-0174-4256-a6d3-9b9b288f6ffb","ios":"levelo://app?vid=c62bfb1c-0174-4256-a6d3-9b9b288f6ffb"},"vehicle_type_id":"4","last_reported":1726101757,"current_range_meters":35600,"station_id":"ce4bhm12rcd13ifvqgkg","pricing_plan_id":"cebpf4jnsgd1na2vs0mg"},{"bike_id":"3070669e-e22c-4aac-922e-2322c3987a32","system_id":"levelo_inurba_marseille","lat":43.28432,"lon":5.39188,"is_reserved":false,"is_disabled":false,"rental_uris":{"android":"levelo://app?vid=3070669e-e22c-4aac-922e-2322c3987a32","ios":"levelo://app?vid=3070669e-e22c-4aac-922e-2322c3987a32"},"vehicle_type_id":"4","last_reported":1726101757,"current_range_meters":36400,"station_id":"ce4bhoh2rcd13ifvqh5g","pricing_plan_id":"cebpf4jnsgd1na2vs0mg"},{"bike_id":"e9e2ab86-a68a-439c-a65d-b11eedb7872f","system_id":"levelo_inurba_marseille","lat":43.2996,"lon":5.37169,"is_reserved":false,"is_disabled":false,"rental_uris":{"android":"levelo://app?vid=e9e2ab86-a68a-439c-a65d-b11eedb7872f","ios":"levelo://app?vid=e9e2ab86-a68a-439c-a65d-b11eedb7872f"},"vehicle_type_id":"4","last_reported":1726101757,"current_range_meters":16000,"station_id":"ce4bgr92rcd13ifvqc7g","pricing_plan_id":"cebpf4jnsgd1na2vs0mg"},{"bike_id":"bf2d2172-be9c-4d8b-b2a9-e8472749e9f2","system_id":"levelo_inurba_marseille","lat":43.24548,"lon":5.39527,"is_reserved":false,"is_disabled":false,"rental_uris":{"android":"levelo://app?vid=bf2d2172-be9c-4d8b-b2a9-e8472749e9f2","ios":"levelo://app?vid=bf2d2172-be9c-4d8b-b2a9-e8472749e9f2"},"vehicle_type_id":"4","last_reported":1726101757,"current_range_meters":30000,"station_id":"ce4bhlp2rcd13ifvqgjg","pricing_plan_id":"cebpf4jnsgd1na2vs0mg"},{"bike_id":"0eeb4de0-fed0-4908-a175-5ca6c52e7139","system_id":"levelo_inurba_marseille","lat":43.28672,"lon":5.36352,"is_reserved":false,"is_disabled":false,"rental_uris":{"android":"levelo://app?vid=0eeb4de0-fed0-4908-a175-5ca6c52e7139","ios":"levelo://app?vid=0eeb4de0-fed0-4908-a175-5ca6c52e7139"},"vehicle_type_id":"4","last_reported":1726101757,"current_range_meters":34800,"station_id":"ce4bhah2rcd13ifvqej0","pricing_plan_id":"cebpf4jnsgd1na2vs0mg"},{"bike_id":"90278c2d-9707-4ab3-853f-34fa9f89acf0","system_id":"levelo_inurba_marseille","lat":43.27944,"lon":5.41039,"is_reserved":false,"is_disabled":false,"rental_uris":{"android":"levelo://app?vid=90278c2d-9707-4ab3-853f-34fa9f89acf0","ios":"levelo://app?vid=90278c2d-9707-4ab3-853f-34fa9f89acf0"},"vehicle_type_id":"4","last_reported":1726101757,"current_range_meters":36800,"station_id":"ce4bhnp2rcd13ifvqh0g","pricing_plan_id":"cebpf4jnsgd1na2vs0mg"},{"bike_id":"a11a09f7-d129-44b4-9ba6-61ddb859c7fd","system_id":"levelo_inurba_marseille","lat":43.30527,"lon":5.38429,"is_reserved":false,"is_disabled":false,"rental_uris":{"android":"levelo://app?vid=a11a09f7-d129-44b4-9ba6-61ddb859c7fd","ios":"levelo://app?vid=a11a09f7-d129-44b4-9ba6-61ddb859c7fd"},"vehicle_type_id":"4","last_reported":1726101757,"current_range_meters":39200,"station_id":"ce4bgg92rcd13ifvqb30","pricing_plan_id":"cebpf4jnsgd1na2vs0mg"},{"bike_id":"9208cf75-3cc2-499c-b4d6-6a7886168643","system_id":"levelo_inurba_marseille","lat":43.31174,"lon":5.38713,"is_reserved":false,"is_disabled":false,"rental_uris":{"android":"levelo://app?vid=9208cf75-3cc2-499c-b4d6-6a7886168643","ios":"levelo://app?vid=9208cf75-3cc2-499c-b4d6-6a7886168643"},"vehicle_type_id":"4","last_reported":1726101757,"current_range_meters":38800,"station_id":"ce4bgv12rcd13ifvqcp0","pricing_plan_id":"cebpf4jnsgd1na2vs0mg"},{"bike_id":"0133b2cd-39f4-42f8-a493-f14fe56d8a7c","system_id":"levelo_inurba_marseille","lat":43.30806,"lon":5.38168,"is_reserved":false,"is_disabled":false,"rental_uris":{"android":"levelo://app?vid=0133b2cd-39f4-42f8-a493-f14fe56d8a7c","ios":"levelo://app?vid=0133b2cd-39f4-42f8-a493-f14fe56d8a7c"},"vehicle_type_id":"4","last_reported":1726101757,"current_range_meters":34000,"station_id":"ce4bgt12rcd13ifvqce0","pricing_plan_id":"cebpf4jnsgd1na2vs0mg"},{"bike_id":"399ac478-604a-4a4d-8571-c3f918ab8cde","system_id":"levelo_inurba_marseille","lat":43.26193,"lon":5.3745,"is_reserved":false,"is_disabled":false,"rental_uris":{"android":"levelo://app?vid=399ac478-604a-4a4d-8571-c3f918ab8cde","ios":"levelo://app?vid=399ac478-604a-4a4d-8571-c3f918ab8cde"},"vehicle_type_id":"4","last_reported":1726101757,"current_range_meters":12400,"station_id":"ce4bhgp2rcd13ifvqfc0","pricing_plan_id":"cebpf4jnsgd1na2vs0mg"},{"bike_id":"45d6bd0c-79f1-4e11-87ba-123791eb6fbc","system_id":"levelo_inurba_marseille","lat":43.31761,"lon":5.39018,"is_reserved":false,"is_disabled":false,"rental_uris":{"android":"levelo://app?vid=45d6bd0c-79f1-4e11-87ba-123791eb6fbc","ios":"levelo://app?vid=45d6bd0c-79f1-4e11-87ba-123791eb6fbc"},"vehicle_type_id":"4","last_reported":1726101757,"current_range_meters":30800,"station_id":"ce4bhqp2rcd13ifvqhng","pricing_plan_id":"cebpf4jnsgd1na2vs0mg"},{"bike_id":"dd6d94c7-f35e-4acc-863e-4063ec5abc48","system_id":"levelo_inurba_marseille","lat":43.32358,"lon":5.38862,"is_reserved":false,"is_disabled":false,"rental_uris":{"android":"levelo://app?vid=dd6d94c7-f35e-4acc-863e-4063ec5abc48","ios":"levelo://app?vid=dd6d94c7-f35e-4acc-863e-4063ec5abc48"},"vehicle_type_id":"4","last_reported":1726101757,"current_range_meters":38400,"station_id":"ce4bhqp2rcd13ifvqhog","pricing_plan_id":"cebpf4jnsgd1na2vs0mg"},{"bike_id":"3256ca8a-ee72-4fbc-8bbd-51097adb0f53","system_id":"levelo_inurba_marseille","lat":43.3136,"lon":5.36717,"is_reserved":false,"is_disabled":false,"rental_uris":{"android":"levelo://app?vid=3256ca8a-ee72-4fbc-8bbd-51097adb0f53","ios":"levelo://app?vid=3256ca8a-ee72-4fbc-8bbd-51097adb0f53"},"vehicle_type_id":"4","last_reported":1726101757,"current_range_meters":30400,"station_id":"ce4bgr92rcd13ifvqc6g","pricing_plan_id":"cebpf4jnsgd1na2vs0mg"},{"bike_id":"cf5a6d6a-12c1-45cd-b415-051d5156920d","system_id":"levelo_inurba_marseille","lat":43.33616,"lon":5.4101,"is_reserved":false,"is_disabled":false,"rental_uris":{"android":"levelo://app?vid=cf5a6d6a-12c1-45cd-b415-051d5156920d","ios":"levelo://app?vid=cf5a6d6a-12c1-45cd-b415-051d5156920d"},"vehicle_type_id":"4","last_reported":1726101757,"current_range_meters":35600,"station_id":"ce4bhqh2rcd13ifvqhmg","pricing_plan_id":"cebpf4jnsgd1na2vs0mg"},{"bike_id":"8d71aa2f-8520-449b-a6df-7971a97548a8","system_id":"levelo_inurba_marseille","lat":43.31275,"lon":5.40166,"is_reserved":false,"is_disabled":false,"rental_uris":{"android":"levelo://app?vid=8d71aa2f-8520-449b-a6df-7971a97548a8","ios":"levelo://app?vid=8d71aa2f-8520-449b-a6df-7971a97548a8"},"vehicle_type_id":"4","last_reported":1726101757,"current_range_meters":34800,"station_id":"ce4bh092rcd13ifvqd30","pricing_plan_id":"cebpf4jnsgd1na2vs0mg"},{"bike_id":"9adcffd3-0dae-4115-856f-7a4edd3d0f80","system_id":"levelo_inurba_marseille","lat":43.3111,"lon":5.37759,"is_reserved":false,"is_disabled":false,"rental_uris":{"android":"levelo://app?vid=9adcffd3-0dae-4115-856f-7a4edd3d0f80","ios":"levelo://app?vid=9adcffd3-0dae-4115-856f-7a4edd3d0f80"},"vehicle_type_id":"4","last_reported":1726101757,"current_range_meters":33200,"station_id":"ce4bgt92rcd13ifvqcg0","pricing_plan_id":"cebpf4jnsgd1na2vs0mg"},{"bike_id":"a36a6131-7175-4d21-afcf-16a3b952996a","system_id":"levelo_inurba_marseille","lat":43.30816,"lon":5.37641,"is_reserved":false,"is_disabled":false,"rental_uris":{"android":"levelo://app?vid=a36a6131-7175-4d21-afcf-16a3b952996a","ios":"levelo://app?vid=a36a6131-7175-4d21-afcf-16a3b952996a"},"vehicle_type_id":"4","last_reported":1726101757,"current_range_meters":7200,"station_id":"ce4bgv92rcd13ifvqcq0","pricing_plan_id":"cebpf4jnsgd1na2vs0mg"},{"bike_id":"babdff94-b69c-4d57-bef7-45b37c4324d9","system_id":"levelo_inurba_marseille","lat":43.32488,"lon":5.36568,"is_reserved":false,"is_disabled":false,"rental_uris":{"android":"levelo://app?vid=babdff94-b69c-4d57-bef7-45b37c4324d9","ios":"levelo://app?vid=babdff94-b69c-4d57-bef7-45b37c4324d9"},"vehicle_type_id":"4","last_reported":1726101757,"current_range_meters":9200,"station_id":"ce4bhs12rcd13ifvqhvg","pricing_plan_id":"cebpf4jnsgd1na2vs0mg"},{"bike_id":"02507801-169d-46eb-954a-0a629f8f5b1e","system_id":"levelo_inurba_marseille","lat":43.31363,"lon":5.38498,"is_reserved":false,"is_disabled":false,"rental_uris":{"android":"levelo://app?vid=02507801-169d-46eb-954a-0a629f8f5b1e","ios":"levelo://app?vid=02507801-169d-46eb-954a-0a629f8f5b1e"},"vehicle_type_id":"4","last_reported":1726101757,"current_range_meters":18800,"station_id":"ce4bgt92rcd13ifvqcf0","pricing_plan_id":"cebpf4jnsgd1na2vs0mg"},{"bike_id":"e9cee468-d8ec-437a-b77c-2bb05679786e","system_id":"levelo_inurba_marseille","lat":43.28069,"lon":5.39644,"is_reserved":false,"is_disabled":false,"rental_uris":{"android":"levelo://app?vid=e9cee468-d8ec-437a-b77c-2bb05679786e","ios":"levelo://app?vid=e9cee468-d8ec-437a-b77c-2bb05679786e"},"vehicle_type_id":"4","last_reported":1726101757,"current_range_meters":30400,"station_id":"ce4bho12rcd13ifvqh2g","pricing_plan_id":"cebpf4jnsgd1na2vs0mg"},{"bike_id":"dd6313df-d56d-4aab-9b2a-ea8492734cb7","system_id":"levelo_inurba_marseille","lat":43.26194,"lon":5.37447,"is_reserved":false,"is_disabled":false,"rental_uris":{"android":"levelo://app?vid=dd6313df-d56d-4aab-9b2a-ea8492734cb7","ios":"levelo://app?vid=dd6313df-d56d-4aab-9b2a-ea8492734cb7"},"vehicle_type_id":"4","last_reported":1726101757,"current_range_meters":38800,"station_id":"ce4bhgp2rcd13ifvqfc0","pricing_plan_id":"cebpf4jnsgd1na2vs0mg"},{"bike_id":"18133a1b-df7b-42d0-89d1-ccdedf5f5524","system_id":"levelo_inurba_marseille","lat":43.30529,"lon":5.36537,"is_reserved":false,"is_disabled":false,"rental_uris":{"android":"levelo://app?vid=18133a1b-df7b-42d0-89d1-ccdedf5f5524","ios":"levelo://app?vid=18133a1b-df7b-42d0-89d1-ccdedf5f5524"},"vehicle_type_id":"4","last_reported":1726101757,"current_range_meters":19600,"station_id":"ce4bgs12rcd13ifvqcag","pricing_plan_id":"cebpf4jnsgd1na2vs0mg"},{"bike_id":"257df995-474c-489e-93e6-1898def2a181","system_id":"levelo_inurba_marseille","lat":43.30929,"lon":5.4014,"is_reserved":false,"is_disabled":false,"rental_uris":{"android":"levelo://app?vid=257df995-474c-489e-93e6-1898def2a181","ios":"levelo://app?vid=257df995-474c-489e-93e6-1898def2a181"},"vehicle_type_id":"4","last_reported":1726101757,"current_range_meters":31200,"station_id":"","pricing_plan_id":"cebpf4jnsgd1na2vs0mg"},{"bike_id":"afe38ed7-fe42-4ad9-a058-284074bea4e6","system_id":"levelo_inurba_marseille","lat":43.27991,"lon":5.41656,"is_reserved":false,"is_disabled":false,"rental_uris":{"android":"levelo://app?vid=afe38ed7-fe42-4ad9-a058-284074bea4e6","ios":"levelo://app?vid=afe38ed7-fe42-4ad9-a058-284074bea4e6"},"vehicle_type_id":"4","last_reported":1726101757,"current_range_meters":12400,"station_id":"ce4bho12rcd13ifvqh1g","pricing_plan_id":"cebpf4jnsgd1na2vs0mg"},{"bike_id":"521ac9eb-aeb3-4716-a5c7-40c1c5dfc1ab","system_id":"levelo_inurba_marseille","lat":43.28035,"lon":5.36947,"is_reserved":false,"is_disabled":false,"rental_uris":{"android":"levelo://app?vid=521ac9eb-aeb3-4716-a5c7-40c1c5dfc1ab","ios":"levelo://app?vid=521ac9eb-aeb3-4716-a5c7-40c1c5dfc1ab"},"vehicle_type_id":"4","last_reported":1726101757,"current_range_meters":36800,"station_id":"ce4bha12rcd13ifvqef0","pricing_plan_id":"cebpf4jnsgd1na2vs0mg"},{"bike_id":"4a92778e-72b5-4c49-8ded-e1a031e3ab86","system_id":"levelo_inurba_marseille","lat":43.24668,"lon":5.38165,"is_reserved":false,"is_disabled":false,"rental_uris":{"android":"levelo://app?vid=4a92778e-72b5-4c49-8ded-e1a031e3ab86","ios":"levelo://app?vid=4a92778e-72b5-4c49-8ded-e1a031e3ab86"},"vehicle_type_id":"4","last_reported":1726101757,"current_range_meters":24800,"station_id":"ce4bhih2rcd13ifvqfr0","pricing_plan_id":"cebpf4jnsgd1na2vs0mg"},{"bike_id":"b413d41f-7993-42f5-a3cc-daaaeaf22886","system_id":"levelo_inurba_marseille","lat":43.32483,"lon":5.36562,"is_reserved":false,"is_disabled":false,"rental_uris":{"android":"levelo://app?vid=b413d41f-7993-42f5-a3cc-daaaeaf22886","ios":"levelo://app?vid=b413d41f-7993-42f5-a3cc-daaaeaf22886"},"vehicle_type_id":"4","last_reported":1726101757,"current_range_meters":29600,"station_id":"ce4bhs12rcd13ifvqhvg","pricing_plan_id":"cebpf4jnsgd1na2vs0mg"},{"bike_id":"aa9d0a87-5dc4-48d3-a566-a5c21fdea9dd","system_id":"levelo_inurba_marseille","lat":43.28612,"lon":5.35101,"is_reserved":false,"is_disabled":false,"rental_uris":{"android":"levelo://app?vid=aa9d0a87-5dc4-48d3-a566-a5c21fdea9dd","ios":"levelo://app?vid=aa9d0a87-5dc4-48d3-a566-a5c21fdea9dd"},"vehicle_type_id":"4","last_reported":1726101757,"current_range_meters":11200,"station_id":"ce4bhch2rcd13ifvqeug","pricing_plan_id":"cebpf4jnsgd1na2vs0mg"},{"bike_id":"94f6c337-6484-4cc8-a69a-39e5832a27d9","system_id":"levelo_inurba_marseille","lat":43.28461,"lon":5.35894,"is_reserved":false,"is_disabled":false,"rental_uris":{"android":"levelo://app?vid=94f6c337-6484-4cc8-a69a-39e5832a27d9","ios":"levelo://app?vid=94f6c337-6484-4cc8-a69a-39e5832a27d9"},"vehicle_type_id":"4","last_reported":1726101757,"current_range_meters":36000,"station_id":"ce4bhah2rcd13ifvqei0","pricing_plan_id":"cebpf4jnsgd1na2vs0mg"},{"bike_id":"184b2543-8c16-46ab-8a87-05c7bf07839a","system_id":"levelo_inurba_marseille","lat":43.23184,"lon":5.39982,"is_reserved":false,"is_disabled":false,"rental_uris":{"android":"levelo://app?vid=184b2543-8c16-46ab-8a87-05c7bf07839a","ios":"levelo://app?vid=184b2543-8c16-46ab-8a87-05c7bf07839a"},"vehicle_type_id":"4","last_reported":1726101757,"current_range_meters":17600,"station_id":"ce4bhn12rcd13ifvqgqg","pricing_plan_id":"cebpf4jnsgd1na2vs0mg"},{"bike_id":"78a74e8e-a0fa-4c01-bdb3-d4cb8b6944a2","system_id":"levelo_inurba_marseille","lat":43.28707,"lon":5.37399,"is_reserved":false,"is_disabled":false,"rental_uris":{"android":"levelo://app?vid=78a74e8e-a0fa-4c01-bdb3-d4cb8b6944a2","ios":"levelo://app?vid=78a74e8e-a0fa-4c01-bdb3-d4cb8b6944a2"},"vehicle_type_id":"4","last_reported":1726101757,"current_range_meters":22400,"station_id":"ce4bh3p2rcd13ifvqdq0","pricing_plan_id":"cebpf4jnsgd1na2vs0mg"},{"bike_id":"27e66d8c-ed0f-4195-a2c4-486ff977f8f9","system_id":"levelo_inurba_marseille","lat":43.29439,"lon":5.39759,"is_reserved":false,"is_disabled":false,"rental_uris":{"android":"levelo://app?vid=27e66d8c-ed0f-4195-a2c4-486ff977f8f9","ios":"levelo://app?vid=27e66d8c-ed0f-4195-a2c4-486ff977f8f9"},"vehicle_type_id":"4","last_reported":1726101757,"current_range_meters":26800,"station_id":"ce4bh3h2rcd13ifvqdo0","pricing_plan_id":"cebpf4jnsgd1na2vs0mg"},{"bike_id":"21594a7a-9a1c-4199-8115-2e9102ddd33f","system_id":"levelo_inurba_marseille","lat":43.31356,"lon":5.38501,"is_reserved":false,"is_disabled":false,"rental_uris":{"android":"levelo://app?vid=21594a7a-9a1c-4199-8115-2e9102ddd33f","ios":"levelo://app?vid=21594a7a-9a1c-4199-8115-2e9102ddd33f"},"vehicle_type_id":"4","last_reported":1726101757,"current_range_meters":38800,"station_id":"ce4bgt92rcd13ifvqcf0","pricing_plan_id":"cebpf4jnsgd1na2vs0mg"},{"bike_id":"8abb7928-9b28-4b65-8c9b-bed59837e7fb","system_id":"levelo_inurba_marseille","lat":43.30888,"lon":5.3964,"is_reserved":false,"is_disabled":false,"rental_uris":{"android":"levelo://app?vid=8abb7928-9b28-4b65-8c9b-bed59837e7fb","ios":"levelo://app?vid=8abb7928-9b28-4b65-8c9b-bed59837e7fb"},"vehicle_type_id":"4","last_reported":1726101757,"current_range_meters":32000,"station_id":"ce4bh012rcd13ifvqcv0","pricing_plan_id":"cebpf4jnsgd1na2vs0mg"},{"bike_id":"9e174faa-7d45-43cd-8426-ec9a102f5d04","system_id":"levelo_inurba_marseille","lat":43.23175,"lon":5.39985,"is_reserved":false,"is_disabled":false,"rental_uris":{"android":"levelo://app?vid=9e174faa-7d45-43cd-8426-ec9a102f5d04","ios":"levelo://app?vid=9e174faa-7d45-43cd-8426-ec9a102f5d04"},"vehicle_type_id":"4","last_reported":1726101757,"current_range_meters":40000,"station_id":"ce4bhn12rcd13ifvqgqg","pricing_plan_id":"cebpf4jnsgd1na2vs0mg"},{"bike_id":"af45619d-5d36-4e7c-b56a-22d7489f2e85","system_id":"levelo_inurba_marseille","lat":43.30888,"lon":5.39656,"is_reserved":false,"is_disabled":false,"rental_uris":{"android":"levelo://app?vid=af45619d-5d36-4e7c-b56a-22d7489f2e85","ios":"levelo://app?vid=af45619d-5d36-4e7c-b56a-22d7489f2e85"},"vehicle_type_id":"4","last_reported":1726101757,"current_range_meters":30400,"station_id":"ce4bh012rcd13ifvqcv0","pricing_plan_id":"cebpf4jnsgd1na2vs0mg"},{"bike_id":"ca33d2bf-c9f2-4944-aec8-d1b6204ec37b","system_id":"levelo_inurba_marseille","lat":43.29553,"lon":5.4228,"is_reserved":false,"is_disabled":false,"rental_uris":{"android":"levelo://app?vid=ca33d2bf-c9f2-4944-aec8-d1b6204ec37b","ios":"levelo://app?vid=ca33d2bf-c9f2-4944-aec8-d1b6204ec37b"},"vehicle_type_id":"4","last_reported":1726101757,"current_range_meters":25200,"station_id":"ce4bhph2rcd13ifvqhdg","pricing_plan_id":"cebpf4jnsgd1na2vs0mg"},{"bike_id":"8c1be597-f71c-4860-b83c-614482425acd","system_id":"levelo_inurba_marseille","lat":43.26207,"lon":5.37443,"is_reserved":false,"is_disabled":false,"rental_uris":{"android":"levelo://app?vid=8c1be597-f71c-4860-b83c-614482425acd","ios":"levelo://app?vid=8c1be597-f71c-4860-b83c-614482425acd"},"vehicle_type_id":"4","last_reported":1726101757,"current_range_meters":38000,"station_id":"ce4bhgp2rcd13ifvqfc0","pricing_plan_id":"cebpf4jnsgd1na2vs0mg"},{"bike_id":"e4a5e406-b72a-4f07-9791-f4133102a158","system_id":"levelo_inurba_marseille","lat":43.32488,"lon":5.36563,"is_reserved":false,"is_disabled":false,"rental_uris":{"android":"levelo://app?vid=e4a5e406-b72a-4f07-9791-f4133102a158","ios":"levelo://app?vid=e4a5e406-b72a-4f07-9791-f4133102a158"},"vehicle_type_id":"4","last_reported":1726101757,"current_range_meters":16000,"station_id":"ce4bhs12rcd13ifvqhvg","pricing_plan_id":"cebpf4jnsgd1na2vs0mg"},{"bike_id":"b78d5341-59bc-4519-8e43-bff7844379a0","system_id":"levelo_inurba_marseille","lat":43.25083,"lon":5.39515,"is_reserved":false,"is_disabled":false,"rental_uris":{"android":"levelo://app?vid=b78d5341-59bc-4519-8e43-bff7844379a0","ios":"levelo://app?vid=b78d5341-59bc-4519-8e43-bff7844379a0"},"vehicle_type_id":"4","last_reported":1726101757,"current_range_meters":22000,"station_id":"ce4bhm12rcd13ifvqgkg","pricing_plan_id":"cebpf4jnsgd1na2vs0mg"},{"bike_id":"4d62e28f-3e9c-424c-b2b1-67ee03d03d30","system_id":"levelo_inurba_marseille","lat":43.30875,"lon":5.39167,"is_reserved":false,"is_disabled":false,"rental_uris":{"android":"levelo://app?vid=4d62e28f-3e9c-424c-b2b1-67ee03d03d30","ios":"levelo://app?vid=4d62e28f-3e9c-424c-b2b1-67ee03d03d30"},"vehicle_type_id":"4","last_reported":1726101757,"current_range_meters":36000,"station_id":"ce4bgup2rcd13ifvqco0","pricing_plan_id":"cebpf4jnsgd1na2vs0mg"},{"bike_id":"27c73213-6faa-4c01-ab72-dea5d2696958","system_id":"levelo_inurba_marseille","lat":43.28576,"lon":5.39497,"is_reserved":false,"is_disabled":false,"rental_uris":{"android":"levelo://app?vid=27c73213-6faa-4c01-ab72-dea5d2696958","ios":"levelo://app?vid=27c73213-6faa-4c01-ab72-dea5d2696958"},"vehicle_type_id":"4","last_reported":1726101757,"current_range_meters":17600,"station_id":"ce4bh292rcd13ifvqdg0","pricing_plan_id":"cebpf4jnsgd1na2vs0mg"},{"bike_id":"8e118b2d-c24e-48c9-9681-52323f5e84b7","system_id":"levelo_inurba_marseille","lat":43.28457,"lon":5.35895,"is_reserved":false,"is_disabled":false,"rental_uris":{"android":"levelo://app?vid=8e118b2d-c24e-48c9-9681-52323f5e84b7","ios":"levelo://app?vid=8e118b2d-c24e-48c9-9681-52323f5e84b7"},"vehicle_type_id":"4","last_reported":1726101757,"current_range_meters":14800,"station_id":"ce4bhah2rcd13ifvqei0","pricing_plan_id":"cebpf4jnsgd1na2vs0mg"},{"bike_id":"91971407-fa0f-45bc-a91e-2b971c55bb2e","system_id":"levelo_inurba_marseille","lat":43.30885,"lon":5.372,"is_reserved":false,"is_disabled":false,"rental_uris":{"android":"levelo://app?vid=91971407-fa0f-45bc-a91e-2b971c55bb2e","ios":"levelo://app?vid=91971407-fa0f-45bc-a91e-2b971c55bb2e"},"vehicle_type_id":"4","last_reported":1726101757,"current_range_meters":30000,"station_id":"ce4bguh2rcd13ifvqckg","pricing_plan_id":"cebpf4jnsgd1na2vs0mg"},{"bike_id":"cbccffca-fad5-48ed-b993-98702f1e3c32","system_id":"levelo_inurba_marseille","lat":43.30325,"lon":5.40439,"is_reserved":false,"is_disabled":false,"rental_uris":{"android":"levelo://app?vid=cbccffca-fad5-48ed-b993-98702f1e3c32","ios":"levelo://app?vid=cbccffca-fad5-48ed-b993-98702f1e3c32"},"vehicle_type_id":"4","last_reported":1726101757,"current_range_meters":24000,"station_id":"ce4bh012rcd13ifvqd10","pricing_plan_id":"cebpf4jnsgd1na2vs0mg"},{"bike_id":"883ff7d7-91ff-48a9-9c7b-1e8370b452d1","system_id":"levelo_inurba_marseille","lat":43.30789,"lon":5.37656,"is_reserved":false,"is_disabled":false,"rental_uris":{"android":"levelo://app?vid=883ff7d7-91ff-48a9-9c7b-1e8370b452d1","ios":"levelo://app?vid=883ff7d7-91ff-48a9-9c7b-1e8370b452d1"},"vehicle_type_id":"4","last_reported":1726101757,"current_range_meters":37600,"station_id":"ce4bgv92rcd13ifvqcq0","pricing_plan_id":"cebpf4jnsgd1na2vs0mg"},{"bike_id":"8a3075b8-1b9b-48a9-9df3-b52b60a36057","system_id":"levelo_inurba_marseille","lat":43.27374,"lon":5.36254,"is_reserved":false,"is_disabled":false,"rental_uris":{"android":"levelo://app?vid=8a3075b8-1b9b-48a9-9df3-b52b60a36057","ios":"levelo://app?vid=8a3075b8-1b9b-48a9-9df3-b52b60a36057"},"vehicle_type_id":"4","last_reported":1726101757,"current_range_meters":39200,"station_id":"ce4bhbh2rcd13ifvqeo0","pricing_plan_id":"cebpf4jnsgd1na2vs0mg"},{"bike_id":"66aacd5b-f53e-41d8-9077-a4ee96205f3d","system_id":"levelo_inurba_marseille","lat":43.28464,"lon":5.35898,"is_reserved":false,"is_disabled":false,"rental_uris":{"android":"levelo://app?vid=66aacd5b-f53e-41d8-9077-a4ee96205f3d","ios":"levelo://app?vid=66aacd5b-f53e-41d8-9077-a4ee96205f3d"},"vehicle_type_id":"4","last_reported":1726101757,"current_range_meters":38800,"station_id":"ce4bhah2rcd13ifvqei0","pricing_plan_id":"cebpf4jnsgd1na2vs0mg"},{"bike_id":"730f949f-60f7-463d-865c-b8e3ef7c75f7","system_id":"levelo_inurba_marseille","lat":43.2963,"lon":5.40595,"is_reserved":false,"is_disabled":false,"rental_uris":{"android":"levelo://app?vid=730f949f-60f7-463d-865c-b8e3ef7c75f7","ios":"levelo://app?vid=730f949f-60f7-463d-865c-b8e3ef7c75f7"},"vehicle_type_id":"4","last_reported":1726101757,"current_range_meters":4400,"station_id":"ce4bh0h2rcd13ifvqd60","pricing_plan_id":"cebpf4jnsgd1na2vs0mg"},{"bike_id":"2f10cceb-7c16-4011-b586-4b493cfa220d","system_id":"levelo_inurba_marseille","lat":43.23195,"lon":5.35559,"is_reserved":false,"is_disabled":false,"rental_uris":{"android":"levelo://app?vid=2f10cceb-7c16-4011-b586-4b493cfa220d","ios":"levelo://app?vid=2f10cceb-7c16-4011-b586-4b493cfa220d"},"vehicle_type_id":"4","last_reported":1726101757,"current_range_meters":18800,"station_id":"ce4bhu92rcd13ifvqi70","pricing_plan_id":"cebpf4jnsgd1na2vs0mg"},{"bike_id":"1811928c-49c0-40c4-be8e-ec4ebb4aca84","system_id":"levelo_inurba_marseille","lat":43.30791,"lon":5.38163,"is_reserved":false,"is_disabled":false,"rental_uris":{"android":"levelo://app?vid=1811928c-49c0-40c4-be8e-ec4ebb4aca84","ios":"levelo://app?vid=1811928c-49c0-40c4-be8e-ec4ebb4aca84"},"vehicle_type_id":"4","last_reported":1726101757,"current_range_meters":38000,"station_id":"ce4bgt12rcd13ifvqce0","pricing_plan_id":"cebpf4jnsgd1na2vs0mg"},{"bike_id":"8e06870f-59b1-4019-8c4e-0fd97a649554","system_id":"levelo_inurba_marseille","lat":43.27999,"lon":5.40015,"is_reserved":false,"is_disabled":false,"rental_uris":{"android":"levelo://app?vid=8e06870f-59b1-4019-8c4e-0fd97a649554","ios":"levelo://app?vid=8e06870f-59b1-4019-8c4e-0fd97a649554"},"vehicle_type_id":"4","last_reported":1726101757,"current_range_meters":12000,"station_id":"ce4bho92rcd13ifvqh4g","pricing_plan_id":"cebpf4jnsgd1na2vs0mg"},{"bike_id":"2c4577b3-3689-495e-a3c3-a78eafd4dc43","system_id":"levelo_inurba_marseille","lat":43.26557,"lon":5.37288,"is_reserved":false,"is_disabled":false,"rental_uris":{"android":"levelo://app?vid=2c4577b3-3689-495e-a3c3-a78eafd4dc43","ios":"levelo://app?vid=2c4577b3-3689-495e-a3c3-a78eafd4dc43"},"vehicle_type_id":"4","last_reported":1726101757,"current_range_meters":30400,"station_id":"ce4bhg12rcd13ifvqf70","pricing_plan_id":"cebpf4jnsgd1na2vs0mg"},{"bike_id":"b8874638-8b29-42bd-985f-e578d29b63f6","system_id":"levelo_inurba_marseille","lat":43.31277,"lon":5.40167,"is_reserved":false,"is_disabled":false,"rental_uris":{"android":"levelo://app?vid=b8874638-8b29-42bd-985f-e578d29b63f6","ios":"levelo://app?vid=b8874638-8b29-42bd-985f-e578d29b63f6"},"vehicle_type_id":"4","last_reported":1726101757,"current_range_meters":34000,"station_id":"ce4bh092rcd13ifvqd30","pricing_plan_id":"cebpf4jnsgd1na2vs0mg"},{"bike_id":"c3baa9f4-1a80-441e-aae4-6876a6aba553","system_id":"levelo_inurba_marseille","lat":43.32294,"lon":5.38264,"is_reserved":false,"is_disabled":false,"rental_uris":{"android":"levelo://app?vid=c3baa9f4-1a80-441e-aae4-6876a6aba553","ios":"levelo://app?vid=c3baa9f4-1a80-441e-aae4-6876a6aba553"},"vehicle_type_id":"4","last_reported":1726101757,"current_range_meters":37600,"station_id":"ce4bhr12rcd13ifvqhqg","pricing_plan_id":"cebpf4jnsgd1na2vs0mg"},{"bike_id":"7342be92-7f72-4650-924f-e6eec9242b0f","system_id":"levelo_inurba_marseille","lat":43.31887,"lon":5.40727,"is_reserved":false,"is_disabled":false,"rental_uris":{"android":"levelo://app?vid=7342be92-7f72-4650-924f-e6eec9242b0f","ios":"levelo://app?vid=7342be92-7f72-4650-924f-e6eec9242b0f"},"vehicle_type_id":"4","last_reported":1726101757,"current_range_meters":36000,"station_id":"ce4bhq12rcd13ifvqhig","pricing_plan_id":"cebpf4jnsgd1na2vs0mg"},{"bike_id":"2f68e336-a1cf-4578-b713-97ec937e1f6c","system_id":"levelo_inurba_marseille","lat":43.24671,"lon":5.38161,"is_reserved":false,"is_disabled":false,"rental_uris":{"android":"levelo://app?vid=2f68e336-a1cf-4578-b713-97ec937e1f6c","ios":"levelo://app?vid=2f68e336-a1cf-4578-b713-97ec937e1f6c"},"vehicle_type_id":"4","last_reported":1726101757,"current_range_meters":22800,"station_id":"ce4bhih2rcd13ifvqfr0","pricing_plan_id":"cebpf4jnsgd1na2vs0mg"},{"bike_id":"58c0b80c-7dce-433e-a2b2-68f1d56fc2a0","system_id":"levelo_inurba_marseille","lat":43.28572,"lon":5.39505,"is_reserved":false,"is_disabled":false,"rental_uris":{"android":"levelo://app?vid=58c0b80c-7dce-433e-a2b2-68f1d56fc2a0","ios":"levelo://app?vid=58c0b80c-7dce-433e-a2b2-68f1d56fc2a0"},"vehicle_type_id":"4","last_reported":1726101757,"current_range_meters":38000,"station_id":"ce4bh292rcd13ifvqdg0","pricing_plan_id":"cebpf4jnsgd1na2vs0mg"},{"bike_id":"df397d38-5a34-4d5f-9f7e-2deb81ebdc16","system_id":"levelo_inurba_marseille","lat":43.30777,"lon":5.37647,"is_reserved":false,"is_disabled":false,"rental_uris":{"android":"levelo://app?vid=df397d38-5a34-4d5f-9f7e-2deb81ebdc16","ios":"levelo://app?vid=df397d38-5a34-4d5f-9f7e-2deb81ebdc16"},"vehicle_type_id":"4","last_reported":1726101757,"current_range_meters":30000,"station_id":"ce4bgv92rcd13ifvqcq0","pricing_plan_id":"cebpf4jnsgd1na2vs0mg"},{"bike_id":"4537addb-8470-4f0f-9eea-56b017d37d11","system_id":"levelo_inurba_marseille","lat":43.2846,"lon":5.3589,"is_reserved":false,"is_disabled":false,"rental_uris":{"android":"levelo://app?vid=4537addb-8470-4f0f-9eea-56b017d37d11","ios":"levelo://app?vid=4537addb-8470-4f0f-9eea-56b017d37d11"},"vehicle_type_id":"4","last_reported":1726101757,"current_range_meters":38400,"station_id":"ce4bhah2rcd13ifvqei0","pricing_plan_id":"cebpf4jnsgd1na2vs0mg"},{"bike_id":"a2a040cb-fd22-4de4-9f0d-31c7a6c440a4","system_id":"levelo_inurba_marseille","lat":43.26554,"lon":5.37286,"is_reserved":false,"is_disabled":false,"rental_uris":{"android":"levelo://app?vid=a2a040cb-fd22-4de4-9f0d-31c7a6c440a4","ios":"levelo://app?vid=a2a040cb-fd22-4de4-9f0d-31c7a6c440a4"},"vehicle_type_id":"4","last_reported":1726101757,"current_range_meters":38800,"station_id":"ce4bhg12rcd13ifvqf70","pricing_plan_id":"cebpf4jnsgd1na2vs0mg"},{"bike_id":"65214aa0-7edd-4a27-9d43-c8e8bc4841f4","system_id":"levelo_inurba_marseille","lat":43.25,"lon":5.38944,"is_reserved":false,"is_disabled":false,"rental_uris":{"android":"levelo://app?vid=65214aa0-7edd-4a27-9d43-c8e8bc4841f4","ios":"levelo://app?vid=65214aa0-7edd-4a27-9d43-c8e8bc4841f4"},"vehicle_type_id":"4","last_reported":1726101757,"current_range_meters":37600,"station_id":"ce4bhgp2rcd13ifvqfd0","pricing_plan_id":"cebpf4jnsgd1na2vs0mg"},{"bike_id":"f2c3b139-a9a8-4ac4-849c-8eecbc7f2016","system_id":"levelo_inurba_marseille","lat":43.25005,"lon":5.38922,"is_reserved":false,"is_disabled":false,"rental_uris":{"android":"levelo://app?vid=f2c3b139-a9a8-4ac4-849c-8eecbc7f2016","ios":"levelo://app?vid=f2c3b139-a9a8-4ac4-849c-8eecbc7f2016"},"vehicle_type_id":"4","last_reported":1726101757,"current_range_meters":28400,"station_id":"ce4bhgp2rcd13ifvqfd0","pricing_plan_id":"cebpf4jnsgd1na2vs0mg"},{"bike_id":"cf556c10-8298-4e7b-996a-26eaad4467f9","system_id":"levelo_inurba_marseille","lat":43.30651,"lon":5.40097,"is_reserved":false,"is_disabled":false,"rental_uris":{"android":"levelo://app?vid=cf556c10-8298-4e7b-996a-26eaad4467f9","ios":"levelo://app?vid=cf556c10-8298-4e7b-996a-26eaad4467f9"},"vehicle_type_id":"4","last_reported":1726101757,"current_range_meters":19600,"station_id":"ce4bh112rcd13ifvqda0","pricing_plan_id":"cebpf4jnsgd1na2vs0mg"},{"bike_id":"d2c4c179-186f-4edf-b817-fd07f7db3671","system_id":"levelo_inurba_marseille","lat":43.27952,"lon":5.41039,"is_reserved":false,"is_disabled":false,"rental_uris":{"android":"levelo://app?vid=d2c4c179-186f-4edf-b817-fd07f7db3671","ios":"levelo://app?vid=d2c4c179-186f-4edf-b817-fd07f7db3671"},"vehicle_type_id":"4","last_reported":1726101757,"current_range_meters":2000,"station_id":"ce4bhnp2rcd13ifvqh0g","pricing_plan_id":"cebpf4jnsgd1na2vs0mg"},{"bike_id":"f657fd88-6956-4b9e-987b-07745f983ac4","system_id":"levelo_inurba_marseille","lat":43.2884,"lon":5.35843,"is_reserved":false,"is_disabled":false,"rental_uris":{"android":"levelo://app?vid=f657fd88-6956-4b9e-987b-07745f983ac4","ios":"levelo://app?vid=f657fd88-6956-4b9e-987b-07745f983ac4"},"vehicle_type_id":"4","last_reported":1726101757,"current_range_meters":28000,"station_id":"ce4bhb12rcd13ifvqem0","pricing_plan_id":"cebpf4jnsgd1na2vs0mg"},{"bike_id":"a43e1637-4ac0-4f8c-9bb2-16729953d8ed","system_id":"levelo_inurba_marseille","lat":43.30932,"lon":5.40142,"is_reserved":false,"is_disabled":false,"rental_uris":{"android":"levelo://app?vid=a43e1637-4ac0-4f8c-9bb2-16729953d8ed","ios":"levelo://app?vid=a43e1637-4ac0-4f8c-9bb2-16729953d8ed"},"vehicle_type_id":"4","last_reported":1726101757,"current_range_meters":32400,"station_id":"ce4bgvp2rcd13ifvqct0","pricing_plan_id":"cebpf4jnsgd1na2vs0mg"},{"bike_id":"c2416efc-d5d1-4d64-b1a3-2ebbc203a1e2","system_id":"levelo_inurba_marseille","lat":43.26806,"lon":5.40262,"is_reserved":false,"is_disabled":false,"rental_uris":{"android":"levelo://app?vid=c2416efc-d5d1-4d64-b1a3-2ebbc203a1e2","ios":"levelo://app?vid=c2416efc-d5d1-4d64-b1a3-2ebbc203a1e2"},"vehicle_type_id":"4","last_reported":1726101757,"current_range_meters":38000,"station_id":"ce501612rcd8frsf0b60","pricing_plan_id":"cebpf4jnsgd1na2vs0mg"},{"bike_id":"af94e171-14eb-46b7-a1e5-2afb9a8b7127","system_id":"levelo_inurba_marseille","lat":43.24998,"lon":5.38936,"is_reserved":false,"is_disabled":false,"rental_uris":{"android":"levelo://app?vid=af94e171-14eb-46b7-a1e5-2afb9a8b7127","ios":"levelo://app?vid=af94e171-14eb-46b7-a1e5-2afb9a8b7127"},"vehicle_type_id":"4","last_reported":1726101757,"current_range_meters":9200,"station_id":"ce4bhgp2rcd13ifvqfd0","pricing_plan_id":"cebpf4jnsgd1na2vs0mg"},{"bike_id":"1218d328-fdf6-45d1-9541-091fda7f65d0","system_id":"levelo_inurba_marseille","lat":43.30887,"lon":5.39653,"is_reserved":false,"is_disabled":false,"rental_uris":{"android":"levelo://app?vid=1218d328-fdf6-45d1-9541-091fda7f65d0","ios":"levelo://app?vid=1218d328-fdf6-45d1-9541-091fda7f65d0"},"vehicle_type_id":"4","last_reported":1726101757,"current_range_meters":35200,"station_id":"ce4bh012rcd13ifvqcv0","pricing_plan_id":"cebpf4jnsgd1na2vs0mg"},{"bike_id":"0bfa9fdf-1b5e-4d77-954f-773181e8d79e","system_id":"levelo_inurba_marseille","lat":43.317111,"lon":5.43706,"is_reserved":false,"is_disabled":false,"rental_uris":{"android":"levelo://app?vid=0bfa9fdf-1b5e-4d77-954f-773181e8d79e","ios":"levelo://app?vid=0bfa9fdf-1b5e-4d77-954f-773181e8d79e"},"vehicle_type_id":"4","last_reported":1726101757,"current_range_meters":24000,"station_id":"ce4bhp92rcd13ifvqhcg","pricing_plan_id":"cebpf4jnsgd1na2vs0mg"},{"bike_id":"e4ec4183-1a99-4648-ad08-a8dade0ae11f","system_id":"levelo_inurba_marseille","lat":43.23181,"lon":5.39992,"is_reserved":false,"is_disabled":false,"rental_uris":{"android":"levelo://app?vid=e4ec4183-1a99-4648-ad08-a8dade0ae11f","ios":"levelo://app?vid=e4ec4183-1a99-4648-ad08-a8dade0ae11f"},"vehicle_type_id":"4","last_reported":1726101757,"current_range_meters":38400,"station_id":"ce4bhn12rcd13ifvqgqg","pricing_plan_id":"cebpf4jnsgd1na2vs0mg"},{"bike_id":"2a87bf36-9a3d-4c54-80e9-f49d6fc849d8","system_id":"levelo_inurba_marseille","lat":43.2847,"lon":5.38551,"is_reserved":false,"is_disabled":false,"rental_uris":{"android":"levelo://app?vid=2a87bf36-9a3d-4c54-80e9-f49d6fc849d8","ios":"levelo://app?vid=2a87bf36-9a3d-4c54-80e9-f49d6fc849d8"},"vehicle_type_id":"4","last_reported":1726101757,"current_range_meters":4400,"station_id":"ce4bh8p2rcd13ifvqeb0","pricing_plan_id":"cebpf4jnsgd1na2vs0mg"},{"bike_id":"50bd77ce-5a55-436f-b756-bcea20075865","system_id":"levelo_inurba_marseille","lat":43.2572,"lon":5.41113,"is_reserved":false,"is_disabled":false,"rental_uris":{"android":"levelo://app?vid=50bd77ce-5a55-436f-b756-bcea20075865","ios":"levelo://app?vid=50bd77ce-5a55-436f-b756-bcea20075865"},"vehicle_type_id":"4","last_reported":1726101757,"current_range_meters":34000,"station_id":"ce4bhkp2rcd13ifvqgd0","pricing_plan_id":"cebpf4jnsgd1na2vs0mg"},{"bike_id":"7179f83f-4a34-4e7c-a589-50892c3fdc41","system_id":"levelo_inurba_marseille","lat":43.29185,"lon":5.35806,"is_reserved":false,"is_disabled":false,"rental_uris":{"android":"levelo://app?vid=7179f83f-4a34-4e7c-a589-50892c3fdc41","ios":"levelo://app?vid=7179f83f-4a34-4e7c-a589-50892c3fdc41"},"vehicle_type_id":"4","last_reported":1726101757,"current_range_meters":34000,"station_id":"ce4bhb12rcd13ifvqel0","pricing_plan_id":"cebpf4jnsgd1na2vs0mg"},{"bike_id":"58448de1-ab2f-443d-b40a-a5ff14b7b895","system_id":"levelo_inurba_marseille","lat":43.25095,"lon":5.39512,"is_reserved":false,"is_disabled":false,"rental_uris":{"android":"levelo://app?vid=58448de1-ab2f-443d-b40a-a5ff14b7b895","ios":"levelo://app?vid=58448de1-ab2f-443d-b40a-a5ff14b7b895"},"vehicle_type_id":"4","last_reported":1726101757,"current_range_meters":7200,"station_id":"ce4bhm12rcd13ifvqgkg","pricing_plan_id":"cebpf4jnsgd1na2vs0mg"},{"bike_id":"069daabe-8d06-4f8f-b0bf-d99c05e40f9f","system_id":"levelo_inurba_marseille","lat":43.30778,"lon":5.37643,"is_reserved":false,"is_disabled":false,"rental_uris":{"android":"levelo://app?vid=069daabe-8d06-4f8f-b0bf-d99c05e40f9f","ios":"levelo://app?vid=069daabe-8d06-4f8f-b0bf-d99c05e40f9f"},"vehicle_type_id":"4","last_reported":1726101757,"current_range_meters":24400,"station_id":"ce4bgv92rcd13ifvqcq0","pricing_plan_id":"cebpf4jnsgd1na2vs0mg"},{"bike_id":"4e6d73f3-08d2-41ee-a075-ff4836ed77d4","system_id":"levelo_inurba_marseille","lat":43.26031,"lon":5.37549,"is_reserved":false,"is_disabled":false,"rental_uris":{"android":"levelo://app?vid=4e6d73f3-08d2-41ee-a075-ff4836ed77d4","ios":"levelo://app?vid=4e6d73f3-08d2-41ee-a075-ff4836ed77d4"},"vehicle_type_id":"4","last_reported":1726101757,"current_range_meters":34000,"station_id":"ce4bhgh2rcd13ifvqfa0","pricing_plan_id":"cebpf4jnsgd1na2vs0mg"},{"bike_id":"b21ca4e6-1812-4ce1-a7bd-4863e0449997","system_id":"levelo_inurba_marseille","lat":43.28927,"lon":5.36389,"is_reserved":false,"is_disabled":false,"rental_uris":{"android":"levelo://app?vid=b21ca4e6-1812-4ce1-a7bd-4863e0449997","ios":"levelo://app?vid=b21ca4e6-1812-4ce1-a7bd-4863e0449997"},"vehicle_type_id":"4","last_reported":1726101757,"current_range_meters":20800,"station_id":"ce4bhc92rcd13ifvqetg","pricing_plan_id":"cebpf4jnsgd1na2vs0mg"},{"bike_id":"82b0b7ec-b0d8-4da0-af19-1162a9d2c0d1","system_id":"levelo_inurba_marseille","lat":43.30882,"lon":5.39646,"is_reserved":false,"is_disabled":false,"rental_uris":{"android":"levelo://app?vid=82b0b7ec-b0d8-4da0-af19-1162a9d2c0d1","ios":"levelo://app?vid=82b0b7ec-b0d8-4da0-af19-1162a9d2c0d1"},"vehicle_type_id":"4","last_reported":1726101757,"current_range_meters":30000,"station_id":"ce4bh012rcd13ifvqcv0","pricing_plan_id":"cebpf4jnsgd1na2vs0mg"},{"bike_id":"7d348dd9-aba5-4535-bda9-b52ada6017ef","system_id":"levelo_inurba_marseille","lat":43.26189,"lon":5.37454,"is_reserved":false,"is_disabled":false,"rental_uris":{"android":"levelo://app?vid=7d348dd9-aba5-4535-bda9-b52ada6017ef","ios":"levelo://app?vid=7d348dd9-aba5-4535-bda9-b52ada6017ef"},"vehicle_type_id":"4","last_reported":1726101757,"current_range_meters":38800,"station_id":"ce4bhgp2rcd13ifvqfc0","pricing_plan_id":"cebpf4jnsgd1na2vs0mg"},{"bike_id":"f9b22a7a-6a7d-4660-9e85-e4bc1724304d","system_id":"levelo_inurba_marseille","lat":43.28033,"lon":5.36943,"is_reserved":false,"is_disabled":false,"rental_uris":{"android":"levelo://app?vid=f9b22a7a-6a7d-4660-9e85-e4bc1724304d","ios":"levelo://app?vid=f9b22a7a-6a7d-4660-9e85-e4bc1724304d"},"vehicle_type_id":"4","last_reported":1726101757,"current_range_meters":36400,"station_id":"ce4bha12rcd13ifvqef0","pricing_plan_id":"cebpf4jnsgd1na2vs0mg"},{"bike_id":"609d68ed-807b-4c67-8c13-2a75181b861e","system_id":"levelo_inurba_marseille","lat":43.31063,"lon":5.38358,"is_reserved":false,"is_disabled":false,"rental_uris":{"android":"levelo://app?vid=609d68ed-807b-4c67-8c13-2a75181b861e","ios":"levelo://app?vid=609d68ed-807b-4c67-8c13-2a75181b861e"},"vehicle_type_id":"4","last_reported":1726101757,"current_range_meters":35200,"station_id":"ce4bgv92rcd13ifvqcr0","pricing_plan_id":"cebpf4jnsgd1na2vs0mg"},{"bike_id":"bec0a66a-5227-4aa2-b8ec-8258f86830f9","system_id":"levelo_inurba_marseille","lat":43.29,"lon":5.35606,"is_reserved":false,"is_disabled":false,"rental_uris":{"android":"levelo://app?vid=bec0a66a-5227-4aa2-b8ec-8258f86830f9","ios":"levelo://app?vid=bec0a66a-5227-4aa2-b8ec-8258f86830f9"},"vehicle_type_id":"4","last_reported":1726101757,"current_range_meters":33600,"station_id":"ce4bhb92rcd13ifvqen0","pricing_plan_id":"cebpf4jnsgd1na2vs0mg"},{"bike_id":"b380955f-3789-4749-96eb-3f5702510c6a","system_id":"levelo_inurba_marseille","lat":43.33604,"lon":5.41015,"is_reserved":false,"is_disabled":false,"rental_uris":{"android":"levelo://app?vid=b380955f-3789-4749-96eb-3f5702510c6a","ios":"levelo://app?vid=b380955f-3789-4749-96eb-3f5702510c6a"},"vehicle_type_id":"4","last_reported":1726101757,"current_range_meters":38400,"station_id":"ce4bhqh2rcd13ifvqhmg","pricing_plan_id":"cebpf4jnsgd1na2vs0mg"},{"bike_id":"cd2104e9-fe8f-4a8d-a2d7-15eafb601787","system_id":"levelo_inurba_marseille","lat":43.31232,"lon":5.3686,"is_reserved":false,"is_disabled":false,"rental_uris":{"android":"levelo://app?vid=cd2104e9-fe8f-4a8d-a2d7-15eafb601787","ios":"levelo://app?vid=cd2104e9-fe8f-4a8d-a2d7-15eafb601787"},"vehicle_type_id":"4","last_reported":1726101757,"current_range_meters":35600,"station_id":"ce4bgl92rcd13ifvqbq0","pricing_plan_id":"cebpf4jnsgd1na2vs0mg"},{"bike_id":"16eb705f-fa5b-4358-90bf-3d8ae027cc84","system_id":"levelo_inurba_marseille","lat":43.28351,"lon":5.38104,"is_reserved":false,"is_disabled":false,"rental_uris":{"android":"levelo://app?vid=16eb705f-fa5b-4358-90bf-3d8ae027cc84","ios":"levelo://app?vid=16eb705f-fa5b-4358-90bf-3d8ae027cc84"},"vehicle_type_id":"4","last_reported":1726101757,"current_range_meters":33600,"station_id":"ce4bh412rcd13ifvqdr0","pricing_plan_id":"cebpf4jnsgd1na2vs0mg"},{"bike_id":"02e2d12f-736f-4c36-ac7d-51c5550806d2","system_id":"levelo_inurba_marseille","lat":43.29001,"lon":5.35615,"is_reserved":false,"is_disabled":false,"rental_uris":{"android":"levelo://app?vid=02e2d12f-736f-4c36-ac7d-51c5550806d2","ios":"levelo://app?vid=02e2d12f-736f-4c36-ac7d-51c5550806d2"},"vehicle_type_id":"4","last_reported":1726101757,"current_range_meters":15200,"station_id":"ce4bhb92rcd13ifvqen0","pricing_plan_id":"cebpf4jnsgd1na2vs0mg"},{"bike_id":"e2765759-4e07-4974-b8a4-c45e517a9dd8","system_id":"levelo_inurba_marseille","lat":43.26209,"lon":5.37442,"is_reserved":false,"is_disabled":false,"rental_uris":{"android":"levelo://app?vid=e2765759-4e07-4974-b8a4-c45e517a9dd8","ios":"levelo://app?vid=e2765759-4e07-4974-b8a4-c45e517a9dd8"},"vehicle_type_id":"4","last_reported":1726101757,"current_range_meters":36800,"station_id":"ce4bhgp2rcd13ifvqfc0","pricing_plan_id":"cebpf4jnsgd1na2vs0mg"},{"bike_id":"fe440cf0-fe95-46c1-86aa-409bfd6b0113","system_id":"levelo_inurba_marseille","lat":43.3065,"lon":5.40088,"is_reserved":false,"is_disabled":false,"rental_uris":{"android":"levelo://app?vid=fe440cf0-fe95-46c1-86aa-409bfd6b0113","ios":"levelo://app?vid=fe440cf0-fe95-46c1-86aa-409bfd6b0113"},"vehicle_type_id":"4","last_reported":1726101757,"current_range_meters":6800,"station_id":"ce4bh112rcd13ifvqda0","pricing_plan_id":"cebpf4jnsgd1na2vs0mg"},{"bike_id":"f21d56bd-d97a-438f-8e04-bb9d50f5edae","system_id":"levelo_inurba_marseille","lat":43.29786,"lon":5.39347,"is_reserved":false,"is_disabled":false,"rental_uris":{"android":"levelo://app?vid=f21d56bd-d97a-438f-8e04-bb9d50f5edae","ios":"levelo://app?vid=f21d56bd-d97a-438f-8e04-bb9d50f5edae"},"vehicle_type_id":"4","last_reported":1726101757,"current_range_meters":33200,"station_id":"chh1huq6cuj3fo74tm60","pricing_plan_id":"cebpf4jnsgd1na2vs0mg"},{"bike_id":"deaeb920-23ab-4b51-a90a-3a4d369b9959","system_id":"levelo_inurba_marseille","lat":43.26556,"lon":5.37287,"is_reserved":false,"is_disabled":false,"rental_uris":{"android":"levelo://app?vid=deaeb920-23ab-4b51-a90a-3a4d369b9959","ios":"levelo://app?vid=deaeb920-23ab-4b51-a90a-3a4d369b9959"},"vehicle_type_id":"4","last_reported":1726101757,"current_range_meters":15200,"station_id":"ce4bhg12rcd13ifvqf70","pricing_plan_id":"cebpf4jnsgd1na2vs0mg"},{"bike_id":"4af0a17c-7a5c-400e-bc4b-0b044f94b56b","system_id":"levelo_inurba_marseille","lat":43.27561,"lon":5.38414,"is_reserved":false,"is_disabled":false,"rental_uris":{"android":"levelo://app?vid=4af0a17c-7a5c-400e-bc4b-0b044f94b56b","ios":"levelo://app?vid=4af0a17c-7a5c-400e-bc4b-0b044f94b56b"},"vehicle_type_id":"4","last_reported":1726101757,"current_range_meters":33600,"station_id":"ce4bhh92rcd13ifvqfi0","pricing_plan_id":"cebpf4jnsgd1na2vs0mg"},{"bike_id":"560e9604-2f92-49c4-a3b7-0ae7aca2a318","system_id":"levelo_inurba_marseille","lat":43.28704,"lon":5.3998,"is_reserved":false,"is_disabled":false,"rental_uris":{"android":"levelo://app?vid=560e9604-2f92-49c4-a3b7-0ae7aca2a318","ios":"levelo://app?vid=560e9604-2f92-49c4-a3b7-0ae7aca2a318"},"vehicle_type_id":"4","last_reported":1726101757,"current_range_meters":20800,"station_id":"ce4bho92rcd13ifvqh3g","pricing_plan_id":"cebpf4jnsgd1na2vs0mg"},{"bike_id":"d4f0b123-7331-4b3c-ae15-c59f6efdc435","system_id":"levelo_inurba_marseille","lat":43.29253,"lon":5.40911,"is_reserved":false,"is_disabled":false,"rental_uris":{"android":"levelo://app?vid=d4f0b123-7331-4b3c-ae15-c59f6efdc435","ios":"levelo://app?vid=d4f0b123-7331-4b3c-ae15-c59f6efdc435"},"vehicle_type_id":"4","last_reported":1726101757,"current_range_meters":35600,"station_id":"ce4bh192rcd13ifvqdc0","pricing_plan_id":"cebpf4jnsgd1na2vs0mg"},{"bike_id":"bd54f45c-ee79-46cf-b4c1-c934e5dec5e4","system_id":"levelo_inurba_marseille","lat":43.25819,"lon":5.39424,"is_reserved":false,"is_disabled":false,"rental_uris":{"android":"levelo://app?vid=bd54f45c-ee79-46cf-b4c1-c934e5dec5e4","ios":"levelo://app?vid=bd54f45c-ee79-46cf-b4c1-c934e5dec5e4"},"vehicle_type_id":"4","last_reported":1726101757,"current_range_meters":38000,"station_id":"ce4bhip2rcd13ifvqft0","pricing_plan_id":"cebpf4jnsgd1na2vs0mg"},{"bike_id":"1313402d-e00d-4778-873f-b9c505bf9a45","system_id":"levelo_inurba_marseille","lat":43.29547,"lon":5.42271,"is_reserved":false,"is_disabled":false,"rental_uris":{"android":"levelo://app?vid=1313402d-e00d-4778-873f-b9c505bf9a45","ios":"levelo://app?vid=1313402d-e00d-4778-873f-b9c505bf9a45"},"vehicle_type_id":"4","last_reported":1726101757,"current_range_meters":32400,"station_id":"ce4bhph2rcd13ifvqhdg","pricing_plan_id":"cebpf4jnsgd1na2vs0mg"},{"bike_id":"7388bcdf-c056-430d-a30d-fc38727e4671","system_id":"levelo_inurba_marseille","lat":43.31534,"lon":5.38038,"is_reserved":false,"is_disabled":false,"rental_uris":{"android":"levelo://app?vid=7388bcdf-c056-430d-a30d-fc38727e4671","ios":"levelo://app?vid=7388bcdf-c056-430d-a30d-fc38727e4671"},"vehicle_type_id":"4","last_reported":1726101757,"current_range_meters":9600,"station_id":"ce4bhsp2rcd13ifvqi50","pricing_plan_id":"cebpf4jnsgd1na2vs0mg"},{"bike_id":"66c25716-1b58-45db-915f-78eb2a682e64","system_id":"levelo_inurba_marseille","lat":43.2465,"lon":5.38893,"is_reserved":false,"is_disabled":false,"rental_uris":{"android":"levelo://app?vid=66c25716-1b58-45db-915f-78eb2a682e64","ios":"levelo://app?vid=66c25716-1b58-45db-915f-78eb2a682e64"},"vehicle_type_id":"4","last_reported":1726101757,"current_range_meters":18800,"station_id":"ce4bhg12rcd13ifvqf60","pricing_plan_id":"cebpf4jnsgd1na2vs0mg"},{"bike_id":"95bcb544-7f1c-4b2a-b990-3fadd6fce4c4","system_id":"levelo_inurba_marseille","lat":43.24652,"lon":5.38891,"is_reserved":false,"is_disabled":false,"rental_uris":{"android":"levelo://app?vid=95bcb544-7f1c-4b2a-b990-3fadd6fce4c4","ios":"levelo://app?vid=95bcb544-7f1c-4b2a-b990-3fadd6fce4c4"},"vehicle_type_id":"4","last_reported":1726101757,"current_range_meters":36000,"station_id":"ce4bhg12rcd13ifvqf60","pricing_plan_id":"cebpf4jnsgd1na2vs0mg"},{"bike_id":"0b38bf74-3ba1-46f9-a669-5725d4951238","system_id":"levelo_inurba_marseille","lat":43.27213,"lon":5.3919,"is_reserved":false,"is_disabled":false,"rental_uris":{"android":"levelo://app?vid=0b38bf74-3ba1-46f9-a669-5725d4951238","ios":"levelo://app?vid=0b38bf74-3ba1-46f9-a669-5725d4951238"},"vehicle_type_id":"4","last_reported":1726101757,"current_range_meters":28000,"station_id":"ce4bhhp2rcd13ifvqfm0","pricing_plan_id":"cebpf4jnsgd1na2vs0mg"},{"bike_id":"3140daed-187d-472c-bfd1-4d09de4e8a49","system_id":"levelo_inurba_marseille","lat":43.30935,"lon":5.40145,"is_reserved":false,"is_disabled":false,"rental_uris":{"android":"levelo://app?vid=3140daed-187d-472c-bfd1-4d09de4e8a49","ios":"levelo://app?vid=3140daed-187d-472c-bfd1-4d09de4e8a49"},"vehicle_type_id":"4","last_reported":1726101757,"current_range_meters":36000,"station_id":"ce4bgvp2rcd13ifvqct0","pricing_plan_id":"cebpf4jnsgd1na2vs0mg"},{"bike_id":"4f01af91-1a78-40a6-a8c7-f386d009bb23","system_id":"levelo_inurba_marseille","lat":43.31362,"lon":5.36704,"is_reserved":false,"is_disabled":false,"rental_uris":{"android":"levelo://app?vid=4f01af91-1a78-40a6-a8c7-f386d009bb23","ios":"levelo://app?vid=4f01af91-1a78-40a6-a8c7-f386d009bb23"},"vehicle_type_id":"4","last_reported":1726101757,"current_range_meters":31200,"station_id":"ce4bgr92rcd13ifvqc6g","pricing_plan_id":"cebpf4jnsgd1na2vs0mg"},{"bike_id":"9251d649-9d8a-442d-bd03-5baf7e9851ab","system_id":"levelo_inurba_marseille","lat":43.27077,"lon":5.42278,"is_reserved":false,"is_disabled":false,"rental_uris":{"android":"levelo://app?vid=9251d649-9d8a-442d-bd03-5baf7e9851ab","ios":"levelo://app?vid=9251d649-9d8a-442d-bd03-5baf7e9851ab"},"vehicle_type_id":"4","last_reported":1726101757,"current_range_meters":26000,"station_id":"ce4bhk92rcd13ifvqgb0","pricing_plan_id":"cebpf4jnsgd1na2vs0mg"},{"bike_id":"7febc141-5a04-4a2c-a79e-f05574b041f1","system_id":"levelo_inurba_marseille","lat":43.24668,"lon":5.38154,"is_reserved":false,"is_disabled":false,"rental_uris":{"android":"levelo://app?vid=7febc141-5a04-4a2c-a79e-f05574b041f1","ios":"levelo://app?vid=7febc141-5a04-4a2c-a79e-f05574b041f1"},"vehicle_type_id":"4","last_reported":1726101757,"current_range_meters":28800,"station_id":"ce4bhih2rcd13ifvqfr0","pricing_plan_id":"cebpf4jnsgd1na2vs0mg"},{"bike_id":"128a2759-2986-4b03-8346-b4f40c82259b","system_id":"levelo_inurba_marseille","lat":43.24814,"lon":5.37459,"is_reserved":false,"is_disabled":false,"rental_uris":{"android":"levelo://app?vid=128a2759-2986-4b03-8346-b4f40c82259b","ios":"levelo://app?vid=128a2759-2986-4b03-8346-b4f40c82259b"},"vehicle_type_id":"4","last_reported":1726101757,"current_range_meters":38400,"station_id":"ce4bhgh2rcd13ifvqfb0","pricing_plan_id":"cebpf4jnsgd1na2vs0mg"},{"bike_id":"36e9c42f-19f6-4e9c-a288-4129b5673246","system_id":"levelo_inurba_marseille","lat":43.28105,"lon":5.37843,"is_reserved":false,"is_disabled":false,"rental_uris":{"android":"levelo://app?vid=36e9c42f-19f6-4e9c-a288-4129b5673246","ios":"levelo://app?vid=36e9c42f-19f6-4e9c-a288-4129b5673246"},"vehicle_type_id":"4","last_reported":1726101757,"current_range_meters":31200,"station_id":"ce4bha12rcd13ifvqee0","pricing_plan_id":"cebpf4jnsgd1na2vs0mg"},{"bike_id":"2e3e1eeb-48c9-4c2d-9d39-cb3297f66628","system_id":"levelo_inurba_marseille","lat":43.28665,"lon":5.36356,"is_reserved":false,"is_disabled":false,"rental_uris":{"android":"levelo://app?vid=2e3e1eeb-48c9-4c2d-9d39-cb3297f66628","ios":"levelo://app?vid=2e3e1eeb-48c9-4c2d-9d39-cb3297f66628"},"vehicle_type_id":"4","last_reported":1726101757,"current_range_meters":38400,"station_id":"ce4bhah2rcd13ifvqej0","pricing_plan_id":"cebpf4jnsgd1na2vs0mg"},{"bike_id":"9deb0a16-2bca-4a5d-8074-bf76a14b8cf4","system_id":"levelo_inurba_marseille","lat":43.30944,"lon":5.39033,"is_reserved":false,"is_disabled":false,"rental_uris":{"android":"levelo://app?vid=9deb0a16-2bca-4a5d-8074-bf76a14b8cf4","ios":"levelo://app?vid=9deb0a16-2bca-4a5d-8074-bf76a14b8cf4"},"vehicle_type_id":"4","last_reported":1726101757,"current_range_meters":30800,"station_id":"ce4bgup2rcd13ifvqco0","pricing_plan_id":"cebpf4jnsgd1na2vs0mg"},{"bike_id":"b5c74026-88c8-4590-abdf-fc90ab245935","system_id":"levelo_inurba_marseille","lat":43.31491,"lon":5.37308,"is_reserved":false,"is_disabled":false,"rental_uris":{"android":"levelo://app?vid=b5c74026-88c8-4590-abdf-fc90ab245935","ios":"levelo://app?vid=b5c74026-88c8-4590-abdf-fc90ab245935"},"vehicle_type_id":"4","last_reported":1726101757,"current_range_meters":35200,"station_id":"ce4bgt12rcd13ifvqcd0","pricing_plan_id":"cebpf4jnsgd1na2vs0mg"},{"bike_id":"adaa2b62-62bc-4736-bac0-bd3fca3e1795","system_id":"levelo_inurba_marseille","lat":43.29629,"lon":5.406,"is_reserved":false,"is_disabled":false,"rental_uris":{"android":"levelo://app?vid=adaa2b62-62bc-4736-bac0-bd3fca3e1795","ios":"levelo://app?vid=adaa2b62-62bc-4736-bac0-bd3fca3e1795"},"vehicle_type_id":"4","last_reported":1726101757,"current_range_meters":9200,"station_id":"ce4bh0h2rcd13ifvqd60","pricing_plan_id":"cebpf4jnsgd1na2vs0mg"},{"bike_id":"bd93ad96-3d66-4dab-a975-716363825001","system_id":"levelo_inurba_marseille","lat":43.31723,"lon":5.42405,"is_reserved":false,"is_disabled":false,"rental_uris":{"android":"levelo://app?vid=bd93ad96-3d66-4dab-a975-716363825001","ios":"levelo://app?vid=bd93ad96-3d66-4dab-a975-716363825001"},"vehicle_type_id":"4","last_reported":1726101757,"current_range_meters":35600,"station_id":"ce4bhp92rcd13ifvqhbg","pricing_plan_id":"cebpf4jnsgd1na2vs0mg"},{"bike_id":"a5ceea97-dd13-490a-9e73-3570214f740d","system_id":"levelo_inurba_marseille","lat":43.28943,"lon":5.36397,"is_reserved":false,"is_disabled":false,"rental_uris":{"android":"levelo://app?vid=a5ceea97-dd13-490a-9e73-3570214f740d","ios":"levelo://app?vid=a5ceea97-dd13-490a-9e73-3570214f740d"},"vehicle_type_id":"4","last_reported":1726101757,"current_range_meters":39200,"station_id":"ce4bhc92rcd13ifvqetg","pricing_plan_id":"cebpf4jnsgd1na2vs0mg"},{"bike_id":"426e74d1-f1d7-408c-911a-c32d7d58f928","system_id":"levelo_inurba_marseille","lat":43.28698,"lon":5.39977,"is_reserved":false,"is_disabled":false,"rental_uris":{"android":"levelo://app?vid=426e74d1-f1d7-408c-911a-c32d7d58f928","ios":"levelo://app?vid=426e74d1-f1d7-408c-911a-c32d7d58f928"},"vehicle_type_id":"4","last_reported":1726101757,"current_range_meters":38400,"station_id":"ce4bho92rcd13ifvqh3g","pricing_plan_id":"cebpf4jnsgd1na2vs0mg"},{"bike_id":"bb75b410-b4dc-4f52-84e0-29894fcaecdf","system_id":"levelo_inurba_marseille","lat":43.33027,"lon":5.3904,"is_reserved":false,"is_disabled":false,"rental_uris":{"android":"levelo://app?vid=bb75b410-b4dc-4f52-84e0-29894fcaecdf","ios":"levelo://app?vid=bb75b410-b4dc-4f52-84e0-29894fcaecdf"},"vehicle_type_id":"4","last_reported":1726101757,"current_range_meters":31200,"station_id":"ce4bhr92rcd13ifvqhrg","pricing_plan_id":"cebpf4jnsgd1na2vs0mg"},{"bike_id":"bb143e7e-7ffb-4ad1-9cd0-b372fd7071ad","system_id":"levelo_inurba_marseille","lat":43.30598,"lon":5.37209,"is_reserved":false,"is_disabled":false,"rental_uris":{"android":"levelo://app?vid=bb143e7e-7ffb-4ad1-9cd0-b372fd7071ad","ios":"levelo://app?vid=bb143e7e-7ffb-4ad1-9cd0-b372fd7071ad"},"vehicle_type_id":"4","last_reported":1726101757,"current_range_meters":38800,"station_id":"ce4bgqh2rcd13ifvqc4g","pricing_plan_id":"cebpf4jnsgd1na2vs0mg"},{"bike_id":"60789313-0677-4361-a367-de64ca995005","system_id":"levelo_inurba_marseille","lat":43.2606,"lon":5.39398,"is_reserved":false,"is_disabled":false,"rental_uris":{"android":"levelo://app?vid=60789313-0677-4361-a367-de64ca995005","ios":"levelo://app?vid=60789313-0677-4361-a367-de64ca995005"},"vehicle_type_id":"4","last_reported":1726101757,"current_range_meters":39200,"station_id":"ce4bhh92rcd13ifvqfj0","pricing_plan_id":"cebpf4jnsgd1na2vs0mg"},{"bike_id":"50e00bc3-eacc-4867-a4f2-d4914c4a888d","system_id":"levelo_inurba_marseille","lat":43.30328,"lon":5.4044,"is_reserved":false,"is_disabled":false,"rental_uris":{"android":"levelo://app?vid=50e00bc3-eacc-4867-a4f2-d4914c4a888d","ios":"levelo://app?vid=50e00bc3-eacc-4867-a4f2-d4914c4a888d"},"vehicle_type_id":"4","last_reported":1726101757,"current_range_meters":30400,"station_id":"ce4bh012rcd13ifvqd10","pricing_plan_id":"cebpf4jnsgd1na2vs0mg"},{"bike_id":"357e5b63-3f30-4183-9d18-6ef64a9bd737","system_id":"levelo_inurba_marseille","lat":43.28705,"lon":5.39982,"is_reserved":false,"is_disabled":false,"rental_uris":{"android":"levelo://app?vid=357e5b63-3f30-4183-9d18-6ef64a9bd737","ios":"levelo://app?vid=357e5b63-3f30-4183-9d18-6ef64a9bd737"},"vehicle_type_id":"4","last_reported":1726101757,"current_range_meters":25600,"station_id":"ce4bho92rcd13ifvqh3g","pricing_plan_id":"cebpf4jnsgd1na2vs0mg"},{"bike_id":"7119cd4d-032f-4775-8c6a-027ed7564f39","system_id":"levelo_inurba_marseille","lat":43.32363,"lon":5.38893,"is_reserved":false,"is_disabled":false,"rental_uris":{"android":"levelo://app?vid=7119cd4d-032f-4775-8c6a-027ed7564f39","ios":"levelo://app?vid=7119cd4d-032f-4775-8c6a-027ed7564f39"},"vehicle_type_id":"4","last_reported":1726101757,"current_range_meters":19600,"station_id":"ce4bhqp2rcd13ifvqhog","pricing_plan_id":"cebpf4jnsgd1na2vs0mg"},{"bike_id":"49037cf7-ab7f-4327-8a2e-9dfbc463b5bb","system_id":"levelo_inurba_marseille","lat":43.28846,"lon":5.35838,"is_reserved":false,"is_disabled":false,"rental_uris":{"android":"levelo://app?vid=49037cf7-ab7f-4327-8a2e-9dfbc463b5bb","ios":"levelo://app?vid=49037cf7-ab7f-4327-8a2e-9dfbc463b5bb"},"vehicle_type_id":"4","last_reported":1726101757,"current_range_meters":29600,"station_id":"ce4bhb12rcd13ifvqem0","pricing_plan_id":"cebpf4jnsgd1na2vs0mg"},{"bike_id":"708978b1-af26-486f-810c-fbf08c534275","system_id":"levelo_inurba_marseille","lat":43.27921,"lon":5.39584,"is_reserved":false,"is_disabled":false,"rental_uris":{"android":"levelo://app?vid=708978b1-af26-486f-810c-fbf08c534275","ios":"levelo://app?vid=708978b1-af26-486f-810c-fbf08c534275"},"vehicle_type_id":"4","last_reported":1726101757,"current_range_meters":6000,"station_id":"ce4bhf92rcd13ifvqf40","pricing_plan_id":"cebpf4jnsgd1na2vs0mg"},{"bike_id":"dd2d66a6-976d-43e6-83be-d6211ff78acc","system_id":"levelo_inurba_marseille","lat":43.33722,"lon":5.39182,"is_reserved":false,"is_disabled":false,"rental_uris":{"android":"levelo://app?vid=dd2d66a6-976d-43e6-83be-d6211ff78acc","ios":"levelo://app?vid=dd2d66a6-976d-43e6-83be-d6211ff78acc"},"vehicle_type_id":"4","last_reported":1726101757,"current_range_meters":14800,"station_id":"ce4bhr92rcd13ifvqhsg","pricing_plan_id":"cebpf4jnsgd1na2vs0mg"},{"bike_id":"82a54478-31a0-4fbb-b63b-0e81d6432e80","system_id":"levelo_inurba_marseille","lat":43.28573,"lon":5.39498,"is_reserved":false,"is_disabled":false,"rental_uris":{"android":"levelo://app?vid=82a54478-31a0-4fbb-b63b-0e81d6432e80","ios":"levelo://app?vid=82a54478-31a0-4fbb-b63b-0e81d6432e80"},"vehicle_type_id":"4","last_reported":1726101757,"current_range_meters":18800,"station_id":"ce4bh292rcd13ifvqdg0","pricing_plan_id":"cebpf4jnsgd1na2vs0mg"},{"bike_id":"b23d7713-947c-4ba3-9290-ba8136d503cc","system_id":"levelo_inurba_marseille","lat":43.30261,"lon":5.40061,"is_reserved":false,"is_disabled":false,"rental_uris":{"android":"levelo://app?vid=b23d7713-947c-4ba3-9290-ba8136d503cc","ios":"levelo://app?vid=b23d7713-947c-4ba3-9290-ba8136d503cc"},"vehicle_type_id":"4","last_reported":1726101757,"current_range_meters":33600,"station_id":"ce4bgvh2rcd13ifvqcs0","pricing_plan_id":"cebpf4jnsgd1na2vs0mg"},{"bike_id":"aefe4269-3d1c-498f-93b0-dded8b035811","system_id":"levelo_inurba_marseille","lat":43.27494,"lon":5.42462,"is_reserved":false,"is_disabled":false,"rental_uris":{"android":"levelo://app?vid=aefe4269-3d1c-498f-93b0-dded8b035811","ios":"levelo://app?vid=aefe4269-3d1c-498f-93b0-dded8b035811"},"vehicle_type_id":"4","last_reported":1726101757,"current_range_meters":11200,"station_id":"ce4bhn92rcd13ifvqgrg","pricing_plan_id":"cebpf4jnsgd1na2vs0mg"},{"bike_id":"5ec244f9-8806-4663-a010-a1b3d78ee466","system_id":"levelo_inurba_marseille","lat":43.28435,"lon":5.39188,"is_reserved":false,"is_disabled":false,"rental_uris":{"android":"levelo://app?vid=5ec244f9-8806-4663-a010-a1b3d78ee466","ios":"levelo://app?vid=5ec244f9-8806-4663-a010-a1b3d78ee466"},"vehicle_type_id":"4","last_reported":1726101757,"current_range_meters":36000,"station_id":"ce4bhoh2rcd13ifvqh5g","pricing_plan_id":"cebpf4jnsgd1na2vs0mg"},{"bike_id":"01906d26-6cb4-4012-8836-890840694aea","system_id":"levelo_inurba_marseille","lat":43.28418,"lon":5.37512,"is_reserved":false,"is_disabled":false,"rental_uris":{"android":"levelo://app?vid=01906d26-6cb4-4012-8836-890840694aea","ios":"levelo://app?vid=01906d26-6cb4-4012-8836-890840694aea"},"vehicle_type_id":"4","last_reported":1726101757,"current_range_meters":34800,"station_id":"ce4bh412rcd13ifvqds0","pricing_plan_id":"cebpf4jnsgd1na2vs0mg"},{"bike_id":"f73e8577-6eb7-43b7-a7cf-5cb8a733574a","system_id":"levelo_inurba_marseille","lat":43.29282,"lon":5.4014,"is_reserved":false,"is_disabled":false,"rental_uris":{"android":"levelo://app?vid=f73e8577-6eb7-43b7-a7cf-5cb8a733574a","ios":"levelo://app?vid=f73e8577-6eb7-43b7-a7cf-5cb8a733574a"},"vehicle_type_id":"4","last_reported":1726101757,"current_range_meters":38000,"station_id":"ce4bh312rcd13ifvqdk0","pricing_plan_id":"cebpf4jnsgd1na2vs0mg"},{"bike_id":"e00faff9-2b03-4f53-b630-8a248adbbb56","system_id":"levelo_inurba_marseille","lat":43.28457,"lon":5.35889,"is_reserved":false,"is_disabled":false,"rental_uris":{"android":"levelo://app?vid=e00faff9-2b03-4f53-b630-8a248adbbb56","ios":"levelo://app?vid=e00faff9-2b03-4f53-b630-8a248adbbb56"},"vehicle_type_id":"4","last_reported":1726101757,"current_range_meters":38800,"station_id":"ce4bhah2rcd13ifvqei0","pricing_plan_id":"cebpf4jnsgd1na2vs0mg"},{"bike_id":"5876c5ef-9fac-478d-bd3c-ea1780c21005","system_id":"levelo_inurba_marseille","lat":43.33755,"lon":5.37446,"is_reserved":false,"is_disabled":false,"rental_uris":{"android":"levelo://app?vid=5876c5ef-9fac-478d-bd3c-ea1780c21005","ios":"levelo://app?vid=5876c5ef-9fac-478d-bd3c-ea1780c21005"},"vehicle_type_id":"4","last_reported":1726101757,"current_range_meters":37600,"station_id":"","pricing_plan_id":"cebpf4jnsgd1na2vs0mg"},{"bike_id":"e677b515-5319-4216-9c4c-b1dda00cce1f","system_id":"levelo_inurba_marseille","lat":43.24802,"lon":5.37459,"is_reserved":false,"is_disabled":false,"rental_uris":{"android":"levelo://app?vid=e677b515-5319-4216-9c4c-b1dda00cce1f","ios":"levelo://app?vid=e677b515-5319-4216-9c4c-b1dda00cce1f"},"vehicle_type_id":"4","last_reported":1726101757,"current_range_meters":30800,"station_id":"ce4bhgh2rcd13ifvqfb0","pricing_plan_id":"cebpf4jnsgd1na2vs0mg"},{"bike_id":"c74261a9-01ce-4042-8d2b-81c82ad12f19","system_id":"levelo_inurba_marseille","lat":43.29005,"lon":5.35603,"is_reserved":false,"is_disabled":false,"rental_uris":{"android":"levelo://app?vid=c74261a9-01ce-4042-8d2b-81c82ad12f19","ios":"levelo://app?vid=c74261a9-01ce-4042-8d2b-81c82ad12f19"},"vehicle_type_id":"4","last_reported":1726101757,"current_range_meters":26800,"station_id":"ce4bhb92rcd13ifvqen0","pricing_plan_id":"cebpf4jnsgd1na2vs0mg"},{"bike_id":"63ae624f-e48a-462c-befa-2d64de8b0415","system_id":"levelo_inurba_marseille","lat":43.28706,"lon":5.39979,"is_reserved":false,"is_disabled":false,"rental_uris":{"android":"levelo://app?vid=63ae624f-e48a-462c-befa-2d64de8b0415","ios":"levelo://app?vid=63ae624f-e48a-462c-befa-2d64de8b0415"},"vehicle_type_id":"4","last_reported":1726101757,"current_range_meters":17600,"station_id":"ce4bho92rcd13ifvqh3g","pricing_plan_id":"cebpf4jnsgd1na2vs0mg"},{"bike_id":"c58d07ea-a1cd-4c7d-a25e-65dc5bb2cd5f","system_id":"levelo_inurba_marseille","lat":43.3234,"lon":5.40625,"is_reserved":false,"is_disabled":false,"rental_uris":{"android":"levelo://app?vid=c58d07ea-a1cd-4c7d-a25e-65dc5bb2cd5f","ios":"levelo://app?vid=c58d07ea-a1cd-4c7d-a25e-65dc5bb2cd5f"},"vehicle_type_id":"4","last_reported":1726101757,"current_range_meters":25200,"station_id":"ce4bhq92rcd13ifvqhjg","pricing_plan_id":"cebpf4jnsgd1na2vs0mg"},{"bike_id":"926b2a48-8dd8-4764-aca3-bab40b5d8bd7","system_id":"levelo_inurba_marseille","lat":43.3044,"lon":5.3884,"is_reserved":false,"is_disabled":false,"rental_uris":{"android":"levelo://app?vid=926b2a48-8dd8-4764-aca3-bab40b5d8bd7","ios":"levelo://app?vid=926b2a48-8dd8-4764-aca3-bab40b5d8bd7"},"vehicle_type_id":"4","last_reported":1726101757,"current_range_meters":23200,"station_id":"ce4bgk12rcd13ifvqbi0","pricing_plan_id":"cebpf4jnsgd1na2vs0mg"},{"bike_id":"8877dbff-0e68-4869-9c33-32eb29fd50c2","system_id":"levelo_inurba_marseille","lat":43.30599,"lon":5.37215,"is_reserved":false,"is_disabled":false,"rental_uris":{"android":"levelo://app?vid=8877dbff-0e68-4869-9c33-32eb29fd50c2","ios":"levelo://app?vid=8877dbff-0e68-4869-9c33-32eb29fd50c2"},"vehicle_type_id":"4","last_reported":1726101757,"current_range_meters":24400,"station_id":"ce4bgqh2rcd13ifvqc4g","pricing_plan_id":"cebpf4jnsgd1na2vs0mg"},{"bike_id":"8c2900ff-896a-4004-bf6e-2b32ae5553f3","system_id":"levelo_inurba_marseille","lat":43.26195,"lon":5.37452,"is_reserved":false,"is_disabled":false,"rental_uris":{"android":"levelo://app?vid=8c2900ff-896a-4004-bf6e-2b32ae5553f3","ios":"levelo://app?vid=8c2900ff-896a-4004-bf6e-2b32ae5553f3"},"vehicle_type_id":"4","last_reported":1726101757,"current_range_meters":36400,"station_id":"ce4bhgp2rcd13ifvqfc0","pricing_plan_id":"cebpf4jnsgd1na2vs0mg"},{"bike_id":"dccadc39-7e75-4ff6-801e-d97b0e1812f2","system_id":"levelo_inurba_marseille","lat":43.33027,"lon":5.39036,"is_reserved":false,"is_disabled":false,"rental_uris":{"android":"levelo://app?vid=dccadc39-7e75-4ff6-801e-d97b0e1812f2","ios":"levelo://app?vid=dccadc39-7e75-4ff6-801e-d97b0e1812f2"},"vehicle_type_id":"4","last_reported":1726101757,"current_range_meters":31200,"station_id":"ce4bhr92rcd13ifvqhrg","pricing_plan_id":"cebpf4jnsgd1na2vs0mg"},{"bike_id":"079805b4-4a61-4410-a040-817359d1c2c6","system_id":"levelo_inurba_marseille","lat":43.24541,"lon":5.39529,"is_reserved":false,"is_disabled":false,"rental_uris":{"android":"levelo://app?vid=079805b4-4a61-4410-a040-817359d1c2c6","ios":"levelo://app?vid=079805b4-4a61-4410-a040-817359d1c2c6"},"vehicle_type_id":"4","last_reported":1726101757,"current_range_meters":6400,"station_id":"ce4bhlp2rcd13ifvqgjg","pricing_plan_id":"cebpf4jnsgd1na2vs0mg"},{"bike_id":"9ec21d34-7b90-4a8a-a838-a99011bc093b","system_id":"levelo_inurba_marseille","lat":43.28104,"lon":5.37841,"is_reserved":false,"is_disabled":false,"rental_uris":{"android":"levelo://app?vid=9ec21d34-7b90-4a8a-a838-a99011bc093b","ios":"levelo://app?vid=9ec21d34-7b90-4a8a-a838-a99011bc093b"},"vehicle_type_id":"4","last_reported":1726101757,"current_range_meters":35200,"station_id":"ce4bha12rcd13ifvqee0","pricing_plan_id":"cebpf4jnsgd1na2vs0mg"},{"bike_id":"f85b2379-6ef4-467a-ae42-fb3879dfa61e","system_id":"levelo_inurba_marseille","lat":43.23187,"lon":5.3998,"is_reserved":false,"is_disabled":false,"rental_uris":{"android":"levelo://app?vid=f85b2379-6ef4-467a-ae42-fb3879dfa61e","ios":"levelo://app?vid=f85b2379-6ef4-467a-ae42-fb3879dfa61e"},"vehicle_type_id":"4","last_reported":1726101757,"current_range_meters":26000,"station_id":"ce4bhn12rcd13ifvqgqg","pricing_plan_id":"cebpf4jnsgd1na2vs0mg"},{"bike_id":"4b02a7e9-8265-4f92-8a5b-523194dc96fe","system_id":"levelo_inurba_marseille","lat":43.25829,"lon":5.39438,"is_reserved":false,"is_disabled":false,"rental_uris":{"android":"levelo://app?vid=4b02a7e9-8265-4f92-8a5b-523194dc96fe","ios":"levelo://app?vid=4b02a7e9-8265-4f92-8a5b-523194dc96fe"},"vehicle_type_id":"4","last_reported":1726101757,"current_range_meters":30000,"station_id":"ce4bhip2rcd13ifvqft0","pricing_plan_id":"cebpf4jnsgd1na2vs0mg"},{"bike_id":"7ec8b243-6b70-46ff-b2ef-f4bf800cbb70","system_id":"levelo_inurba_marseille","lat":43.31279,"lon":5.40168,"is_reserved":false,"is_disabled":false,"rental_uris":{"android":"levelo://app?vid=7ec8b243-6b70-46ff-b2ef-f4bf800cbb70","ios":"levelo://app?vid=7ec8b243-6b70-46ff-b2ef-f4bf800cbb70"},"vehicle_type_id":"4","last_reported":1726101757,"current_range_meters":38800,"station_id":"ce4bh092rcd13ifvqd30","pricing_plan_id":"cebpf4jnsgd1na2vs0mg"},{"bike_id":"19fc74b2-0977-409b-9d38-b0cf563ca0ec","system_id":"levelo_inurba_marseille","lat":43.30329,"lon":5.40443,"is_reserved":false,"is_disabled":false,"rental_uris":{"android":"levelo://app?vid=19fc74b2-0977-409b-9d38-b0cf563ca0ec","ios":"levelo://app?vid=19fc74b2-0977-409b-9d38-b0cf563ca0ec"},"vehicle_type_id":"4","last_reported":1726101757,"current_range_meters":38400,"station_id":"ce4bh012rcd13ifvqd10","pricing_plan_id":"cebpf4jnsgd1na2vs0mg"},{"bike_id":"c7ac690e-8f7a-473c-8c0a-959fbf19c2cf","system_id":"levelo_inurba_marseille","lat":43.28081,"lon":5.3965,"is_reserved":false,"is_disabled":false,"rental_uris":{"android":"levelo://app?vid=c7ac690e-8f7a-473c-8c0a-959fbf19c2cf","ios":"levelo://app?vid=c7ac690e-8f7a-473c-8c0a-959fbf19c2cf"},"vehicle_type_id":"4","last_reported":1726101757,"current_range_meters":34000,"station_id":"ce4bho12rcd13ifvqh2g","pricing_plan_id":"cebpf4jnsgd1na2vs0mg"},{"bike_id":"f4ab7a95-124a-4450-94cb-edbad0eb15f1","system_id":"levelo_inurba_marseille","lat":43.30886,"lon":5.37188,"is_reserved":false,"is_disabled":false,"rental_uris":{"android":"levelo://app?vid=f4ab7a95-124a-4450-94cb-edbad0eb15f1","ios":"levelo://app?vid=f4ab7a95-124a-4450-94cb-edbad0eb15f1"},"vehicle_type_id":"4","last_reported":1726101757,"current_range_meters":35200,"station_id":"ce4bguh2rcd13ifvqckg","pricing_plan_id":"cebpf4jnsgd1na2vs0mg"},{"bike_id":"7551d42d-8659-416d-896d-f767a7f37efa","system_id":"levelo_inurba_marseille","lat":43.24547,"lon":5.39523,"is_reserved":false,"is_disabled":false,"rental_uris":{"android":"levelo://app?vid=7551d42d-8659-416d-896d-f767a7f37efa","ios":"levelo://app?vid=7551d42d-8659-416d-896d-f767a7f37efa"},"vehicle_type_id":"4","last_reported":1726101757,"current_range_meters":38800,"station_id":"ce4bhlp2rcd13ifvqgjg","pricing_plan_id":"cebpf4jnsgd1na2vs0mg"},{"bike_id":"c651885b-ddc5-4321-b611-a6a2060c7997","system_id":"levelo_inurba_marseille","lat":43.3042,"lon":5.41288,"is_reserved":false,"is_disabled":false,"rental_uris":{"android":"levelo://app?vid=c651885b-ddc5-4321-b611-a6a2060c7997","ios":"levelo://app?vid=c651885b-ddc5-4321-b611-a6a2060c7997"},"vehicle_type_id":"4","last_reported":1726101757,"current_range_meters":14400,"station_id":"ce4bhop2rcd13ifvqh8g","pricing_plan_id":"cebpf4jnsgd1na2vs0mg"},{"bike_id":"3f5eecb4-8f27-452b-b211-a37a38a3a181","system_id":"levelo_inurba_marseille","lat":43.30592,"lon":5.3935,"is_reserved":false,"is_disabled":false,"rental_uris":{"android":"levelo://app?vid=3f5eecb4-8f27-452b-b211-a37a38a3a181","ios":"levelo://app?vid=3f5eecb4-8f27-452b-b211-a37a38a3a181"},"vehicle_type_id":"4","last_reported":1726101757,"current_range_meters":35200,"station_id":"ce4bh0p2rcd13ifvqd80","pricing_plan_id":"cebpf4jnsgd1na2vs0mg"},{"bike_id":"d54b8658-9b83-47bb-b299-884ec803ee94","system_id":"levelo_inurba_marseille","lat":43.31322,"lon":5.39699,"is_reserved":false,"is_disabled":false,"rental_uris":{"android":"levelo://app?vid=d54b8658-9b83-47bb-b299-884ec803ee94","ios":"levelo://app?vid=d54b8658-9b83-47bb-b299-884ec803ee94"},"vehicle_type_id":"4","last_reported":1726101757,"current_range_meters":28000,"station_id":"ce4bgvp2rcd13ifvqcu0","pricing_plan_id":"cebpf4jnsgd1na2vs0mg"},{"bike_id":"be45a701-ee67-4928-b7e1-4e1546c93241","system_id":"levelo_inurba_marseille","lat":43.29194,"lon":5.35808,"is_reserved":false,"is_disabled":false,"rental_uris":{"android":"levelo://app?vid=be45a701-ee67-4928-b7e1-4e1546c93241","ios":"levelo://app?vid=be45a701-ee67-4928-b7e1-4e1546c93241"},"vehicle_type_id":"4","last_reported":1726101757,"current_range_meters":28800,"station_id":"ce4bhb12rcd13ifvqel0","pricing_plan_id":"cebpf4jnsgd1na2vs0mg"},{"bike_id":"23ddc724-e326-4bd8-b381-7031c6ba4445","system_id":"levelo_inurba_marseille","lat":43.27996,"lon":5.41662,"is_reserved":false,"is_disabled":false,"rental_uris":{"android":"levelo://app?vid=23ddc724-e326-4bd8-b381-7031c6ba4445","ios":"levelo://app?vid=23ddc724-e326-4bd8-b381-7031c6ba4445"},"vehicle_type_id":"4","last_reported":1726101757,"current_range_meters":31200,"station_id":"ce4bho12rcd13ifvqh1g","pricing_plan_id":"cebpf4jnsgd1na2vs0mg"},{"bike_id":"368d04a0-4bac-4f2a-9d3c-1420da4a7c23","system_id":"levelo_inurba_marseille","lat":43.28151,"lon":5.42649,"is_reserved":false,"is_disabled":false,"rental_uris":{"android":"levelo://app?vid=368d04a0-4bac-4f2a-9d3c-1420da4a7c23","ios":"levelo://app?vid=368d04a0-4bac-4f2a-9d3c-1420da4a7c23"},"vehicle_type_id":"4","last_reported":1726101757,"current_range_meters":33600,"station_id":"ce4bhnh2rcd13ifvqgug","pricing_plan_id":"cebpf4jnsgd1na2vs0mg"},{"bike_id":"4c386efd-d18a-4ef4-bea2-49d99e7c4947","system_id":"levelo_inurba_marseille","lat":43.27997,"lon":5.40022,"is_reserved":false,"is_disabled":false,"rental_uris":{"android":"levelo://app?vid=4c386efd-d18a-4ef4-bea2-49d99e7c4947","ios":"levelo://app?vid=4c386efd-d18a-4ef4-bea2-49d99e7c4947"},"vehicle_type_id":"4","last_reported":1726101757,"current_range_meters":11200,"station_id":"ce4bho92rcd13ifvqh4g","pricing_plan_id":"cebpf4jnsgd1na2vs0mg"},{"bike_id":"e06bfd01-c40b-47c2-94ca-ace2b2ea2d8f","system_id":"levelo_inurba_marseille","lat":43.25109,"lon":5.40327,"is_reserved":false,"is_disabled":false,"rental_uris":{"android":"levelo://app?vid=e06bfd01-c40b-47c2-94ca-ace2b2ea2d8f","ios":"levelo://app?vid=e06bfd01-c40b-47c2-94ca-ace2b2ea2d8f"},"vehicle_type_id":"4","last_reported":1726101757,"current_range_meters":10000,"station_id":"ce4bhlh2rcd13ifvqgig","pricing_plan_id":"cebpf4jnsgd1na2vs0mg"},{"bike_id":"13f18a5e-f543-45b6-9065-a057c6a5446e","system_id":"levelo_inurba_marseille","lat":43.29253,"lon":5.4091,"is_reserved":false,"is_disabled":false,"rental_uris":{"android":"levelo://app?vid=13f18a5e-f543-45b6-9065-a057c6a5446e","ios":"levelo://app?vid=13f18a5e-f543-45b6-9065-a057c6a5446e"},"vehicle_type_id":"4","last_reported":1726101757,"current_range_meters":38800,"station_id":"ce4bh192rcd13ifvqdc0","pricing_plan_id":"cebpf4jnsgd1na2vs0mg"},{"bike_id":"f0388934-6ea4-494b-87a2-d18cbceeaf0d","system_id":"levelo_inurba_marseille","lat":43.28275,"lon":5.35086,"is_reserved":false,"is_disabled":false,"rental_uris":{"android":"levelo://app?vid=f0388934-6ea4-494b-87a2-d18cbceeaf0d","ios":"levelo://app?vid=f0388934-6ea4-494b-87a2-d18cbceeaf0d"},"vehicle_type_id":"4","last_reported":1726101757,"current_range_meters":36000,"station_id":"ce4bhbp2rcd13ifvqerg","pricing_plan_id":"cebpf4jnsgd1na2vs0mg"},{"bike_id":"201264b9-bf7a-49b2-a7f3-fabac44b2803","system_id":"levelo_inurba_marseille","lat":43.28104,"lon":5.37839,"is_reserved":false,"is_disabled":false,"rental_uris":{"android":"levelo://app?vid=201264b9-bf7a-49b2-a7f3-fabac44b2803","ios":"levelo://app?vid=201264b9-bf7a-49b2-a7f3-fabac44b2803"},"vehicle_type_id":"4","last_reported":1726101757,"current_range_meters":38400,"station_id":"ce4bha12rcd13ifvqee0","pricing_plan_id":"cebpf4jnsgd1na2vs0mg"},{"bike_id":"47eced05-5107-4268-ba14-0e84a2486366","system_id":"levelo_inurba_marseille","lat":43.2894,"lon":5.39632,"is_reserved":false,"is_disabled":false,"rental_uris":{"android":"levelo://app?vid=47eced05-5107-4268-ba14-0e84a2486366","ios":"levelo://app?vid=47eced05-5107-4268-ba14-0e84a2486366"},"vehicle_type_id":"4","last_reported":1726101757,"current_range_meters":33200,"station_id":"ce4bh3h2rcd13ifvqdn0","pricing_plan_id":"cebpf4jnsgd1na2vs0mg"},{"bike_id":"522ce341-0abe-40c5-8aee-032d23d7344a","system_id":"levelo_inurba_marseille","lat":43.26569,"lon":5.39011,"is_reserved":false,"is_disabled":false,"rental_uris":{"android":"levelo://app?vid=522ce341-0abe-40c5-8aee-032d23d7344a","ios":"levelo://app?vid=522ce341-0abe-40c5-8aee-032d23d7344a"},"vehicle_type_id":"4","last_reported":1726101757,"current_range_meters":23200,"station_id":"ce4bhe12rcd13ifvqf30","pricing_plan_id":"cebpf4jnsgd1na2vs0mg"},{"bike_id":"1d56920d-0a15-4824-966c-e6d35d0153d1","system_id":"levelo_inurba_marseille","lat":43.25088,"lon":5.39515,"is_reserved":false,"is_disabled":false,"rental_uris":{"android":"levelo://app?vid=1d56920d-0a15-4824-966c-e6d35d0153d1","ios":"levelo://app?vid=1d56920d-0a15-4824-966c-e6d35d0153d1"},"vehicle_type_id":"4","last_reported":1726101757,"current_range_meters":38800,"station_id":"ce4bhm12rcd13ifvqgkg","pricing_plan_id":"cebpf4jnsgd1na2vs0mg"},{"bike_id":"217b12d7-0655-4772-b8b6-d4b4b765627c","system_id":"levelo_inurba_marseille","lat":43.25575,"lon":5.38239,"is_reserved":false,"is_disabled":false,"rental_uris":{"android":"levelo://app?vid=217b12d7-0655-4772-b8b6-d4b4b765627c","ios":"levelo://app?vid=217b12d7-0655-4772-b8b6-d4b4b765627c"},"vehicle_type_id":"4","last_reported":1726101757,"current_range_meters":34000,"station_id":"ce4bhih2rcd13ifvqfs0","pricing_plan_id":"cebpf4jnsgd1na2vs0mg"},{"bike_id":"fa399a6c-3159-4236-9ba5-9b1e2d941e2b","system_id":"levelo_inurba_marseille","lat":43.28157,"lon":5.42645,"is_reserved":false,"is_disabled":false,"rental_uris":{"android":"levelo://app?vid=fa399a6c-3159-4236-9ba5-9b1e2d941e2b","ios":"levelo://app?vid=fa399a6c-3159-4236-9ba5-9b1e2d941e2b"},"vehicle_type_id":"4","last_reported":1726101757,"current_range_meters":36400,"station_id":"ce4bhnh2rcd13ifvqgug","pricing_plan_id":"cebpf4jnsgd1na2vs0mg"},{"bike_id":"758477df-2f5f-429c-85cb-c996e19f24fa","system_id":"levelo_inurba_marseille","lat":43.27996,"lon":5.41666,"is_reserved":false,"is_disabled":false,"rental_uris":{"android":"levelo://app?vid=758477df-2f5f-429c-85cb-c996e19f24fa","ios":"levelo://app?vid=758477df-2f5f-429c-85cb-c996e19f24fa"},"vehicle_type_id":"4","last_reported":1726101757,"current_range_meters":37600,"station_id":"ce4bho12rcd13ifvqh1g","pricing_plan_id":"cebpf4jnsgd1na2vs0mg"},{"bike_id":"3c8597c0-01f2-40fe-92a3-bb63e81037b9","system_id":"levelo_inurba_marseille","lat":43.30642,"lon":5.40076,"is_reserved":false,"is_disabled":false,"rental_uris":{"android":"levelo://app?vid=3c8597c0-01f2-40fe-92a3-bb63e81037b9","ios":"levelo://app?vid=3c8597c0-01f2-40fe-92a3-bb63e81037b9"},"vehicle_type_id":"4","last_reported":1726101757,"current_range_meters":10800,"station_id":"ce4bh112rcd13ifvqda0","pricing_plan_id":"cebpf4jnsgd1na2vs0mg"},{"bike_id":"e07fa6d2-2d1f-44f3-905c-c692618ea56b","system_id":"levelo_inurba_marseille","lat":43.27056,"lon":5.40052,"is_reserved":false,"is_disabled":false,"rental_uris":{"android":"levelo://app?vid=e07fa6d2-2d1f-44f3-905c-c692618ea56b","ios":"levelo://app?vid=e07fa6d2-2d1f-44f3-905c-c692618ea56b"},"vehicle_type_id":"4","last_reported":1726101757,"current_range_meters":19600,"station_id":"","pricing_plan_id":"cebpf4jnsgd1na2vs0mg"},{"bike_id":"f0ab1e44-8ac5-4033-a7ac-b3e3da389903","system_id":"levelo_inurba_marseille","lat":43.2707,"lon":5.42279,"is_reserved":false,"is_disabled":false,"rental_uris":{"android":"levelo://app?vid=f0ab1e44-8ac5-4033-a7ac-b3e3da389903","ios":"levelo://app?vid=f0ab1e44-8ac5-4033-a7ac-b3e3da389903"},"vehicle_type_id":"4","last_reported":1726101757,"current_range_meters":39200,"station_id":"ce4bhk92rcd13ifvqgb0","pricing_plan_id":"cebpf4jnsgd1na2vs0mg"},