{"last_updated":1773390478,"ttl":60,"version":"2.2","data":{"bikes":[{"bike_id":"19691a7e-d227-4f2f-9137-873d9a39eff4","system_id":"levelo_inurba_marseille","lat":43.23142,"lon":5.43716,"is_reserved":false,"is_disabled":false,"rental_uris":{"android":"levelo://app?vid=19691a7e-d227-4f2f-9137-873d9a39eff4","ios":"levelo://app?vid=19691a7e-d227-4f2f-9137-873d9a39eff4"},"vehicle_type_id":"4","last_reported":1773390479,"current_range_meters":38000,"station_id":"ce4bhmp2rcd13ifvqgog","pricing_plan_id":"cebpf4jnsgd1na2vs0mg"},{"bike_id":"ebf75af1-c1e1-4ab4-be7a-03ecdd2c2597","system_id":"levelo_inurba_marseille","lat":43.31017,"lon":5.37172,"is_reserved":false,"is_disabled":false,"rental_uris":{"android":"levelo://app?vid=ebf75af1-c1e1-4ab4-be7a-03ecdd2c2597","ios":"levelo://app?vid=ebf75af1-c1e1-4ab4-be7a-03ecdd2c2597"},"vehicle_type_id":"4","last_reported":1773390479,"current_range_meters":35200,"station_id":"st_d4kl2rp97mjs73e7tdfg","pricing_plan_id":"cebpf4jnsgd1na2vs0mg"},{"bike_id":"86416b53-51a0-4cbe-9ee2-dfe09b3bcc79","system_id":"levelo_inurba_marseille","lat":43.31048,"lon":5.37165,"is_reserved":false,"is_disabled":false,"rental_uris":{"android":"levelo://app?vid=86416b53-51a0-4cbe-9ee2-dfe09b3bcc79","ios":"levelo://app?vid=86416b53-51a0-4cbe-9ee2-dfe09b3bcc79"},"vehicle_type_id":"4","last_reported":1773390479,"current_range_meters":36000,"station_id":"st_d4kl2rp97mjs73e7tdfg","pricing_plan_id":"cebpf4jnsgd1na2vs0mg"},{"bike_id":"51d02c11-617e-4c73-a65d-561ee346ae17","system_id":"levelo_inurba_marseille","lat":43.23147,"lon":5.43709,"is_reserved":false,"is_disabled":false,"rental_uris":{"android":"levelo://app?vid=51d02c11-617e-4c73-a65d-561ee346ae17","ios":"levelo://app?vid=51d02c11-617e-4c73-a65d-561ee346ae17"},"vehicle_type_id":"4","last_reported":1773390479,"current_range_meters":36000,"station_id":"ce4bhmp2rcd13ifvqgog","pricing_plan_id":"cebpf4jnsgd1na2vs0mg"},{"bike_id":"fb0917ca-b860-4570-9fd5-06282ab6a937","system_id":"levelo_inurba_marseille","lat":43.23131,"lon":5.43719,"is_reserved":false,"is_disabled":false,"rental_uris":{"android":"levelo://app?vid=fb0917ca-b860-4570-9fd5-06282ab6a937","ios":"levelo://app?vid=fb0917ca-b860-4570-9fd5-06282ab6a937"},"vehicle_type_id":"4","last_reported":1773390479,"current_range_meters":35600,"station_id":"ce4bhmp2rcd13ifvqgog","pricing_plan_id":"cebpf4jnsgd1na2vs0mg"},{"bike_id":"dbcd0d5d-c925-42ce-8639-98c254a6f766","system_id":"levelo_inurba_marseille","lat":43.31029,"lon":5.37176,"is_reserved":false,"is_disabled":false,"rental_uris":{"android":"levelo://app?vid=dbcd0d5d-c925-42ce-8639-98c254a6f766","ios":"levelo://app?vid=dbcd0d5d-c925-42ce-8639-98c254a6f766"},"vehicle_type_id":"4","last_reported":1773390479,"current_range_meters":36000,"station_id":"st_d4kl2rp97mjs73e7tdfg","pricing_plan_id":"cebpf4jnsgd1na2vs0mg"},{"bike_id":"895e7cf9-4cb2-4dc3-aec9-fd7326baacbe","system_id":"levelo_inurba_marseille","lat":43.31053,"lon":5.37178,"is_reserved":false,"is_disabled":false,"rental_uris":{"android":"levelo://app?vid=895e7cf9-4cb2-4dc3-aec9-fd7326baacbe","ios":"levelo://app?vid=895e7cf9-4cb2-4dc3-aec9-fd7326baacbe"},"vehicle_type_id":"4","last_reported":1773390479,"current_range_meters":36000,"station_id":"st_d4kl2rp97mjs73e7tdfg","pricing_plan_id":"cebpf4jnsgd1na2vs0mg"},{"bike_id":"c1e18796-ccf6-47fb-9411-4f27272cf92b","system_id":"levelo_inurba_marseille","lat":43.31055,"lon":5.37168,"is_reserved":false,"is_disabled":false,"rental_uris":{"android":"levelo://app?vid=c1e18796-ccf6-47fb-9411-4f27272cf92b","ios":"levelo://app?vid=c1e18796-ccf6-47fb-9411-4f27272cf92b"},"vehicle_type_id":"4","last_reported":1773390479,"current_range_meters":36000,"station_id":"st_d4kl2rp97mjs73e7tdfg","pricing_plan_id":"cebpf4jnsgd1na2vs0mg"},{"bike_id":"3c9137a1-6c00-443f-ae3a-363e58035aa8","system_id":"levelo_inurba_marseille","lat":43.30996,"lon":5.37185,"is_reserved":false,"is_disabled":false,"rental_uris":{"android":"levelo://app?vid=3c9137a1-6c00-443f-ae3a-363e58035aa8","ios":"levelo://app?vid=3c9137a1-6c00-443f-ae3a-363e58035aa8"},"vehicle_type_id":"4","last_reported":1773390479,"current_range_meters":35200,"station_id":"st_d4kl2rp97mjs73e7tdfg","pricing_plan_id":"cebpf4jnsgd1na2vs0mg"},{"bike_id":"c5f8db76-81c5-4830-8fdb-99bfa9447012","system_id":"levelo_inurba_marseille","lat":43.31034,"lon":5.37168,"is_reserved":false,"is_disabled":false,"rental_uris":{"android":"levelo://app?vid=c5f8db76-81c5-4830-8fdb-99bfa9447012","ios":"levelo://app?vid=c5f8db76-81c5-4830-8fdb-99bfa9447012"},"vehicle_type_id":"4","last_reported":1773390479,"current_range_meters":35200,"station_id":"st_d4kl2rp97mjs73e7tdfg","pricing_plan_id":"cebpf4jnsgd1na2vs0mg"},{"bike_id":"304b29c4-8f44-41cf-bd09-f8fd0c552edb","system_id":"levelo_inurba_marseille","lat":43.31041,"lon":5.37163,"is_reserved":false,"is_disabled":false,"rental_uris":{"android":"levelo://app?vid=304b29c4-8f44-41cf-bd09-f8fd0c552edb","ios":"levelo://app?vid=304b29c4-8f44-41cf-bd09-f8fd0c552edb"},"vehicle_type_id":"4","last_reported":1773390479,"current_range_meters":38400,"station_id":"st_d4kl2rp97mjs73e7tdfg","pricing_plan_id":"cebpf4jnsgd1na2vs0mg"},{"bike_id":"590b0909-9802-40a2-9e13-833c2b2b0978","system_id":"levelo_inurba_marseille","lat":43.31038,"lon":5.37156,"is_reserved":false,"is_disabled":false,"rental_uris":{"android":"levelo://app?vid=590b0909-9802-40a2-9e13-833c2b2b0978","ios":"levelo://app?vid=590b0909-9802-40a2-9e13-833c2b2b0978"},"vehicle_type_id":"4","last_reported":1773390479,"current_range_meters":36000,"station_id":"st_d4kl2rp97mjs73e7tdfg","pricing_plan_id":"cebpf4jnsgd1na2vs0mg"},{"bike_id":"e4a85c6f-5e00-47db-bb03-492e95854bfe","system_id":"levelo_inurba_marseille","lat":43.31035,"lon":5.37173,"is_reserved":false,"is_disabled":false,"rental_uris":{"android":"levelo://app?vid=e4a85c6f-5e00-47db-bb03-492e95854bfe","ios":"levelo://app?vid=e4a85c6f-5e00-47db-bb03-492e95854bfe"},"vehicle_type_id":"4","last_reported":1773390479,"current_range_meters":38000,"station_id":"st_d4kl2rp97mjs73e7tdfg","pricing_plan_id":"cebpf4jnsgd1na2vs0mg"},{"bike_id":"f8859008-76ae-4d29-a566-36c686b68670","system_id":"levelo_inurba_marseille","lat":43.31006,"lon":5.37159,"is_reserved":false,"is_disabled":false,"rental_uris":{"android":"levelo://app?vid=f8859008-76ae-4d29-a566-36c686b68670","ios":"levelo://app?vid=f8859008-76ae-4d29-a566-36c686b68670"},"vehicle_type_id":"4","last_reported":1773390479,"current_range_meters":35200,"station_id":"st_d4kl2rp97mjs73e7tdfg","pricing_plan_id":"cebpf4jnsgd1na2vs0mg"},{"bike_id":"dd72790d-8792-4358-a59b-7a678d40fe17","system_id":"levelo_inurba_marseille","lat":43.2927,"lon":5.4015,"is_reserved":false,"is_disabled":true,"rental_uris":{"android":"levelo://app?vid=dd72790d-8792-4358-a59b-7a678d40fe17","ios":"levelo://app?vid=dd72790d-8792-4358-a59b-7a678d40fe17"},"vehicle_type_id":"4","last_reported":1773390479,"current_range_meters":0,"station_id":"ce4bh312rcd13ifvqdk0","pricing_plan_id":"cebpf4jnsgd1na2vs0mg"},{"bike_id":"0ff1a3af-6d6a-4658-9c1e-79742b731d33","system_id":"levelo_inurba_marseille","lat":43.29578,"lon":5.37502,"is_reserved":false,"is_disabled":false,"rental_uris":{"android":"levelo://app?vid=0ff1a3af-6d6a-4658-9c1e-79742b731d33","ios":"levelo://app?vid=0ff1a3af-6d6a-4658-9c1e-79742b731d33"},"vehicle_type_id":"4","last_reported":1773390479,"current_range_meters":26000,"station_id":"ce4bgh92rcd13ifvqb50","pricing_plan_id":"cebpf4jnsgd1na2vs0mg"},{"bike_id":"84258842-b27c-44d2-a3e3-a8ab065af084","system_id":"levelo_inurba_marseille","lat":43.2606,"lon":5.39397,"is_reserved":false,"is_disabled":false,"rental_uris":{"android":"levelo://app?vid=84258842-b27c-44d2-a3e3-a8ab065af084","ios":"levelo://app?vid=84258842-b27c-44d2-a3e3-a8ab065af084"},"vehicle_type_id":"4","last_reported":1773390479,"current_range_meters":35600,"station_id":"ce4bhh92rcd13ifvqfj0","pricing_plan_id":"cebpf4jnsgd1na2vs0mg"},{"bike_id":"4a23ff4b-1bd8-46de-b2b8-f77ab9d5ef25","system_id":"levelo_inurba_marseille","lat":43.29632,"lon":5.37171,"is_reserved":false,"is_disabled":false,"rental_uris":{"android":"levelo://app?vid=4a23ff4b-1bd8-46de-b2b8-f77ab9d5ef25","ios":"levelo://app?vid=4a23ff4b-1bd8-46de-b2b8-f77ab9d5ef25"},"vehicle_type_id":"4","last_reported":1773390479,"current_range_meters":23200,"station_id":"ce4bgnh2rcd13ifvqc0g","pricing_plan_id":"cebpf4jnsgd1na2vs0mg"},{"bike_id":"0c0089e7-1a1e-46a0-9bbc-b3db79f60db5","system_id":"levelo_inurba_marseille","lat":43.27372,"lon":5.36255,"is_reserved":false,"is_disabled":false,"rental_uris":{"android":"levelo://app?vid=0c0089e7-1a1e-46a0-9bbc-b3db79f60db5","ios":"levelo://app?vid=0c0089e7-1a1e-46a0-9bbc-b3db79f60db5"},"vehicle_type_id":"4","last_reported":1773390479,"current_range_meters":39200,"station_id":"ce4bhbh2rcd13ifvqeo0","pricing_plan_id":"cebpf4jnsgd1na2vs0mg"},{"bike_id":"2c4708c9-570e-47ef-8dea-436acebfb4c0","system_id":"levelo_inurba_marseille","lat":43.24939,"lon":5.40492,"is_reserved":false,"is_disabled":false,"rental_uris":{"android":"levelo://app?vid=2c4708c9-570e-47ef-8dea-436acebfb4c0","ios":"levelo://app?vid=2c4708c9-570e-47ef-8dea-436acebfb4c0"},"vehicle_type_id":"4","last_reported":1773390479,"current_range_meters":27600,"station_id":"st_d2ngiaodas8pm72gd1h0","pricing_plan_id":"cebpf4jnsgd1na2vs0mg"},{"bike_id":"7ffa041c-bc7f-4159-90b7-8ee18db551ca","system_id":"levelo_inurba_marseille","lat":43.2996,"lon":5.37335,"is_reserved":false,"is_disabled":false,"rental_uris":{"android":"levelo://app?vid=7ffa041c-bc7f-4159-90b7-8ee18db551ca","ios":"levelo://app?vid=7ffa041c-bc7f-4159-90b7-8ee18db551ca"},"vehicle_type_id":"4","last_reported":1773390479,"current_range_meters":10800,"station_id":"","pricing_plan_id":"cebpf4jnsgd1na2vs0mg"},{"bike_id":"6a7c3f1d-0e67-49ff-920f-cde0f1d8c4ac","system_id":"levelo_inurba_marseille","lat":43.28635,"lon":5.35109,"is_reserved":false,"is_disabled":false,"rental_uris":{"android":"levelo://app?vid=6a7c3f1d-0e67-49ff-920f-cde0f1d8c4ac","ios":"levelo://app?vid=6a7c3f1d-0e67-49ff-920f-cde0f1d8c4ac"},"vehicle_type_id":"4","last_reported":1773390479,"current_range_meters":9200,"station_id":"ce4bhch2rcd13ifvqeug","pricing_plan_id":"cebpf4jnsgd1na2vs0mg"},{"bike_id":"7ebe68d3-0c8e-4a5b-86d7-414fc931d729","system_id":"levelo_inurba_marseille","lat":43.31479,"lon":5.37312,"is_reserved":false,"is_disabled":false,"rental_uris":{"android":"levelo://app?vid=7ebe68d3-0c8e-4a5b-86d7-414fc931d729","ios":"levelo://app?vid=7ebe68d3-0c8e-4a5b-86d7-414fc931d729"},"vehicle_type_id":"4","last_reported":1773390479,"current_range_meters":21600,"station_id":"ce4bgt12rcd13ifvqcd0","pricing_plan_id":"cebpf4jnsgd1na2vs0mg"},{"bike_id":"f8752ee3-a186-49f5-9eb6-2d352a6260f7","system_id":"levelo_inurba_marseille","lat":43.32656,"lon":5.40994,"is_reserved":false,"is_disabled":true,"rental_uris":{"android":"levelo://app?vid=f8752ee3-a186-49f5-9eb6-2d352a6260f7","ios":"levelo://app?vid=f8752ee3-a186-49f5-9eb6-2d352a6260f7"},"vehicle_type_id":"4","last_reported":1773390479,"current_range_meters":36400,"station_id":"ce4bhpp2rcd13ifvqhgg","pricing_plan_id":"cebpf4jnsgd1na2vs0mg"},{"bike_id":"7f540cea-4fe6-43fd-89ad-1cc69f41725b","system_id":"levelo_inurba_marseille","lat":43.23193,"lon":5.40019,"is_reserved":false,"is_disabled":false,"rental_uris":{"android":"levelo://app?vid=7f540cea-4fe6-43fd-89ad-1cc69f41725b","ios":"levelo://app?vid=7f540cea-4fe6-43fd-89ad-1cc69f41725b"},"vehicle_type_id":"4","last_reported":1773390479,"current_range_meters":23200,"station_id":"ce4bhn12rcd13ifvqgqg","pricing_plan_id":"cebpf4jnsgd1na2vs0mg"},{"bike_id":"ae540bed-ed3b-4247-abad-fe29acd1fb3e","system_id":"levelo_inurba_marseille","lat":43.33033,"lon":5.39023,"is_reserved":false,"is_disabled":false,"rental_uris":{"android":"levelo://app?vid=ae540bed-ed3b-4247-abad-fe29acd1fb3e","ios":"levelo://app?vid=ae540bed-ed3b-4247-abad-fe29acd1fb3e"},"vehicle_type_id":"4","last_reported":1773390479,"current_range_meters":38000,"station_id":"ce4bhr92rcd13ifvqhrg","pricing_plan_id":"cebpf4jnsgd1na2vs0mg"},{"bike_id":"18f35d94-7133-4b4b-a629-0bec9d48af36","system_id":"levelo_inurba_marseille","lat":43.28484,"lon":5.48394,"is_reserved":false,"is_disabled":false,"rental_uris":{"android":"levelo://app?vid=18f35d94-7133-4b4b-a629-0bec9d48af36","ios":"levelo://app?vid=18f35d94-7133-4b4b-a629-0bec9d48af36"},"vehicle_type_id":"4","last_reported":1773390479,"current_range_meters":28800,"station_id":"","pricing_plan_id":"cebpf4jnsgd1na2vs0mg"},{"bike_id":"b2399a9f-a598-463b-80a6-f3cff6f3600d","system_id":"levelo_inurba_marseille","lat":43.29772,"lon":5.36533,"is_reserved":false,"is_disabled":false,"rental_uris":{"android":"levelo://app?vid=b2399a9f-a598-463b-80a6-f3cff6f3600d","ios":"levelo://app?vid=b2399a9f-a598-463b-80a6-f3cff6f3600d"},"vehicle_type_id":"4","last_reported":1773390479,"current_range_meters":28000,"station_id":"","pricing_plan_id":"cebpf4jnsgd1na2vs0mg"},{"bike_id":"fdcb6ca2-5507-4342-a4b8-cda91086e680","system_id":"levelo_inurba_marseille","lat":43.30591,"lon":5.37228,"is_reserved":false,"is_disabled":false,"rental_uris":{"android":"levelo://app?vid=fdcb6ca2-5507-4342-a4b8-cda91086e680","ios":"levelo://app?vid=fdcb6ca2-5507-4342-a4b8-cda91086e680"},"vehicle_type_id":"4","last_reported":1773390479,"current_range_meters":40000,"station_id":"ce4bgqh2rcd13ifvqc4g","pricing_plan_id":"cebpf4jnsgd1na2vs0mg"},{"bike_id":"db332040-2318-4778-92d4-149a01cc5c86","system_id":"levelo_inurba_marseille","lat":43.28952,"lon":5.36648,"is_reserved":false,"is_disabled":false,"rental_uris":{"android":"levelo://app?vid=db332040-2318-4778-92d4-149a01cc5c86","ios":"levelo://app?vid=db332040-2318-4778-92d4-149a01cc5c86"},"vehicle_type_id":"4","last_reported":1773390479,"current_range_meters":38400,"station_id":"ce4bhap2rcd13ifvqek0","pricing_plan_id":"cebpf4jnsgd1na2vs0mg"},{"bike_id":"7db92065-fd6e-4014-982f-daf9b3e1e88d","system_id":"levelo_inurba_marseille","lat":43.25824,"lon":5.3944,"is_reserved":false,"is_disabled":false,"rental_uris":{"android":"levelo://app?vid=7db92065-fd6e-4014-982f-daf9b3e1e88d","ios":"levelo://app?vid=7db92065-fd6e-4014-982f-daf9b3e1e88d"},"vehicle_type_id":"4","last_reported":1773390479,"current_range_meters":19600,"station_id":"ce4bhip2rcd13ifvqft0","pricing_plan_id":"cebpf4jnsgd1na2vs0mg"},{"bike_id":"719dd5d1-4073-4234-bc7a-0bf26d776817","system_id":"levelo_inurba_marseille","lat":43.34151,"lon":5.4089,"is_reserved":false,"is_disabled":false,"rental_uris":{"android":"levelo://app?vid=719dd5d1-4073-4234-bc7a-0bf26d776817","ios":"levelo://app?vid=719dd5d1-4073-4234-bc7a-0bf26d776817"},"vehicle_type_id":"4","last_reported":1773390479,"current_range_meters":39200,"station_id":"ce4bhqh2rcd13ifvqhlg","pricing_plan_id":"cebpf4jnsgd1na2vs0mg"},{"bike_id":"bb59f437-04ce-472a-8259-f42eb5a79dcb","system_id":"levelo_inurba_marseille","lat":43.2989,"lon":5.37471,"is_reserved":false,"is_disabled":false,"rental_uris":{"android":"levelo://app?vid=bb59f437-04ce-472a-8259-f42eb5a79dcb","ios":"levelo://app?vid=bb59f437-04ce-472a-8259-f42eb5a79dcb"},"vehicle_type_id":"4","last_reported":1773390479,"current_range_meters":38000,"station_id":"ce4bgjh2rcd13ifvqbg0","pricing_plan_id":"cebpf4jnsgd1na2vs0mg"},{"bike_id":"21ebfc21-6686-4f1f-ba42-dedc008b4317","system_id":"levelo_inurba_marseille","lat":43.29904,"lon":5.37386,"is_reserved":false,"is_disabled":false,"rental_uris":{"android":"levelo://app?vid=21ebfc21-6686-4f1f-ba42-dedc008b4317","ios":"levelo://app?vid=21ebfc21-6686-4f1f-ba42-dedc008b4317"},"vehicle_type_id":"4","last_reported":1773390479,"current_range_meters":32400,"station_id":"","pricing_plan_id":"cebpf4jnsgd1na2vs0mg"},{"bike_id":"d2c94da3-9e53-4eff-826f-e4aae2693ed0","system_id":"levelo_inurba_marseille","lat":43.29028,"lon":5.39967,"is_reserved":false,"is_disabled":false,"rental_uris":{"android":"levelo://app?vid=d2c94da3-9e53-4eff-826f-e4aae2693ed0","ios":"levelo://app?vid=d2c94da3-9e53-4eff-826f-e4aae2693ed0"},"vehicle_type_id":"4","last_reported":1773390479,"current_range_meters":38400,"station_id":"ce4bh392rcd13ifvqdm0","pricing_plan_id":"cebpf4jnsgd1na2vs0mg"},{"bike_id":"8a15c9fd-a2fb-4c10-b6dd-366aa92b1d08","system_id":"levelo_inurba_marseille","lat":43.29593,"lon":5.38092,"is_reserved":false,"is_disabled":false,"rental_uris":{"android":"levelo://app?vid=8a15c9fd-a2fb-4c10-b6dd-366aa92b1d08","ios":"levelo://app?vid=8a15c9fd-a2fb-4c10-b6dd-366aa92b1d08"},"vehicle_type_id":"4","last_reported":1773390479,"current_range_meters":12800,"station_id":"ce4bgl12rcd13ifvqbo0","pricing_plan_id":"cebpf4jnsgd1na2vs0mg"},{"bike_id":"6ce6bc7e-4959-45b9-bda0-88b32a35e3f9","system_id":"levelo_inurba_marseille","lat":43.2585,"lon":5.39898,"is_reserved":false,"is_disabled":false,"rental_uris":{"android":"levelo://app?vid=6ce6bc7e-4959-45b9-bda0-88b32a35e3f9","ios":"levelo://app?vid=6ce6bc7e-4959-45b9-bda0-88b32a35e3f9"},"vehicle_type_id":"4","last_reported":1773390479,"current_range_meters":22400,"station_id":"ce4bhl92rcd13ifvqghg","pricing_plan_id":"cebpf4jnsgd1na2vs0mg"},{"bike_id":"0e81feb6-9532-4ed6-99e4-9e1b06422676","system_id":"levelo_inurba_marseille","lat":43.30525,"lon":5.3671,"is_reserved":false,"is_disabled":false,"rental_uris":{"android":"levelo://app?vid=0e81feb6-9532-4ed6-99e4-9e1b06422676","ios":"levelo://app?vid=0e81feb6-9532-4ed6-99e4-9e1b06422676"},"vehicle_type_id":"4","last_reported":1773390479,"current_range_meters":28000,"station_id":"ce4bgrp2rcd13ifvqc9g","pricing_plan_id":"cebpf4jnsgd1na2vs0mg"},{"bike_id":"c61bd972-5337-4c67-ab1b-d532ad7c339c","system_id":"levelo_inurba_marseille","lat":43.25577,"lon":5.38237,"is_reserved":false,"is_disabled":false,"rental_uris":{"android":"levelo://app?vid=c61bd972-5337-4c67-ab1b-d532ad7c339c","ios":"levelo://app?vid=c61bd972-5337-4c67-ab1b-d532ad7c339c"},"vehicle_type_id":"4","last_reported":1773390479,"current_range_meters":8000,"station_id":"ce4bhih2rcd13ifvqfs0","pricing_plan_id":"cebpf4jnsgd1na2vs0mg"},{"bike_id":"dba1c7a1-d241-4ab4-87f1-83b87f2842ef","system_id":"levelo_inurba_marseille","lat":43.29808,"lon":5.38109,"is_reserved":false,"is_disabled":false,"rental_uris":{"android":"levelo://app?vid=dba1c7a1-d241-4ab4-87f1-83b87f2842ef","ios":"levelo://app?vid=dba1c7a1-d241-4ab4-87f1-83b87f2842ef"},"vehicle_type_id":"4","last_reported":1773390479,"current_range_meters":39200,"station_id":"ce4bgip2rcd13ifvqbb0","pricing_plan_id":"cebpf4jnsgd1na2vs0mg"},{"bike_id":"480a954f-db3c-4cd5-acb5-179ba9006c67","system_id":"levelo_inurba_marseille","lat":43.28524,"lon":5.44102,"is_reserved":false,"is_disabled":false,"rental_uris":{"android":"levelo://app?vid=480a954f-db3c-4cd5-acb5-179ba9006c67","ios":"levelo://app?vid=480a954f-db3c-4cd5-acb5-179ba9006c67"},"vehicle_type_id":"4","last_reported":1773390479,"current_range_meters":32800,"station_id":"st_d3j3df2ikq2c7380ej80","pricing_plan_id":"cebpf4jnsgd1na2vs0mg"},{"bike_id":"196cd20c-58cf-4336-8acd-ad13b5d67dbc","system_id":"levelo_inurba_marseille","lat":43.24167,"lon":5.36386,"is_reserved":false,"is_disabled":false,"rental_uris":{"android":"levelo://app?vid=196cd20c-58cf-4336-8acd-ad13b5d67dbc","ios":"levelo://app?vid=196cd20c-58cf-4336-8acd-ad13b5d67dbc"},"vehicle_type_id":"4","last_reported":1773390479,"current_range_meters":27600,"station_id":"cpo36qri1sfpv3e86is0","pricing_plan_id":"cebpf4jnsgd1na2vs0mg"},{"bike_id":"1cf06faf-0211-4a86-bffe-8e533567710b","system_id":"levelo_inurba_marseille","lat":43.24943,"lon":5.40502,"is_reserved":false,"is_disabled":false,"rental_uris":{"android":"levelo://app?vid=1cf06faf-0211-4a86-bffe-8e533567710b","ios":"levelo://app?vid=1cf06faf-0211-4a86-bffe-8e533567710b"},"vehicle_type_id":"4","last_reported":1773390479,"current_range_meters":21600,"station_id":"st_d2ngiaodas8pm72gd1h0","pricing_plan_id":"cebpf4jnsgd1na2vs0mg"},{"bike_id":"44f5b43c-a5b7-4270-9d90-dff64e48a635","system_id":"levelo_inurba_marseille","lat":43.30263,"lon":5.40083,"is_reserved":false,"is_disabled":false,"rental_uris":{"android":"levelo://app?vid=44f5b43c-a5b7-4270-9d90-dff64e48a635","ios":"levelo://app?vid=44f5b43c-a5b7-4270-9d90-dff64e48a635"},"vehicle_type_id":"4","last_reported":1773390479,"current_range_meters":16800,"station_id":"ce4bgvh2rcd13ifvqcs0","pricing_plan_id":"cebpf4jnsgd1na2vs0mg"},{"bike_id":"25ccd1f4-28a1-4381-943b-f59e0018edf1","system_id":"levelo_inurba_marseille","lat":43.26785,"lon":5.39412,"is_reserved":false,"is_disabled":false,"rental_uris":{"android":"levelo://app?vid=25ccd1f4-28a1-4381-943b-f59e0018edf1","ios":"levelo://app?vid=25ccd1f4-28a1-4381-943b-f59e0018edf1"},"vehicle_type_id":"4","last_reported":1773390479,"current_range_meters":5600,"station_id":"ce4bhh12rcd13ifvqfg0","pricing_plan_id":"cebpf4jnsgd1na2vs0mg"},{"bike_id":"0250d5d1-3619-42b3-955a-0a937e09165f","system_id":"levelo_inurba_marseille","lat":43.23057,"lon":5.35484,"is_reserved":false,"is_disabled":false,"rental_uris":{"android":"levelo://app?vid=0250d5d1-3619-42b3-955a-0a937e09165f","ios":"levelo://app?vid=0250d5d1-3619-42b3-955a-0a937e09165f"},"vehicle_type_id":"4","last_reported":1773390479,"current_range_meters":33200,"station_id":"cpo3342slgdg3j2ifvpg","pricing_plan_id":"cebpf4jnsgd1na2vs0mg"},{"bike_id":"a8cc377e-6179-45b0-b92d-9cd14b6f9e8e","system_id":"levelo_inurba_marseille","lat":43.29297,"lon":5.37458,"is_reserved":false,"is_disabled":false,"rental_uris":{"android":"levelo://app?vid=a8cc377e-6179-45b0-b92d-9cd14b6f9e8e","ios":"levelo://app?vid=a8cc377e-6179-45b0-b92d-9cd14b6f9e8e"},"vehicle_type_id":"4","last_reported":1773390479,"current_range_meters":34000,"station_id":"ce4bgi12rcd13ifvqb70","pricing_plan_id":"cebpf4jnsgd1na2vs0mg"},{"bike_id":"1b8416df-3f6d-4c68-ac11-112b698b39c2","system_id":"levelo_inurba_marseille","lat":43.2586,"lon":5.39906,"is_reserved":false,"is_disabled":false,"rental_uris":{"android":"levelo://app?vid=1b8416df-3f6d-4c68-ac11-112b698b39c2","ios":"levelo://app?vid=1b8416df-3f6d-4c68-ac11-112b698b39c2"},"vehicle_type_id":"4","last_reported":1773390479,"current_range_meters":40000,"station_id":"ce4bhl92rcd13ifvqghg","pricing_plan_id":"cebpf4jnsgd1na2vs0mg"},{"bike_id":"b18c21a3-b898-415d-94b6-52acf60ebc54","system_id":"levelo_inurba_marseille","lat":43.26929,"lon":5.40263,"is_reserved":false,"is_disabled":false,"rental_uris":{"android":"levelo://app?vid=b18c21a3-b898-415d-94b6-52acf60ebc54","ios":"levelo://app?vid=b18c21a3-b898-415d-94b6-52acf60ebc54"},"vehicle_type_id":"4","last_reported":1773390479,"current_range_meters":40000,"station_id":"cjm6bp8fraef2m0cb0m0","pricing_plan_id":"cebpf4jnsgd1na2vs0mg"},{"bike_id":"19bc1fa7-9d6f-439a-89e9-9882e5114b46","system_id":"levelo_inurba_marseille","lat":43.29781,"lon":5.37093,"is_reserved":false,"is_disabled":false,"rental_uris":{"android":"levelo://app?vid=19bc1fa7-9d6f-439a-89e9-9882e5114b46","ios":"levelo://app?vid=19bc1fa7-9d6f-439a-89e9-9882e5114b46"},"vehicle_type_id":"4","last_reported":1773390479,"current_range_meters":39200,"station_id":"ce4bgop2rcd13ifvqc1g","pricing_plan_id":"cebpf4jnsgd1na2vs0mg"},{"bike_id":"2d90a59f-b703-41f6-ab9e-396374884dbc","system_id":"levelo_inurba_marseille","lat":43.3136,"lon":5.36703,"is_reserved":false,"is_disabled":false,"rental_uris":{"android":"levelo://app?vid=2d90a59f-b703-41f6-ab9e-396374884dbc","ios":"levelo://app?vid=2d90a59f-b703-41f6-ab9e-396374884dbc"},"vehicle_type_id":"4","last_reported":1773390479,"current_range_meters":28000,"station_id":"ce4bgr92rcd13ifvqc6g","pricing_plan_id":"cebpf4jnsgd1na2vs0mg"},{"bike_id":"886bcfc7-63ee-4067-a44e-c7f27783757e","system_id":"levelo_inurba_marseille","lat":43.30902,"lon":5.38257,"is_reserved":false,"is_disabled":false,"rental_uris":{"android":"levelo://app?vid=886bcfc7-63ee-4067-a44e-c7f27783757e","ios":"levelo://app?vid=886bcfc7-63ee-4067-a44e-c7f27783757e"},"vehicle_type_id":"4","last_reported":1773390479,"current_range_meters":10800,"station_id":"","pricing_plan_id":"cebpf4jnsgd1na2vs0mg"},{"bike_id":"07a54b51-81cd-4521-85da-081a6ada865c","system_id":"levelo_inurba_marseille","lat":43.32544,"lon":5.41457,"is_reserved":false,"is_disabled":false,"rental_uris":{"android":"levelo://app?vid=07a54b51-81cd-4521-85da-081a6ada865c","ios":"levelo://app?vid=07a54b51-81cd-4521-85da-081a6ada865c"},"vehicle_type_id":"4","last_reported":1773390479,"current_range_meters":37600,"station_id":"ce4bhq12rcd13ifvqhhg","pricing_plan_id":"cebpf4jnsgd1na2vs0mg"},{"bike_id":"83d4cd3c-261b-46ff-b623-d5fa5eba2581","system_id":"levelo_inurba_marseille","lat":43.29222,"lon":5.35776,"is_reserved":false,"is_disabled":true,"rental_uris":{"android":"levelo://app?vid=83d4cd3c-261b-46ff-b623-d5fa5eba2581","ios":"levelo://app?vid=83d4cd3c-261b-46ff-b623-d5fa5eba2581"},"vehicle_type_id":"4","last_reported":1773390479,"current_range_meters":21600,"station_id":"ce4bhb12rcd13ifvqel0","pricing_plan_id":"cebpf4jnsgd1na2vs0mg"},{"bike_id":"67de4aab-9067-47ca-b55c-3304dc1fce09","system_id":"levelo_inurba_marseille","lat":43.30434,"lon":5.38884,"is_reserved":false,"is_disabled":false,"rental_uris":{"android":"levelo://app?vid=67de4aab-9067-47ca-b55c-3304dc1fce09","ios":"levelo://app?vid=67de4aab-9067-47ca-b55c-3304dc1fce09"},"vehicle_type_id":"4","last_reported":1773390479,"current_range_meters":36000,"station_id":"ce4bgk12rcd13ifvqbi0","pricing_plan_id":"cebpf4jnsgd1na2vs0mg"},{"bike_id":"2060968e-0463-429a-905f-1eb80fe6f17b","system_id":"levelo_inurba_marseille","lat":43.3104,"lon":5.37167,"is_reserved":false,"is_disabled":false,"rental_uris":{"android":"levelo://app?vid=2060968e-0463-429a-905f-1eb80fe6f17b","ios":"levelo://app?vid=2060968e-0463-429a-905f-1eb80fe6f17b"},"vehicle_type_id":"4","last_reported":1773390479,"current_range_meters":23200,"station_id":"st_d4kl2rp97mjs73e7tdfg","pricing_plan_id":"cebpf4jnsgd1na2vs0mg"},{"bike_id":"2dd51874-11a3-43a9-8809-5310bb1e8ead","system_id":"levelo_inurba_marseille","lat":43.24395,"lon":5.37064,"is_reserved":false,"is_disabled":true,"rental_uris":{"android":"levelo://app?vid=2dd51874-11a3-43a9-8809-5310bb1e8ead","ios":"levelo://app?vid=2dd51874-11a3-43a9-8809-5310bb1e8ead"},"vehicle_type_id":"4","last_reported":1773390479,"current_range_meters":800,"station_id":"ce4bhhh2rcd13ifvqfk0","pricing_plan_id":"cebpf4jnsgd1na2vs0mg"},{"bike_id":"9bd12d28-e487-48c9-a56c-596dd340d875","system_id":"levelo_inurba_marseille","lat":43.2379,"lon":5.36612,"is_reserved":false,"is_disabled":false,"rental_uris":{"android":"levelo://app?vid=9bd12d28-e487-48c9-a56c-596dd340d875","ios":"levelo://app?vid=9bd12d28-e487-48c9-a56c-596dd340d875"},"vehicle_type_id":"4","last_reported":1773390479,"current_range_meters":38000,"station_id":"st_d3nk18o9ro0c73en2l3g","pricing_plan_id":"cebpf4jnsgd1na2vs0mg"},{"bike_id":"564b009c-433c-4689-8029-204de522a71f","system_id":"levelo_inurba_marseille","lat":43.28339,"lon":5.38108,"is_reserved":false,"is_disabled":false,"rental_uris":{"android":"levelo://app?vid=564b009c-433c-4689-8029-204de522a71f","ios":"levelo://app?vid=564b009c-433c-4689-8029-204de522a71f"},"vehicle_type_id":"4","last_reported":1773390479,"current_range_meters":4800,"station_id":"ce4bh412rcd13ifvqdr0","pricing_plan_id":"cebpf4jnsgd1na2vs0mg"},{"bike_id":"bd62e445-95dc-43ce-b4d8-48e3cdcba7ac","system_id":"levelo_inurba_marseille","lat":43.29185,"lon":5.35815,"is_reserved":false,"is_disabled":false,"rental_uris":{"android":"levelo://app?vid=bd62e445-95dc-43ce-b4d8-48e3cdcba7ac","ios":"levelo://app?vid=bd62e445-95dc-43ce-b4d8-48e3cdcba7ac"},"vehicle_type_id":"4","last_reported":1773390479,"current_range_meters":11200,"station_id":"ce4bhb12rcd13ifvqel0","pricing_plan_id":"cebpf4jnsgd1na2vs0mg"},{"bike_id":"107eaf49-0b8c-4b97-b025-129dee039626","system_id":"levelo_inurba_marseille","lat":43.29249,"lon":5.37632,"is_reserved":false,"is_disabled":false,"rental_uris":{"android":"levelo://app?vid=107eaf49-0b8c-4b97-b025-129dee039626","ios":"levelo://app?vid=107eaf49-0b8c-4b97-b025-129dee039626"},"vehicle_type_id":"4","last_reported":1773390479,"current_range_meters":36800,"station_id":"ce4bgi12rcd13ifvqb80","pricing_plan_id":"cebpf4jnsgd1na2vs0mg"},{"bike_id":"97ecf467-9bc2-4716-8380-618c7c7ef61e","system_id":"levelo_inurba_marseille","lat":43.31591,"lon":5.37365,"is_reserved":false,"is_disabled":false,"rental_uris":{"android":"levelo://app?vid=97ecf467-9bc2-4716-8380-618c7c7ef61e","ios":"levelo://app?vid=97ecf467-9bc2-4716-8380-618c7c7ef61e"},"vehicle_type_id":"4","last_reported":1773390479,"current_range_meters":6400,"station_id":"","pricing_plan_id":"cebpf4jnsgd1na2vs0mg"},{"bike_id":"aed41f63-b638-409e-b99f-5db7af0576eb","system_id":"levelo_inurba_marseille","lat":43.30448,"lon":5.37903,"is_reserved":false,"is_disabled":false,"rental_uris":{"android":"levelo://app?vid=aed41f63-b638-409e-b99f-5db7af0576eb","ios":"levelo://app?vid=aed41f63-b638-409e-b99f-5db7af0576eb"},"vehicle_type_id":"4","last_reported":1773390479,"current_range_meters":35200,"station_id":"ce4bgup2rcd13ifvqcn0","pricing_plan_id":"cebpf4jnsgd1na2vs0mg"},{"bike_id":"76380701-99f8-457b-a97b-1a613b6bafdd","system_id":"levelo_inurba_marseille","lat":43.30314,"lon":5.36892,"is_reserved":false,"is_disabled":false,"rental_uris":{"android":"levelo://app?vid=76380701-99f8-457b-a97b-1a613b6bafdd","ios":"levelo://app?vid=76380701-99f8-457b-a97b-1a613b6bafdd"},"vehicle_type_id":"4","last_reported":1773390479,"current_range_meters":16000,"station_id":"ce4bgqh2rcd13ifvqc5g","pricing_plan_id":"cebpf4jnsgd1na2vs0mg"},{"bike_id":"79483cf5-647d-48ac-aac7-04b4eee60681","system_id":"levelo_inurba_marseille","lat":43.337444,"lon":5.374475,"is_reserved":false,"is_disabled":true,"rental_uris":{"android":"levelo://app?vid=79483cf5-647d-48ac-aac7-04b4eee60681","ios":"levelo://app?vid=79483cf5-647d-48ac-aac7-04b4eee60681"},"vehicle_type_id":"4","last_reported":1773390479,"current_range_meters":35200,"station_id":"","pricing_plan_id":"cebpf4jnsgd1na2vs0mg"},{"bike_id":"d44b6ee3-1ea1-4dfe-94d1-7ba1c7670a44","system_id":"levelo_inurba_marseille","lat":43.28869,"lon":5.35851,"is_reserved":false,"is_disabled":true,"rental_uris":{"android":"levelo://app?vid=d44b6ee3-1ea1-4dfe-94d1-7ba1c7670a44","ios":"levelo://app?vid=d44b6ee3-1ea1-4dfe-94d1-7ba1c7670a44"},"vehicle_type_id":"4","last_reported":1773390479,"current_range_meters":16800,"station_id":"ce4bhb12rcd13ifvqem0","pricing_plan_id":"cebpf4jnsgd1na2vs0mg"},{"bike_id":"cedeb143-8ef5-4332-864c-2ee01e08ac10","system_id":"levelo_inurba_marseille","lat":43.29576,"lon":5.3673,"is_reserved":false,"is_disabled":false,"rental_uris":{"android":"levelo://app?vid=cedeb143-8ef5-4332-864c-2ee01e08ac10","ios":"levelo://app?vid=cedeb143-8ef5-4332-864c-2ee01e08ac10"},"vehicle_type_id":"4","last_reported":1773390479,"current_range_meters":28000,"station_id":"ce4bgph2rcd13ifvqc2g","pricing_plan_id":"cebpf4jnsgd1na2vs0mg"},{"bike_id":"f2223d48-976e-4a05-b385-8f32a53fe8f3","system_id":"levelo_inurba_marseille","lat":43.30451,"lon":5.3791,"is_reserved":false,"is_disabled":false,"rental_uris":{"android":"levelo://app?vid=f2223d48-976e-4a05-b385-8f32a53fe8f3","ios":"levelo://app?vid=f2223d48-976e-4a05-b385-8f32a53fe8f3"},"vehicle_type_id":"4","last_reported":1773390479,"current_range_meters":14000,"station_id":"ce4bgup2rcd13ifvqcn0","pricing_plan_id":"cebpf4jnsgd1na2vs0mg"},{"bike_id":"6e99f56c-0bb9-4590-ab3f-8fa7c195ce9f","system_id":"levelo_inurba_marseille","lat":43.305947,"lon":5.393509,"is_reserved":false,"is_disabled":true,"rental_uris":{"android":"levelo://app?vid=6e99f56c-0bb9-4590-ab3f-8fa7c195ce9f","ios":"levelo://app?vid=6e99f56c-0bb9-4590-ab3f-8fa7c195ce9f"},"vehicle_type_id":"4","last_reported":1773390479,"current_range_meters":800,"station_id":"ce4bh0p2rcd13ifvqd80","pricing_plan_id":"cebpf4jnsgd1na2vs0mg"},{"bike_id":"bd684ca9-6a13-4dfd-adc7-bf78fa10cdf5","system_id":"levelo_inurba_marseille","lat":43.28918,"lon":5.36384,"is_reserved":false,"is_disabled":false,"rental_uris":{"android":"levelo://app?vid=bd684ca9-6a13-4dfd-adc7-bf78fa10cdf5","ios":"levelo://app?vid=bd684ca9-6a13-4dfd-adc7-bf78fa10cdf5"},"vehicle_type_id":"4","last_reported":1773390479,"current_range_meters":36800,"station_id":"ce4bhc92rcd13ifvqetg","pricing_plan_id":"cebpf4jnsgd1na2vs0mg"},{"bike_id":"a29ef319-c201-4a0d-88b8-75666b991d70","system_id":"levelo_inurba_marseille","lat":43.30207,"lon":5.39438,"is_reserved":false,"is_disabled":false,"rental_uris":{"android":"levelo://app?vid=a29ef319-c201-4a0d-88b8-75666b991d70","ios":"levelo://app?vid=a29ef319-c201-4a0d-88b8-75666b991d70"},"vehicle_type_id":"4","last_reported":1773390479,"current_range_meters":16000,"station_id":"ce4bh0p2rcd13ifvqd70","pricing_plan_id":"cebpf4jnsgd1na2vs0mg"},{"bike_id":"b3eb5008-db77-4fa1-ad7e-4f507dde5179","system_id":"levelo_inurba_marseille","lat":43.30263,"lon":5.3706,"is_reserved":false,"is_disabled":false,"rental_uris":{"android":"levelo://app?vid=b3eb5008-db77-4fa1-ad7e-4f507dde5179","ios":"levelo://app?vid=b3eb5008-db77-4fa1-ad7e-4f507dde5179"},"vehicle_type_id":"4","last_reported":1773390479,"current_range_meters":30800,"station_id":"","pricing_plan_id":"cebpf4jnsgd1na2vs0mg"},{"bike_id":"73117817-c4fe-4626-aa2d-bdb3c13e57bc","system_id":"levelo_inurba_marseille","lat":43.27484,"lon":5.42435,"is_reserved":false,"is_disabled":false,"rental_uris":{"android":"levelo://app?vid=73117817-c4fe-4626-aa2d-bdb3c13e57bc","ios":"levelo://app?vid=73117817-c4fe-4626-aa2d-bdb3c13e57bc"},"vehicle_type_id":"4","last_reported":1773390479,"current_range_meters":37600,"station_id":"ce4bhn92rcd13ifvqgrg","pricing_plan_id":"cebpf4jnsgd1na2vs0mg"},{"bike_id":"724637b0-959e-4760-9f46-802abef39949","system_id":"levelo_inurba_marseille","lat":43.26057,"lon":5.39398,"is_reserved":false,"is_disabled":false,"rental_uris":{"android":"levelo://app?vid=724637b0-959e-4760-9f46-802abef39949","ios":"levelo://app?vid=724637b0-959e-4760-9f46-802abef39949"},"vehicle_type_id":"4","last_reported":1773390479,"current_range_meters":13600,"station_id":"ce4bhh92rcd13ifvqfj0","pricing_plan_id":"cebpf4jnsgd1na2vs0mg"},{"bike_id":"55d4269f-8516-47ae-aae8-ce0b97c263bf","system_id":"levelo_inurba_marseille","lat":43.2958,"lon":5.37535,"is_reserved":false,"is_disabled":false,"rental_uris":{"android":"levelo://app?vid=55d4269f-8516-47ae-aae8-ce0b97c263bf","ios":"levelo://app?vid=55d4269f-8516-47ae-aae8-ce0b97c263bf"},"vehicle_type_id":"4","last_reported":1773390479,"current_range_meters":10000,"station_id":"ce4bgh92rcd13ifvqb50","pricing_plan_id":"cebpf4jnsgd1na2vs0mg"},{"bike_id":"012bb7fa-e4d0-4138-9c92-350c5c6b2640","system_id":"levelo_inurba_marseille","lat":43.28527,"lon":5.44099,"is_reserved":false,"is_disabled":false,"rental_uris":{"android":"levelo://app?vid=012bb7fa-e4d0-4138-9c92-350c5c6b2640","ios":"levelo://app?vid=012bb7fa-e4d0-4138-9c92-350c5c6b2640"},"vehicle_type_id":"4","last_reported":1773390479,"current_range_meters":30400,"station_id":"st_d3j3df2ikq2c7380ej80","pricing_plan_id":"cebpf4jnsgd1na2vs0mg"},{"bike_id":"0c4badb1-6a69-4d69-af70-3165db7cd8bb","system_id":"levelo_inurba_marseille","lat":43.29225,"lon":5.36069,"is_reserved":false,"is_disabled":false,"rental_uris":{"android":"levelo://app?vid=0c4badb1-6a69-4d69-af70-3165db7cd8bb","ios":"levelo://app?vid=0c4badb1-6a69-4d69-af70-3165db7cd8bb"},"vehicle_type_id":"4","last_reported":1773390479,"current_range_meters":36000,"station_id":"ce4bhbh2rcd13ifvqeqg","pricing_plan_id":"cebpf4jnsgd1na2vs0mg"},{"bike_id":"959cb468-adf5-492c-a8a7-a3170c99be64","system_id":"levelo_inurba_marseille","lat":43.27051,"lon":5.38273,"is_reserved":false,"is_disabled":false,"rental_uris":{"android":"levelo://app?vid=959cb468-adf5-492c-a8a7-a3170c99be64","ios":"levelo://app?vid=959cb468-adf5-492c-a8a7-a3170c99be64"},"vehicle_type_id":"4","last_reported":1773390479,"current_range_meters":14800,"station_id":"st_d3n2fo6cfp8s73cte1j0","pricing_plan_id":"cebpf4jnsgd1na2vs0mg"},{"bike_id":"cd00f2e2-1c1e-4a44-9bb7-d1f5b2ddfaba","system_id":"levelo_inurba_marseille","lat":43.30952,"lon":5.39055,"is_reserved":false,"is_disabled":false,"rental_uris":{"android":"levelo://app?vid=cd00f2e2-1c1e-4a44-9bb7-d1f5b2ddfaba","ios":"levelo://app?vid=cd00f2e2-1c1e-4a44-9bb7-d1f5b2ddfaba"},"vehicle_type_id":"4","last_reported":1773390479,"current_range_meters":29600,"station_id":"ce4bgup2rcd13ifvqco0","pricing_plan_id":"cebpf4jnsgd1na2vs0mg"},{"bike_id":"0630f4a7-2da6-4cc2-bd48-09c3911dda3a","system_id":"levelo_inurba_marseille","lat":43.30299,"lon":5.39204,"is_reserved":false,"is_disabled":true,"rental_uris":{"android":"levelo://app?vid=0630f4a7-2da6-4cc2-bd48-09c3911dda3a","ios":"levelo://app?vid=0630f4a7-2da6-4cc2-bd48-09c3911dda3a"},"vehicle_type_id":"4","last_reported":1773390479,"current_range_meters":19200,"station_id":"ce4bgkh2rcd13ifvqbk0","pricing_plan_id":"cebpf4jnsgd1na2vs0mg"},{"bike_id":"f32212cf-6d01-43e1-9d28-c332d31396c9","system_id":"levelo_inurba_marseille","lat":43.2468,"lon":5.43349,"is_reserved":false,"is_disabled":false,"rental_uris":{"android":"levelo://app?vid=f32212cf-6d01-43e1-9d28-c332d31396c9","ios":"levelo://app?vid=f32212cf-6d01-43e1-9d28-c332d31396c9"},"vehicle_type_id":"4","last_reported":1773390479,"current_range_meters":22800,"station_id":"","pricing_plan_id":"cebpf4jnsgd1na2vs0mg"},{"bike_id":"5960d5a2-dab3-4200-9c71-b05462e787dd","system_id":"levelo_inurba_marseille","lat":43.3016,"lon":5.38089,"is_reserved":false,"is_disabled":false,"rental_uris":{"android":"levelo://app?vid=5960d5a2-dab3-4200-9c71-b05462e787dd","ios":"levelo://app?vid=5960d5a2-dab3-4200-9c71-b05462e787dd"},"vehicle_type_id":"4","last_reported":1773390479,"current_range_meters":27600,"station_id":"ce4bgjp2rcd13ifvqbh0","pricing_plan_id":"cebpf4jnsgd1na2vs0mg"},{"bike_id":"6acc6294-778e-4389-ae09-ea37b9c06714","system_id":"levelo_inurba_marseille","lat":43.29727,"lon":5.41059,"is_reserved":false,"is_disabled":false,"rental_uris":{"android":"levelo://app?vid=6acc6294-778e-4389-ae09-ea37b9c06714","ios":"levelo://app?vid=6acc6294-778e-4389-ae09-ea37b9c06714"},"vehicle_type_id":"4","last_reported":1773390479,"current_range_meters":20400,"station_id":"","pricing_plan_id":"cebpf4jnsgd1na2vs0mg"},{"bike_id":"7b8fe4cb-4fd3-4a81-a3e2-4e05b02ff564","system_id":"levelo_inurba_marseille","lat":43.290348,"lon":5.399633,"is_reserved":false,"is_disabled":false,"rental_uris":{"android":"levelo://app?vid=7b8fe4cb-4fd3-4a81-a3e2-4e05b02ff564","ios":"levelo://app?vid=7b8fe4cb-4fd3-4a81-a3e2-4e05b02ff564"},"vehicle_type_id":"4","last_reported":1773390479,"current_range_meters":26800,"station_id":"ce4bh392rcd13ifvqdm0","pricing_plan_id":"cebpf4jnsgd1na2vs0mg"},{"bike_id":"968e0752-94e3-4427-8693-dccfb2dc93c6","system_id":"levelo_inurba_marseille","lat":43.32339,"lon":5.38841,"is_reserved":false,"is_disabled":false,"rental_uris":{"android":"levelo://app?vid=968e0752-94e3-4427-8693-dccfb2dc93c6","ios":"levelo://app?vid=968e0752-94e3-4427-8693-dccfb2dc93c6"},"vehicle_type_id":"4","last_reported":1773390479,"current_range_meters":40000,"station_id":"ce4bhqp2rcd13ifvqhog","pricing_plan_id":"cebpf4jnsgd1na2vs0mg"},{"bike_id":"51f828e2-11c4-49f0-bea7-708c81d716b5","system_id":"levelo_inurba_marseille","lat":43.27407,"lon":5.42489,"is_reserved":false,"is_disabled":false,"rental_uris":{"android":"levelo://app?vid=51f828e2-11c4-49f0-bea7-708c81d716b5","ios":"levelo://app?vid=51f828e2-11c4-49f0-bea7-708c81d716b5"},"vehicle_type_id":"4","last_reported":1773390479,"current_range_meters":15200,"station_id":"","pricing_plan_id":"cebpf4jnsgd1na2vs0mg"},{"bike_id":"f9347597-5862-4691-9f11-64caea787242","system_id":"levelo_inurba_marseille","lat":43.25921,"lon":5.40875,"is_reserved":false,"is_disabled":false,"rental_uris":{"android":"levelo://app?vid=f9347597-5862-4691-9f11-64caea787242","ios":"levelo://app?vid=f9347597-5862-4691-9f11-64caea787242"},"vehicle_type_id":"4","last_reported":1773390479,"current_range_meters":18000,"station_id":"ce4bhm92rcd13ifvqglg","pricing_plan_id":"cebpf4jnsgd1na2vs0mg"},{"bike_id":"40cdf2e8-76b5-43fa-bd2e-1a8eb6026b51","system_id":"levelo_inurba_marseille","lat":43.28979,"lon":5.42582,"is_reserved":false,"is_disabled":false,"rental_uris":{"android":"levelo://app?vid=40cdf2e8-76b5-43fa-bd2e-1a8eb6026b51","ios":"levelo://app?vid=40cdf2e8-76b5-43fa-bd2e-1a8eb6026b51"},"vehicle_type_id":"4","last_reported":1773390479,"current_range_meters":27200,"station_id":"","pricing_plan_id":"cebpf4jnsgd1na2vs0mg"},{"bike_id":"c705bf6d-6b2d-4dfc-b2dc-335dd671ec66","system_id":"levelo_inurba_marseille","lat":43.29271,"lon":5.36843,"is_reserved":false,"is_disabled":false,"rental_uris":{"android":"levelo://app?vid=c705bf6d-6b2d-4dfc-b2dc-335dd671ec66","ios":"levelo://app?vid=c705bf6d-6b2d-4dfc-b2dc-335dd671ec66"},"vehicle_type_id":"4","last_reported":1773390479,"current_range_meters":3600,"station_id":"ce4bhbp2rcd13ifvqesg","pricing_plan_id":"cebpf4jnsgd1na2vs0mg"},{"bike_id":"c334c42b-6558-40ea-9aa2-a6d0ce2e63e9","system_id":"levelo_inurba_marseille","lat":43.32472,"lon":5.36579,"is_reserved":false,"is_disabled":false,"rental_uris":{"android":"levelo://app?vid=c334c42b-6558-40ea-9aa2-a6d0ce2e63e9","ios":"levelo://app?vid=c334c42b-6558-40ea-9aa2-a6d0ce2e63e9"},"vehicle_type_id":"4","last_reported":1773390479,"current_range_meters":34800,"station_id":"ce4bhs12rcd13ifvqhvg","pricing_plan_id":"cebpf4jnsgd1na2vs0mg"},{"bike_id":"de0a6a3b-52e8-4ae5-b2ae-a0757d56737c","system_id":"levelo_inurba_marseille","lat":43.28362,"lon":5.38124,"is_reserved":false,"is_disabled":false,"rental_uris":{"android":"levelo://app?vid=de0a6a3b-52e8-4ae5-b2ae-a0757d56737c","ios":"levelo://app?vid=de0a6a3b-52e8-4ae5-b2ae-a0757d56737c"},"vehicle_type_id":"4","last_reported":1773390479,"current_range_meters":17200,"station_id":"ce4bh412rcd13ifvqdr0","pricing_plan_id":"cebpf4jnsgd1na2vs0mg"},{"bike_id":"72e16886-e6be-40d7-9db6-717ac812c857","system_id":"levelo_inurba_marseille","lat":43.30209,"lon":5.40038,"is_reserved":false,"is_disabled":true,"rental_uris":{"android":"levelo://app?vid=72e16886-e6be-40d7-9db6-717ac812c857","ios":"levelo://app?vid=72e16886-e6be-40d7-9db6-717ac812c857"},"vehicle_type_id":"4","last_reported":1773390479,"current_range_meters":19200,"station_id":"","pricing_plan_id":"cebpf4jnsgd1na2vs0mg"},{"bike_id":"2d175e7b-a19c-4126-a7aa-f1cff5b6aef9","system_id":"levelo_inurba_marseille","lat":43.29024,"lon":5.39981,"is_reserved":false,"is_disabled":false,"rental_uris":{"android":"levelo://app?vid=2d175e7b-a19c-4126-a7aa-f1cff5b6aef9","ios":"levelo://app?vid=2d175e7b-a19c-4126-a7aa-f1cff5b6aef9"},"vehicle_type_id":"4","last_reported":1773390479,"current_range_meters":7200,"station_id":"ce4bh392rcd13ifvqdm0","pricing_plan_id":"cebpf4jnsgd1na2vs0mg"},{"bike_id":"a310bf7c-b846-4f73-8825-c0041ee29512","system_id":"levelo_inurba_marseille","lat":43.27993,"lon":5.41653,"is_reserved":false,"is_disabled":false,"rental_uris":{"android":"levelo://app?vid=a310bf7c-b846-4f73-8825-c0041ee29512","ios":"levelo://app?vid=a310bf7c-b846-4f73-8825-c0041ee29512"},"vehicle_type_id":"4","last_reported":1773390479,"current_range_meters":10800,"station_id":"ce4bho12rcd13ifvqh1g","pricing_plan_id":"cebpf4jnsgd1na2vs0mg"},{"bike_id":"ea60c6e4-4382-4e15-84df-d8ab5b4c7ad6","system_id":"levelo_inurba_marseille","lat":43.28025,"lon":5.36929,"is_reserved":false,"is_disabled":false,"rental_uris":{"android":"levelo://app?vid=ea60c6e4-4382-4e15-84df-d8ab5b4c7ad6","ios":"levelo://app?vid=ea60c6e4-4382-4e15-84df-d8ab5b4c7ad6"},"vehicle_type_id":"4","last_reported":1773390479,"current_range_meters":32000,"station_id":"ce4bha12rcd13ifvqef0","pricing_plan_id":"cebpf4jnsgd1na2vs0mg"},{"bike_id":"049d0339-5799-4ade-8ff8-59295e8c39c6","system_id":"levelo_inurba_marseille","lat":43.32467,"lon":5.36586,"is_reserved":false,"is_disabled":false,"rental_uris":{"android":"levelo://app?vid=049d0339-5799-4ade-8ff8-59295e8c39c6","ios":"levelo://app?vid=049d0339-5799-4ade-8ff8-59295e8c39c6"},"vehicle_type_id":"4","last_reported":1773390479,"current_range_meters":35200,"station_id":"ce4bhs12rcd13ifvqhvg","pricing_plan_id":"cebpf4jnsgd1na2vs0mg"},{"bike_id":"3cc3d48e-07a9-4a61-9236-5775b902f6cd","system_id":"levelo_inurba_marseille","lat":43.28606,"lon":5.37059,"is_reserved":false,"is_disabled":false,"rental_uris":{"android":"levelo://app?vid=3cc3d48e-07a9-4a61-9236-5775b902f6cd","ios":"levelo://app?vid=3cc3d48e-07a9-4a61-9236-5775b902f6cd"},"vehicle_type_id":"4","last_reported":1773390479,"current_range_meters":38000,"station_id":"ce4bht12rcd13ifvqi60","pricing_plan_id":"cebpf4jnsgd1na2vs0mg"},{"bike_id":"8fd733ec-8b37-4836-b25f-a2b03118c105","system_id":"levelo_inurba_marseille","lat":43.29877,"lon":5.43654,"is_reserved":false,"is_disabled":false,"rental_uris":{"android":"levelo://app?vid=8fd733ec-8b37-4836-b25f-a2b03118c105","ios":"levelo://app?vid=8fd733ec-8b37-4836-b25f-a2b03118c105"},"vehicle_type_id":"4","last_reported":1773390479,"current_range_meters":26800,"station_id":"ce4bhpp2rcd13ifvqhfg","pricing_plan_id":"cebpf4jnsgd1na2vs0mg"},{"bike_id":"aa1ea814-effc-4a82-a7ce-fc6b0be25510","system_id":"levelo_inurba_marseille","lat":43.33528,"lon":5.36268,"is_reserved":false,"is_disabled":false,"rental_uris":{"android":"levelo://app?vid=aa1ea814-effc-4a82-a7ce-fc6b0be25510","ios":"levelo://app?vid=aa1ea814-effc-4a82-a7ce-fc6b0be25510"},"vehicle_type_id":"4","last_reported":1773390479,"current_range_meters":38400,"station_id":"","pricing_plan_id":"cebpf4jnsgd1na2vs0mg"},{"bike_id":"12f1fe7e-cbb0-41bd-9d1a-37589d57d213","system_id":"levelo_inurba_marseille","lat":43.2468,"lon":5.38176,"is_reserved":false,"is_disabled":true,"rental_uris":{"android":"levelo://app?vid=12f1fe7e-cbb0-41bd-9d1a-37589d57d213","ios":"levelo://app?vid=12f1fe7e-cbb0-41bd-9d1a-37589d57d213"},"vehicle_type_id":"4","last_reported":1773390479,"current_range_meters":0,"station_id":"ce4bhih2rcd13ifvqfr0","pricing_plan_id":"cebpf4jnsgd1na2vs0mg"},{"bike_id":"b26311b7-5bf2-473b-82c5-bcec838fe310","system_id":"levelo_inurba_marseille","lat":43.30505,"lon":5.39369,"is_reserved":false,"is_disabled":false,"rental_uris":{"android":"levelo://app?vid=b26311b7-5bf2-473b-82c5-bcec838fe310","ios":"levelo://app?vid=b26311b7-5bf2-473b-82c5-bcec838fe310"},"vehicle_type_id":"4","last_reported":1773390479,"current_range_meters":38000,"station_id":"","pricing_plan_id":"cebpf4jnsgd1na2vs0mg"},{"bike_id":"960a07a1-b874-4158-8e3e-028c269694d0","system_id":"levelo_inurba_marseille","lat":43.30151,"lon":5.38085,"is_reserved":false,"is_disabled":false,"rental_uris":{"android":"levelo://app?vid=960a07a1-b874-4158-8e3e-028c269694d0","ios":"levelo://app?vid=960a07a1-b874-4158-8e3e-028c269694d0"},"vehicle_type_id":"4","last_reported":1773390479,"current_range_meters":38400,"station_id":"ce4bgjp2rcd13ifvqbh0","pricing_plan_id":"cebpf4jnsgd1na2vs0mg"},{"bike_id":"c9e5375c-ed69-4090-8e87-9cbfcd20bc36","system_id":"levelo_inurba_marseille","lat":43.27208,"lon":5.39181,"is_reserved":false,"is_disabled":false,"rental_uris":{"android":"levelo://app?vid=c9e5375c-ed69-4090-8e87-9cbfcd20bc36","ios":"levelo://app?vid=c9e5375c-ed69-4090-8e87-9cbfcd20bc36"},"vehicle_type_id":"4","last_reported":1773390479,"current_range_meters":40000,"station_id":"ce4bhhp2rcd13ifvqfm0","pricing_plan_id":"cebpf4jnsgd1na2vs0mg"},{"bike_id":"77dd3b67-1a40-45de-9e79-224e7fa5dc5f","system_id":"levelo_inurba_marseille","lat":43.2893,"lon":5.39629,"is_reserved":false,"is_disabled":false,"rental_uris":{"android":"levelo://app?vid=77dd3b67-1a40-45de-9e79-224e7fa5dc5f","ios":"levelo://app?vid=77dd3b67-1a40-45de-9e79-224e7fa5dc5f"},"vehicle_type_id":"4","last_reported":1773390479,"current_range_meters":35600,"station_id":"ce4bh3h2rcd13ifvqdn0","pricing_plan_id":"cebpf4jnsgd1na2vs0mg"},{"bike_id":"4fb0d3ac-74ff-440f-a7b2-19d232936e09","system_id":"levelo_inurba_marseille","lat":43.30149,"lon":5.37418,"is_reserved":false,"is_disabled":false,"rental_uris":{"android":"levelo://app?vid=4fb0d3ac-74ff-440f-a7b2-19d232936e09","ios":"levelo://app?vid=4fb0d3ac-74ff-440f-a7b2-19d232936e09"},"vehicle_type_id":"4","last_reported":1773390479,"current_range_meters":20000,"station_id":"ce4bgs92rcd13ifvqcc0","pricing_plan_id":"cebpf4jnsgd1na2vs0mg"},{"bike_id":"eb2f308c-8a12-4604-91b5-c6e7beca1962","system_id":"levelo_inurba_marseille","lat":43.25578,"lon":5.38253,"is_reserved":false,"is_disabled":false,"rental_uris":{"android":"levelo://app?vid=eb2f308c-8a12-4604-91b5-c6e7beca1962","ios":"levelo://app?vid=eb2f308c-8a12-4604-91b5-c6e7beca1962"},"vehicle_type_id":"4","last_reported":1773390479,"current_range_meters":28400,"station_id":"ce4bhih2rcd13ifvqfs0","pricing_plan_id":"cebpf4jnsgd1na2vs0mg"},{"bike_id":"9275d7e0-6f92-4728-99cc-26ef8f5159ad","system_id":"levelo_inurba_marseille","lat":43.29116,"lon":5.43276,"is_reserved":false,"is_disabled":false,"rental_uris":{"android":"levelo://app?vid=9275d7e0-6f92-4728-99cc-26ef8f5159ad","ios":"levelo://app?vid=9275d7e0-6f92-4728-99cc-26ef8f5159ad"},"vehicle_type_id":"4","last_reported":1773390479,"current_range_meters":36400,"station_id":"","pricing_plan_id":"cebpf4jnsgd1na2vs0mg"},{"bike_id":"8a934616-e658-4bc0-8fe3-b548bc18aa32","system_id":"levelo_inurba_marseille","lat":43.291272,"lon":5.355783,"is_reserved":false,"is_disabled":false,"rental_uris":{"android":"levelo://app?vid=8a934616-e658-4bc0-8fe3-b548bc18aa32","ios":"levelo://app?vid=8a934616-e658-4bc0-8fe3-b548bc18aa32"},"vehicle_type_id":"4","last_reported":1773390479,"current_range_meters":25200,"station_id":"ce4bhb92rcd13ifvqen0","pricing_plan_id":"cebpf4jnsgd1na2vs0mg"},{"bike_id":"ca6172bb-1bde-4c29-82ad-418bf4e991bb","system_id":"levelo_inurba_marseille","lat":43.28154,"lon":5.42636,"is_reserved":false,"is_disabled":false,"rental_uris":{"android":"levelo://app?vid=ca6172bb-1bde-4c29-82ad-418bf4e991bb","ios":"levelo://app?vid=ca6172bb-1bde-4c29-82ad-418bf4e991bb"},"vehicle_type_id":"4","last_reported":1773390479,"current_range_meters":21600,"station_id":"ce4bhnh2rcd13ifvqgug","pricing_plan_id":"cebpf4jnsgd1na2vs0mg"},{"bike_id":"be4b33f3-f666-4b28-9e53-550c3c6e8b23","system_id":"levelo_inurba_marseille","lat":43.28477,"lon":5.48408,"is_reserved":false,"is_disabled":false,"rental_uris":{"android":"levelo://app?vid=be4b33f3-f666-4b28-9e53-550c3c6e8b23","ios":"levelo://app?vid=be4b33f3-f666-4b28-9e53-550c3c6e8b23"},"vehicle_type_id":"4","last_reported":1773390479,"current_range_meters":23200,"station_id":"","pricing_plan_id":"cebpf4jnsgd1na2vs0mg"},{"bike_id":"03e319e8-ff92-40c4-a72d-c7542fee3036","system_id":"levelo_inurba_marseille","lat":43.33605,"lon":5.41046,"is_reserved":false,"is_disabled":false,"rental_uris":{"android":"levelo://app?vid=03e319e8-ff92-40c4-a72d-c7542fee3036","ios":"levelo://app?vid=03e319e8-ff92-40c4-a72d-c7542fee3036"},"vehicle_type_id":"4","last_reported":1773390479,"current_range_meters":39200,"station_id":"ce4bhqh2rcd13ifvqhmg","pricing_plan_id":"cebpf4jnsgd1na2vs0mg"},{"bike_id":"803372db-a7aa-4fbf-8572-49ca173e9b77","system_id":"levelo_inurba_marseille","lat":43.28356,"lon":5.38115,"is_reserved":false,"is_disabled":false,"rental_uris":{"android":"levelo://app?vid=803372db-a7aa-4fbf-8572-49ca173e9b77","ios":"levelo://app?vid=803372db-a7aa-4fbf-8572-49ca173e9b77"},"vehicle_type_id":"4","last_reported":1773390479,"current_range_meters":27600,"station_id":"ce4bh412rcd13ifvqdr0","pricing_plan_id":"cebpf4jnsgd1na2vs0mg"},{"bike_id":"7e93006e-36a2-465d-83ba-4c6c7efd21e7","system_id":"levelo_inurba_marseille","lat":43.28517,"lon":5.48407,"is_reserved":false,"is_disabled":false,"rental_uris":{"android":"levelo://app?vid=7e93006e-36a2-465d-83ba-4c6c7efd21e7","ios":"levelo://app?vid=7e93006e-36a2-465d-83ba-4c6c7efd21e7"},"vehicle_type_id":"4","last_reported":1773390479,"current_range_meters":9200,"station_id":"","pricing_plan_id":"cebpf4jnsgd1na2vs0mg"},{"bike_id":"ca023ede-959e-4411-943d-f9c615c571b1","system_id":"levelo_inurba_marseille","lat":43.31039,"lon":5.37193,"is_reserved":false,"is_disabled":false,"rental_uris":{"android":"levelo://app?vid=ca023ede-959e-4411-943d-f9c615c571b1","ios":"levelo://app?vid=ca023ede-959e-4411-943d-f9c615c571b1"},"vehicle_type_id":"4","last_reported":1773390479,"current_range_meters":38000,"station_id":"st_d4kl2rp97mjs73e7tdfg","pricing_plan_id":"cebpf4jnsgd1na2vs0mg"},{"bike_id":"193cbe9d-b7d2-421e-9f76-9c8c86aebb4a","system_id":"levelo_inurba_marseille","lat":43.33535,"lon":5.37471,"is_reserved":false,"is_disabled":false,"rental_uris":{"android":"levelo://app?vid=193cbe9d-b7d2-421e-9f76-9c8c86aebb4a","ios":"levelo://app?vid=193cbe9d-b7d2-421e-9f76-9c8c86aebb4a"},"vehicle_type_id":"4","last_reported":1773390479,"current_range_meters":14000,"station_id":"st_d46tts09ee8s73dlu43g","pricing_plan_id":"cebpf4jnsgd1na2vs0mg"},{"bike_id":"9f555977-ed84-4e25-9c81-1c0c6fccc8b6","system_id":"levelo_inurba_marseille","lat":43.24389,"lon":5.44094,"is_reserved":false,"is_disabled":true,"rental_uris":{"android":"levelo://app?vid=9f555977-ed84-4e25-9c81-1c0c6fccc8b6","ios":"levelo://app?vid=9f555977-ed84-4e25-9c81-1c0c6fccc8b6"},"vehicle_type_id":"4","last_reported":1773390479,"current_range_meters":6800,"station_id":"","pricing_plan_id":"cebpf4jnsgd1na2vs0mg"},{"bike_id":"880cbeba-95c2-4074-9011-0bdbf767792e","system_id":"levelo_inurba_marseille","lat":43.28444,"lon":5.39141,"is_reserved":false,"is_disabled":false,"rental_uris":{"android":"levelo://app?vid=880cbeba-95c2-4074-9011-0bdbf767792e","ios":"levelo://app?vid=880cbeba-95c2-4074-9011-0bdbf767792e"},"vehicle_type_id":"4","last_reported":1773390479,"current_range_meters":8800,"station_id":"","pricing_plan_id":"cebpf4jnsgd1na2vs0mg"},{"bike_id":"c62d3042-ec95-48b5-aaab-c37562c36bdf","system_id":"levelo_inurba_marseille","lat":43.30683,"lon":5.37037,"is_reserved":false,"is_disabled":false,"rental_uris":{"android":"levelo://app?vid=c62d3042-ec95-48b5-aaab-c37562c36bdf","ios":"levelo://app?vid=c62d3042-ec95-48b5-aaab-c37562c36bdf"},"vehicle_type_id":"4","last_reported":1773390479,"current_range_meters":39200,"station_id":"","pricing_plan_id":"cebpf4jnsgd1na2vs0mg"},{"bike_id":"dc97e95c-153e-49f2-83e4-ef8b0074f6bd","system_id":"levelo_inurba_marseille","lat":43.31168,"lon":5.3686,"is_reserved":false,"is_disabled":false,"rental_uris":{"android":"levelo://app?vid=dc97e95c-153e-49f2-83e4-ef8b0074f6bd","ios":"levelo://app?vid=dc97e95c-153e-49f2-83e4-ef8b0074f6bd"},"vehicle_type_id":"4","last_reported":1773390479,"current_range_meters":28400,"station_id":"","pricing_plan_id":"cebpf4jnsgd1na2vs0mg"},{"bike_id":"35633058-1c8d-41f2-a2e3-e1101467a98c","system_id":"levelo_inurba_marseille","lat":43.23375,"lon":5.41246,"is_reserved":false,"is_disabled":false,"rental_uris":{"android":"levelo://app?vid=35633058-1c8d-41f2-a2e3-e1101467a98c","ios":"levelo://app?vid=35633058-1c8d-41f2-a2e3-e1101467a98c"},"vehicle_type_id":"4","last_reported":1773390479,"current_range_meters":12400,"station_id":"","pricing_plan_id":"cebpf4jnsgd1na2vs0mg"},{"bike_id":"3115ec2c-0e1c-40e3-beba-8ab26217ce9f","system_id":"levelo_inurba_marseille","lat":43.28242,"lon":5.3904,"is_reserved":false,"is_disabled":true,"rental_uris":{"android":"levelo://app?vid=3115ec2c-0e1c-40e3-beba-8ab26217ce9f","ios":"levelo://app?vid=3115ec2c-0e1c-40e3-beba-8ab26217ce9f"},"vehicle_type_id":"4","last_reported":1773390479,"current_range_meters":36800,"station_id":"ce4bhn92rcd13ifvqgsg","pricing_plan_id":"cebpf4jnsgd1na2vs0mg"},{"bike_id":"9c3f11b1-6c96-472d-acf9-a5ac4e6e8a32","system_id":"levelo_inurba_marseille","lat":43.24645,"lon":5.38902,"is_reserved":false,"is_disabled":false,"rental_uris":{"android":"levelo://app?vid=9c3f11b1-6c96-472d-acf9-a5ac4e6e8a32","ios":"levelo://app?vid=9c3f11b1-6c96-472d-acf9-a5ac4e6e8a32"},"vehicle_type_id":"4","last_reported":1773390479,"current_range_meters":38800,"station_id":"ce4bhg12rcd13ifvqf60","pricing_plan_id":"cebpf4jnsgd1na2vs0mg"},{"bike_id":"ddffd595-e4d6-4840-a075-89e0d98ad68d","system_id":"levelo_inurba_marseille","lat":43.27095,"lon":5.42281,"is_reserved":false,"is_disabled":false,"rental_uris":{"android":"levelo://app?vid=ddffd595-e4d6-4840-a075-89e0d98ad68d","ios":"levelo://app?vid=ddffd595-e4d6-4840-a075-89e0d98ad68d"},"vehicle_type_id":"4","last_reported":1773390479,"current_range_meters":11200,"station_id":"ce4bhk92rcd13ifvqgb0","pricing_plan_id":"cebpf4jnsgd1na2vs0mg"},{"bike_id":"e5667055-afe7-49ca-aac5-c9f3562e245e","system_id":"levelo_inurba_marseille","lat":43.30326,"lon":5.40445,"is_reserved":false,"is_disabled":false,"rental_uris":{"android":"levelo://app?vid=e5667055-afe7-49ca-aac5-c9f3562e245e","ios":"levelo://app?vid=e5667055-afe7-49ca-aac5-c9f3562e245e"},"vehicle_type_id":"4","last_reported":1773390479,"current_range_meters":38800,"station_id":"ce4bh012rcd13ifvqd10","pricing_plan_id":"cebpf4jnsgd1na2vs0mg"},{"bike_id":"b6a5edba-a955-4cfd-810c-9c5d619b8d91","system_id":"levelo_inurba_marseille","lat":43.31737,"lon":5.4372,"is_reserved":false,"is_disabled":false,"rental_uris":{"android":"levelo://app?vid=b6a5edba-a955-4cfd-810c-9c5d619b8d91","ios":"levelo://app?vid=b6a5edba-a955-4cfd-810c-9c5d619b8d91"},"vehicle_type_id":"4","last_reported":1773390479,"current_range_meters":22800,"station_id":"ce4bhp92rcd13ifvqhcg","pricing_plan_id":"cebpf4jnsgd1na2vs0mg"},{"bike_id":"02ead4dc-b645-4d56-ad65-ea6ca89e6836","system_id":"levelo_inurba_marseille","lat":43.28188,"lon":5.42667,"is_reserved":false,"is_disabled":false,"rental_uris":{"android":"levelo://app?vid=02ead4dc-b645-4d56-ad65-ea6ca89e6836","ios":"levelo://app?vid=02ead4dc-b645-4d56-ad65-ea6ca89e6836"},"vehicle_type_id":"4","last_reported":1773390479,"current_range_meters":38000,"station_id":"ce4bhnh2rcd13ifvqgug","pricing_plan_id":"cebpf4jnsgd1na2vs0mg"},{"bike_id":"2269e867-3dce-4814-a819-93bb5461dc9f","system_id":"levelo_inurba_marseille","lat":43.27921,"lon":5.38032,"is_reserved":false,"is_disabled":false,"rental_uris":{"android":"levelo://app?vid=2269e867-3dce-4814-a819-93bb5461dc9f","ios":"levelo://app?vid=2269e867-3dce-4814-a819-93bb5461dc9f"},"vehicle_type_id":"4","last_reported":1773390479,"current_range_meters":37600,"station_id":"ce4bhf92rcd13ifvqf50","pricing_plan_id":"cebpf4jnsgd1na2vs0mg"},{"bike_id":"48f7318f-42c7-4aa4-b62f-fc9ed340836e","system_id":"levelo_inurba_marseille","lat":43.28162,"lon":5.42647,"is_reserved":false,"is_disabled":false,"rental_uris":{"android":"levelo://app?vid=48f7318f-42c7-4aa4-b62f-fc9ed340836e","ios":"levelo://app?vid=48f7318f-42c7-4aa4-b62f-fc9ed340836e"},"vehicle_type_id":"4","last_reported":1773390479,"current_range_meters":9200,"station_id":"ce4bhnh2rcd13ifvqgug","pricing_plan_id":"cebpf4jnsgd1na2vs0mg"},{"bike_id":"3b3bb223-f64d-4999-9484-8389f1a83f8a","system_id":"levelo_inurba_marseille","lat":43.30182,"lon":5.38069,"is_reserved":false,"is_disabled":false,"rental_uris":{"android":"levelo://app?vid=3b3bb223-f64d-4999-9484-8389f1a83f8a","ios":"levelo://app?vid=3b3bb223-f64d-4999-9484-8389f1a83f8a"},"vehicle_type_id":"4","last_reported":1773390479,"current_range_meters":25200,"station_id":"ce4bgjp2rcd13ifvqbh0","pricing_plan_id":"cebpf4jnsgd1na2vs0mg"},{"bike_id":"085d9f80-e450-4ad6-81b9-46074072f150","system_id":"levelo_inurba_marseille","lat":43.31476,"lon":5.37297,"is_reserved":false,"is_disabled":false,"rental_uris":{"android":"levelo://app?vid=085d9f80-e450-4ad6-81b9-46074072f150","ios":"levelo://app?vid=085d9f80-e450-4ad6-81b9-46074072f150"},"vehicle_type_id":"4","last_reported":1773390479,"current_range_meters":40000,"station_id":"ce4bgt12rcd13ifvqcd0","pricing_plan_id":"cebpf4jnsgd1na2vs0mg"},{"bike_id":"785c672b-b04e-4d06-bd7e-7d7f6fe09d9f","system_id":"levelo_inurba_marseille","lat":43.29021,"lon":5.39987,"is_reserved":false,"is_disabled":false,"rental_uris":{"android":"levelo://app?vid=785c672b-b04e-4d06-bd7e-7d7f6fe09d9f","ios":"levelo://app?vid=785c672b-b04e-4d06-bd7e-7d7f6fe09d9f"},"vehicle_type_id":"4","last_reported":1773390479,"current_range_meters":10800,"station_id":"ce4bh392rcd13ifvqdm0","pricing_plan_id":"cebpf4jnsgd1na2vs0mg"},{"bike_id":"64069c02-c977-4af0-a752-efe4502ec874","system_id":"levelo_inurba_marseille","lat":43.28477,"lon":5.48393,"is_reserved":false,"is_disabled":false,"rental_uris":{"android":"levelo://app?vid=64069c02-c977-4af0-a752-efe4502ec874","ios":"levelo://app?vid=64069c02-c977-4af0-a752-efe4502ec874"},"vehicle_type_id":"4","last_reported":1773390479,"current_range_meters":11200,"station_id":"","pricing_plan_id":"cebpf4jnsgd1na2vs0mg"},{"bike_id":"489b4cfb-fccc-4eb6-8d28-eb867a3bc809","system_id":"levelo_inurba_marseille","lat":43.29648,"lon":5.40608,"is_reserved":false,"is_disabled":true,"rental_uris":{"android":"levelo://app?vid=489b4cfb-fccc-4eb6-8d28-eb867a3bc809","ios":"levelo://app?vid=489b4cfb-fccc-4eb6-8d28-eb867a3bc809"},"vehicle_type_id":"4","last_reported":1773390479,"current_range_meters":36400,"station_id":"ce4bh0h2rcd13ifvqd60","pricing_plan_id":"cebpf4jnsgd1na2vs0mg"},{"bike_id":"5db6e19a-4369-4327-b7e4-06c2f961c22d","system_id":"levelo_inurba_marseille","lat":43.30907,"lon":5.3686,"is_reserved":false,"is_disabled":false,"rental_uris":{"android":"levelo://app?vid=5db6e19a-4369-4327-b7e4-06c2f961c22d","ios":"levelo://app?vid=5db6e19a-4369-4327-b7e4-06c2f961c22d"},"vehicle_type_id":"4","last_reported":1773390479,"current_range_meters":38000,"station_id":"ce4bgn92rcd13ifvqbvg","pricing_plan_id":"cebpf4jnsgd1na2vs0mg"},{"bike_id":"7bf0a830-d498-457c-a030-91c3bd84fed4","system_id":"levelo_inurba_marseille","lat":43.23203,"lon":5.35551,"is_reserved":false,"is_disabled":false,"rental_uris":{"android":"levelo://app?vid=7bf0a830-d498-457c-a030-91c3bd84fed4","ios":"levelo://app?vid=7bf0a830-d498-457c-a030-91c3bd84fed4"},"vehicle_type_id":"4","last_reported":1773390479,"current_range_meters":12000,"station_id":"ce4bhu92rcd13ifvqi70","pricing_plan_id":"cebpf4jnsgd1na2vs0mg"},{"bike_id":"db5fc025-f609-443b-b481-2f6cefb137d4","system_id":"levelo_inurba_marseille","lat":43.28485,"lon":5.48385,"is_reserved":false,"is_disabled":false,"rental_uris":{"android":"levelo://app?vid=db5fc025-f609-443b-b481-2f6cefb137d4","ios":"levelo://app?vid=db5fc025-f609-443b-b481-2f6cefb137d4"},"vehicle_type_id":"4","last_reported":1773390479,"current_range_meters":34000,"station_id":"","pricing_plan_id":"cebpf4jnsgd1na2vs0mg"},{"bike_id":"d5b94fb7-6ed2-4115-8925-47fdf09de149","system_id":"levelo_inurba_marseille","lat":43.3053,"lon":5.36713,"is_reserved":false,"is_disabled":false,"rental_uris":{"android":"levelo://app?vid=d5b94fb7-6ed2-4115-8925-47fdf09de149","ios":"levelo://app?vid=d5b94fb7-6ed2-4115-8925-47fdf09de149"},"vehicle_type_id":"4","last_reported":1773390479,"current_range_meters":36000,"station_id":"ce4bgrp2rcd13ifvqc9g","pricing_plan_id":"cebpf4jnsgd1na2vs0mg"},{"bike_id":"37d327ad-dc1b-4dcd-a6d4-dda1124201a6","system_id":"levelo_inurba_marseille","lat":43.29279,"lon":5.36848,"is_reserved":false,"is_disabled":false,"rental_uris":{"android":"levelo://app?vid=37d327ad-dc1b-4dcd-a6d4-dda1124201a6","ios":"levelo://app?vid=37d327ad-dc1b-4dcd-a6d4-dda1124201a6"},"vehicle_type_id":"4","last_reported":1773390479,"current_range_meters":18000,"station_id":"ce4bhbp2rcd13ifvqesg","pricing_plan_id":"cebpf4jnsgd1na2vs0mg"},{"bike_id":"552db961-6ff4-4a02-9e5d-7a6056b861cd","system_id":"levelo_inurba_marseille","lat":43.30904,"lon":5.36852,"is_reserved":false,"is_disabled":false,"rental_uris":{"android":"levelo://app?vid=552db961-6ff4-4a02-9e5d-7a6056b861cd","ios":"levelo://app?vid=552db961-6ff4-4a02-9e5d-7a6056b861cd"},"vehicle_type_id":"4","last_reported":1773390479,"current_range_meters":33600,"station_id":"ce4bgn92rcd13ifvqbvg","pricing_plan_id":"cebpf4jnsgd1na2vs0mg"},{"bike_id":"9c2b5d2a-9cac-40e8-8612-2d62a5457827","system_id":"levelo_inurba_marseille","lat":43.27666,"lon":5.38917,"is_reserved":false,"is_disabled":false,"rental_uris":{"android":"levelo://app?vid=9c2b5d2a-9cac-40e8-8612-2d62a5457827","ios":"levelo://app?vid=9c2b5d2a-9cac-40e8-8612-2d62a5457827"},"vehicle_type_id":"4","last_reported":1773390479,"current_range_meters":31200,"station_id":"ce4bhi12rcd13ifvqfo0","pricing_plan_id":"cebpf4jnsgd1na2vs0mg"},{"bike_id":"ab7d9189-2568-4974-829e-49dee9a447d5","system_id":"levelo_inurba_marseille","lat":43.23198,"lon":5.35548,"is_reserved":false,"is_disabled":false,"rental_uris":{"android":"levelo://app?vid=ab7d9189-2568-4974-829e-49dee9a447d5","ios":"levelo://app?vid=ab7d9189-2568-4974-829e-49dee9a447d5"},"vehicle_type_id":"4","last_reported":1773390479,"current_range_meters":39200,"station_id":"ce4bhu92rcd13ifvqi70","pricing_plan_id":"cebpf4jnsgd1na2vs0mg"},{"bike_id":"571fd02e-f1c6-4150-b7f2-77d6744972b1","system_id":"levelo_inurba_marseille","lat":43.28208,"lon":5.3908,"is_reserved":false,"is_disabled":false,"rental_uris":{"android":"levelo://app?vid=571fd02e-f1c6-4150-b7f2-77d6744972b1","ios":"levelo://app?vid=571fd02e-f1c6-4150-b7f2-77d6744972b1"},"vehicle_type_id":"4","last_reported":1773390479,"current_range_meters":17600,"station_id":"ce4bhn92rcd13ifvqgsg","pricing_plan_id":"cebpf4jnsgd1na2vs0mg"},{"bike_id":"c0c5d9dc-928d-48b1-bc04-fe5d71707694","system_id":"levelo_inurba_marseille","lat":43.32358,"lon":5.36746,"is_reserved":false,"is_disabled":false,"rental_uris":{"android":"levelo://app?vid=c0c5d9dc-928d-48b1-bc04-fe5d71707694","ios":"levelo://app?vid=c0c5d9dc-928d-48b1-bc04-fe5d71707694"},"vehicle_type_id":"4","last_reported":1773390479,"current_range_meters":39200,"station_id":"ce4bhsh2rcd13ifvqi2g","pricing_plan_id":"cebpf4jnsgd1na2vs0mg"},{"bike_id":"34067b23-0c56-4b26-b659-525005b5345f","system_id":"levelo_inurba_marseille","lat":43.21775,"lon":5.34559,"is_reserved":false,"is_disabled":false,"rental_uris":{"android":"levelo://app?vid=34067b23-0c56-4b26-b659-525005b5345f","ios":"levelo://app?vid=34067b23-0c56-4b26-b659-525005b5345f"},"vehicle_type_id":"4","last_reported":1773390479,"current_range_meters":26800,"station_id":"","pricing_plan_id":"cebpf4jnsgd1na2vs0mg"},{"bike_id":"a243ae06-bdb1-4295-b949-9b571a79a0aa","system_id":"levelo_inurba_marseille","lat":43.27838,"lon":5.4073,"is_reserved":false,"is_disabled":false,"rental_uris":{"android":"levelo://app?vid=a243ae06-bdb1-4295-b949-9b571a79a0aa","ios":"levelo://app?vid=a243ae06-bdb1-4295-b949-9b571a79a0aa"},"vehicle_type_id":"4","last_reported":1773390479,"current_range_meters":10000,"station_id":"ce4bhnh2rcd13ifvqgtg","pricing_plan_id":"cebpf4jnsgd1na2vs0mg"},{"bike_id":"91ad5159-ee4f-4775-9e76-ea40758cdb2d","system_id":"levelo_inurba_marseille","lat":43.24165,"lon":5.36396,"is_reserved":false,"is_disabled":false,"rental_uris":{"android":"levelo://app?vid=91ad5159-ee4f-4775-9e76-ea40758cdb2d","ios":"levelo://app?vid=91ad5159-ee4f-4775-9e76-ea40758cdb2d"},"vehicle_type_id":"4","last_reported":1773390479,"current_range_meters":11200,"station_id":"cpo36qri1sfpv3e86is0","pricing_plan_id":"cebpf4jnsgd1na2vs0mg"},{"bike_id":"8de12fef-6359-4d70-a7e8-4ffdbc072df6","system_id":"levelo_inurba_marseille","lat":43.31688,"lon":5.40461,"is_reserved":false,"is_disabled":false,"rental_uris":{"android":"levelo://app?vid=8de12fef-6359-4d70-a7e8-4ffdbc072df6","ios":"levelo://app?vid=8de12fef-6359-4d70-a7e8-4ffdbc072df6"},"vehicle_type_id":"4","last_reported":1773390479,"current_range_meters":31200,"station_id":"ce4bh012rcd13ifvqd00","pricing_plan_id":"cebpf4jnsgd1na2vs0mg"},{"bike_id":"7ebd4fe4-bd51-4cb0-ad79-c4b5beaa245d","system_id":"levelo_inurba_marseille","lat":43.26189,"lon":5.37923,"is_reserved":false,"is_disabled":false,"rental_uris":{"android":"levelo://app?vid=7ebd4fe4-bd51-4cb0-ad79-c4b5beaa245d","ios":"levelo://app?vid=7ebd4fe4-bd51-4cb0-ad79-c4b5beaa245d"},"vehicle_type_id":"4","last_reported":1773390479,"current_range_meters":40000,"station_id":"ce4bhjp2rcd13ifvqg90","pricing_plan_id":"cebpf4jnsgd1na2vs0mg"},{"bike_id":"6737ca02-2d43-49c4-a10a-3e68cea6b2e2","system_id":"levelo_inurba_marseille","lat":43.29756,"lon":5.42772,"is_reserved":false,"is_disabled":false,"rental_uris":{"android":"levelo://app?vid=6737ca02-2d43-49c4-a10a-3e68cea6b2e2","ios":"levelo://app?vid=6737ca02-2d43-49c4-a10a-3e68cea6b2e2"},"vehicle_type_id":"4","last_reported":1773390479,"current_range_meters":32000,"station_id":"st_d3md5207bmas73dh9klg","pricing_plan_id":"cebpf4jnsgd1na2vs0mg"},{"bike_id":"8538cacb-65ac-4661-8450-fd941a926a5b","system_id":"levelo_inurba_marseille","lat":43.30469,"lon":5.37906,"is_reserved":false,"is_disabled":false,"rental_uris":{"android":"levelo://app?vid=8538cacb-65ac-4661-8450-fd941a926a5b","ios":"levelo://app?vid=8538cacb-65ac-4661-8450-fd941a926a5b"},"vehicle_type_id":"4","last_reported":1773390479,"current_range_meters":14000,"station_id":"ce4bgup2rcd13ifvqcn0","pricing_plan_id":"cebpf4jnsgd1na2vs0mg"},{"bike_id":"61d17a9a-a13c-45e9-a277-495a8d0f82a3","system_id":"levelo_inurba_marseille","lat":43.24384,"lon":5.37053,"is_reserved":false,"is_disabled":true,"rental_uris":{"android":"levelo://app?vid=61d17a9a-a13c-45e9-a277-495a8d0f82a3","ios":"levelo://app?vid=61d17a9a-a13c-45e9-a277-495a8d0f82a3"},"vehicle_type_id":"4","last_reported":1773390479,"current_range_meters":0,"station_id":"ce4bhhh2rcd13ifvqfk0","pricing_plan_id":"cebpf4jnsgd1na2vs0mg"},{"bike_id":"924c7a18-6a2d-4754-b7a0-e31a3aad1d5a","system_id":"levelo_inurba_marseille","lat":43.2922,"lon":5.36061,"is_reserved":false,"is_disabled":false,"rental_uris":{"android":"levelo://app?vid=924c7a18-6a2d-4754-b7a0-e31a3aad1d5a","ios":"levelo://app?vid=924c7a18-6a2d-4754-b7a0-e31a3aad1d5a"},"vehicle_type_id":"4","last_reported":1773390479,"current_range_meters":7200,"station_id":"ce4bhbh2rcd13ifvqeqg","pricing_plan_id":"cebpf4jnsgd1na2vs0mg"},{"bike_id":"50251ffc-95ae-4419-96f2-c7a4d8e00c25","system_id":"levelo_inurba_marseille","lat":43.28684,"lon":5.39986,"is_reserved":false,"is_disabled":false,"rental_uris":{"android":"levelo://app?vid=50251ffc-95ae-4419-96f2-c7a4d8e00c25","ios":"levelo://app?vid=50251ffc-95ae-4419-96f2-c7a4d8e00c25"},"vehicle_type_id":"4","last_reported":1773390479,"current_range_meters":40000,"station_id":"ce4bho92rcd13ifvqh3g","pricing_plan_id":"cebpf4jnsgd1na2vs0mg"},{"bike_id":"66d1dbc0-3c43-4fbe-ae87-86bd2eb4001b","system_id":"levelo_inurba_marseille","lat":43.28471,"lon":5.38433,"is_reserved":false,"is_disabled":false,"rental_uris":{"android":"levelo://app?vid=66d1dbc0-3c43-4fbe-ae87-86bd2eb4001b","ios":"levelo://app?vid=66d1dbc0-3c43-4fbe-ae87-86bd2eb4001b"},"vehicle_type_id":"4","last_reported":1773390479,"current_range_meters":39200,"station_id":"ce4bh512rcd13ifvqe3g","pricing_plan_id":"cebpf4jnsgd1na2vs0mg"},{"bike_id":"1b8a7c0d-6fe5-4043-acf8-09d74c1261de","system_id":"levelo_inurba_marseille","lat":43.29636,"lon":5.40619,"is_reserved":false,"is_disabled":false,"rental_uris":{"android":"levelo://app?vid=1b8a7c0d-6fe5-4043-acf8-09d74c1261de","ios":"levelo://app?vid=1b8a7c0d-6fe5-4043-acf8-09d74c1261de"},"vehicle_type_id":"4","last_reported":1773390479,"current_range_meters":35600,"station_id":"ce4bh0h2rcd13ifvqd60","pricing_plan_id":"cebpf4jnsgd1na2vs0mg"},{"bike_id":"9769682f-7437-4429-a488-336659c4c35c","system_id":"levelo_inurba_marseille","lat":43.24176,"lon":5.39727,"is_reserved":false,"is_disabled":false,"rental_uris":{"android":"levelo://app?vid=9769682f-7437-4429-a488-336659c4c35c","ios":"levelo://app?vid=9769682f-7437-4429-a488-336659c4c35c"},"vehicle_type_id":"4","last_reported":1773390479,"current_range_meters":23200,"station_id":"ce4bhn12rcd13ifvqgpg","pricing_plan_id":"cebpf4jnsgd1na2vs0mg"},{"bike_id":"68e11dcd-1fc6-4315-b0f8-44e02470960c","system_id":"levelo_inurba_marseille","lat":43.28524,"lon":5.44112,"is_reserved":false,"is_disabled":false,"rental_uris":{"android":"levelo://app?vid=68e11dcd-1fc6-4315-b0f8-44e02470960c","ios":"levelo://app?vid=68e11dcd-1fc6-4315-b0f8-44e02470960c"},"vehicle_type_id":"4","last_reported":1773390479,"current_range_meters":35600,"station_id":"st_d3j3df2ikq2c7380ej80","pricing_plan_id":"cebpf4jnsgd1na2vs0mg"},{"bike_id":"6b04a07b-dff0-4570-b779-895cef5f817f","system_id":"levelo_inurba_marseille","lat":43.26216,"lon":5.38851,"is_reserved":false,"is_disabled":false,"rental_uris":{"android":"levelo://app?vid=6b04a07b-dff0-4570-b779-895cef5f817f","ios":"levelo://app?vid=6b04a07b-dff0-4570-b779-895cef5f817f"},"vehicle_type_id":"4","last_reported":1773390479,"current_range_meters":24800,"station_id":"","pricing_plan_id":"cebpf4jnsgd1na2vs0mg"},{"bike_id":"38c8a2aa-aaf2-42ca-bf6f-cbe44ad62d9a","system_id":"levelo_inurba_marseille","lat":43.29014,"lon":5.39994,"is_reserved":false,"is_disabled":false,"rental_uris":{"android":"levelo://app?vid=38c8a2aa-aaf2-42ca-bf6f-cbe44ad62d9a","ios":"levelo://app?vid=38c8a2aa-aaf2-42ca-bf6f-cbe44ad62d9a"},"vehicle_type_id":"4","last_reported":1773390479,"current_range_meters":38000,"station_id":"ce4bh392rcd13ifvqdm0","pricing_plan_id":"cebpf4jnsgd1na2vs0mg"},{"bike_id":"32358ead-44ff-491d-882b-0c4122b7d796","system_id":"levelo_inurba_marseille","lat":43.21189,"lon":5.35068,"is_reserved":false,"is_disabled":false,"rental_uris":{"android":"levelo://app?vid=32358ead-44ff-491d-882b-0c4122b7d796","ios":"levelo://app?vid=32358ead-44ff-491d-882b-0c4122b7d796"},"vehicle_type_id":"4","last_reported":1773390479,"current_range_meters":9200,"station_id":"st_cvj6sg6p6f1abm77japg","pricing_plan_id":"cebpf4jnsgd1na2vs0mg"},{"bike_id":"88baf1fe-4b9b-4c52-81f7-dd067c921a9f","system_id":"levelo_inurba_marseille","lat":43.29835,"lon":5.44062,"is_reserved":false,"is_disabled":false,"rental_uris":{"android":"levelo://app?vid=88baf1fe-4b9b-4c52-81f7-dd067c921a9f","ios":"levelo://app?vid=88baf1fe-4b9b-4c52-81f7-dd067c921a9f"},"vehicle_type_id":"4","last_reported":1773390479,"current_range_meters":17200,"station_id":"st_d3jp68qikq2c7381ktn0","pricing_plan_id":"cebpf4jnsgd1na2vs0mg"},{"bike_id":"2295942c-f5e6-4af6-81d7-61f89c2bae1b","system_id":"levelo_inurba_marseille","lat":43.28715,"lon":5.37926,"is_reserved":false,"is_disabled":false,"rental_uris":{"android":"levelo://app?vid=2295942c-f5e6-4af6-81d7-61f89c2bae1b","ios":"levelo://app?vid=2295942c-f5e6-4af6-81d7-61f89c2bae1b"},"vehicle_type_id":"4","last_reported":1773390479,"current_range_meters":35600,"station_id":"ce4bh9p2rcd13ifvqec0","pricing_plan_id":"cebpf4jnsgd1na2vs0mg"},{"bike_id":"3fe9ee8f-02f5-45ab-ab2f-88a189618cd0","system_id":"levelo_inurba_marseille","lat":43.30957,"lon":5.39052,"is_reserved":false,"is_disabled":false,"rental_uris":{"android":"levelo://app?vid=3fe9ee8f-02f5-45ab-ab2f-88a189618cd0","ios":"levelo://app?vid=3fe9ee8f-02f5-45ab-ab2f-88a189618cd0"},"vehicle_type_id":"4","last_reported":1773390479,"current_range_meters":38000,"station_id":"ce4bgup2rcd13ifvqco0","pricing_plan_id":"cebpf4jnsgd1na2vs0mg"},{"bike_id":"cf76cd83-21b4-4e98-ae5a-fd0ea800a53a","system_id":"levelo_inurba_marseille","lat":43.27402,"lon":5.39407,"is_reserved":false,"is_disabled":false,"rental_uris":{"android":"levelo://app?vid=cf76cd83-21b4-4e98-ae5a-fd0ea800a53a","ios":"levelo://app?vid=cf76cd83-21b4-4e98-ae5a-fd0ea800a53a"},"vehicle_type_id":"4","last_reported":1773390479,"current_range_meters":14000,"station_id":"ce4bhdp2rcd13ifvqf20","pricing_plan_id":"cebpf4jnsgd1na2vs0mg"},{"bike_id":"5fc9a2f1-831b-4132-8f90-a9000c7e5ec7","system_id":"levelo_inurba_marseille","lat":43.28627,"lon":5.35125,"is_reserved":false,"is_disabled":false,"rental_uris":{"android":"levelo://app?vid=5fc9a2f1-831b-4132-8f90-a9000c7e5ec7","ios":"levelo://app?vid=5fc9a2f1-831b-4132-8f90-a9000c7e5ec7"},"vehicle_type_id":"4","last_reported":1773390479,"current_range_meters":13600,"station_id":"ce4bhch2rcd13ifvqeug","pricing_plan_id":"cebpf4jnsgd1na2vs0mg"},{"bike_id":"2a70739b-6b93-4c69-94ea-e4d88e7fb1ad","system_id":"levelo_inurba_marseille","lat":43.29258,"lon":5.37618,"is_reserved":false,"is_disabled":false,"rental_uris":{"android":"levelo://app?vid=2a70739b-6b93-4c69-94ea-e4d88e7fb1ad","ios":"levelo://app?vid=2a70739b-6b93-4c69-94ea-e4d88e7fb1ad"},"vehicle_type_id":"4","last_reported":1773390479,"current_range_meters":27200,"station_id":"ce4bgi12rcd13ifvqb80","pricing_plan_id":"cebpf4jnsgd1na2vs0mg"},{"bike_id":"1ad2310d-189b-45fc-b3cd-76a208e00c73","system_id":"levelo_inurba_marseille","lat":43.24152,"lon":5.39717,"is_reserved":false,"is_disabled":false,"rental_uris":{"android":"levelo://app?vid=1ad2310d-189b-45fc-b3cd-76a208e00c73","ios":"levelo://app?vid=1ad2310d-189b-45fc-b3cd-76a208e00c73"},"vehicle_type_id":"4","last_reported":1773390479,"current_range_meters":19200,"station_id":"ce4bhn12rcd13ifvqgpg","pricing_plan_id":"cebpf4jnsgd1na2vs0mg"},{"bike_id":"cbf3c1c8-949f-47c5-8ffa-840c4c8920af","system_id":"levelo_inurba_marseille","lat":43.31366,"lon":5.36706,"is_reserved":false,"is_disabled":false,"rental_uris":{"android":"levelo://app?vid=cbf3c1c8-949f-47c5-8ffa-840c4c8920af","ios":"levelo://app?vid=cbf3c1c8-949f-47c5-8ffa-840c4c8920af"},"vehicle_type_id":"4","last_reported":1773390479,"current_range_meters":37600,"station_id":"ce4bgr92rcd13ifvqc6g","pricing_plan_id":"cebpf4jnsgd1na2vs0mg"},{"bike_id":"b9f80436-b025-4780-b392-7d89975f7b62","system_id":"levelo_inurba_marseille","lat":43.27397,"lon":5.42497,"is_reserved":false,"is_disabled":false,"rental_uris":{"android":"levelo://app?vid=b9f80436-b025-4780-b392-7d89975f7b62","ios":"levelo://app?vid=b9f80436-b025-4780-b392-7d89975f7b62"},"vehicle_type_id":"4","last_reported":1773390479,"current_range_meters":27200,"station_id":"","pricing_plan_id":"cebpf4jnsgd1na2vs0mg"},{"bike_id":"0bec3ffa-fac6-41f6-ab3f-bcb1eadcb08a","system_id":"levelo_inurba_marseille","lat":43.31719,"lon":5.42405,"is_reserved":false,"is_disabled":false,"rental_uris":{"android":"levelo://app?vid=0bec3ffa-fac6-41f6-ab3f-bcb1eadcb08a","ios":"levelo://app?vid=0bec3ffa-fac6-41f6-ab3f-bcb1eadcb08a"},"vehicle_type_id":"4","last_reported":1773390479,"current_range_meters":30400,"station_id":"ce4bhp92rcd13ifvqhbg","pricing_plan_id":"cebpf4jnsgd1na2vs0mg"},{"bike_id":"5027bad3-e349-4f82-8455-86668ef30a4e","system_id":"levelo_inurba_marseille","lat":43.27029,"lon":5.40271,"is_reserved":false,"is_disabled":false,"rental_uris":{"android":"levelo://app?vid=5027bad3-e349-4f82-8455-86668ef30a4e","ios":"levelo://app?vid=5027bad3-e349-4f82-8455-86668ef30a4e"},"vehicle_type_id":"4","last_reported":1773390479,"current_range_meters":24400,"station_id":"ce4bhk92rcd13ifvqgc0","pricing_plan_id":"cebpf4jnsgd1na2vs0mg"},{"bike_id":"9b57ef12-50f9-4a40-ab24-2c998c31d347","system_id":"levelo_inurba_marseille","lat":43.2956,"lon":5.3751,"is_reserved":false,"is_disabled":false,"rental_uris":{"android":"levelo://app?vid=9b57ef12-50f9-4a40-ab24-2c998c31d347","ios":"levelo://app?vid=9b57ef12-50f9-4a40-ab24-2c998c31d347"},"vehicle_type_id":"4","last_reported":1773390479,"current_range_meters":40000,"station_id":"ce4bgh92rcd13ifvqb50","pricing_plan_id":"cebpf4jnsgd1na2vs0mg"},{"bike_id":"8c1214cb-4163-415d-a296-9078e784ee11","system_id":"levelo_inurba_marseille","lat":43.2731,"lon":5.39085,"is_reserved":false,"is_disabled":false,"rental_uris":{"android":"levelo://app?vid=8c1214cb-4163-415d-a296-9078e784ee11","ios":"levelo://app?vid=8c1214cb-4163-415d-a296-9078e784ee11"},"vehicle_type_id":"4","last_reported":1773390479,"current_range_meters":28000,"station_id":"ce4bhgp2rcd13ifvqfe0","pricing_plan_id":"cebpf4jnsgd1na2vs0mg"},{"bike_id":"ae5a0365-5ee5-4329-b395-b2e15774e64d","system_id":"levelo_inurba_marseille","lat":43.24201,"lon":5.39741,"is_reserved":false,"is_disabled":true,"rental_uris":{"android":"levelo://app?vid=ae5a0365-5ee5-4329-b395-b2e15774e64d","ios":"levelo://app?vid=ae5a0365-5ee5-4329-b395-b2e15774e64d"},"vehicle_type_id":"4","last_reported":1773390479,"current_range_meters":3200,"station_id":"ce4bhn12rcd13ifvqgpg","pricing_plan_id":"cebpf4jnsgd1na2vs0mg"},{"bike_id":"1682d056-fdab-4527-af67-8d06aa137368","system_id":"levelo_inurba_marseille","lat":43.23369,"lon":5.41247,"is_reserved":false,"is_disabled":false,"rental_uris":{"android":"levelo://app?vid=1682d056-fdab-4527-af67-8d06aa137368","ios":"levelo://app?vid=1682d056-fdab-4527-af67-8d06aa137368"},"vehicle_type_id":"4","last_reported":1773390479,"current_range_meters":27200,"station_id":"","pricing_plan_id":"cebpf4jnsgd1na2vs0mg"},{"bike_id":"d6020f80-4f12-4b16-9868-71a9b4fcf4bf","system_id":"levelo_inurba_marseille","lat":43.30457,"lon":5.37909,"is_reserved":false,"is_disabled":false,"rental_uris":{"android":"levelo://app?vid=d6020f80-4f12-4b16-9868-71a9b4fcf4bf","ios":"levelo://app?vid=d6020f80-4f12-4b16-9868-71a9b4fcf4bf"},"vehicle_type_id":"4","last_reported":1773390479,"current_range_meters":38800,"station_id":"ce4bgup2rcd13ifvqcn0","pricing_plan_id":"cebpf4jnsgd1na2vs0mg"},{"bike_id":"4ef83d71-82ec-4866-ba31-1fac4259f74f","system_id":"levelo_inurba_marseille","lat":43.30897,"lon":5.36862,"is_reserved":false,"is_disabled":false,"rental_uris":{"android":"levelo://app?vid=4ef83d71-82ec-4866-ba31-1fac4259f74f","ios":"levelo://app?vid=4ef83d71-82ec-4866-ba31-1fac4259f74f"},"vehicle_type_id":"4","last_reported":1773390479,"current_range_meters":22800,"station_id":"ce4bgn92rcd13ifvqbvg","pricing_plan_id":"cebpf4jnsgd1na2vs0mg"},{"bike_id":"77104936-f36f-4a1c-b5f6-9be1e7ca6ed3","system_id":"levelo_inurba_marseille","lat":43.33565,"lon":5.37449,"is_reserved":false,"is_disabled":false,"rental_uris":{"android":"levelo://app?vid=77104936-f36f-4a1c-b5f6-9be1e7ca6ed3","ios":"levelo://app?vid=77104936-f36f-4a1c-b5f6-9be1e7ca6ed3"},"vehicle_type_id":"4","last_reported":1773390479,"current_range_meters":30000,"station_id":"st_d46tts09ee8s73dlu43g","pricing_plan_id":"cebpf4jnsgd1na2vs0mg"},{"bike_id":"2c081adf-bb88-4cfc-b739-ae56fac7872a","system_id":"levelo_inurba_marseille","lat":43.28946,"lon":5.36383,"is_reserved":false,"is_disabled":false,"rental_uris":{"android":"levelo://app?vid=2c081adf-bb88-4cfc-b739-ae56fac7872a","ios":"levelo://app?vid=2c081adf-bb88-4cfc-b739-ae56fac7872a"},"vehicle_type_id":"4","last_reported":1773390479,"current_range_meters":32800,"station_id":"ce4bhc92rcd13ifvqetg","pricing_plan_id":"cebpf4jnsgd1na2vs0mg"},{"bike_id":"57b036cb-9640-4994-9130-af549bbcf17d","system_id":"levelo_inurba_marseille","lat":43.2742,"lon":5.39437,"is_reserved":false,"is_disabled":false,"rental_uris":{"android":"levelo://app?vid=57b036cb-9640-4994-9130-af549bbcf17d","ios":"levelo://app?vid=57b036cb-9640-4994-9130-af549bbcf17d"},"vehicle_type_id":"4","last_reported":1773390479,"current_range_meters":28000,"station_id":"ce4bhdp2rcd13ifvqf20","pricing_plan_id":"cebpf4jnsgd1na2vs0mg"},{"bike_id":"69e05900-50f6-42b8-90dd-e1c9c6f8e7da","system_id":"levelo_inurba_marseille","lat":43.25823,"lon":5.39442,"is_reserved":false,"is_disabled":false,"rental_uris":{"android":"levelo://app?vid=69e05900-50f6-42b8-90dd-e1c9c6f8e7da","ios":"levelo://app?vid=69e05900-50f6-42b8-90dd-e1c9c6f8e7da"},"vehicle_type_id":"4","last_reported":1773390479,"current_range_meters":34000,"station_id":"ce4bhip2rcd13ifvqft0","pricing_plan_id":"cebpf4jnsgd1na2vs0mg"},{"bike_id":"ea304849-fd51-4961-bfc0-efabcbe3b6ad","system_id":"levelo_inurba_marseille","lat":43.23374,"lon":5.41243,"is_reserved":false,"is_disabled":false,"rental_uris":{"android":"levelo://app?vid=ea304849-fd51-4961-bfc0-efabcbe3b6ad","ios":"levelo://app?vid=ea304849-fd51-4961-bfc0-efabcbe3b6ad"},"vehicle_type_id":"4","last_reported":1773390479,"current_range_meters":20400,"station_id":"","pricing_plan_id":"cebpf4jnsgd1na2vs0mg"},{"bike_id":"c514af3d-99f3-462a-a5ff-b0c3a231404d","system_id":"levelo_inurba_marseille","lat":43.31376,"lon":5.36705,"is_reserved":false,"is_disabled":false,"rental_uris":{"android":"levelo://app?vid=c514af3d-99f3-462a-a5ff-b0c3a231404d","ios":"levelo://app?vid=c514af3d-99f3-462a-a5ff-b0c3a231404d"},"vehicle_type_id":"4","last_reported":1773390479,"current_range_meters":36800,"station_id":"ce4bgr92rcd13ifvqc6g","pricing_plan_id":"cebpf4jnsgd1na2vs0mg"},{"bike_id":"e1ecfde2-cf8b-4901-b3fd-fec56d50d524","system_id":"levelo_inurba_marseille","lat":43.325,"lon":5.38299,"is_reserved":false,"is_disabled":false,"rental_uris":{"android":"levelo://app?vid=e1ecfde2-cf8b-4901-b3fd-fec56d50d524","ios":"levelo://app?vid=e1ecfde2-cf8b-4901-b3fd-fec56d50d524"},"vehicle_type_id":"4","last_reported":1773390479,"current_range_meters":19200,"station_id":"st_d4asgbiv49dc73anf9m0","pricing_plan_id":"cebpf4jnsgd1na2vs0mg"},{"bike_id":"52c0e189-e831-4c3c-a72a-ee2208e9bced","system_id":"levelo_inurba_marseille","lat":43.33165,"lon":5.37692,"is_reserved":false,"is_disabled":false,"rental_uris":{"android":"levelo://app?vid=52c0e189-e831-4c3c-a72a-ee2208e9bced","ios":"levelo://app?vid=52c0e189-e831-4c3c-a72a-ee2208e9bced"},"vehicle_type_id":"4","last_reported":1773390479,"current_range_meters":33200,"station_id":"st_d46cu089ee8s73dldbu0","pricing_plan_id":"cebpf4jnsgd1na2vs0mg"},{"bike_id":"8617b24d-bdd2-49e3-beda-5d74fc474252","system_id":"levelo_inurba_marseille","lat":43.28462,"lon":5.48391,"is_reserved":false,"is_disabled":false,"rental_uris":{"android":"levelo://app?vid=8617b24d-bdd2-49e3-beda-5d74fc474252","ios":"levelo://app?vid=8617b24d-bdd2-49e3-beda-5d74fc474252"},"vehicle_type_id":"4","last_reported":1773390479,"current_range_meters":30400,"station_id":"","pricing_plan_id":"cebpf4jnsgd1na2vs0mg"},{"bike_id":"fa2bba8a-18e3-4b70-aead-eb8340ccd9cb","system_id":"levelo_inurba_marseille","lat":43.23392,"lon":5.41229,"is_reserved":false,"is_disabled":false,"rental_uris":{"android":"levelo://app?vid=fa2bba8a-18e3-4b70-aead-eb8340ccd9cb","ios":"levelo://app?vid=fa2bba8a-18e3-4b70-aead-eb8340ccd9cb"},"vehicle_type_id":"4","last_reported":1773390479,"current_range_meters":28400,"station_id":"","pricing_plan_id":"cebpf4jnsgd1na2vs0mg"},{"bike_id":"86d6c4db-b62d-4582-baf3-08c0049a5c86","system_id":"levelo_inurba_marseille","lat":43.2959,"lon":5.38105,"is_reserved":false,"is_disabled":false,"rental_uris":{"android":"levelo://app?vid=86d6c4db-b62d-4582-baf3-08c0049a5c86","ios":"levelo://app?vid=86d6c4db-b62d-4582-baf3-08c0049a5c86"},"vehicle_type_id":"4","last_reported":1773390479,"current_range_meters":37600,"station_id":"ce4bgl12rcd13ifvqbo0","pricing_plan_id":"cebpf4jnsgd1na2vs0mg"},{"bike_id":"a26c5bd0-2bf3-49c3-94eb-e3465be0f61b","system_id":"levelo_inurba_marseille","lat":43.29563,"lon":5.3751,"is_reserved":false,"is_disabled":true,"rental_uris":{"android":"levelo://app?vid=a26c5bd0-2bf3-49c3-94eb-e3465be0f61b","ios":"levelo://app?vid=a26c5bd0-2bf3-49c3-94eb-e3465be0f61b"},"vehicle_type_id":"4","last_reported":1773390479,"current_range_meters":1200,"station_id":"ce4bgh92rcd13ifvqb50","pricing_plan_id":"cebpf4jnsgd1na2vs0mg"},{"bike_id":"2c4b9baa-150c-43c0-9983-79477495e674","system_id":"levelo_inurba_marseille","lat":43.33029,"lon":5.39011,"is_reserved":false,"is_disabled":false,"rental_uris":{"android":"levelo://app?vid=2c4b9baa-150c-43c0-9983-79477495e674","ios":"levelo://app?vid=2c4b9baa-150c-43c0-9983-79477495e674"},"vehicle_type_id":"4","last_reported":1773390479,"current_range_meters":8000,"station_id":"ce4bhr92rcd13ifvqhrg","pricing_plan_id":"cebpf4jnsgd1na2vs0mg"},{"bike_id":"e2f07328-8d63-4898-a685-6824fc31e404","system_id":"levelo_inurba_marseille","lat":43.27069,"lon":5.40258,"is_reserved":false,"is_disabled":false,"rental_uris":{"android":"levelo://app?vid=e2f07328-8d63-4898-a685-6824fc31e404","ios":"levelo://app?vid=e2f07328-8d63-4898-a685-6824fc31e404"},"vehicle_type_id":"4","last_reported":1773390479,"current_range_meters":38000,"station_id":"ce4bhk92rcd13ifvqgc0","pricing_plan_id":"cebpf4jnsgd1na2vs0mg"},{"bike_id":"e0f4c726-c891-4b59-a727-5f7bf2fb4325","system_id":"levelo_inurba_marseille","lat":43.28505,"lon":5.44067,"is_reserved":false,"is_disabled":false,"rental_uris":{"android":"levelo://app?vid=e0f4c726-c891-4b59-a727-5f7bf2fb4325","ios":"levelo://app?vid=e0f4c726-c891-4b59-a727-5f7bf2fb4325"},"vehicle_type_id":"4","last_reported":1773390479,"current_range_meters":5600,"station_id":"st_d3j3df2ikq2c7380ej80","pricing_plan_id":"cebpf4jnsgd1na2vs0mg"},{"bike_id":"fea054e9-9687-462f-a721-42a34c23bbef","system_id":"levelo_inurba_marseille","lat":43.24672,"lon":5.3818,"is_reserved":false,"is_disabled":false,"rental_uris":{"android":"levelo://app?vid=fea054e9-9687-462f-a721-42a34c23bbef","ios":"levelo://app?vid=fea054e9-9687-462f-a721-42a34c23bbef"},"vehicle_type_id":"4","last_reported":1773390479,"current_range_meters":13600,"station_id":"ce4bhih2rcd13ifvqfr0","pricing_plan_id":"cebpf4jnsgd1na2vs0mg"},{"bike_id":"3d4208c2-815f-40bf-8bb0-f78b87ee07d6","system_id":"levelo_inurba_marseille","lat":43.28422,"lon":5.34992,"is_reserved":false,"is_disabled":false,"rental_uris":{"android":"levelo://app?vid=3d4208c2-815f-40bf-8bb0-f78b87ee07d6","ios":"levelo://app?vid=3d4208c2-815f-40bf-8bb0-f78b87ee07d6"},"vehicle_type_id":"4","last_reported":1773390479,"current_range_meters":38400,"station_id":"ce4bhbh2rcd13ifvqepg","pricing_plan_id":"cebpf4jnsgd1na2vs0mg"},{"bike_id":"f516d8f7-b497-4c5a-a65d-b7f43298643e","system_id":"levelo_inurba_marseille","lat":43.27626,"lon":5.36122,"is_reserved":false,"is_disabled":false,"rental_uris":{"android":"levelo://app?vid=f516d8f7-b497-4c5a-a65d-b7f43298643e","ios":"levelo://app?vid=f516d8f7-b497-4c5a-a65d-b7f43298643e"},"vehicle_type_id":"4","last_reported":1773390479,"current_range_meters":38000,"station_id":"ce4bgj92rcd13ifvqbe0","pricing_plan_id":"cebpf4jnsgd1na2vs0mg"},{"bike_id":"0ade407e-4211-4e89-8c0d-dbdf9b61948a","system_id":"levelo_inurba_marseille","lat":43.2902,"lon":5.39981,"is_reserved":false,"is_disabled":false,"rental_uris":{"android":"levelo://app?vid=0ade407e-4211-4e89-8c0d-dbdf9b61948a","ios":"levelo://app?vid=0ade407e-4211-4e89-8c0d-dbdf9b61948a"},"vehicle_type_id":"4","last_reported":1773390479,"current_range_meters":30000,"station_id":"ce4bh392rcd13ifvqdm0","pricing_plan_id":"cebpf4jnsgd1na2vs0mg"},{"bike_id":"a4a39576-d5dd-40ab-8a75-a71d7099bc45","system_id":"levelo_inurba_marseille","lat":43.30441,"lon":5.38895,"is_reserved":false,"is_disabled":false,"rental_uris":{"android":"levelo://app?vid=a4a39576-d5dd-40ab-8a75-a71d7099bc45","ios":"levelo://app?vid=a4a39576-d5dd-40ab-8a75-a71d7099bc45"},"vehicle_type_id":"4","last_reported":1773390479,"current_range_meters":17200,"station_id":"ce4bgk12rcd13ifvqbi0","pricing_plan_id":"cebpf4jnsgd1na2vs0mg"},{"bike_id":"33c9ecd3-484e-4b28-86e5-fb9ce12f5004","system_id":"levelo_inurba_marseille","lat":43.29199,"lon":5.39318,"is_reserved":false,"is_disabled":false,"rental_uris":{"android":"levelo://app?vid=33c9ecd3-484e-4b28-86e5-fb9ce12f5004","ios":"levelo://app?vid=33c9ecd3-484e-4b28-86e5-fb9ce12f5004"},"vehicle_type_id":"4","last_reported":1773390479,"current_range_meters":34800,"station_id":"ce4bh192rcd13ifvqdd0","pricing_plan_id":"cebpf4jnsgd1na2vs0mg"},{"bike_id":"04d16ef4-39d1-4e51-b75d-bfa218adb8ad","system_id":"levelo_inurba_marseille","lat":43.30895,"lon":5.37329,"is_reserved":false,"is_disabled":false,"rental_uris":{"android":"levelo://app?vid=04d16ef4-39d1-4e51-b75d-bfa218adb8ad","ios":"levelo://app?vid=04d16ef4-39d1-4e51-b75d-bfa218adb8ad"},"vehicle_type_id":"4","last_reported":1773390479,"current_range_meters":25600,"station_id":"","pricing_plan_id":"cebpf4jnsgd1na2vs0mg"},{"bike_id":"08ec0bd7-db6c-4004-87ba-401b19a3211e","system_id":"levelo_inurba_marseille","lat":43.26548,"lon":5.39034,"is_reserved":false,"is_disabled":false,"rental_uris":{"android":"levelo://app?vid=08ec0bd7-db6c-4004-87ba-401b19a3211e","ios":"levelo://app?vid=08ec0bd7-db6c-4004-87ba-401b19a3211e"},"vehicle_type_id":"4","last_reported":1773390479,"current_range_meters":17600,"station_id":"ce4bhe12rcd13ifvqf30","pricing_plan_id":"cebpf4jnsgd1na2vs0mg"},{"bike_id":"11ccfc01-877a-4994-be98-f3ad4aeb1911","system_id":"levelo_inurba_marseille","lat":43.26691,"lon":5.38255,"is_reserved":false,"is_disabled":false,"rental_uris":{"android":"levelo://app?vid=11ccfc01-877a-4994-be98-f3ad4aeb1911","ios":"levelo://app?vid=11ccfc01-877a-4994-be98-f3ad4aeb1911"},"vehicle_type_id":"4","last_reported":1773390479,"current_range_meters":30400,"station_id":"ce4bhg92rcd13ifvqf90","pricing_plan_id":"cebpf4jnsgd1na2vs0mg"},{"bike_id":"5a390fd0-1a67-4363-9778-5fe8c3144f22","system_id":"levelo_inurba_marseille","lat":43.30369,"lon":5.42476,"is_reserved":false,"is_disabled":false,"rental_uris":{"android":"levelo://app?vid=5a390fd0-1a67-4363-9778-5fe8c3144f22","ios":"levelo://app?vid=5a390fd0-1a67-4363-9778-5fe8c3144f22"},"vehicle_type_id":"4","last_reported":1773390479,"current_range_meters":28800,"station_id":"ce4bhoh2rcd13ifvqh6g","pricing_plan_id":"cebpf4jnsgd1na2vs0mg"},{"bike_id":"042580e3-7a60-48a3-981d-e4b9f8bc5597","system_id":"levelo_inurba_marseille","lat":43.29219,"lon":5.3606,"is_reserved":false,"is_disabled":false,"rental_uris":{"android":"levelo://app?vid=042580e3-7a60-48a3-981d-e4b9f8bc5597","ios":"levelo://app?vid=042580e3-7a60-48a3-981d-e4b9f8bc5597"},"vehicle_type_id":"4","last_reported":1773390479,"current_range_meters":38400,"station_id":"ce4bhbh2rcd13ifvqeqg","pricing_plan_id":"cebpf4jnsgd1na2vs0mg"},{"bike_id":"9eceae6a-b55f-4b62-bff2-afc78a1dc311","system_id":"levelo_inurba_marseille","lat":43.29208,"lon":5.36104,"is_reserved":false,"is_disabled":false,"rental_uris":{"android":"levelo://app?vid=9eceae6a-b55f-4b62-bff2-afc78a1dc311","ios":"levelo://app?vid=9eceae6a-b55f-4b62-bff2-afc78a1dc311"},"vehicle_type_id":"4","last_reported":1773390479,"current_range_meters":39200,"station_id":"ce4bhbh2rcd13ifvqeqg","pricing_plan_id":"cebpf4jnsgd1na2vs0mg"},{"bike_id":"af8e5322-ad2c-40a6-9013-24689af6ae06","system_id":"levelo_inurba_marseille","lat":43.2799,"lon":5.40022,"is_reserved":false,"is_disabled":false,"rental_uris":{"android":"levelo://app?vid=af8e5322-ad2c-40a6-9013-24689af6ae06","ios":"levelo://app?vid=af8e5322-ad2c-40a6-9013-24689af6ae06"},"vehicle_type_id":"4","last_reported":1773390479,"current_range_meters":24800,"station_id":"ce4bho92rcd13ifvqh4g","pricing_plan_id":"cebpf4jnsgd1na2vs0mg"},{"bike_id":"c863cbfc-fd5a-4fd4-966c-366096207f22","system_id":"levelo_inurba_marseille","lat":43.29026,"lon":5.38651,"is_reserved":false,"is_disabled":true,"rental_uris":{"android":"levelo://app?vid=c863cbfc-fd5a-4fd4-966c-366096207f22","ios":"levelo://app?vid=c863cbfc-fd5a-4fd4-966c-366096207f22"},"vehicle_type_id":"4","last_reported":1773390479,"current_range_meters":22800,"station_id":"ce4bh4p2rcd13ifvqe0g","pricing_plan_id":"cebpf4jnsgd1na2vs0mg"},{"bike_id":"d7300473-fe0c-4712-b685-29e2ff9116c4","system_id":"levelo_inurba_marseille","lat":43.3095,"lon":5.39046,"is_reserved":false,"is_disabled":false,"rental_uris":{"android":"levelo://app?vid=d7300473-fe0c-4712-b685-29e2ff9116c4","ios":"levelo://app?vid=d7300473-fe0c-4712-b685-29e2ff9116c4"},"vehicle_type_id":"4","last_reported":1773390479,"current_range_meters":25600,"station_id":"ce4bgup2rcd13ifvqco0","pricing_plan_id":"cebpf4jnsgd1na2vs0mg"},{"bike_id":"c2dc2457-5071-4b6c-815d-bae644c28cd7","system_id":"levelo_inurba_marseille","lat":43.28929,"lon":5.39637,"is_reserved":false,"is_disabled":false,"rental_uris":{"android":"levelo://app?vid=c2dc2457-5071-4b6c-815d-bae644c28cd7","ios":"levelo://app?vid=c2dc2457-5071-4b6c-815d-bae644c28cd7"},"vehicle_type_id":"4","last_reported":1773390479,"current_range_meters":38400,"station_id":"ce4bh3h2rcd13ifvqdn0","pricing_plan_id":"cebpf4jnsgd1na2vs0mg"},{"bike_id":"6840f6df-3461-42c8-98d7-357f6584e26f","system_id":"levelo_inurba_marseille","lat":43.27369,"lon":5.36254,"is_reserved":false,"is_disabled":false,"rental_uris":{"android":"levelo://app?vid=6840f6df-3461-42c8-98d7-357f6584e26f","ios":"levelo://app?vid=6840f6df-3461-42c8-98d7-357f6584e26f"},"vehicle_type_id":"4","last_reported":1773390479,"current_range_meters":38800,"station_id":"ce4bhbh2rcd13ifvqeo0","pricing_plan_id":"cebpf4jnsgd1na2vs0mg"},{"bike_id":"824fb975-1c56-48f8-a19c-aeedaf1c3bdb","system_id":"levelo_inurba_marseille","lat":43.23131,"lon":5.43714,"is_reserved":false,"is_disabled":false,"rental_uris":{"android":"levelo://app?vid=824fb975-1c56-48f8-a19c-aeedaf1c3bdb","ios":"levelo://app?vid=824fb975-1c56-48f8-a19c-aeedaf1c3bdb"},"vehicle_type_id":"4","last_reported":1773390479,"current_range_meters":20000,"station_id":"ce4bhmp2rcd13ifvqgog","pricing_plan_id":"cebpf4jnsgd1na2vs0mg"},{"bike_id":"b7e7230b-e52b-4c74-8e6e-f21254b56a4a","system_id":"levelo_inurba_marseille","lat":43.29033,"lon":5.39999,"is_reserved":false,"is_disabled":false,"rental_uris":{"android":"levelo://app?vid=b7e7230b-e52b-4c74-8e6e-f21254b56a4a","ios":"levelo://app?vid=b7e7230b-e52b-4c74-8e6e-f21254b56a4a"},"vehicle_type_id":"4","last_reported":1773390479,"current_range_meters":31200,"station_id":"ce4bh392rcd13ifvqdm0","pricing_plan_id":"cebpf4jnsgd1na2vs0mg"},{"bike_id":"5798be69-c424-41d0-a87f-b9e58f62bc12","system_id":"levelo_inurba_marseille","lat":43.3095,"lon":5.39038,"is_reserved":false,"is_disabled":false,"rental_uris":{"android":"levelo://app?vid=5798be69-c424-41d0-a87f-b9e58f62bc12","ios":"levelo://app?vid=5798be69-c424-41d0-a87f-b9e58f62bc12"},"vehicle_type_id":"4","last_reported":1773390479,"current_range_meters":38400,"station_id":"ce4bgup2rcd13ifvqco0","pricing_plan_id":"cebpf4jnsgd1na2vs0mg"},{"bike_id":"6a40ed30-475d-4797-afd3-3698b0279755","system_id":"levelo_inurba_marseille","lat":43.34124,"lon":5.40877,"is_reserved":false,"is_disabled":false,"rental_uris":{"android":"levelo://app?vid=6a40ed30-475d-4797-afd3-3698b0279755","ios":"levelo://app?vid=6a40ed30-475d-4797-afd3-3698b0279755"},"vehicle_type_id":"4","last_reported":1773390479,"current_range_meters":39200,"station_id":"ce4bhqh2rcd13ifvqhlg","pricing_plan_id":"cebpf4jnsgd1na2vs0mg"},{"bike_id":"7189398a-c44f-4c26-8898-ed1ba4a6cef9","system_id":"levelo_inurba_marseille","lat":43.28153,"lon":5.42622,"is_reserved":false,"is_disabled":false,"rental_uris":{"android":"levelo://app?vid=7189398a-c44f-4c26-8898-ed1ba4a6cef9","ios":"levelo://app?vid=7189398a-c44f-4c26-8898-ed1ba4a6cef9"},"vehicle_type_id":"4","last_reported":1773390479,"current_range_meters":38400,"station_id":"ce4bhnh2rcd13ifvqgug","pricing_plan_id":"cebpf4jnsgd1na2vs0mg"},{"bike_id":"54e5ab79-af7f-4958-b1e4-35efefa5e997","system_id":"levelo_inurba_marseille","lat":43.28147,"lon":5.37892,"is_reserved":false,"is_disabled":false,"rental_uris":{"android":"levelo://app?vid=54e5ab79-af7f-4958-b1e4-35efefa5e997","ios":"levelo://app?vid=54e5ab79-af7f-4958-b1e4-35efefa5e997"},"vehicle_type_id":"4","last_reported":1773390479,"current_range_meters":6800,"station_id":"","pricing_plan_id":"cebpf4jnsgd1na2vs0mg"},{"bike_id":"5b6dbda1-f5c9-4b57-8cbe-18e8d1853f0e","system_id":"levelo_inurba_marseille","lat":43.29075,"lon":5.39952,"is_reserved":false,"is_disabled":false,"rental_uris":{"android":"levelo://app?vid=5b6dbda1-f5c9-4b57-8cbe-18e8d1853f0e","ios":"levelo://app?vid=5b6dbda1-f5c9-4b57-8cbe-18e8d1853f0e"},"vehicle_type_id":"4","last_reported":1773390479,"current_range_meters":31200,"station_id":"ce4bh392rcd13ifvqdm0","pricing_plan_id":"cebpf4jnsgd1na2vs0mg"},{"bike_id":"4605d0eb-aef4-494c-b103-fe3cbd9a939f","system_id":"levelo_inurba_marseille","lat":43.26063,"lon":5.39394,"is_reserved":false,"is_disabled":false,"rental_uris":{"android":"levelo://app?vid=4605d0eb-aef4-494c-b103-fe3cbd9a939f","ios":"levelo://app?vid=4605d0eb-aef4-494c-b103-fe3cbd9a939f"},"vehicle_type_id":"4","last_reported":1773390479,"current_range_meters":24800,"station_id":"ce4bhh92rcd13ifvqfj0","pricing_plan_id":"cebpf4jnsgd1na2vs0mg"},{"bike_id":"b26a5b6f-c7d4-4ecb-a965-5f0df6878da3","system_id":"levelo_inurba_marseille","lat":43.30136,"lon":5.3741,"is_reserved":false,"is_disabled":false,"rental_uris":{"android":"levelo://app?vid=b26a5b6f-c7d4-4ecb-a965-5f0df6878da3","ios":"levelo://app?vid=b26a5b6f-c7d4-4ecb-a965-5f0df6878da3"},"vehicle_type_id":"4","last_reported":1773390479,"current_range_meters":16800,"station_id":"ce4bgs92rcd13ifvqcc0","pricing_plan_id":"cebpf4jnsgd1na2vs0mg"},{"bike_id":"4ca34fa1-d655-4e9a-9a4c-40464ac80323","system_id":"levelo_inurba_marseille","lat":43.2834,"lon":5.38108,"is_reserved":false,"is_disabled":false,"rental_uris":{"android":"levelo://app?vid=4ca34fa1-d655-4e9a-9a4c-40464ac80323","ios":"levelo://app?vid=4ca34fa1-d655-4e9a-9a4c-40464ac80323"},"vehicle_type_id":"4","last_reported":1773390479,"current_range_meters":38400,"station_id":"ce4bh412rcd13ifvqdr0","pricing_plan_id":"cebpf4jnsgd1na2vs0mg"},{"bike_id":"9727335e-b61a-4523-9101-aea877851cb8","system_id":"levelo_inurba_marseille","lat":43.27883,"lon":5.38013,"is_reserved":false,"is_disabled":false,"rental_uris":{"android":"levelo://app?vid=9727335e-b61a-4523-9101-aea877851cb8","ios":"levelo://app?vid=9727335e-b61a-4523-9101-aea877851cb8"},"vehicle_type_id":"4","last_reported":1773390479,"current_range_meters":16000,"station_id":"ce4bhf92rcd13ifvqf50","pricing_plan_id":"cebpf4jnsgd1na2vs0mg"},