{"last_updated":1736032069,"ttl":60,"version":"2.2","data":{"bikes":[{"bike_id":"8f29603c-5d9a-4bc6-963d-711ada2a168a","system_id":"levelo_inurba_marseille","lat":43.24669,"lon":5.39811,"is_reserved":false,"is_disabled":true,"rental_uris":{"android":"levelo://app?vid=8f29603c-5d9a-4bc6-963d-711ada2a168a","ios":"levelo://app?vid=8f29603c-5d9a-4bc6-963d-711ada2a168a"},"vehicle_type_id":"4","last_reported":1736032069,"current_range_meters":27600,"station_id":"","pricing_plan_id":"cebpf4jnsgd1na2vs0mg"},{"bike_id":"eb00114d-571c-4297-8268-f06ce8f1a863","system_id":"levelo_inurba_marseille","lat":43.28751,"lon":5.3998,"is_reserved":false,"is_disabled":false,"rental_uris":{"android":"levelo://app?vid=eb00114d-571c-4297-8268-f06ce8f1a863","ios":"levelo://app?vid=eb00114d-571c-4297-8268-f06ce8f1a863"},"vehicle_type_id":"4","last_reported":1736032069,"current_range_meters":38800,"station_id":"ce4bho92rcd13ifvqh3g","pricing_plan_id":"cebpf4jnsgd1na2vs0mg"},{"bike_id":"4517f105-c6cd-42b4-a2b8-453f0a872c81","system_id":"levelo_inurba_marseille","lat":43.24667,"lon":5.38156,"is_reserved":false,"is_disabled":false,"rental_uris":{"android":"levelo://app?vid=4517f105-c6cd-42b4-a2b8-453f0a872c81","ios":"levelo://app?vid=4517f105-c6cd-42b4-a2b8-453f0a872c81"},"vehicle_type_id":"4","last_reported":1736032069,"current_range_meters":22800,"station_id":"ce4bhih2rcd13ifvqfr0","pricing_plan_id":"cebpf4jnsgd1na2vs0mg"},{"bike_id":"f0944754-9899-48b4-b17d-52c4d6db885f","system_id":"levelo_inurba_marseille","lat":43.28412,"lon":5.375,"is_reserved":false,"is_disabled":false,"rental_uris":{"android":"levelo://app?vid=f0944754-9899-48b4-b17d-52c4d6db885f","ios":"levelo://app?vid=f0944754-9899-48b4-b17d-52c4d6db885f"},"vehicle_type_id":"4","last_reported":1736032069,"current_range_meters":25600,"station_id":"ce4bh412rcd13ifvqds0","pricing_plan_id":"cebpf4jnsgd1na2vs0mg"},{"bike_id":"a77c06f9-f887-410c-8ba9-f83901dfdc35","system_id":"levelo_inurba_marseille","lat":43.28925,"lon":5.38382,"is_reserved":false,"is_disabled":false,"rental_uris":{"android":"levelo://app?vid=a77c06f9-f887-410c-8ba9-f83901dfdc35","ios":"levelo://app?vid=a77c06f9-f887-410c-8ba9-f83901dfdc35"},"vehicle_type_id":"4","last_reported":1736032069,"current_range_meters":33600,"station_id":"ce4bh612rcd13ifvqe6g","pricing_plan_id":"cebpf4jnsgd1na2vs0mg"},{"bike_id":"2f08c9fc-4d21-46b6-8ae3-3acb81bd9994","system_id":"levelo_inurba_marseille","lat":43.3249,"lon":5.36567,"is_reserved":false,"is_disabled":false,"rental_uris":{"android":"levelo://app?vid=2f08c9fc-4d21-46b6-8ae3-3acb81bd9994","ios":"levelo://app?vid=2f08c9fc-4d21-46b6-8ae3-3acb81bd9994"},"vehicle_type_id":"4","last_reported":1736032069,"current_range_meters":38800,"station_id":"ce4bhs12rcd13ifvqhvg","pricing_plan_id":"cebpf4jnsgd1na2vs0mg"},{"bike_id":"f9d53c10-52e1-470c-9b0e-aa8c8e99c505","system_id":"levelo_inurba_marseille","lat":43.28571,"lon":5.39504,"is_reserved":false,"is_disabled":false,"rental_uris":{"android":"levelo://app?vid=f9d53c10-52e1-470c-9b0e-aa8c8e99c505","ios":"levelo://app?vid=f9d53c10-52e1-470c-9b0e-aa8c8e99c505"},"vehicle_type_id":"4","last_reported":1736032069,"current_range_meters":19600,"station_id":"ce4bh292rcd13ifvqdg0","pricing_plan_id":"cebpf4jnsgd1na2vs0mg"},{"bike_id":"91037f15-fe17-4186-85a2-9e0438c13c3d","system_id":"levelo_inurba_marseille","lat":43.27218,"lon":5.39253,"is_reserved":false,"is_disabled":false,"rental_uris":{"android":"levelo://app?vid=91037f15-fe17-4186-85a2-9e0438c13c3d","ios":"levelo://app?vid=91037f15-fe17-4186-85a2-9e0438c13c3d"},"vehicle_type_id":"4","last_reported":1736032069,"current_range_meters":4800,"station_id":"ce4bhhp2rcd13ifvqfm0","pricing_plan_id":"cebpf4jnsgd1na2vs0mg"},{"bike_id":"da80b03c-3e7a-4b15-8302-17ac5a4477a1","system_id":"levelo_inurba_marseille","lat":43.2992,"lon":5.3748,"is_reserved":false,"is_disabled":false,"rental_uris":{"android":"levelo://app?vid=da80b03c-3e7a-4b15-8302-17ac5a4477a1","ios":"levelo://app?vid=da80b03c-3e7a-4b15-8302-17ac5a4477a1"},"vehicle_type_id":"4","last_reported":1736032069,"current_range_meters":36400,"station_id":"ce4bgjh2rcd13ifvqbg0","pricing_plan_id":"cebpf4jnsgd1na2vs0mg"},{"bike_id":"98063e86-2e1a-460a-8ef5-ff11faf4c9e1","system_id":"levelo_inurba_marseille","lat":43.29775,"lon":5.37089,"is_reserved":false,"is_disabled":false,"rental_uris":{"android":"levelo://app?vid=98063e86-2e1a-460a-8ef5-ff11faf4c9e1","ios":"levelo://app?vid=98063e86-2e1a-460a-8ef5-ff11faf4c9e1"},"vehicle_type_id":"4","last_reported":1736032069,"current_range_meters":24000,"station_id":"ce4bgop2rcd13ifvqc1g","pricing_plan_id":"cebpf4jnsgd1na2vs0mg"},{"bike_id":"36d0910b-d540-4d75-b065-f044cb5b6555","system_id":"levelo_inurba_marseille","lat":43.29603,"lon":5.36745,"is_reserved":false,"is_disabled":false,"rental_uris":{"android":"levelo://app?vid=36d0910b-d540-4d75-b065-f044cb5b6555","ios":"levelo://app?vid=36d0910b-d540-4d75-b065-f044cb5b6555"},"vehicle_type_id":"4","last_reported":1736032069,"current_range_meters":38800,"station_id":"ce4bgph2rcd13ifvqc2g","pricing_plan_id":"cebpf4jnsgd1na2vs0mg"},{"bike_id":"4a2d6c53-65a8-4668-acbf-5900d13e8a7e","system_id":"levelo_inurba_marseille","lat":43.31179,"lon":5.38761,"is_reserved":false,"is_disabled":false,"rental_uris":{"android":"levelo://app?vid=4a2d6c53-65a8-4668-acbf-5900d13e8a7e","ios":"levelo://app?vid=4a2d6c53-65a8-4668-acbf-5900d13e8a7e"},"vehicle_type_id":"4","last_reported":1736032069,"current_range_meters":30800,"station_id":"ce4bgv12rcd13ifvqcp0","pricing_plan_id":"cebpf4jnsgd1na2vs0mg"},{"bike_id":"eb554a29-0db3-442a-bad5-c7e547190322","system_id":"levelo_inurba_marseille","lat":43.30459,"lon":5.37529,"is_reserved":false,"is_disabled":true,"rental_uris":{"android":"levelo://app?vid=eb554a29-0db3-442a-bad5-c7e547190322","ios":"levelo://app?vid=eb554a29-0db3-442a-bad5-c7e547190322"},"vehicle_type_id":"4","last_reported":1736032069,"current_range_meters":0,"station_id":"","pricing_plan_id":"cebpf4jnsgd1na2vs0mg"},{"bike_id":"7d275717-441a-4436-940f-85b40ec180ab","system_id":"levelo_inurba_marseille","lat":43.313957,"lon":5.372014,"is_reserved":false,"is_disabled":false,"rental_uris":{"android":"levelo://app?vid=7d275717-441a-4436-940f-85b40ec180ab","ios":"levelo://app?vid=7d275717-441a-4436-940f-85b40ec180ab"},"vehicle_type_id":"4","last_reported":1736032069,"current_range_meters":18800,"station_id":"","pricing_plan_id":"cebpf4jnsgd1na2vs0mg"},{"bike_id":"bcf0bc77-feb4-4e25-93da-4721812265a5","system_id":"levelo_inurba_marseille","lat":43.29847,"lon":5.3627,"is_reserved":false,"is_disabled":false,"rental_uris":{"android":"levelo://app?vid=bcf0bc77-feb4-4e25-93da-4721812265a5","ios":"levelo://app?vid=bcf0bc77-feb4-4e25-93da-4721812265a5"},"vehicle_type_id":"4","last_reported":1736032069,"current_range_meters":38800,"station_id":"ce4bgpp2rcd13ifvqc3g","pricing_plan_id":"cebpf4jnsgd1na2vs0mg"},{"bike_id":"3219318c-a8dd-450c-b767-094b10a2e823","system_id":"levelo_inurba_marseille","lat":43.29411,"lon":5.38634,"is_reserved":false,"is_disabled":false,"rental_uris":{"android":"levelo://app?vid=3219318c-a8dd-450c-b767-094b10a2e823","ios":"levelo://app?vid=3219318c-a8dd-450c-b767-094b10a2e823"},"vehicle_type_id":"4","last_reported":1736032069,"current_range_meters":38800,"station_id":"ce4bh2h2rcd13ifvqdh0","pricing_plan_id":"cebpf4jnsgd1na2vs0mg"},{"bike_id":"aebbc45c-04c0-4c80-b6a5-56c1582fcd00","system_id":"levelo_inurba_marseille","lat":43.24388,"lon":5.37067,"is_reserved":false,"is_disabled":false,"rental_uris":{"android":"levelo://app?vid=aebbc45c-04c0-4c80-b6a5-56c1582fcd00","ios":"levelo://app?vid=aebbc45c-04c0-4c80-b6a5-56c1582fcd00"},"vehicle_type_id":"4","last_reported":1736032069,"current_range_meters":38000,"station_id":"ce4bhhh2rcd13ifvqfk0","pricing_plan_id":"cebpf4jnsgd1na2vs0mg"},{"bike_id":"63e6bb50-ce1f-4541-be03-12125c98f18d","system_id":"levelo_inurba_marseille","lat":43.28412,"lon":5.37507,"is_reserved":false,"is_disabled":false,"rental_uris":{"android":"levelo://app?vid=63e6bb50-ce1f-4541-be03-12125c98f18d","ios":"levelo://app?vid=63e6bb50-ce1f-4541-be03-12125c98f18d"},"vehicle_type_id":"4","last_reported":1736032069,"current_range_meters":12800,"station_id":"ce4bh412rcd13ifvqds0","pricing_plan_id":"cebpf4jnsgd1na2vs0mg"},{"bike_id":"cfa9ca20-27d4-44a2-a7d9-d2b75ed2f4ac","system_id":"levelo_inurba_marseille","lat":43.31076,"lon":5.38346,"is_reserved":false,"is_disabled":true,"rental_uris":{"android":"levelo://app?vid=cfa9ca20-27d4-44a2-a7d9-d2b75ed2f4ac","ios":"levelo://app?vid=cfa9ca20-27d4-44a2-a7d9-d2b75ed2f4ac"},"vehicle_type_id":"4","last_reported":1736032069,"current_range_meters":9200,"station_id":"ce4bgv92rcd13ifvqcr0","pricing_plan_id":"cebpf4jnsgd1na2vs0mg"},{"bike_id":"2e3020fc-739e-484f-aff1-968aa18f2ac1","system_id":"levelo_inurba_marseille","lat":43.2798,"lon":5.41678,"is_reserved":false,"is_disabled":true,"rental_uris":{"android":"levelo://app?vid=2e3020fc-739e-484f-aff1-968aa18f2ac1","ios":"levelo://app?vid=2e3020fc-739e-484f-aff1-968aa18f2ac1"},"vehicle_type_id":"4","last_reported":1736032069,"current_range_meters":8000,"station_id":"ce4bho12rcd13ifvqh1g","pricing_plan_id":"cebpf4jnsgd1na2vs0mg"},{"bike_id":"f18f8327-b78e-417b-a113-93735f200515","system_id":"levelo_inurba_marseille","lat":43.29026,"lon":5.38637,"is_reserved":false,"is_disabled":false,"rental_uris":{"android":"levelo://app?vid=f18f8327-b78e-417b-a113-93735f200515","ios":"levelo://app?vid=f18f8327-b78e-417b-a113-93735f200515"},"vehicle_type_id":"4","last_reported":1736032069,"current_range_meters":38800,"station_id":"ce4bh4p2rcd13ifvqe0g","pricing_plan_id":"cebpf4jnsgd1na2vs0mg"},{"bike_id":"8d3c0f78-e962-4e13-b73d-d1069bc6cb91","system_id":"levelo_inurba_marseille","lat":43.27299,"lon":5.39136,"is_reserved":false,"is_disabled":false,"rental_uris":{"android":"levelo://app?vid=8d3c0f78-e962-4e13-b73d-d1069bc6cb91","ios":"levelo://app?vid=8d3c0f78-e962-4e13-b73d-d1069bc6cb91"},"vehicle_type_id":"4","last_reported":1736032069,"current_range_meters":38800,"station_id":"ce4bhgp2rcd13ifvqfe0","pricing_plan_id":"cebpf4jnsgd1na2vs0mg"},{"bike_id":"a0adb3c4-caf9-464d-8f3e-6b5be1eb9699","system_id":"levelo_inurba_marseille","lat":43.25109,"lon":5.40363,"is_reserved":false,"is_disabled":false,"rental_uris":{"android":"levelo://app?vid=a0adb3c4-caf9-464d-8f3e-6b5be1eb9699","ios":"levelo://app?vid=a0adb3c4-caf9-464d-8f3e-6b5be1eb9699"},"vehicle_type_id":"4","last_reported":1736032069,"current_range_meters":38000,"station_id":"ce4bhlh2rcd13ifvqgig","pricing_plan_id":"cebpf4jnsgd1na2vs0mg"},{"bike_id":"593d8424-f565-422e-8480-e0f50e2c043e","system_id":"levelo_inurba_marseille","lat":43.27967,"lon":5.38687,"is_reserved":false,"is_disabled":true,"rental_uris":{"android":"levelo://app?vid=593d8424-f565-422e-8480-e0f50e2c043e","ios":"levelo://app?vid=593d8424-f565-422e-8480-e0f50e2c043e"},"vehicle_type_id":"4","last_reported":1736032069,"current_range_meters":36400,"station_id":"ce4bhg12rcd13ifvqf80","pricing_plan_id":"cebpf4jnsgd1na2vs0mg"},{"bike_id":"a944f865-f260-4d6e-8bfb-34b22d4c0ecd","system_id":"levelo_inurba_marseille","lat":43.30185,"lon":5.36646,"is_reserved":false,"is_disabled":true,"rental_uris":{"android":"levelo://app?vid=a944f865-f260-4d6e-8bfb-34b22d4c0ecd","ios":"levelo://app?vid=a944f865-f260-4d6e-8bfb-34b22d4c0ecd"},"vehicle_type_id":"4","last_reported":1736032069,"current_range_meters":32800,"station_id":"ce4bgrh2rcd13ifvqc8g","pricing_plan_id":"cebpf4jnsgd1na2vs0mg"},{"bike_id":"8cdc1ef2-0806-4959-9c23-8b6d5fa7df18","system_id":"levelo_inurba_marseille","lat":43.32653,"lon":5.4101,"is_reserved":false,"is_disabled":false,"rental_uris":{"android":"levelo://app?vid=8cdc1ef2-0806-4959-9c23-8b6d5fa7df18","ios":"levelo://app?vid=8cdc1ef2-0806-4959-9c23-8b6d5fa7df18"},"vehicle_type_id":"4","last_reported":1736032069,"current_range_meters":38800,"station_id":"ce4bhpp2rcd13ifvqhgg","pricing_plan_id":"cebpf4jnsgd1na2vs0mg"},{"bike_id":"11a2eb82-99a1-42d5-83a9-0353405f227e","system_id":"levelo_inurba_marseille","lat":43.32495,"lon":5.36641,"is_reserved":false,"is_disabled":false,"rental_uris":{"android":"levelo://app?vid=11a2eb82-99a1-42d5-83a9-0353405f227e","ios":"levelo://app?vid=11a2eb82-99a1-42d5-83a9-0353405f227e"},"vehicle_type_id":"4","last_reported":1736032069,"current_range_meters":5600,"station_id":"","pricing_plan_id":"cebpf4jnsgd1na2vs0mg"},{"bike_id":"902135a4-9d8c-4c94-8bb4-43abaeacdf31","system_id":"levelo_inurba_marseille","lat":43.3106,"lon":5.38342,"is_reserved":false,"is_disabled":false,"rental_uris":{"android":"levelo://app?vid=902135a4-9d8c-4c94-8bb4-43abaeacdf31","ios":"levelo://app?vid=902135a4-9d8c-4c94-8bb4-43abaeacdf31"},"vehicle_type_id":"4","last_reported":1736032069,"current_range_meters":38800,"station_id":"ce4bgv92rcd13ifvqcr0","pricing_plan_id":"cebpf4jnsgd1na2vs0mg"},{"bike_id":"43154997-c200-4bb7-bede-ab4e4a1c2437","system_id":"levelo_inurba_marseille","lat":43.30276,"lon":5.40078,"is_reserved":false,"is_disabled":false,"rental_uris":{"android":"levelo://app?vid=43154997-c200-4bb7-bede-ab4e4a1c2437","ios":"levelo://app?vid=43154997-c200-4bb7-bede-ab4e4a1c2437"},"vehicle_type_id":"4","last_reported":1736032069,"current_range_meters":25600,"station_id":"ce4bgvh2rcd13ifvqcs0","pricing_plan_id":"cebpf4jnsgd1na2vs0mg"},{"bike_id":"070aaf8c-5956-497b-b956-7261d25d6c15","system_id":"levelo_inurba_marseille","lat":43.28076,"lon":5.39646,"is_reserved":false,"is_disabled":false,"rental_uris":{"android":"levelo://app?vid=070aaf8c-5956-497b-b956-7261d25d6c15","ios":"levelo://app?vid=070aaf8c-5956-497b-b956-7261d25d6c15"},"vehicle_type_id":"4","last_reported":1736032069,"current_range_meters":13600,"station_id":"ce4bho12rcd13ifvqh2g","pricing_plan_id":"cebpf4jnsgd1na2vs0mg"},{"bike_id":"4a63a773-0587-4c36-9848-1c5102052063","system_id":"levelo_inurba_marseille","lat":43.2954,"lon":5.39041,"is_reserved":false,"is_disabled":false,"rental_uris":{"android":"levelo://app?vid=4a63a773-0587-4c36-9848-1c5102052063","ios":"levelo://app?vid=4a63a773-0587-4c36-9848-1c5102052063"},"vehicle_type_id":"4","last_reported":1736032069,"current_range_meters":38800,"station_id":"ce4bh3p2rcd13ifvqdp0","pricing_plan_id":"cebpf4jnsgd1na2vs0mg"},{"bike_id":"11bab6b1-8f19-4376-9cab-a89cad5be186","system_id":"levelo_inurba_marseille","lat":43.324848,"lon":5.365723,"is_reserved":false,"is_disabled":false,"rental_uris":{"android":"levelo://app?vid=11bab6b1-8f19-4376-9cab-a89cad5be186","ios":"levelo://app?vid=11bab6b1-8f19-4376-9cab-a89cad5be186"},"vehicle_type_id":"4","last_reported":1736032069,"current_range_meters":36800,"station_id":"ce4bhs12rcd13ifvqhvg","pricing_plan_id":"cebpf4jnsgd1na2vs0mg"},{"bike_id":"9bd04c4d-bba3-44a3-88b7-e0bf363fe6b8","system_id":"levelo_inurba_marseille","lat":43.24655,"lon":5.38195,"is_reserved":false,"is_disabled":false,"rental_uris":{"android":"levelo://app?vid=9bd04c4d-bba3-44a3-88b7-e0bf363fe6b8","ios":"levelo://app?vid=9bd04c4d-bba3-44a3-88b7-e0bf363fe6b8"},"vehicle_type_id":"4","last_reported":1736032069,"current_range_meters":36000,"station_id":"ce4bhih2rcd13ifvqfr0","pricing_plan_id":"cebpf4jnsgd1na2vs0mg"},{"bike_id":"9f5cd564-e5f7-47cf-975d-1d217c460618","system_id":"levelo_inurba_marseille","lat":43.29185,"lon":5.39331,"is_reserved":false,"is_disabled":false,"rental_uris":{"android":"levelo://app?vid=9f5cd564-e5f7-47cf-975d-1d217c460618","ios":"levelo://app?vid=9f5cd564-e5f7-47cf-975d-1d217c460618"},"vehicle_type_id":"4","last_reported":1736032069,"current_range_meters":16800,"station_id":"ce4bh192rcd13ifvqdd0","pricing_plan_id":"cebpf4jnsgd1na2vs0mg"},{"bike_id":"f52c7654-593e-4648-8d72-c1c67a3bd0b7","system_id":"levelo_inurba_marseille","lat":43.28355,"lon":5.38109,"is_reserved":false,"is_disabled":false,"rental_uris":{"android":"levelo://app?vid=f52c7654-593e-4648-8d72-c1c67a3bd0b7","ios":"levelo://app?vid=f52c7654-593e-4648-8d72-c1c67a3bd0b7"},"vehicle_type_id":"4","last_reported":1736032069,"current_range_meters":22400,"station_id":"ce4bh412rcd13ifvqdr0","pricing_plan_id":"cebpf4jnsgd1na2vs0mg"},{"bike_id":"4608dad6-0378-4f07-a39f-dd205981ef2d","system_id":"levelo_inurba_marseille","lat":43.27192,"lon":5.392,"is_reserved":false,"is_disabled":false,"rental_uris":{"android":"levelo://app?vid=4608dad6-0378-4f07-a39f-dd205981ef2d","ios":"levelo://app?vid=4608dad6-0378-4f07-a39f-dd205981ef2d"},"vehicle_type_id":"4","last_reported":1736032069,"current_range_meters":38800,"station_id":"ce4bhhp2rcd13ifvqfm0","pricing_plan_id":"cebpf4jnsgd1na2vs0mg"},{"bike_id":"bb1eaaaf-a101-4872-9088-a25877178f2e","system_id":"levelo_inurba_marseille","lat":43.26962,"lon":5.38618,"is_reserved":false,"is_disabled":false,"rental_uris":{"android":"levelo://app?vid=bb1eaaaf-a101-4872-9088-a25877178f2e","ios":"levelo://app?vid=bb1eaaaf-a101-4872-9088-a25877178f2e"},"vehicle_type_id":"4","last_reported":1736032069,"current_range_meters":15200,"station_id":"ce4bhh92rcd13ifvqfh0","pricing_plan_id":"cebpf4jnsgd1na2vs0mg"},{"bike_id":"372470e7-a7ac-4457-8fc9-c101a8d2f6f6","system_id":"levelo_inurba_marseille","lat":43.28451,"lon":5.35885,"is_reserved":false,"is_disabled":false,"rental_uris":{"android":"levelo://app?vid=372470e7-a7ac-4457-8fc9-c101a8d2f6f6","ios":"levelo://app?vid=372470e7-a7ac-4457-8fc9-c101a8d2f6f6"},"vehicle_type_id":"4","last_reported":1736032069,"current_range_meters":29600,"station_id":"ce4bhah2rcd13ifvqei0","pricing_plan_id":"cebpf4jnsgd1na2vs0mg"},{"bike_id":"4d010683-2ccf-478e-baa7-c439fbf0a201","system_id":"levelo_inurba_marseille","lat":43.25724,"lon":5.41132,"is_reserved":false,"is_disabled":false,"rental_uris":{"android":"levelo://app?vid=4d010683-2ccf-478e-baa7-c439fbf0a201","ios":"levelo://app?vid=4d010683-2ccf-478e-baa7-c439fbf0a201"},"vehicle_type_id":"4","last_reported":1736032069,"current_range_meters":38800,"station_id":"ce4bhkp2rcd13ifvqgd0","pricing_plan_id":"cebpf4jnsgd1na2vs0mg"},{"bike_id":"ad036647-e9f4-4246-953d-37ee6601db50","system_id":"levelo_inurba_marseille","lat":43.246803,"lon":5.381704,"is_reserved":false,"is_disabled":false,"rental_uris":{"android":"levelo://app?vid=ad036647-e9f4-4246-953d-37ee6601db50","ios":"levelo://app?vid=ad036647-e9f4-4246-953d-37ee6601db50"},"vehicle_type_id":"4","last_reported":1736032069,"current_range_meters":28400,"station_id":"ce4bhih2rcd13ifvqfr0","pricing_plan_id":"cebpf4jnsgd1na2vs0mg"},{"bike_id":"45541365-1ced-47f7-8412-fe1288417af3","system_id":"levelo_inurba_marseille","lat":43.28671,"lon":5.38668,"is_reserved":false,"is_disabled":false,"rental_uris":{"android":"levelo://app?vid=45541365-1ced-47f7-8412-fe1288417af3","ios":"levelo://app?vid=45541365-1ced-47f7-8412-fe1288417af3"},"vehicle_type_id":"4","last_reported":1736032069,"current_range_meters":34000,"station_id":"ce4bh492rcd13ifvqdug","pricing_plan_id":"cebpf4jnsgd1na2vs0mg"},{"bike_id":"92fd0354-7ac5-4d78-bc8d-a2d3452fa841","system_id":"levelo_inurba_marseille","lat":43.29884,"lon":5.38897,"is_reserved":false,"is_disabled":false,"rental_uris":{"android":"levelo://app?vid=92fd0354-7ac5-4d78-bc8d-a2d3452fa841","ios":"levelo://app?vid=92fd0354-7ac5-4d78-bc8d-a2d3452fa841"},"vehicle_type_id":"4","last_reported":1736032069,"current_range_meters":19200,"station_id":"ce4bh392rcd13ifvqdl0","pricing_plan_id":"cebpf4jnsgd1na2vs0mg"},{"bike_id":"e23a8edf-e2ad-466c-9528-bd5f04fbfc74","system_id":"levelo_inurba_marseille","lat":43.330179,"lon":5.390389,"is_reserved":false,"is_disabled":false,"rental_uris":{"android":"levelo://app?vid=e23a8edf-e2ad-466c-9528-bd5f04fbfc74","ios":"levelo://app?vid=e23a8edf-e2ad-466c-9528-bd5f04fbfc74"},"vehicle_type_id":"4","last_reported":1736032069,"current_range_meters":37600,"station_id":"ce4bhr92rcd13ifvqhrg","pricing_plan_id":"cebpf4jnsgd1na2vs0mg"},{"bike_id":"1b7d2371-0eba-4a43-8133-800073020b26","system_id":"levelo_inurba_marseille","lat":43.31526,"lon":5.38039,"is_reserved":false,"is_disabled":false,"rental_uris":{"android":"levelo://app?vid=1b7d2371-0eba-4a43-8133-800073020b26","ios":"levelo://app?vid=1b7d2371-0eba-4a43-8133-800073020b26"},"vehicle_type_id":"4","last_reported":1736032069,"current_range_meters":32400,"station_id":"ce4bhsp2rcd13ifvqi50","pricing_plan_id":"cebpf4jnsgd1na2vs0mg"},{"bike_id":"5cc43707-092d-4bdb-8131-bd84677c4258","system_id":"levelo_inurba_marseille","lat":43.29534,"lon":5.38544,"is_reserved":false,"is_disabled":false,"rental_uris":{"android":"levelo://app?vid=5cc43707-092d-4bdb-8131-bd84677c4258","ios":"levelo://app?vid=5cc43707-092d-4bdb-8131-bd84677c4258"},"vehicle_type_id":"4","last_reported":1736032069,"current_range_meters":27200,"station_id":"ce4bgih2rcd13ifvqba0","pricing_plan_id":"cebpf4jnsgd1na2vs0mg"},{"bike_id":"66d3e1ef-7727-44f9-b619-eeddb54c1fba","system_id":"levelo_inurba_marseille","lat":43.30443,"lon":5.38894,"is_reserved":false,"is_disabled":true,"rental_uris":{"android":"levelo://app?vid=66d3e1ef-7727-44f9-b619-eeddb54c1fba","ios":"levelo://app?vid=66d3e1ef-7727-44f9-b619-eeddb54c1fba"},"vehicle_type_id":"4","last_reported":1736032069,"current_range_meters":12800,"station_id":"ce4bgk12rcd13ifvqbi0","pricing_plan_id":"cebpf4jnsgd1na2vs0mg"},{"bike_id":"c8ac5f2a-e62e-4fc6-aacc-cf5870109233","system_id":"levelo_inurba_marseille","lat":43.30259,"lon":5.40075,"is_reserved":false,"is_disabled":false,"rental_uris":{"android":"levelo://app?vid=c8ac5f2a-e62e-4fc6-aacc-cf5870109233","ios":"levelo://app?vid=c8ac5f2a-e62e-4fc6-aacc-cf5870109233"},"vehicle_type_id":"4","last_reported":1736032069,"current_range_meters":36800,"station_id":"ce4bgvh2rcd13ifvqcs0","pricing_plan_id":"cebpf4jnsgd1na2vs0mg"},{"bike_id":"9906dd2a-1b89-4a55-88bc-dbcecc6c3554","system_id":"levelo_inurba_marseille","lat":43.30131,"lon":5.39866,"is_reserved":false,"is_disabled":false,"rental_uris":{"android":"levelo://app?vid=9906dd2a-1b89-4a55-88bc-dbcecc6c3554","ios":"levelo://app?vid=9906dd2a-1b89-4a55-88bc-dbcecc6c3554"},"vehicle_type_id":"4","last_reported":1736032069,"current_range_meters":36400,"station_id":"ce4bh0h2rcd13ifvqd40","pricing_plan_id":"cebpf4jnsgd1na2vs0mg"},{"bike_id":"642eb0c4-eb99-41cb-9b33-d2cba9e24933","system_id":"levelo_inurba_marseille","lat":43.31061,"lon":5.38341,"is_reserved":false,"is_disabled":false,"rental_uris":{"android":"levelo://app?vid=642eb0c4-eb99-41cb-9b33-d2cba9e24933","ios":"levelo://app?vid=642eb0c4-eb99-41cb-9b33-d2cba9e24933"},"vehicle_type_id":"4","last_reported":1736032069,"current_range_meters":32800,"station_id":"ce4bgv92rcd13ifvqcr0","pricing_plan_id":"cebpf4jnsgd1na2vs0mg"},{"bike_id":"683c3a18-2fe8-4db2-829b-d8065bc8adc1","system_id":"levelo_inurba_marseille","lat":43.24061,"lon":5.37754,"is_reserved":false,"is_disabled":false,"rental_uris":{"android":"levelo://app?vid=683c3a18-2fe8-4db2-829b-d8065bc8adc1","ios":"levelo://app?vid=683c3a18-2fe8-4db2-829b-d8065bc8adc1"},"vehicle_type_id":"4","last_reported":1736032069,"current_range_meters":38800,"station_id":"ce4bhnp2rcd13ifvqgvg","pricing_plan_id":"cebpf4jnsgd1na2vs0mg"},{"bike_id":"9b48d9b4-5573-4732-8354-fd300e25b8cd","system_id":"levelo_inurba_marseille","lat":43.31171,"lon":5.38708,"is_reserved":false,"is_disabled":false,"rental_uris":{"android":"levelo://app?vid=9b48d9b4-5573-4732-8354-fd300e25b8cd","ios":"levelo://app?vid=9b48d9b4-5573-4732-8354-fd300e25b8cd"},"vehicle_type_id":"4","last_reported":1736032069,"current_range_meters":28800,"station_id":"ce4bgv12rcd13ifvqcp0","pricing_plan_id":"cebpf4jnsgd1na2vs0mg"},{"bike_id":"e701aeeb-d4e0-4470-aad9-be342ce267f0","system_id":"levelo_inurba_marseille","lat":43.32289,"lon":5.38272,"is_reserved":false,"is_disabled":false,"rental_uris":{"android":"levelo://app?vid=e701aeeb-d4e0-4470-aad9-be342ce267f0","ios":"levelo://app?vid=e701aeeb-d4e0-4470-aad9-be342ce267f0"},"vehicle_type_id":"4","last_reported":1736032069,"current_range_meters":35200,"station_id":"ce4bhr12rcd13ifvqhqg","pricing_plan_id":"cebpf4jnsgd1na2vs0mg"},{"bike_id":"bdbc2f1c-5ca5-4c9f-ac46-e5337f9cc9fc","system_id":"levelo_inurba_marseille","lat":43.27988,"lon":5.41652,"is_reserved":false,"is_disabled":false,"rental_uris":{"android":"levelo://app?vid=bdbc2f1c-5ca5-4c9f-ac46-e5337f9cc9fc","ios":"levelo://app?vid=bdbc2f1c-5ca5-4c9f-ac46-e5337f9cc9fc"},"vehicle_type_id":"4","last_reported":1736032069,"current_range_meters":38000,"station_id":"ce4bho12rcd13ifvqh1g","pricing_plan_id":"cebpf4jnsgd1na2vs0mg"},{"bike_id":"427908c3-8f62-4301-a09c-c64c860847d9","system_id":"levelo_inurba_marseille","lat":43.29312,"lon":5.3716,"is_reserved":false,"is_disabled":false,"rental_uris":{"android":"levelo://app?vid=427908c3-8f62-4301-a09c-c64c860847d9","ios":"levelo://app?vid=427908c3-8f62-4301-a09c-c64c860847d9"},"vehicle_type_id":"4","last_reported":1736032069,"current_range_meters":30000,"station_id":"ce4bgh92rcd13ifvqb40","pricing_plan_id":"cebpf4jnsgd1na2vs0mg"},{"bike_id":"8bf5141e-3146-496b-828c-aa16db841e56","system_id":"levelo_inurba_marseille","lat":43.32554,"lon":5.41447,"is_reserved":false,"is_disabled":false,"rental_uris":{"android":"levelo://app?vid=8bf5141e-3146-496b-828c-aa16db841e56","ios":"levelo://app?vid=8bf5141e-3146-496b-828c-aa16db841e56"},"vehicle_type_id":"4","last_reported":1736032069,"current_range_meters":29600,"station_id":"ce4bhq12rcd13ifvqhhg","pricing_plan_id":"cebpf4jnsgd1na2vs0mg"},{"bike_id":"2332862a-3884-4317-af82-ee9793e9b62c","system_id":"levelo_inurba_marseille","lat":43.24102,"lon":5.37739,"is_reserved":false,"is_disabled":false,"rental_uris":{"android":"levelo://app?vid=2332862a-3884-4317-af82-ee9793e9b62c","ios":"levelo://app?vid=2332862a-3884-4317-af82-ee9793e9b62c"},"vehicle_type_id":"4","last_reported":1736032069,"current_range_meters":14400,"station_id":"ce4bhnp2rcd13ifvqgvg","pricing_plan_id":"cebpf4jnsgd1na2vs0mg"},{"bike_id":"3fed1827-13aa-4afe-a0f9-8be0a428d811","system_id":"levelo_inurba_marseille","lat":43.32366,"lon":5.38889,"is_reserved":false,"is_disabled":false,"rental_uris":{"android":"levelo://app?vid=3fed1827-13aa-4afe-a0f9-8be0a428d811","ios":"levelo://app?vid=3fed1827-13aa-4afe-a0f9-8be0a428d811"},"vehicle_type_id":"4","last_reported":1736032069,"current_range_meters":38800,"station_id":"ce4bhqp2rcd13ifvqhog","pricing_plan_id":"cebpf4jnsgd1na2vs0mg"},{"bike_id":"df6396a0-238b-4467-8e80-f854b4f79617","system_id":"levelo_inurba_marseille","lat":43.34153,"lon":5.40908,"is_reserved":false,"is_disabled":false,"rental_uris":{"android":"levelo://app?vid=df6396a0-238b-4467-8e80-f854b4f79617","ios":"levelo://app?vid=df6396a0-238b-4467-8e80-f854b4f79617"},"vehicle_type_id":"4","last_reported":1736032069,"current_range_meters":38000,"station_id":"ce4bhqh2rcd13ifvqhlg","pricing_plan_id":"cebpf4jnsgd1na2vs0mg"},{"bike_id":"d6623fb3-7fe3-4914-8803-99fc449c9eb9","system_id":"levelo_inurba_marseille","lat":43.24804,"lon":5.3747,"is_reserved":false,"is_disabled":false,"rental_uris":{"android":"levelo://app?vid=d6623fb3-7fe3-4914-8803-99fc449c9eb9","ios":"levelo://app?vid=d6623fb3-7fe3-4914-8803-99fc449c9eb9"},"vehicle_type_id":"4","last_reported":1736032069,"current_range_meters":33200,"station_id":"ce4bhgh2rcd13ifvqfb0","pricing_plan_id":"cebpf4jnsgd1na2vs0mg"},{"bike_id":"065e15fa-7fcf-47e7-bf49-de94cdc8d7c4","system_id":"levelo_inurba_marseille","lat":43.28408,"lon":5.37506,"is_reserved":false,"is_disabled":false,"rental_uris":{"android":"levelo://app?vid=065e15fa-7fcf-47e7-bf49-de94cdc8d7c4","ios":"levelo://app?vid=065e15fa-7fcf-47e7-bf49-de94cdc8d7c4"},"vehicle_type_id":"4","last_reported":1736032069,"current_range_meters":11200,"station_id":"ce4bh412rcd13ifvqds0","pricing_plan_id":"cebpf4jnsgd1na2vs0mg"},{"bike_id":"9805a3be-b5f4-4955-bb12-fc71033cef4e","system_id":"levelo_inurba_marseille","lat":43.23183,"lon":5.39992,"is_reserved":false,"is_disabled":false,"rental_uris":{"android":"levelo://app?vid=9805a3be-b5f4-4955-bb12-fc71033cef4e","ios":"levelo://app?vid=9805a3be-b5f4-4955-bb12-fc71033cef4e"},"vehicle_type_id":"4","last_reported":1736032069,"current_range_meters":30400,"station_id":"ce4bhn12rcd13ifvqgqg","pricing_plan_id":"cebpf4jnsgd1na2vs0mg"},{"bike_id":"f9627dd9-046d-4af8-83bc-05ae69684e82","system_id":"levelo_inurba_marseille","lat":43.31071,"lon":5.38365,"is_reserved":false,"is_disabled":false,"rental_uris":{"android":"levelo://app?vid=f9627dd9-046d-4af8-83bc-05ae69684e82","ios":"levelo://app?vid=f9627dd9-046d-4af8-83bc-05ae69684e82"},"vehicle_type_id":"4","last_reported":1736032069,"current_range_meters":38800,"station_id":"ce4bgv92rcd13ifvqcr0","pricing_plan_id":"cebpf4jnsgd1na2vs0mg"},{"bike_id":"4a9ae638-3a1c-4c74-88bc-52947c053a13","system_id":"levelo_inurba_marseille","lat":43.26498,"lon":5.39572,"is_reserved":false,"is_disabled":false,"rental_uris":{"android":"levelo://app?vid=4a9ae638-3a1c-4c74-88bc-52947c053a13","ios":"levelo://app?vid=4a9ae638-3a1c-4c74-88bc-52947c053a13"},"vehicle_type_id":"4","last_reported":1736032069,"current_range_meters":8000,"station_id":"ce4bhi12rcd13ifvqfq0","pricing_plan_id":"cebpf4jnsgd1na2vs0mg"},{"bike_id":"c8529c5f-726c-44b9-8f81-1b72db6f4e53","system_id":"levelo_inurba_marseille","lat":43.32365,"lon":5.38876,"is_reserved":false,"is_disabled":false,"rental_uris":{"android":"levelo://app?vid=c8529c5f-726c-44b9-8f81-1b72db6f4e53","ios":"levelo://app?vid=c8529c5f-726c-44b9-8f81-1b72db6f4e53"},"vehicle_type_id":"4","last_reported":1736032069,"current_range_meters":38800,"station_id":"ce4bhqp2rcd13ifvqhog","pricing_plan_id":"cebpf4jnsgd1na2vs0mg"},{"bike_id":"66c1f4a8-00f2-48da-ab15-4047c3fa8786","system_id":"levelo_inurba_marseille","lat":43.30882,"lon":5.39628,"is_reserved":false,"is_disabled":false,"rental_uris":{"android":"levelo://app?vid=66c1f4a8-00f2-48da-ab15-4047c3fa8786","ios":"levelo://app?vid=66c1f4a8-00f2-48da-ab15-4047c3fa8786"},"vehicle_type_id":"4","last_reported":1736032069,"current_range_meters":38800,"station_id":"ce4bh012rcd13ifvqcv0","pricing_plan_id":"cebpf4jnsgd1na2vs0mg"},{"bike_id":"9a483109-5bce-4e89-a527-a3ced035742c","system_id":"levelo_inurba_marseille","lat":43.26943,"lon":5.38631,"is_reserved":false,"is_disabled":false,"rental_uris":{"android":"levelo://app?vid=9a483109-5bce-4e89-a527-a3ced035742c","ios":"levelo://app?vid=9a483109-5bce-4e89-a527-a3ced035742c"},"vehicle_type_id":"4","last_reported":1736032069,"current_range_meters":14400,"station_id":"ce4bhh92rcd13ifvqfh0","pricing_plan_id":"cebpf4jnsgd1na2vs0mg"},{"bike_id":"6c503bd7-7bec-4e40-8157-ec408bcaad78","system_id":"levelo_inurba_marseille","lat":43.24812,"lon":5.37455,"is_reserved":false,"is_disabled":false,"rental_uris":{"android":"levelo://app?vid=6c503bd7-7bec-4e40-8157-ec408bcaad78","ios":"levelo://app?vid=6c503bd7-7bec-4e40-8157-ec408bcaad78"},"vehicle_type_id":"4","last_reported":1736032069,"current_range_meters":28800,"station_id":"ce4bhgh2rcd13ifvqfb0","pricing_plan_id":"cebpf4jnsgd1na2vs0mg"},{"bike_id":"f4300c28-af3e-407a-b00f-975f89e7fa58","system_id":"levelo_inurba_marseille","lat":43.29158,"lon":5.37164,"is_reserved":false,"is_disabled":false,"rental_uris":{"android":"levelo://app?vid=f4300c28-af3e-407a-b00f-975f89e7fa58","ios":"levelo://app?vid=f4300c28-af3e-407a-b00f-975f89e7fa58"},"vehicle_type_id":"4","last_reported":1736032069,"current_range_meters":38800,"station_id":"ce4bha92rcd13ifvqeh0","pricing_plan_id":"cebpf4jnsgd1na2vs0mg"},{"bike_id":"9101e912-5f73-4ffc-8374-5232183c2d6d","system_id":"levelo_inurba_marseille","lat":43.30417,"lon":5.41286,"is_reserved":false,"is_disabled":false,"rental_uris":{"android":"levelo://app?vid=9101e912-5f73-4ffc-8374-5232183c2d6d","ios":"levelo://app?vid=9101e912-5f73-4ffc-8374-5232183c2d6d"},"vehicle_type_id":"4","last_reported":1736032069,"current_range_meters":38400,"station_id":"ce4bhop2rcd13ifvqh8g","pricing_plan_id":"cebpf4jnsgd1na2vs0mg"},{"bike_id":"7f1ce4ed-0cd0-4d23-b89e-099e0df8c108","system_id":"levelo_inurba_marseille","lat":43.25765,"lon":5.41146,"is_reserved":false,"is_disabled":false,"rental_uris":{"android":"levelo://app?vid=7f1ce4ed-0cd0-4d23-b89e-099e0df8c108","ios":"levelo://app?vid=7f1ce4ed-0cd0-4d23-b89e-099e0df8c108"},"vehicle_type_id":"4","last_reported":1736032069,"current_range_meters":38800,"station_id":"ce4bhkp2rcd13ifvqgd0","pricing_plan_id":"cebpf4jnsgd1na2vs0mg"},{"bike_id":"ae1505a2-b6d7-4b9a-b7ac-103098d44e5c","system_id":"levelo_inurba_marseille","lat":43.29536,"lon":5.38544,"is_reserved":false,"is_disabled":false,"rental_uris":{"android":"levelo://app?vid=ae1505a2-b6d7-4b9a-b7ac-103098d44e5c","ios":"levelo://app?vid=ae1505a2-b6d7-4b9a-b7ac-103098d44e5c"},"vehicle_type_id":"4","last_reported":1736032069,"current_range_meters":28800,"station_id":"ce4bgih2rcd13ifvqba0","pricing_plan_id":"cebpf4jnsgd1na2vs0mg"},{"bike_id":"969c8a84-cf60-4395-8c81-a1d2e7dc81af","system_id":"levelo_inurba_marseille","lat":43.25855,"lon":5.39898,"is_reserved":false,"is_disabled":false,"rental_uris":{"android":"levelo://app?vid=969c8a84-cf60-4395-8c81-a1d2e7dc81af","ios":"levelo://app?vid=969c8a84-cf60-4395-8c81-a1d2e7dc81af"},"vehicle_type_id":"4","last_reported":1736032069,"current_range_meters":18800,"station_id":"ce4bhl92rcd13ifvqghg","pricing_plan_id":"cebpf4jnsgd1na2vs0mg"},{"bike_id":"f8142e8a-f886-4c5e-b399-88d8fa1c1d32","system_id":"levelo_inurba_marseille","lat":43.24664,"lon":5.38168,"is_reserved":false,"is_disabled":false,"rental_uris":{"android":"levelo://app?vid=f8142e8a-f886-4c5e-b399-88d8fa1c1d32","ios":"levelo://app?vid=f8142e8a-f886-4c5e-b399-88d8fa1c1d32"},"vehicle_type_id":"4","last_reported":1736032069,"current_range_meters":28400,"station_id":"ce4bhih2rcd13ifvqfr0","pricing_plan_id":"cebpf4jnsgd1na2vs0mg"},{"bike_id":"9d2065c5-e801-47c6-a32c-5834d37e9dab","system_id":"levelo_inurba_marseille","lat":43.32376,"lon":5.38874,"is_reserved":false,"is_disabled":false,"rental_uris":{"android":"levelo://app?vid=9d2065c5-e801-47c6-a32c-5834d37e9dab","ios":"levelo://app?vid=9d2065c5-e801-47c6-a32c-5834d37e9dab"},"vehicle_type_id":"4","last_reported":1736032069,"current_range_meters":37600,"station_id":"ce4bhqp2rcd13ifvqhog","pricing_plan_id":"cebpf4jnsgd1na2vs0mg"},{"bike_id":"8452ac70-b36f-4236-9954-dfaf1a87fa71","system_id":"levelo_inurba_marseille","lat":43.26806,"lon":5.40267,"is_reserved":false,"is_disabled":false,"rental_uris":{"android":"levelo://app?vid=8452ac70-b36f-4236-9954-dfaf1a87fa71","ios":"levelo://app?vid=8452ac70-b36f-4236-9954-dfaf1a87fa71"},"vehicle_type_id":"4","last_reported":1736032069,"current_range_meters":38800,"station_id":"ce501612rcd8frsf0b60","pricing_plan_id":"cebpf4jnsgd1na2vs0mg"},{"bike_id":"df49b311-14a3-4419-9895-f6d4bb3203a7","system_id":"levelo_inurba_marseille","lat":43.30881,"lon":5.37194,"is_reserved":false,"is_disabled":false,"rental_uris":{"android":"levelo://app?vid=df49b311-14a3-4419-9895-f6d4bb3203a7","ios":"levelo://app?vid=df49b311-14a3-4419-9895-f6d4bb3203a7"},"vehicle_type_id":"4","last_reported":1736032069,"current_range_meters":36800,"station_id":"ce4bguh2rcd13ifvqckg","pricing_plan_id":"cebpf4jnsgd1na2vs0mg"},{"bike_id":"f3d41f41-839d-41a5-aa6d-f2ba87ff18f0","system_id":"levelo_inurba_marseille","lat":43.24073,"lon":5.37722,"is_reserved":false,"is_disabled":true,"rental_uris":{"android":"levelo://app?vid=f3d41f41-839d-41a5-aa6d-f2ba87ff18f0","ios":"levelo://app?vid=f3d41f41-839d-41a5-aa6d-f2ba87ff18f0"},"vehicle_type_id":"4","last_reported":1736032069,"current_range_meters":0,"station_id":"ce4bhnp2rcd13ifvqgvg","pricing_plan_id":"cebpf4jnsgd1na2vs0mg"},{"bike_id":"6d14468d-d4fe-4fb2-b1d6-ebb52c384fb6","system_id":"levelo_inurba_marseille","lat":43.31995,"lon":5.38145,"is_reserved":false,"is_disabled":false,"rental_uris":{"android":"levelo://app?vid=6d14468d-d4fe-4fb2-b1d6-ebb52c384fb6","ios":"levelo://app?vid=6d14468d-d4fe-4fb2-b1d6-ebb52c384fb6"},"vehicle_type_id":"4","last_reported":1736032069,"current_range_meters":38800,"station_id":"ce4bhr12rcd13ifvqhpg","pricing_plan_id":"cebpf4jnsgd1na2vs0mg"},{"bike_id":"9f326815-9d5b-4c57-b098-1465cece3aff","system_id":"levelo_inurba_marseille","lat":43.28089,"lon":5.44158,"is_reserved":false,"is_disabled":false,"rental_uris":{"android":"levelo://app?vid=9f326815-9d5b-4c57-b098-1465cece3aff","ios":"levelo://app?vid=9f326815-9d5b-4c57-b098-1465cece3aff"},"vehicle_type_id":"4","last_reported":1736032069,"current_range_meters":18000,"station_id":"","pricing_plan_id":"cebpf4jnsgd1na2vs0mg"},{"bike_id":"2f857458-45ae-4306-9ffb-5d94252d59a5","system_id":"levelo_inurba_marseille","lat":43.246424,"lon":5.389014,"is_reserved":false,"is_disabled":false,"rental_uris":{"android":"levelo://app?vid=2f857458-45ae-4306-9ffb-5d94252d59a5","ios":"levelo://app?vid=2f857458-45ae-4306-9ffb-5d94252d59a5"},"vehicle_type_id":"4","last_reported":1736032069,"current_range_meters":37600,"station_id":"ce4bhg12rcd13ifvqf60","pricing_plan_id":"cebpf4jnsgd1na2vs0mg"},{"bike_id":"7eee24f8-7ba1-4f0c-830c-5f6ff94cfa1c","system_id":"levelo_inurba_marseille","lat":43.31069,"lon":5.38356,"is_reserved":false,"is_disabled":false,"rental_uris":{"android":"levelo://app?vid=7eee24f8-7ba1-4f0c-830c-5f6ff94cfa1c","ios":"levelo://app?vid=7eee24f8-7ba1-4f0c-830c-5f6ff94cfa1c"},"vehicle_type_id":"4","last_reported":1736032069,"current_range_meters":5600,"station_id":"ce4bgv92rcd13ifvqcr0","pricing_plan_id":"cebpf4jnsgd1na2vs0mg"},{"bike_id":"7b78d5e2-5142-402d-a4f8-0f3037a6c533","system_id":"levelo_inurba_marseille","lat":43.26943,"lon":5.38639,"is_reserved":false,"is_disabled":true,"rental_uris":{"android":"levelo://app?vid=7b78d5e2-5142-402d-a4f8-0f3037a6c533","ios":"levelo://app?vid=7b78d5e2-5142-402d-a4f8-0f3037a6c533"},"vehicle_type_id":"4","last_reported":1736032069,"current_range_meters":10800,"station_id":"ce4bhh92rcd13ifvqfh0","pricing_plan_id":"cebpf4jnsgd1na2vs0mg"},{"bike_id":"a5427f41-9e99-4a1d-b40f-d6b3a65dcb1e","system_id":"levelo_inurba_marseille","lat":43.29213,"lon":5.39326,"is_reserved":false,"is_disabled":false,"rental_uris":{"android":"levelo://app?vid=a5427f41-9e99-4a1d-b40f-d6b3a65dcb1e","ios":"levelo://app?vid=a5427f41-9e99-4a1d-b40f-d6b3a65dcb1e"},"vehicle_type_id":"4","last_reported":1736032069,"current_range_meters":30000,"station_id":"ce4bh192rcd13ifvqdd0","pricing_plan_id":"cebpf4jnsgd1na2vs0mg"},{"bike_id":"00b0c897-4e8f-453d-8e9d-6135317dff3d","system_id":"levelo_inurba_marseille","lat":43.29566,"lon":5.42284,"is_reserved":false,"is_disabled":false,"rental_uris":{"android":"levelo://app?vid=00b0c897-4e8f-453d-8e9d-6135317dff3d","ios":"levelo://app?vid=00b0c897-4e8f-453d-8e9d-6135317dff3d"},"vehicle_type_id":"4","last_reported":1736032069,"current_range_meters":36800,"station_id":"ce4bhph2rcd13ifvqhdg","pricing_plan_id":"cebpf4jnsgd1na2vs0mg"},{"bike_id":"d0d21930-fe1d-478b-8251-bcf89564599d","system_id":"levelo_inurba_marseille","lat":43.29557,"lon":5.42274,"is_reserved":false,"is_disabled":false,"rental_uris":{"android":"levelo://app?vid=d0d21930-fe1d-478b-8251-bcf89564599d","ios":"levelo://app?vid=d0d21930-fe1d-478b-8251-bcf89564599d"},"vehicle_type_id":"4","last_reported":1736032069,"current_range_meters":28400,"station_id":"ce4bhph2rcd13ifvqhdg","pricing_plan_id":"cebpf4jnsgd1na2vs0mg"},{"bike_id":"0bd56123-f8b9-4d53-b166-447025313db1","system_id":"levelo_inurba_marseille","lat":43.2558,"lon":5.38245,"is_reserved":false,"is_disabled":false,"rental_uris":{"android":"levelo://app?vid=0bd56123-f8b9-4d53-b166-447025313db1","ios":"levelo://app?vid=0bd56123-f8b9-4d53-b166-447025313db1"},"vehicle_type_id":"4","last_reported":1736032069,"current_range_meters":23200,"station_id":"ce4bhih2rcd13ifvqfs0","pricing_plan_id":"cebpf4jnsgd1na2vs0mg"},{"bike_id":"ca097f70-8976-4699-b173-05723d0647b2","system_id":"levelo_inurba_marseille","lat":43.28155,"lon":5.42646,"is_reserved":false,"is_disabled":false,"rental_uris":{"android":"levelo://app?vid=ca097f70-8976-4699-b173-05723d0647b2","ios":"levelo://app?vid=ca097f70-8976-4699-b173-05723d0647b2"},"vehicle_type_id":"4","last_reported":1736032069,"current_range_meters":14400,"station_id":"ce4bhnh2rcd13ifvqgug","pricing_plan_id":"cebpf4jnsgd1na2vs0mg"},{"bike_id":"8428b48a-adc5-46b6-b83f-32838aa51330","system_id":"levelo_inurba_marseille","lat":43.29315,"lon":5.37192,"is_reserved":false,"is_disabled":false,"rental_uris":{"android":"levelo://app?vid=8428b48a-adc5-46b6-b83f-32838aa51330","ios":"levelo://app?vid=8428b48a-adc5-46b6-b83f-32838aa51330"},"vehicle_type_id":"4","last_reported":1736032069,"current_range_meters":33200,"station_id":"ce4bgh92rcd13ifvqb40","pricing_plan_id":"cebpf4jnsgd1na2vs0mg"},{"bike_id":"7c1abf4d-dd16-418f-9e83-b4568103908b","system_id":"levelo_inurba_marseille","lat":43.30136,"lon":5.38777,"is_reserved":false,"is_disabled":false,"rental_uris":{"android":"levelo://app?vid=7c1abf4d-dd16-418f-9e83-b4568103908b","ios":"levelo://app?vid=7c1abf4d-dd16-418f-9e83-b4568103908b"},"vehicle_type_id":"4","last_reported":1736032069,"current_range_meters":27200,"station_id":"ce4bhoh2rcd13ifvqh6g","pricing_plan_id":"cebpf4jnsgd1na2vs0mg"},{"bike_id":"86175c46-0785-490c-94f1-0d0e4112e22f","system_id":"levelo_inurba_marseille","lat":43.28412,"lon":5.37491,"is_reserved":false,"is_disabled":false,"rental_uris":{"android":"levelo://app?vid=86175c46-0785-490c-94f1-0d0e4112e22f","ios":"levelo://app?vid=86175c46-0785-490c-94f1-0d0e4112e22f"},"vehicle_type_id":"4","last_reported":1736032069,"current_range_meters":30400,"station_id":"","pricing_plan_id":"cebpf4jnsgd1na2vs0mg"},{"bike_id":"bf078f72-daa5-4a9e-8bcf-19d7a4dcbdde","system_id":"levelo_inurba_marseille","lat":43.2979,"lon":5.39346,"is_reserved":false,"is_disabled":false,"rental_uris":{"android":"levelo://app?vid=bf078f72-daa5-4a9e-8bcf-19d7a4dcbdde","ios":"levelo://app?vid=bf078f72-daa5-4a9e-8bcf-19d7a4dcbdde"},"vehicle_type_id":"4","last_reported":1736032069,"current_range_meters":30800,"station_id":"chh1huq6cuj3fo74tm60","pricing_plan_id":"cebpf4jnsgd1na2vs0mg"},{"bike_id":"225d2cbf-fda4-4f24-8256-ab54a3b9439f","system_id":"levelo_inurba_marseille","lat":43.28402,"lon":5.37531,"is_reserved":false,"is_disabled":false,"rental_uris":{"android":"levelo://app?vid=225d2cbf-fda4-4f24-8256-ab54a3b9439f","ios":"levelo://app?vid=225d2cbf-fda4-4f24-8256-ab54a3b9439f"},"vehicle_type_id":"4","last_reported":1736032069,"current_range_meters":38800,"station_id":"ce4bh412rcd13ifvqds0","pricing_plan_id":"cebpf4jnsgd1na2vs0mg"},{"bike_id":"830b5d3b-cabb-4fdb-be27-c9d3d8ea9fde","system_id":"levelo_inurba_marseille","lat":43.24811,"lon":5.37465,"is_reserved":false,"is_disabled":false,"rental_uris":{"android":"levelo://app?vid=830b5d3b-cabb-4fdb-be27-c9d3d8ea9fde","ios":"levelo://app?vid=830b5d3b-cabb-4fdb-be27-c9d3d8ea9fde"},"vehicle_type_id":"4","last_reported":1736032069,"current_range_meters":38800,"station_id":"ce4bhgh2rcd13ifvqfb0","pricing_plan_id":"cebpf4jnsgd1na2vs0mg"},{"bike_id":"c7e37645-c5bb-4c3c-ab8a-35657fec26b6","system_id":"levelo_inurba_marseille","lat":43.315304,"lon":5.380297,"is_reserved":false,"is_disabled":false,"rental_uris":{"android":"levelo://app?vid=c7e37645-c5bb-4c3c-ab8a-35657fec26b6","ios":"levelo://app?vid=c7e37645-c5bb-4c3c-ab8a-35657fec26b6"},"vehicle_type_id":"4","last_reported":1736032069,"current_range_meters":38800,"station_id":"ce4bhsp2rcd13ifvqi50","pricing_plan_id":"cebpf4jnsgd1na2vs0mg"},{"bike_id":"4b270d4c-61fb-4561-80b8-6ff5c7629d20","system_id":"levelo_inurba_marseille","lat":43.28167,"lon":5.42651,"is_reserved":false,"is_disabled":false,"rental_uris":{"android":"levelo://app?vid=4b270d4c-61fb-4561-80b8-6ff5c7629d20","ios":"levelo://app?vid=4b270d4c-61fb-4561-80b8-6ff5c7629d20"},"vehicle_type_id":"4","last_reported":1736032069,"current_range_meters":28800,"station_id":"ce4bhnh2rcd13ifvqgug","pricing_plan_id":"cebpf4jnsgd1na2vs0mg"},{"bike_id":"3f80a8a7-088c-48ba-bdfc-1290fe642fc3","system_id":"levelo_inurba_marseille","lat":43.29068,"lon":5.37145,"is_reserved":false,"is_disabled":false,"rental_uris":{"android":"levelo://app?vid=3f80a8a7-088c-48ba-bdfc-1290fe642fc3","ios":"levelo://app?vid=3f80a8a7-088c-48ba-bdfc-1290fe642fc3"},"vehicle_type_id":"4","last_reported":1736032069,"current_range_meters":35200,"station_id":"ce4bh5p2rcd13ifvqe4g","pricing_plan_id":"cebpf4jnsgd1na2vs0mg"},{"bike_id":"78af5f25-eb72-452b-8003-522c25faacd8","system_id":"levelo_inurba_marseille","lat":43.31757,"lon":5.39019,"is_reserved":false,"is_disabled":false,"rental_uris":{"android":"levelo://app?vid=78af5f25-eb72-452b-8003-522c25faacd8","ios":"levelo://app?vid=78af5f25-eb72-452b-8003-522c25faacd8"},"vehicle_type_id":"4","last_reported":1736032069,"current_range_meters":29600,"station_id":"ce4bhqp2rcd13ifvqhng","pricing_plan_id":"cebpf4jnsgd1na2vs0mg"},{"bike_id":"a6f828f1-5f97-4da7-bf33-7d48a155db3e","system_id":"levelo_inurba_marseille","lat":43.27822,"lon":5.39211,"is_reserved":false,"is_disabled":false,"rental_uris":{"android":"levelo://app?vid=a6f828f1-5f97-4da7-bf33-7d48a155db3e","ios":"levelo://app?vid=a6f828f1-5f97-4da7-bf33-7d48a155db3e"},"vehicle_type_id":"4","last_reported":1736032069,"current_range_meters":25200,"station_id":"ce4bhjp2rcd13ifvqga0","pricing_plan_id":"cebpf4jnsgd1na2vs0mg"},{"bike_id":"cb4e598e-43fb-4420-bc13-ffc9995271ca","system_id":"levelo_inurba_marseille","lat":43.305996,"lon":5.372294,"is_reserved":false,"is_disabled":false,"rental_uris":{"android":"levelo://app?vid=cb4e598e-43fb-4420-bc13-ffc9995271ca","ios":"levelo://app?vid=cb4e598e-43fb-4420-bc13-ffc9995271ca"},"vehicle_type_id":"4","last_reported":1736032069,"current_range_meters":32400,"station_id":"ce4bgqh2rcd13ifvqc4g","pricing_plan_id":"cebpf4jnsgd1na2vs0mg"},{"bike_id":"a522c7f8-85db-4294-bcdd-44c45cbf4d5e","system_id":"levelo_inurba_marseille","lat":43.23188,"lon":5.39993,"is_reserved":false,"is_disabled":false,"rental_uris":{"android":"levelo://app?vid=a522c7f8-85db-4294-bcdd-44c45cbf4d5e","ios":"levelo://app?vid=a522c7f8-85db-4294-bcdd-44c45cbf4d5e"},"vehicle_type_id":"4","last_reported":1736032069,"current_range_meters":38800,"station_id":"ce4bhn12rcd13ifvqgqg","pricing_plan_id":"cebpf4jnsgd1na2vs0mg"},{"bike_id":"3146e349-8953-4d60-9187-c45e3c6929f5","system_id":"levelo_inurba_marseille","lat":43.27917,"lon":5.38619,"is_reserved":false,"is_disabled":false,"rental_uris":{"android":"levelo://app?vid=3146e349-8953-4d60-9187-c45e3c6929f5","ios":"levelo://app?vid=3146e349-8953-4d60-9187-c45e3c6929f5"},"vehicle_type_id":"4","last_reported":1736032069,"current_range_meters":10800,"station_id":"ce4bhg12rcd13ifvqf80","pricing_plan_id":"cebpf4jnsgd1na2vs0mg"},{"bike_id":"2bb365b9-b0ab-4842-8b8c-e8de6374870a","system_id":"levelo_inurba_marseille","lat":43.24653,"lon":5.3888,"is_reserved":false,"is_disabled":false,"rental_uris":{"android":"levelo://app?vid=2bb365b9-b0ab-4842-8b8c-e8de6374870a","ios":"levelo://app?vid=2bb365b9-b0ab-4842-8b8c-e8de6374870a"},"vehicle_type_id":"4","last_reported":1736032069,"current_range_meters":11200,"station_id":"ce4bhg12rcd13ifvqf60","pricing_plan_id":"cebpf4jnsgd1na2vs0mg"},{"bike_id":"9c3607c3-9997-438e-a3e0-f49fa87e5001","system_id":"levelo_inurba_marseille","lat":43.34133,"lon":5.40895,"is_reserved":false,"is_disabled":false,"rental_uris":{"android":"levelo://app?vid=9c3607c3-9997-438e-a3e0-f49fa87e5001","ios":"levelo://app?vid=9c3607c3-9997-438e-a3e0-f49fa87e5001"},"vehicle_type_id":"4","last_reported":1736032069,"current_range_meters":38800,"station_id":"ce4bhqh2rcd13ifvqhlg","pricing_plan_id":"cebpf4jnsgd1na2vs0mg"},{"bike_id":"ddbb70ac-38bf-40e8-9b6c-b5570777a627","system_id":"levelo_inurba_marseille","lat":43.30802,"lon":5.38156,"is_reserved":false,"is_disabled":false,"rental_uris":{"android":"levelo://app?vid=ddbb70ac-38bf-40e8-9b6c-b5570777a627","ios":"levelo://app?vid=ddbb70ac-38bf-40e8-9b6c-b5570777a627"},"vehicle_type_id":"4","last_reported":1736032069,"current_range_meters":28400,"station_id":"ce4bgt12rcd13ifvqce0","pricing_plan_id":"cebpf4jnsgd1na2vs0mg"},{"bike_id":"34e4255c-9fbc-4de9-a3d7-5e22e73f9618","system_id":"levelo_inurba_marseille","lat":43.31114,"lon":5.37735,"is_reserved":false,"is_disabled":false,"rental_uris":{"android":"levelo://app?vid=34e4255c-9fbc-4de9-a3d7-5e22e73f9618","ios":"levelo://app?vid=34e4255c-9fbc-4de9-a3d7-5e22e73f9618"},"vehicle_type_id":"4","last_reported":1736032069,"current_range_meters":38800,"station_id":"ce4bgt92rcd13ifvqcg0","pricing_plan_id":"cebpf4jnsgd1na2vs0mg"},{"bike_id":"6c0950ff-ad32-4545-a3b0-d009b8de7beb","system_id":"levelo_inurba_marseille","lat":43.26501,"lon":5.39547,"is_reserved":false,"is_disabled":false,"rental_uris":{"android":"levelo://app?vid=6c0950ff-ad32-4545-a3b0-d009b8de7beb","ios":"levelo://app?vid=6c0950ff-ad32-4545-a3b0-d009b8de7beb"},"vehicle_type_id":"4","last_reported":1736032069,"current_range_meters":38800,"station_id":"ce4bhi12rcd13ifvqfq0","pricing_plan_id":"cebpf4jnsgd1na2vs0mg"},{"bike_id":"641d8acc-50b2-4173-ab23-c70f2a11d28e","system_id":"levelo_inurba_marseille","lat":43.28151,"lon":5.42648,"is_reserved":false,"is_disabled":true,"rental_uris":{"android":"levelo://app?vid=641d8acc-50b2-4173-ab23-c70f2a11d28e","ios":"levelo://app?vid=641d8acc-50b2-4173-ab23-c70f2a11d28e"},"vehicle_type_id":"4","last_reported":1736032069,"current_range_meters":35600,"station_id":"ce4bhnh2rcd13ifvqgug","pricing_plan_id":"cebpf4jnsgd1na2vs0mg"},{"bike_id":"2afc55b3-bfd4-4a06-84ed-c9ee7611ba9a","system_id":"levelo_inurba_marseille","lat":43.28443,"lon":5.39187,"is_reserved":false,"is_disabled":false,"rental_uris":{"android":"levelo://app?vid=2afc55b3-bfd4-4a06-84ed-c9ee7611ba9a","ios":"levelo://app?vid=2afc55b3-bfd4-4a06-84ed-c9ee7611ba9a"},"vehicle_type_id":"4","last_reported":1736032069,"current_range_meters":20000,"station_id":"ce4bhoh2rcd13ifvqh5g","pricing_plan_id":"cebpf4jnsgd1na2vs0mg"},{"bike_id":"15e503f5-1d52-42d6-a98f-33a61fd8b554","system_id":"levelo_inurba_marseille","lat":43.28463,"lon":5.35886,"is_reserved":false,"is_disabled":true,"rental_uris":{"android":"levelo://app?vid=15e503f5-1d52-42d6-a98f-33a61fd8b554","ios":"levelo://app?vid=15e503f5-1d52-42d6-a98f-33a61fd8b554"},"vehicle_type_id":"4","last_reported":1736032069,"current_range_meters":28400,"station_id":"ce4bhah2rcd13ifvqei0","pricing_plan_id":"cebpf4jnsgd1na2vs0mg"},{"bike_id":"cce6c454-b367-4664-8ef1-67c598e8dbc6","system_id":"levelo_inurba_marseille","lat":43.31072,"lon":5.38372,"is_reserved":false,"is_disabled":false,"rental_uris":{"android":"levelo://app?vid=cce6c454-b367-4664-8ef1-67c598e8dbc6","ios":"levelo://app?vid=cce6c454-b367-4664-8ef1-67c598e8dbc6"},"vehicle_type_id":"4","last_reported":1736032069,"current_range_meters":38800,"station_id":"ce4bgv92rcd13ifvqcr0","pricing_plan_id":"cebpf4jnsgd1na2vs0mg"},{"bike_id":"1c32083a-3b07-4502-8e29-beb20d8418d3","system_id":"levelo_inurba_marseille","lat":43.30308,"lon":5.36913,"is_reserved":false,"is_disabled":false,"rental_uris":{"android":"levelo://app?vid=1c32083a-3b07-4502-8e29-beb20d8418d3","ios":"levelo://app?vid=1c32083a-3b07-4502-8e29-beb20d8418d3"},"vehicle_type_id":"4","last_reported":1736032069,"current_range_meters":39200,"station_id":"ce4bgqh2rcd13ifvqc5g","pricing_plan_id":"cebpf4jnsgd1na2vs0mg"},{"bike_id":"939d444f-90af-4242-b314-80106977b85f","system_id":"levelo_inurba_marseille","lat":43.28134,"lon":5.42675,"is_reserved":false,"is_disabled":false,"rental_uris":{"android":"levelo://app?vid=939d444f-90af-4242-b314-80106977b85f","ios":"levelo://app?vid=939d444f-90af-4242-b314-80106977b85f"},"vehicle_type_id":"4","last_reported":1736032069,"current_range_meters":35200,"station_id":"ce4bhnh2rcd13ifvqgug","pricing_plan_id":"cebpf4jnsgd1na2vs0mg"},{"bike_id":"bd609247-c05b-4bfd-8224-3974e4956916","system_id":"levelo_inurba_marseille","lat":43.30879,"lon":5.36848,"is_reserved":false,"is_disabled":true,"rental_uris":{"android":"levelo://app?vid=bd609247-c05b-4bfd-8224-3974e4956916","ios":"levelo://app?vid=bd609247-c05b-4bfd-8224-3974e4956916"},"vehicle_type_id":"4","last_reported":1736032069,"current_range_meters":34800,"station_id":"ce4bgn92rcd13ifvqbvg","pricing_plan_id":"cebpf4jnsgd1na2vs0mg"},{"bike_id":"a9f90c20-0c4c-4bd2-8739-3a4cbc16cafb","system_id":"levelo_inurba_marseille","lat":43.29165,"lon":5.37145,"is_reserved":false,"is_disabled":false,"rental_uris":{"android":"levelo://app?vid=a9f90c20-0c4c-4bd2-8739-3a4cbc16cafb","ios":"levelo://app?vid=a9f90c20-0c4c-4bd2-8739-3a4cbc16cafb"},"vehicle_type_id":"4","last_reported":1736032069,"current_range_meters":38800,"station_id":"ce4bha92rcd13ifvqeh0","pricing_plan_id":"cebpf4jnsgd1na2vs0mg"},{"bike_id":"54f6c29e-1f89-491c-9684-ffafebbba118","system_id":"levelo_inurba_marseille","lat":43.28995,"lon":5.35616,"is_reserved":false,"is_disabled":false,"rental_uris":{"android":"levelo://app?vid=54f6c29e-1f89-491c-9684-ffafebbba118","ios":"levelo://app?vid=54f6c29e-1f89-491c-9684-ffafebbba118"},"vehicle_type_id":"4","last_reported":1736032069,"current_range_meters":37600,"station_id":"ce4bhb92rcd13ifvqen0","pricing_plan_id":"cebpf4jnsgd1na2vs0mg"},{"bike_id":"39c07b57-5acb-4f0f-9fba-1d11f8a5afbd","system_id":"levelo_inurba_marseille","lat":43.30349,"lon":5.41885,"is_reserved":false,"is_disabled":false,"rental_uris":{"android":"levelo://app?vid=39c07b57-5acb-4f0f-9fba-1d11f8a5afbd","ios":"levelo://app?vid=39c07b57-5acb-4f0f-9fba-1d11f8a5afbd"},"vehicle_type_id":"4","last_reported":1736032069,"current_range_meters":28800,"station_id":"ce4bhop2rcd13ifvqh7g","pricing_plan_id":"cebpf4jnsgd1na2vs0mg"},{"bike_id":"50b46b06-9521-42f4-a35c-b326c9eae1f5","system_id":"levelo_inurba_marseille","lat":43.32358,"lon":5.38893,"is_reserved":false,"is_disabled":false,"rental_uris":{"android":"levelo://app?vid=50b46b06-9521-42f4-a35c-b326c9eae1f5","ios":"levelo://app?vid=50b46b06-9521-42f4-a35c-b326c9eae1f5"},"vehicle_type_id":"4","last_reported":1736032069,"current_range_meters":34800,"station_id":"ce4bhqp2rcd13ifvqhog","pricing_plan_id":"cebpf4jnsgd1na2vs0mg"},{"bike_id":"816e32d2-6e31-4b88-a72e-c5f2731086d3","system_id":"levelo_inurba_marseille","lat":43.28399,"lon":5.37498,"is_reserved":false,"is_disabled":false,"rental_uris":{"android":"levelo://app?vid=816e32d2-6e31-4b88-a72e-c5f2731086d3","ios":"levelo://app?vid=816e32d2-6e31-4b88-a72e-c5f2731086d3"},"vehicle_type_id":"4","last_reported":1736032069,"current_range_meters":25600,"station_id":"ce4bh412rcd13ifvqds0","pricing_plan_id":"cebpf4jnsgd1na2vs0mg"},{"bike_id":"8d4566f5-07fe-47f4-85a6-9546b8b4eddd","system_id":"levelo_inurba_marseille","lat":43.25106,"lon":5.40329,"is_reserved":false,"is_disabled":false,"rental_uris":{"android":"levelo://app?vid=8d4566f5-07fe-47f4-85a6-9546b8b4eddd","ios":"levelo://app?vid=8d4566f5-07fe-47f4-85a6-9546b8b4eddd"},"vehicle_type_id":"4","last_reported":1736032069,"current_range_meters":9200,"station_id":"ce4bhlh2rcd13ifvqgig","pricing_plan_id":"cebpf4jnsgd1na2vs0mg"},{"bike_id":"ef22ed5c-9277-41a7-9094-412b6c7751ba","system_id":"levelo_inurba_marseille","lat":43.26193,"lon":5.37955,"is_reserved":false,"is_disabled":false,"rental_uris":{"android":"levelo://app?vid=ef22ed5c-9277-41a7-9094-412b6c7751ba","ios":"levelo://app?vid=ef22ed5c-9277-41a7-9094-412b6c7751ba"},"vehicle_type_id":"4","last_reported":1736032069,"current_range_meters":38400,"station_id":"ce4bhjp2rcd13ifvqg90","pricing_plan_id":"cebpf4jnsgd1na2vs0mg"},{"bike_id":"37674824-1b6f-4a97-b262-9eae4332dd3e","system_id":"levelo_inurba_marseille","lat":43.26933,"lon":5.38931,"is_reserved":false,"is_disabled":false,"rental_uris":{"android":"levelo://app?vid=37674824-1b6f-4a97-b262-9eae4332dd3e","ios":"levelo://app?vid=37674824-1b6f-4a97-b262-9eae4332dd3e"},"vehicle_type_id":"4","last_reported":1736032069,"current_range_meters":38800,"station_id":"ce4bhhh2rcd13ifvqfl0","pricing_plan_id":"cebpf4jnsgd1na2vs0mg"},{"bike_id":"9edb5d63-4543-4ec6-b56b-b444960fa96a","system_id":"levelo_inurba_marseille","lat":43.29889,"lon":5.38905,"is_reserved":false,"is_disabled":false,"rental_uris":{"android":"levelo://app?vid=9edb5d63-4543-4ec6-b56b-b444960fa96a","ios":"levelo://app?vid=9edb5d63-4543-4ec6-b56b-b444960fa96a"},"vehicle_type_id":"4","last_reported":1736032069,"current_range_meters":35600,"station_id":"ce4bh392rcd13ifvqdl0","pricing_plan_id":"cebpf4jnsgd1na2vs0mg"},{"bike_id":"6b0010cd-3642-4bfe-be22-757a511f1a64","system_id":"levelo_inurba_marseille","lat":43.29538,"lon":5.38548,"is_reserved":false,"is_disabled":false,"rental_uris":{"android":"levelo://app?vid=6b0010cd-3642-4bfe-be22-757a511f1a64","ios":"levelo://app?vid=6b0010cd-3642-4bfe-be22-757a511f1a64"},"vehicle_type_id":"4","last_reported":1736032069,"current_range_meters":30400,"station_id":"ce4bgih2rcd13ifvqba0","pricing_plan_id":"cebpf4jnsgd1na2vs0mg"},{"bike_id":"983a939f-0c90-4b41-8e07-1ba37a328643","system_id":"levelo_inurba_marseille","lat":43.241706,"lon":5.363982,"is_reserved":false,"is_disabled":false,"rental_uris":{"android":"levelo://app?vid=983a939f-0c90-4b41-8e07-1ba37a328643","ios":"levelo://app?vid=983a939f-0c90-4b41-8e07-1ba37a328643"},"vehicle_type_id":"4","last_reported":1736032069,"current_range_meters":24000,"station_id":"cpo36qri1sfpv3e86is0","pricing_plan_id":"cebpf4jnsgd1na2vs0mg"},{"bike_id":"cfd72c2f-528a-4e71-a74c-356dcb547453","system_id":"levelo_inurba_marseille","lat":43.24091,"lon":5.37753,"is_reserved":false,"is_disabled":false,"rental_uris":{"android":"levelo://app?vid=cfd72c2f-528a-4e71-a74c-356dcb547453","ios":"levelo://app?vid=cfd72c2f-528a-4e71-a74c-356dcb547453"},"vehicle_type_id":"4","last_reported":1736032069,"current_range_meters":8800,"station_id":"ce4bhnp2rcd13ifvqgvg","pricing_plan_id":"cebpf4jnsgd1na2vs0mg"},{"bike_id":"2744d3d7-1c79-4955-8dfb-cd899dddfff5","system_id":"levelo_inurba_marseille","lat":43.28444,"lon":5.39229,"is_reserved":false,"is_disabled":false,"rental_uris":{"android":"levelo://app?vid=2744d3d7-1c79-4955-8dfb-cd899dddfff5","ios":"levelo://app?vid=2744d3d7-1c79-4955-8dfb-cd899dddfff5"},"vehicle_type_id":"4","last_reported":1736032069,"current_range_meters":33200,"station_id":"ce4bhoh2rcd13ifvqh5g","pricing_plan_id":"cebpf4jnsgd1na2vs0mg"},{"bike_id":"1f95228b-2707-4808-8d35-1365263ec69f","system_id":"levelo_inurba_marseille","lat":43.29934,"lon":5.36513,"is_reserved":false,"is_disabled":false,"rental_uris":{"android":"levelo://app?vid=1f95228b-2707-4808-8d35-1365263ec69f","ios":"levelo://app?vid=1f95228b-2707-4808-8d35-1365263ec69f"},"vehicle_type_id":"4","last_reported":1736032069,"current_range_meters":24400,"station_id":"ce4bgm92rcd13ifvqbr0","pricing_plan_id":"cebpf4jnsgd1na2vs0mg"},{"bike_id":"32fac1ac-160b-43ec-a560-a05ca5d5e872","system_id":"levelo_inurba_marseille","lat":43.31892,"lon":5.40729,"is_reserved":false,"is_disabled":false,"rental_uris":{"android":"levelo://app?vid=32fac1ac-160b-43ec-a560-a05ca5d5e872","ios":"levelo://app?vid=32fac1ac-160b-43ec-a560-a05ca5d5e872"},"vehicle_type_id":"4","last_reported":1736032069,"current_range_meters":38800,"station_id":"ce4bhq12rcd13ifvqhig","pricing_plan_id":"cebpf4jnsgd1na2vs0mg"},{"bike_id":"09a9cb86-d81c-4618-82f7-eabb09c6ac81","system_id":"levelo_inurba_marseille","lat":43.29994,"lon":5.37178,"is_reserved":false,"is_disabled":false,"rental_uris":{"android":"levelo://app?vid=09a9cb86-d81c-4618-82f7-eabb09c6ac81","ios":"levelo://app?vid=09a9cb86-d81c-4618-82f7-eabb09c6ac81"},"vehicle_type_id":"4","last_reported":1736032069,"current_range_meters":38000,"station_id":"ce4bgr92rcd13ifvqc7g","pricing_plan_id":"cebpf4jnsgd1na2vs0mg"},{"bike_id":"44ca4ac3-dcc1-4588-b960-4ecb52d04b93","system_id":"levelo_inurba_marseille","lat":43.2954,"lon":5.38541,"is_reserved":false,"is_disabled":false,"rental_uris":{"android":"levelo://app?vid=44ca4ac3-dcc1-4588-b960-4ecb52d04b93","ios":"levelo://app?vid=44ca4ac3-dcc1-4588-b960-4ecb52d04b93"},"vehicle_type_id":"4","last_reported":1736032069,"current_range_meters":27600,"station_id":"ce4bgih2rcd13ifvqba0","pricing_plan_id":"cebpf4jnsgd1na2vs0mg"},{"bike_id":"d9288af1-5f8c-4fd9-8c46-d082ffb038e4","system_id":"levelo_inurba_marseille","lat":43.27164,"lon":5.40997,"is_reserved":false,"is_disabled":false,"rental_uris":{"android":"levelo://app?vid=d9288af1-5f8c-4fd9-8c46-d082ffb038e4","ios":"levelo://app?vid=d9288af1-5f8c-4fd9-8c46-d082ffb038e4"},"vehicle_type_id":"4","last_reported":1736032069,"current_range_meters":38800,"station_id":"ce4bhl12rcd13ifvqgf0","pricing_plan_id":"cebpf4jnsgd1na2vs0mg"},{"bike_id":"bcc619c8-857b-4da4-aae0-71b0c2252e06","system_id":"levelo_inurba_marseille","lat":43.26696,"lon":5.38255,"is_reserved":false,"is_disabled":true,"rental_uris":{"android":"levelo://app?vid=bcc619c8-857b-4da4-aae0-71b0c2252e06","ios":"levelo://app?vid=bcc619c8-857b-4da4-aae0-71b0c2252e06"},"vehicle_type_id":"4","last_reported":1736032069,"current_range_meters":38800,"station_id":"ce4bhg92rcd13ifvqf90","pricing_plan_id":"cebpf4jnsgd1na2vs0mg"},{"bike_id":"566f9d19-656c-4a7f-911a-9786f420a56c","system_id":"levelo_inurba_marseille","lat":43.28436,"lon":5.39185,"is_reserved":false,"is_disabled":false,"rental_uris":{"android":"levelo://app?vid=566f9d19-656c-4a7f-911a-9786f420a56c","ios":"levelo://app?vid=566f9d19-656c-4a7f-911a-9786f420a56c"},"vehicle_type_id":"4","last_reported":1736032069,"current_range_meters":30800,"station_id":"ce4bhoh2rcd13ifvqh5g","pricing_plan_id":"cebpf4jnsgd1na2vs0mg"},{"bike_id":"81f5ac7a-cb4f-41f3-86cb-c3adfa368f74","system_id":"levelo_inurba_marseille","lat":43.2795,"lon":5.4104,"is_reserved":false,"is_disabled":false,"rental_uris":{"android":"levelo://app?vid=81f5ac7a-cb4f-41f3-86cb-c3adfa368f74","ios":"levelo://app?vid=81f5ac7a-cb4f-41f3-86cb-c3adfa368f74"},"vehicle_type_id":"4","last_reported":1736032069,"current_range_meters":32800,"station_id":"ce4bhnp2rcd13ifvqh0g","pricing_plan_id":"cebpf4jnsgd1na2vs0mg"},{"bike_id":"53f617a7-9ee8-4223-a487-3a2df429000b","system_id":"levelo_inurba_marseille","lat":43.31109,"lon":5.37758,"is_reserved":false,"is_disabled":false,"rental_uris":{"android":"levelo://app?vid=53f617a7-9ee8-4223-a487-3a2df429000b","ios":"levelo://app?vid=53f617a7-9ee8-4223-a487-3a2df429000b"},"vehicle_type_id":"4","last_reported":1736032069,"current_range_meters":37600,"station_id":"ce4bgt92rcd13ifvqcg0","pricing_plan_id":"cebpf4jnsgd1na2vs0mg"},{"bike_id":"e56311a9-696b-4623-ac80-1212db344ea8","system_id":"levelo_inurba_marseille","lat":43.26809,"lon":5.40253,"is_reserved":false,"is_disabled":false,"rental_uris":{"android":"levelo://app?vid=e56311a9-696b-4623-ac80-1212db344ea8","ios":"levelo://app?vid=e56311a9-696b-4623-ac80-1212db344ea8"},"vehicle_type_id":"4","last_reported":1736032069,"current_range_meters":38800,"station_id":"ce501612rcd8frsf0b60","pricing_plan_id":"cebpf4jnsgd1na2vs0mg"},{"bike_id":"95c4c7cc-3414-4690-b9e8-cbd22ce058c6","system_id":"levelo_inurba_marseille","lat":43.30134,"lon":5.38788,"is_reserved":false,"is_disabled":false,"rental_uris":{"android":"levelo://app?vid=95c4c7cc-3414-4690-b9e8-cbd22ce058c6","ios":"levelo://app?vid=95c4c7cc-3414-4690-b9e8-cbd22ce058c6"},"vehicle_type_id":"4","last_reported":1736032069,"current_range_meters":39200,"station_id":"ce4bhoh2rcd13ifvqh6g","pricing_plan_id":"cebpf4jnsgd1na2vs0mg"},{"bike_id":"182c8827-ad8b-4aa6-9862-5b2da55309dc","system_id":"levelo_inurba_marseille","lat":43.29213,"lon":5.36045,"is_reserved":false,"is_disabled":true,"rental_uris":{"android":"levelo://app?vid=182c8827-ad8b-4aa6-9862-5b2da55309dc","ios":"levelo://app?vid=182c8827-ad8b-4aa6-9862-5b2da55309dc"},"vehicle_type_id":"4","last_reported":1736032069,"current_range_meters":7200,"station_id":"ce4bhbh2rcd13ifvqeqg","pricing_plan_id":"cebpf4jnsgd1na2vs0mg"},{"bike_id":"e09d61b5-3b7a-4043-816e-c30daf44ca23","system_id":"levelo_inurba_marseille","lat":43.31688,"lon":5.40464,"is_reserved":false,"is_disabled":false,"rental_uris":{"android":"levelo://app?vid=e09d61b5-3b7a-4043-816e-c30daf44ca23","ios":"levelo://app?vid=e09d61b5-3b7a-4043-816e-c30daf44ca23"},"vehicle_type_id":"4","last_reported":1736032069,"current_range_meters":20800,"station_id":"ce4bh012rcd13ifvqd00","pricing_plan_id":"cebpf4jnsgd1na2vs0mg"},{"bike_id":"d8b76d84-2dfc-400f-9630-9e7b0787e9cc","system_id":"levelo_inurba_marseille","lat":43.27501,"lon":5.42454,"is_reserved":false,"is_disabled":true,"rental_uris":{"android":"levelo://app?vid=d8b76d84-2dfc-400f-9630-9e7b0787e9cc","ios":"levelo://app?vid=d8b76d84-2dfc-400f-9630-9e7b0787e9cc"},"vehicle_type_id":"4","last_reported":1736032069,"current_range_meters":7200,"station_id":"ce4bhn92rcd13ifvqgrg","pricing_plan_id":"cebpf4jnsgd1na2vs0mg"},{"bike_id":"eaecfcca-aa89-4e9a-8d17-c5be1539665b","system_id":"levelo_inurba_marseille","lat":43.28277,"lon":5.35078,"is_reserved":false,"is_disabled":true,"rental_uris":{"android":"levelo://app?vid=eaecfcca-aa89-4e9a-8d17-c5be1539665b","ios":"levelo://app?vid=eaecfcca-aa89-4e9a-8d17-c5be1539665b"},"vehicle_type_id":"4","last_reported":1736032069,"current_range_meters":4800,"station_id":"ce4bhbp2rcd13ifvqerg","pricing_plan_id":"cebpf4jnsgd1na2vs0mg"},{"bike_id":"896797d5-e48c-435a-a4ff-c7d0b4682116","system_id":"levelo_inurba_marseille","lat":43.27812,"lon":5.40714,"is_reserved":false,"is_disabled":false,"rental_uris":{"android":"levelo://app?vid=896797d5-e48c-435a-a4ff-c7d0b4682116","ios":"levelo://app?vid=896797d5-e48c-435a-a4ff-c7d0b4682116"},"vehicle_type_id":"4","last_reported":1736032069,"current_range_meters":25600,"station_id":"ce4bhnh2rcd13ifvqgtg","pricing_plan_id":"cebpf4jnsgd1na2vs0mg"},{"bike_id":"bbf16901-1354-41cb-b2ef-aa011be26434","system_id":"levelo_inurba_marseille","lat":43.26806,"lon":5.40277,"is_reserved":false,"is_disabled":false,"rental_uris":{"android":"levelo://app?vid=bbf16901-1354-41cb-b2ef-aa011be26434","ios":"levelo://app?vid=bbf16901-1354-41cb-b2ef-aa011be26434"},"vehicle_type_id":"4","last_reported":1736032069,"current_range_meters":38800,"station_id":"ce501612rcd8frsf0b60","pricing_plan_id":"cebpf4jnsgd1na2vs0mg"},{"bike_id":"4e86006f-38d3-401d-be15-e8dd8ff28846","system_id":"levelo_inurba_marseille","lat":43.27895,"lon":5.38001,"is_reserved":false,"is_disabled":false,"rental_uris":{"android":"levelo://app?vid=4e86006f-38d3-401d-be15-e8dd8ff28846","ios":"levelo://app?vid=4e86006f-38d3-401d-be15-e8dd8ff28846"},"vehicle_type_id":"4","last_reported":1736032069,"current_range_meters":38800,"station_id":"ce4bhf92rcd13ifvqf50","pricing_plan_id":"cebpf4jnsgd1na2vs0mg"},{"bike_id":"1ea77e5a-5105-4780-8651-5152cb7f17a1","system_id":"levelo_inurba_marseille","lat":43.29526,"lon":5.39025,"is_reserved":false,"is_disabled":false,"rental_uris":{"android":"levelo://app?vid=1ea77e5a-5105-4780-8651-5152cb7f17a1","ios":"levelo://app?vid=1ea77e5a-5105-4780-8651-5152cb7f17a1"},"vehicle_type_id":"4","last_reported":1736032069,"current_range_meters":38800,"station_id":"ce4bh3p2rcd13ifvqdp0","pricing_plan_id":"cebpf4jnsgd1na2vs0mg"},{"bike_id":"a588cb44-8563-4fee-9f1f-8d2ffd45548e","system_id":"levelo_inurba_marseille","lat":43.27898,"lon":5.37999,"is_reserved":false,"is_disabled":false,"rental_uris":{"android":"levelo://app?vid=a588cb44-8563-4fee-9f1f-8d2ffd45548e","ios":"levelo://app?vid=a588cb44-8563-4fee-9f1f-8d2ffd45548e"},"vehicle_type_id":"4","last_reported":1736032069,"current_range_meters":29600,"station_id":"ce4bhf92rcd13ifvqf50","pricing_plan_id":"cebpf4jnsgd1na2vs0mg"},{"bike_id":"36d72a86-2006-4935-94c0-f8a9aba928ab","system_id":"levelo_inurba_marseille","lat":43.27917,"lon":5.39581,"is_reserved":false,"is_disabled":false,"rental_uris":{"android":"levelo://app?vid=36d72a86-2006-4935-94c0-f8a9aba928ab","ios":"levelo://app?vid=36d72a86-2006-4935-94c0-f8a9aba928ab"},"vehicle_type_id":"4","last_reported":1736032069,"current_range_meters":19600,"station_id":"ce4bhf92rcd13ifvqf40","pricing_plan_id":"cebpf4jnsgd1na2vs0mg"},{"bike_id":"7b7b303a-a0b7-4a31-b23c-f8fd5396854f","system_id":"levelo_inurba_marseille","lat":43.27679,"lon":5.38929,"is_reserved":false,"is_disabled":false,"rental_uris":{"android":"levelo://app?vid=7b7b303a-a0b7-4a31-b23c-f8fd5396854f","ios":"levelo://app?vid=7b7b303a-a0b7-4a31-b23c-f8fd5396854f"},"vehicle_type_id":"4","last_reported":1736032069,"current_range_meters":35200,"station_id":"ce4bhi12rcd13ifvqfo0","pricing_plan_id":"cebpf4jnsgd1na2vs0mg"},{"bike_id":"b2816c12-700b-489c-8c4f-7d70634bbdb9","system_id":"levelo_inurba_marseille","lat":43.27992,"lon":5.40023,"is_reserved":false,"is_disabled":false,"rental_uris":{"android":"levelo://app?vid=b2816c12-700b-489c-8c4f-7d70634bbdb9","ios":"levelo://app?vid=b2816c12-700b-489c-8c4f-7d70634bbdb9"},"vehicle_type_id":"4","last_reported":1736032069,"current_range_meters":3600,"station_id":"ce4bho92rcd13ifvqh4g","pricing_plan_id":"cebpf4jnsgd1na2vs0mg"},{"bike_id":"106410ef-38e7-4ceb-a005-c087e0a4c836","system_id":"levelo_inurba_marseille","lat":43.2603,"lon":5.37549,"is_reserved":false,"is_disabled":false,"rental_uris":{"android":"levelo://app?vid=106410ef-38e7-4ceb-a005-c087e0a4c836","ios":"levelo://app?vid=106410ef-38e7-4ceb-a005-c087e0a4c836"},"vehicle_type_id":"4","last_reported":1736032069,"current_range_meters":38800,"station_id":"ce4bhgh2rcd13ifvqfa0","pricing_plan_id":"cebpf4jnsgd1na2vs0mg"},{"bike_id":"182069f5-9311-441d-b62a-092147390eed","system_id":"levelo_inurba_marseille","lat":43.23192,"lon":5.39997,"is_reserved":false,"is_disabled":false,"rental_uris":{"android":"levelo://app?vid=182069f5-9311-441d-b62a-092147390eed","ios":"levelo://app?vid=182069f5-9311-441d-b62a-092147390eed"},"vehicle_type_id":"4","last_reported":1736032069,"current_range_meters":38800,"station_id":"ce4bhn12rcd13ifvqgqg","pricing_plan_id":"cebpf4jnsgd1na2vs0mg"},{"bike_id":"5d0325b4-bbc6-4de3-bcc4-af792ab62121","system_id":"levelo_inurba_marseille","lat":43.27506,"lon":5.42453,"is_reserved":false,"is_disabled":false,"rental_uris":{"android":"levelo://app?vid=5d0325b4-bbc6-4de3-bcc4-af792ab62121","ios":"levelo://app?vid=5d0325b4-bbc6-4de3-bcc4-af792ab62121"},"vehicle_type_id":"4","last_reported":1736032069,"current_range_meters":14400,"station_id":"ce4bhn92rcd13ifvqgrg","pricing_plan_id":"cebpf4jnsgd1na2vs0mg"},{"bike_id":"463636ee-630d-47e5-bbe1-8d9064300f90","system_id":"levelo_inurba_marseille","lat":43.28722,"lon":5.39964,"is_reserved":false,"is_disabled":false,"rental_uris":{"android":"levelo://app?vid=463636ee-630d-47e5-bbe1-8d9064300f90","ios":"levelo://app?vid=463636ee-630d-47e5-bbe1-8d9064300f90"},"vehicle_type_id":"4","last_reported":1736032069,"current_range_meters":38400,"station_id":"ce4bho92rcd13ifvqh3g","pricing_plan_id":"cebpf4jnsgd1na2vs0mg"},{"bike_id":"b3675ee3-ecbf-4b35-aa11-6ad9d3c21926","system_id":"levelo_inurba_marseille","lat":43.292,"lon":5.39315,"is_reserved":false,"is_disabled":false,"rental_uris":{"android":"levelo://app?vid=b3675ee3-ecbf-4b35-aa11-6ad9d3c21926","ios":"levelo://app?vid=b3675ee3-ecbf-4b35-aa11-6ad9d3c21926"},"vehicle_type_id":"4","last_reported":1736032069,"current_range_meters":36800,"station_id":"ce4bh192rcd13ifvqdd0","pricing_plan_id":"cebpf4jnsgd1na2vs0mg"},{"bike_id":"270f72ca-6ff0-4006-b955-8701cfe72efd","system_id":"levelo_inurba_marseille","lat":43.29263,"lon":5.4014,"is_reserved":false,"is_disabled":true,"rental_uris":{"android":"levelo://app?vid=270f72ca-6ff0-4006-b955-8701cfe72efd","ios":"levelo://app?vid=270f72ca-6ff0-4006-b955-8701cfe72efd"},"vehicle_type_id":"4","last_reported":1736032069,"current_range_meters":4800,"station_id":"ce4bh312rcd13ifvqdk0","pricing_plan_id":"cebpf4jnsgd1na2vs0mg"},{"bike_id":"61a32d79-ac0f-4d14-be85-ef96ea02928b","system_id":"levelo_inurba_marseille","lat":43.29267,"lon":5.36846,"is_reserved":false,"is_disabled":false,"rental_uris":{"android":"levelo://app?vid=61a32d79-ac0f-4d14-be85-ef96ea02928b","ios":"levelo://app?vid=61a32d79-ac0f-4d14-be85-ef96ea02928b"},"vehicle_type_id":"4","last_reported":1736032069,"current_range_meters":18800,"station_id":"ce4bhbp2rcd13ifvqesg","pricing_plan_id":"cebpf4jnsgd1na2vs0mg"},{"bike_id":"a30fe080-22f3-4a43-87de-e603ec1ba604","system_id":"levelo_inurba_marseille","lat":43.29185,"lon":5.39331,"is_reserved":false,"is_disabled":false,"rental_uris":{"android":"levelo://app?vid=a30fe080-22f3-4a43-87de-e603ec1ba604","ios":"levelo://app?vid=a30fe080-22f3-4a43-87de-e603ec1ba604"},"vehicle_type_id":"4","last_reported":1736032069,"current_range_meters":12800,"station_id":"ce4bh192rcd13ifvqdd0","pricing_plan_id":"cebpf4jnsgd1na2vs0mg"},{"bike_id":"7870e21d-c2c3-45e1-9fbf-fd88f34a2856","system_id":"levelo_inurba_marseille","lat":43.28727,"lon":5.36105,"is_reserved":false,"is_disabled":false,"rental_uris":{"android":"levelo://app?vid=7870e21d-c2c3-45e1-9fbf-fd88f34a2856","ios":"levelo://app?vid=7870e21d-c2c3-45e1-9fbf-fd88f34a2856"},"vehicle_type_id":"4","last_reported":1736032069,"current_range_meters":20800,"station_id":"cki0cbj6b192h4jlfktg","pricing_plan_id":"cebpf4jnsgd1na2vs0mg"},{"bike_id":"359a1aa8-70b2-403f-9709-f8f88023876b","system_id":"levelo_inurba_marseille","lat":43.26952,"lon":5.38631,"is_reserved":false,"is_disabled":false,"rental_uris":{"android":"levelo://app?vid=359a1aa8-70b2-403f-9709-f8f88023876b","ios":"levelo://app?vid=359a1aa8-70b2-403f-9709-f8f88023876b"},"vehicle_type_id":"4","last_reported":1736032069,"current_range_meters":24800,"station_id":"ce4bhh92rcd13ifvqfh0","pricing_plan_id":"cebpf4jnsgd1na2vs0mg"},{"bike_id":"b5de95e0-8f34-41aa-a5fc-c4e76e03a994","system_id":"levelo_inurba_marseille","lat":43.28095,"lon":5.39656,"is_reserved":false,"is_disabled":true,"rental_uris":{"android":"levelo://app?vid=b5de95e0-8f34-41aa-a5fc-c4e76e03a994","ios":"levelo://app?vid=b5de95e0-8f34-41aa-a5fc-c4e76e03a994"},"vehicle_type_id":"4","last_reported":1736032069,"current_range_meters":34000,"station_id":"ce4bho12rcd13ifvqh2g","pricing_plan_id":"cebpf4jnsgd1na2vs0mg"},{"bike_id":"aa33a53e-f806-43a8-ad7e-8e2bd9644426","system_id":"levelo_inurba_marseille","lat":43.3235,"lon":5.40667,"is_reserved":false,"is_disabled":true,"rental_uris":{"android":"levelo://app?vid=aa33a53e-f806-43a8-ad7e-8e2bd9644426","ios":"levelo://app?vid=aa33a53e-f806-43a8-ad7e-8e2bd9644426"},"vehicle_type_id":"4","last_reported":1736032069,"current_range_meters":0,"station_id":"ce4bhq92rcd13ifvqhjg","pricing_plan_id":"cebpf4jnsgd1na2vs0mg"},{"bike_id":"b9dc4ae5-8ee5-4a0e-8a96-a2e835ae7769","system_id":"levelo_inurba_marseille","lat":43.243928,"lon":5.370499,"is_reserved":false,"is_disabled":false,"rental_uris":{"android":"levelo://app?vid=b9dc4ae5-8ee5-4a0e-8a96-a2e835ae7769","ios":"levelo://app?vid=b9dc4ae5-8ee5-4a0e-8a96-a2e835ae7769"},"vehicle_type_id":"4","last_reported":1736032069,"current_range_meters":16000,"station_id":"ce4bhhh2rcd13ifvqfk0","pricing_plan_id":"cebpf4jnsgd1na2vs0mg"},{"bike_id":"d6577b0d-61c3-4234-b260-3d0c86a6c451","system_id":"levelo_inurba_marseille","lat":43.28408,"lon":5.37503,"is_reserved":false,"is_disabled":false,"rental_uris":{"android":"levelo://app?vid=d6577b0d-61c3-4234-b260-3d0c86a6c451","ios":"levelo://app?vid=d6577b0d-61c3-4234-b260-3d0c86a6c451"},"vehicle_type_id":"4","last_reported":1736032069,"current_range_meters":27200,"station_id":"ce4bh412rcd13ifvqds0","pricing_plan_id":"cebpf4jnsgd1na2vs0mg"},{"bike_id":"ad707c10-d18d-4f6b-9412-d00768afb321","system_id":"levelo_inurba_marseille","lat":43.29973,"lon":5.38481,"is_reserved":false,"is_disabled":false,"rental_uris":{"android":"levelo://app?vid=ad707c10-d18d-4f6b-9412-d00768afb321","ios":"levelo://app?vid=ad707c10-d18d-4f6b-9412-d00768afb321"},"vehicle_type_id":"4","last_reported":1736032069,"current_range_meters":4800,"station_id":"ce4bgj92rcd13ifvqbd0","pricing_plan_id":"cebpf4jnsgd1na2vs0mg"},{"bike_id":"1c6d81c2-7270-492c-95be-1c9cab8292cd","system_id":"levelo_inurba_marseille","lat":43.29186,"lon":5.39315,"is_reserved":false,"is_disabled":false,"rental_uris":{"android":"levelo://app?vid=1c6d81c2-7270-492c-95be-1c9cab8292cd","ios":"levelo://app?vid=1c6d81c2-7270-492c-95be-1c9cab8292cd"},"vehicle_type_id":"4","last_reported":1736032069,"current_range_meters":12000,"station_id":"ce4bh192rcd13ifvqdd0","pricing_plan_id":"cebpf4jnsgd1na2vs0mg"},{"bike_id":"e4aafe0c-811a-47c5-b563-d17e885d1730","system_id":"levelo_inurba_marseille","lat":43.28706,"lon":5.39969,"is_reserved":false,"is_disabled":false,"rental_uris":{"android":"levelo://app?vid=e4aafe0c-811a-47c5-b563-d17e885d1730","ios":"levelo://app?vid=e4aafe0c-811a-47c5-b563-d17e885d1730"},"vehicle_type_id":"4","last_reported":1736032069,"current_range_meters":24000,"station_id":"ce4bho92rcd13ifvqh3g","pricing_plan_id":"cebpf4jnsgd1na2vs0mg"},{"bike_id":"45744d07-eb73-453c-b6ee-d9a256b9901b","system_id":"levelo_inurba_marseille","lat":43.30933,"lon":5.39016,"is_reserved":false,"is_disabled":true,"rental_uris":{"android":"levelo://app?vid=45744d07-eb73-453c-b6ee-d9a256b9901b","ios":"levelo://app?vid=45744d07-eb73-453c-b6ee-d9a256b9901b"},"vehicle_type_id":"4","last_reported":1736032069,"current_range_meters":16800,"station_id":"ce4bgup2rcd13ifvqco0","pricing_plan_id":"cebpf4jnsgd1na2vs0mg"},{"bike_id":"336b1a63-3ea7-4e1c-8fe5-6b13ba610617","system_id":"levelo_inurba_marseille","lat":43.2861,"lon":5.37058,"is_reserved":false,"is_disabled":false,"rental_uris":{"android":"levelo://app?vid=336b1a63-3ea7-4e1c-8fe5-6b13ba610617","ios":"levelo://app?vid=336b1a63-3ea7-4e1c-8fe5-6b13ba610617"},"vehicle_type_id":"4","last_reported":1736032069,"current_range_meters":39200,"station_id":"ce4bht12rcd13ifvqi60","pricing_plan_id":"cebpf4jnsgd1na2vs0mg"},{"bike_id":"26dcc660-0202-49c7-97e1-1ec6237dbbd9","system_id":"levelo_inurba_marseille","lat":43.28421,"lon":5.34988,"is_reserved":false,"is_disabled":false,"rental_uris":{"android":"levelo://app?vid=26dcc660-0202-49c7-97e1-1ec6237dbbd9","ios":"levelo://app?vid=26dcc660-0202-49c7-97e1-1ec6237dbbd9"},"vehicle_type_id":"4","last_reported":1736032069,"current_range_meters":34000,"station_id":"ce4bhbh2rcd13ifvqepg","pricing_plan_id":"cebpf4jnsgd1na2vs0mg"},{"bike_id":"e14fc727-e110-4847-a3c5-e82ea6a6fcb8","system_id":"levelo_inurba_marseille","lat":43.28945,"lon":5.3964,"is_reserved":false,"is_disabled":true,"rental_uris":{"android":"levelo://app?vid=e14fc727-e110-4847-a3c5-e82ea6a6fcb8","ios":"levelo://app?vid=e14fc727-e110-4847-a3c5-e82ea6a6fcb8"},"vehicle_type_id":"4","last_reported":1736032069,"current_range_meters":38000,"station_id":"ce4bh3h2rcd13ifvqdn0","pricing_plan_id":"cebpf4jnsgd1na2vs0mg"},{"bike_id":"90082386-cf33-41a2-be84-4f9e667b59c0","system_id":"levelo_inurba_marseille","lat":43.31166,"lon":5.38716,"is_reserved":false,"is_disabled":false,"rental_uris":{"android":"levelo://app?vid=90082386-cf33-41a2-be84-4f9e667b59c0","ios":"levelo://app?vid=90082386-cf33-41a2-be84-4f9e667b59c0"},"vehicle_type_id":"4","last_reported":1736032069,"current_range_meters":34000,"station_id":"ce4bgv12rcd13ifvqcp0","pricing_plan_id":"cebpf4jnsgd1na2vs0mg"},{"bike_id":"0a99b035-72c7-4044-b4b4-123a52de8ffe","system_id":"levelo_inurba_marseille","lat":43.31117,"lon":5.37769,"is_reserved":false,"is_disabled":false,"rental_uris":{"android":"levelo://app?vid=0a99b035-72c7-4044-b4b4-123a52de8ffe","ios":"levelo://app?vid=0a99b035-72c7-4044-b4b4-123a52de8ffe"},"vehicle_type_id":"4","last_reported":1736032069,"current_range_meters":28000,"station_id":"ce4bgt92rcd13ifvqcg0","pricing_plan_id":"cebpf4jnsgd1na2vs0mg"},{"bike_id":"5aa10f0c-aa8d-40fb-a2a3-c962ce55191c","system_id":"levelo_inurba_marseille","lat":43.29793,"lon":5.38116,"is_reserved":false,"is_disabled":false,"rental_uris":{"android":"levelo://app?vid=5aa10f0c-aa8d-40fb-a2a3-c962ce55191c","ios":"levelo://app?vid=5aa10f0c-aa8d-40fb-a2a3-c962ce55191c"},"vehicle_type_id":"4","last_reported":1736032069,"current_range_meters":38800,"station_id":"ce4bgip2rcd13ifvqbb0","pricing_plan_id":"cebpf4jnsgd1na2vs0mg"},{"bike_id":"ac6d5a53-df16-4498-98ed-26ca3acb3e9b","system_id":"levelo_inurba_marseille","lat":43.262,"lon":5.37443,"is_reserved":false,"is_disabled":false,"rental_uris":{"android":"levelo://app?vid=ac6d5a53-df16-4498-98ed-26ca3acb3e9b","ios":"levelo://app?vid=ac6d5a53-df16-4498-98ed-26ca3acb3e9b"},"vehicle_type_id":"4","last_reported":1736032069,"current_range_meters":38000,"station_id":"ce4bhgp2rcd13ifvqfc0","pricing_plan_id":"cebpf4jnsgd1na2vs0mg"},{"bike_id":"223a4990-4e05-4395-8830-aea2c89ecd7a","system_id":"levelo_inurba_marseille","lat":43.29028,"lon":5.38644,"is_reserved":false,"is_disabled":true,"rental_uris":{"android":"levelo://app?vid=223a4990-4e05-4395-8830-aea2c89ecd7a","ios":"levelo://app?vid=223a4990-4e05-4395-8830-aea2c89ecd7a"},"vehicle_type_id":"4","last_reported":1736032069,"current_range_meters":31200,"station_id":"ce4bh4p2rcd13ifvqe0g","pricing_plan_id":"cebpf4jnsgd1na2vs0mg"},{"bike_id":"68b409ba-7a44-42dc-ae3b-6418ba6f5e03","system_id":"levelo_inurba_marseille","lat":43.29928,"lon":5.37464,"is_reserved":false,"is_disabled":false,"rental_uris":{"android":"levelo://app?vid=68b409ba-7a44-42dc-ae3b-6418ba6f5e03","ios":"levelo://app?vid=68b409ba-7a44-42dc-ae3b-6418ba6f5e03"},"vehicle_type_id":"4","last_reported":1736032069,"current_range_meters":37600,"station_id":"ce4bgjh2rcd13ifvqbg0","pricing_plan_id":"cebpf4jnsgd1na2vs0mg"},{"bike_id":"47482a76-601c-4d8d-9a9c-6565b981ebaf","system_id":"levelo_inurba_marseille","lat":43.29847,"lon":5.36285,"is_reserved":false,"is_disabled":false,"rental_uris":{"android":"levelo://app?vid=47482a76-601c-4d8d-9a9c-6565b981ebaf","ios":"levelo://app?vid=47482a76-601c-4d8d-9a9c-6565b981ebaf"},"vehicle_type_id":"4","last_reported":1736032069,"current_range_meters":24400,"station_id":"ce4bgpp2rcd13ifvqc3g","pricing_plan_id":"cebpf4jnsgd1na2vs0mg"},{"bike_id":"8a474426-cd46-4cf8-9edc-ef843a0ca02e","system_id":"levelo_inurba_marseille","lat":43.26561,"lon":5.39046,"is_reserved":false,"is_disabled":true,"rental_uris":{"android":"levelo://app?vid=8a474426-cd46-4cf8-9edc-ef843a0ca02e","ios":"levelo://app?vid=8a474426-cd46-4cf8-9edc-ef843a0ca02e"},"vehicle_type_id":"4","last_reported":1736032069,"current_range_meters":37600,"station_id":"ce4bhe12rcd13ifvqf30","pricing_plan_id":"cebpf4jnsgd1na2vs0mg"},{"bike_id":"d0234cf8-3190-48a6-bab2-6c84efe1b44c","system_id":"levelo_inurba_marseille","lat":43.2482,"lon":5.37459,"is_reserved":false,"is_disabled":false,"rental_uris":{"android":"levelo://app?vid=d0234cf8-3190-48a6-bab2-6c84efe1b44c","ios":"levelo://app?vid=d0234cf8-3190-48a6-bab2-6c84efe1b44c"},"vehicle_type_id":"4","last_reported":1736032069,"current_range_meters":38800,"station_id":"ce4bhgh2rcd13ifvqfb0","pricing_plan_id":"cebpf4jnsgd1na2vs0mg"},{"bike_id":"bbf998ea-d252-4590-8711-16d78ff4b07c","system_id":"levelo_inurba_marseille","lat":43.24626,"lon":5.38925,"is_reserved":false,"is_disabled":false,"rental_uris":{"android":"levelo://app?vid=bbf998ea-d252-4590-8711-16d78ff4b07c","ios":"levelo://app?vid=bbf998ea-d252-4590-8711-16d78ff4b07c"},"vehicle_type_id":"4","last_reported":1736032069,"current_range_meters":36800,"station_id":"ce4bhg12rcd13ifvqf60","pricing_plan_id":"cebpf4jnsgd1na2vs0mg"},{"bike_id":"8a4eb83d-ccac-4c56-adc4-38b6be0f613d","system_id":"levelo_inurba_marseille","lat":43.24383,"lon":5.37077,"is_reserved":false,"is_disabled":false,"rental_uris":{"android":"levelo://app?vid=8a4eb83d-ccac-4c56-adc4-38b6be0f613d","ios":"levelo://app?vid=8a4eb83d-ccac-4c56-adc4-38b6be0f613d"},"vehicle_type_id":"4","last_reported":1736032069,"current_range_meters":30400,"station_id":"ce4bhhh2rcd13ifvqfk0","pricing_plan_id":"cebpf4jnsgd1na2vs0mg"},{"bike_id":"af68d2e6-d7e3-4eb8-9cf5-37ac1985b5a3","system_id":"levelo_inurba_marseille","lat":43.23053,"lon":5.35494,"is_reserved":false,"is_disabled":false,"rental_uris":{"android":"levelo://app?vid=af68d2e6-d7e3-4eb8-9cf5-37ac1985b5a3","ios":"levelo://app?vid=af68d2e6-d7e3-4eb8-9cf5-37ac1985b5a3"},"vehicle_type_id":"4","last_reported":1736032069,"current_range_meters":20400,"station_id":"cpo3342slgdg3j2ifvpg","pricing_plan_id":"cebpf4jnsgd1na2vs0mg"},{"bike_id":"2f5bc9ff-ecc2-44af-af22-49171ad2c1a7","system_id":"levelo_inurba_marseille","lat":43.30098,"lon":5.39071,"is_reserved":false,"is_disabled":false,"rental_uris":{"android":"levelo://app?vid=2f5bc9ff-ecc2-44af-af22-49171ad2c1a7","ios":"levelo://app?vid=2f5bc9ff-ecc2-44af-af22-49171ad2c1a7"},"vehicle_type_id":"4","last_reported":1736032069,"current_range_meters":16000,"station_id":"ce4bh192rcd13ifvqdb0","pricing_plan_id":"cebpf4jnsgd1na2vs0mg"},{"bike_id":"f5a4a49b-f269-4ec2-b80a-e579bf67a966","system_id":"levelo_inurba_marseille","lat":43.309258,"lon":5.36843,"is_reserved":false,"is_disabled":true,"rental_uris":{"android":"levelo://app?vid=f5a4a49b-f269-4ec2-b80a-e579bf67a966","ios":"levelo://app?vid=f5a4a49b-f269-4ec2-b80a-e579bf67a966"},"vehicle_type_id":"4","last_reported":1736032069,"current_range_meters":39200,"station_id":"ce4bgn92rcd13ifvqbvg","pricing_plan_id":"cebpf4jnsgd1na2vs0mg"},{"bike_id":"6f21fba1-6f8e-47c4-a476-286cca5f9cc6","system_id":"levelo_inurba_marseille","lat":43.28259,"lon":5.3508,"is_reserved":false,"is_disabled":true,"rental_uris":{"android":"levelo://app?vid=6f21fba1-6f8e-47c4-a476-286cca5f9cc6","ios":"levelo://app?vid=6f21fba1-6f8e-47c4-a476-286cca5f9cc6"},"vehicle_type_id":"4","last_reported":1736032069,"current_range_meters":800,"station_id":"ce4bhbp2rcd13ifvqerg","pricing_plan_id":"cebpf4jnsgd1na2vs0mg"},{"bike_id":"21f0e3c2-495a-43ca-b213-21dd4a411241","system_id":"levelo_inurba_marseille","lat":43.28437,"lon":5.39182,"is_reserved":false,"is_disabled":false,"rental_uris":{"android":"levelo://app?vid=21f0e3c2-495a-43ca-b213-21dd4a411241","ios":"levelo://app?vid=21f0e3c2-495a-43ca-b213-21dd4a411241"},"vehicle_type_id":"4","last_reported":1736032069,"current_range_meters":37600,"station_id":"ce4bhoh2rcd13ifvqh5g","pricing_plan_id":"cebpf4jnsgd1na2vs0mg"},{"bike_id":"f228fb38-90d0-4d47-8dd8-2dfedc8226f2","system_id":"levelo_inurba_marseille","lat":43.27648,"lon":5.36083,"is_reserved":false,"is_disabled":false,"rental_uris":{"android":"levelo://app?vid=f228fb38-90d0-4d47-8dd8-2dfedc8226f2","ios":"levelo://app?vid=f228fb38-90d0-4d47-8dd8-2dfedc8226f2"},"vehicle_type_id":"4","last_reported":1736032069,"current_range_meters":38000,"station_id":"ce4bgj92rcd13ifvqbe0","pricing_plan_id":"cebpf4jnsgd1na2vs0mg"},{"bike_id":"0457d498-2a31-491e-8c02-b7cf40b1a88f","system_id":"levelo_inurba_marseille","lat":43.29034,"lon":5.38643,"is_reserved":false,"is_disabled":false,"rental_uris":{"android":"levelo://app?vid=0457d498-2a31-491e-8c02-b7cf40b1a88f","ios":"levelo://app?vid=0457d498-2a31-491e-8c02-b7cf40b1a88f"},"vehicle_type_id":"4","last_reported":1736032069,"current_range_meters":36800,"station_id":"ce4bh4p2rcd13ifvqe0g","pricing_plan_id":"cebpf4jnsgd1na2vs0mg"},{"bike_id":"8a2871f5-9447-484d-9926-098aa750c257","system_id":"levelo_inurba_marseille","lat":43.28408,"lon":5.37516,"is_reserved":false,"is_disabled":false,"rental_uris":{"android":"levelo://app?vid=8a2871f5-9447-484d-9926-098aa750c257","ios":"levelo://app?vid=8a2871f5-9447-484d-9926-098aa750c257"},"vehicle_type_id":"4","last_reported":1736032069,"current_range_meters":30400,"station_id":"ce4bh412rcd13ifvqds0","pricing_plan_id":"cebpf4jnsgd1na2vs0mg"},{"bike_id":"1cc2c131-0d9b-40a7-b56a-fc80d429f186","system_id":"levelo_inurba_marseille","lat":43.29972,"lon":5.37186,"is_reserved":false,"is_disabled":false,"rental_uris":{"android":"levelo://app?vid=1cc2c131-0d9b-40a7-b56a-fc80d429f186","ios":"levelo://app?vid=1cc2c131-0d9b-40a7-b56a-fc80d429f186"},"vehicle_type_id":"4","last_reported":1736032069,"current_range_meters":38800,"station_id":"ce4bgr92rcd13ifvqc7g","pricing_plan_id":"cebpf4jnsgd1na2vs0mg"},{"bike_id":"88f359f5-9644-4719-b28c-07094762be19","system_id":"levelo_inurba_marseille","lat":43.28971,"lon":5.38114,"is_reserved":false,"is_disabled":false,"rental_uris":{"android":"levelo://app?vid=88f359f5-9644-4719-b28c-07094762be19","ios":"levelo://app?vid=88f359f5-9644-4719-b28c-07094762be19"},"vehicle_type_id":"4","last_reported":1736032069,"current_range_meters":37600,"station_id":"ce4bh4p2rcd13ifvqe1g","pricing_plan_id":"cebpf4jnsgd1na2vs0mg"},{"bike_id":"d30b1091-2e5d-4e8f-bcf0-ff60bbd34c3b","system_id":"levelo_inurba_marseille","lat":43.2651,"lon":5.3953,"is_reserved":false,"is_disabled":false,"rental_uris":{"android":"levelo://app?vid=d30b1091-2e5d-4e8f-bcf0-ff60bbd34c3b","ios":"levelo://app?vid=d30b1091-2e5d-4e8f-bcf0-ff60bbd34c3b"},"vehicle_type_id":"4","last_reported":1736032069,"current_range_meters":24000,"station_id":"ce4bhi12rcd13ifvqfq0","pricing_plan_id":"cebpf4jnsgd1na2vs0mg"},{"bike_id":"23e7d1f0-b1dd-4e21-bebd-7993fd70f047","system_id":"levelo_inurba_marseille","lat":43.27953,"lon":5.41039,"is_reserved":false,"is_disabled":false,"rental_uris":{"android":"levelo://app?vid=23e7d1f0-b1dd-4e21-bebd-7993fd70f047","ios":"levelo://app?vid=23e7d1f0-b1dd-4e21-bebd-7993fd70f047"},"vehicle_type_id":"4","last_reported":1736032069,"current_range_meters":34800,"station_id":"ce4bhnp2rcd13ifvqh0g","pricing_plan_id":"cebpf4jnsgd1na2vs0mg"},{"bike_id":"cc39dd1c-d620-4b70-8667-2e82f1f64a83","system_id":"levelo_inurba_marseille","lat":43.28351,"lon":5.38128,"is_reserved":false,"is_disabled":false,"rental_uris":{"android":"levelo://app?vid=cc39dd1c-d620-4b70-8667-2e82f1f64a83","ios":"levelo://app?vid=cc39dd1c-d620-4b70-8667-2e82f1f64a83"},"vehicle_type_id":"4","last_reported":1736032069,"current_range_meters":31200,"station_id":"ce4bh412rcd13ifvqdr0","pricing_plan_id":"cebpf4jnsgd1na2vs0mg"},{"bike_id":"622010f3-f2d4-4d1d-9c35-a93082d38040","system_id":"levelo_inurba_marseille","lat":43.29582,"lon":5.37491,"is_reserved":false,"is_disabled":false,"rental_uris":{"android":"levelo://app?vid=622010f3-f2d4-4d1d-9c35-a93082d38040","ios":"levelo://app?vid=622010f3-f2d4-4d1d-9c35-a93082d38040"},"vehicle_type_id":"4","last_reported":1736032069,"current_range_meters":38400,"station_id":"ce4bgh92rcd13ifvqb50","pricing_plan_id":"cebpf4jnsgd1na2vs0mg"},{"bike_id":"85cba0a3-d6ec-4723-83bf-95316674cece","system_id":"levelo_inurba_marseille","lat":43.27562,"lon":5.38443,"is_reserved":false,"is_disabled":true,"rental_uris":{"android":"levelo://app?vid=85cba0a3-d6ec-4723-83bf-95316674cece","ios":"levelo://app?vid=85cba0a3-d6ec-4723-83bf-95316674cece"},"vehicle_type_id":"4","last_reported":1736032069,"current_range_meters":4800,"station_id":"ce4bhh92rcd13ifvqfi0","pricing_plan_id":"cebpf4jnsgd1na2vs0mg"},{"bike_id":"d5355d3d-6620-4d8e-801e-d620f116c682","system_id":"levelo_inurba_marseille","lat":43.23062,"lon":5.35487,"is_reserved":false,"is_disabled":false,"rental_uris":{"android":"levelo://app?vid=d5355d3d-6620-4d8e-801e-d620f116c682","ios":"levelo://app?vid=d5355d3d-6620-4d8e-801e-d620f116c682"},"vehicle_type_id":"4","last_reported":1736032069,"current_range_meters":17600,"station_id":"cpo3342slgdg3j2ifvpg","pricing_plan_id":"cebpf4jnsgd1na2vs0mg"},{"bike_id":"530e2141-e903-420c-a029-156fe4aea247","system_id":"levelo_inurba_marseille","lat":43.29599,"lon":5.36728,"is_reserved":false,"is_disabled":false,"rental_uris":{"android":"levelo://app?vid=530e2141-e903-420c-a029-156fe4aea247","ios":"levelo://app?vid=530e2141-e903-420c-a029-156fe4aea247"},"vehicle_type_id":"4","last_reported":1736032069,"current_range_meters":28000,"station_id":"ce4bgph2rcd13ifvqc2g","pricing_plan_id":"cebpf4jnsgd1na2vs0mg"},{"bike_id":"266d97a0-8b6a-4815-8e1e-a29e516886ab","system_id":"levelo_inurba_marseille","lat":43.32371,"lon":5.36762,"is_reserved":false,"is_disabled":false,"rental_uris":{"android":"levelo://app?vid=266d97a0-8b6a-4815-8e1e-a29e516886ab","ios":"levelo://app?vid=266d97a0-8b6a-4815-8e1e-a29e516886ab"},"vehicle_type_id":"4","last_reported":1736032069,"current_range_meters":35600,"station_id":"ce4bhsh2rcd13ifvqi2g","pricing_plan_id":"cebpf4jnsgd1na2vs0mg"},{"bike_id":"a7224998-3cd1-44ad-8892-e18e0ad97675","system_id":"levelo_inurba_marseille","lat":43.24679,"lon":5.38159,"is_reserved":false,"is_disabled":false,"rental_uris":{"android":"levelo://app?vid=a7224998-3cd1-44ad-8892-e18e0ad97675","ios":"levelo://app?vid=a7224998-3cd1-44ad-8892-e18e0ad97675"},"vehicle_type_id":"4","last_reported":1736032069,"current_range_meters":38800,"station_id":"ce4bhih2rcd13ifvqfr0","pricing_plan_id":"cebpf4jnsgd1na2vs0mg"},{"bike_id":"4d74f479-1d68-4f3b-b3b7-9f4e4b3d2025","system_id":"levelo_inurba_marseille","lat":43.29258,"lon":5.40915,"is_reserved":false,"is_disabled":false,"rental_uris":{"android":"levelo://app?vid=4d74f479-1d68-4f3b-b3b7-9f4e4b3d2025","ios":"levelo://app?vid=4d74f479-1d68-4f3b-b3b7-9f4e4b3d2025"},"vehicle_type_id":"4","last_reported":1736032069,"current_range_meters":38000,"station_id":"ce4bh192rcd13ifvqdc0","pricing_plan_id":"cebpf4jnsgd1na2vs0mg"},{"bike_id":"44d006be-70be-45b8-b039-62d0905c3f17","system_id":"levelo_inurba_marseille","lat":43.28337,"lon":5.3809,"is_reserved":false,"is_disabled":false,"rental_uris":{"android":"levelo://app?vid=44d006be-70be-45b8-b039-62d0905c3f17","ios":"levelo://app?vid=44d006be-70be-45b8-b039-62d0905c3f17"},"vehicle_type_id":"4","last_reported":1736032069,"current_range_meters":36000,"station_id":"ce4bh412rcd13ifvqdr0","pricing_plan_id":"cebpf4jnsgd1na2vs0mg"},{"bike_id":"379af85d-277e-4e2e-abdb-654a08bac7c6","system_id":"levelo_inurba_marseille","lat":43.26206,"lon":5.37459,"is_reserved":false,"is_disabled":false,"rental_uris":{"android":"levelo://app?vid=379af85d-277e-4e2e-abdb-654a08bac7c6","ios":"levelo://app?vid=379af85d-277e-4e2e-abdb-654a08bac7c6"},"vehicle_type_id":"4","last_reported":1736032069,"current_range_meters":10800,"station_id":"ce4bhgp2rcd13ifvqfc0","pricing_plan_id":"cebpf4jnsgd1na2vs0mg"},{"bike_id":"bcde3093-8fa8-43fb-afd1-4a1e2c362068","system_id":"levelo_inurba_marseille","lat":43.31216,"lon":5.36833,"is_reserved":false,"is_disabled":false,"rental_uris":{"android":"levelo://app?vid=bcde3093-8fa8-43fb-afd1-4a1e2c362068","ios":"levelo://app?vid=bcde3093-8fa8-43fb-afd1-4a1e2c362068"},"vehicle_type_id":"4","last_reported":1736032069,"current_range_meters":30400,"station_id":"ce4bgl92rcd13ifvqbq0","pricing_plan_id":"cebpf4jnsgd1na2vs0mg"},{"bike_id":"425f29c7-b392-4559-9c0e-5c6a7964a8de","system_id":"levelo_inurba_marseille","lat":43.31125,"lon":5.37759,"is_reserved":false,"is_disabled":false,"rental_uris":{"android":"levelo://app?vid=425f29c7-b392-4559-9c0e-5c6a7964a8de","ios":"levelo://app?vid=425f29c7-b392-4559-9c0e-5c6a7964a8de"},"vehicle_type_id":"4","last_reported":1736032069,"current_range_meters":16000,"station_id":"ce4bgt92rcd13ifvqcg0","pricing_plan_id":"cebpf4jnsgd1na2vs0mg"},{"bike_id":"cb68bd1d-60b4-4198-9a91-a02146431c2a","system_id":"levelo_inurba_marseille","lat":43.28608,"lon":5.37059,"is_reserved":false,"is_disabled":false,"rental_uris":{"android":"levelo://app?vid=cb68bd1d-60b4-4198-9a91-a02146431c2a","ios":"levelo://app?vid=cb68bd1d-60b4-4198-9a91-a02146431c2a"},"vehicle_type_id":"4","last_reported":1736032069,"current_range_meters":10000,"station_id":"ce4bht12rcd13ifvqi60","pricing_plan_id":"cebpf4jnsgd1na2vs0mg"},{"bike_id":"f3de9f01-0329-4e8f-9301-885f78d99f9b","system_id":"levelo_inurba_marseille","lat":43.28006,"lon":5.39996,"is_reserved":false,"is_disabled":true,"rental_uris":{"android":"levelo://app?vid=f3de9f01-0329-4e8f-9301-885f78d99f9b","ios":"levelo://app?vid=f3de9f01-0329-4e8f-9301-885f78d99f9b"},"vehicle_type_id":"4","last_reported":1736032069,"current_range_meters":27600,"station_id":"ce4bho92rcd13ifvqh4g","pricing_plan_id":"cebpf4jnsgd1na2vs0mg"},{"bike_id":"3b2f15d5-2524-4610-b882-b366c9e49818","system_id":"levelo_inurba_marseille","lat":43.27942,"lon":5.41041,"is_reserved":false,"is_disabled":false,"rental_uris":{"android":"levelo://app?vid=3b2f15d5-2524-4610-b882-b366c9e49818","ios":"levelo://app?vid=3b2f15d5-2524-4610-b882-b366c9e49818"},"vehicle_type_id":"4","last_reported":1736032069,"current_range_meters":36000,"station_id":"ce4bhnp2rcd13ifvqh0g","pricing_plan_id":"cebpf4jnsgd1na2vs0mg"},{"bike_id":"d014f699-d84d-436b-b3bf-8c059d18ea89","system_id":"levelo_inurba_marseille","lat":43.229228,"lon":5.353771,"is_reserved":false,"is_disabled":false,"rental_uris":{"android":"levelo://app?vid=d014f699-d84d-436b-b3bf-8c059d18ea89","ios":"levelo://app?vid=d014f699-d84d-436b-b3bf-8c059d18ea89"},"vehicle_type_id":"4","last_reported":1736032069,"current_range_meters":20000,"station_id":"cpo3532slgdg3j2ikp40","pricing_plan_id":"cebpf4jnsgd1na2vs0mg"},{"bike_id":"0342c835-b3c5-4a55-aea6-7790855ef077","system_id":"levelo_inurba_marseille","lat":43.28154,"lon":5.42654,"is_reserved":false,"is_disabled":false,"rental_uris":{"android":"levelo://app?vid=0342c835-b3c5-4a55-aea6-7790855ef077","ios":"levelo://app?vid=0342c835-b3c5-4a55-aea6-7790855ef077"},"vehicle_type_id":"4","last_reported":1736032069,"current_range_meters":34000,"station_id":"ce4bhnh2rcd13ifvqgug","pricing_plan_id":"cebpf4jnsgd1na2vs0mg"},{"bike_id":"df861f19-9b69-431a-bd0d-ebaa33f4e781","system_id":"levelo_inurba_marseille","lat":43.308765,"lon":5.3962,"is_reserved":false,"is_disabled":true,"rental_uris":{"android":"levelo://app?vid=df861f19-9b69-431a-bd0d-ebaa33f4e781","ios":"levelo://app?vid=df861f19-9b69-431a-bd0d-ebaa33f4e781"},"vehicle_type_id":"4","last_reported":1736032069,"current_range_meters":800,"station_id":"ce4bh012rcd13ifvqcv0","pricing_plan_id":"cebpf4jnsgd1na2vs0mg"},{"bike_id":"697c7bba-bdb8-4343-aa17-4eb6cb174b0f","system_id":"levelo_inurba_marseille","lat":43.29912,"lon":5.37481,"is_reserved":false,"is_disabled":false,"rental_uris":{"android":"levelo://app?vid=697c7bba-bdb8-4343-aa17-4eb6cb174b0f","ios":"levelo://app?vid=697c7bba-bdb8-4343-aa17-4eb6cb174b0f"},"vehicle_type_id":"4","last_reported":1736032069,"current_range_meters":34800,"station_id":"ce4bgjh2rcd13ifvqbg0","pricing_plan_id":"cebpf4jnsgd1na2vs0mg"},{"bike_id":"c420422e-e5ff-46aa-9ade-56c25e82f06d","system_id":"levelo_inurba_marseille","lat":43.23198,"lon":5.35543,"is_reserved":false,"is_disabled":false,"rental_uris":{"android":"levelo://app?vid=c420422e-e5ff-46aa-9ade-56c25e82f06d","ios":"levelo://app?vid=c420422e-e5ff-46aa-9ade-56c25e82f06d"},"vehicle_type_id":"4","last_reported":1736032069,"current_range_meters":38800,"station_id":"ce4bhu92rcd13ifvqi70","pricing_plan_id":"cebpf4jnsgd1na2vs0mg"},{"bike_id":"ef72cdb4-465d-4178-b952-49906f159c48","system_id":"levelo_inurba_marseille","lat":43.28141,"lon":5.42639,"is_reserved":false,"is_disabled":false,"rental_uris":{"android":"levelo://app?vid=ef72cdb4-465d-4178-b952-49906f159c48","ios":"levelo://app?vid=ef72cdb4-465d-4178-b952-49906f159c48"},"vehicle_type_id":"4","last_reported":1736032069,"current_range_meters":14400,"station_id":"ce4bhnh2rcd13ifvqgug","pricing_plan_id":"cebpf4jnsgd1na2vs0mg"},{"bike_id":"050dd0dc-c04f-4629-9426-2f6eb48563ac","system_id":"levelo_inurba_marseille","lat":43.29305,"lon":5.3715,"is_reserved":false,"is_disabled":false,"rental_uris":{"android":"levelo://app?vid=050dd0dc-c04f-4629-9426-2f6eb48563ac","ios":"levelo://app?vid=050dd0dc-c04f-4629-9426-2f6eb48563ac"},"vehicle_type_id":"4","last_reported":1736032069,"current_range_meters":36400,"station_id":"ce4bgh92rcd13ifvqb40","pricing_plan_id":"cebpf4jnsgd1na2vs0mg"},{"bike_id":"c404ff90-e84d-46f3-9e77-29827e5fa7c1","system_id":"levelo_inurba_marseille","lat":43.28408,"lon":5.37513,"is_reserved":false,"is_disabled":false,"rental_uris":{"android":"levelo://app?vid=c404ff90-e84d-46f3-9e77-29827e5fa7c1","ios":"levelo://app?vid=c404ff90-e84d-46f3-9e77-29827e5fa7c1"},"vehicle_type_id":"4","last_reported":1736032069,"current_range_meters":26000,"station_id":"ce4bh412rcd13ifvqds0","pricing_plan_id":"cebpf4jnsgd1na2vs0mg"},{"bike_id":"a2fd8310-05b2-4353-a822-b449cc0178c4","system_id":"levelo_inurba_marseille","lat":43.25489,"lon":5.37645,"is_reserved":false,"is_disabled":false,"rental_uris":{"android":"levelo://app?vid=a2fd8310-05b2-4353-a822-b449cc0178c4","ios":"levelo://app?vid=a2fd8310-05b2-4353-a822-b449cc0178c4"},"vehicle_type_id":"4","last_reported":1736032069,"current_range_meters":5600,"station_id":"ce4bhh12rcd13ifvqff0","pricing_plan_id":"cebpf4jnsgd1na2vs0mg"},{"bike_id":"3244eb82-5b95-415c-b171-26cd3cb15f5a","system_id":"levelo_inurba_marseille","lat":43.3014,"lon":5.37428,"is_reserved":false,"is_disabled":false,"rental_uris":{"android":"levelo://app?vid=3244eb82-5b95-415c-b171-26cd3cb15f5a","ios":"levelo://app?vid=3244eb82-5b95-415c-b171-26cd3cb15f5a"},"vehicle_type_id":"4","last_reported":1736032069,"current_range_meters":38800,"station_id":"ce4bgs92rcd13ifvqcc0","pricing_plan_id":"cebpf4jnsgd1na2vs0mg"},{"bike_id":"7bbed7be-28f4-4cc7-81bb-977c0d79552f","system_id":"levelo_inurba_marseille","lat":43.23064,"lon":5.35497,"is_reserved":false,"is_disabled":false,"rental_uris":{"android":"levelo://app?vid=7bbed7be-28f4-4cc7-81bb-977c0d79552f","ios":"levelo://app?vid=7bbed7be-28f4-4cc7-81bb-977c0d79552f"},"vehicle_type_id":"4","last_reported":1736032069,"current_range_meters":16400,"station_id":"cpo3342slgdg3j2ifvpg","pricing_plan_id":"cebpf4jnsgd1na2vs0mg"},