{"last_updated":1726693666,"ttl":30,"version":"2.2","data":{"bikes":[{"bike_id":"53f85c0f-9bc3-428d-8e67-2607741aa3ee","system_id":"levelo_inurba_marseille","lat":43.32543,"lon":5.41439,"is_reserved":false,"is_disabled":false,"rental_uris":{"android":"levelo://app?vid=53f85c0f-9bc3-428d-8e67-2607741aa3ee","ios":"levelo://app?vid=53f85c0f-9bc3-428d-8e67-2607741aa3ee"},"vehicle_type_id":"4","last_reported":1726693666,"current_range_meters":16800,"station_id":"ce4bhq12rcd13ifvqhhg","pricing_plan_id":"cebpf4jnsgd1na2vs0mg"},{"bike_id":"12679f1c-674e-42f5-9e40-29bc963981ac","system_id":"levelo_inurba_marseille","lat":43.27945,"lon":5.41047,"is_reserved":false,"is_disabled":false,"rental_uris":{"android":"levelo://app?vid=12679f1c-674e-42f5-9e40-29bc963981ac","ios":"levelo://app?vid=12679f1c-674e-42f5-9e40-29bc963981ac"},"vehicle_type_id":"4","last_reported":1726693666,"current_range_meters":38000,"station_id":"ce4bhnp2rcd13ifvqh0g","pricing_plan_id":"cebpf4jnsgd1na2vs0mg"},{"bike_id":"0288d614-6e4f-4934-ad15-cf509b72b6b9","system_id":"levelo_inurba_marseille","lat":43.27489,"lon":5.42461,"is_reserved":false,"is_disabled":false,"rental_uris":{"android":"levelo://app?vid=0288d614-6e4f-4934-ad15-cf509b72b6b9","ios":"levelo://app?vid=0288d614-6e4f-4934-ad15-cf509b72b6b9"},"vehicle_type_id":"4","last_reported":1726693666,"current_range_meters":39200,"station_id":"ce4bhn92rcd13ifvqgrg","pricing_plan_id":"cebpf4jnsgd1na2vs0mg"},{"bike_id":"3eb6c9c2-4c2a-48cf-b6ca-2051c0baa353","system_id":"levelo_inurba_marseille","lat":43.286499,"lon":5.385601,"is_reserved":false,"is_disabled":false,"rental_uris":{"android":"levelo://app?vid=3eb6c9c2-4c2a-48cf-b6ca-2051c0baa353","ios":"levelo://app?vid=3eb6c9c2-4c2a-48cf-b6ca-2051c0baa353"},"vehicle_type_id":"4","last_reported":1726693666,"current_range_meters":39200,"station_id":"ce4bhl92rcd13ifvqghg","pricing_plan_id":"cebpf4jnsgd1na2vs0mg"},{"bike_id":"4e716995-f263-4f52-b2fb-2ed7cf45ae45","system_id":"levelo_inurba_marseille","lat":43.28268,"lon":5.35073,"is_reserved":false,"is_disabled":false,"rental_uris":{"android":"levelo://app?vid=4e716995-f263-4f52-b2fb-2ed7cf45ae45","ios":"levelo://app?vid=4e716995-f263-4f52-b2fb-2ed7cf45ae45"},"vehicle_type_id":"4","last_reported":1726693666,"current_range_meters":38400,"station_id":"ce4bhbp2rcd13ifvqerg","pricing_plan_id":"cebpf4jnsgd1na2vs0mg"},{"bike_id":"6a3ddc2a-1be4-4577-a233-5cc468852dcd","system_id":"levelo_inurba_marseille","lat":43.28661,"lon":5.36348,"is_reserved":false,"is_disabled":false,"rental_uris":{"android":"levelo://app?vid=6a3ddc2a-1be4-4577-a233-5cc468852dcd","ios":"levelo://app?vid=6a3ddc2a-1be4-4577-a233-5cc468852dcd"},"vehicle_type_id":"4","last_reported":1726693666,"current_range_meters":23200,"station_id":"ce4bhah2rcd13ifvqej0","pricing_plan_id":"cebpf4jnsgd1na2vs0mg"},{"bike_id":"6cb80f7a-647c-431f-af80-0a5fa80b3e12","system_id":"levelo_inurba_marseille","lat":43.31341,"lon":5.39731,"is_reserved":false,"is_disabled":false,"rental_uris":{"android":"levelo://app?vid=6cb80f7a-647c-431f-af80-0a5fa80b3e12","ios":"levelo://app?vid=6cb80f7a-647c-431f-af80-0a5fa80b3e12"},"vehicle_type_id":"4","last_reported":1726693666,"current_range_meters":14400,"station_id":"ce4bgvp2rcd13ifvqcu0","pricing_plan_id":"cebpf4jnsgd1na2vs0mg"},{"bike_id":"dd0d6c40-5bec-4397-8580-2628aae2ec2a","system_id":"levelo_inurba_marseille","lat":43.22926,"lon":5.35376,"is_reserved":false,"is_disabled":false,"rental_uris":{"android":"levelo://app?vid=dd0d6c40-5bec-4397-8580-2628aae2ec2a","ios":"levelo://app?vid=dd0d6c40-5bec-4397-8580-2628aae2ec2a"},"vehicle_type_id":"4","last_reported":1726693666,"current_range_meters":38800,"station_id":"cpo3532slgdg3j2ikp40","pricing_plan_id":"cebpf4jnsgd1na2vs0mg"},{"bike_id":"64c965d1-5882-4cc1-b789-3a68c462abe0","system_id":"levelo_inurba_marseille","lat":43.29877,"lon":5.43655,"is_reserved":false,"is_disabled":false,"rental_uris":{"android":"levelo://app?vid=64c965d1-5882-4cc1-b789-3a68c462abe0","ios":"levelo://app?vid=64c965d1-5882-4cc1-b789-3a68c462abe0"},"vehicle_type_id":"4","last_reported":1726693666,"current_range_meters":35200,"station_id":"ce4bhpp2rcd13ifvqhfg","pricing_plan_id":"cebpf4jnsgd1na2vs0mg"},{"bike_id":"0d1bc426-802a-417c-a284-12ea603100ea","system_id":"levelo_inurba_marseille","lat":43.31331,"lon":5.39695,"is_reserved":false,"is_disabled":false,"rental_uris":{"android":"levelo://app?vid=0d1bc426-802a-417c-a284-12ea603100ea","ios":"levelo://app?vid=0d1bc426-802a-417c-a284-12ea603100ea"},"vehicle_type_id":"4","last_reported":1726693666,"current_range_meters":24800,"station_id":"ce4bgvp2rcd13ifvqcu0","pricing_plan_id":"cebpf4jnsgd1na2vs0mg"},{"bike_id":"fe5cc69f-135c-4287-96fa-c3129f56eaa3","system_id":"levelo_inurba_marseille","lat":43.29248,"lon":5.40909,"is_reserved":false,"is_disabled":false,"rental_uris":{"android":"levelo://app?vid=fe5cc69f-135c-4287-96fa-c3129f56eaa3","ios":"levelo://app?vid=fe5cc69f-135c-4287-96fa-c3129f56eaa3"},"vehicle_type_id":"4","last_reported":1726693666,"current_range_meters":32400,"station_id":"ce4bh192rcd13ifvqdc0","pricing_plan_id":"cebpf4jnsgd1na2vs0mg"},{"bike_id":"12ca8798-d15b-49cc-a8e7-75f7c34ba400","system_id":"levelo_inurba_marseille","lat":43.33026,"lon":5.39044,"is_reserved":false,"is_disabled":false,"rental_uris":{"android":"levelo://app?vid=12ca8798-d15b-49cc-a8e7-75f7c34ba400","ios":"levelo://app?vid=12ca8798-d15b-49cc-a8e7-75f7c34ba400"},"vehicle_type_id":"4","last_reported":1726693666,"current_range_meters":33200,"station_id":"ce4bhr92rcd13ifvqhrg","pricing_plan_id":"cebpf4jnsgd1na2vs0mg"},{"bike_id":"9620cd1b-58df-49b2-a580-fa4547bceb61","system_id":"levelo_inurba_marseille","lat":43.29023,"lon":5.38144,"is_reserved":false,"is_disabled":false,"rental_uris":{"android":"levelo://app?vid=9620cd1b-58df-49b2-a580-fa4547bceb61","ios":"levelo://app?vid=9620cd1b-58df-49b2-a580-fa4547bceb61"},"vehicle_type_id":"4","last_reported":1726693666,"current_range_meters":14400,"station_id":"ce4bh4p2rcd13ifvqe1g","pricing_plan_id":"cebpf4jnsgd1na2vs0mg"},{"bike_id":"e532fd53-ad12-4848-82ea-70ac934c1c37","system_id":"levelo_inurba_marseille","lat":43.337444,"lon":5.374475,"is_reserved":false,"is_disabled":false,"rental_uris":{"android":"levelo://app?vid=e532fd53-ad12-4848-82ea-70ac934c1c37","ios":"levelo://app?vid=e532fd53-ad12-4848-82ea-70ac934c1c37"},"vehicle_type_id":"4","last_reported":1726693666,"current_range_meters":18800,"station_id":"","pricing_plan_id":"cebpf4jnsgd1na2vs0mg"},{"bike_id":"bc4d75b9-86d4-4f2a-83b8-0920a88e0cf6","system_id":"levelo_inurba_marseille","lat":43.298828,"lon":5.36524,"is_reserved":false,"is_disabled":false,"rental_uris":{"android":"levelo://app?vid=bc4d75b9-86d4-4f2a-83b8-0920a88e0cf6","ios":"levelo://app?vid=bc4d75b9-86d4-4f2a-83b8-0920a88e0cf6"},"vehicle_type_id":"4","last_reported":1726693666,"current_range_meters":9600,"station_id":"ce4bgm92rcd13ifvqbr0","pricing_plan_id":"cebpf4jnsgd1na2vs0mg"},{"bike_id":"a0a31385-9d8c-4985-823e-aa6286247fbb","system_id":"levelo_inurba_marseille","lat":43.283799,"lon":5.386291,"is_reserved":false,"is_disabled":false,"rental_uris":{"android":"levelo://app?vid=a0a31385-9d8c-4985-823e-aa6286247fbb","ios":"levelo://app?vid=a0a31385-9d8c-4985-823e-aa6286247fbb"},"vehicle_type_id":"4","last_reported":1726693666,"current_range_meters":16400,"station_id":"ce4bh492rcd13ifvqdvg","pricing_plan_id":"cebpf4jnsgd1na2vs0mg"},{"bike_id":"0e1541be-4757-4c55-b9ae-7fbe65e22263","system_id":"levelo_inurba_marseille","lat":43.28282,"lon":5.35089,"is_reserved":false,"is_disabled":false,"rental_uris":{"android":"levelo://app?vid=0e1541be-4757-4c55-b9ae-7fbe65e22263","ios":"levelo://app?vid=0e1541be-4757-4c55-b9ae-7fbe65e22263"},"vehicle_type_id":"4","last_reported":1726693666,"current_range_meters":24400,"station_id":"ce4bhbp2rcd13ifvqerg","pricing_plan_id":"cebpf4jnsgd1na2vs0mg"},{"bike_id":"df1003b0-3c83-469a-aeeb-2eaf283222f8","system_id":"levelo_inurba_marseille","lat":43.30206,"lon":5.39474,"is_reserved":false,"is_disabled":false,"rental_uris":{"android":"levelo://app?vid=df1003b0-3c83-469a-aeeb-2eaf283222f8","ios":"levelo://app?vid=df1003b0-3c83-469a-aeeb-2eaf283222f8"},"vehicle_type_id":"4","last_reported":1726693666,"current_range_meters":26000,"station_id":"ce4bh0p2rcd13ifvqd70","pricing_plan_id":"cebpf4jnsgd1na2vs0mg"},{"bike_id":"23b9db77-47a5-4143-83dc-f048aa958491","system_id":"levelo_inurba_marseille","lat":43.29787,"lon":5.39353,"is_reserved":false,"is_disabled":false,"rental_uris":{"android":"levelo://app?vid=23b9db77-47a5-4143-83dc-f048aa958491","ios":"levelo://app?vid=23b9db77-47a5-4143-83dc-f048aa958491"},"vehicle_type_id":"4","last_reported":1726693666,"current_range_meters":37600,"station_id":"chh1huq6cuj3fo74tm60","pricing_plan_id":"cebpf4jnsgd1na2vs0mg"},{"bike_id":"31984896-19d8-4961-9d12-66e62eb7e1b9","system_id":"levelo_inurba_marseille","lat":43.28621,"lon":5.35106,"is_reserved":false,"is_disabled":false,"rental_uris":{"android":"levelo://app?vid=31984896-19d8-4961-9d12-66e62eb7e1b9","ios":"levelo://app?vid=31984896-19d8-4961-9d12-66e62eb7e1b9"},"vehicle_type_id":"4","last_reported":1726693666,"current_range_meters":38800,"station_id":"ce4bhch2rcd13ifvqeug","pricing_plan_id":"cebpf4jnsgd1na2vs0mg"},{"bike_id":"61c3fb8d-f1ae-4f0e-a433-68e4163be93e","system_id":"levelo_inurba_marseille","lat":43.28406,"lon":5.37519,"is_reserved":false,"is_disabled":false,"rental_uris":{"android":"levelo://app?vid=61c3fb8d-f1ae-4f0e-a433-68e4163be93e","ios":"levelo://app?vid=61c3fb8d-f1ae-4f0e-a433-68e4163be93e"},"vehicle_type_id":"4","last_reported":1726693666,"current_range_meters":6800,"station_id":"ce4bh412rcd13ifvqds0","pricing_plan_id":"cebpf4jnsgd1na2vs0mg"},{"bike_id":"e996e3df-b160-4971-a4b8-ae588a6e2273","system_id":"levelo_inurba_marseille","lat":43.31076,"lon":5.42431,"is_reserved":false,"is_disabled":false,"rental_uris":{"android":"levelo://app?vid=e996e3df-b160-4971-a4b8-ae588a6e2273","ios":"levelo://app?vid=e996e3df-b160-4971-a4b8-ae588a6e2273"},"vehicle_type_id":"4","last_reported":1726693666,"current_range_meters":30400,"station_id":"ce4bhp92rcd13ifvqhag","pricing_plan_id":"cebpf4jnsgd1na2vs0mg"},{"bike_id":"74810271-6dca-4928-9cc4-6c7ab5945949","system_id":"levelo_inurba_marseille","lat":43.30888,"lon":5.37196,"is_reserved":false,"is_disabled":false,"rental_uris":{"android":"levelo://app?vid=74810271-6dca-4928-9cc4-6c7ab5945949","ios":"levelo://app?vid=74810271-6dca-4928-9cc4-6c7ab5945949"},"vehicle_type_id":"4","last_reported":1726693666,"current_range_meters":32000,"station_id":"ce4bguh2rcd13ifvqckg","pricing_plan_id":"cebpf4jnsgd1na2vs0mg"},{"bike_id":"78af430c-86d6-4a41-89c3-4d3bf7be2957","system_id":"levelo_inurba_marseille","lat":43.28713,"lon":5.37947,"is_reserved":false,"is_disabled":false,"rental_uris":{"android":"levelo://app?vid=78af430c-86d6-4a41-89c3-4d3bf7be2957","ios":"levelo://app?vid=78af430c-86d6-4a41-89c3-4d3bf7be2957"},"vehicle_type_id":"4","last_reported":1726693666,"current_range_meters":38800,"station_id":"ce4bh9p2rcd13ifvqec0","pricing_plan_id":"cebpf4jnsgd1na2vs0mg"},{"bike_id":"3a50afd2-cdfd-4dd4-900b-cf09c58ce3d6","system_id":"levelo_inurba_marseille","lat":43.2707,"lon":5.42283,"is_reserved":false,"is_disabled":false,"rental_uris":{"android":"levelo://app?vid=3a50afd2-cdfd-4dd4-900b-cf09c58ce3d6","ios":"levelo://app?vid=3a50afd2-cdfd-4dd4-900b-cf09c58ce3d6"},"vehicle_type_id":"4","last_reported":1726693666,"current_range_meters":32000,"station_id":"ce4bhk92rcd13ifvqgb0","pricing_plan_id":"cebpf4jnsgd1na2vs0mg"},{"bike_id":"1990f9ed-b0a9-4db5-8aa8-97b4d764c0af","system_id":"levelo_inurba_marseille","lat":43.26685,"lon":5.38273,"is_reserved":false,"is_disabled":false,"rental_uris":{"android":"levelo://app?vid=1990f9ed-b0a9-4db5-8aa8-97b4d764c0af","ios":"levelo://app?vid=1990f9ed-b0a9-4db5-8aa8-97b4d764c0af"},"vehicle_type_id":"4","last_reported":1726693666,"current_range_meters":38800,"station_id":"ce4bhg92rcd13ifvqf90","pricing_plan_id":"cebpf4jnsgd1na2vs0mg"},{"bike_id":"bed91c9d-d86a-48eb-9707-c4bc0626e228","system_id":"levelo_inurba_marseille","lat":43.24667,"lon":5.38169,"is_reserved":false,"is_disabled":false,"rental_uris":{"android":"levelo://app?vid=bed91c9d-d86a-48eb-9707-c4bc0626e228","ios":"levelo://app?vid=bed91c9d-d86a-48eb-9707-c4bc0626e228"},"vehicle_type_id":"4","last_reported":1726693666,"current_range_meters":27200,"station_id":"ce4bhih2rcd13ifvqfr0","pricing_plan_id":"cebpf4jnsgd1na2vs0mg"},{"bike_id":"c8b16021-ad4f-4c1b-80b1-7d1b9c811227","system_id":"levelo_inurba_marseille","lat":43.32358,"lon":5.3889,"is_reserved":false,"is_disabled":false,"rental_uris":{"android":"levelo://app?vid=c8b16021-ad4f-4c1b-80b1-7d1b9c811227","ios":"levelo://app?vid=c8b16021-ad4f-4c1b-80b1-7d1b9c811227"},"vehicle_type_id":"4","last_reported":1726693666,"current_range_meters":8400,"station_id":"ce4bhqp2rcd13ifvqhog","pricing_plan_id":"cebpf4jnsgd1na2vs0mg"},{"bike_id":"68a7d5ca-7f3c-4e66-a6c0-328197e4d20f","system_id":"levelo_inurba_marseille","lat":43.29011,"lon":5.35613,"is_reserved":false,"is_disabled":false,"rental_uris":{"android":"levelo://app?vid=68a7d5ca-7f3c-4e66-a6c0-328197e4d20f","ios":"levelo://app?vid=68a7d5ca-7f3c-4e66-a6c0-328197e4d20f"},"vehicle_type_id":"4","last_reported":1726693666,"current_range_meters":14800,"station_id":"ce4bhb92rcd13ifvqen0","pricing_plan_id":"cebpf4jnsgd1na2vs0mg"},{"bike_id":"734aa74e-b926-4042-9aab-1e80809573f6","system_id":"levelo_inurba_marseille","lat":43.2978,"lon":5.37114,"is_reserved":false,"is_disabled":false,"rental_uris":{"android":"levelo://app?vid=734aa74e-b926-4042-9aab-1e80809573f6","ios":"levelo://app?vid=734aa74e-b926-4042-9aab-1e80809573f6"},"vehicle_type_id":"4","last_reported":1726693666,"current_range_meters":27200,"station_id":"","pricing_plan_id":"cebpf4jnsgd1na2vs0mg"},{"bike_id":"6fca5209-2cfc-475c-bf2d-19e350f4b119","system_id":"levelo_inurba_marseille","lat":43.31169,"lon":5.38713,"is_reserved":false,"is_disabled":false,"rental_uris":{"android":"levelo://app?vid=6fca5209-2cfc-475c-bf2d-19e350f4b119","ios":"levelo://app?vid=6fca5209-2cfc-475c-bf2d-19e350f4b119"},"vehicle_type_id":"4","last_reported":1726693666,"current_range_meters":33600,"station_id":"ce4bgv12rcd13ifvqcp0","pricing_plan_id":"cebpf4jnsgd1na2vs0mg"},{"bike_id":"a89d1128-5ace-4b11-8958-f760f707f20b","system_id":"levelo_inurba_marseille","lat":43.29522,"lon":5.39045,"is_reserved":false,"is_disabled":false,"rental_uris":{"android":"levelo://app?vid=a89d1128-5ace-4b11-8958-f760f707f20b","ios":"levelo://app?vid=a89d1128-5ace-4b11-8958-f760f707f20b"},"vehicle_type_id":"4","last_reported":1726693666,"current_range_meters":37600,"station_id":"ce4bh3p2rcd13ifvqdp0","pricing_plan_id":"cebpf4jnsgd1na2vs0mg"},{"bike_id":"562f8830-0282-4afb-ad74-0edfeab1f1c1","system_id":"levelo_inurba_marseille","lat":43.24072,"lon":5.37762,"is_reserved":false,"is_disabled":false,"rental_uris":{"android":"levelo://app?vid=562f8830-0282-4afb-ad74-0edfeab1f1c1","ios":"levelo://app?vid=562f8830-0282-4afb-ad74-0edfeab1f1c1"},"vehicle_type_id":"4","last_reported":1726693666,"current_range_meters":36800,"station_id":"ce4bhnp2rcd13ifvqgvg","pricing_plan_id":"cebpf4jnsgd1na2vs0mg"},{"bike_id":"90d40abe-b095-4f0b-8811-2a51c6549295","system_id":"levelo_inurba_marseille","lat":43.26057,"lon":5.39397,"is_reserved":false,"is_disabled":false,"rental_uris":{"android":"levelo://app?vid=90d40abe-b095-4f0b-8811-2a51c6549295","ios":"levelo://app?vid=90d40abe-b095-4f0b-8811-2a51c6549295"},"vehicle_type_id":"4","last_reported":1726693666,"current_range_meters":38800,"station_id":"ce4bhh92rcd13ifvqfj0","pricing_plan_id":"cebpf4jnsgd1na2vs0mg"},{"bike_id":"187f7ecf-ccc0-4e0f-a855-d748a5435d6f","system_id":"levelo_inurba_marseille","lat":43.24664,"lon":5.38162,"is_reserved":false,"is_disabled":false,"rental_uris":{"android":"levelo://app?vid=187f7ecf-ccc0-4e0f-a855-d748a5435d6f","ios":"levelo://app?vid=187f7ecf-ccc0-4e0f-a855-d748a5435d6f"},"vehicle_type_id":"4","last_reported":1726693666,"current_range_meters":21600,"station_id":"ce4bhih2rcd13ifvqfr0","pricing_plan_id":"cebpf4jnsgd1na2vs0mg"},{"bike_id":"3ceb4910-26dd-4e94-a3d0-4274cb5a83f0","system_id":"levelo_inurba_marseille","lat":43.30128,"lon":5.40291,"is_reserved":false,"is_disabled":false,"rental_uris":{"android":"levelo://app?vid=3ceb4910-26dd-4e94-a3d0-4274cb5a83f0","ios":"levelo://app?vid=3ceb4910-26dd-4e94-a3d0-4274cb5a83f0"},"vehicle_type_id":"4","last_reported":1726693666,"current_range_meters":5600,"station_id":"","pricing_plan_id":"cebpf4jnsgd1na2vs0mg"},{"bike_id":"0a3ffc0e-8e0f-478e-a002-b5e086f1ac54","system_id":"levelo_inurba_marseille","lat":43.25687,"lon":5.41087,"is_reserved":false,"is_disabled":false,"rental_uris":{"android":"levelo://app?vid=0a3ffc0e-8e0f-478e-a002-b5e086f1ac54","ios":"levelo://app?vid=0a3ffc0e-8e0f-478e-a002-b5e086f1ac54"},"vehicle_type_id":"4","last_reported":1726693666,"current_range_meters":24400,"station_id":"ce4bhkp2rcd13ifvqgd0","pricing_plan_id":"cebpf4jnsgd1na2vs0mg"},{"bike_id":"c2272d1c-de85-40c3-8a06-70b6bf4106b7","system_id":"levelo_inurba_marseille","lat":43.30804,"lon":5.43523,"is_reserved":false,"is_disabled":false,"rental_uris":{"android":"levelo://app?vid=c2272d1c-de85-40c3-8a06-70b6bf4106b7","ios":"levelo://app?vid=c2272d1c-de85-40c3-8a06-70b6bf4106b7"},"vehicle_type_id":"4","last_reported":1726693666,"current_range_meters":38800,"station_id":"ce4bhph2rcd13ifvqheg","pricing_plan_id":"cebpf4jnsgd1na2vs0mg"},{"bike_id":"beb4d508-840d-460e-855f-a91031349485","system_id":"levelo_inurba_marseille","lat":43.28937,"lon":5.39624,"is_reserved":false,"is_disabled":false,"rental_uris":{"android":"levelo://app?vid=beb4d508-840d-460e-855f-a91031349485","ios":"levelo://app?vid=beb4d508-840d-460e-855f-a91031349485"},"vehicle_type_id":"4","last_reported":1726693666,"current_range_meters":28000,"station_id":"ce4bh3h2rcd13ifvqdn0","pricing_plan_id":"cebpf4jnsgd1na2vs0mg"},{"bike_id":"5c20a958-d490-41db-84a7-f9730ee7ce03","system_id":"levelo_inurba_marseille","lat":43.29575,"lon":5.39965,"is_reserved":false,"is_disabled":false,"rental_uris":{"android":"levelo://app?vid=5c20a958-d490-41db-84a7-f9730ee7ce03","ios":"levelo://app?vid=5c20a958-d490-41db-84a7-f9730ee7ce03"},"vehicle_type_id":"4","last_reported":1726693666,"current_range_meters":22000,"station_id":"ce4bh312rcd13ifvqdj0","pricing_plan_id":"cebpf4jnsgd1na2vs0mg"},{"bike_id":"84c3f689-7f8c-425e-9ef4-ea5b41109a49","system_id":"levelo_inurba_marseille","lat":43.28456,"lon":5.35888,"is_reserved":false,"is_disabled":false,"rental_uris":{"android":"levelo://app?vid=84c3f689-7f8c-425e-9ef4-ea5b41109a49","ios":"levelo://app?vid=84c3f689-7f8c-425e-9ef4-ea5b41109a49"},"vehicle_type_id":"4","last_reported":1726693666,"current_range_meters":2800,"station_id":"ce4bhah2rcd13ifvqei0","pricing_plan_id":"cebpf4jnsgd1na2vs0mg"},{"bike_id":"ab8b1643-9e7f-47cc-b599-33f414e2c958","system_id":"levelo_inurba_marseille","lat":43.23189,"lon":5.39995,"is_reserved":false,"is_disabled":false,"rental_uris":{"android":"levelo://app?vid=ab8b1643-9e7f-47cc-b599-33f414e2c958","ios":"levelo://app?vid=ab8b1643-9e7f-47cc-b599-33f414e2c958"},"vehicle_type_id":"4","last_reported":1726693666,"current_range_meters":38800,"station_id":"ce4bhn12rcd13ifvqgqg","pricing_plan_id":"cebpf4jnsgd1na2vs0mg"},{"bike_id":"ddc2f7e6-d23b-4d89-96bc-a18a7029d574","system_id":"levelo_inurba_marseille","lat":43.31758,"lon":5.39009,"is_reserved":false,"is_disabled":false,"rental_uris":{"android":"levelo://app?vid=ddc2f7e6-d23b-4d89-96bc-a18a7029d574","ios":"levelo://app?vid=ddc2f7e6-d23b-4d89-96bc-a18a7029d574"},"vehicle_type_id":"4","last_reported":1726693666,"current_range_meters":29600,"station_id":"ce4bhqp2rcd13ifvqhng","pricing_plan_id":"cebpf4jnsgd1na2vs0mg"},{"bike_id":"c2667222-5d26-4d9c-a938-761c480fe584","system_id":"levelo_inurba_marseille","lat":43.33024,"lon":5.39049,"is_reserved":false,"is_disabled":false,"rental_uris":{"android":"levelo://app?vid=c2667222-5d26-4d9c-a938-761c480fe584","ios":"levelo://app?vid=c2667222-5d26-4d9c-a938-761c480fe584"},"vehicle_type_id":"4","last_reported":1726693666,"current_range_meters":9200,"station_id":"ce4bhr92rcd13ifvqhrg","pricing_plan_id":"cebpf4jnsgd1na2vs0mg"},{"bike_id":"fcafa99b-a808-43dd-a42a-2a120b6cb165","system_id":"levelo_inurba_marseille","lat":43.28105,"lon":5.37838,"is_reserved":false,"is_disabled":false,"rental_uris":{"android":"levelo://app?vid=fcafa99b-a808-43dd-a42a-2a120b6cb165","ios":"levelo://app?vid=fcafa99b-a808-43dd-a42a-2a120b6cb165"},"vehicle_type_id":"4","last_reported":1726693666,"current_range_meters":8800,"station_id":"ce4bha12rcd13ifvqee0","pricing_plan_id":"cebpf4jnsgd1na2vs0mg"},{"bike_id":"12dbd066-211c-436a-bc3e-f828b4c8a0ed","system_id":"levelo_inurba_marseille","lat":43.29786,"lon":5.39346,"is_reserved":false,"is_disabled":false,"rental_uris":{"android":"levelo://app?vid=12dbd066-211c-436a-bc3e-f828b4c8a0ed","ios":"levelo://app?vid=12dbd066-211c-436a-bc3e-f828b4c8a0ed"},"vehicle_type_id":"4","last_reported":1726693666,"current_range_meters":38800,"station_id":"chh1huq6cuj3fo74tm60","pricing_plan_id":"cebpf4jnsgd1na2vs0mg"},{"bike_id":"07d1bbea-f436-4716-964a-1cae6b7a5544","system_id":"levelo_inurba_marseille","lat":43.23959,"lon":5.36638,"is_reserved":false,"is_disabled":false,"rental_uris":{"android":"levelo://app?vid=07d1bbea-f436-4716-964a-1cae6b7a5544","ios":"levelo://app?vid=07d1bbea-f436-4716-964a-1cae6b7a5544"},"vehicle_type_id":"4","last_reported":1726693666,"current_range_meters":38800,"station_id":"ce4bhi12rcd13ifvqfp0","pricing_plan_id":"cebpf4jnsgd1na2vs0mg"},{"bike_id":"24ec974f-13a3-4842-b130-077c94916197","system_id":"levelo_inurba_marseille","lat":43.289263,"lon":5.366505,"is_reserved":false,"is_disabled":false,"rental_uris":{"android":"levelo://app?vid=24ec974f-13a3-4842-b130-077c94916197","ios":"levelo://app?vid=24ec974f-13a3-4842-b130-077c94916197"},"vehicle_type_id":"4","last_reported":1726693666,"current_range_meters":32400,"station_id":"ce4bhap2rcd13ifvqek0","pricing_plan_id":"cebpf4jnsgd1na2vs0mg"},{"bike_id":"732bb23f-5dab-4d02-8859-e78d13e10cea","system_id":"levelo_inurba_marseille","lat":43.31486,"lon":5.37313,"is_reserved":false,"is_disabled":false,"rental_uris":{"android":"levelo://app?vid=732bb23f-5dab-4d02-8859-e78d13e10cea","ios":"levelo://app?vid=732bb23f-5dab-4d02-8859-e78d13e10cea"},"vehicle_type_id":"4","last_reported":1726693666,"current_range_meters":18000,"station_id":"ce4bgt12rcd13ifvqcd0","pricing_plan_id":"cebpf4jnsgd1na2vs0mg"},{"bike_id":"bd100488-c448-4f25-897e-cfd9e6863224","system_id":"levelo_inurba_marseille","lat":43.28266,"lon":5.35079,"is_reserved":false,"is_disabled":false,"rental_uris":{"android":"levelo://app?vid=bd100488-c448-4f25-897e-cfd9e6863224","ios":"levelo://app?vid=bd100488-c448-4f25-897e-cfd9e6863224"},"vehicle_type_id":"4","last_reported":1726693666,"current_range_meters":38800,"station_id":"ce4bhbp2rcd13ifvqerg","pricing_plan_id":"cebpf4jnsgd1na2vs0mg"},{"bike_id":"a538cd01-543d-4d95-8352-6985f9eb5891","system_id":"levelo_inurba_marseille","lat":43.31323,"lon":5.39689,"is_reserved":false,"is_disabled":false,"rental_uris":{"android":"levelo://app?vid=a538cd01-543d-4d95-8352-6985f9eb5891","ios":"levelo://app?vid=a538cd01-543d-4d95-8352-6985f9eb5891"},"vehicle_type_id":"4","last_reported":1726693666,"current_range_meters":26800,"station_id":"ce4bgvp2rcd13ifvqcu0","pricing_plan_id":"cebpf4jnsgd1na2vs0mg"},{"bike_id":"1bdaddb0-3afa-41b4-b612-d2bd6db18652","system_id":"levelo_inurba_marseille","lat":43.28099,"lon":5.37837,"is_reserved":false,"is_disabled":false,"rental_uris":{"android":"levelo://app?vid=1bdaddb0-3afa-41b4-b612-d2bd6db18652","ios":"levelo://app?vid=1bdaddb0-3afa-41b4-b612-d2bd6db18652"},"vehicle_type_id":"4","last_reported":1726693666,"current_range_meters":35200,"station_id":"ce4bha12rcd13ifvqee0","pricing_plan_id":"cebpf4jnsgd1na2vs0mg"},{"bike_id":"215e1243-d773-4d5c-99dd-c9c39a44c76c","system_id":"levelo_inurba_marseille","lat":43.31271,"lon":5.40168,"is_reserved":false,"is_disabled":false,"rental_uris":{"android":"levelo://app?vid=215e1243-d773-4d5c-99dd-c9c39a44c76c","ios":"levelo://app?vid=215e1243-d773-4d5c-99dd-c9c39a44c76c"},"vehicle_type_id":"4","last_reported":1726693666,"current_range_meters":39200,"station_id":"ce4bh092rcd13ifvqd30","pricing_plan_id":"cebpf4jnsgd1na2vs0mg"},{"bike_id":"30273ac5-f770-4374-869e-af69990c2ec7","system_id":"levelo_inurba_marseille","lat":43.29522,"lon":5.39045,"is_reserved":false,"is_disabled":false,"rental_uris":{"android":"levelo://app?vid=30273ac5-f770-4374-869e-af69990c2ec7","ios":"levelo://app?vid=30273ac5-f770-4374-869e-af69990c2ec7"},"vehicle_type_id":"4","last_reported":1726693666,"current_range_meters":37600,"station_id":"ce4bh3p2rcd13ifvqdp0","pricing_plan_id":"cebpf4jnsgd1na2vs0mg"},{"bike_id":"935c459f-91c5-477d-808f-39c596db4c79","system_id":"levelo_inurba_marseille","lat":43.30137,"lon":5.3987,"is_reserved":false,"is_disabled":false,"rental_uris":{"android":"levelo://app?vid=935c459f-91c5-477d-808f-39c596db4c79","ios":"levelo://app?vid=935c459f-91c5-477d-808f-39c596db4c79"},"vehicle_type_id":"4","last_reported":1726693666,"current_range_meters":26800,"station_id":"ce4bh0h2rcd13ifvqd40","pricing_plan_id":"cebpf4jnsgd1na2vs0mg"},{"bike_id":"d325cef9-4c42-4313-82a5-afd80f597758","system_id":"levelo_inurba_marseille","lat":43.3091,"lon":5.3685,"is_reserved":false,"is_disabled":false,"rental_uris":{"android":"levelo://app?vid=d325cef9-4c42-4313-82a5-afd80f597758","ios":"levelo://app?vid=d325cef9-4c42-4313-82a5-afd80f597758"},"vehicle_type_id":"4","last_reported":1726693666,"current_range_meters":38800,"station_id":"ce4bgn92rcd13ifvqbvg","pricing_plan_id":"cebpf4jnsgd1na2vs0mg"},{"bike_id":"6f923028-b2fb-4f2c-8269-37532f69985a","system_id":"levelo_inurba_marseille","lat":43.2909,"lon":5.38138,"is_reserved":false,"is_disabled":false,"rental_uris":{"android":"levelo://app?vid=6f923028-b2fb-4f2c-8269-37532f69985a","ios":"levelo://app?vid=6f923028-b2fb-4f2c-8269-37532f69985a"},"vehicle_type_id":"4","last_reported":1726693666,"current_range_meters":17600,"station_id":"ce4bh512rcd13ifvqe2g","pricing_plan_id":"cebpf4jnsgd1na2vs0mg"},{"bike_id":"f73cab25-e77c-47a3-8def-b8875f74ecae","system_id":"levelo_inurba_marseille","lat":43.27838,"lon":5.39197,"is_reserved":false,"is_disabled":false,"rental_uris":{"android":"levelo://app?vid=f73cab25-e77c-47a3-8def-b8875f74ecae","ios":"levelo://app?vid=f73cab25-e77c-47a3-8def-b8875f74ecae"},"vehicle_type_id":"4","last_reported":1726693666,"current_range_meters":8800,"station_id":"ce4bhjp2rcd13ifvqga0","pricing_plan_id":"cebpf4jnsgd1na2vs0mg"},{"bike_id":"7e1d5be8-2c3f-48ef-aa1e-14f1f3130ebe","system_id":"levelo_inurba_marseille","lat":43.23965,"lon":5.36635,"is_reserved":false,"is_disabled":false,"rental_uris":{"android":"levelo://app?vid=7e1d5be8-2c3f-48ef-aa1e-14f1f3130ebe","ios":"levelo://app?vid=7e1d5be8-2c3f-48ef-aa1e-14f1f3130ebe"},"vehicle_type_id":"4","last_reported":1726693666,"current_range_meters":28400,"station_id":"ce4bhi12rcd13ifvqfp0","pricing_plan_id":"cebpf4jnsgd1na2vs0mg"},{"bike_id":"c62d3c7a-4410-4d75-888f-2f933ddc6928","system_id":"levelo_inurba_marseille","lat":43.31711,"lon":5.43706,"is_reserved":false,"is_disabled":false,"rental_uris":{"android":"levelo://app?vid=c62d3c7a-4410-4d75-888f-2f933ddc6928","ios":"levelo://app?vid=c62d3c7a-4410-4d75-888f-2f933ddc6928"},"vehicle_type_id":"4","last_reported":1726693666,"current_range_meters":38800,"station_id":"ce4bhp92rcd13ifvqhcg","pricing_plan_id":"cebpf4jnsgd1na2vs0mg"},{"bike_id":"bf63366c-87b9-4862-a020-53f8279007b5","system_id":"levelo_inurba_marseille","lat":43.27675,"lon":5.389,"is_reserved":false,"is_disabled":false,"rental_uris":{"android":"levelo://app?vid=bf63366c-87b9-4862-a020-53f8279007b5","ios":"levelo://app?vid=bf63366c-87b9-4862-a020-53f8279007b5"},"vehicle_type_id":"4","last_reported":1726693666,"current_range_meters":38800,"station_id":"ce4bhi12rcd13ifvqfo0","pricing_plan_id":"cebpf4jnsgd1na2vs0mg"},{"bike_id":"a8cf1998-7f9f-4af3-9620-4b99d5e3ad99","system_id":"levelo_inurba_marseille","lat":43.28455,"lon":5.35894,"is_reserved":false,"is_disabled":false,"rental_uris":{"android":"levelo://app?vid=a8cf1998-7f9f-4af3-9620-4b99d5e3ad99","ios":"levelo://app?vid=a8cf1998-7f9f-4af3-9620-4b99d5e3ad99"},"vehicle_type_id":"4","last_reported":1726693666,"current_range_meters":20000,"station_id":"ce4bhah2rcd13ifvqei0","pricing_plan_id":"cebpf4jnsgd1na2vs0mg"},{"bike_id":"b714cd8d-49fa-4b4e-9341-ea3f2b2707d9","system_id":"levelo_inurba_marseille","lat":43.3095,"lon":5.39039,"is_reserved":false,"is_disabled":false,"rental_uris":{"android":"levelo://app?vid=b714cd8d-49fa-4b4e-9341-ea3f2b2707d9","ios":"levelo://app?vid=b714cd8d-49fa-4b4e-9341-ea3f2b2707d9"},"vehicle_type_id":"4","last_reported":1726693666,"current_range_meters":12800,"station_id":"ce4bgup2rcd13ifvqco0","pricing_plan_id":"cebpf4jnsgd1na2vs0mg"},{"bike_id":"646b3e73-3d30-4b6d-a473-ca7cbdd4be03","system_id":"levelo_inurba_marseille","lat":43.29001,"lon":5.35615,"is_reserved":false,"is_disabled":false,"rental_uris":{"android":"levelo://app?vid=646b3e73-3d30-4b6d-a473-ca7cbdd4be03","ios":"levelo://app?vid=646b3e73-3d30-4b6d-a473-ca7cbdd4be03"},"vehicle_type_id":"4","last_reported":1726693666,"current_range_meters":36000,"station_id":"ce4bhb92rcd13ifvqen0","pricing_plan_id":"cebpf4jnsgd1na2vs0mg"},{"bike_id":"86d2fbbc-c469-4ea8-9619-326d1c533696","system_id":"levelo_inurba_marseille","lat":43.25491,"lon":5.37647,"is_reserved":false,"is_disabled":false,"rental_uris":{"android":"levelo://app?vid=86d2fbbc-c469-4ea8-9619-326d1c533696","ios":"levelo://app?vid=86d2fbbc-c469-4ea8-9619-326d1c533696"},"vehicle_type_id":"4","last_reported":1726693666,"current_range_meters":38800,"station_id":"ce4bhh12rcd13ifvqff0","pricing_plan_id":"cebpf4jnsgd1na2vs0mg"},{"bike_id":"64343bef-9724-4e4c-a28d-39bbc4fbd4ea","system_id":"levelo_inurba_marseille","lat":43.31222,"lon":5.36873,"is_reserved":false,"is_disabled":false,"rental_uris":{"android":"levelo://app?vid=64343bef-9724-4e4c-a28d-39bbc4fbd4ea","ios":"levelo://app?vid=64343bef-9724-4e4c-a28d-39bbc4fbd4ea"},"vehicle_type_id":"4","last_reported":1726693666,"current_range_meters":38800,"station_id":"ce4bgl92rcd13ifvqbq0","pricing_plan_id":"cebpf4jnsgd1na2vs0mg"},{"bike_id":"a7ec649a-e17d-4f88-b0c2-2dd13506f258","system_id":"levelo_inurba_marseille","lat":43.27566,"lon":5.41711,"is_reserved":false,"is_disabled":false,"rental_uris":{"android":"levelo://app?vid=a7ec649a-e17d-4f88-b0c2-2dd13506f258","ios":"levelo://app?vid=a7ec649a-e17d-4f88-b0c2-2dd13506f258"},"vehicle_type_id":"4","last_reported":1726693666,"current_range_meters":26000,"station_id":"","pricing_plan_id":"cebpf4jnsgd1na2vs0mg"},{"bike_id":"98008c79-7408-4bff-84dc-57b95a756cc2","system_id":"levelo_inurba_marseille","lat":43.29425,"lon":5.38585,"is_reserved":false,"is_disabled":false,"rental_uris":{"android":"levelo://app?vid=98008c79-7408-4bff-84dc-57b95a756cc2","ios":"levelo://app?vid=98008c79-7408-4bff-84dc-57b95a756cc2"},"vehicle_type_id":"4","last_reported":1726693666,"current_range_meters":25200,"station_id":"ce4bhb92rcd13ifvqen0","pricing_plan_id":"cebpf4jnsgd1na2vs0mg"},{"bike_id":"8f63ed9f-0d3a-4ab5-baf2-ef0c4ac64707","system_id":"levelo_inurba_marseille","lat":43.29556,"lon":5.42286,"is_reserved":false,"is_disabled":false,"rental_uris":{"android":"levelo://app?vid=8f63ed9f-0d3a-4ab5-baf2-ef0c4ac64707","ios":"levelo://app?vid=8f63ed9f-0d3a-4ab5-baf2-ef0c4ac64707"},"vehicle_type_id":"4","last_reported":1726693666,"current_range_meters":38800,"station_id":"ce4bhph2rcd13ifvqhdg","pricing_plan_id":"cebpf4jnsgd1na2vs0mg"},{"bike_id":"44b3b041-d9ea-4dd2-9333-d1f77a4bb946","system_id":"levelo_inurba_marseille","lat":43.27966,"lon":5.38727,"is_reserved":false,"is_disabled":false,"rental_uris":{"android":"levelo://app?vid=44b3b041-d9ea-4dd2-9333-d1f77a4bb946","ios":"levelo://app?vid=44b3b041-d9ea-4dd2-9333-d1f77a4bb946"},"vehicle_type_id":"4","last_reported":1726693666,"current_range_meters":37600,"station_id":"ce4bhg12rcd13ifvqf80","pricing_plan_id":"cebpf4jnsgd1na2vs0mg"},{"bike_id":"86d2afc3-1bd4-4fe5-b347-119a3a37d916","system_id":"levelo_inurba_marseille","lat":43.2681,"lon":5.40274,"is_reserved":false,"is_disabled":false,"rental_uris":{"android":"levelo://app?vid=86d2afc3-1bd4-4fe5-b347-119a3a37d916","ios":"levelo://app?vid=86d2afc3-1bd4-4fe5-b347-119a3a37d916"},"vehicle_type_id":"4","last_reported":1726693666,"current_range_meters":10000,"station_id":"ce501612rcd8frsf0b60","pricing_plan_id":"cebpf4jnsgd1na2vs0mg"},{"bike_id":"beb15bd0-b449-4862-b0ef-bc6b9508122c","system_id":"levelo_inurba_marseille","lat":43.27607,"lon":5.36107,"is_reserved":false,"is_disabled":false,"rental_uris":{"android":"levelo://app?vid=beb15bd0-b449-4862-b0ef-bc6b9508122c","ios":"levelo://app?vid=beb15bd0-b449-4862-b0ef-bc6b9508122c"},"vehicle_type_id":"4","last_reported":1726693666,"current_range_meters":7200,"station_id":"ce4bgj92rcd13ifvqbe0","pricing_plan_id":"cebpf4jnsgd1na2vs0mg"},{"bike_id":"3dac7204-51a1-4543-a843-8fe3e6e4e796","system_id":"levelo_inurba_marseille","lat":43.29522,"lon":5.3904,"is_reserved":false,"is_disabled":false,"rental_uris":{"android":"levelo://app?vid=3dac7204-51a1-4543-a843-8fe3e6e4e796","ios":"levelo://app?vid=3dac7204-51a1-4543-a843-8fe3e6e4e796"},"vehicle_type_id":"4","last_reported":1726693666,"current_range_meters":14800,"station_id":"ce4bh3p2rcd13ifvqdp0","pricing_plan_id":"cebpf4jnsgd1na2vs0mg"},{"bike_id":"5d78b308-9505-4ed0-832a-dc6eb31a5971","system_id":"levelo_inurba_marseille","lat":43.25579,"lon":5.38239,"is_reserved":false,"is_disabled":false,"rental_uris":{"android":"levelo://app?vid=5d78b308-9505-4ed0-832a-dc6eb31a5971","ios":"levelo://app?vid=5d78b308-9505-4ed0-832a-dc6eb31a5971"},"vehicle_type_id":"4","last_reported":1726693666,"current_range_meters":24800,"station_id":"ce4bhih2rcd13ifvqfs0","pricing_plan_id":"cebpf4jnsgd1na2vs0mg"},{"bike_id":"cafdd73d-4866-483c-a5a9-906f34d1ec7c","system_id":"levelo_inurba_marseille","lat":43.31323,"lon":5.39686,"is_reserved":false,"is_disabled":false,"rental_uris":{"android":"levelo://app?vid=cafdd73d-4866-483c-a5a9-906f34d1ec7c","ios":"levelo://app?vid=cafdd73d-4866-483c-a5a9-906f34d1ec7c"},"vehicle_type_id":"4","last_reported":1726693666,"current_range_meters":6000,"station_id":"ce4bgvp2rcd13ifvqcu0","pricing_plan_id":"cebpf4jnsgd1na2vs0mg"},{"bike_id":"ba54f573-336a-40ad-b931-1ca2a8b1e077","system_id":"levelo_inurba_marseille","lat":43.25822,"lon":5.39436,"is_reserved":false,"is_disabled":false,"rental_uris":{"android":"levelo://app?vid=ba54f573-336a-40ad-b931-1ca2a8b1e077","ios":"levelo://app?vid=ba54f573-336a-40ad-b931-1ca2a8b1e077"},"vehicle_type_id":"4","last_reported":1726693666,"current_range_meters":38400,"station_id":"ce4bhip2rcd13ifvqft0","pricing_plan_id":"cebpf4jnsgd1na2vs0mg"},{"bike_id":"c4c8acd1-ff3d-4806-8174-cea36604d882","system_id":"levelo_inurba_marseille","lat":43.29949,"lon":5.41318,"is_reserved":false,"is_disabled":false,"rental_uris":{"android":"levelo://app?vid=c4c8acd1-ff3d-4806-8174-cea36604d882","ios":"levelo://app?vid=c4c8acd1-ff3d-4806-8174-cea36604d882"},"vehicle_type_id":"4","last_reported":1726693666,"current_range_meters":33600,"station_id":"ce4bhp12rcd13ifvqh9g","pricing_plan_id":"cebpf4jnsgd1na2vs0mg"},{"bike_id":"7296939a-e07b-445c-bd52-40cde8ccbba2","system_id":"levelo_inurba_marseille","lat":43.2603,"lon":5.37554,"is_reserved":false,"is_disabled":false,"rental_uris":{"android":"levelo://app?vid=7296939a-e07b-445c-bd52-40cde8ccbba2","ios":"levelo://app?vid=7296939a-e07b-445c-bd52-40cde8ccbba2"},"vehicle_type_id":"4","last_reported":1726693666,"current_range_meters":38800,"station_id":"ce4bhgh2rcd13ifvqfa0","pricing_plan_id":"cebpf4jnsgd1na2vs0mg"},{"bike_id":"34773d52-8757-498a-add0-9b3fcbba7821","system_id":"levelo_inurba_marseille","lat":43.28425,"lon":5.34988,"is_reserved":false,"is_disabled":false,"rental_uris":{"android":"levelo://app?vid=34773d52-8757-498a-add0-9b3fcbba7821","ios":"levelo://app?vid=34773d52-8757-498a-add0-9b3fcbba7821"},"vehicle_type_id":"4","last_reported":1726693666,"current_range_meters":6000,"station_id":"ce4bhbh2rcd13ifvqepg","pricing_plan_id":"cebpf4jnsgd1na2vs0mg"},{"bike_id":"cc338b51-de8a-4346-93c7-87ded02658c0","system_id":"levelo_inurba_marseille","lat":43.30893,"lon":5.39639,"is_reserved":false,"is_disabled":false,"rental_uris":{"android":"levelo://app?vid=cc338b51-de8a-4346-93c7-87ded02658c0","ios":"levelo://app?vid=cc338b51-de8a-4346-93c7-87ded02658c0"},"vehicle_type_id":"4","last_reported":1726693666,"current_range_meters":25200,"station_id":"ce4bh012rcd13ifvqcv0","pricing_plan_id":"cebpf4jnsgd1na2vs0mg"},{"bike_id":"a58dc92f-d4cf-423a-9ba0-7ca2320e84c1","system_id":"levelo_inurba_marseille","lat":43.28031,"lon":5.36951,"is_reserved":false,"is_disabled":false,"rental_uris":{"android":"levelo://app?vid=a58dc92f-d4cf-423a-9ba0-7ca2320e84c1","ios":"levelo://app?vid=a58dc92f-d4cf-423a-9ba0-7ca2320e84c1"},"vehicle_type_id":"4","last_reported":1726693666,"current_range_meters":38800,"station_id":"ce4bha12rcd13ifvqef0","pricing_plan_id":"cebpf4jnsgd1na2vs0mg"},{"bike_id":"f711ba3b-5088-4dc9-863f-ddacf21ce7d2","system_id":"levelo_inurba_marseille","lat":43.290331,"lon":5.386427,"is_reserved":false,"is_disabled":false,"rental_uris":{"android":"levelo://app?vid=f711ba3b-5088-4dc9-863f-ddacf21ce7d2","ios":"levelo://app?vid=f711ba3b-5088-4dc9-863f-ddacf21ce7d2"},"vehicle_type_id":"4","last_reported":1726693666,"current_range_meters":13600,"station_id":"ce4bh4p2rcd13ifvqe0g","pricing_plan_id":"cebpf4jnsgd1na2vs0mg"},{"bike_id":"7ddae6db-a5e5-4637-b018-d22c4c6ee222","system_id":"levelo_inurba_marseille","lat":43.28261,"lon":5.35065,"is_reserved":false,"is_disabled":false,"rental_uris":{"android":"levelo://app?vid=7ddae6db-a5e5-4637-b018-d22c4c6ee222","ios":"levelo://app?vid=7ddae6db-a5e5-4637-b018-d22c4c6ee222"},"vehicle_type_id":"4","last_reported":1726693666,"current_range_meters":28000,"station_id":"ce4bhbp2rcd13ifvqerg","pricing_plan_id":"cebpf4jnsgd1na2vs0mg"},{"bike_id":"ef34c70d-2e65-48fd-bb4f-c142f621d359","system_id":"levelo_inurba_marseille","lat":43.24543,"lon":5.39527,"is_reserved":false,"is_disabled":false,"rental_uris":{"android":"levelo://app?vid=ef34c70d-2e65-48fd-bb4f-c142f621d359","ios":"levelo://app?vid=ef34c70d-2e65-48fd-bb4f-c142f621d359"},"vehicle_type_id":"4","last_reported":1726693666,"current_range_meters":38800,"station_id":"ce4bhlp2rcd13ifvqgjg","pricing_plan_id":"cebpf4jnsgd1na2vs0mg"},{"bike_id":"4637f38a-faa6-4c8b-ae8d-2112023d8ec3","system_id":"levelo_inurba_marseille","lat":43.25582,"lon":5.3824,"is_reserved":false,"is_disabled":false,"rental_uris":{"android":"levelo://app?vid=4637f38a-faa6-4c8b-ae8d-2112023d8ec3","ios":"levelo://app?vid=4637f38a-faa6-4c8b-ae8d-2112023d8ec3"},"vehicle_type_id":"4","last_reported":1726693666,"current_range_meters":38800,"station_id":"ce4bhih2rcd13ifvqfs0","pricing_plan_id":"cebpf4jnsgd1na2vs0mg"},{"bike_id":"938a1d8e-8f7a-4dbb-a7f7-9b765b9ff51b","system_id":"levelo_inurba_marseille","lat":43.27616,"lon":5.3611,"is_reserved":false,"is_disabled":false,"rental_uris":{"android":"levelo://app?vid=938a1d8e-8f7a-4dbb-a7f7-9b765b9ff51b","ios":"levelo://app?vid=938a1d8e-8f7a-4dbb-a7f7-9b765b9ff51b"},"vehicle_type_id":"4","last_reported":1726693666,"current_range_meters":26000,"station_id":"ce4bgj92rcd13ifvqbe0","pricing_plan_id":"cebpf4jnsgd1na2vs0mg"},{"bike_id":"fa77e604-95b4-476d-a30f-499c3aaf710d","system_id":"levelo_inurba_marseille","lat":43.33729,"lon":5.3918,"is_reserved":false,"is_disabled":false,"rental_uris":{"android":"levelo://app?vid=fa77e604-95b4-476d-a30f-499c3aaf710d","ios":"levelo://app?vid=fa77e604-95b4-476d-a30f-499c3aaf710d"},"vehicle_type_id":"4","last_reported":1726693666,"current_range_meters":9200,"station_id":"ce4bhr92rcd13ifvqhsg","pricing_plan_id":"cebpf4jnsgd1na2vs0mg"},{"bike_id":"7620db55-f9a9-48d3-8e71-922c33f82c8f","system_id":"levelo_inurba_marseille","lat":43.33022,"lon":5.39034,"is_reserved":false,"is_disabled":false,"rental_uris":{"android":"levelo://app?vid=7620db55-f9a9-48d3-8e71-922c33f82c8f","ios":"levelo://app?vid=7620db55-f9a9-48d3-8e71-922c33f82c8f"},"vehicle_type_id":"4","last_reported":1726693666,"current_range_meters":38800,"station_id":"ce4bhr92rcd13ifvqhrg","pricing_plan_id":"cebpf4jnsgd1na2vs0mg"},{"bike_id":"a38468d6-008e-4542-b64c-f93d0f0b9f9b","system_id":"levelo_inurba_marseille","lat":43.23962,"lon":5.36627,"is_reserved":false,"is_disabled":false,"rental_uris":{"android":"levelo://app?vid=a38468d6-008e-4542-b64c-f93d0f0b9f9b","ios":"levelo://app?vid=a38468d6-008e-4542-b64c-f93d0f0b9f9b"},"vehicle_type_id":"4","last_reported":1726693666,"current_range_meters":35200,"station_id":"ce4bhi12rcd13ifvqfp0","pricing_plan_id":"cebpf4jnsgd1na2vs0mg"},{"bike_id":"6bea07ff-b7cf-43d7-9614-efd55ed0f2d6","system_id":"levelo_inurba_marseille","lat":43.24646,"lon":5.38899,"is_reserved":false,"is_disabled":false,"rental_uris":{"android":"levelo://app?vid=6bea07ff-b7cf-43d7-9614-efd55ed0f2d6","ios":"levelo://app?vid=6bea07ff-b7cf-43d7-9614-efd55ed0f2d6"},"vehicle_type_id":"4","last_reported":1726693666,"current_range_meters":29600,"station_id":"ce4bhg12rcd13ifvqf60","pricing_plan_id":"cebpf4jnsgd1na2vs0mg"},{"bike_id":"5304ed70-fad3-470c-b0c3-63f08a2a0a36","system_id":"levelo_inurba_marseille","lat":43.31324,"lon":5.39692,"is_reserved":false,"is_disabled":false,"rental_uris":{"android":"levelo://app?vid=5304ed70-fad3-470c-b0c3-63f08a2a0a36","ios":"levelo://app?vid=5304ed70-fad3-470c-b0c3-63f08a2a0a36"},"vehicle_type_id":"4","last_reported":1726693666,"current_range_meters":17200,"station_id":"ce4bgvp2rcd13ifvqcu0","pricing_plan_id":"cebpf4jnsgd1na2vs0mg"},{"bike_id":"5dc8462b-9f67-4f26-a70b-5cb5a55d9baa","system_id":"levelo_inurba_marseille","lat":43.23958,"lon":5.36627,"is_reserved":false,"is_disabled":false,"rental_uris":{"android":"levelo://app?vid=5dc8462b-9f67-4f26-a70b-5cb5a55d9baa","ios":"levelo://app?vid=5dc8462b-9f67-4f26-a70b-5cb5a55d9baa"},"vehicle_type_id":"4","last_reported":1726693666,"current_range_meters":38800,"station_id":"ce4bhi12rcd13ifvqfp0","pricing_plan_id":"cebpf4jnsgd1na2vs0mg"},{"bike_id":"9be94feb-a495-4651-8693-da9a946157ae","system_id":"levelo_inurba_marseille","lat":43.25008,"lon":5.38915,"is_reserved":false,"is_disabled":false,"rental_uris":{"android":"levelo://app?vid=9be94feb-a495-4651-8693-da9a946157ae","ios":"levelo://app?vid=9be94feb-a495-4651-8693-da9a946157ae"},"vehicle_type_id":"4","last_reported":1726693666,"current_range_meters":21600,"station_id":"ce4bhgp2rcd13ifvqfd0","pricing_plan_id":"cebpf4jnsgd1na2vs0mg"},{"bike_id":"8b92f07f-bbfd-414c-9917-9010c838ca72","system_id":"levelo_inurba_marseille","lat":43.32476,"lon":5.36562,"is_reserved":false,"is_disabled":false,"rental_uris":{"android":"levelo://app?vid=8b92f07f-bbfd-414c-9917-9010c838ca72","ios":"levelo://app?vid=8b92f07f-bbfd-414c-9917-9010c838ca72"},"vehicle_type_id":"4","last_reported":1726693666,"current_range_meters":22000,"station_id":"ce4bhs12rcd13ifvqhvg","pricing_plan_id":"cebpf4jnsgd1na2vs0mg"},{"bike_id":"5853071a-a7de-43ad-87c8-982495d79fa0","system_id":"levelo_inurba_marseille","lat":43.25006,"lon":5.38921,"is_reserved":false,"is_disabled":false,"rental_uris":{"android":"levelo://app?vid=5853071a-a7de-43ad-87c8-982495d79fa0","ios":"levelo://app?vid=5853071a-a7de-43ad-87c8-982495d79fa0"},"vehicle_type_id":"4","last_reported":1726693666,"current_range_meters":37600,"station_id":"ce4bhgp2rcd13ifvqfd0","pricing_plan_id":"cebpf4jnsgd1na2vs0mg"},{"bike_id":"52ff6ad0-6e82-4094-9973-5f11332fd735","system_id":"levelo_inurba_marseille","lat":43.29562,"lon":5.39972,"is_reserved":false,"is_disabled":false,"rental_uris":{"android":"levelo://app?vid=52ff6ad0-6e82-4094-9973-5f11332fd735","ios":"levelo://app?vid=52ff6ad0-6e82-4094-9973-5f11332fd735"},"vehicle_type_id":"4","last_reported":1726693666,"current_range_meters":38400,"station_id":"ce4bh312rcd13ifvqdj0","pricing_plan_id":"cebpf4jnsgd1na2vs0mg"},{"bike_id":"8ce743f7-e32b-48f2-8e2c-5f996428c364","system_id":"levelo_inurba_marseille","lat":43.2861,"lon":5.37061,"is_reserved":false,"is_disabled":false,"rental_uris":{"android":"levelo://app?vid=8ce743f7-e32b-48f2-8e2c-5f996428c364","ios":"levelo://app?vid=8ce743f7-e32b-48f2-8e2c-5f996428c364"},"vehicle_type_id":"4","last_reported":1726693666,"current_range_meters":25200,"station_id":"ce4bht12rcd13ifvqi60","pricing_plan_id":"cebpf4jnsgd1na2vs0mg"},{"bike_id":"316473a3-098e-4790-8abd-9617353ea0fa","system_id":"levelo_inurba_marseille","lat":43.29254,"lon":5.40914,"is_reserved":false,"is_disabled":false,"rental_uris":{"android":"levelo://app?vid=316473a3-098e-4790-8abd-9617353ea0fa","ios":"levelo://app?vid=316473a3-098e-4790-8abd-9617353ea0fa"},"vehicle_type_id":"4","last_reported":1726693666,"current_range_meters":36800,"station_id":"ce4bh192rcd13ifvqdc0","pricing_plan_id":"cebpf4jnsgd1na2vs0mg"},{"bike_id":"1a9a3c52-b22b-4395-af3f-f1c9b0b7c3e7","system_id":"levelo_inurba_marseille","lat":43.29571,"lon":5.39987,"is_reserved":false,"is_disabled":false,"rental_uris":{"android":"levelo://app?vid=1a9a3c52-b22b-4395-af3f-f1c9b0b7c3e7","ios":"levelo://app?vid=1a9a3c52-b22b-4395-af3f-f1c9b0b7c3e7"},"vehicle_type_id":"4","last_reported":1726693666,"current_range_meters":12800,"station_id":"ce4bh312rcd13ifvqdj0","pricing_plan_id":"cebpf4jnsgd1na2vs0mg"},{"bike_id":"5dae95f8-2f90-467f-93be-f6b586bb66e5","system_id":"levelo_inurba_marseille","lat":43.29928,"lon":5.36515,"is_reserved":false,"is_disabled":false,"rental_uris":{"android":"levelo://app?vid=5dae95f8-2f90-467f-93be-f6b586bb66e5","ios":"levelo://app?vid=5dae95f8-2f90-467f-93be-f6b586bb66e5"},"vehicle_type_id":"4","last_reported":1726693666,"current_range_meters":32000,"station_id":"ce4bgm92rcd13ifvqbr0","pricing_plan_id":"cebpf4jnsgd1na2vs0mg"},{"bike_id":"ad264040-f36d-4d24-971d-436e2a7964b5","system_id":"levelo_inurba_marseille","lat":43.29259,"lon":5.40906,"is_reserved":false,"is_disabled":false,"rental_uris":{"android":"levelo://app?vid=ad264040-f36d-4d24-971d-436e2a7964b5","ios":"levelo://app?vid=ad264040-f36d-4d24-971d-436e2a7964b5"},"vehicle_type_id":"4","last_reported":1726693666,"current_range_meters":8800,"station_id":"ce4bh192rcd13ifvqdc0","pricing_plan_id":"cebpf4jnsgd1na2vs0mg"},{"bike_id":"7a8a8512-1a66-4773-a439-892950d478f5","system_id":"levelo_inurba_marseille","lat":43.28071,"lon":5.39659,"is_reserved":false,"is_disabled":false,"rental_uris":{"android":"levelo://app?vid=7a8a8512-1a66-4773-a439-892950d478f5","ios":"levelo://app?vid=7a8a8512-1a66-4773-a439-892950d478f5"},"vehicle_type_id":"4","last_reported":1726693666,"current_range_meters":9600,"station_id":"ce4bho12rcd13ifvqh2g","pricing_plan_id":"cebpf4jnsgd1na2vs0mg"},{"bike_id":"b18d8b94-ea3f-41c4-a439-b580881ddfe3","system_id":"levelo_inurba_marseille","lat":43.31324,"lon":5.39694,"is_reserved":false,"is_disabled":false,"rental_uris":{"android":"levelo://app?vid=b18d8b94-ea3f-41c4-a439-b580881ddfe3","ios":"levelo://app?vid=b18d8b94-ea3f-41c4-a439-b580881ddfe3"},"vehicle_type_id":"4","last_reported":1726693666,"current_range_meters":38800,"station_id":"ce4bgvp2rcd13ifvqcu0","pricing_plan_id":"cebpf4jnsgd1na2vs0mg"},{"bike_id":"e0173d18-6c8e-483c-9db6-bd92135cda26","system_id":"levelo_inurba_marseille","lat":43.31994,"lon":5.38147,"is_reserved":false,"is_disabled":false,"rental_uris":{"android":"levelo://app?vid=e0173d18-6c8e-483c-9db6-bd92135cda26","ios":"levelo://app?vid=e0173d18-6c8e-483c-9db6-bd92135cda26"},"vehicle_type_id":"4","last_reported":1726693666,"current_range_meters":23200,"station_id":"ce4bhr12rcd13ifvqhpg","pricing_plan_id":"cebpf4jnsgd1na2vs0mg"},{"bike_id":"05410574-e19a-470a-bce7-ed8f6ab9135a","system_id":"levelo_inurba_marseille","lat":43.3171,"lon":5.43708,"is_reserved":false,"is_disabled":false,"rental_uris":{"android":"levelo://app?vid=05410574-e19a-470a-bce7-ed8f6ab9135a","ios":"levelo://app?vid=05410574-e19a-470a-bce7-ed8f6ab9135a"},"vehicle_type_id":"4","last_reported":1726693666,"current_range_meters":11200,"station_id":"ce4bhp92rcd13ifvqhcg","pricing_plan_id":"cebpf4jnsgd1na2vs0mg"},{"bike_id":"77e86427-f18b-4502-b4ab-6d97fdc517ac","system_id":"levelo_inurba_marseille","lat":43.28848,"lon":5.35853,"is_reserved":false,"is_disabled":false,"rental_uris":{"android":"levelo://app?vid=77e86427-f18b-4502-b4ab-6d97fdc517ac","ios":"levelo://app?vid=77e86427-f18b-4502-b4ab-6d97fdc517ac"},"vehicle_type_id":"4","last_reported":1726693666,"current_range_meters":27200,"station_id":"ce4bhb12rcd13ifvqem0","pricing_plan_id":"cebpf4jnsgd1na2vs0mg"},{"bike_id":"f90f04c6-274c-48a8-ac9c-065da2a7b181","system_id":"levelo_inurba_marseille","lat":43.24074,"lon":5.37752,"is_reserved":false,"is_disabled":false,"rental_uris":{"android":"levelo://app?vid=f90f04c6-274c-48a8-ac9c-065da2a7b181","ios":"levelo://app?vid=f90f04c6-274c-48a8-ac9c-065da2a7b181"},"vehicle_type_id":"4","last_reported":1726693666,"current_range_meters":9200,"station_id":"ce4bhnp2rcd13ifvqgvg","pricing_plan_id":"cebpf4jnsgd1na2vs0mg"},{"bike_id":"55fed244-caf4-46e6-99fc-fcd916ddb5b7","system_id":"levelo_inurba_marseille","lat":43.23214,"lon":5.35549,"is_reserved":false,"is_disabled":false,"rental_uris":{"android":"levelo://app?vid=55fed244-caf4-46e6-99fc-fcd916ddb5b7","ios":"levelo://app?vid=55fed244-caf4-46e6-99fc-fcd916ddb5b7"},"vehicle_type_id":"4","last_reported":1726693666,"current_range_meters":23200,"station_id":"ce4bhu92rcd13ifvqi70","pricing_plan_id":"cebpf4jnsgd1na2vs0mg"},{"bike_id":"4d6f430e-a89c-4f5a-a87a-ca0e6d05c74c","system_id":"levelo_inurba_marseille","lat":43.25988,"lon":5.40823,"is_reserved":false,"is_disabled":false,"rental_uris":{"android":"levelo://app?vid=4d6f430e-a89c-4f5a-a87a-ca0e6d05c74c","ios":"levelo://app?vid=4d6f430e-a89c-4f5a-a87a-ca0e6d05c74c"},"vehicle_type_id":"4","last_reported":1726693666,"current_range_meters":33200,"station_id":"","pricing_plan_id":"cebpf4jnsgd1na2vs0mg"},{"bike_id":"f5fae311-4617-41f6-b71d-cc796ed5ebb3","system_id":"levelo_inurba_marseille","lat":43.29915,"lon":5.37468,"is_reserved":false,"is_disabled":false,"rental_uris":{"android":"levelo://app?vid=f5fae311-4617-41f6-b71d-cc796ed5ebb3","ios":"levelo://app?vid=f5fae311-4617-41f6-b71d-cc796ed5ebb3"},"vehicle_type_id":"4","last_reported":1726693666,"current_range_meters":10800,"station_id":"ce4bgjh2rcd13ifvqbg0","pricing_plan_id":"cebpf4jnsgd1na2vs0mg"},{"bike_id":"62e335eb-aaec-4647-b7e9-321a9f4dff46","system_id":"levelo_inurba_marseille","lat":43.28462,"lon":5.35887,"is_reserved":false,"is_disabled":false,"rental_uris":{"android":"levelo://app?vid=62e335eb-aaec-4647-b7e9-321a9f4dff46","ios":"levelo://app?vid=62e335eb-aaec-4647-b7e9-321a9f4dff46"},"vehicle_type_id":"4","last_reported":1726693666,"current_range_meters":38800,"station_id":"ce4bhah2rcd13ifvqei0","pricing_plan_id":"cebpf4jnsgd1na2vs0mg"},{"bike_id":"3e5ce477-7f69-4c9f-bf73-e98e38620e8a","system_id":"levelo_inurba_marseille","lat":43.31766,"lon":5.39009,"is_reserved":false,"is_disabled":false,"rental_uris":{"android":"levelo://app?vid=3e5ce477-7f69-4c9f-bf73-e98e38620e8a","ios":"levelo://app?vid=3e5ce477-7f69-4c9f-bf73-e98e38620e8a"},"vehicle_type_id":"4","last_reported":1726693666,"current_range_meters":24000,"station_id":"ce4bhqp2rcd13ifvqhng","pricing_plan_id":"cebpf4jnsgd1na2vs0mg"},{"bike_id":"67e3a6af-f6ee-4466-86cf-1bd6401a24ff","system_id":"levelo_inurba_marseille","lat":43.28269,"lon":5.35073,"is_reserved":false,"is_disabled":false,"rental_uris":{"android":"levelo://app?vid=67e3a6af-f6ee-4466-86cf-1bd6401a24ff","ios":"levelo://app?vid=67e3a6af-f6ee-4466-86cf-1bd6401a24ff"},"vehicle_type_id":"4","last_reported":1726693666,"current_range_meters":38800,"station_id":"ce4bhbp2rcd13ifvqerg","pricing_plan_id":"cebpf4jnsgd1na2vs0mg"},{"bike_id":"677498c9-746b-4650-9a8e-2c7479635944","system_id":"levelo_inurba_marseille","lat":43.33023,"lon":5.39047,"is_reserved":false,"is_disabled":false,"rental_uris":{"android":"levelo://app?vid=677498c9-746b-4650-9a8e-2c7479635944","ios":"levelo://app?vid=677498c9-746b-4650-9a8e-2c7479635944"},"vehicle_type_id":"4","last_reported":1726693666,"current_range_meters":12000,"station_id":"ce4bhr92rcd13ifvqhrg","pricing_plan_id":"cebpf4jnsgd1na2vs0mg"},{"bike_id":"bee0e7c0-a7b3-4aa5-ab3e-0f242b502b94","system_id":"levelo_inurba_marseille","lat":43.31077,"lon":5.38363,"is_reserved":false,"is_disabled":false,"rental_uris":{"android":"levelo://app?vid=bee0e7c0-a7b3-4aa5-ab3e-0f242b502b94","ios":"levelo://app?vid=bee0e7c0-a7b3-4aa5-ab3e-0f242b502b94"},"vehicle_type_id":"4","last_reported":1726693666,"current_range_meters":11200,"station_id":"ce4bgv92rcd13ifvqcr0","pricing_plan_id":"cebpf4jnsgd1na2vs0mg"},{"bike_id":"3e99e2ac-cdfd-4893-be50-20dbb5272dd6","system_id":"levelo_inurba_marseille","lat":43.30795,"lon":5.4353,"is_reserved":false,"is_disabled":false,"rental_uris":{"android":"levelo://app?vid=3e99e2ac-cdfd-4893-be50-20dbb5272dd6","ios":"levelo://app?vid=3e99e2ac-cdfd-4893-be50-20dbb5272dd6"},"vehicle_type_id":"4","last_reported":1726693666,"current_range_meters":38800,"station_id":"ce4bhph2rcd13ifvqheg","pricing_plan_id":"cebpf4jnsgd1na2vs0mg"},{"bike_id":"7d1ee808-291a-4e08-9c9a-7318984664a1","system_id":"levelo_inurba_marseille","lat":43.30889,"lon":5.37198,"is_reserved":false,"is_disabled":false,"rental_uris":{"android":"levelo://app?vid=7d1ee808-291a-4e08-9c9a-7318984664a1","ios":"levelo://app?vid=7d1ee808-291a-4e08-9c9a-7318984664a1"},"vehicle_type_id":"4","last_reported":1726693666,"current_range_meters":34000,"station_id":"ce4bguh2rcd13ifvqckg","pricing_plan_id":"cebpf4jnsgd1na2vs0mg"},{"bike_id":"2cbb6dd5-2ec8-4ba5-808a-c5301f897d27","system_id":"levelo_inurba_marseille","lat":43.23955,"lon":5.36631,"is_reserved":false,"is_disabled":false,"rental_uris":{"android":"levelo://app?vid=2cbb6dd5-2ec8-4ba5-808a-c5301f897d27","ios":"levelo://app?vid=2cbb6dd5-2ec8-4ba5-808a-c5301f897d27"},"vehicle_type_id":"4","last_reported":1726693666,"current_range_meters":26000,"station_id":"ce4bhi12rcd13ifvqfp0","pricing_plan_id":"cebpf4jnsgd1na2vs0mg"},{"bike_id":"a4dd289b-0018-47df-9b4c-8cd7418694a0","system_id":"levelo_inurba_marseille","lat":43.30135,"lon":5.39857,"is_reserved":false,"is_disabled":false,"rental_uris":{"android":"levelo://app?vid=a4dd289b-0018-47df-9b4c-8cd7418694a0","ios":"levelo://app?vid=a4dd289b-0018-47df-9b4c-8cd7418694a0"},"vehicle_type_id":"4","last_reported":1726693666,"current_range_meters":26800,"station_id":"ce4bh0h2rcd13ifvqd40","pricing_plan_id":"cebpf4jnsgd1na2vs0mg"},{"bike_id":"f5ddcaf2-4df3-4791-8314-9ff825829baa","system_id":"levelo_inurba_marseille","lat":43.28461,"lon":5.35892,"is_reserved":false,"is_disabled":false,"rental_uris":{"android":"levelo://app?vid=f5ddcaf2-4df3-4791-8314-9ff825829baa","ios":"levelo://app?vid=f5ddcaf2-4df3-4791-8314-9ff825829baa"},"vehicle_type_id":"4","last_reported":1726693666,"current_range_meters":25600,"station_id":"ce4bhah2rcd13ifvqei0","pricing_plan_id":"cebpf4jnsgd1na2vs0mg"},{"bike_id":"bc3457c8-d92e-473e-9760-52ad816ce251","system_id":"levelo_inurba_marseille","lat":43.283508,"lon":5.381088,"is_reserved":false,"is_disabled":false,"rental_uris":{"android":"levelo://app?vid=bc3457c8-d92e-473e-9760-52ad816ce251","ios":"levelo://app?vid=bc3457c8-d92e-473e-9760-52ad816ce251"},"vehicle_type_id":"4","last_reported":1726693666,"current_range_meters":8800,"station_id":"ce4bhh92rcd13ifvqfi0","pricing_plan_id":"cebpf4jnsgd1na2vs0mg"},{"bike_id":"1478a44f-74d8-48d2-a01f-74a3a0b9df5a","system_id":"levelo_inurba_marseille","lat":43.31278,"lon":5.4017,"is_reserved":false,"is_disabled":false,"rental_uris":{"android":"levelo://app?vid=1478a44f-74d8-48d2-a01f-74a3a0b9df5a","ios":"levelo://app?vid=1478a44f-74d8-48d2-a01f-74a3a0b9df5a"},"vehicle_type_id":"4","last_reported":1726693666,"current_range_meters":14400,"station_id":"ce4bh092rcd13ifvqd30","pricing_plan_id":"cebpf4jnsgd1na2vs0mg"},{"bike_id":"8cdf80e8-1cad-47da-be62-e9da525c2492","system_id":"levelo_inurba_marseille","lat":43.30131,"lon":5.38797,"is_reserved":false,"is_disabled":false,"rental_uris":{"android":"levelo://app?vid=8cdf80e8-1cad-47da-be62-e9da525c2492","ios":"levelo://app?vid=8cdf80e8-1cad-47da-be62-e9da525c2492"},"vehicle_type_id":"4","last_reported":1726693666,"current_range_meters":36400,"station_id":"ce4bghh2rcd13ifvqb60","pricing_plan_id":"cebpf4jnsgd1na2vs0mg"},{"bike_id":"10074ca6-1985-4939-a802-8c358e57d5bb","system_id":"levelo_inurba_marseille","lat":43.31888,"lon":5.40729,"is_reserved":false,"is_disabled":false,"rental_uris":{"android":"levelo://app?vid=10074ca6-1985-4939-a802-8c358e57d5bb","ios":"levelo://app?vid=10074ca6-1985-4939-a802-8c358e57d5bb"},"vehicle_type_id":"4","last_reported":1726693666,"current_range_meters":13600,"station_id":"ce4bhq12rcd13ifvqhig","pricing_plan_id":"cebpf4jnsgd1na2vs0mg"},{"bike_id":"52fffaf1-dd98-4e0a-a39d-48011512624f","system_id":"levelo_inurba_marseille","lat":43.25505,"lon":5.37646,"is_reserved":false,"is_disabled":false,"rental_uris":{"android":"levelo://app?vid=52fffaf1-dd98-4e0a-a39d-48011512624f","ios":"levelo://app?vid=52fffaf1-dd98-4e0a-a39d-48011512624f"},"vehicle_type_id":"4","last_reported":1726693666,"current_range_meters":30400,"station_id":"ce4bhh12rcd13ifvqff0","pricing_plan_id":"cebpf4jnsgd1na2vs0mg"},{"bike_id":"33ad1968-65c2-482e-8752-8dac18074b50","system_id":"levelo_inurba_marseille","lat":43.295274,"lon":5.385397,"is_reserved":false,"is_disabled":false,"rental_uris":{"android":"levelo://app?vid=33ad1968-65c2-482e-8752-8dac18074b50","ios":"levelo://app?vid=33ad1968-65c2-482e-8752-8dac18074b50"},"vehicle_type_id":"4","last_reported":1726693666,"current_range_meters":8400,"station_id":"ce4bgih2rcd13ifvqba0","pricing_plan_id":"cebpf4jnsgd1na2vs0mg"},{"bike_id":"de268f51-9584-4adc-87a7-5847e45d9d4d","system_id":"levelo_inurba_marseille","lat":43.30421,"lon":5.4129,"is_reserved":false,"is_disabled":false,"rental_uris":{"android":"levelo://app?vid=de268f51-9584-4adc-87a7-5847e45d9d4d","ios":"levelo://app?vid=de268f51-9584-4adc-87a7-5847e45d9d4d"},"vehicle_type_id":"4","last_reported":1726693666,"current_range_meters":38800,"station_id":"ce4bhop2rcd13ifvqh8g","pricing_plan_id":"cebpf4jnsgd1na2vs0mg"},{"bike_id":"998ddacb-a930-414c-8e03-6e6d234ecf40","system_id":"levelo_inurba_marseille","lat":43.30417,"lon":5.41281,"is_reserved":false,"is_disabled":false,"rental_uris":{"android":"levelo://app?vid=998ddacb-a930-414c-8e03-6e6d234ecf40","ios":"levelo://app?vid=998ddacb-a930-414c-8e03-6e6d234ecf40"},"vehicle_type_id":"4","last_reported":1726693666,"current_range_meters":36800,"station_id":"ce4bhop2rcd13ifvqh8g","pricing_plan_id":"cebpf4jnsgd1na2vs0mg"},{"bike_id":"37804655-3b91-46a3-b91b-1ceef89e4f83","system_id":"levelo_inurba_marseille","lat":43.28458,"lon":5.3589,"is_reserved":false,"is_disabled":false,"rental_uris":{"android":"levelo://app?vid=37804655-3b91-46a3-b91b-1ceef89e4f83","ios":"levelo://app?vid=37804655-3b91-46a3-b91b-1ceef89e4f83"},"vehicle_type_id":"4","last_reported":1726693666,"current_range_meters":6800,"station_id":"ce4bhah2rcd13ifvqei0","pricing_plan_id":"cebpf4jnsgd1na2vs0mg"},{"bike_id":"4db52eb6-98ee-4a84-af00-f7fac3c0feba","system_id":"levelo_inurba_marseille","lat":43.28457,"lon":5.35887,"is_reserved":false,"is_disabled":false,"rental_uris":{"android":"levelo://app?vid=4db52eb6-98ee-4a84-af00-f7fac3c0feba","ios":"levelo://app?vid=4db52eb6-98ee-4a84-af00-f7fac3c0feba"},"vehicle_type_id":"4","last_reported":1726693666,"current_range_meters":7200,"station_id":"ce4bhah2rcd13ifvqei0","pricing_plan_id":"cebpf4jnsgd1na2vs0mg"},{"bike_id":"d37aa318-9eec-42e5-ad66-edcb803356f0","system_id":"levelo_inurba_marseille","lat":43.27805,"lon":5.42817,"is_reserved":false,"is_disabled":false,"rental_uris":{"android":"levelo://app?vid=d37aa318-9eec-42e5-ad66-edcb803356f0","ios":"levelo://app?vid=d37aa318-9eec-42e5-ad66-edcb803356f0"},"vehicle_type_id":"4","last_reported":1726693666,"current_range_meters":8000,"station_id":"","pricing_plan_id":"cebpf4jnsgd1na2vs0mg"},{"bike_id":"b51480c2-9b9c-41e3-9bfc-f3e2a0ce7444","system_id":"levelo_inurba_marseille","lat":43.23206,"lon":5.35551,"is_reserved":false,"is_disabled":false,"rental_uris":{"android":"levelo://app?vid=b51480c2-9b9c-41e3-9bfc-f3e2a0ce7444","ios":"levelo://app?vid=b51480c2-9b9c-41e3-9bfc-f3e2a0ce7444"},"vehicle_type_id":"4","last_reported":1726693666,"current_range_meters":38800,"station_id":"ce4bhu92rcd13ifvqi70","pricing_plan_id":"cebpf4jnsgd1na2vs0mg"},{"bike_id":"99207ce7-6e05-4cba-9ee3-b73cf3c7bc9b","system_id":"levelo_inurba_marseille","lat":43.28077,"lon":5.3966,"is_reserved":false,"is_disabled":false,"rental_uris":{"android":"levelo://app?vid=99207ce7-6e05-4cba-9ee3-b73cf3c7bc9b","ios":"levelo://app?vid=99207ce7-6e05-4cba-9ee3-b73cf3c7bc9b"},"vehicle_type_id":"4","last_reported":1726693666,"current_range_meters":34800,"station_id":"ce4bho12rcd13ifvqh2g","pricing_plan_id":"cebpf4jnsgd1na2vs0mg"},{"bike_id":"93ba4ede-58ab-412a-bc91-fb80ea0cb912","system_id":"levelo_inurba_marseille","lat":43.30883,"lon":5.39659,"is_reserved":false,"is_disabled":false,"rental_uris":{"android":"levelo://app?vid=93ba4ede-58ab-412a-bc91-fb80ea0cb912","ios":"levelo://app?vid=93ba4ede-58ab-412a-bc91-fb80ea0cb912"},"vehicle_type_id":"4","last_reported":1726693666,"current_range_meters":14400,"station_id":"ce4bh012rcd13ifvqcv0","pricing_plan_id":"cebpf4jnsgd1na2vs0mg"},{"bike_id":"2b714e73-49f8-4f26-bb6d-7d72ce23aabc","system_id":"levelo_inurba_marseille","lat":43.23051,"lon":5.35491,"is_reserved":false,"is_disabled":false,"rental_uris":{"android":"levelo://app?vid=2b714e73-49f8-4f26-bb6d-7d72ce23aabc","ios":"levelo://app?vid=2b714e73-49f8-4f26-bb6d-7d72ce23aabc"},"vehicle_type_id":"4","last_reported":1726693666,"current_range_meters":6800,"station_id":"cpo3342slgdg3j2ifvpg","pricing_plan_id":"cebpf4jnsgd1na2vs0mg"},{"bike_id":"cb36a45f-4c0a-42ed-b37c-eea18317ed3b","system_id":"levelo_inurba_marseille","lat":43.29421,"lon":5.38627,"is_reserved":false,"is_disabled":false,"rental_uris":{"android":"levelo://app?vid=cb36a45f-4c0a-42ed-b37c-eea18317ed3b","ios":"levelo://app?vid=cb36a45f-4c0a-42ed-b37c-eea18317ed3b"},"vehicle_type_id":"4","last_reported":1726693666,"current_range_meters":24400,"station_id":"ce4bh2h2rcd13ifvqdh0","pricing_plan_id":"cebpf4jnsgd1na2vs0mg"},{"bike_id":"e83172ba-34b9-4e83-8493-d5f27864064b","system_id":"levelo_inurba_marseille","lat":43.28103,"lon":5.37842,"is_reserved":false,"is_disabled":false,"rental_uris":{"android":"levelo://app?vid=e83172ba-34b9-4e83-8493-d5f27864064b","ios":"levelo://app?vid=e83172ba-34b9-4e83-8493-d5f27864064b"},"vehicle_type_id":"4","last_reported":1726693666,"current_range_meters":4800,"station_id":"ce4bha12rcd13ifvqee0","pricing_plan_id":"cebpf4jnsgd1na2vs0mg"},{"bike_id":"88c89d81-1a10-47ab-a150-a989251d7a76","system_id":"levelo_inurba_marseille","lat":43.25869,"lon":5.39899,"is_reserved":false,"is_disabled":false,"rental_uris":{"android":"levelo://app?vid=88c89d81-1a10-47ab-a150-a989251d7a76","ios":"levelo://app?vid=88c89d81-1a10-47ab-a150-a989251d7a76"},"vehicle_type_id":"4","last_reported":1726693666,"current_range_meters":5600,"station_id":"ce4bhl92rcd13ifvqghg","pricing_plan_id":"cebpf4jnsgd1na2vs0mg"},{"bike_id":"2e64ac77-37d0-42c4-9b89-df897b66197d","system_id":"levelo_inurba_marseille","lat":43.29964,"lon":5.41324,"is_reserved":false,"is_disabled":false,"rental_uris":{"android":"levelo://app?vid=2e64ac77-37d0-42c4-9b89-df897b66197d","ios":"levelo://app?vid=2e64ac77-37d0-42c4-9b89-df897b66197d"},"vehicle_type_id":"4","last_reported":1726693666,"current_range_meters":38800,"station_id":"ce4bhp12rcd13ifvqh9g","pricing_plan_id":"cebpf4jnsgd1na2vs0mg"},{"bike_id":"451cd4e6-d747-4d42-b652-d593351ccec4","system_id":"levelo_inurba_marseille","lat":43.24387,"lon":5.37052,"is_reserved":false,"is_disabled":false,"rental_uris":{"android":"levelo://app?vid=451cd4e6-d747-4d42-b652-d593351ccec4","ios":"levelo://app?vid=451cd4e6-d747-4d42-b652-d593351ccec4"},"vehicle_type_id":"4","last_reported":1726693666,"current_range_meters":38000,"station_id":"ce4bhhh2rcd13ifvqfk0","pricing_plan_id":"cebpf4jnsgd1na2vs0mg"},{"bike_id":"59fbe0c1-3e23-478b-af85-53d14385768b","system_id":"levelo_inurba_marseille","lat":43.31082,"lon":5.42433,"is_reserved":false,"is_disabled":false,"rental_uris":{"android":"levelo://app?vid=59fbe0c1-3e23-478b-af85-53d14385768b","ios":"levelo://app?vid=59fbe0c1-3e23-478b-af85-53d14385768b"},"vehicle_type_id":"4","last_reported":1726693666,"current_range_meters":38800,"station_id":"ce4bhp92rcd13ifvqhag","pricing_plan_id":"cebpf4jnsgd1na2vs0mg"},{"bike_id":"13b57b80-59e8-43e9-b969-57ed41f63348","system_id":"levelo_inurba_marseille","lat":43.28404,"lon":5.37511,"is_reserved":false,"is_disabled":false,"rental_uris":{"android":"levelo://app?vid=13b57b80-59e8-43e9-b969-57ed41f63348","ios":"levelo://app?vid=13b57b80-59e8-43e9-b969-57ed41f63348"},"vehicle_type_id":"4","last_reported":1726693666,"current_range_meters":12400,"station_id":"ce4bh412rcd13ifvqds0","pricing_plan_id":"cebpf4jnsgd1na2vs0mg"},{"bike_id":"ce5845d5-eb1d-4d83-91fd-1f7cf09f0a6c","system_id":"levelo_inurba_marseille","lat":43.310819,"lon":5.424293,"is_reserved":false,"is_disabled":false,"rental_uris":{"android":"levelo://app?vid=ce5845d5-eb1d-4d83-91fd-1f7cf09f0a6c","ios":"levelo://app?vid=ce5845d5-eb1d-4d83-91fd-1f7cf09f0a6c"},"vehicle_type_id":"4","last_reported":1726693666,"current_range_meters":16400,"station_id":"ce4bhp92rcd13ifvqhag","pricing_plan_id":"cebpf4jnsgd1na2vs0mg"},{"bike_id":"814c3ad7-ae62-4a71-888b-ee4b0342d150","system_id":"levelo_inurba_marseille","lat":43.31757,"lon":5.39013,"is_reserved":false,"is_disabled":false,"rental_uris":{"android":"levelo://app?vid=814c3ad7-ae62-4a71-888b-ee4b0342d150","ios":"levelo://app?vid=814c3ad7-ae62-4a71-888b-ee4b0342d150"},"vehicle_type_id":"4","last_reported":1726693666,"current_range_meters":30400,"station_id":"ce4bhqp2rcd13ifvqhng","pricing_plan_id":"cebpf4jnsgd1na2vs0mg"},{"bike_id":"900bdbb4-aec8-4224-af5c-48f9085f93e9","system_id":"levelo_inurba_marseille","lat":43.24808,"lon":5.37458,"is_reserved":false,"is_disabled":false,"rental_uris":{"android":"levelo://app?vid=900bdbb4-aec8-4224-af5c-48f9085f93e9","ios":"levelo://app?vid=900bdbb4-aec8-4224-af5c-48f9085f93e9"},"vehicle_type_id":"4","last_reported":1726693666,"current_range_meters":38400,"station_id":"ce4bhgh2rcd13ifvqfb0","pricing_plan_id":"cebpf4jnsgd1na2vs0mg"},{"bike_id":"ac4bf06c-542c-4760-8f69-facfe551d5d7","system_id":"levelo_inurba_marseille","lat":43.23965,"lon":5.36638,"is_reserved":false,"is_disabled":false,"rental_uris":{"android":"levelo://app?vid=ac4bf06c-542c-4760-8f69-facfe551d5d7","ios":"levelo://app?vid=ac4bf06c-542c-4760-8f69-facfe551d5d7"},"vehicle_type_id":"4","last_reported":1726693666,"current_range_meters":16400,"station_id":"ce4bhi12rcd13ifvqfp0","pricing_plan_id":"cebpf4jnsgd1na2vs0mg"},{"bike_id":"62605b61-4e41-49b0-8ed2-e4c0780af73e","system_id":"levelo_inurba_marseille","lat":43.28941,"lon":5.36638,"is_reserved":false,"is_disabled":false,"rental_uris":{"android":"levelo://app?vid=62605b61-4e41-49b0-8ed2-e4c0780af73e","ios":"levelo://app?vid=62605b61-4e41-49b0-8ed2-e4c0780af73e"},"vehicle_type_id":"4","last_reported":1726693666,"current_range_meters":37600,"station_id":"ce4bhap2rcd13ifvqek0","pricing_plan_id":"cebpf4jnsgd1na2vs0mg"},{"bike_id":"d9c1a794-40a3-4d0f-abc8-56edb999af39","system_id":"levelo_inurba_marseille","lat":43.28456,"lon":5.35882,"is_reserved":false,"is_disabled":false,"rental_uris":{"android":"levelo://app?vid=d9c1a794-40a3-4d0f-abc8-56edb999af39","ios":"levelo://app?vid=d9c1a794-40a3-4d0f-abc8-56edb999af39"},"vehicle_type_id":"4","last_reported":1726693666,"current_range_meters":35200,"station_id":"ce4bhah2rcd13ifvqei0","pricing_plan_id":"cebpf4jnsgd1na2vs0mg"},{"bike_id":"02c639a4-fe62-499a-a69a-f474d98d7667","system_id":"levelo_inurba_marseille","lat":43.28462,"lon":5.35888,"is_reserved":false,"is_disabled":false,"rental_uris":{"android":"levelo://app?vid=02c639a4-fe62-499a-a69a-f474d98d7667","ios":"levelo://app?vid=02c639a4-fe62-499a-a69a-f474d98d7667"},"vehicle_type_id":"4","last_reported":1726693666,"current_range_meters":38400,"station_id":"ce4bhah2rcd13ifvqei0","pricing_plan_id":"cebpf4jnsgd1na2vs0mg"},{"bike_id":"fcebcf63-b320-4f6b-a46f-b56e14268634","system_id":"levelo_inurba_marseille","lat":43.28396,"lon":5.37511,"is_reserved":false,"is_disabled":false,"rental_uris":{"android":"levelo://app?vid=fcebcf63-b320-4f6b-a46f-b56e14268634","ios":"levelo://app?vid=fcebcf63-b320-4f6b-a46f-b56e14268634"},"vehicle_type_id":"4","last_reported":1726693666,"current_range_meters":33600,"station_id":"ce4bh412rcd13ifvqds0","pricing_plan_id":"cebpf4jnsgd1na2vs0mg"},{"bike_id":"6dd17a2f-59bb-4453-859d-2c09ab795824","system_id":"levelo_inurba_marseille","lat":43.33026,"lon":5.39049,"is_reserved":false,"is_disabled":false,"rental_uris":{"android":"levelo://app?vid=6dd17a2f-59bb-4453-859d-2c09ab795824","ios":"levelo://app?vid=6dd17a2f-59bb-4453-859d-2c09ab795824"},"vehicle_type_id":"4","last_reported":1726693666,"current_range_meters":22800,"station_id":"ce4bhr92rcd13ifvqhrg","pricing_plan_id":"cebpf4jnsgd1na2vs0mg"},{"bike_id":"682c326f-9756-4537-a3eb-f525cbc855ff","system_id":"levelo_inurba_marseille","lat":43.25722,"lon":5.41113,"is_reserved":false,"is_disabled":false,"rental_uris":{"android":"levelo://app?vid=682c326f-9756-4537-a3eb-f525cbc855ff","ios":"levelo://app?vid=682c326f-9756-4537-a3eb-f525cbc855ff"},"vehicle_type_id":"4","last_reported":1726693666,"current_range_meters":38800,"station_id":"ce4bhkp2rcd13ifvqgd0","pricing_plan_id":"cebpf4jnsgd1na2vs0mg"},{"bike_id":"5c4240fb-258c-46fa-88e1-337a0cfb2b36","system_id":"levelo_inurba_marseille","lat":43.28456,"lon":5.35884,"is_reserved":false,"is_disabled":false,"rental_uris":{"android":"levelo://app?vid=5c4240fb-258c-46fa-88e1-337a0cfb2b36","ios":"levelo://app?vid=5c4240fb-258c-46fa-88e1-337a0cfb2b36"},"vehicle_type_id":"4","last_reported":1726693666,"current_range_meters":9200,"station_id":"ce4bhah2rcd13ifvqei0","pricing_plan_id":"cebpf4jnsgd1na2vs0mg"},{"bike_id":"05f48429-9a91-4fad-8be5-0970b020dfe6","system_id":"levelo_inurba_marseille","lat":43.23959,"lon":5.36632,"is_reserved":false,"is_disabled":false,"rental_uris":{"android":"levelo://app?vid=05f48429-9a91-4fad-8be5-0970b020dfe6","ios":"levelo://app?vid=05f48429-9a91-4fad-8be5-0970b020dfe6"},"vehicle_type_id":"4","last_reported":1726693666,"current_range_meters":6800,"station_id":"ce4bhi12rcd13ifvqfp0","pricing_plan_id":"cebpf4jnsgd1na2vs0mg"},{"bike_id":"b8293bed-a03d-4911-a30a-5ef40377bb0a","system_id":"levelo_inurba_marseille","lat":43.25497,"lon":5.37651,"is_reserved":false,"is_disabled":false,"rental_uris":{"android":"levelo://app?vid=b8293bed-a03d-4911-a30a-5ef40377bb0a","ios":"levelo://app?vid=b8293bed-a03d-4911-a30a-5ef40377bb0a"},"vehicle_type_id":"4","last_reported":1726693666,"current_range_meters":38800,"station_id":"ce4bhh12rcd13ifvqff0","pricing_plan_id":"cebpf4jnsgd1na2vs0mg"},{"bike_id":"f2c95146-36ce-4175-8035-0c4ee99efa92","system_id":"levelo_inurba_marseille","lat":43.23193,"lon":5.35551,"is_reserved":false,"is_disabled":false,"rental_uris":{"android":"levelo://app?vid=f2c95146-36ce-4175-8035-0c4ee99efa92","ios":"levelo://app?vid=f2c95146-36ce-4175-8035-0c4ee99efa92"},"vehicle_type_id":"4","last_reported":1726693666,"current_range_meters":10800,"station_id":"ce4bhu92rcd13ifvqi70","pricing_plan_id":"cebpf4jnsgd1na2vs0mg"},{"bike_id":"11859f6c-e16b-4ee4-8084-fee7beccc9d9","system_id":"levelo_inurba_marseille","lat":43.2903,"lon":5.38642,"is_reserved":false,"is_disabled":false,"rental_uris":{"android":"levelo://app?vid=11859f6c-e16b-4ee4-8084-fee7beccc9d9","ios":"levelo://app?vid=11859f6c-e16b-4ee4-8084-fee7beccc9d9"},"vehicle_type_id":"4","last_reported":1726693666,"current_range_meters":8400,"station_id":"ce4bh4p2rcd13ifvqe0g","pricing_plan_id":"cebpf4jnsgd1na2vs0mg"},{"bike_id":"ec0cde51-8263-45f6-9ff5-6bda2240f86f","system_id":"levelo_inurba_marseille","lat":43.289368,"lon":5.363647,"is_reserved":false,"is_disabled":false,"rental_uris":{"android":"levelo://app?vid=ec0cde51-8263-45f6-9ff5-6bda2240f86f","ios":"levelo://app?vid=ec0cde51-8263-45f6-9ff5-6bda2240f86f"},"vehicle_type_id":"4","last_reported":1726693666,"current_range_meters":33200,"station_id":"ce4bhc92rcd13ifvqetg","pricing_plan_id":"cebpf4jnsgd1na2vs0mg"},{"bike_id":"6dcbf464-c58c-43fc-8c19-a67aa3002535","system_id":"levelo_inurba_marseille","lat":43.283539,"lon":5.386349,"is_reserved":false,"is_disabled":false,"rental_uris":{"android":"levelo://app?vid=6dcbf464-c58c-43fc-8c19-a67aa3002535","ios":"levelo://app?vid=6dcbf464-c58c-43fc-8c19-a67aa3002535"},"vehicle_type_id":"4","last_reported":1726693666,"current_range_meters":28400,"station_id":"ce4bh492rcd13ifvqdvg","pricing_plan_id":"cebpf4jnsgd1na2vs0mg"},{"bike_id":"113ca948-2325-463d-b40c-ba755261b048","system_id":"levelo_inurba_marseille","lat":43.28454,"lon":5.3588,"is_reserved":false,"is_disabled":false,"rental_uris":{"android":"levelo://app?vid=113ca948-2325-463d-b40c-ba755261b048","ios":"levelo://app?vid=113ca948-2325-463d-b40c-ba755261b048"},"vehicle_type_id":"4","last_reported":1726693666,"current_range_meters":21600,"station_id":"ce4bhah2rcd13ifvqei0","pricing_plan_id":"cebpf4jnsgd1na2vs0mg"},{"bike_id":"750e8351-13f9-43b0-b164-24061995e5de","system_id":"levelo_inurba_marseille","lat":43.30895,"lon":5.372,"is_reserved":false,"is_disabled":false,"rental_uris":{"android":"levelo://app?vid=750e8351-13f9-43b0-b164-24061995e5de","ios":"levelo://app?vid=750e8351-13f9-43b0-b164-24061995e5de"},"vehicle_type_id":"4","last_reported":1726693666,"current_range_meters":38800,"station_id":"ce4bguh2rcd13ifvqckg","pricing_plan_id":"cebpf4jnsgd1na2vs0mg"},{"bike_id":"7d67441c-acf3-496b-9711-da23da5e28f1","system_id":"levelo_inurba_marseille","lat":43.2857,"lon":5.40268,"is_reserved":false,"is_disabled":false,"rental_uris":{"android":"levelo://app?vid=7d67441c-acf3-496b-9711-da23da5e28f1","ios":"levelo://app?vid=7d67441c-acf3-496b-9711-da23da5e28f1"},"vehicle_type_id":"4","last_reported":1726693666,"current_range_meters":30400,"station_id":"","pricing_plan_id":"cebpf4jnsgd1na2vs0mg"},{"bike_id":"db5bed51-afb9-4548-98e9-7b7ae226c501","system_id":"levelo_inurba_marseille","lat":43.33744,"lon":5.37451,"is_reserved":false,"is_disabled":false,"rental_uris":{"android":"levelo://app?vid=db5bed51-afb9-4548-98e9-7b7ae226c501","ios":"levelo://app?vid=db5bed51-afb9-4548-98e9-7b7ae226c501"},"vehicle_type_id":"4","last_reported":1726693666,"current_range_meters":33600,"station_id":"","pricing_plan_id":"cebpf4jnsgd1na2vs0mg"},{"bike_id":"6a78926c-7c24-4114-b69b-79fe85c63250","system_id":"levelo_inurba_marseille","lat":43.30871,"lon":5.39628,"is_reserved":false,"is_disabled":false,"rental_uris":{"android":"levelo://app?vid=6a78926c-7c24-4114-b69b-79fe85c63250","ios":"levelo://app?vid=6a78926c-7c24-4114-b69b-79fe85c63250"},"vehicle_type_id":"4","last_reported":1726693666,"current_range_meters":38800,"station_id":"ce4bh012rcd13ifvqcv0","pricing_plan_id":"cebpf4jnsgd1na2vs0mg"},{"bike_id":"df24e1d2-544f-4464-95b7-c195713bbc3a","system_id":"levelo_inurba_marseille","lat":43.28434,"lon":5.39199,"is_reserved":false,"is_disabled":false,"rental_uris":{"android":"levelo://app?vid=df24e1d2-544f-4464-95b7-c195713bbc3a","ios":"levelo://app?vid=df24e1d2-544f-4464-95b7-c195713bbc3a"},"vehicle_type_id":"4","last_reported":1726693666,"current_range_meters":18800,"station_id":"ce4bhoh2rcd13ifvqh5g","pricing_plan_id":"cebpf4jnsgd1na2vs0mg"},{"bike_id":"b1de3e01-d200-4101-b296-b5b2dfea97ee","system_id":"levelo_inurba_marseille","lat":43.296223,"lon":5.3716,"is_reserved":false,"is_disabled":false,"rental_uris":{"android":"levelo://app?vid=b1de3e01-d200-4101-b296-b5b2dfea97ee","ios":"levelo://app?vid=b1de3e01-d200-4101-b296-b5b2dfea97ee"},"vehicle_type_id":"4","last_reported":1726693666,"current_range_meters":26000,"station_id":"ce4bgnh2rcd13ifvqc0g","pricing_plan_id":"cebpf4jnsgd1na2vs0mg"},{"bike_id":"69399783-5eae-4af9-ae4b-1495b2d249b1","system_id":"levelo_inurba_marseille","lat":43.24161,"lon":5.36395,"is_reserved":false,"is_disabled":false,"rental_uris":{"android":"levelo://app?vid=69399783-5eae-4af9-ae4b-1495b2d249b1","ios":"levelo://app?vid=69399783-5eae-4af9-ae4b-1495b2d249b1"},"vehicle_type_id":"4","last_reported":1726693666,"current_range_meters":36400,"station_id":"cpo36qri1sfpv3e86is0","pricing_plan_id":"cebpf4jnsgd1na2vs0mg"},{"bike_id":"023b13a7-6618-44f3-9637-e4d6b2b8db34","system_id":"levelo_inurba_marseille","lat":43.25726,"lon":5.4111,"is_reserved":false,"is_disabled":false,"rental_uris":{"android":"levelo://app?vid=023b13a7-6618-44f3-9637-e4d6b2b8db34","ios":"levelo://app?vid=023b13a7-6618-44f3-9637-e4d6b2b8db34"},"vehicle_type_id":"4","last_reported":1726693666,"current_range_meters":25200,"station_id":"ce4bhkp2rcd13ifvqgd0","pricing_plan_id":"cebpf4jnsgd1na2vs0mg"},{"bike_id":"d06834b6-14ec-477c-92f7-a04b5630a0da","system_id":"levelo_inurba_marseille","lat":43.26547,"lon":5.37293,"is_reserved":false,"is_disabled":false,"rental_uris":{"android":"levelo://app?vid=d06834b6-14ec-477c-92f7-a04b5630a0da","ios":"levelo://app?vid=d06834b6-14ec-477c-92f7-a04b5630a0da"},"vehicle_type_id":"4","last_reported":1726693666,"current_range_meters":8400,"station_id":"ce4bhg12rcd13ifvqf70","pricing_plan_id":"cebpf4jnsgd1na2vs0mg"},{"bike_id":"c2e37a50-a4d6-4422-b245-40f3fa5f4cd1","system_id":"levelo_inurba_marseille","lat":43.27321,"lon":5.39089,"is_reserved":false,"is_disabled":false,"rental_uris":{"android":"levelo://app?vid=c2e37a50-a4d6-4422-b245-40f3fa5f4cd1","ios":"levelo://app?vid=c2e37a50-a4d6-4422-b245-40f3fa5f4cd1"},"vehicle_type_id":"4","last_reported":1726693666,"current_range_meters":8400,"station_id":"ce4bhgp2rcd13ifvqfe0","pricing_plan_id":"cebpf4jnsgd1na2vs0mg"},{"bike_id":"63115356-bbaf-41c6-877e-3f2bb9f486f1","system_id":"levelo_inurba_marseille","lat":43.30423,"lon":5.388917,"is_reserved":false,"is_disabled":false,"rental_uris":{"android":"levelo://app?vid=63115356-bbaf-41c6-877e-3f2bb9f486f1","ios":"levelo://app?vid=63115356-bbaf-41c6-877e-3f2bb9f486f1"},"vehicle_type_id":"4","last_reported":1726693666,"current_range_meters":16400,"station_id":"ce4bh312rcd13ifvqdj0","pricing_plan_id":"cebpf4jnsgd1na2vs0mg"},{"bike_id":"2a02a26f-7ad3-47bb-a66f-dad3d347c4c9","system_id":"levelo_inurba_marseille","lat":43.25104,"lon":5.40328,"is_reserved":false,"is_disabled":false,"rental_uris":{"android":"levelo://app?vid=2a02a26f-7ad3-47bb-a66f-dad3d347c4c9","ios":"levelo://app?vid=2a02a26f-7ad3-47bb-a66f-dad3d347c4c9"},"vehicle_type_id":"4","last_reported":1726693666,"current_range_meters":16000,"station_id":"ce4bhlh2rcd13ifvqgig","pricing_plan_id":"cebpf4jnsgd1na2vs0mg"},{"bike_id":"e5b0ee22-a192-442b-bfde-ae0c7d8bec85","system_id":"levelo_inurba_marseille","lat":43.31273,"lon":5.40173,"is_reserved":false,"is_disabled":false,"rental_uris":{"android":"levelo://app?vid=e5b0ee22-a192-442b-bfde-ae0c7d8bec85","ios":"levelo://app?vid=e5b0ee22-a192-442b-bfde-ae0c7d8bec85"},"vehicle_type_id":"4","last_reported":1726693666,"current_range_meters":33200,"station_id":"ce4bh092rcd13ifvqd30","pricing_plan_id":"cebpf4jnsgd1na2vs0mg"},{"bike_id":"6228b1a7-edf5-4578-8675-6da3a2ed3f0e","system_id":"levelo_inurba_marseille","lat":43.29031,"lon":5.35921,"is_reserved":false,"is_disabled":false,"rental_uris":{"android":"levelo://app?vid=6228b1a7-edf5-4578-8675-6da3a2ed3f0e","ios":"levelo://app?vid=6228b1a7-edf5-4578-8675-6da3a2ed3f0e"},"vehicle_type_id":"4","last_reported":1726693666,"current_range_meters":19600,"station_id":"ce4bha92rcd13ifvqeg0","pricing_plan_id":"cebpf4jnsgd1na2vs0mg"},{"bike_id":"955951c0-82ad-457e-818d-1db9706d249f","system_id":"levelo_inurba_marseille","lat":43.28457,"lon":5.35886,"is_reserved":false,"is_disabled":false,"rental_uris":{"android":"levelo://app?vid=955951c0-82ad-457e-818d-1db9706d249f","ios":"levelo://app?vid=955951c0-82ad-457e-818d-1db9706d249f"},"vehicle_type_id":"4","last_reported":1726693666,"current_range_meters":4000,"station_id":"ce4bhah2rcd13ifvqei0","pricing_plan_id":"cebpf4jnsgd1na2vs0mg"},{"bike_id":"58014cc6-4f39-4119-a8a0-cdc0e2507820","system_id":"levelo_inurba_marseille","lat":43.32291,"lon":5.38267,"is_reserved":false,"is_disabled":false,"rental_uris":{"android":"levelo://app?vid=58014cc6-4f39-4119-a8a0-cdc0e2507820","ios":"levelo://app?vid=58014cc6-4f39-4119-a8a0-cdc0e2507820"},"vehicle_type_id":"4","last_reported":1726693666,"current_range_meters":39200,"station_id":"ce4bhr12rcd13ifvqhqg","pricing_plan_id":"cebpf4jnsgd1na2vs0mg"},{"bike_id":"5eec14ad-c849-4f64-bdfb-f330db0ed0de","system_id":"levelo_inurba_marseille","lat":43.31165,"lon":5.3872,"is_reserved":false,"is_disabled":false,"rental_uris":{"android":"levelo://app?vid=5eec14ad-c849-4f64-bdfb-f330db0ed0de","ios":"levelo://app?vid=5eec14ad-c849-4f64-bdfb-f330db0ed0de"},"vehicle_type_id":"4","last_reported":1726693666,"current_range_meters":25600,"station_id":"ce4bgv12rcd13ifvqcp0","pricing_plan_id":"cebpf4jnsgd1na2vs0mg"},{"bike_id":"b168231b-2f3d-4b28-bd24-348b4b373070","system_id":"levelo_inurba_marseille","lat":43.31324,"lon":5.39697,"is_reserved":false,"is_disabled":false,"rental_uris":{"android":"levelo://app?vid=b168231b-2f3d-4b28-bd24-348b4b373070","ios":"levelo://app?vid=b168231b-2f3d-4b28-bd24-348b4b373070"},"vehicle_type_id":"4","last_reported":1726693666,"current_range_meters":38800,"station_id":"ce4bgvp2rcd13ifvqcu0","pricing_plan_id":"cebpf4jnsgd1na2vs0mg"},{"bike_id":"67101e27-2fdd-4e84-bdf7-495c619879ab","system_id":"levelo_inurba_marseille","lat":43.31995,"lon":5.38144,"is_reserved":false,"is_disabled":false,"rental_uris":{"android":"levelo://app?vid=67101e27-2fdd-4e84-bdf7-495c619879ab","ios":"levelo://app?vid=67101e27-2fdd-4e84-bdf7-495c619879ab"},"vehicle_type_id":"4","last_reported":1726693666,"current_range_meters":12400,"station_id":"ce4bhr12rcd13ifvqhpg","pricing_plan_id":"cebpf4jnsgd1na2vs0mg"},{"bike_id":"13ee2a72-83d4-4ef5-8ab9-b048ac85604d","system_id":"levelo_inurba_marseille","lat":43.28458,"lon":5.35889,"is_reserved":false,"is_disabled":false,"rental_uris":{"android":"levelo://app?vid=13ee2a72-83d4-4ef5-8ab9-b048ac85604d","ios":"levelo://app?vid=13ee2a72-83d4-4ef5-8ab9-b048ac85604d"},"vehicle_type_id":"4","last_reported":1726693666,"current_range_meters":38800,"station_id":"ce4bhah2rcd13ifvqei0","pricing_plan_id":"cebpf4jnsgd1na2vs0mg"},{"bike_id":"9de036c4-decb-465b-a775-32e663a8924f","system_id":"levelo_inurba_marseille","lat":43.33023,"lon":5.39036,"is_reserved":false,"is_disabled":false,"rental_uris":{"android":"levelo://app?vid=9de036c4-decb-465b-a775-32e663a8924f","ios":"levelo://app?vid=9de036c4-decb-465b-a775-32e663a8924f"},"vehicle_type_id":"4","last_reported":1726693666,"current_range_meters":32400,"station_id":"ce4bhr92rcd13ifvqhrg","pricing_plan_id":"cebpf4jnsgd1na2vs0mg"},{"bike_id":"3eda4607-df67-4e07-b923-8887faadc06b","system_id":"levelo_inurba_marseille","lat":43.30891,"lon":5.37202,"is_reserved":false,"is_disabled":false,"rental_uris":{"android":"levelo://app?vid=3eda4607-df67-4e07-b923-8887faadc06b","ios":"levelo://app?vid=3eda4607-df67-4e07-b923-8887faadc06b"},"vehicle_type_id":"4","last_reported":1726693666,"current_range_meters":38800,"station_id":"ce4bguh2rcd13ifvqckg","pricing_plan_id":"cebpf4jnsgd1na2vs0mg"},{"bike_id":"b0aa9608-e495-4afb-986f-f111d9b6e73f","system_id":"levelo_inurba_marseille","lat":43.285706,"lon":5.394977,"is_reserved":false,"is_disabled":false,"rental_uris":{"android":"levelo://app?vid=b0aa9608-e495-4afb-986f-f111d9b6e73f","ios":"levelo://app?vid=b0aa9608-e495-4afb-986f-f111d9b6e73f"},"vehicle_type_id":"4","last_reported":1726693666,"current_range_meters":38000,"station_id":"ce4bh292rcd13ifvqdg0","pricing_plan_id":"cebpf4jnsgd1na2vs0mg"},{"bike_id":"0c95fa43-48bf-4681-83d7-aad86c7517d9","system_id":"levelo_inurba_marseille","lat":43.28265,"lon":5.35072,"is_reserved":false,"is_disabled":false,"rental_uris":{"android":"levelo://app?vid=0c95fa43-48bf-4681-83d7-aad86c7517d9","ios":"levelo://app?vid=0c95fa43-48bf-4681-83d7-aad86c7517d9"},"vehicle_type_id":"4","last_reported":1726693666,"current_range_meters":38800,"station_id":"ce4bhbp2rcd13ifvqerg","pricing_plan_id":"cebpf4jnsgd1na2vs0mg"},{"bike_id":"6bb0db76-0aa7-4a13-ba92-3f924be251b8","system_id":"levelo_inurba_marseille","lat":43.28711,"lon":5.39993,"is_reserved":false,"is_disabled":false,"rental_uris":{"android":"levelo://app?vid=6bb0db76-0aa7-4a13-ba92-3f924be251b8","ios":"levelo://app?vid=6bb0db76-0aa7-4a13-ba92-3f924be251b8"},"vehicle_type_id":"4","last_reported":1726693666,"current_range_meters":36400,"station_id":"ce4bho92rcd13ifvqh3g","pricing_plan_id":"cebpf4jnsgd1na2vs0mg"},{"bike_id":"55256b03-7844-4d77-9601-6f7e880a9bdc","system_id":"levelo_inurba_marseille","lat":43.28378,"lon":5.38646,"is_reserved":false,"is_disabled":false,"rental_uris":{"android":"levelo://app?vid=55256b03-7844-4d77-9601-6f7e880a9bdc","ios":"levelo://app?vid=55256b03-7844-4d77-9601-6f7e880a9bdc"},"vehicle_type_id":"4","last_reported":1726693666,"current_range_meters":16800,"station_id":"ce4bh492rcd13ifvqdvg","pricing_plan_id":"cebpf4jnsgd1na2vs0mg"},{"bike_id":"141b9243-5ed1-4d1d-b2e8-24bec9ebe079","system_id":"levelo_inurba_marseille","lat":43.28977,"lon":5.37836,"is_reserved":false,"is_disabled":false,"rental_uris":{"android":"levelo://app?vid=141b9243-5ed1-4d1d-b2e8-24bec9ebe079","ios":"levelo://app?vid=141b9243-5ed1-4d1d-b2e8-24bec9ebe079"},"vehicle_type_id":"4","last_reported":1726693666,"current_range_meters":36800,"station_id":"ce4bh9p2rcd13ifvqed0","pricing_plan_id":"cebpf4jnsgd1na2vs0mg"},{"bike_id":"6e00666a-f02f-4580-a990-0531883c2cb7","system_id":"levelo_inurba_marseille","lat":43.29894,"lon":5.43663,"is_reserved":false,"is_disabled":false,"rental_uris":{"android":"levelo://app?vid=6e00666a-f02f-4580-a990-0531883c2cb7","ios":"levelo://app?vid=6e00666a-f02f-4580-a990-0531883c2cb7"},"vehicle_type_id":"4","last_reported":1726693666,"current_range_meters":38800,"station_id":"ce4bhpp2rcd13ifvqhfg","pricing_plan_id":"cebpf4jnsgd1na2vs0mg"},{"bike_id":"7d54046c-3cf1-4344-8137-17101feedbd5","system_id":"levelo_inurba_marseille","lat":43.32283,"lon":5.38273,"is_reserved":false,"is_disabled":false,"rental_uris":{"android":"levelo://app?vid=7d54046c-3cf1-4344-8137-17101feedbd5","ios":"levelo://app?vid=7d54046c-3cf1-4344-8137-17101feedbd5"},"vehicle_type_id":"4","last_reported":1726693666,"current_range_meters":39200,"station_id":"ce4bhr12rcd13ifvqhqg","pricing_plan_id":"cebpf4jnsgd1na2vs0mg"},{"bike_id":"c07f1be5-b219-45c6-b95d-9f5600b5bc5f","system_id":"levelo_inurba_marseille","lat":43.311716,"lon":5.387221,"is_reserved":false,"is_disabled":false,"rental_uris":{"android":"levelo://app?vid=c07f1be5-b219-45c6-b95d-9f5600b5bc5f","ios":"levelo://app?vid=c07f1be5-b219-45c6-b95d-9f5600b5bc5f"},"vehicle_type_id":"4","last_reported":1726693666,"current_range_meters":22000,"station_id":"ce4bgv12rcd13ifvqcp0","pricing_plan_id":"cebpf4jnsgd1na2vs0mg"},{"bike_id":"0179b53e-653a-4f47-8d7a-20178aca10b6","system_id":"levelo_inurba_marseille","lat":43.29191,"lon":5.3932,"is_reserved":false,"is_disabled":false,"rental_uris":{"android":"levelo://app?vid=0179b53e-653a-4f47-8d7a-20178aca10b6","ios":"levelo://app?vid=0179b53e-653a-4f47-8d7a-20178aca10b6"},"vehicle_type_id":"4","last_reported":1726693666,"current_range_meters":30000,"station_id":"ce4bh192rcd13ifvqdd0","pricing_plan_id":"cebpf4jnsgd1na2vs0mg"},{"bike_id":"fa2e946d-01fe-4bb4-a2b0-55af60a0bcec","system_id":"levelo_inurba_marseille","lat":43.33729,"lon":5.39186,"is_reserved":false,"is_disabled":false,"rental_uris":{"android":"levelo://app?vid=fa2e946d-01fe-4bb4-a2b0-55af60a0bcec","ios":"levelo://app?vid=fa2e946d-01fe-4bb4-a2b0-55af60a0bcec"},"vehicle_type_id":"4","last_reported":1726693666,"current_range_meters":38400,"station_id":"ce4bhr92rcd13ifvqhsg","pricing_plan_id":"cebpf4jnsgd1na2vs0mg"},{"bike_id":"2548d5cc-29ca-4e12-8900-1cc752c70e52","system_id":"levelo_inurba_marseille","lat":43.31759,"lon":5.39012,"is_reserved":false,"is_disabled":false,"rental_uris":{"android":"levelo://app?vid=2548d5cc-29ca-4e12-8900-1cc752c70e52","ios":"levelo://app?vid=2548d5cc-29ca-4e12-8900-1cc752c70e52"},"vehicle_type_id":"4","last_reported":1726693666,"current_range_meters":31200,"station_id":"ce4bhqp2rcd13ifvqhng","pricing_plan_id":"cebpf4jnsgd1na2vs0mg"},{"bike_id":"3884d8c9-8196-43c1-8e1b-85179e85dab7","system_id":"levelo_inurba_marseille","lat":43.25864,"lon":5.39899,"is_reserved":false,"is_disabled":false,"rental_uris":{"android":"levelo://app?vid=3884d8c9-8196-43c1-8e1b-85179e85dab7","ios":"levelo://app?vid=3884d8c9-8196-43c1-8e1b-85179e85dab7"},"vehicle_type_id":"4","last_reported":1726693666,"current_range_meters":29600,"station_id":"ce4bhl92rcd13ifvqghg","pricing_plan_id":"cebpf4jnsgd1na2vs0mg"},{"bike_id":"c33e380e-e482-4047-874e-f3c84705d066","system_id":"levelo_inurba_marseille","lat":43.28702,"lon":5.37384,"is_reserved":false,"is_disabled":false,"rental_uris":{"android":"levelo://app?vid=c33e380e-e482-4047-874e-f3c84705d066","ios":"levelo://app?vid=c33e380e-e482-4047-874e-f3c84705d066"},"vehicle_type_id":"4","last_reported":1726693666,"current_range_meters":38800,"station_id":"ce4bh3p2rcd13ifvqdq0","pricing_plan_id":"cebpf4jnsgd1na2vs0mg"},{"bike_id":"0dd50930-fcc4-4373-9ec1-9e1e8b5e9aac","system_id":"levelo_inurba_marseille","lat":43.2549,"lon":5.3765,"is_reserved":false,"is_disabled":false,"rental_uris":{"android":"levelo://app?vid=0dd50930-fcc4-4373-9ec1-9e1e8b5e9aac","ios":"levelo://app?vid=0dd50930-fcc4-4373-9ec1-9e1e8b5e9aac"},"vehicle_type_id":"4","last_reported":1726693666,"current_range_meters":38000,"station_id":"ce4bhh12rcd13ifvqff0","pricing_plan_id":"cebpf4jnsgd1na2vs0mg"},{"bike_id":"84f69bf4-8ebd-459a-871f-c6cfa3b820af","system_id":"levelo_inurba_marseille","lat":43.26941,"lon":5.40256,"is_reserved":false,"is_disabled":false,"rental_uris":{"android":"levelo://app?vid=84f69bf4-8ebd-459a-871f-c6cfa3b820af","ios":"levelo://app?vid=84f69bf4-8ebd-459a-871f-c6cfa3b820af"},"vehicle_type_id":"4","last_reported":1726693666,"current_range_meters":30400,"station_id":"cjm6bp8fraef2m0cb0m0","pricing_plan_id":"cebpf4jnsgd1na2vs0mg"},{"bike_id":"6649cb01-e002-43e5-9929-37eaf0d58301","system_id":"levelo_inurba_marseille","lat":43.31166,"lon":5.38717,"is_reserved":false,"is_disabled":false,"rental_uris":{"android":"levelo://app?vid=6649cb01-e002-43e5-9929-37eaf0d58301","ios":"levelo://app?vid=6649cb01-e002-43e5-9929-37eaf0d58301"},"vehicle_type_id":"4","last_reported":1726693666,"current_range_meters":28800,"station_id":"ce4bgv12rcd13ifvqcp0","pricing_plan_id":"cebpf4jnsgd1na2vs0mg"},{"bike_id":"f84c07cb-ff23-4dd7-9634-7c6d17498a94","system_id":"levelo_inurba_marseille","lat":43.2885,"lon":5.35848,"is_reserved":false,"is_disabled":false,"rental_uris":{"android":"levelo://app?vid=f84c07cb-ff23-4dd7-9634-7c6d17498a94","ios":"levelo://app?vid=f84c07cb-ff23-4dd7-9634-7c6d17498a94"},"vehicle_type_id":"4","last_reported":1726693666,"current_range_meters":4000,"station_id":"ce4bhb12rcd13ifvqem0","pricing_plan_id":"cebpf4jnsgd1na2vs0mg"},{"bike_id":"328d45f9-980e-4811-97c0-47d761861509","system_id":"levelo_inurba_marseille","lat":43.29847,"lon":5.37836,"is_reserved":false,"is_disabled":false,"rental_uris":{"android":"levelo://app?vid=328d45f9-980e-4811-97c0-47d761861509","ios":"levelo://app?vid=328d45f9-980e-4811-97c0-47d761861509"},"vehicle_type_id":"4","last_reported":1726693666,"current_range_meters":9200,"station_id":"ce4bgkh2rcd13ifvqbl0","pricing_plan_id":"cebpf4jnsgd1na2vs0mg"},{"bike_id":"842a4bdb-1262-4d4d-96a5-9778493f31d8","system_id":"levelo_inurba_marseille","lat":43.2847,"lon":5.35894,"is_reserved":false,"is_disabled":false,"rental_uris":{"android":"levelo://app?vid=842a4bdb-1262-4d4d-96a5-9778493f31d8","ios":"levelo://app?vid=842a4bdb-1262-4d4d-96a5-9778493f31d8"},"vehicle_type_id":"4","last_reported":1726693666,"current_range_meters":22800,"station_id":"ce4bhah2rcd13ifvqei0","pricing_plan_id":"cebpf4jnsgd1na2vs0mg"},{"bike_id":"7029954b-18cd-46b9-bf0c-e80eb06c3acc","system_id":"levelo_inurba_marseille","lat":43.28659,"lon":5.36357,"is_reserved":false,"is_disabled":false,"rental_uris":{"android":"levelo://app?vid=7029954b-18cd-46b9-bf0c-e80eb06c3acc","ios":"levelo://app?vid=7029954b-18cd-46b9-bf0c-e80eb06c3acc"},"vehicle_type_id":"4","last_reported":1726693666,"current_range_meters":9200,"station_id":"ce4bhah2rcd13ifvqej0","pricing_plan_id":"cebpf4jnsgd1na2vs0mg"},{"bike_id":"5621425a-c21e-4811-9342-002c998a1bde","system_id":"levelo_inurba_marseille","lat":43.28717,"lon":5.37947,"is_reserved":false,"is_disabled":false,"rental_uris":{"android":"levelo://app?vid=5621425a-c21e-4811-9342-002c998a1bde","ios":"levelo://app?vid=5621425a-c21e-4811-9342-002c998a1bde"},"vehicle_type_id":"4","last_reported":1726693666,"current_range_meters":38000,"station_id":"ce4bh9p2rcd13ifvqec0","pricing_plan_id":"cebpf4jnsgd1na2vs0mg"},{"bike_id":"addd2b8e-c0bb-41d5-88db-d1a254467027","system_id":"levelo_inurba_marseille","lat":43.30653,"lon":5.40075,"is_reserved":false,"is_disabled":false,"rental_uris":{"android":"levelo://app?vid=addd2b8e-c0bb-41d5-88db-d1a254467027","ios":"levelo://app?vid=addd2b8e-c0bb-41d5-88db-d1a254467027"},"vehicle_type_id":"4","last_reported":1726693666,"current_range_meters":38800,"station_id":"ce4bh112rcd13ifvqda0","pricing_plan_id":"cebpf4jnsgd1na2vs0mg"},{"bike_id":"70d6316d-15d8-443b-9f41-9417530b2115","system_id":"levelo_inurba_marseille","lat":43.2799,"lon":5.41655,"is_reserved":false,"is_disabled":false,"rental_uris":{"android":"levelo://app?vid=70d6316d-15d8-443b-9f41-9417530b2115","ios":"levelo://app?vid=70d6316d-15d8-443b-9f41-9417530b2115"},"vehicle_type_id":"4","last_reported":1726693666,"current_range_meters":3200,"station_id":"ce4bho12rcd13ifvqh1g","pricing_plan_id":"cebpf4jnsgd1na2vs0mg"},{"bike_id":"d2072c85-e5af-46db-a487-0b7c12e02cec","system_id":"levelo_inurba_marseille","lat":43.26199,"lon":5.37931,"is_reserved":false,"is_disabled":false,"rental_uris":{"android":"levelo://app?vid=d2072c85-e5af-46db-a487-0b7c12e02cec","ios":"levelo://app?vid=d2072c85-e5af-46db-a487-0b7c12e02cec"},"vehicle_type_id":"4","last_reported":1726693666,"current_range_meters":38800,"station_id":"ce4bhjp2rcd13ifvqg90","pricing_plan_id":"cebpf4jnsgd1na2vs0mg"},{"bike_id":"fa690805-233a-4a70-a9f3-33f1b67cdb1f","system_id":"levelo_inurba_marseille","lat":43.32287,"lon":5.38261,"is_reserved":false,"is_disabled":false,"rental_uris":{"android":"levelo://app?vid=fa690805-233a-4a70-a9f3-33f1b67cdb1f","ios":"levelo://app?vid=fa690805-233a-4a70-a9f3-33f1b67cdb1f"},"vehicle_type_id":"4","last_reported":1726693666,"current_range_meters":26800,"station_id":"ce4bhr12rcd13ifvqhqg","pricing_plan_id":"cebpf4jnsgd1na2vs0mg"},{"bike_id":"cbe1f610-9ee1-4b04-a8cd-7f6ae05b413e","system_id":"levelo_inurba_marseille","lat":43.29262,"lon":5.38442,"is_reserved":false,"is_disabled":false,"rental_uris":{"android":"levelo://app?vid=cbe1f610-9ee1-4b04-a8cd-7f6ae05b413e","ios":"levelo://app?vid=cbe1f610-9ee1-4b04-a8cd-7f6ae05b413e"},"vehicle_type_id":"4","last_reported":1726693666,"current_range_meters":38800,"station_id":"ce4bh692rcd13ifvqea0","pricing_plan_id":"cebpf4jnsgd1na2vs0mg"},{"bike_id":"8b608b96-fedf-4511-8d4b-09bad2606e1a","system_id":"levelo_inurba_marseille","lat":43.27725,"lon":5.41134,"is_reserved":false,"is_disabled":false,"rental_uris":{"android":"levelo://app?vid=8b608b96-fedf-4511-8d4b-09bad2606e1a","ios":"levelo://app?vid=8b608b96-fedf-4511-8d4b-09bad2606e1a"},"vehicle_type_id":"4","last_reported":1726693666,"current_range_meters":2800,"station_id":"","pricing_plan_id":"cebpf4jnsgd1na2vs0mg"},{"bike_id":"488fd8b1-2ba6-41ed-8221-4f217f0d787e","system_id":"levelo_inurba_marseille","lat":43.29419,"lon":5.38625,"is_reserved":false,"is_disabled":false,"rental_uris":{"android":"levelo://app?vid=488fd8b1-2ba6-41ed-8221-4f217f0d787e","ios":"levelo://app?vid=488fd8b1-2ba6-41ed-8221-4f217f0d787e"},"vehicle_type_id":"4","last_reported":1726693666,"current_range_meters":30800,"station_id":"ce4bh2h2rcd13ifvqdh0","pricing_plan_id":"cebpf4jnsgd1na2vs0mg"},{"bike_id":"00dc42fc-a4c1-486a-b984-048fb107356f","system_id":"levelo_inurba_marseille","lat":43.30649,"lon":5.40088,"is_reserved":false,"is_disabled":false,"rental_uris":{"android":"levelo://app?vid=00dc42fc-a4c1-486a-b984-048fb107356f","ios":"levelo://app?vid=00dc42fc-a4c1-486a-b984-048fb107356f"},"vehicle_type_id":"4","last_reported":1726693666,"current_range_meters":14000,"station_id":"ce4bh112rcd13ifvqda0","pricing_plan_id":"cebpf4jnsgd1na2vs0mg"},{"bike_id":"6254be89-e8f8-451a-b9b6-761ce5ad66e3","system_id":"levelo_inurba_marseille","lat":43.23961,"lon":5.36628,"is_reserved":false,"is_disabled":false,"rental_uris":{"android":"levelo://app?vid=6254be89-e8f8-451a-b9b6-761ce5ad66e3","ios":"levelo://app?vid=6254be89-e8f8-451a-b9b6-761ce5ad66e3"},"vehicle_type_id":"4","last_reported":1726693666,"current_range_meters":36800,"station_id":"ce4bhi12rcd13ifvqfp0","pricing_plan_id":"cebpf4jnsgd1na2vs0mg"},{"bike_id":"400f66ab-adf6-45ca-8d59-aa838db7bdf4","system_id":"levelo_inurba_marseille","lat":43.29881,"lon":5.38906,"is_reserved":false,"is_disabled":false,"rental_uris":{"android":"levelo://app?vid=400f66ab-adf6-45ca-8d59-aa838db7bdf4","ios":"levelo://app?vid=400f66ab-adf6-45ca-8d59-aa838db7bdf4"},"vehicle_type_id":"4","last_reported":1726693666,"current_range_meters":25600,"station_id":"ce4bh392rcd13ifvqdl0","pricing_plan_id":"cebpf4jnsgd1na2vs0mg"},{"bike_id":"5a5670bf-02f2-409e-91a1-66a418fef6b7","system_id":"levelo_inurba_marseille","lat":43.27898,"lon":5.38009,"is_reserved":false,"is_disabled":false,"rental_uris":{"android":"levelo://app?vid=5a5670bf-02f2-409e-91a1-66a418fef6b7","ios":"levelo://app?vid=5a5670bf-02f2-409e-91a1-66a418fef6b7"},"vehicle_type_id":"4","last_reported":1726693666,"current_range_meters":27600,"station_id":"ce4bhf92rcd13ifvqf50","pricing_plan_id":"cebpf4jnsgd1na2vs0mg"},{"bike_id":"b2763354-ec6c-4733-8de6-6c4493759ae9","system_id":"levelo_inurba_marseille","lat":43.29102,"lon":5.40163,"is_reserved":false,"is_disabled":false,"rental_uris":{"android":"levelo://app?vid=b2763354-ec6c-4733-8de6-6c4493759ae9","ios":"levelo://app?vid=b2763354-ec6c-4733-8de6-6c4493759ae9"},"vehicle_type_id":"4","last_reported":1726693666,"current_range_meters":29600,"station_id":"","pricing_plan_id":"cebpf4jnsgd1na2vs0mg"},{"bike_id":"393aba91-d33e-4182-9a1e-a7e4512eddbe","system_id":"levelo_inurba_marseille","lat":43.32364,"lon":5.38884,"is_reserved":false,"is_disabled":false,"rental_uris":{"android":"levelo://app?vid=393aba91-d33e-4182-9a1e-a7e4512eddbe","ios":"levelo://app?vid=393aba91-d33e-4182-9a1e-a7e4512eddbe"},"vehicle_type_id":"4","last_reported":1726693666,"current_range_meters":38800,"station_id":"ce4bhqp2rcd13ifvqhog","pricing_plan_id":"cebpf4jnsgd1na2vs0mg"},{"bike_id":"e95562f2-ea41-48ff-b212-746c44bde19d","system_id":"levelo_inurba_marseille","lat":43.29269,"lon":5.38442,"is_reserved":false,"is_disabled":false,"rental_uris":{"android":"levelo://app?vid=e95562f2-ea41-48ff-b212-746c44bde19d","ios":"levelo://app?vid=e95562f2-ea41-48ff-b212-746c44bde19d"},"vehicle_type_id":"4","last_reported":1726693666,"current_range_meters":38800,"station_id":"ce4bh692rcd13ifvqea0","pricing_plan_id":"cebpf4jnsgd1na2vs0mg"},{"bike_id":"a2e4bcbf-e3f1-4b09-9ec2-6bd2b8536fc7","system_id":"levelo_inurba_marseille","lat":43.29879,"lon":5.38907,"is_reserved":false,"is_disabled":false,"rental_uris":{"android":"levelo://app?vid=a2e4bcbf-e3f1-4b09-9ec2-6bd2b8536fc7","ios":"levelo://app?vid=a2e4bcbf-e3f1-4b09-9ec2-6bd2b8536fc7"},"vehicle_type_id":"4","last_reported":1726693666,"current_range_meters":38800,"station_id":"ce4bh392rcd13ifvqdl0","pricing_plan_id":"cebpf4jnsgd1na2vs0mg"},{"bike_id":"0233f0af-35d2-47b6-b2fc-15e59b18717b","system_id":"levelo_inurba_marseille","lat":43.23058,"lon":5.3549,"is_reserved":false,"is_disabled":false,"rental_uris":{"android":"levelo://app?vid=0233f0af-35d2-47b6-b2fc-15e59b18717b","ios":"levelo://app?vid=0233f0af-35d2-47b6-b2fc-15e59b18717b"},"vehicle_type_id":"4","last_reported":1726693666,"current_range_meters":20400,"station_id":"cpo3342slgdg3j2ifvpg","pricing_plan_id":"cebpf4jnsgd1na2vs0mg"},