{"last_updated":1762787541,"ttl":60,"version":"2.2","data":{"bikes":[{"bike_id":"a22621ed-dce3-441e-82fa-0978db9d5cc0","system_id":"levelo_inurba_marseille","lat":43.337444,"lon":5.374475,"is_reserved":false,"is_disabled":false,"rental_uris":{"android":"levelo://app?vid=a22621ed-dce3-441e-82fa-0978db9d5cc0","ios":"levelo://app?vid=a22621ed-dce3-441e-82fa-0978db9d5cc0"},"vehicle_type_id":"4","last_reported":1762787541,"current_range_meters":0,"station_id":"","pricing_plan_id":"cebpf4jnsgd1na2vs0mg"},{"bike_id":"5ac676b9-ce14-4abf-9995-004720982b02","system_id":"levelo_inurba_marseille","lat":43.27997,"lon":5.40009,"is_reserved":false,"is_disabled":false,"rental_uris":{"android":"levelo://app?vid=5ac676b9-ce14-4abf-9995-004720982b02","ios":"levelo://app?vid=5ac676b9-ce14-4abf-9995-004720982b02"},"vehicle_type_id":"4","last_reported":1762787541,"current_range_meters":2800,"station_id":"ce4bho92rcd13ifvqh4g","pricing_plan_id":"cebpf4jnsgd1na2vs0mg"},{"bike_id":"76de1102-6014-4051-a729-85599ef445e2","system_id":"levelo_inurba_marseille","lat":43.30935,"lon":5.40145,"is_reserved":false,"is_disabled":false,"rental_uris":{"android":"levelo://app?vid=76de1102-6014-4051-a729-85599ef445e2","ios":"levelo://app?vid=76de1102-6014-4051-a729-85599ef445e2"},"vehicle_type_id":"4","last_reported":1762787541,"current_range_meters":2800,"station_id":"ce4bgvp2rcd13ifvqct0","pricing_plan_id":"cebpf4jnsgd1na2vs0mg"},{"bike_id":"6e5385ec-b386-4310-9c74-294f09fda7d7","system_id":"levelo_inurba_marseille","lat":43.263488,"lon":5.373994,"is_reserved":false,"is_disabled":false,"rental_uris":{"android":"levelo://app?vid=6e5385ec-b386-4310-9c74-294f09fda7d7","ios":"levelo://app?vid=6e5385ec-b386-4310-9c74-294f09fda7d7"},"vehicle_type_id":"4","last_reported":1762787541,"current_range_meters":3200,"station_id":"ce4bh9p2rcd13ifvqec0","pricing_plan_id":"cebpf4jnsgd1na2vs0mg"},{"bike_id":"aff3be35-767c-4373-ba61-09b7565625a3","system_id":"levelo_inurba_marseille","lat":43.29174,"lon":5.37149,"is_reserved":false,"is_disabled":false,"rental_uris":{"android":"levelo://app?vid=aff3be35-767c-4373-ba61-09b7565625a3","ios":"levelo://app?vid=aff3be35-767c-4373-ba61-09b7565625a3"},"vehicle_type_id":"4","last_reported":1762787541,"current_range_meters":3200,"station_id":"ce4bha92rcd13ifvqeh0","pricing_plan_id":"cebpf4jnsgd1na2vs0mg"},{"bike_id":"5ed2aa9f-b070-46ba-8bdc-ca0b86079902","system_id":"levelo_inurba_marseille","lat":43.31228,"lon":5.36876,"is_reserved":false,"is_disabled":false,"rental_uris":{"android":"levelo://app?vid=5ed2aa9f-b070-46ba-8bdc-ca0b86079902","ios":"levelo://app?vid=5ed2aa9f-b070-46ba-8bdc-ca0b86079902"},"vehicle_type_id":"4","last_reported":1762787541,"current_range_meters":3200,"station_id":"ce4bgl92rcd13ifvqbq0","pricing_plan_id":"cebpf4jnsgd1na2vs0mg"},{"bike_id":"1ad49e24-d298-4165-99a3-bbb9cd900c16","system_id":"levelo_inurba_marseille","lat":43.29276,"lon":5.36857,"is_reserved":false,"is_disabled":false,"rental_uris":{"android":"levelo://app?vid=1ad49e24-d298-4165-99a3-bbb9cd900c16","ios":"levelo://app?vid=1ad49e24-d298-4165-99a3-bbb9cd900c16"},"vehicle_type_id":"4","last_reported":1762787541,"current_range_meters":3200,"station_id":"ce4bhbp2rcd13ifvqesg","pricing_plan_id":"cebpf4jnsgd1na2vs0mg"},{"bike_id":"7bffe4c3-d3a8-46c3-93ba-d1ff3c4b8d1a","system_id":"levelo_inurba_marseille","lat":43.257982,"lon":5.394411,"is_reserved":false,"is_disabled":false,"rental_uris":{"android":"levelo://app?vid=7bffe4c3-d3a8-46c3-93ba-d1ff3c4b8d1a","ios":"levelo://app?vid=7bffe4c3-d3a8-46c3-93ba-d1ff3c4b8d1a"},"vehicle_type_id":"4","last_reported":1762787541,"current_range_meters":3200,"station_id":"ce4bhip2rcd13ifvqft0","pricing_plan_id":"cebpf4jnsgd1na2vs0mg"},{"bike_id":"ca3eea8e-aff2-4ac3-b30b-23f86ad61a10","system_id":"levelo_inurba_marseille","lat":43.31329,"lon":5.39686,"is_reserved":false,"is_disabled":false,"rental_uris":{"android":"levelo://app?vid=ca3eea8e-aff2-4ac3-b30b-23f86ad61a10","ios":"levelo://app?vid=ca3eea8e-aff2-4ac3-b30b-23f86ad61a10"},"vehicle_type_id":"4","last_reported":1762787541,"current_range_meters":3200,"station_id":"ce4bgvp2rcd13ifvqcu0","pricing_plan_id":"cebpf4jnsgd1na2vs0mg"},{"bike_id":"b40586bc-bef5-422a-a9e8-9c2c6ce78815","system_id":"levelo_inurba_marseille","lat":43.229339,"lon":5.353777,"is_reserved":false,"is_disabled":false,"rental_uris":{"android":"levelo://app?vid=b40586bc-bef5-422a-a9e8-9c2c6ce78815","ios":"levelo://app?vid=b40586bc-bef5-422a-a9e8-9c2c6ce78815"},"vehicle_type_id":"4","last_reported":1762787541,"current_range_meters":3200,"station_id":"cpo3532slgdg3j2ikp40","pricing_plan_id":"cebpf4jnsgd1na2vs0mg"},{"bike_id":"06ec651d-dc46-4428-9ed2-fdfb7105db96","system_id":"levelo_inurba_marseille","lat":43.26789,"lon":5.39404,"is_reserved":false,"is_disabled":false,"rental_uris":{"android":"levelo://app?vid=06ec651d-dc46-4428-9ed2-fdfb7105db96","ios":"levelo://app?vid=06ec651d-dc46-4428-9ed2-fdfb7105db96"},"vehicle_type_id":"4","last_reported":1762787541,"current_range_meters":3600,"station_id":"ce4bhh12rcd13ifvqfg0","pricing_plan_id":"cebpf4jnsgd1na2vs0mg"},{"bike_id":"38b05721-d958-482d-8421-49e8e10d5a84","system_id":"levelo_inurba_marseille","lat":43.29798,"lon":5.381,"is_reserved":false,"is_disabled":false,"rental_uris":{"android":"levelo://app?vid=38b05721-d958-482d-8421-49e8e10d5a84","ios":"levelo://app?vid=38b05721-d958-482d-8421-49e8e10d5a84"},"vehicle_type_id":"4","last_reported":1762787541,"current_range_meters":3600,"station_id":"ce4bgip2rcd13ifvqbb0","pricing_plan_id":"cebpf4jnsgd1na2vs0mg"},{"bike_id":"afd64db3-5d95-44f4-b2b8-156ffd278893","system_id":"levelo_inurba_marseille","lat":43.30292,"lon":5.39214,"is_reserved":false,"is_disabled":false,"rental_uris":{"android":"levelo://app?vid=afd64db3-5d95-44f4-b2b8-156ffd278893","ios":"levelo://app?vid=afd64db3-5d95-44f4-b2b8-156ffd278893"},"vehicle_type_id":"4","last_reported":1762787541,"current_range_meters":3600,"station_id":"ce4bgkh2rcd13ifvqbk0","pricing_plan_id":"cebpf4jnsgd1na2vs0mg"},{"bike_id":"f8092701-5626-4027-90bc-32246f0cbd4c","system_id":"levelo_inurba_marseille","lat":43.29583,"lon":5.36731,"is_reserved":false,"is_disabled":false,"rental_uris":{"android":"levelo://app?vid=f8092701-5626-4027-90bc-32246f0cbd4c","ios":"levelo://app?vid=f8092701-5626-4027-90bc-32246f0cbd4c"},"vehicle_type_id":"4","last_reported":1762787541,"current_range_meters":3600,"station_id":"ce4bgph2rcd13ifvqc2g","pricing_plan_id":"cebpf4jnsgd1na2vs0mg"},{"bike_id":"d58162db-574a-44f0-b573-b59c9312a09d","system_id":"levelo_inurba_marseille","lat":43.28273,"lon":5.3507,"is_reserved":false,"is_disabled":true,"rental_uris":{"android":"levelo://app?vid=d58162db-574a-44f0-b573-b59c9312a09d","ios":"levelo://app?vid=d58162db-574a-44f0-b573-b59c9312a09d"},"vehicle_type_id":"4","last_reported":1762787541,"current_range_meters":3600,"station_id":"ce4bhbp2rcd13ifvqerg","pricing_plan_id":"cebpf4jnsgd1na2vs0mg"},{"bike_id":"07fe0d70-9a14-460d-8fc0-387fc63ce6f9","system_id":"levelo_inurba_marseille","lat":43.307935,"lon":5.376443,"is_reserved":false,"is_disabled":false,"rental_uris":{"android":"levelo://app?vid=07fe0d70-9a14-460d-8fc0-387fc63ce6f9","ios":"levelo://app?vid=07fe0d70-9a14-460d-8fc0-387fc63ce6f9"},"vehicle_type_id":"4","last_reported":1762787541,"current_range_meters":3600,"station_id":"ce4bgv92rcd13ifvqcq0","pricing_plan_id":"cebpf4jnsgd1na2vs0mg"},{"bike_id":"08cfbc35-e173-4922-9365-0c0dd843274c","system_id":"levelo_inurba_marseille","lat":43.28674,"lon":5.38657,"is_reserved":false,"is_disabled":false,"rental_uris":{"android":"levelo://app?vid=08cfbc35-e173-4922-9365-0c0dd843274c","ios":"levelo://app?vid=08cfbc35-e173-4922-9365-0c0dd843274c"},"vehicle_type_id":"4","last_reported":1762787541,"current_range_meters":3600,"station_id":"ce4bh492rcd13ifvqdug","pricing_plan_id":"cebpf4jnsgd1na2vs0mg"},{"bike_id":"870a9ad1-db35-4ab0-bc9a-84476efc6571","system_id":"levelo_inurba_marseille","lat":43.328,"lon":5.42652,"is_reserved":false,"is_disabled":false,"rental_uris":{"android":"levelo://app?vid=870a9ad1-db35-4ab0-bc9a-84476efc6571","ios":"levelo://app?vid=870a9ad1-db35-4ab0-bc9a-84476efc6571"},"vehicle_type_id":"4","last_reported":1762787541,"current_range_meters":3600,"station_id":"","pricing_plan_id":"cebpf4jnsgd1na2vs0mg"},{"bike_id":"a1f9acd4-4678-445a-b21a-692921eaeb80","system_id":"levelo_inurba_marseille","lat":43.29933,"lon":5.36517,"is_reserved":false,"is_disabled":false,"rental_uris":{"android":"levelo://app?vid=a1f9acd4-4678-445a-b21a-692921eaeb80","ios":"levelo://app?vid=a1f9acd4-4678-445a-b21a-692921eaeb80"},"vehicle_type_id":"4","last_reported":1762787541,"current_range_meters":4000,"station_id":"ce4bgm92rcd13ifvqbr0","pricing_plan_id":"cebpf4jnsgd1na2vs0mg"},{"bike_id":"27b21cdd-62e5-481a-8973-d8ba474336f6","system_id":"levelo_inurba_marseille","lat":43.250797,"lon":5.395133,"is_reserved":false,"is_disabled":false,"rental_uris":{"android":"levelo://app?vid=27b21cdd-62e5-481a-8973-d8ba474336f6","ios":"levelo://app?vid=27b21cdd-62e5-481a-8973-d8ba474336f6"},"vehicle_type_id":"4","last_reported":1762787541,"current_range_meters":4000,"station_id":"ce4bhm12rcd13ifvqgkg","pricing_plan_id":"cebpf4jnsgd1na2vs0mg"},{"bike_id":"d88d2908-3d06-46f7-a30b-9000781feec4","system_id":"levelo_inurba_marseille","lat":43.272129,"lon":5.391826,"is_reserved":false,"is_disabled":false,"rental_uris":{"android":"levelo://app?vid=d88d2908-3d06-46f7-a30b-9000781feec4","ios":"levelo://app?vid=d88d2908-3d06-46f7-a30b-9000781feec4"},"vehicle_type_id":"4","last_reported":1762787541,"current_range_meters":4000,"station_id":"ce4bhhp2rcd13ifvqfm0","pricing_plan_id":"cebpf4jnsgd1na2vs0mg"},{"bike_id":"0145a2bc-dafd-4e8f-9735-528c93d78ca3","system_id":"levelo_inurba_marseille","lat":43.29924,"lon":5.37464,"is_reserved":false,"is_disabled":false,"rental_uris":{"android":"levelo://app?vid=0145a2bc-dafd-4e8f-9735-528c93d78ca3","ios":"levelo://app?vid=0145a2bc-dafd-4e8f-9735-528c93d78ca3"},"vehicle_type_id":"4","last_reported":1762787541,"current_range_meters":4000,"station_id":"ce4bgjh2rcd13ifvqbg0","pricing_plan_id":"cebpf4jnsgd1na2vs0mg"},{"bike_id":"8040d437-b793-4c7c-83dd-8a60b4a68d3a","system_id":"levelo_inurba_marseille","lat":43.25909,"lon":5.40858,"is_reserved":false,"is_disabled":true,"rental_uris":{"android":"levelo://app?vid=8040d437-b793-4c7c-83dd-8a60b4a68d3a","ios":"levelo://app?vid=8040d437-b793-4c7c-83dd-8a60b4a68d3a"},"vehicle_type_id":"4","last_reported":1762787541,"current_range_meters":4000,"station_id":"ce4bhm92rcd13ifvqglg","pricing_plan_id":"cebpf4jnsgd1na2vs0mg"},{"bike_id":"73801c06-371f-4400-86b7-070664593219","system_id":"levelo_inurba_marseille","lat":43.29538,"lon":5.38541,"is_reserved":false,"is_disabled":false,"rental_uris":{"android":"levelo://app?vid=73801c06-371f-4400-86b7-070664593219","ios":"levelo://app?vid=73801c06-371f-4400-86b7-070664593219"},"vehicle_type_id":"4","last_reported":1762787541,"current_range_meters":4400,"station_id":"ce4bgih2rcd13ifvqba0","pricing_plan_id":"cebpf4jnsgd1na2vs0mg"},{"bike_id":"689e1a65-980a-44be-abee-e7008aac853c","system_id":"levelo_inurba_marseille","lat":43.3064,"lon":5.401,"is_reserved":false,"is_disabled":false,"rental_uris":{"android":"levelo://app?vid=689e1a65-980a-44be-abee-e7008aac853c","ios":"levelo://app?vid=689e1a65-980a-44be-abee-e7008aac853c"},"vehicle_type_id":"4","last_reported":1762787541,"current_range_meters":4400,"station_id":"ce4bh112rcd13ifvqda0","pricing_plan_id":"cebpf4jnsgd1na2vs0mg"},{"bike_id":"b05048b6-3636-4628-97b9-678771374061","system_id":"levelo_inurba_marseille","lat":43.30239,"lon":5.36906,"is_reserved":false,"is_disabled":false,"rental_uris":{"android":"levelo://app?vid=b05048b6-3636-4628-97b9-678771374061","ios":"levelo://app?vid=b05048b6-3636-4628-97b9-678771374061"},"vehicle_type_id":"4","last_reported":1762787541,"current_range_meters":4400,"station_id":"","pricing_plan_id":"cebpf4jnsgd1na2vs0mg"},{"bike_id":"ac760b18-8951-4840-a355-747dadb3c485","system_id":"levelo_inurba_marseille","lat":43.29366,"lon":5.3787,"is_reserved":false,"is_disabled":false,"rental_uris":{"android":"levelo://app?vid=ac760b18-8951-4840-a355-747dadb3c485","ios":"levelo://app?vid=ac760b18-8951-4840-a355-747dadb3c485"},"vehicle_type_id":"4","last_reported":1762787541,"current_range_meters":4400,"station_id":"ce4bgjh2rcd13ifvqbf0","pricing_plan_id":"cebpf4jnsgd1na2vs0mg"},{"bike_id":"402840c5-efaa-449d-82e9-c9d0d203896a","system_id":"levelo_inurba_marseille","lat":43.29199,"lon":5.35789,"is_reserved":false,"is_disabled":false,"rental_uris":{"android":"levelo://app?vid=402840c5-efaa-449d-82e9-c9d0d203896a","ios":"levelo://app?vid=402840c5-efaa-449d-82e9-c9d0d203896a"},"vehicle_type_id":"4","last_reported":1762787541,"current_range_meters":4400,"station_id":"ce4bhb12rcd13ifvqel0","pricing_plan_id":"cebpf4jnsgd1na2vs0mg"},{"bike_id":"a0faaa3b-0733-4758-9360-d16fd1bd13ad","system_id":"levelo_inurba_marseille","lat":43.23206,"lon":5.35599,"is_reserved":false,"is_disabled":false,"rental_uris":{"android":"levelo://app?vid=a0faaa3b-0733-4758-9360-d16fd1bd13ad","ios":"levelo://app?vid=a0faaa3b-0733-4758-9360-d16fd1bd13ad"},"vehicle_type_id":"4","last_reported":1762787541,"current_range_meters":4400,"station_id":"ce4bhu92rcd13ifvqi70","pricing_plan_id":"cebpf4jnsgd1na2vs0mg"},{"bike_id":"6a5cb119-1a64-415c-a949-ec0bb54d8799","system_id":"levelo_inurba_marseille","lat":43.33174,"lon":5.37675,"is_reserved":false,"is_disabled":false,"rental_uris":{"android":"levelo://app?vid=6a5cb119-1a64-415c-a949-ec0bb54d8799","ios":"levelo://app?vid=6a5cb119-1a64-415c-a949-ec0bb54d8799"},"vehicle_type_id":"4","last_reported":1762787541,"current_range_meters":4800,"station_id":"st_d46cu089ee8s73dldbu0","pricing_plan_id":"cebpf4jnsgd1na2vs0mg"},{"bike_id":"832d31d6-41bd-444c-8852-e0226c70a52c","system_id":"levelo_inurba_marseille","lat":43.30459,"lon":5.379054,"is_reserved":false,"is_disabled":false,"rental_uris":{"android":"levelo://app?vid=832d31d6-41bd-444c-8852-e0226c70a52c","ios":"levelo://app?vid=832d31d6-41bd-444c-8852-e0226c70a52c"},"vehicle_type_id":"4","last_reported":1762787541,"current_range_meters":4800,"station_id":"ce4bhbh2rcd13ifvqeqg","pricing_plan_id":"cebpf4jnsgd1na2vs0mg"},{"bike_id":"0dcc6b97-1f7b-4b74-a55c-9029bdbbcf38","system_id":"levelo_inurba_marseille","lat":43.21736,"lon":5.3462,"is_reserved":false,"is_disabled":false,"rental_uris":{"android":"levelo://app?vid=0dcc6b97-1f7b-4b74-a55c-9029bdbbcf38","ios":"levelo://app?vid=0dcc6b97-1f7b-4b74-a55c-9029bdbbcf38"},"vehicle_type_id":"4","last_reported":1762787541,"current_range_meters":4800,"station_id":"st_cvj6r9ubvosntc0bgbag","pricing_plan_id":"cebpf4jnsgd1na2vs0mg"},{"bike_id":"2adac841-d61c-4cd9-ab7b-5090caeef803","system_id":"levelo_inurba_marseille","lat":43.24037,"lon":5.37796,"is_reserved":false,"is_disabled":false,"rental_uris":{"android":"levelo://app?vid=2adac841-d61c-4cd9-ab7b-5090caeef803","ios":"levelo://app?vid=2adac841-d61c-4cd9-ab7b-5090caeef803"},"vehicle_type_id":"4","last_reported":1762787541,"current_range_meters":4800,"station_id":"ce4bhnp2rcd13ifvqgvg","pricing_plan_id":"cebpf4jnsgd1na2vs0mg"},{"bike_id":"589f0afc-0a77-4f5f-93a0-f53e39c7c164","system_id":"levelo_inurba_marseille","lat":43.2808,"lon":5.347735,"is_reserved":false,"is_disabled":false,"rental_uris":{"android":"levelo://app?vid=589f0afc-0a77-4f5f-93a0-f53e39c7c164","ios":"levelo://app?vid=589f0afc-0a77-4f5f-93a0-f53e39c7c164"},"vehicle_type_id":"4","last_reported":1762787541,"current_range_meters":4800,"station_id":"","pricing_plan_id":"cebpf4jnsgd1na2vs0mg"},{"bike_id":"c12e85dd-f2c3-408e-a6a0-c998abfa9879","system_id":"levelo_inurba_marseille","lat":43.29849,"lon":5.36277,"is_reserved":false,"is_disabled":false,"rental_uris":{"android":"levelo://app?vid=c12e85dd-f2c3-408e-a6a0-c998abfa9879","ios":"levelo://app?vid=c12e85dd-f2c3-408e-a6a0-c998abfa9879"},"vehicle_type_id":"4","last_reported":1762787541,"current_range_meters":4800,"station_id":"ce4bgpp2rcd13ifvqc3g","pricing_plan_id":"cebpf4jnsgd1na2vs0mg"},{"bike_id":"3b22e323-0741-4918-bbea-e853a3a80136","system_id":"levelo_inurba_marseille","lat":43.29631,"lon":5.40592,"is_reserved":false,"is_disabled":false,"rental_uris":{"android":"levelo://app?vid=3b22e323-0741-4918-bbea-e853a3a80136","ios":"levelo://app?vid=3b22e323-0741-4918-bbea-e853a3a80136"},"vehicle_type_id":"4","last_reported":1762787541,"current_range_meters":4800,"station_id":"ce4bh0h2rcd13ifvqd60","pricing_plan_id":"cebpf4jnsgd1na2vs0mg"},{"bike_id":"0e7a62e3-5703-48ac-b830-c9be48c5c7a7","system_id":"levelo_inurba_marseille","lat":43.293677,"lon":5.378204,"is_reserved":false,"is_disabled":false,"rental_uris":{"android":"levelo://app?vid=0e7a62e3-5703-48ac-b830-c9be48c5c7a7","ios":"levelo://app?vid=0e7a62e3-5703-48ac-b830-c9be48c5c7a7"},"vehicle_type_id":"4","last_reported":1762787541,"current_range_meters":5600,"station_id":"ce4bgjh2rcd13ifvqbf0","pricing_plan_id":"cebpf4jnsgd1na2vs0mg"},{"bike_id":"5e6f9bbd-6d86-4d29-86dc-d7cf0e1bfffa","system_id":"levelo_inurba_marseille","lat":43.23186,"lon":5.35572,"is_reserved":false,"is_disabled":false,"rental_uris":{"android":"levelo://app?vid=5e6f9bbd-6d86-4d29-86dc-d7cf0e1bfffa","ios":"levelo://app?vid=5e6f9bbd-6d86-4d29-86dc-d7cf0e1bfffa"},"vehicle_type_id":"4","last_reported":1762787541,"current_range_meters":5600,"station_id":"ce4bhu92rcd13ifvqi70","pricing_plan_id":"cebpf4jnsgd1na2vs0mg"},{"bike_id":"1fbcd7c3-3436-4808-800d-ac4df92fd0a4","system_id":"levelo_inurba_marseille","lat":43.2174,"lon":5.34608,"is_reserved":false,"is_disabled":false,"rental_uris":{"android":"levelo://app?vid=1fbcd7c3-3436-4808-800d-ac4df92fd0a4","ios":"levelo://app?vid=1fbcd7c3-3436-4808-800d-ac4df92fd0a4"},"vehicle_type_id":"4","last_reported":1762787541,"current_range_meters":5600,"station_id":"st_cvj6r9ubvosntc0bgbag","pricing_plan_id":"cebpf4jnsgd1na2vs0mg"},{"bike_id":"6bd3b059-84fc-4da1-8cec-b19b2776c7b8","system_id":"levelo_inurba_marseille","lat":43.30137,"lon":5.39857,"is_reserved":false,"is_disabled":false,"rental_uris":{"android":"levelo://app?vid=6bd3b059-84fc-4da1-8cec-b19b2776c7b8","ios":"levelo://app?vid=6bd3b059-84fc-4da1-8cec-b19b2776c7b8"},"vehicle_type_id":"4","last_reported":1762787541,"current_range_meters":5600,"station_id":"ce4bh0h2rcd13ifvqd40","pricing_plan_id":"cebpf4jnsgd1na2vs0mg"},{"bike_id":"1507bbd3-67cf-4e5d-8e70-e5810b1d12fe","system_id":"levelo_inurba_marseille","lat":43.28729,"lon":5.37936,"is_reserved":false,"is_disabled":false,"rental_uris":{"android":"levelo://app?vid=1507bbd3-67cf-4e5d-8e70-e5810b1d12fe","ios":"levelo://app?vid=1507bbd3-67cf-4e5d-8e70-e5810b1d12fe"},"vehicle_type_id":"4","last_reported":1762787541,"current_range_meters":5600,"station_id":"ce4bh9p2rcd13ifvqec0","pricing_plan_id":"cebpf4jnsgd1na2vs0mg"},{"bike_id":"fbb50c96-4826-4eec-9430-25ff82d7a10c","system_id":"levelo_inurba_marseille","lat":43.29845,"lon":5.36263,"is_reserved":false,"is_disabled":false,"rental_uris":{"android":"levelo://app?vid=fbb50c96-4826-4eec-9430-25ff82d7a10c","ios":"levelo://app?vid=fbb50c96-4826-4eec-9430-25ff82d7a10c"},"vehicle_type_id":"4","last_reported":1762787541,"current_range_meters":6000,"station_id":"ce4bgpp2rcd13ifvqc3g","pricing_plan_id":"cebpf4jnsgd1na2vs0mg"},{"bike_id":"9ce165a4-fda6-4fa5-a80c-85249051c748","system_id":"levelo_inurba_marseille","lat":43.27377,"lon":5.36252,"is_reserved":false,"is_disabled":false,"rental_uris":{"android":"levelo://app?vid=9ce165a4-fda6-4fa5-a80c-85249051c748","ios":"levelo://app?vid=9ce165a4-fda6-4fa5-a80c-85249051c748"},"vehicle_type_id":"4","last_reported":1762787541,"current_range_meters":6000,"station_id":"ce4bhbh2rcd13ifvqeo0","pricing_plan_id":"cebpf4jnsgd1na2vs0mg"},{"bike_id":"15db09df-59b0-446a-87c5-e354a3319258","system_id":"levelo_inurba_marseille","lat":43.28474,"lon":5.48396,"is_reserved":false,"is_disabled":false,"rental_uris":{"android":"levelo://app?vid=15db09df-59b0-446a-87c5-e354a3319258","ios":"levelo://app?vid=15db09df-59b0-446a-87c5-e354a3319258"},"vehicle_type_id":"4","last_reported":1762787541,"current_range_meters":6000,"station_id":"","pricing_plan_id":"cebpf4jnsgd1na2vs0mg"},{"bike_id":"76c0a210-154c-45c0-a653-32e716579d54","system_id":"levelo_inurba_marseille","lat":43.217444,"lon":5.346046,"is_reserved":false,"is_disabled":false,"rental_uris":{"android":"levelo://app?vid=76c0a210-154c-45c0-a653-32e716579d54","ios":"levelo://app?vid=76c0a210-154c-45c0-a653-32e716579d54"},"vehicle_type_id":"4","last_reported":1762787541,"current_range_meters":6000,"station_id":"st_cvj6r9ubvosntc0bgbag","pricing_plan_id":"cebpf4jnsgd1na2vs0mg"},{"bike_id":"e2a4ea0b-903a-45fb-aa13-3d1d4ea03bd8","system_id":"levelo_inurba_marseille","lat":43.250903,"lon":5.395283,"is_reserved":false,"is_disabled":false,"rental_uris":{"android":"levelo://app?vid=e2a4ea0b-903a-45fb-aa13-3d1d4ea03bd8","ios":"levelo://app?vid=e2a4ea0b-903a-45fb-aa13-3d1d4ea03bd8"},"vehicle_type_id":"4","last_reported":1762787541,"current_range_meters":6000,"station_id":"ce4bhm12rcd13ifvqgkg","pricing_plan_id":"cebpf4jnsgd1na2vs0mg"},{"bike_id":"6f98b7a7-ae98-40be-aded-6fe2b547bfca","system_id":"levelo_inurba_marseille","lat":43.337444,"lon":5.374475,"is_reserved":false,"is_disabled":false,"rental_uris":{"android":"levelo://app?vid=6f98b7a7-ae98-40be-aded-6fe2b547bfca","ios":"levelo://app?vid=6f98b7a7-ae98-40be-aded-6fe2b547bfca"},"vehicle_type_id":"4","last_reported":1762787541,"current_range_meters":6000,"station_id":"","pricing_plan_id":"cebpf4jnsgd1na2vs0mg"},{"bike_id":"abf18691-d35d-47e9-99a1-0522637a63d4","system_id":"levelo_inurba_marseille","lat":43.30406,"lon":5.41288,"is_reserved":false,"is_disabled":false,"rental_uris":{"android":"levelo://app?vid=abf18691-d35d-47e9-99a1-0522637a63d4","ios":"levelo://app?vid=abf18691-d35d-47e9-99a1-0522637a63d4"},"vehicle_type_id":"4","last_reported":1762787541,"current_range_meters":6000,"station_id":"ce4bhop2rcd13ifvqh8g","pricing_plan_id":"cebpf4jnsgd1na2vs0mg"},{"bike_id":"c1a8951c-0b8b-4e04-9556-ddc347871e56","system_id":"levelo_inurba_marseille","lat":43.33598,"lon":5.35415,"is_reserved":false,"is_disabled":false,"rental_uris":{"android":"levelo://app?vid=c1a8951c-0b8b-4e04-9556-ddc347871e56","ios":"levelo://app?vid=c1a8951c-0b8b-4e04-9556-ddc347871e56"},"vehicle_type_id":"4","last_reported":1762787541,"current_range_meters":6000,"station_id":"","pricing_plan_id":"cebpf4jnsgd1na2vs0mg"},{"bike_id":"a468abfc-41a1-4cf8-84ac-466c31dd44ec","system_id":"levelo_inurba_marseille","lat":43.26781,"lon":5.39052,"is_reserved":false,"is_disabled":false,"rental_uris":{"android":"levelo://app?vid=a468abfc-41a1-4cf8-84ac-466c31dd44ec","ios":"levelo://app?vid=a468abfc-41a1-4cf8-84ac-466c31dd44ec"},"vehicle_type_id":"4","last_reported":1762787541,"current_range_meters":6400,"station_id":"","pricing_plan_id":"cebpf4jnsgd1na2vs0mg"},{"bike_id":"1f5903e2-6d20-474b-8d24-15002f9d7543","system_id":"levelo_inurba_marseille","lat":43.28615,"lon":5.37058,"is_reserved":false,"is_disabled":false,"rental_uris":{"android":"levelo://app?vid=1f5903e2-6d20-474b-8d24-15002f9d7543","ios":"levelo://app?vid=1f5903e2-6d20-474b-8d24-15002f9d7543"},"vehicle_type_id":"4","last_reported":1762787541,"current_range_meters":6400,"station_id":"ce4bht12rcd13ifvqi60","pricing_plan_id":"cebpf4jnsgd1na2vs0mg"},{"bike_id":"1f5e2071-e7c0-4c0c-851a-164f8dc27fca","system_id":"levelo_inurba_marseille","lat":43.27378,"lon":5.36251,"is_reserved":false,"is_disabled":false,"rental_uris":{"android":"levelo://app?vid=1f5e2071-e7c0-4c0c-851a-164f8dc27fca","ios":"levelo://app?vid=1f5e2071-e7c0-4c0c-851a-164f8dc27fca"},"vehicle_type_id":"4","last_reported":1762787541,"current_range_meters":6800,"station_id":"ce4bhbh2rcd13ifvqeo0","pricing_plan_id":"cebpf4jnsgd1na2vs0mg"},{"bike_id":"c4d55e0e-f9db-4505-8964-61029e9d9d57","system_id":"levelo_inurba_marseille","lat":43.29575,"lon":5.39971,"is_reserved":false,"is_disabled":false,"rental_uris":{"android":"levelo://app?vid=c4d55e0e-f9db-4505-8964-61029e9d9d57","ios":"levelo://app?vid=c4d55e0e-f9db-4505-8964-61029e9d9d57"},"vehicle_type_id":"4","last_reported":1762787541,"current_range_meters":6800,"station_id":"ce4bh312rcd13ifvqdj0","pricing_plan_id":"cebpf4jnsgd1na2vs0mg"},{"bike_id":"bee22918-9c73-478f-a49e-30e90355d7a0","system_id":"levelo_inurba_marseille","lat":43.2123,"lon":5.35039,"is_reserved":false,"is_disabled":false,"rental_uris":{"android":"levelo://app?vid=bee22918-9c73-478f-a49e-30e90355d7a0","ios":"levelo://app?vid=bee22918-9c73-478f-a49e-30e90355d7a0"},"vehicle_type_id":"4","last_reported":1762787541,"current_range_meters":6800,"station_id":"","pricing_plan_id":"cebpf4jnsgd1na2vs0mg"},{"bike_id":"11fc4d3b-733f-446e-ae27-782a71ccb828","system_id":"levelo_inurba_marseille","lat":43.29925,"lon":5.36533,"is_reserved":false,"is_disabled":false,"rental_uris":{"android":"levelo://app?vid=11fc4d3b-733f-446e-ae27-782a71ccb828","ios":"levelo://app?vid=11fc4d3b-733f-446e-ae27-782a71ccb828"},"vehicle_type_id":"4","last_reported":1762787541,"current_range_meters":6800,"station_id":"ce4bgm92rcd13ifvqbr0","pricing_plan_id":"cebpf4jnsgd1na2vs0mg"},{"bike_id":"41e9913d-be28-4a59-9d7e-b791b4eb3a28","system_id":"levelo_inurba_marseille","lat":43.30299,"lon":5.3687,"is_reserved":false,"is_disabled":false,"rental_uris":{"android":"levelo://app?vid=41e9913d-be28-4a59-9d7e-b791b4eb3a28","ios":"levelo://app?vid=41e9913d-be28-4a59-9d7e-b791b4eb3a28"},"vehicle_type_id":"4","last_reported":1762787541,"current_range_meters":7200,"station_id":"ce4bgqh2rcd13ifvqc5g","pricing_plan_id":"cebpf4jnsgd1na2vs0mg"},{"bike_id":"f67f33ef-23fe-4ff5-8a43-7b241a0de7da","system_id":"levelo_inurba_marseille","lat":43.32084,"lon":5.36835,"is_reserved":false,"is_disabled":false,"rental_uris":{"android":"levelo://app?vid=f67f33ef-23fe-4ff5-8a43-7b241a0de7da","ios":"levelo://app?vid=f67f33ef-23fe-4ff5-8a43-7b241a0de7da"},"vehicle_type_id":"4","last_reported":1762787541,"current_range_meters":7200,"station_id":"ce4bhrh2rcd13ifvqhug","pricing_plan_id":"cebpf4jnsgd1na2vs0mg"},{"bike_id":"2c8d4d26-1c74-4019-b213-bb7abd2d19f3","system_id":"levelo_inurba_marseille","lat":43.21745,"lon":5.34602,"is_reserved":false,"is_disabled":false,"rental_uris":{"android":"levelo://app?vid=2c8d4d26-1c74-4019-b213-bb7abd2d19f3","ios":"levelo://app?vid=2c8d4d26-1c74-4019-b213-bb7abd2d19f3"},"vehicle_type_id":"4","last_reported":1762787541,"current_range_meters":7200,"station_id":"st_cvj6r9ubvosntc0bgbag","pricing_plan_id":"cebpf4jnsgd1na2vs0mg"},{"bike_id":"2716f584-1ca5-4bb7-9d9f-507914216823","system_id":"levelo_inurba_marseille","lat":43.27812,"lon":5.39209,"is_reserved":false,"is_disabled":false,"rental_uris":{"android":"levelo://app?vid=2716f584-1ca5-4bb7-9d9f-507914216823","ios":"levelo://app?vid=2716f584-1ca5-4bb7-9d9f-507914216823"},"vehicle_type_id":"4","last_reported":1762787541,"current_range_meters":7200,"station_id":"ce4bhjp2rcd13ifvqga0","pricing_plan_id":"cebpf4jnsgd1na2vs0mg"},{"bike_id":"3d6c01fd-98f6-42f3-b94b-df0551764487","system_id":"levelo_inurba_marseille","lat":43.3088,"lon":5.396434,"is_reserved":false,"is_disabled":false,"rental_uris":{"android":"levelo://app?vid=3d6c01fd-98f6-42f3-b94b-df0551764487","ios":"levelo://app?vid=3d6c01fd-98f6-42f3-b94b-df0551764487"},"vehicle_type_id":"4","last_reported":1762787541,"current_range_meters":7200,"station_id":"ce4bh012rcd13ifvqcv0","pricing_plan_id":"cebpf4jnsgd1na2vs0mg"},{"bike_id":"a4ac7d48-30e9-4310-b720-793a40fcb1d1","system_id":"levelo_inurba_marseille","lat":43.21741,"lon":5.34603,"is_reserved":false,"is_disabled":false,"rental_uris":{"android":"levelo://app?vid=a4ac7d48-30e9-4310-b720-793a40fcb1d1","ios":"levelo://app?vid=a4ac7d48-30e9-4310-b720-793a40fcb1d1"},"vehicle_type_id":"4","last_reported":1762787541,"current_range_meters":7200,"station_id":"st_cvj6r9ubvosntc0bgbag","pricing_plan_id":"cebpf4jnsgd1na2vs0mg"},{"bike_id":"bd68feaf-d023-4c74-bc0d-cac98be05f4e","system_id":"levelo_inurba_marseille","lat":43.28732,"lon":5.37942,"is_reserved":false,"is_disabled":false,"rental_uris":{"android":"levelo://app?vid=bd68feaf-d023-4c74-bc0d-cac98be05f4e","ios":"levelo://app?vid=bd68feaf-d023-4c74-bc0d-cac98be05f4e"},"vehicle_type_id":"4","last_reported":1762787541,"current_range_meters":7200,"station_id":"ce4bh9p2rcd13ifvqec0","pricing_plan_id":"cebpf4jnsgd1na2vs0mg"},{"bike_id":"9685ede9-6433-46dc-981b-08d9e525be72","system_id":"levelo_inurba_marseille","lat":43.21737,"lon":5.34618,"is_reserved":false,"is_disabled":false,"rental_uris":{"android":"levelo://app?vid=9685ede9-6433-46dc-981b-08d9e525be72","ios":"levelo://app?vid=9685ede9-6433-46dc-981b-08d9e525be72"},"vehicle_type_id":"4","last_reported":1762787541,"current_range_meters":7200,"station_id":"st_cvj6r9ubvosntc0bgbag","pricing_plan_id":"cebpf4jnsgd1na2vs0mg"},{"bike_id":"196e7592-ad4d-425f-919b-d22aa07054de","system_id":"levelo_inurba_marseille","lat":43.29517,"lon":5.39033,"is_reserved":false,"is_disabled":false,"rental_uris":{"android":"levelo://app?vid=196e7592-ad4d-425f-919b-d22aa07054de","ios":"levelo://app?vid=196e7592-ad4d-425f-919b-d22aa07054de"},"vehicle_type_id":"4","last_reported":1762787541,"current_range_meters":7200,"station_id":"ce4bh3p2rcd13ifvqdp0","pricing_plan_id":"cebpf4jnsgd1na2vs0mg"},{"bike_id":"1c75b95f-d7b5-48da-a950-08ffb35e5d94","system_id":"levelo_inurba_marseille","lat":43.29935,"lon":5.37473,"is_reserved":false,"is_disabled":false,"rental_uris":{"android":"levelo://app?vid=1c75b95f-d7b5-48da-a950-08ffb35e5d94","ios":"levelo://app?vid=1c75b95f-d7b5-48da-a950-08ffb35e5d94"},"vehicle_type_id":"4","last_reported":1762787541,"current_range_meters":7200,"station_id":"ce4bgjh2rcd13ifvqbg0","pricing_plan_id":"cebpf4jnsgd1na2vs0mg"},{"bike_id":"474ed28d-7f9a-42dc-a197-13f67a6beb5b","system_id":"levelo_inurba_marseille","lat":43.28448,"lon":5.39202,"is_reserved":false,"is_disabled":false,"rental_uris":{"android":"levelo://app?vid=474ed28d-7f9a-42dc-a197-13f67a6beb5b","ios":"levelo://app?vid=474ed28d-7f9a-42dc-a197-13f67a6beb5b"},"vehicle_type_id":"4","last_reported":1762787541,"current_range_meters":7200,"station_id":"ce4bhoh2rcd13ifvqh5g","pricing_plan_id":"cebpf4jnsgd1na2vs0mg"},{"bike_id":"1d3d253c-e330-488e-9d1b-40368fbe1230","system_id":"levelo_inurba_marseille","lat":43.26209,"lon":5.37444,"is_reserved":false,"is_disabled":false,"rental_uris":{"android":"levelo://app?vid=1d3d253c-e330-488e-9d1b-40368fbe1230","ios":"levelo://app?vid=1d3d253c-e330-488e-9d1b-40368fbe1230"},"vehicle_type_id":"4","last_reported":1762787541,"current_range_meters":8000,"station_id":"","pricing_plan_id":"cebpf4jnsgd1na2vs0mg"},{"bike_id":"bcb7664a-39c2-46f8-930f-41cebd3d0b86","system_id":"levelo_inurba_marseille","lat":43.21167,"lon":5.35109,"is_reserved":false,"is_disabled":true,"rental_uris":{"android":"levelo://app?vid=bcb7664a-39c2-46f8-930f-41cebd3d0b86","ios":"levelo://app?vid=bcb7664a-39c2-46f8-930f-41cebd3d0b86"},"vehicle_type_id":"4","last_reported":1762787541,"current_range_meters":8000,"station_id":"st_cvj6sg6p6f1abm77japg","pricing_plan_id":"cebpf4jnsgd1na2vs0mg"},{"bike_id":"c8c55dda-22e1-42cd-9a23-50bf1a9d9f6a","system_id":"levelo_inurba_marseille","lat":43.29275,"lon":5.36842,"is_reserved":false,"is_disabled":false,"rental_uris":{"android":"levelo://app?vid=c8c55dda-22e1-42cd-9a23-50bf1a9d9f6a","ios":"levelo://app?vid=c8c55dda-22e1-42cd-9a23-50bf1a9d9f6a"},"vehicle_type_id":"4","last_reported":1762787541,"current_range_meters":8000,"station_id":"ce4bhbp2rcd13ifvqesg","pricing_plan_id":"cebpf4jnsgd1na2vs0mg"},{"bike_id":"7965927e-a4b5-4d5a-87ce-f634b9209004","system_id":"levelo_inurba_marseille","lat":43.23781,"lon":5.3663,"is_reserved":false,"is_disabled":false,"rental_uris":{"android":"levelo://app?vid=7965927e-a4b5-4d5a-87ce-f634b9209004","ios":"levelo://app?vid=7965927e-a4b5-4d5a-87ce-f634b9209004"},"vehicle_type_id":"4","last_reported":1762787541,"current_range_meters":8400,"station_id":"st_d3nk18o9ro0c73en2l3g","pricing_plan_id":"cebpf4jnsgd1na2vs0mg"},{"bike_id":"ddfd460a-db50-4bd2-8102-92d8af22ce3b","system_id":"levelo_inurba_marseille","lat":43.33025,"lon":5.39045,"is_reserved":false,"is_disabled":false,"rental_uris":{"android":"levelo://app?vid=ddfd460a-db50-4bd2-8102-92d8af22ce3b","ios":"levelo://app?vid=ddfd460a-db50-4bd2-8102-92d8af22ce3b"},"vehicle_type_id":"4","last_reported":1762787541,"current_range_meters":8400,"station_id":"ce4bhr92rcd13ifvqhrg","pricing_plan_id":"cebpf4jnsgd1na2vs0mg"},{"bike_id":"5997c6b0-b0f4-4848-a8f1-63ca201df211","system_id":"levelo_inurba_marseille","lat":43.33949,"lon":5.41508,"is_reserved":false,"is_disabled":false,"rental_uris":{"android":"levelo://app?vid=5997c6b0-b0f4-4848-a8f1-63ca201df211","ios":"levelo://app?vid=5997c6b0-b0f4-4848-a8f1-63ca201df211"},"vehicle_type_id":"4","last_reported":1762787541,"current_range_meters":8400,"station_id":"","pricing_plan_id":"cebpf4jnsgd1na2vs0mg"},{"bike_id":"093bf278-b2ef-4f94-8ba4-3b0905fdf1a0","system_id":"levelo_inurba_marseille","lat":43.30145,"lon":5.38088,"is_reserved":false,"is_disabled":false,"rental_uris":{"android":"levelo://app?vid=093bf278-b2ef-4f94-8ba4-3b0905fdf1a0","ios":"levelo://app?vid=093bf278-b2ef-4f94-8ba4-3b0905fdf1a0"},"vehicle_type_id":"4","last_reported":1762787541,"current_range_meters":8800,"station_id":"ce4bgjp2rcd13ifvqbh0","pricing_plan_id":"cebpf4jnsgd1na2vs0mg"},{"bike_id":"45d99ef0-a3c2-498e-9f82-468e72e4e027","system_id":"levelo_inurba_marseille","lat":43.21748,"lon":5.34597,"is_reserved":false,"is_disabled":false,"rental_uris":{"android":"levelo://app?vid=45d99ef0-a3c2-498e-9f82-468e72e4e027","ios":"levelo://app?vid=45d99ef0-a3c2-498e-9f82-468e72e4e027"},"vehicle_type_id":"4","last_reported":1762787541,"current_range_meters":8800,"station_id":"st_cvj6r9ubvosntc0bgbag","pricing_plan_id":"cebpf4jnsgd1na2vs0mg"},{"bike_id":"98448bfd-8a6e-4aac-ad7b-0e3b2af3d97d","system_id":"levelo_inurba_marseille","lat":43.21743,"lon":5.34607,"is_reserved":false,"is_disabled":false,"rental_uris":{"android":"levelo://app?vid=98448bfd-8a6e-4aac-ad7b-0e3b2af3d97d","ios":"levelo://app?vid=98448bfd-8a6e-4aac-ad7b-0e3b2af3d97d"},"vehicle_type_id":"4","last_reported":1762787541,"current_range_meters":9200,"station_id":"st_cvj6r9ubvosntc0bgbag","pricing_plan_id":"cebpf4jnsgd1na2vs0mg"},{"bike_id":"50da1aee-7d19-41f6-8a84-c20fda02cba2","system_id":"levelo_inurba_marseille","lat":43.2731,"lon":5.39112,"is_reserved":false,"is_disabled":false,"rental_uris":{"android":"levelo://app?vid=50da1aee-7d19-41f6-8a84-c20fda02cba2","ios":"levelo://app?vid=50da1aee-7d19-41f6-8a84-c20fda02cba2"},"vehicle_type_id":"4","last_reported":1762787541,"current_range_meters":9200,"station_id":"ce4bhgp2rcd13ifvqfe0","pricing_plan_id":"cebpf4jnsgd1na2vs0mg"},{"bike_id":"a33f68ca-b24b-4ac1-915d-c3c6fbc3cc8e","system_id":"levelo_inurba_marseille","lat":43.26549,"lon":5.37287,"is_reserved":false,"is_disabled":false,"rental_uris":{"android":"levelo://app?vid=a33f68ca-b24b-4ac1-915d-c3c6fbc3cc8e","ios":"levelo://app?vid=a33f68ca-b24b-4ac1-915d-c3c6fbc3cc8e"},"vehicle_type_id":"4","last_reported":1762787541,"current_range_meters":9200,"station_id":"ce4bhg12rcd13ifvqf70","pricing_plan_id":"cebpf4jnsgd1na2vs0mg"},{"bike_id":"2b2fe6db-9a98-4d6c-8ee1-69dc1c8a2a2e","system_id":"levelo_inurba_marseille","lat":43.29582,"lon":5.36734,"is_reserved":false,"is_disabled":false,"rental_uris":{"android":"levelo://app?vid=2b2fe6db-9a98-4d6c-8ee1-69dc1c8a2a2e","ios":"levelo://app?vid=2b2fe6db-9a98-4d6c-8ee1-69dc1c8a2a2e"},"vehicle_type_id":"4","last_reported":1762787541,"current_range_meters":9200,"station_id":"ce4bgph2rcd13ifvqc2g","pricing_plan_id":"cebpf4jnsgd1na2vs0mg"},{"bike_id":"296b35f4-bf34-48bd-a614-0084f905815f","system_id":"levelo_inurba_marseille","lat":43.299192,"lon":5.363914,"is_reserved":false,"is_disabled":false,"rental_uris":{"android":"levelo://app?vid=296b35f4-bf34-48bd-a614-0084f905815f","ios":"levelo://app?vid=296b35f4-bf34-48bd-a614-0084f905815f"},"vehicle_type_id":"4","last_reported":1762787541,"current_range_meters":9200,"station_id":"","pricing_plan_id":"cebpf4jnsgd1na2vs0mg"},{"bike_id":"d32acf6f-21aa-4fbf-bed6-33d296ca0f9f","system_id":"levelo_inurba_marseille","lat":43.21757,"lon":5.34611,"is_reserved":false,"is_disabled":false,"rental_uris":{"android":"levelo://app?vid=d32acf6f-21aa-4fbf-bed6-33d296ca0f9f","ios":"levelo://app?vid=d32acf6f-21aa-4fbf-bed6-33d296ca0f9f"},"vehicle_type_id":"4","last_reported":1762787541,"current_range_meters":9600,"station_id":"st_cvj6r9ubvosntc0bgbag","pricing_plan_id":"cebpf4jnsgd1na2vs0mg"},{"bike_id":"0dfc5417-5eee-4a39-aa0c-329e4635bacf","system_id":"levelo_inurba_marseille","lat":43.30329,"lon":5.40422,"is_reserved":false,"is_disabled":false,"rental_uris":{"android":"levelo://app?vid=0dfc5417-5eee-4a39-aa0c-329e4635bacf","ios":"levelo://app?vid=0dfc5417-5eee-4a39-aa0c-329e4635bacf"},"vehicle_type_id":"4","last_reported":1762787541,"current_range_meters":9600,"station_id":"ce4bh012rcd13ifvqd10","pricing_plan_id":"cebpf4jnsgd1na2vs0mg"},{"bike_id":"f08621f1-92b2-4985-8a3a-96dd283a7c2b","system_id":"levelo_inurba_marseille","lat":43.31354,"lon":5.37932,"is_reserved":false,"is_disabled":false,"rental_uris":{"android":"levelo://app?vid=f08621f1-92b2-4985-8a3a-96dd283a7c2b","ios":"levelo://app?vid=f08621f1-92b2-4985-8a3a-96dd283a7c2b"},"vehicle_type_id":"4","last_reported":1762787541,"current_range_meters":9600,"station_id":"","pricing_plan_id":"cebpf4jnsgd1na2vs0mg"},{"bike_id":"1bb8e25f-cc35-45c9-8aa9-0937e5ffbc75","system_id":"levelo_inurba_marseille","lat":43.29282,"lon":5.37286,"is_reserved":false,"is_disabled":false,"rental_uris":{"android":"levelo://app?vid=1bb8e25f-cc35-45c9-8aa9-0937e5ffbc75","ios":"levelo://app?vid=1bb8e25f-cc35-45c9-8aa9-0937e5ffbc75"},"vehicle_type_id":"4","last_reported":1762787541,"current_range_meters":10000,"station_id":"ce4bgkh2rcd13ifvqbl0","pricing_plan_id":"cebpf4jnsgd1na2vs0mg"},{"bike_id":"b4cb9bc3-2674-422b-8c74-5594292dd02e","system_id":"levelo_inurba_marseille","lat":43.275297,"lon":5.37505,"is_reserved":false,"is_disabled":false,"rental_uris":{"android":"levelo://app?vid=b4cb9bc3-2674-422b-8c74-5594292dd02e","ios":"levelo://app?vid=b4cb9bc3-2674-422b-8c74-5594292dd02e"},"vehicle_type_id":"4","last_reported":1762787541,"current_range_meters":10000,"station_id":"","pricing_plan_id":"cebpf4jnsgd1na2vs0mg"},{"bike_id":"83f89bbe-04b9-42b6-b50a-618034dc84d0","system_id":"levelo_inurba_marseille","lat":43.29266,"lon":5.36848,"is_reserved":false,"is_disabled":false,"rental_uris":{"android":"levelo://app?vid=83f89bbe-04b9-42b6-b50a-618034dc84d0","ios":"levelo://app?vid=83f89bbe-04b9-42b6-b50a-618034dc84d0"},"vehicle_type_id":"4","last_reported":1762787541,"current_range_meters":10000,"station_id":"ce4bhbp2rcd13ifvqesg","pricing_plan_id":"cebpf4jnsgd1na2vs0mg"},{"bike_id":"3cb4c4f7-b04f-498f-8fab-afa0dd97ebc8","system_id":"levelo_inurba_marseille","lat":43.29303,"lon":5.37462,"is_reserved":false,"is_disabled":false,"rental_uris":{"android":"levelo://app?vid=3cb4c4f7-b04f-498f-8fab-afa0dd97ebc8","ios":"levelo://app?vid=3cb4c4f7-b04f-498f-8fab-afa0dd97ebc8"},"vehicle_type_id":"4","last_reported":1762787541,"current_range_meters":10000,"station_id":"ce4bgi12rcd13ifvqb70","pricing_plan_id":"cebpf4jnsgd1na2vs0mg"},{"bike_id":"07618fb4-fdf4-452a-a76e-4b0defae3541","system_id":"levelo_inurba_marseille","lat":43.22535,"lon":5.3484,"is_reserved":false,"is_disabled":false,"rental_uris":{"android":"levelo://app?vid=07618fb4-fdf4-452a-a76e-4b0defae3541","ios":"levelo://app?vid=07618fb4-fdf4-452a-a76e-4b0defae3541"},"vehicle_type_id":"4","last_reported":1762787541,"current_range_meters":10800,"station_id":"","pricing_plan_id":"cebpf4jnsgd1na2vs0mg"},{"bike_id":"46748178-17b8-4dc8-80b3-39159ff743e0","system_id":"levelo_inurba_marseille","lat":43.300404,"lon":5.383332,"is_reserved":false,"is_disabled":false,"rental_uris":{"android":"levelo://app?vid=46748178-17b8-4dc8-80b3-39159ff743e0","ios":"levelo://app?vid=46748178-17b8-4dc8-80b3-39159ff743e0"},"vehicle_type_id":"4","last_reported":1762787541,"current_range_meters":10800,"station_id":"","pricing_plan_id":"cebpf4jnsgd1na2vs0mg"},{"bike_id":"c3db6e6d-9046-481c-a6cf-d12221ddc069","system_id":"levelo_inurba_marseille","lat":43.26936,"lon":5.38916,"is_reserved":false,"is_disabled":false,"rental_uris":{"android":"levelo://app?vid=c3db6e6d-9046-481c-a6cf-d12221ddc069","ios":"levelo://app?vid=c3db6e6d-9046-481c-a6cf-d12221ddc069"},"vehicle_type_id":"4","last_reported":1762787541,"current_range_meters":10800,"station_id":"ce4bhhh2rcd13ifvqfl0","pricing_plan_id":"cebpf4jnsgd1na2vs0mg"},{"bike_id":"77dd386a-c491-4903-b512-c2486567c465","system_id":"levelo_inurba_marseille","lat":43.289317,"lon":5.366201,"is_reserved":false,"is_disabled":false,"rental_uris":{"android":"levelo://app?vid=77dd386a-c491-4903-b512-c2486567c465","ios":"levelo://app?vid=77dd386a-c491-4903-b512-c2486567c465"},"vehicle_type_id":"4","last_reported":1762787541,"current_range_meters":10800,"station_id":"ce4bhap2rcd13ifvqek0","pricing_plan_id":"cebpf4jnsgd1na2vs0mg"},{"bike_id":"8d6417d0-c2e1-419b-aa3d-cd8acb4e9469","system_id":"levelo_inurba_marseille","lat":43.25582,"lon":5.38235,"is_reserved":false,"is_disabled":false,"rental_uris":{"android":"levelo://app?vid=8d6417d0-c2e1-419b-aa3d-cd8acb4e9469","ios":"levelo://app?vid=8d6417d0-c2e1-419b-aa3d-cd8acb4e9469"},"vehicle_type_id":"4","last_reported":1762787541,"current_range_meters":10800,"station_id":"ce4bhih2rcd13ifvqfs0","pricing_plan_id":"cebpf4jnsgd1na2vs0mg"},{"bike_id":"249c161f-65d6-4184-b1e4-8ea58a5f1c91","system_id":"levelo_inurba_marseille","lat":43.30232,"lon":5.40064,"is_reserved":false,"is_disabled":false,"rental_uris":{"android":"levelo://app?vid=249c161f-65d6-4184-b1e4-8ea58a5f1c91","ios":"levelo://app?vid=249c161f-65d6-4184-b1e4-8ea58a5f1c91"},"vehicle_type_id":"4","last_reported":1762787541,"current_range_meters":10800,"station_id":"ce4bgvh2rcd13ifvqcs0","pricing_plan_id":"cebpf4jnsgd1na2vs0mg"},{"bike_id":"ab4ac132-5519-4aac-ac12-8b8c2929bb7e","system_id":"levelo_inurba_marseille","lat":43.32302,"lon":5.38493,"is_reserved":false,"is_disabled":false,"rental_uris":{"android":"levelo://app?vid=ab4ac132-5519-4aac-ac12-8b8c2929bb7e","ios":"levelo://app?vid=ab4ac132-5519-4aac-ac12-8b8c2929bb7e"},"vehicle_type_id":"4","last_reported":1762787541,"current_range_meters":11200,"station_id":"st_d45171o9ee8s73djdqug","pricing_plan_id":"cebpf4jnsgd1na2vs0mg"},{"bike_id":"a906f7c6-e9b7-42af-8bd2-6e1feeb979a5","system_id":"levelo_inurba_marseille","lat":43.28836,"lon":5.39564,"is_reserved":false,"is_disabled":false,"rental_uris":{"android":"levelo://app?vid=a906f7c6-e9b7-42af-8bd2-6e1feeb979a5","ios":"levelo://app?vid=a906f7c6-e9b7-42af-8bd2-6e1feeb979a5"},"vehicle_type_id":"4","last_reported":1762787541,"current_range_meters":11200,"station_id":"","pricing_plan_id":"cebpf4jnsgd1na2vs0mg"},{"bike_id":"be3d8650-9293-46bc-b0c9-a47bad563b96","system_id":"levelo_inurba_marseille","lat":43.217499,"lon":5.346028,"is_reserved":false,"is_disabled":false,"rental_uris":{"android":"levelo://app?vid=be3d8650-9293-46bc-b0c9-a47bad563b96","ios":"levelo://app?vid=be3d8650-9293-46bc-b0c9-a47bad563b96"},"vehicle_type_id":"4","last_reported":1762787541,"current_range_meters":11200,"station_id":"st_cvj6r9ubvosntc0bgbag","pricing_plan_id":"cebpf4jnsgd1na2vs0mg"},{"bike_id":"2a0a6ab9-3a40-4a22-bcf2-16472d88f633","system_id":"levelo_inurba_marseille","lat":43.28673,"lon":5.38655,"is_reserved":false,"is_disabled":false,"rental_uris":{"android":"levelo://app?vid=2a0a6ab9-3a40-4a22-bcf2-16472d88f633","ios":"levelo://app?vid=2a0a6ab9-3a40-4a22-bcf2-16472d88f633"},"vehicle_type_id":"4","last_reported":1762787541,"current_range_meters":11200,"station_id":"ce4bh492rcd13ifvqdug","pricing_plan_id":"cebpf4jnsgd1na2vs0mg"},{"bike_id":"3a4656ed-b7c4-4eb6-8ab9-1f51e31c3dcd","system_id":"levelo_inurba_marseille","lat":43.27324,"lon":5.39068,"is_reserved":false,"is_disabled":false,"rental_uris":{"android":"levelo://app?vid=3a4656ed-b7c4-4eb6-8ab9-1f51e31c3dcd","ios":"levelo://app?vid=3a4656ed-b7c4-4eb6-8ab9-1f51e31c3dcd"},"vehicle_type_id":"4","last_reported":1762787541,"current_range_meters":11200,"station_id":"ce4bhgp2rcd13ifvqfe0","pricing_plan_id":"cebpf4jnsgd1na2vs0mg"},{"bike_id":"39ff6a52-7c15-4e36-9056-950efe8be9ca","system_id":"levelo_inurba_marseille","lat":43.285,"lon":5.4831,"is_reserved":false,"is_disabled":false,"rental_uris":{"android":"levelo://app?vid=39ff6a52-7c15-4e36-9056-950efe8be9ca","ios":"levelo://app?vid=39ff6a52-7c15-4e36-9056-950efe8be9ca"},"vehicle_type_id":"4","last_reported":1762787541,"current_range_meters":11200,"station_id":"","pricing_plan_id":"cebpf4jnsgd1na2vs0mg"},{"bike_id":"b3b5c72f-da31-4319-b715-df9a3cf2d257","system_id":"levelo_inurba_marseille","lat":43.295846,"lon":5.375941,"is_reserved":false,"is_disabled":false,"rental_uris":{"android":"levelo://app?vid=b3b5c72f-da31-4319-b715-df9a3cf2d257","ios":"levelo://app?vid=b3b5c72f-da31-4319-b715-df9a3cf2d257"},"vehicle_type_id":"4","last_reported":1762787541,"current_range_meters":11200,"station_id":"ce4bgi92rcd13ifvqb90","pricing_plan_id":"cebpf4jnsgd1na2vs0mg"},{"bike_id":"6484b242-ac56-4d15-8011-6b362890cf20","system_id":"levelo_inurba_marseille","lat":43.292258,"lon":5.374121,"is_reserved":false,"is_disabled":false,"rental_uris":{"android":"levelo://app?vid=6484b242-ac56-4d15-8011-6b362890cf20","ios":"levelo://app?vid=6484b242-ac56-4d15-8011-6b362890cf20"},"vehicle_type_id":"4","last_reported":1762787541,"current_range_meters":11600,"station_id":"ce4bha92rcd13ifvqeh0","pricing_plan_id":"cebpf4jnsgd1na2vs0mg"},{"bike_id":"3f0f07e0-c542-4e4b-a99b-89d00fd75d9e","system_id":"levelo_inurba_marseille","lat":43.30251,"lon":5.38195,"is_reserved":false,"is_disabled":false,"rental_uris":{"android":"levelo://app?vid=3f0f07e0-c542-4e4b-a99b-89d00fd75d9e","ios":"levelo://app?vid=3f0f07e0-c542-4e4b-a99b-89d00fd75d9e"},"vehicle_type_id":"4","last_reported":1762787541,"current_range_meters":11600,"station_id":"","pricing_plan_id":"cebpf4jnsgd1na2vs0mg"},{"bike_id":"b9c45a41-2bf0-4d37-a180-9fc57890ee1f","system_id":"levelo_inurba_marseille","lat":43.25004,"lon":5.38925,"is_reserved":false,"is_disabled":false,"rental_uris":{"android":"levelo://app?vid=b9c45a41-2bf0-4d37-a180-9fc57890ee1f","ios":"levelo://app?vid=b9c45a41-2bf0-4d37-a180-9fc57890ee1f"},"vehicle_type_id":"4","last_reported":1762787541,"current_range_meters":11600,"station_id":"ce4bhgp2rcd13ifvqfd0","pricing_plan_id":"cebpf4jnsgd1na2vs0mg"},{"bike_id":"b4388962-6177-43cc-930f-1bca79d5fb90","system_id":"levelo_inurba_marseille","lat":43.29301,"lon":5.37461,"is_reserved":false,"is_disabled":false,"rental_uris":{"android":"levelo://app?vid=b4388962-6177-43cc-930f-1bca79d5fb90","ios":"levelo://app?vid=b4388962-6177-43cc-930f-1bca79d5fb90"},"vehicle_type_id":"4","last_reported":1762787541,"current_range_meters":11600,"station_id":"ce4bgi12rcd13ifvqb70","pricing_plan_id":"cebpf4jnsgd1na2vs0mg"},{"bike_id":"602e9197-c271-4fc5-92e8-b1f25e8937dc","system_id":"levelo_inurba_marseille","lat":43.30263,"lon":5.40079,"is_reserved":false,"is_disabled":false,"rental_uris":{"android":"levelo://app?vid=602e9197-c271-4fc5-92e8-b1f25e8937dc","ios":"levelo://app?vid=602e9197-c271-4fc5-92e8-b1f25e8937dc"},"vehicle_type_id":"4","last_reported":1762787541,"current_range_meters":12000,"station_id":"ce4bgvh2rcd13ifvqcs0","pricing_plan_id":"cebpf4jnsgd1na2vs0mg"},{"bike_id":"f04eb460-ad99-4051-9187-8bc1dd3701b8","system_id":"levelo_inurba_marseille","lat":43.21743,"lon":5.34607,"is_reserved":false,"is_disabled":false,"rental_uris":{"android":"levelo://app?vid=f04eb460-ad99-4051-9187-8bc1dd3701b8","ios":"levelo://app?vid=f04eb460-ad99-4051-9187-8bc1dd3701b8"},"vehicle_type_id":"4","last_reported":1762787541,"current_range_meters":12000,"station_id":"st_cvj6r9ubvosntc0bgbag","pricing_plan_id":"cebpf4jnsgd1na2vs0mg"},{"bike_id":"b85ae06d-8211-45c1-91c3-6cd6434fe268","system_id":"levelo_inurba_marseille","lat":43.337444,"lon":5.374475,"is_reserved":false,"is_disabled":false,"rental_uris":{"android":"levelo://app?vid=b85ae06d-8211-45c1-91c3-6cd6434fe268","ios":"levelo://app?vid=b85ae06d-8211-45c1-91c3-6cd6434fe268"},"vehicle_type_id":"4","last_reported":1762787541,"current_range_meters":12000,"station_id":"","pricing_plan_id":"cebpf4jnsgd1na2vs0mg"},{"bike_id":"96807a8e-1b45-4a36-b7ed-92091f4bcaf6","system_id":"levelo_inurba_marseille","lat":43.309306,"lon":5.401424,"is_reserved":false,"is_disabled":false,"rental_uris":{"android":"levelo://app?vid=96807a8e-1b45-4a36-b7ed-92091f4bcaf6","ios":"levelo://app?vid=96807a8e-1b45-4a36-b7ed-92091f4bcaf6"},"vehicle_type_id":"4","last_reported":1762787541,"current_range_meters":12000,"station_id":"","pricing_plan_id":"cebpf4jnsgd1na2vs0mg"},{"bike_id":"ee676784-715b-4226-9bd3-48c659f578c3","system_id":"levelo_inurba_marseille","lat":43.275,"lon":5.42437,"is_reserved":false,"is_disabled":false,"rental_uris":{"android":"levelo://app?vid=ee676784-715b-4226-9bd3-48c659f578c3","ios":"levelo://app?vid=ee676784-715b-4226-9bd3-48c659f578c3"},"vehicle_type_id":"4","last_reported":1762787541,"current_range_meters":12000,"station_id":"ce4bhn92rcd13ifvqgrg","pricing_plan_id":"cebpf4jnsgd1na2vs0mg"},{"bike_id":"0f4f6d58-47b7-4e12-865b-8802e8d41703","system_id":"levelo_inurba_marseille","lat":43.23153,"lon":5.4374,"is_reserved":false,"is_disabled":false,"rental_uris":{"android":"levelo://app?vid=0f4f6d58-47b7-4e12-865b-8802e8d41703","ios":"levelo://app?vid=0f4f6d58-47b7-4e12-865b-8802e8d41703"},"vehicle_type_id":"4","last_reported":1762787541,"current_range_meters":12000,"station_id":"ce4bhmp2rcd13ifvqgog","pricing_plan_id":"cebpf4jnsgd1na2vs0mg"},{"bike_id":"f14d005e-ec2a-40e8-a5b6-f9ba55648bdf","system_id":"levelo_inurba_marseille","lat":43.24625,"lon":5.43143,"is_reserved":false,"is_disabled":false,"rental_uris":{"android":"levelo://app?vid=f14d005e-ec2a-40e8-a5b6-f9ba55648bdf","ios":"levelo://app?vid=f14d005e-ec2a-40e8-a5b6-f9ba55648bdf"},"vehicle_type_id":"4","last_reported":1762787541,"current_range_meters":12000,"station_id":"st_d2m6c4gdas8pm72e190g","pricing_plan_id":"cebpf4jnsgd1na2vs0mg"},{"bike_id":"93b49ebf-d9fa-49cd-9da3-22e867a810f3","system_id":"levelo_inurba_marseille","lat":43.29743,"lon":5.41108,"is_reserved":false,"is_disabled":false,"rental_uris":{"android":"levelo://app?vid=93b49ebf-d9fa-49cd-9da3-22e867a810f3","ios":"levelo://app?vid=93b49ebf-d9fa-49cd-9da3-22e867a810f3"},"vehicle_type_id":"4","last_reported":1762787541,"current_range_meters":12000,"station_id":"","pricing_plan_id":"cebpf4jnsgd1na2vs0mg"},{"bike_id":"f53a54fc-a6e5-4fa0-ae78-57322828be1f","system_id":"levelo_inurba_marseille","lat":43.29785,"lon":5.37101,"is_reserved":false,"is_disabled":false,"rental_uris":{"android":"levelo://app?vid=f53a54fc-a6e5-4fa0-ae78-57322828be1f","ios":"levelo://app?vid=f53a54fc-a6e5-4fa0-ae78-57322828be1f"},"vehicle_type_id":"4","last_reported":1762787541,"current_range_meters":12000,"station_id":"ce4bgop2rcd13ifvqc1g","pricing_plan_id":"cebpf4jnsgd1na2vs0mg"},{"bike_id":"e3e4108b-a5e3-45cd-83d5-32a5e89cb232","system_id":"levelo_inurba_marseille","lat":43.29227,"lon":5.36064,"is_reserved":false,"is_disabled":false,"rental_uris":{"android":"levelo://app?vid=e3e4108b-a5e3-45cd-83d5-32a5e89cb232","ios":"levelo://app?vid=e3e4108b-a5e3-45cd-83d5-32a5e89cb232"},"vehicle_type_id":"4","last_reported":1762787541,"current_range_meters":12000,"station_id":"ce4bhbh2rcd13ifvqeqg","pricing_plan_id":"cebpf4jnsgd1na2vs0mg"},{"bike_id":"ac8a8750-1d87-4cf8-9c77-e78b99da5512","system_id":"levelo_inurba_marseille","lat":43.23605,"lon":5.361713,"is_reserved":false,"is_disabled":false,"rental_uris":{"android":"levelo://app?vid=ac8a8750-1d87-4cf8-9c77-e78b99da5512","ios":"levelo://app?vid=ac8a8750-1d87-4cf8-9c77-e78b99da5512"},"vehicle_type_id":"4","last_reported":1762787541,"current_range_meters":12400,"station_id":"","pricing_plan_id":"cebpf4jnsgd1na2vs0mg"},{"bike_id":"896a0fc4-e98e-425f-b646-7db4d5ace172","system_id":"levelo_inurba_marseille","lat":43.3199,"lon":5.38155,"is_reserved":false,"is_disabled":false,"rental_uris":{"android":"levelo://app?vid=896a0fc4-e98e-425f-b646-7db4d5ace172","ios":"levelo://app?vid=896a0fc4-e98e-425f-b646-7db4d5ace172"},"vehicle_type_id":"4","last_reported":1762787541,"current_range_meters":12400,"station_id":"ce4bhr12rcd13ifvqhpg","pricing_plan_id":"cebpf4jnsgd1na2vs0mg"},{"bike_id":"3fe8dc5d-c387-4f1a-9c4c-484bc8924e3c","system_id":"levelo_inurba_marseille","lat":43.262253,"lon":5.404598,"is_reserved":false,"is_disabled":false,"rental_uris":{"android":"levelo://app?vid=3fe8dc5d-c387-4f1a-9c4c-484bc8924e3c","ios":"levelo://app?vid=3fe8dc5d-c387-4f1a-9c4c-484bc8924e3c"},"vehicle_type_id":"4","last_reported":1762787541,"current_range_meters":12400,"station_id":"ce4bhmh2rcd13ifvqgmg","pricing_plan_id":"cebpf4jnsgd1na2vs0mg"},{"bike_id":"24de70df-9b80-4721-8771-f61cb7be1ef9","system_id":"levelo_inurba_marseille","lat":43.3192,"lon":5.38126,"is_reserved":false,"is_disabled":false,"rental_uris":{"android":"levelo://app?vid=24de70df-9b80-4721-8771-f61cb7be1ef9","ios":"levelo://app?vid=24de70df-9b80-4721-8771-f61cb7be1ef9"},"vehicle_type_id":"4","last_reported":1762787541,"current_range_meters":12400,"station_id":"","pricing_plan_id":"cebpf4jnsgd1na2vs0mg"},{"bike_id":"d331b58f-0754-4181-93f7-d4d5e2f8b496","system_id":"levelo_inurba_marseille","lat":43.225347,"lon":5.348291,"is_reserved":false,"is_disabled":false,"rental_uris":{"android":"levelo://app?vid=d331b58f-0754-4181-93f7-d4d5e2f8b496","ios":"levelo://app?vid=d331b58f-0754-4181-93f7-d4d5e2f8b496"},"vehicle_type_id":"4","last_reported":1762787541,"current_range_meters":12400,"station_id":"","pricing_plan_id":"cebpf4jnsgd1na2vs0mg"},{"bike_id":"8fb8e484-33f9-4823-be2c-e91bb20d32f8","system_id":"levelo_inurba_marseille","lat":43.305381,"lon":5.365507,"is_reserved":false,"is_disabled":false,"rental_uris":{"android":"levelo://app?vid=8fb8e484-33f9-4823-be2c-e91bb20d32f8","ios":"levelo://app?vid=8fb8e484-33f9-4823-be2c-e91bb20d32f8"},"vehicle_type_id":"4","last_reported":1762787541,"current_range_meters":12400,"station_id":"ce4bgs12rcd13ifvqcag","pricing_plan_id":"cebpf4jnsgd1na2vs0mg"},{"bike_id":"13f87c87-592c-4eb1-bf2b-3072d7669180","system_id":"levelo_inurba_marseille","lat":43.313318,"lon":5.396956,"is_reserved":false,"is_disabled":false,"rental_uris":{"android":"levelo://app?vid=13f87c87-592c-4eb1-bf2b-3072d7669180","ios":"levelo://app?vid=13f87c87-592c-4eb1-bf2b-3072d7669180"},"vehicle_type_id":"4","last_reported":1762787541,"current_range_meters":12400,"station_id":"ce4bgvp2rcd13ifvqcu0","pricing_plan_id":"cebpf4jnsgd1na2vs0mg"},{"bike_id":"2d003246-289e-4235-87e3-d86a55465f5e","system_id":"levelo_inurba_marseille","lat":43.29892,"lon":5.37537,"is_reserved":false,"is_disabled":false,"rental_uris":{"android":"levelo://app?vid=2d003246-289e-4235-87e3-d86a55465f5e","ios":"levelo://app?vid=2d003246-289e-4235-87e3-d86a55465f5e"},"vehicle_type_id":"4","last_reported":1762787541,"current_range_meters":12800,"station_id":"","pricing_plan_id":"cebpf4jnsgd1na2vs0mg"},{"bike_id":"ae74c969-5367-45a8-bef7-d2869dfbce21","system_id":"levelo_inurba_marseille","lat":43.21715,"lon":5.34612,"is_reserved":false,"is_disabled":false,"rental_uris":{"android":"levelo://app?vid=ae74c969-5367-45a8-bef7-d2869dfbce21","ios":"levelo://app?vid=ae74c969-5367-45a8-bef7-d2869dfbce21"},"vehicle_type_id":"4","last_reported":1762787541,"current_range_meters":12800,"station_id":"st_cvj6r9ubvosntc0bgbag","pricing_plan_id":"cebpf4jnsgd1na2vs0mg"},{"bike_id":"dcd07a5a-8f5c-42db-b7b2-57b4365fc8e5","system_id":"levelo_inurba_marseille","lat":43.29196,"lon":5.358,"is_reserved":false,"is_disabled":false,"rental_uris":{"android":"levelo://app?vid=dcd07a5a-8f5c-42db-b7b2-57b4365fc8e5","ios":"levelo://app?vid=dcd07a5a-8f5c-42db-b7b2-57b4365fc8e5"},"vehicle_type_id":"4","last_reported":1762787541,"current_range_meters":12800,"station_id":"ce4bhb12rcd13ifvqel0","pricing_plan_id":"cebpf4jnsgd1na2vs0mg"},{"bike_id":"4655bda5-5173-4afc-96cd-59f943746526","system_id":"levelo_inurba_marseille","lat":43.290628,"lon":5.37166,"is_reserved":false,"is_disabled":false,"rental_uris":{"android":"levelo://app?vid=4655bda5-5173-4afc-96cd-59f943746526","ios":"levelo://app?vid=4655bda5-5173-4afc-96cd-59f943746526"},"vehicle_type_id":"4","last_reported":1762787541,"current_range_meters":12800,"station_id":"ce4bh5p2rcd13ifvqe4g","pricing_plan_id":"cebpf4jnsgd1na2vs0mg"},{"bike_id":"d952f428-0938-4178-be08-f8aedb251e69","system_id":"levelo_inurba_marseille","lat":43.28057,"lon":5.36918,"is_reserved":false,"is_disabled":false,"rental_uris":{"android":"levelo://app?vid=d952f428-0938-4178-be08-f8aedb251e69","ios":"levelo://app?vid=d952f428-0938-4178-be08-f8aedb251e69"},"vehicle_type_id":"4","last_reported":1762787541,"current_range_meters":12800,"station_id":"ce4bha12rcd13ifvqef0","pricing_plan_id":"cebpf4jnsgd1na2vs0mg"},{"bike_id":"bacd936f-3ebc-40a9-bea4-a6c07e2a15fb","system_id":"levelo_inurba_marseille","lat":43.29814,"lon":5.44058,"is_reserved":false,"is_disabled":false,"rental_uris":{"android":"levelo://app?vid=bacd936f-3ebc-40a9-bea4-a6c07e2a15fb","ios":"levelo://app?vid=bacd936f-3ebc-40a9-bea4-a6c07e2a15fb"},"vehicle_type_id":"4","last_reported":1762787541,"current_range_meters":12800,"station_id":"st_d3jp68qikq2c7381ktn0","pricing_plan_id":"cebpf4jnsgd1na2vs0mg"},{"bike_id":"f3c9971d-8d50-49a0-b3b9-f96796067ba9","system_id":"levelo_inurba_marseille","lat":43.291957,"lon":5.358004,"is_reserved":false,"is_disabled":false,"rental_uris":{"android":"levelo://app?vid=f3c9971d-8d50-49a0-b3b9-f96796067ba9","ios":"levelo://app?vid=f3c9971d-8d50-49a0-b3b9-f96796067ba9"},"vehicle_type_id":"4","last_reported":1762787541,"current_range_meters":12800,"station_id":"ce4bhb12rcd13ifvqel0","pricing_plan_id":"cebpf4jnsgd1na2vs0mg"},{"bike_id":"6cabc134-f7d8-4d2a-bbae-38c0c2e6cf14","system_id":"levelo_inurba_marseille","lat":43.30152,"lon":5.38082,"is_reserved":false,"is_disabled":false,"rental_uris":{"android":"levelo://app?vid=6cabc134-f7d8-4d2a-bbae-38c0c2e6cf14","ios":"levelo://app?vid=6cabc134-f7d8-4d2a-bbae-38c0c2e6cf14"},"vehicle_type_id":"4","last_reported":1762787541,"current_range_meters":13600,"station_id":"ce4bgjp2rcd13ifvqbh0","pricing_plan_id":"cebpf4jnsgd1na2vs0mg"},{"bike_id":"6bee480e-c68e-46c7-b3b8-7f110436cc8a","system_id":"levelo_inurba_marseille","lat":43.21747,"lon":5.34614,"is_reserved":false,"is_disabled":false,"rental_uris":{"android":"levelo://app?vid=6bee480e-c68e-46c7-b3b8-7f110436cc8a","ios":"levelo://app?vid=6bee480e-c68e-46c7-b3b8-7f110436cc8a"},"vehicle_type_id":"4","last_reported":1762787541,"current_range_meters":13600,"station_id":"st_cvj6r9ubvosntc0bgbag","pricing_plan_id":"cebpf4jnsgd1na2vs0mg"},{"bike_id":"a2261492-19dd-44fa-8c32-b4eeed495387","system_id":"levelo_inurba_marseille","lat":43.2986,"lon":5.36294,"is_reserved":false,"is_disabled":false,"rental_uris":{"android":"levelo://app?vid=a2261492-19dd-44fa-8c32-b4eeed495387","ios":"levelo://app?vid=a2261492-19dd-44fa-8c32-b4eeed495387"},"vehicle_type_id":"4","last_reported":1762787541,"current_range_meters":13600,"station_id":"ce4bgpp2rcd13ifvqc3g","pricing_plan_id":"cebpf4jnsgd1na2vs0mg"},{"bike_id":"263b48d6-23f5-465a-bd40-93fba6129083","system_id":"levelo_inurba_marseille","lat":43.29612,"lon":5.37727,"is_reserved":false,"is_disabled":false,"rental_uris":{"android":"levelo://app?vid=263b48d6-23f5-465a-bd40-93fba6129083","ios":"levelo://app?vid=263b48d6-23f5-465a-bd40-93fba6129083"},"vehicle_type_id":"4","last_reported":1762787541,"current_range_meters":13600,"station_id":"ce4bgi92rcd13ifvqb90","pricing_plan_id":"cebpf4jnsgd1na2vs0mg"},{"bike_id":"d6b75172-a54d-43ca-b697-6718fd745d98","system_id":"levelo_inurba_marseille","lat":43.21177,"lon":5.35089,"is_reserved":false,"is_disabled":false,"rental_uris":{"android":"levelo://app?vid=d6b75172-a54d-43ca-b697-6718fd745d98","ios":"levelo://app?vid=d6b75172-a54d-43ca-b697-6718fd745d98"},"vehicle_type_id":"4","last_reported":1762787541,"current_range_meters":13600,"station_id":"st_cvj6sg6p6f1abm77japg","pricing_plan_id":"cebpf4jnsgd1na2vs0mg"},{"bike_id":"5e6bc625-50e1-4e62-a767-fc749456a9ff","system_id":"levelo_inurba_marseille","lat":43.301511,"lon":5.38106,"is_reserved":false,"is_disabled":false,"rental_uris":{"android":"levelo://app?vid=5e6bc625-50e1-4e62-a767-fc749456a9ff","ios":"levelo://app?vid=5e6bc625-50e1-4e62-a767-fc749456a9ff"},"vehicle_type_id":"4","last_reported":1762787541,"current_range_meters":13600,"station_id":"ce4bgjp2rcd13ifvqbh0","pricing_plan_id":"cebpf4jnsgd1na2vs0mg"},{"bike_id":"9fc59d22-8e56-48e1-b7b6-6b21b0982bb9","system_id":"levelo_inurba_marseille","lat":43.23193,"lon":5.35549,"is_reserved":false,"is_disabled":false,"rental_uris":{"android":"levelo://app?vid=9fc59d22-8e56-48e1-b7b6-6b21b0982bb9","ios":"levelo://app?vid=9fc59d22-8e56-48e1-b7b6-6b21b0982bb9"},"vehicle_type_id":"4","last_reported":1762787541,"current_range_meters":13600,"station_id":"ce4bhu92rcd13ifvqi70","pricing_plan_id":"cebpf4jnsgd1na2vs0mg"},{"bike_id":"ffe050e8-e964-43f0-affe-fdb013a22c0b","system_id":"levelo_inurba_marseille","lat":43.2848,"lon":5.48404,"is_reserved":false,"is_disabled":false,"rental_uris":{"android":"levelo://app?vid=ffe050e8-e964-43f0-affe-fdb013a22c0b","ios":"levelo://app?vid=ffe050e8-e964-43f0-affe-fdb013a22c0b"},"vehicle_type_id":"4","last_reported":1762787541,"current_range_meters":13600,"station_id":"","pricing_plan_id":"cebpf4jnsgd1na2vs0mg"},{"bike_id":"81ae76cc-b801-4759-b58f-2b51d812735a","system_id":"levelo_inurba_marseille","lat":43.217407,"lon":5.346025,"is_reserved":false,"is_disabled":false,"rental_uris":{"android":"levelo://app?vid=81ae76cc-b801-4759-b58f-2b51d812735a","ios":"levelo://app?vid=81ae76cc-b801-4759-b58f-2b51d812735a"},"vehicle_type_id":"4","last_reported":1762787541,"current_range_meters":14000,"station_id":"st_cvj6r9ubvosntc0bgbag","pricing_plan_id":"cebpf4jnsgd1na2vs0mg"},{"bike_id":"e7a88971-63fb-447a-96da-bfb8fe33ae1f","system_id":"levelo_inurba_marseille","lat":43.26785,"lon":5.39415,"is_reserved":false,"is_disabled":false,"rental_uris":{"android":"levelo://app?vid=e7a88971-63fb-447a-96da-bfb8fe33ae1f","ios":"levelo://app?vid=e7a88971-63fb-447a-96da-bfb8fe33ae1f"},"vehicle_type_id":"4","last_reported":1762787541,"current_range_meters":14000,"station_id":"ce4bhh12rcd13ifvqfg0","pricing_plan_id":"cebpf4jnsgd1na2vs0mg"},{"bike_id":"3a04f9c7-e08e-4429-8b60-3f57df5d4f6c","system_id":"levelo_inurba_marseille","lat":43.33157,"lon":5.37681,"is_reserved":false,"is_disabled":false,"rental_uris":{"android":"levelo://app?vid=3a04f9c7-e08e-4429-8b60-3f57df5d4f6c","ios":"levelo://app?vid=3a04f9c7-e08e-4429-8b60-3f57df5d4f6c"},"vehicle_type_id":"4","last_reported":1762787541,"current_range_meters":14000,"station_id":"st_d46cu089ee8s73dldbu0","pricing_plan_id":"cebpf4jnsgd1na2vs0mg"},{"bike_id":"154dee00-619c-452b-ab20-5cb40d30142c","system_id":"levelo_inurba_marseille","lat":43.280046,"lon":5.416648,"is_reserved":false,"is_disabled":false,"rental_uris":{"android":"levelo://app?vid=154dee00-619c-452b-ab20-5cb40d30142c","ios":"levelo://app?vid=154dee00-619c-452b-ab20-5cb40d30142c"},"vehicle_type_id":"4","last_reported":1762787541,"current_range_meters":14000,"station_id":"ce4bho12rcd13ifvqh1g","pricing_plan_id":"cebpf4jnsgd1na2vs0mg"},{"bike_id":"3bf04d76-8a3e-4747-a598-1c1f45ccf5d2","system_id":"levelo_inurba_marseille","lat":43.303511,"lon":5.418708,"is_reserved":false,"is_disabled":false,"rental_uris":{"android":"levelo://app?vid=3bf04d76-8a3e-4747-a598-1c1f45ccf5d2","ios":"levelo://app?vid=3bf04d76-8a3e-4747-a598-1c1f45ccf5d2"},"vehicle_type_id":"4","last_reported":1762787541,"current_range_meters":14400,"station_id":"ce4bhop2rcd13ifvqh7g","pricing_plan_id":"cebpf4jnsgd1na2vs0mg"},{"bike_id":"159c4104-e089-4a2c-91f1-c59a05fd82f0","system_id":"levelo_inurba_marseille","lat":43.25501,"lon":5.37651,"is_reserved":false,"is_disabled":false,"rental_uris":{"android":"levelo://app?vid=159c4104-e089-4a2c-91f1-c59a05fd82f0","ios":"levelo://app?vid=159c4104-e089-4a2c-91f1-c59a05fd82f0"},"vehicle_type_id":"4","last_reported":1762787541,"current_range_meters":14400,"station_id":"ce4bhh12rcd13ifvqff0","pricing_plan_id":"cebpf4jnsgd1na2vs0mg"},{"bike_id":"e3ca31e7-8c60-464d-95fd-3aad12a4aaf3","system_id":"levelo_inurba_marseille","lat":43.30962,"lon":5.38294,"is_reserved":false,"is_disabled":false,"rental_uris":{"android":"levelo://app?vid=e3ca31e7-8c60-464d-95fd-3aad12a4aaf3","ios":"levelo://app?vid=e3ca31e7-8c60-464d-95fd-3aad12a4aaf3"},"vehicle_type_id":"4","last_reported":1762787541,"current_range_meters":14400,"station_id":"","pricing_plan_id":"cebpf4jnsgd1na2vs0mg"},{"bike_id":"57a0e79f-facd-4ab6-a76f-84233bc7be89","system_id":"levelo_inurba_marseille","lat":43.24402,"lon":5.37055,"is_reserved":false,"is_disabled":false,"rental_uris":{"android":"levelo://app?vid=57a0e79f-facd-4ab6-a76f-84233bc7be89","ios":"levelo://app?vid=57a0e79f-facd-4ab6-a76f-84233bc7be89"},"vehicle_type_id":"4","last_reported":1762787541,"current_range_meters":14400,"station_id":"ce4bhhh2rcd13ifvqfk0","pricing_plan_id":"cebpf4jnsgd1na2vs0mg"},{"bike_id":"946bc298-5f29-458c-a453-05d93a68813c","system_id":"levelo_inurba_marseille","lat":43.29572,"lon":5.37523,"is_reserved":false,"is_disabled":false,"rental_uris":{"android":"levelo://app?vid=946bc298-5f29-458c-a453-05d93a68813c","ios":"levelo://app?vid=946bc298-5f29-458c-a453-05d93a68813c"},"vehicle_type_id":"4","last_reported":1762787541,"current_range_meters":14400,"station_id":"ce4bgh92rcd13ifvqb50","pricing_plan_id":"cebpf4jnsgd1na2vs0mg"},{"bike_id":"9e0a01a6-a037-44c8-9e6a-9fe856216f86","system_id":"levelo_inurba_marseille","lat":43.217475,"lon":5.346025,"is_reserved":false,"is_disabled":false,"rental_uris":{"android":"levelo://app?vid=9e0a01a6-a037-44c8-9e6a-9fe856216f86","ios":"levelo://app?vid=9e0a01a6-a037-44c8-9e6a-9fe856216f86"},"vehicle_type_id":"4","last_reported":1762787541,"current_range_meters":14400,"station_id":"st_cvj6r9ubvosntc0bgbag","pricing_plan_id":"cebpf4jnsgd1na2vs0mg"},{"bike_id":"bab1d297-0aed-4c46-b021-bc1fc4ba390c","system_id":"levelo_inurba_marseille","lat":43.21766,"lon":5.34608,"is_reserved":false,"is_disabled":false,"rental_uris":{"android":"levelo://app?vid=bab1d297-0aed-4c46-b021-bc1fc4ba390c","ios":"levelo://app?vid=bab1d297-0aed-4c46-b021-bc1fc4ba390c"},"vehicle_type_id":"4","last_reported":1762787541,"current_range_meters":14400,"station_id":"st_cvj6r9ubvosntc0bgbag","pricing_plan_id":"cebpf4jnsgd1na2vs0mg"},{"bike_id":"7b9057c9-1700-484d-a0f2-c4c3a1f5b6c9","system_id":"levelo_inurba_marseille","lat":43.23144,"lon":5.43713,"is_reserved":false,"is_disabled":false,"rental_uris":{"android":"levelo://app?vid=7b9057c9-1700-484d-a0f2-c4c3a1f5b6c9","ios":"levelo://app?vid=7b9057c9-1700-484d-a0f2-c4c3a1f5b6c9"},"vehicle_type_id":"4","last_reported":1762787541,"current_range_meters":14400,"station_id":"ce4bhmp2rcd13ifvqgog","pricing_plan_id":"cebpf4jnsgd1na2vs0mg"},{"bike_id":"4ef56f27-b618-4191-843e-9c861890082c","system_id":"levelo_inurba_marseille","lat":43.28567,"lon":5.39261,"is_reserved":false,"is_disabled":true,"rental_uris":{"android":"levelo://app?vid=4ef56f27-b618-4191-843e-9c861890082c","ios":"levelo://app?vid=4ef56f27-b618-4191-843e-9c861890082c"},"vehicle_type_id":"4","last_reported":1762787541,"current_range_meters":14400,"station_id":"","pricing_plan_id":"cebpf4jnsgd1na2vs0mg"},{"bike_id":"08270c62-6d63-4843-8e6f-d2bd35ba8c85","system_id":"levelo_inurba_marseille","lat":43.28669,"lon":5.38662,"is_reserved":false,"is_disabled":false,"rental_uris":{"android":"levelo://app?vid=08270c62-6d63-4843-8e6f-d2bd35ba8c85","ios":"levelo://app?vid=08270c62-6d63-4843-8e6f-d2bd35ba8c85"},"vehicle_type_id":"4","last_reported":1762787541,"current_range_meters":14400,"station_id":"ce4bh492rcd13ifvqdug","pricing_plan_id":"cebpf4jnsgd1na2vs0mg"},{"bike_id":"1086c95b-b74f-4e99-9e15-ae33be8101e5","system_id":"levelo_inurba_marseille","lat":43.30151,"lon":5.37627,"is_reserved":false,"is_disabled":false,"rental_uris":{"android":"levelo://app?vid=1086c95b-b74f-4e99-9e15-ae33be8101e5","ios":"levelo://app?vid=1086c95b-b74f-4e99-9e15-ae33be8101e5"},"vehicle_type_id":"4","last_reported":1762787541,"current_range_meters":14800,"station_id":"","pricing_plan_id":"cebpf4jnsgd1na2vs0mg"},{"bike_id":"d9408590-7e64-479f-8b7a-e847d2b2662b","system_id":"levelo_inurba_marseille","lat":43.26552,"lon":5.37287,"is_reserved":false,"is_disabled":false,"rental_uris":{"android":"levelo://app?vid=d9408590-7e64-479f-8b7a-e847d2b2662b","ios":"levelo://app?vid=d9408590-7e64-479f-8b7a-e847d2b2662b"},"vehicle_type_id":"4","last_reported":1762787541,"current_range_meters":14800,"station_id":"ce4bhg12rcd13ifvqf70","pricing_plan_id":"cebpf4jnsgd1na2vs0mg"},{"bike_id":"b0f65dd5-7080-42f8-bb3b-b5fdbbaffdce","system_id":"levelo_inurba_marseille","lat":43.2315,"lon":5.43709,"is_reserved":false,"is_disabled":false,"rental_uris":{"android":"levelo://app?vid=b0f65dd5-7080-42f8-bb3b-b5fdbbaffdce","ios":"levelo://app?vid=b0f65dd5-7080-42f8-bb3b-b5fdbbaffdce"},"vehicle_type_id":"4","last_reported":1762787541,"current_range_meters":14800,"station_id":"ce4bhmp2rcd13ifvqgog","pricing_plan_id":"cebpf4jnsgd1na2vs0mg"},{"bike_id":"9e31a918-e645-47aa-aea7-0a93a017617b","system_id":"levelo_inurba_marseille","lat":43.21194,"lon":5.35074,"is_reserved":false,"is_disabled":false,"rental_uris":{"android":"levelo://app?vid=9e31a918-e645-47aa-aea7-0a93a017617b","ios":"levelo://app?vid=9e31a918-e645-47aa-aea7-0a93a017617b"},"vehicle_type_id":"4","last_reported":1762787541,"current_range_meters":14800,"station_id":"st_cvj6sg6p6f1abm77japg","pricing_plan_id":"cebpf4jnsgd1na2vs0mg"},{"bike_id":"9be94b56-15ef-463f-ba7e-e63df6171cb1","system_id":"levelo_inurba_marseille","lat":43.21794,"lon":5.34579,"is_reserved":false,"is_disabled":false,"rental_uris":{"android":"levelo://app?vid=9be94b56-15ef-463f-ba7e-e63df6171cb1","ios":"levelo://app?vid=9be94b56-15ef-463f-ba7e-e63df6171cb1"},"vehicle_type_id":"4","last_reported":1762787541,"current_range_meters":14800,"station_id":"","pricing_plan_id":"cebpf4jnsgd1na2vs0mg"},{"bike_id":"b7589c36-c725-4ae0-a367-12f6a2c5f1ef","system_id":"levelo_inurba_marseille","lat":43.29807,"lon":5.44088,"is_reserved":false,"is_disabled":false,"rental_uris":{"android":"levelo://app?vid=b7589c36-c725-4ae0-a367-12f6a2c5f1ef","ios":"levelo://app?vid=b7589c36-c725-4ae0-a367-12f6a2c5f1ef"},"vehicle_type_id":"4","last_reported":1762787541,"current_range_meters":15200,"station_id":"st_d3jp68qikq2c7381ktn0","pricing_plan_id":"cebpf4jnsgd1na2vs0mg"},{"bike_id":"76a9edf2-e444-478e-94fe-d55c5048cf9e","system_id":"levelo_inurba_marseille","lat":43.25502,"lon":5.37654,"is_reserved":false,"is_disabled":false,"rental_uris":{"android":"levelo://app?vid=76a9edf2-e444-478e-94fe-d55c5048cf9e","ios":"levelo://app?vid=76a9edf2-e444-478e-94fe-d55c5048cf9e"},"vehicle_type_id":"4","last_reported":1762787541,"current_range_meters":15200,"station_id":"ce4bhh12rcd13ifvqff0","pricing_plan_id":"cebpf4jnsgd1na2vs0mg"},{"bike_id":"d3cff3ed-97b4-4476-90a8-c58c5fadfed0","system_id":"levelo_inurba_marseille","lat":43.28419,"lon":5.34993,"is_reserved":false,"is_disabled":false,"rental_uris":{"android":"levelo://app?vid=d3cff3ed-97b4-4476-90a8-c58c5fadfed0","ios":"levelo://app?vid=d3cff3ed-97b4-4476-90a8-c58c5fadfed0"},"vehicle_type_id":"4","last_reported":1762787541,"current_range_meters":15200,"station_id":"ce4bhbh2rcd13ifvqepg","pricing_plan_id":"cebpf4jnsgd1na2vs0mg"},{"bike_id":"c88172e6-9ca8-4917-9fec-dae0082b9849","system_id":"levelo_inurba_marseille","lat":43.23056,"lon":5.35493,"is_reserved":false,"is_disabled":false,"rental_uris":{"android":"levelo://app?vid=c88172e6-9ca8-4917-9fec-dae0082b9849","ios":"levelo://app?vid=c88172e6-9ca8-4917-9fec-dae0082b9849"},"vehicle_type_id":"4","last_reported":1762787541,"current_range_meters":15200,"station_id":"cpo3342slgdg3j2ifvpg","pricing_plan_id":"cebpf4jnsgd1na2vs0mg"},{"bike_id":"05604c6b-5064-48f8-9a60-e9b19faac6b6","system_id":"levelo_inurba_marseille","lat":43.28041,"lon":5.36946,"is_reserved":false,"is_disabled":false,"rental_uris":{"android":"levelo://app?vid=05604c6b-5064-48f8-9a60-e9b19faac6b6","ios":"levelo://app?vid=05604c6b-5064-48f8-9a60-e9b19faac6b6"},"vehicle_type_id":"4","last_reported":1762787541,"current_range_meters":15200,"station_id":"ce4bha12rcd13ifvqef0","pricing_plan_id":"cebpf4jnsgd1na2vs0mg"},{"bike_id":"edf2b38f-e4aa-4c56-8872-49167d89ded3","system_id":"levelo_inurba_marseille","lat":43.27994,"lon":5.41658,"is_reserved":false,"is_disabled":false,"rental_uris":{"android":"levelo://app?vid=edf2b38f-e4aa-4c56-8872-49167d89ded3","ios":"levelo://app?vid=edf2b38f-e4aa-4c56-8872-49167d89ded3"},"vehicle_type_id":"4","last_reported":1762787541,"current_range_meters":15200,"station_id":"ce4bho12rcd13ifvqh1g","pricing_plan_id":"cebpf4jnsgd1na2vs0mg"},{"bike_id":"fb0e6bea-d078-4452-905b-07db49a4858c","system_id":"levelo_inurba_marseille","lat":43.28481,"lon":5.48401,"is_reserved":false,"is_disabled":false,"rental_uris":{"android":"levelo://app?vid=fb0e6bea-d078-4452-905b-07db49a4858c","ios":"levelo://app?vid=fb0e6bea-d078-4452-905b-07db49a4858c"},"vehicle_type_id":"4","last_reported":1762787541,"current_range_meters":15200,"station_id":"","pricing_plan_id":"cebpf4jnsgd1na2vs0mg"},{"bike_id":"50bd906f-f66c-4773-8e69-65d41802e55d","system_id":"levelo_inurba_marseille","lat":43.22533,"lon":5.34834,"is_reserved":false,"is_disabled":false,"rental_uris":{"android":"levelo://app?vid=50bd906f-f66c-4773-8e69-65d41802e55d","ios":"levelo://app?vid=50bd906f-f66c-4773-8e69-65d41802e55d"},"vehicle_type_id":"4","last_reported":1762787541,"current_range_meters":16000,"station_id":"","pricing_plan_id":"cebpf4jnsgd1na2vs0mg"},{"bike_id":"78c3081b-80fd-4ab7-bb5c-d97f19a2f835","system_id":"levelo_inurba_marseille","lat":43.26587,"lon":5.39021,"is_reserved":false,"is_disabled":false,"rental_uris":{"android":"levelo://app?vid=78c3081b-80fd-4ab7-bb5c-d97f19a2f835","ios":"levelo://app?vid=78c3081b-80fd-4ab7-bb5c-d97f19a2f835"},"vehicle_type_id":"4","last_reported":1762787541,"current_range_meters":16000,"station_id":"ce4bhe12rcd13ifvqf30","pricing_plan_id":"cebpf4jnsgd1na2vs0mg"},{"bike_id":"7c623fdd-8dec-40f7-9989-e1ee2f9df1be","system_id":"levelo_inurba_marseille","lat":43.29846,"lon":5.36264,"is_reserved":false,"is_disabled":false,"rental_uris":{"android":"levelo://app?vid=7c623fdd-8dec-40f7-9989-e1ee2f9df1be","ios":"levelo://app?vid=7c623fdd-8dec-40f7-9989-e1ee2f9df1be"},"vehicle_type_id":"4","last_reported":1762787541,"current_range_meters":16000,"station_id":"ce4bgpp2rcd13ifvqc3g","pricing_plan_id":"cebpf4jnsgd1na2vs0mg"},{"bike_id":"f46ad7eb-f85b-4432-be90-167e726c28e3","system_id":"levelo_inurba_marseille","lat":43.23143,"lon":5.43734,"is_reserved":false,"is_disabled":false,"rental_uris":{"android":"levelo://app?vid=f46ad7eb-f85b-4432-be90-167e726c28e3","ios":"levelo://app?vid=f46ad7eb-f85b-4432-be90-167e726c28e3"},"vehicle_type_id":"4","last_reported":1762787541,"current_range_meters":16000,"station_id":"ce4bhmp2rcd13ifvqgog","pricing_plan_id":"cebpf4jnsgd1na2vs0mg"},{"bike_id":"7f14d21d-9e16-4961-9d70-b10fd067921a","system_id":"levelo_inurba_marseille","lat":43.217475,"lon":5.346026,"is_reserved":false,"is_disabled":false,"rental_uris":{"android":"levelo://app?vid=7f14d21d-9e16-4961-9d70-b10fd067921a","ios":"levelo://app?vid=7f14d21d-9e16-4961-9d70-b10fd067921a"},"vehicle_type_id":"4","last_reported":1762787541,"current_range_meters":16000,"station_id":"st_cvj6r9ubvosntc0bgbag","pricing_plan_id":"cebpf4jnsgd1na2vs0mg"},{"bike_id":"8746ee26-c15a-4e99-a9a2-50ae618fccb0","system_id":"levelo_inurba_marseille","lat":43.279354,"lon":5.410356,"is_reserved":false,"is_disabled":false,"rental_uris":{"android":"levelo://app?vid=8746ee26-c15a-4e99-a9a2-50ae618fccb0","ios":"levelo://app?vid=8746ee26-c15a-4e99-a9a2-50ae618fccb0"},"vehicle_type_id":"4","last_reported":1762787541,"current_range_meters":16400,"station_id":"ce4bhnp2rcd13ifvqh0g","pricing_plan_id":"cebpf4jnsgd1na2vs0mg"},{"bike_id":"4b68d13f-f5d9-4b23-871f-a9d0ced8871b","system_id":"levelo_inurba_marseille","lat":43.31267,"lon":5.37809,"is_reserved":false,"is_disabled":false,"rental_uris":{"android":"levelo://app?vid=4b68d13f-f5d9-4b23-871f-a9d0ced8871b","ios":"levelo://app?vid=4b68d13f-f5d9-4b23-871f-a9d0ced8871b"},"vehicle_type_id":"4","last_reported":1762787541,"current_range_meters":16400,"station_id":"","pricing_plan_id":"cebpf4jnsgd1na2vs0mg"},{"bike_id":"1016aac3-b163-4bd4-b914-896c361c935b","system_id":"levelo_inurba_marseille","lat":43.32122,"lon":5.38846,"is_reserved":false,"is_disabled":false,"rental_uris":{"android":"levelo://app?vid=1016aac3-b163-4bd4-b914-896c361c935b","ios":"levelo://app?vid=1016aac3-b163-4bd4-b914-896c361c935b"},"vehicle_type_id":"4","last_reported":1762787541,"current_range_meters":16400,"station_id":"","pricing_plan_id":"cebpf4jnsgd1na2vs0mg"},{"bike_id":"99d9d76d-d94f-48e3-abc3-f50dd41e3269","system_id":"levelo_inurba_marseille","lat":43.31144,"lon":5.38336,"is_reserved":false,"is_disabled":false,"rental_uris":{"android":"levelo://app?vid=99d9d76d-d94f-48e3-abc3-f50dd41e3269","ios":"levelo://app?vid=99d9d76d-d94f-48e3-abc3-f50dd41e3269"},"vehicle_type_id":"4","last_reported":1762787541,"current_range_meters":16400,"station_id":"","pricing_plan_id":"cebpf4jnsgd1na2vs0mg"},{"bike_id":"6402f343-52db-4e59-a9ed-00c0639c9fd8","system_id":"levelo_inurba_marseille","lat":43.29615,"lon":5.37717,"is_reserved":false,"is_disabled":false,"rental_uris":{"android":"levelo://app?vid=6402f343-52db-4e59-a9ed-00c0639c9fd8","ios":"levelo://app?vid=6402f343-52db-4e59-a9ed-00c0639c9fd8"},"vehicle_type_id":"4","last_reported":1762787541,"current_range_meters":16400,"station_id":"ce4bgi92rcd13ifvqb90","pricing_plan_id":"cebpf4jnsgd1na2vs0mg"},{"bike_id":"a33005c1-f643-4adb-8bee-fa011c7be68c","system_id":"levelo_inurba_marseille","lat":43.225311,"lon":5.348257,"is_reserved":false,"is_disabled":false,"rental_uris":{"android":"levelo://app?vid=a33005c1-f643-4adb-8bee-fa011c7be68c","ios":"levelo://app?vid=a33005c1-f643-4adb-8bee-fa011c7be68c"},"vehicle_type_id":"4","last_reported":1762787541,"current_range_meters":16400,"station_id":"","pricing_plan_id":"cebpf4jnsgd1na2vs0mg"},{"bike_id":"4ffe237b-78e9-497c-9437-bdaf4115622b","system_id":"levelo_inurba_marseille","lat":43.29591,"lon":5.3811,"is_reserved":false,"is_disabled":false,"rental_uris":{"android":"levelo://app?vid=4ffe237b-78e9-497c-9437-bdaf4115622b","ios":"levelo://app?vid=4ffe237b-78e9-497c-9437-bdaf4115622b"},"vehicle_type_id":"4","last_reported":1762787541,"current_range_meters":16400,"station_id":"ce4bgl12rcd13ifvqbo0","pricing_plan_id":"cebpf4jnsgd1na2vs0mg"},{"bike_id":"0001f610-ee0b-4dfa-a101-19ef82b4afb7","system_id":"levelo_inurba_marseille","lat":43.29811,"lon":5.44076,"is_reserved":false,"is_disabled":false,"rental_uris":{"android":"levelo://app?vid=0001f610-ee0b-4dfa-a101-19ef82b4afb7","ios":"levelo://app?vid=0001f610-ee0b-4dfa-a101-19ef82b4afb7"},"vehicle_type_id":"4","last_reported":1762787541,"current_range_meters":16400,"station_id":"st_d3jp68qikq2c7381ktn0","pricing_plan_id":"cebpf4jnsgd1na2vs0mg"},{"bike_id":"096cdd72-f6cf-4a1a-9fed-102492f9041f","system_id":"levelo_inurba_marseille","lat":43.23183,"lon":5.39975,"is_reserved":false,"is_disabled":false,"rental_uris":{"android":"levelo://app?vid=096cdd72-f6cf-4a1a-9fed-102492f9041f","ios":"levelo://app?vid=096cdd72-f6cf-4a1a-9fed-102492f9041f"},"vehicle_type_id":"4","last_reported":1762787541,"current_range_meters":16400,"station_id":"ce4bhn12rcd13ifvqgqg","pricing_plan_id":"cebpf4jnsgd1na2vs0mg"},{"bike_id":"8db29058-1744-4cee-9b65-4519fa9c98ac","system_id":"levelo_inurba_marseille","lat":43.21748,"lon":5.34604,"is_reserved":false,"is_disabled":false,"rental_uris":{"android":"levelo://app?vid=8db29058-1744-4cee-9b65-4519fa9c98ac","ios":"levelo://app?vid=8db29058-1744-4cee-9b65-4519fa9c98ac"},"vehicle_type_id":"4","last_reported":1762787541,"current_range_meters":16800,"station_id":"st_cvj6r9ubvosntc0bgbag","pricing_plan_id":"cebpf4jnsgd1na2vs0mg"},{"bike_id":"eb981f96-c1a6-4158-ab39-357b040342db","system_id":"levelo_inurba_marseille","lat":43.27499,"lon":5.42457,"is_reserved":false,"is_disabled":false,"rental_uris":{"android":"levelo://app?vid=eb981f96-c1a6-4158-ab39-357b040342db","ios":"levelo://app?vid=eb981f96-c1a6-4158-ab39-357b040342db"},"vehicle_type_id":"4","last_reported":1762787541,"current_range_meters":16800,"station_id":"ce4bhn92rcd13ifvqgrg","pricing_plan_id":"cebpf4jnsgd1na2vs0mg"},{"bike_id":"42bbdb4f-c9b7-4299-b4a6-0178a6a32bf3","system_id":"levelo_inurba_marseille","lat":43.31832,"lon":5.37392,"is_reserved":false,"is_disabled":false,"rental_uris":{"android":"levelo://app?vid=42bbdb4f-c9b7-4299-b4a6-0178a6a32bf3","ios":"levelo://app?vid=42bbdb4f-c9b7-4299-b4a6-0178a6a32bf3"},"vehicle_type_id":"4","last_reported":1762787541,"current_range_meters":16800,"station_id":"","pricing_plan_id":"cebpf4jnsgd1na2vs0mg"},{"bike_id":"9d9191b0-d53e-4117-b688-275a1987775b","system_id":"levelo_inurba_marseille","lat":43.30131,"lon":5.38096,"is_reserved":false,"is_disabled":false,"rental_uris":{"android":"levelo://app?vid=9d9191b0-d53e-4117-b688-275a1987775b","ios":"levelo://app?vid=9d9191b0-d53e-4117-b688-275a1987775b"},"vehicle_type_id":"4","last_reported":1762787541,"current_range_meters":16800,"station_id":"ce4bgjp2rcd13ifvqbh0","pricing_plan_id":"cebpf4jnsgd1na2vs0mg"},{"bike_id":"382626dc-3189-45f7-89ad-6443fee51444","system_id":"levelo_inurba_marseille","lat":43.31272,"lon":5.36893,"is_reserved":false,"is_disabled":false,"rental_uris":{"android":"levelo://app?vid=382626dc-3189-45f7-89ad-6443fee51444","ios":"levelo://app?vid=382626dc-3189-45f7-89ad-6443fee51444"},"vehicle_type_id":"4","last_reported":1762787541,"current_range_meters":16800,"station_id":"","pricing_plan_id":"cebpf4jnsgd1na2vs0mg"},{"bike_id":"15df3c79-2f72-4a3f-8348-2f9b539adc13","system_id":"levelo_inurba_marseille","lat":43.278359,"lon":5.392097,"is_reserved":false,"is_disabled":false,"rental_uris":{"android":"levelo://app?vid=15df3c79-2f72-4a3f-8348-2f9b539adc13","ios":"levelo://app?vid=15df3c79-2f72-4a3f-8348-2f9b539adc13"},"vehicle_type_id":"4","last_reported":1762787541,"current_range_meters":16800,"station_id":"ce4bhjp2rcd13ifvqga0","pricing_plan_id":"cebpf4jnsgd1na2vs0mg"},{"bike_id":"8080a750-e8d0-42d3-bb50-5b10571ecdaa","system_id":"levelo_inurba_marseille","lat":43.29601,"lon":5.38088,"is_reserved":false,"is_disabled":false,"rental_uris":{"android":"levelo://app?vid=8080a750-e8d0-42d3-bb50-5b10571ecdaa","ios":"levelo://app?vid=8080a750-e8d0-42d3-bb50-5b10571ecdaa"},"vehicle_type_id":"4","last_reported":1762787541,"current_range_meters":16800,"station_id":"ce4bgl12rcd13ifvqbo0","pricing_plan_id":"cebpf4jnsgd1na2vs0mg"},{"bike_id":"685504c9-529c-41f2-b51c-89d2757ecdfc","system_id":"levelo_inurba_marseille","lat":43.28657,"lon":5.36357,"is_reserved":false,"is_disabled":false,"rental_uris":{"android":"levelo://app?vid=685504c9-529c-41f2-b51c-89d2757ecdfc","ios":"levelo://app?vid=685504c9-529c-41f2-b51c-89d2757ecdfc"},"vehicle_type_id":"4","last_reported":1762787541,"current_range_meters":16800,"station_id":"ce4bhah2rcd13ifvqej0","pricing_plan_id":"cebpf4jnsgd1na2vs0mg"},{"bike_id":"c751869d-88d7-4ecc-ad3b-3b4fb67325a0","system_id":"levelo_inurba_marseille","lat":43.28717,"lon":5.36088,"is_reserved":false,"is_disabled":false,"rental_uris":{"android":"levelo://app?vid=c751869d-88d7-4ecc-ad3b-3b4fb67325a0","ios":"levelo://app?vid=c751869d-88d7-4ecc-ad3b-3b4fb67325a0"},"vehicle_type_id":"4","last_reported":1762787541,"current_range_meters":16800,"station_id":"cki0cbj6b192h4jlfktg","pricing_plan_id":"cebpf4jnsgd1na2vs0mg"},{"bike_id":"180a70a9-8924-4885-9ca3-10c578c02589","system_id":"levelo_inurba_marseille","lat":43.22522,"lon":5.34841,"is_reserved":false,"is_disabled":false,"rental_uris":{"android":"levelo://app?vid=180a70a9-8924-4885-9ca3-10c578c02589","ios":"levelo://app?vid=180a70a9-8924-4885-9ca3-10c578c02589"},"vehicle_type_id":"4","last_reported":1762787541,"current_range_meters":16800,"station_id":"","pricing_plan_id":"cebpf4jnsgd1na2vs0mg"},{"bike_id":"9bb03971-d451-4bf5-aa8e-213181bb15c5","system_id":"levelo_inurba_marseille","lat":43.29918,"lon":5.37468,"is_reserved":false,"is_disabled":false,"rental_uris":{"android":"levelo://app?vid=9bb03971-d451-4bf5-aa8e-213181bb15c5","ios":"levelo://app?vid=9bb03971-d451-4bf5-aa8e-213181bb15c5"},"vehicle_type_id":"4","last_reported":1762787541,"current_range_meters":16800,"station_id":"ce4bgjh2rcd13ifvqbg0","pricing_plan_id":"cebpf4jnsgd1na2vs0mg"},{"bike_id":"3f0a6089-21f3-4bb4-8a67-647cbbbfb9bc","system_id":"levelo_inurba_marseille","lat":43.27991,"lon":5.41655,"is_reserved":false,"is_disabled":false,"rental_uris":{"android":"levelo://app?vid=3f0a6089-21f3-4bb4-8a67-647cbbbfb9bc","ios":"levelo://app?vid=3f0a6089-21f3-4bb4-8a67-647cbbbfb9bc"},"vehicle_type_id":"4","last_reported":1762787541,"current_range_meters":16800,"station_id":"ce4bho12rcd13ifvqh1g","pricing_plan_id":"cebpf4jnsgd1na2vs0mg"},{"bike_id":"c80766a6-aa9a-4c09-88b6-397546065fcc","system_id":"levelo_inurba_marseille","lat":43.231988,"lon":5.355498,"is_reserved":false,"is_disabled":false,"rental_uris":{"android":"levelo://app?vid=c80766a6-aa9a-4c09-88b6-397546065fcc","ios":"levelo://app?vid=c80766a6-aa9a-4c09-88b6-397546065fcc"},"vehicle_type_id":"4","last_reported":1762787541,"current_range_meters":17200,"station_id":"ce4bhu92rcd13ifvqi70","pricing_plan_id":"cebpf4jnsgd1na2vs0mg"},{"bike_id":"4cae9d5c-a24c-41f1-9f54-aaa487e732a6","system_id":"levelo_inurba_marseille","lat":43.2995,"lon":5.38198,"is_reserved":false,"is_disabled":false,"rental_uris":{"android":"levelo://app?vid=4cae9d5c-a24c-41f1-9f54-aaa487e732a6","ios":"levelo://app?vid=4cae9d5c-a24c-41f1-9f54-aaa487e732a6"},"vehicle_type_id":"4","last_reported":1762787541,"current_range_meters":17200,"station_id":"","pricing_plan_id":"cebpf4jnsgd1na2vs0mg"},{"bike_id":"6ae87b41-3981-4b69-b43c-0b6bde62265a","system_id":"levelo_inurba_marseille","lat":43.33777,"lon":5.37436,"is_reserved":false,"is_disabled":false,"rental_uris":{"android":"levelo://app?vid=6ae87b41-3981-4b69-b43c-0b6bde62265a","ios":"levelo://app?vid=6ae87b41-3981-4b69-b43c-0b6bde62265a"},"vehicle_type_id":"4","last_reported":1762787541,"current_range_meters":17200,"station_id":"","pricing_plan_id":"cebpf4jnsgd1na2vs0mg"},{"bike_id":"122bdab4-68f6-41de-a130-9cd3d01ccdfd","system_id":"levelo_inurba_marseille","lat":43.22533,"lon":5.34829,"is_reserved":false,"is_disabled":false,"rental_uris":{"android":"levelo://app?vid=122bdab4-68f6-41de-a130-9cd3d01ccdfd","ios":"levelo://app?vid=122bdab4-68f6-41de-a130-9cd3d01ccdfd"},"vehicle_type_id":"4","last_reported":1762787541,"current_range_meters":17200,"station_id":"","pricing_plan_id":"cebpf4jnsgd1na2vs0mg"},{"bike_id":"3e7bbb98-77d7-4b96-995c-d3e56f12c51d","system_id":"levelo_inurba_marseille","lat":43.2176,"lon":5.34611,"is_reserved":false,"is_disabled":false,"rental_uris":{"android":"levelo://app?vid=3e7bbb98-77d7-4b96-995c-d3e56f12c51d","ios":"levelo://app?vid=3e7bbb98-77d7-4b96-995c-d3e56f12c51d"},"vehicle_type_id":"4","last_reported":1762787541,"current_range_meters":17200,"station_id":"st_cvj6r9ubvosntc0bgbag","pricing_plan_id":"cebpf4jnsgd1na2vs0mg"},{"bike_id":"b15275c6-e462-4a0a-8caf-77a2cc56d365","system_id":"levelo_inurba_marseille","lat":43.2119,"lon":5.35087,"is_reserved":false,"is_disabled":false,"rental_uris":{"android":"levelo://app?vid=b15275c6-e462-4a0a-8caf-77a2cc56d365","ios":"levelo://app?vid=b15275c6-e462-4a0a-8caf-77a2cc56d365"},"vehicle_type_id":"4","last_reported":1762787541,"current_range_meters":17200,"station_id":"st_cvj6sg6p6f1abm77japg","pricing_plan_id":"cebpf4jnsgd1na2vs0mg"},{"bike_id":"bb816589-0d32-45db-b2bc-85b9feb905a7","system_id":"levelo_inurba_marseille","lat":43.266364,"lon":5.372815,"is_reserved":false,"is_disabled":false,"rental_uris":{"android":"levelo://app?vid=bb816589-0d32-45db-b2bc-85b9feb905a7","ios":"levelo://app?vid=bb816589-0d32-45db-b2bc-85b9feb905a7"},"vehicle_type_id":"4","last_reported":1762787541,"current_range_meters":17200,"station_id":"ce4bhgh2rcd13ifvqfb0","pricing_plan_id":"cebpf4jnsgd1na2vs0mg"},{"bike_id":"2d923850-5cac-4c36-a577-62a0741b2f3f","system_id":"levelo_inurba_marseille","lat":43.30522,"lon":5.36547,"is_reserved":false,"is_disabled":false,"rental_uris":{"android":"levelo://app?vid=2d923850-5cac-4c36-a577-62a0741b2f3f","ios":"levelo://app?vid=2d923850-5cac-4c36-a577-62a0741b2f3f"},"vehicle_type_id":"4","last_reported":1762787541,"current_range_meters":17200,"station_id":"ce4bgs12rcd13ifvqcag","pricing_plan_id":"cebpf4jnsgd1na2vs0mg"},{"bike_id":"1a204aeb-aebf-4883-b76a-71f13f092c75","system_id":"levelo_inurba_marseille","lat":43.243783,"lon":5.370428,"is_reserved":false,"is_disabled":false,"rental_uris":{"android":"levelo://app?vid=1a204aeb-aebf-4883-b76a-71f13f092c75","ios":"levelo://app?vid=1a204aeb-aebf-4883-b76a-71f13f092c75"},"vehicle_type_id":"4","last_reported":1762787541,"current_range_meters":17200,"station_id":"ce4bhhh2rcd13ifvqfk0","pricing_plan_id":"cebpf4jnsgd1na2vs0mg"},{"bike_id":"e4bfe553-5895-4ca7-982c-c71dd3da9dde","system_id":"levelo_inurba_marseille","lat":43.29935,"lon":5.36537,"is_reserved":false,"is_disabled":false,"rental_uris":{"android":"levelo://app?vid=e4bfe553-5895-4ca7-982c-c71dd3da9dde","ios":"levelo://app?vid=e4bfe553-5895-4ca7-982c-c71dd3da9dde"},"vehicle_type_id":"4","last_reported":1762787541,"current_range_meters":17200,"station_id":"ce4bgm92rcd13ifvqbr0","pricing_plan_id":"cebpf4jnsgd1na2vs0mg"},{"bike_id":"cba9f694-c518-45b9-9e20-3c9e59e5b97b","system_id":"levelo_inurba_marseille","lat":43.2657,"lon":5.39013,"is_reserved":false,"is_disabled":false,"rental_uris":{"android":"levelo://app?vid=cba9f694-c518-45b9-9e20-3c9e59e5b97b","ios":"levelo://app?vid=cba9f694-c518-45b9-9e20-3c9e59e5b97b"},"vehicle_type_id":"4","last_reported":1762787541,"current_range_meters":17200,"station_id":"ce4bhe12rcd13ifvqf30","pricing_plan_id":"cebpf4jnsgd1na2vs0mg"},{"bike_id":"9b074fe4-3bb3-4006-bfd4-2e3156b0f4f1","system_id":"levelo_inurba_marseille","lat":43.29851,"lon":5.36297,"is_reserved":false,"is_disabled":false,"rental_uris":{"android":"levelo://app?vid=9b074fe4-3bb3-4006-bfd4-2e3156b0f4f1","ios":"levelo://app?vid=9b074fe4-3bb3-4006-bfd4-2e3156b0f4f1"},"vehicle_type_id":"4","last_reported":1762787541,"current_range_meters":17600,"station_id":"ce4bgpp2rcd13ifvqc3g","pricing_plan_id":"cebpf4jnsgd1na2vs0mg"},{"bike_id":"09880af0-899c-427e-bfec-ab0fdb229c89","system_id":"levelo_inurba_marseille","lat":43.30894,"lon":5.3674,"is_reserved":false,"is_disabled":false,"rental_uris":{"android":"levelo://app?vid=09880af0-899c-427e-bfec-ab0fdb229c89","ios":"levelo://app?vid=09880af0-899c-427e-bfec-ab0fdb229c89"},"vehicle_type_id":"4","last_reported":1762787541,"current_range_meters":17600,"station_id":"","pricing_plan_id":"cebpf4jnsgd1na2vs0mg"},{"bike_id":"13b4322c-2fe4-4956-a350-0203d4ba8179","system_id":"levelo_inurba_marseille","lat":43.24393,"lon":5.37068,"is_reserved":false,"is_disabled":false,"rental_uris":{"android":"levelo://app?vid=13b4322c-2fe4-4956-a350-0203d4ba8179","ios":"levelo://app?vid=13b4322c-2fe4-4956-a350-0203d4ba8179"},"vehicle_type_id":"4","last_reported":1762787541,"current_range_meters":17600,"station_id":"ce4bhhh2rcd13ifvqfk0","pricing_plan_id":"cebpf4jnsgd1na2vs0mg"},{"bike_id":"a1841d02-b053-4f88-89ac-a2a3e0997d3f","system_id":"levelo_inurba_marseille","lat":43.21747,"lon":5.34618,"is_reserved":false,"is_disabled":false,"rental_uris":{"android":"levelo://app?vid=a1841d02-b053-4f88-89ac-a2a3e0997d3f","ios":"levelo://app?vid=a1841d02-b053-4f88-89ac-a2a3e0997d3f"},"vehicle_type_id":"4","last_reported":1762787541,"current_range_meters":17600,"station_id":"st_cvj6r9ubvosntc0bgbag","pricing_plan_id":"cebpf4jnsgd1na2vs0mg"},{"bike_id":"5eb28dc9-1056-4fe2-a3f0-4c13efc57df0","system_id":"levelo_inurba_marseille","lat":43.25934,"lon":5.40869,"is_reserved":false,"is_disabled":true,"rental_uris":{"android":"levelo://app?vid=5eb28dc9-1056-4fe2-a3f0-4c13efc57df0","ios":"levelo://app?vid=5eb28dc9-1056-4fe2-a3f0-4c13efc57df0"},"vehicle_type_id":"4","last_reported":1762787541,"current_range_meters":17600,"station_id":"ce4bhm92rcd13ifvqglg","pricing_plan_id":"cebpf4jnsgd1na2vs0mg"},{"bike_id":"4fb09423-6e9f-4762-8def-3e18c2268bab","system_id":"levelo_inurba_marseille","lat":43.25504,"lon":5.37654,"is_reserved":false,"is_disabled":false,"rental_uris":{"android":"levelo://app?vid=4fb09423-6e9f-4762-8def-3e18c2268bab","ios":"levelo://app?vid=4fb09423-6e9f-4762-8def-3e18c2268bab"},"vehicle_type_id":"4","last_reported":1762787541,"current_range_meters":17600,"station_id":"ce4bhh12rcd13ifvqff0","pricing_plan_id":"cebpf4jnsgd1na2vs0mg"},{"bike_id":"339719f7-df72-4245-8395-f7ad2766da21","system_id":"levelo_inurba_marseille","lat":43.31272,"lon":5.40175,"is_reserved":false,"is_disabled":false,"rental_uris":{"android":"levelo://app?vid=339719f7-df72-4245-8395-f7ad2766da21","ios":"levelo://app?vid=339719f7-df72-4245-8395-f7ad2766da21"},"vehicle_type_id":"4","last_reported":1762787541,"current_range_meters":17600,"station_id":"ce4bh092rcd13ifvqd30","pricing_plan_id":"cebpf4jnsgd1na2vs0mg"},{"bike_id":"b26db2f1-15af-44f4-bd67-f27eff0f69ff","system_id":"levelo_inurba_marseille","lat":43.28776,"lon":5.39011,"is_reserved":false,"is_disabled":false,"rental_uris":{"android":"levelo://app?vid=b26db2f1-15af-44f4-bd67-f27eff0f69ff","ios":"levelo://app?vid=b26db2f1-15af-44f4-bd67-f27eff0f69ff"},"vehicle_type_id":"4","last_reported":1762787541,"current_range_meters":17600,"station_id":"","pricing_plan_id":"cebpf4jnsgd1na2vs0mg"},{"bike_id":"851e52a7-7701-41a2-9335-4b4a9404896b","system_id":"levelo_inurba_marseille","lat":43.29793,"lon":5.44141,"is_reserved":false,"is_disabled":false,"rental_uris":{"android":"levelo://app?vid=851e52a7-7701-41a2-9335-4b4a9404896b","ios":"levelo://app?vid=851e52a7-7701-41a2-9335-4b4a9404896b"},"vehicle_type_id":"4","last_reported":1762787541,"current_range_meters":17600,"station_id":"","pricing_plan_id":"cebpf4jnsgd1na2vs0mg"},{"bike_id":"caaab188-0d3e-4fb6-b5b5-cdaa985e6304","system_id":"levelo_inurba_marseille","lat":43.297066,"lon":5.366037,"is_reserved":false,"is_disabled":false,"rental_uris":{"android":"levelo://app?vid=caaab188-0d3e-4fb6-b5b5-cdaa985e6304","ios":"levelo://app?vid=caaab188-0d3e-4fb6-b5b5-cdaa985e6304"},"vehicle_type_id":"4","last_reported":1762787541,"current_range_meters":17600,"station_id":"ce4bgn12rcd13ifvqbt0","pricing_plan_id":"cebpf4jnsgd1na2vs0mg"},{"bike_id":"306478e9-2ed4-4015-b56a-68f16aa9607d","system_id":"levelo_inurba_marseille","lat":43.33608,"lon":5.41033,"is_reserved":false,"is_disabled":false,"rental_uris":{"android":"levelo://app?vid=306478e9-2ed4-4015-b56a-68f16aa9607d","ios":"levelo://app?vid=306478e9-2ed4-4015-b56a-68f16aa9607d"},"vehicle_type_id":"4","last_reported":1762787541,"current_range_meters":17600,"station_id":"ce4bhqh2rcd13ifvqhmg","pricing_plan_id":"cebpf4jnsgd1na2vs0mg"},{"bike_id":"d610cd16-c813-406e-bee7-295ec8ce6047","system_id":"levelo_inurba_marseille","lat":43.33742,"lon":5.37456,"is_reserved":false,"is_disabled":false,"rental_uris":{"android":"levelo://app?vid=d610cd16-c813-406e-bee7-295ec8ce6047","ios":"levelo://app?vid=d610cd16-c813-406e-bee7-295ec8ce6047"},"vehicle_type_id":"4","last_reported":1762787541,"current_range_meters":18000,"station_id":"","pricing_plan_id":"cebpf4jnsgd1na2vs0mg"},{"bike_id":"bacbce03-277f-4b77-bb9c-fa027a96e003","system_id":"levelo_inurba_marseille","lat":43.2174,"lon":5.34606,"is_reserved":false,"is_disabled":false,"rental_uris":{"android":"levelo://app?vid=bacbce03-277f-4b77-bb9c-fa027a96e003","ios":"levelo://app?vid=bacbce03-277f-4b77-bb9c-fa027a96e003"},"vehicle_type_id":"4","last_reported":1762787541,"current_range_meters":18000,"station_id":"st_cvj6r9ubvosntc0bgbag","pricing_plan_id":"cebpf4jnsgd1na2vs0mg"},{"bike_id":"d900c339-5489-4108-89e5-9b53f0f4d1db","system_id":"levelo_inurba_marseille","lat":43.225329,"lon":5.348353,"is_reserved":false,"is_disabled":false,"rental_uris":{"android":"levelo://app?vid=d900c339-5489-4108-89e5-9b53f0f4d1db","ios":"levelo://app?vid=d900c339-5489-4108-89e5-9b53f0f4d1db"},"vehicle_type_id":"4","last_reported":1762787541,"current_range_meters":18000,"station_id":"","pricing_plan_id":"cebpf4jnsgd1na2vs0mg"},{"bike_id":"7bb20222-522b-46eb-a2bc-450ced48fb38","system_id":"levelo_inurba_marseille","lat":43.31515,"lon":5.37264,"is_reserved":false,"is_disabled":false,"rental_uris":{"android":"levelo://app?vid=7bb20222-522b-46eb-a2bc-450ced48fb38","ios":"levelo://app?vid=7bb20222-522b-46eb-a2bc-450ced48fb38"},"vehicle_type_id":"4","last_reported":1762787541,"current_range_meters":18000,"station_id":"ce4bgt12rcd13ifvqcd0","pricing_plan_id":"cebpf4jnsgd1na2vs0mg"},{"bike_id":"a061ccf7-8f15-4c7e-8d2a-9552220c3a26","system_id":"levelo_inurba_marseille","lat":43.29867,"lon":5.39733,"is_reserved":false,"is_disabled":false,"rental_uris":{"android":"levelo://app?vid=a061ccf7-8f15-4c7e-8d2a-9552220c3a26","ios":"levelo://app?vid=a061ccf7-8f15-4c7e-8d2a-9552220c3a26"},"vehicle_type_id":"4","last_reported":1762787541,"current_range_meters":18000,"station_id":"ce4bh0h2rcd13ifvqd50","pricing_plan_id":"cebpf4jnsgd1na2vs0mg"},{"bike_id":"1cedf961-91a0-49bb-b0bc-fb49c375052c","system_id":"levelo_inurba_marseille","lat":43.242,"lon":5.36367,"is_reserved":false,"is_disabled":false,"rental_uris":{"android":"levelo://app?vid=1cedf961-91a0-49bb-b0bc-fb49c375052c","ios":"levelo://app?vid=1cedf961-91a0-49bb-b0bc-fb49c375052c"},"vehicle_type_id":"4","last_reported":1762787541,"current_range_meters":18000,"station_id":"cpo36qri1sfpv3e86is0","pricing_plan_id":"cebpf4jnsgd1na2vs0mg"},{"bike_id":"96d132e6-f9ce-4bce-a02d-cee681ed88c4","system_id":"levelo_inurba_marseille","lat":43.26181,"lon":5.40409,"is_reserved":false,"is_disabled":false,"rental_uris":{"android":"levelo://app?vid=96d132e6-f9ce-4bce-a02d-cee681ed88c4","ios":"levelo://app?vid=96d132e6-f9ce-4bce-a02d-cee681ed88c4"},"vehicle_type_id":"4","last_reported":1762787541,"current_range_meters":18800,"station_id":"","pricing_plan_id":"cebpf4jnsgd1na2vs0mg"},{"bike_id":"e2ae78b6-0e45-4d14-be67-9fe3a6a70a8e","system_id":"levelo_inurba_marseille","lat":43.28984,"lon":5.37835,"is_reserved":false,"is_disabled":true,"rental_uris":{"android":"levelo://app?vid=e2ae78b6-0e45-4d14-be67-9fe3a6a70a8e","ios":"levelo://app?vid=e2ae78b6-0e45-4d14-be67-9fe3a6a70a8e"},"vehicle_type_id":"4","last_reported":1762787541,"current_range_meters":18800,"station_id":"ce4bh9p2rcd13ifvqed0","pricing_plan_id":"cebpf4jnsgd1na2vs0mg"},{"bike_id":"90e060b1-380f-4d52-bacc-2b625cc89e6b","system_id":"levelo_inurba_marseille","lat":43.28612,"lon":5.37062,"is_reserved":false,"is_disabled":false,"rental_uris":{"android":"levelo://app?vid=90e060b1-380f-4d52-bacc-2b625cc89e6b","ios":"levelo://app?vid=90e060b1-380f-4d52-bacc-2b625cc89e6b"},"vehicle_type_id":"4","last_reported":1762787541,"current_range_meters":18800,"station_id":"ce4bht12rcd13ifvqi60","pricing_plan_id":"cebpf4jnsgd1na2vs0mg"},{"bike_id":"03a83275-e54f-4e8b-afa5-0797e4a4dcde","system_id":"levelo_inurba_marseille","lat":43.24069,"lon":5.3776,"is_reserved":false,"is_disabled":false,"rental_uris":{"android":"levelo://app?vid=03a83275-e54f-4e8b-afa5-0797e4a4dcde","ios":"levelo://app?vid=03a83275-e54f-4e8b-afa5-0797e4a4dcde"},"vehicle_type_id":"4","last_reported":1762787541,"current_range_meters":18800,"station_id":"ce4bhnp2rcd13ifvqgvg","pricing_plan_id":"cebpf4jnsgd1na2vs0mg"},{"bike_id":"a46223ec-e9b1-441d-9ec5-1853d61928e3","system_id":"levelo_inurba_marseille","lat":43.24014,"lon":5.37759,"is_reserved":false,"is_disabled":false,"rental_uris":{"android":"levelo://app?vid=a46223ec-e9b1-441d-9ec5-1853d61928e3","ios":"levelo://app?vid=a46223ec-e9b1-441d-9ec5-1853d61928e3"},"vehicle_type_id":"4","last_reported":1762787541,"current_range_meters":18800,"station_id":"","pricing_plan_id":"cebpf4jnsgd1na2vs0mg"},{"bike_id":"e2104b6a-7e12-4a20-ae1b-cf4b446d5e26","system_id":"levelo_inurba_marseille","lat":43.28483,"lon":5.48396,"is_reserved":false,"is_disabled":false,"rental_uris":{"android":"levelo://app?vid=e2104b6a-7e12-4a20-ae1b-cf4b446d5e26","ios":"levelo://app?vid=e2104b6a-7e12-4a20-ae1b-cf4b446d5e26"},