{"last_updated":1718388671,"ttl":30,"version":"2.2","data":{"bikes":[{"bike_id":"292c5e61-3acb-4d59-9b28-0c751474b0c4","system_id":"levelo_inurba_marseille","lat":43.31219,"lon":5.36863,"is_reserved":false,"is_disabled":false,"rental_uris":{"android":"levelo://app?vid=292c5e61-3acb-4d59-9b28-0c751474b0c4","ios":"levelo://app?vid=292c5e61-3acb-4d59-9b28-0c751474b0c4"},"vehicle_type_id":"4","last_reported":1718388671,"current_range_meters":0,"station_id":"ce4bgl92rcd13ifvqbq0","pricing_plan_id":"cebpf4jnsgd1na2vs0mg"},{"bike_id":"fdc0232f-9930-4700-b577-cad4c20d7a98","system_id":"levelo_inurba_marseille","lat":43.313401,"lon":5.370804,"is_reserved":false,"is_disabled":false,"rental_uris":{"android":"levelo://app?vid=fdc0232f-9930-4700-b577-cad4c20d7a98","ios":"levelo://app?vid=fdc0232f-9930-4700-b577-cad4c20d7a98"},"vehicle_type_id":"4","last_reported":1718388671,"current_range_meters":400,"station_id":"","pricing_plan_id":"cebpf4jnsgd1na2vs0mg"},{"bike_id":"712fc7eb-d32a-4e34-b881-6c03d05f987e","system_id":"levelo_inurba_marseille","lat":43.314811,"lon":5.373103,"is_reserved":false,"is_disabled":false,"rental_uris":{"android":"levelo://app?vid=712fc7eb-d32a-4e34-b881-6c03d05f987e","ios":"levelo://app?vid=712fc7eb-d32a-4e34-b881-6c03d05f987e"},"vehicle_type_id":"4","last_reported":1718388671,"current_range_meters":0,"station_id":"ce4bgt12rcd13ifvqcd0","pricing_plan_id":"cebpf4jnsgd1na2vs0mg"},{"bike_id":"cdef2d2b-da2a-40bb-8192-ffae15547624","system_id":"levelo_inurba_marseille","lat":43.314811,"lon":5.373104,"is_reserved":false,"is_disabled":false,"rental_uris":{"android":"levelo://app?vid=cdef2d2b-da2a-40bb-8192-ffae15547624","ios":"levelo://app?vid=cdef2d2b-da2a-40bb-8192-ffae15547624"},"vehicle_type_id":"4","last_reported":1718388671,"current_range_meters":23200,"station_id":"ce4bgt12rcd13ifvqcd0","pricing_plan_id":"cebpf4jnsgd1na2vs0mg"},{"bike_id":"9c8c90c0-7148-42ae-ac61-879cc75c7e6f","system_id":"levelo_inurba_marseille","lat":43.314811,"lon":5.373104,"is_reserved":false,"is_disabled":false,"rental_uris":{"android":"levelo://app?vid=9c8c90c0-7148-42ae-ac61-879cc75c7e6f","ios":"levelo://app?vid=9c8c90c0-7148-42ae-ac61-879cc75c7e6f"},"vehicle_type_id":"4","last_reported":1718388671,"current_range_meters":8800,"station_id":"ce4bgt12rcd13ifvqcd0","pricing_plan_id":"cebpf4jnsgd1na2vs0mg"},{"bike_id":"41bd7bd6-3beb-4e46-8f74-2728a60e7d60","system_id":"levelo_inurba_marseille","lat":43.305706,"lon":5.365654,"is_reserved":false,"is_disabled":false,"rental_uris":{"android":"levelo://app?vid=41bd7bd6-3beb-4e46-8f74-2728a60e7d60","ios":"levelo://app?vid=41bd7bd6-3beb-4e46-8f74-2728a60e7d60"},"vehicle_type_id":"4","last_reported":1718388671,"current_range_meters":28800,"station_id":"ce4bgs12rcd13ifvqcag","pricing_plan_id":"cebpf4jnsgd1na2vs0mg"},{"bike_id":"6d0e0ec4-6dd3-422e-93b9-451bcf80c0c1","system_id":"levelo_inurba_marseille","lat":43.30512,"lon":5.37097,"is_reserved":false,"is_disabled":false,"rental_uris":{"android":"levelo://app?vid=6d0e0ec4-6dd3-422e-93b9-451bcf80c0c1","ios":"levelo://app?vid=6d0e0ec4-6dd3-422e-93b9-451bcf80c0c1"},"vehicle_type_id":"4","last_reported":1718388671,"current_range_meters":0,"station_id":"","pricing_plan_id":"cebpf4jnsgd1na2vs0mg"},{"bike_id":"7093b036-8223-4576-8cad-1cea0ff2d104","system_id":"levelo_inurba_marseille","lat":43.30984,"lon":5.377588,"is_reserved":false,"is_disabled":false,"rental_uris":{"android":"levelo://app?vid=7093b036-8223-4576-8cad-1cea0ff2d104","ios":"levelo://app?vid=7093b036-8223-4576-8cad-1cea0ff2d104"},"vehicle_type_id":"4","last_reported":1718388671,"current_range_meters":13600,"station_id":"","pricing_plan_id":"cebpf4jnsgd1na2vs0mg"},{"bike_id":"a59019b9-7b27-4cf9-95d2-0d70177b6a16","system_id":"levelo_inurba_marseille","lat":43.31695,"lon":5.37748,"is_reserved":false,"is_disabled":false,"rental_uris":{"android":"levelo://app?vid=a59019b9-7b27-4cf9-95d2-0d70177b6a16","ios":"levelo://app?vid=a59019b9-7b27-4cf9-95d2-0d70177b6a16"},"vehicle_type_id":"4","last_reported":1718388671,"current_range_meters":0,"station_id":"ce4bgth2rcd13ifvqch0","pricing_plan_id":"cebpf4jnsgd1na2vs0mg"},{"bike_id":"650c7aae-0f10-446c-9b59-8e3eefb8e731","system_id":"levelo_inurba_marseille","lat":43.317075,"lon":5.377367,"is_reserved":false,"is_disabled":false,"rental_uris":{"android":"levelo://app?vid=650c7aae-0f10-446c-9b59-8e3eefb8e731","ios":"levelo://app?vid=650c7aae-0f10-446c-9b59-8e3eefb8e731"},"vehicle_type_id":"4","last_reported":1718388671,"current_range_meters":17200,"station_id":"ce4bgth2rcd13ifvqch0","pricing_plan_id":"cebpf4jnsgd1na2vs0mg"},{"bike_id":"06637d26-0994-4c3d-9833-a41196713d09","system_id":"levelo_inurba_marseille","lat":43.303033,"lon":5.36642,"is_reserved":false,"is_disabled":false,"rental_uris":{"android":"levelo://app?vid=06637d26-0994-4c3d-9833-a41196713d09","ios":"levelo://app?vid=06637d26-0994-4c3d-9833-a41196713d09"},"vehicle_type_id":"4","last_reported":1718388671,"current_range_meters":0,"station_id":"","pricing_plan_id":"cebpf4jnsgd1na2vs0mg"},{"bike_id":"1afa290f-f077-4848-a5e1-3857c80761f8","system_id":"levelo_inurba_marseille","lat":43.303046,"lon":5.368981,"is_reserved":false,"is_disabled":false,"rental_uris":{"android":"levelo://app?vid=1afa290f-f077-4848-a5e1-3857c80761f8","ios":"levelo://app?vid=1afa290f-f077-4848-a5e1-3857c80761f8"},"vehicle_type_id":"4","last_reported":1718388671,"current_range_meters":17200,"station_id":"ce4bgqh2rcd13ifvqc5g","pricing_plan_id":"cebpf4jnsgd1na2vs0mg"},{"bike_id":"58ebac3d-ed35-42e3-a8fd-30127893c3bd","system_id":"levelo_inurba_marseille","lat":43.30168,"lon":5.36643,"is_reserved":false,"is_disabled":false,"rental_uris":{"android":"levelo://app?vid=58ebac3d-ed35-42e3-a8fd-30127893c3bd","ios":"levelo://app?vid=58ebac3d-ed35-42e3-a8fd-30127893c3bd"},"vehicle_type_id":"4","last_reported":1718388671,"current_range_meters":12000,"station_id":"ce4bgrh2rcd13ifvqc8g","pricing_plan_id":"cebpf4jnsgd1na2vs0mg"},{"bike_id":"d11501b1-4909-4470-b21d-dfc8935f2963","system_id":"levelo_inurba_marseille","lat":43.308012,"lon":5.381511,"is_reserved":false,"is_disabled":false,"rental_uris":{"android":"levelo://app?vid=d11501b1-4909-4470-b21d-dfc8935f2963","ios":"levelo://app?vid=d11501b1-4909-4470-b21d-dfc8935f2963"},"vehicle_type_id":"4","last_reported":1718388671,"current_range_meters":18000,"station_id":"ce4bgt12rcd13ifvqce0","pricing_plan_id":"cebpf4jnsgd1na2vs0mg"},{"bike_id":"8817e6d0-e6f8-465b-b87c-40cb2d5b8107","system_id":"levelo_inurba_marseille","lat":43.30463,"lon":5.37895,"is_reserved":false,"is_disabled":false,"rental_uris":{"android":"levelo://app?vid=8817e6d0-e6f8-465b-b87c-40cb2d5b8107","ios":"levelo://app?vid=8817e6d0-e6f8-465b-b87c-40cb2d5b8107"},"vehicle_type_id":"4","last_reported":1718388671,"current_range_meters":0,"station_id":"ce4bgup2rcd13ifvqcn0","pricing_plan_id":"cebpf4jnsgd1na2vs0mg"},{"bike_id":"43803d32-0ecf-4e15-907b-3fd66f36aeee","system_id":"levelo_inurba_marseille","lat":43.304606,"lon":5.379026,"is_reserved":false,"is_disabled":false,"rental_uris":{"android":"levelo://app?vid=43803d32-0ecf-4e15-907b-3fd66f36aeee","ios":"levelo://app?vid=43803d32-0ecf-4e15-907b-3fd66f36aeee"},"vehicle_type_id":"4","last_reported":1718388671,"current_range_meters":0,"station_id":"ce4bgup2rcd13ifvqcn0","pricing_plan_id":"cebpf4jnsgd1na2vs0mg"},{"bike_id":"f79fc8f1-b964-4c6a-97aa-20008f0ccbd6","system_id":"levelo_inurba_marseille","lat":43.324771,"lon":5.36557,"is_reserved":false,"is_disabled":false,"rental_uris":{"android":"levelo://app?vid=f79fc8f1-b964-4c6a-97aa-20008f0ccbd6","ios":"levelo://app?vid=f79fc8f1-b964-4c6a-97aa-20008f0ccbd6"},"vehicle_type_id":"4","last_reported":1718388671,"current_range_meters":8400,"station_id":"ce4bhs12rcd13ifvqhvg","pricing_plan_id":"cebpf4jnsgd1na2vs0mg"},{"bike_id":"d1979c7b-5fb9-4f2f-ad8d-db16b7cdbb2f","system_id":"levelo_inurba_marseille","lat":43.324771,"lon":5.36557,"is_reserved":false,"is_disabled":false,"rental_uris":{"android":"levelo://app?vid=d1979c7b-5fb9-4f2f-ad8d-db16b7cdbb2f","ios":"levelo://app?vid=d1979c7b-5fb9-4f2f-ad8d-db16b7cdbb2f"},"vehicle_type_id":"4","last_reported":1718388671,"current_range_meters":8800,"station_id":"ce4bhs12rcd13ifvqhvg","pricing_plan_id":"cebpf4jnsgd1na2vs0mg"},{"bike_id":"e716aefd-c62b-4c19-ab42-7adb803b7b11","system_id":"levelo_inurba_marseille","lat":43.319884,"lon":5.38048,"is_reserved":false,"is_disabled":false,"rental_uris":{"android":"levelo://app?vid=e716aefd-c62b-4c19-ab42-7adb803b7b11","ios":"levelo://app?vid=e716aefd-c62b-4c19-ab42-7adb803b7b11"},"vehicle_type_id":"4","last_reported":1718388671,"current_range_meters":20000,"station_id":"","pricing_plan_id":"cebpf4jnsgd1na2vs0mg"},{"bike_id":"12c4534b-6180-47c1-800c-083b98d79c0c","system_id":"levelo_inurba_marseille","lat":43.31076,"lon":5.38359,"is_reserved":false,"is_disabled":false,"rental_uris":{"android":"levelo://app?vid=12c4534b-6180-47c1-800c-083b98d79c0c","ios":"levelo://app?vid=12c4534b-6180-47c1-800c-083b98d79c0c"},"vehicle_type_id":"4","last_reported":1718388671,"current_range_meters":0,"station_id":"ce4bgv92rcd13ifvqcr0","pricing_plan_id":"cebpf4jnsgd1na2vs0mg"},{"bike_id":"5d2cbb2b-ff33-4d3f-b4c7-a6aee2a7cccc","system_id":"levelo_inurba_marseille","lat":43.299222,"lon":5.365554,"is_reserved":false,"is_disabled":false,"rental_uris":{"android":"levelo://app?vid=5d2cbb2b-ff33-4d3f-b4c7-a6aee2a7cccc","ios":"levelo://app?vid=5d2cbb2b-ff33-4d3f-b4c7-a6aee2a7cccc"},"vehicle_type_id":"4","last_reported":1718388671,"current_range_meters":29200,"station_id":"ce4bgm92rcd13ifvqbr0","pricing_plan_id":"cebpf4jnsgd1na2vs0mg"},{"bike_id":"c8fa9472-de89-4380-a903-f2480572a9dd","system_id":"levelo_inurba_marseille","lat":43.319935,"lon":5.381699,"is_reserved":false,"is_disabled":false,"rental_uris":{"android":"levelo://app?vid=c8fa9472-de89-4380-a903-f2480572a9dd","ios":"levelo://app?vid=c8fa9472-de89-4380-a903-f2480572a9dd"},"vehicle_type_id":"4","last_reported":1718388671,"current_range_meters":2800,"station_id":"ce4bhr12rcd13ifvqhpg","pricing_plan_id":"cebpf4jnsgd1na2vs0mg"},{"bike_id":"3ca1d2eb-3c9a-4889-bdb9-89a67a26055a","system_id":"levelo_inurba_marseille","lat":43.319935,"lon":5.381699,"is_reserved":false,"is_disabled":false,"rental_uris":{"android":"levelo://app?vid=3ca1d2eb-3c9a-4889-bdb9-89a67a26055a","ios":"levelo://app?vid=3ca1d2eb-3c9a-4889-bdb9-89a67a26055a"},"vehicle_type_id":"4","last_reported":1718388671,"current_range_meters":10400,"station_id":"ce4bhr12rcd13ifvqhpg","pricing_plan_id":"cebpf4jnsgd1na2vs0mg"},{"bike_id":"5aae1c6e-c2c0-4aa6-85a3-6abac3ae2196","system_id":"levelo_inurba_marseille","lat":43.313571,"lon":5.384829,"is_reserved":false,"is_disabled":false,"rental_uris":{"android":"levelo://app?vid=5aae1c6e-c2c0-4aa6-85a3-6abac3ae2196","ios":"levelo://app?vid=5aae1c6e-c2c0-4aa6-85a3-6abac3ae2196"},"vehicle_type_id":"4","last_reported":1718388671,"current_range_meters":26000,"station_id":"ce4bgt92rcd13ifvqcf0","pricing_plan_id":"cebpf4jnsgd1na2vs0mg"},{"bike_id":"d7c4d6b4-5abf-4f52-9859-5574afd9db82","system_id":"levelo_inurba_marseille","lat":43.313571,"lon":5.384829,"is_reserved":false,"is_disabled":false,"rental_uris":{"android":"levelo://app?vid=d7c4d6b4-5abf-4f52-9859-5574afd9db82","ios":"levelo://app?vid=d7c4d6b4-5abf-4f52-9859-5574afd9db82"},"vehicle_type_id":"4","last_reported":1718388671,"current_range_meters":12800,"station_id":"ce4bgt92rcd13ifvqcf0","pricing_plan_id":"cebpf4jnsgd1na2vs0mg"},{"bike_id":"d09bce2f-84ea-4836-887b-f4ccae1ce01d","system_id":"levelo_inurba_marseille","lat":43.313571,"lon":5.384829,"is_reserved":false,"is_disabled":false,"rental_uris":{"android":"levelo://app?vid=d09bce2f-84ea-4836-887b-f4ccae1ce01d","ios":"levelo://app?vid=d09bce2f-84ea-4836-887b-f4ccae1ce01d"},"vehicle_type_id":"4","last_reported":1718388671,"current_range_meters":14800,"station_id":"ce4bgt92rcd13ifvqcf0","pricing_plan_id":"cebpf4jnsgd1na2vs0mg"},{"bike_id":"917d5d82-a8f0-4af3-af23-993ab861dbf0","system_id":"levelo_inurba_marseille","lat":43.31369,"lon":5.38501,"is_reserved":false,"is_disabled":false,"rental_uris":{"android":"levelo://app?vid=917d5d82-a8f0-4af3-af23-993ab861dbf0","ios":"levelo://app?vid=917d5d82-a8f0-4af3-af23-993ab861dbf0"},"vehicle_type_id":"4","last_reported":1718388671,"current_range_meters":7200,"station_id":"ce4bgt92rcd13ifvqcf0","pricing_plan_id":"cebpf4jnsgd1na2vs0mg"},{"bike_id":"8eafb2e7-e3d1-4a77-b180-ddd4cf347630","system_id":"levelo_inurba_marseille","lat":43.299724,"lon":5.371829,"is_reserved":false,"is_disabled":false,"rental_uris":{"android":"levelo://app?vid=8eafb2e7-e3d1-4a77-b180-ddd4cf347630","ios":"levelo://app?vid=8eafb2e7-e3d1-4a77-b180-ddd4cf347630"},"vehicle_type_id":"4","last_reported":1718388671,"current_range_meters":19200,"station_id":"ce4bgr92rcd13ifvqc7g","pricing_plan_id":"cebpf4jnsgd1na2vs0mg"},{"bike_id":"50f0b6af-7ae4-4a94-866e-bbd54ef80cb1","system_id":"levelo_inurba_marseille","lat":43.299222,"lon":5.365554,"is_reserved":false,"is_disabled":false,"rental_uris":{"android":"levelo://app?vid=50f0b6af-7ae4-4a94-866e-bbd54ef80cb1","ios":"levelo://app?vid=50f0b6af-7ae4-4a94-866e-bbd54ef80cb1"},"vehicle_type_id":"4","last_reported":1718388671,"current_range_meters":3600,"station_id":"ce4bgm92rcd13ifvqbr0","pricing_plan_id":"cebpf4jnsgd1na2vs0mg"},{"bike_id":"05339874-a26f-4023-b37d-6f9aad1227f0","system_id":"levelo_inurba_marseille","lat":43.299222,"lon":5.365554,"is_reserved":false,"is_disabled":false,"rental_uris":{"android":"levelo://app?vid=05339874-a26f-4023-b37d-6f9aad1227f0","ios":"levelo://app?vid=05339874-a26f-4023-b37d-6f9aad1227f0"},"vehicle_type_id":"4","last_reported":1718388671,"current_range_meters":14000,"station_id":"ce4bgm92rcd13ifvqbr0","pricing_plan_id":"cebpf4jnsgd1na2vs0mg"},{"bike_id":"2a0705f8-66c7-4b2c-9799-4dec21b9bb85","system_id":"levelo_inurba_marseille","lat":43.299222,"lon":5.365554,"is_reserved":false,"is_disabled":false,"rental_uris":{"android":"levelo://app?vid=2a0705f8-66c7-4b2c-9799-4dec21b9bb85","ios":"levelo://app?vid=2a0705f8-66c7-4b2c-9799-4dec21b9bb85"},"vehicle_type_id":"4","last_reported":1718388671,"current_range_meters":10400,"station_id":"ce4bgm92rcd13ifvqbr0","pricing_plan_id":"cebpf4jnsgd1na2vs0mg"},{"bike_id":"94080bea-a9bf-46af-95cf-67c8d413aaa7","system_id":"levelo_inurba_marseille","lat":43.299222,"lon":5.365554,"is_reserved":false,"is_disabled":false,"rental_uris":{"android":"levelo://app?vid=94080bea-a9bf-46af-95cf-67c8d413aaa7","ios":"levelo://app?vid=94080bea-a9bf-46af-95cf-67c8d413aaa7"},"vehicle_type_id":"4","last_reported":1718388671,"current_range_meters":18800,"station_id":"ce4bgm92rcd13ifvqbr0","pricing_plan_id":"cebpf4jnsgd1na2vs0mg"},{"bike_id":"25e608f4-c719-48b9-b46e-217dd491155e","system_id":"levelo_inurba_marseille","lat":43.299222,"lon":5.365554,"is_reserved":false,"is_disabled":false,"rental_uris":{"android":"levelo://app?vid=25e608f4-c719-48b9-b46e-217dd491155e","ios":"levelo://app?vid=25e608f4-c719-48b9-b46e-217dd491155e"},"vehicle_type_id":"4","last_reported":1718388671,"current_range_meters":22000,"station_id":"ce4bgm92rcd13ifvqbr0","pricing_plan_id":"cebpf4jnsgd1na2vs0mg"},{"bike_id":"d50b3e82-424b-4d75-916d-49fb1e298333","system_id":"levelo_inurba_marseille","lat":43.299724,"lon":5.371829,"is_reserved":false,"is_disabled":false,"rental_uris":{"android":"levelo://app?vid=d50b3e82-424b-4d75-916d-49fb1e298333","ios":"levelo://app?vid=d50b3e82-424b-4d75-916d-49fb1e298333"},"vehicle_type_id":"4","last_reported":1718388671,"current_range_meters":18800,"station_id":"ce4bgr92rcd13ifvqc7g","pricing_plan_id":"cebpf4jnsgd1na2vs0mg"},{"bike_id":"a65b8f51-745d-40a9-99fc-c14d3d9e9cbc","system_id":"levelo_inurba_marseille","lat":43.299222,"lon":5.365554,"is_reserved":false,"is_disabled":false,"rental_uris":{"android":"levelo://app?vid=a65b8f51-745d-40a9-99fc-c14d3d9e9cbc","ios":"levelo://app?vid=a65b8f51-745d-40a9-99fc-c14d3d9e9cbc"},"vehicle_type_id":"4","last_reported":1718388671,"current_range_meters":28000,"station_id":"ce4bgm92rcd13ifvqbr0","pricing_plan_id":"cebpf4jnsgd1na2vs0mg"},{"bike_id":"fac45476-fa4b-4db1-bf78-f1cfd88f560c","system_id":"levelo_inurba_marseille","lat":43.299724,"lon":5.371829,"is_reserved":false,"is_disabled":false,"rental_uris":{"android":"levelo://app?vid=fac45476-fa4b-4db1-bf78-f1cfd88f560c","ios":"levelo://app?vid=fac45476-fa4b-4db1-bf78-f1cfd88f560c"},"vehicle_type_id":"4","last_reported":1718388671,"current_range_meters":19600,"station_id":"ce4bgr92rcd13ifvqc7g","pricing_plan_id":"cebpf4jnsgd1na2vs0mg"},{"bike_id":"2cb6e518-caaa-4cb2-aee3-26c79e8b7be4","system_id":"levelo_inurba_marseille","lat":43.298433,"lon":5.362774,"is_reserved":false,"is_disabled":false,"rental_uris":{"android":"levelo://app?vid=2cb6e518-caaa-4cb2-aee3-26c79e8b7be4","ios":"levelo://app?vid=2cb6e518-caaa-4cb2-aee3-26c79e8b7be4"},"vehicle_type_id":"4","last_reported":1718388671,"current_range_meters":6400,"station_id":"ce4bgpp2rcd13ifvqc3g","pricing_plan_id":"cebpf4jnsgd1na2vs0mg"},{"bike_id":"2f61a1c3-cd09-4d57-8177-213fc5db5e1c","system_id":"levelo_inurba_marseille","lat":43.298433,"lon":5.362774,"is_reserved":false,"is_disabled":false,"rental_uris":{"android":"levelo://app?vid=2f61a1c3-cd09-4d57-8177-213fc5db5e1c","ios":"levelo://app?vid=2f61a1c3-cd09-4d57-8177-213fc5db5e1c"},"vehicle_type_id":"4","last_reported":1718388671,"current_range_meters":5200,"station_id":"ce4bgpp2rcd13ifvqc3g","pricing_plan_id":"cebpf4jnsgd1na2vs0mg"},{"bike_id":"15657886-93d7-48f7-bd49-81f75c1abebe","system_id":"levelo_inurba_marseille","lat":43.2985,"lon":5.36275,"is_reserved":false,"is_disabled":false,"rental_uris":{"android":"levelo://app?vid=15657886-93d7-48f7-bd49-81f75c1abebe","ios":"levelo://app?vid=15657886-93d7-48f7-bd49-81f75c1abebe"},"vehicle_type_id":"4","last_reported":1718388671,"current_range_meters":22000,"station_id":"ce4bgpp2rcd13ifvqc3g","pricing_plan_id":"cebpf4jnsgd1na2vs0mg"},{"bike_id":"57d8a356-e2dd-4dc2-aec8-8ac8daf594b1","system_id":"levelo_inurba_marseille","lat":43.298433,"lon":5.362774,"is_reserved":false,"is_disabled":false,"rental_uris":{"android":"levelo://app?vid=57d8a356-e2dd-4dc2-aec8-8ac8daf594b1","ios":"levelo://app?vid=57d8a356-e2dd-4dc2-aec8-8ac8daf594b1"},"vehicle_type_id":"4","last_reported":1718388671,"current_range_meters":28000,"station_id":"ce4bgpp2rcd13ifvqc3g","pricing_plan_id":"cebpf4jnsgd1na2vs0mg"},{"bike_id":"b9645fae-7016-4692-b871-04a5206b0a3c","system_id":"levelo_inurba_marseille","lat":43.298498,"lon":5.362746,"is_reserved":false,"is_disabled":false,"rental_uris":{"android":"levelo://app?vid=b9645fae-7016-4692-b871-04a5206b0a3c","ios":"levelo://app?vid=b9645fae-7016-4692-b871-04a5206b0a3c"},"vehicle_type_id":"4","last_reported":1718388671,"current_range_meters":28800,"station_id":"ce4bgpp2rcd13ifvqc3g","pricing_plan_id":"cebpf4jnsgd1na2vs0mg"},{"bike_id":"8861346e-b3ce-4d9b-b859-a56469750c7f","system_id":"levelo_inurba_marseille","lat":43.298433,"lon":5.362774,"is_reserved":false,"is_disabled":false,"rental_uris":{"android":"levelo://app?vid=8861346e-b3ce-4d9b-b859-a56469750c7f","ios":"levelo://app?vid=8861346e-b3ce-4d9b-b859-a56469750c7f"},"vehicle_type_id":"4","last_reported":1718388671,"current_range_meters":13200,"station_id":"ce4bgpp2rcd13ifvqc3g","pricing_plan_id":"cebpf4jnsgd1na2vs0mg"},{"bike_id":"832ea7ca-6cf6-459d-92f8-7a2944bbb795","system_id":"levelo_inurba_marseille","lat":43.298433,"lon":5.362774,"is_reserved":false,"is_disabled":false,"rental_uris":{"android":"levelo://app?vid=832ea7ca-6cf6-459d-92f8-7a2944bbb795","ios":"levelo://app?vid=832ea7ca-6cf6-459d-92f8-7a2944bbb795"},"vehicle_type_id":"4","last_reported":1718388671,"current_range_meters":8000,"station_id":"ce4bgpp2rcd13ifvqc3g","pricing_plan_id":"cebpf4jnsgd1na2vs0mg"},{"bike_id":"6370c7b3-ba02-4db4-ab84-51e42d3c9691","system_id":"levelo_inurba_marseille","lat":43.298433,"lon":5.362774,"is_reserved":false,"is_disabled":false,"rental_uris":{"android":"levelo://app?vid=6370c7b3-ba02-4db4-ab84-51e42d3c9691","ios":"levelo://app?vid=6370c7b3-ba02-4db4-ab84-51e42d3c9691"},"vehicle_type_id":"4","last_reported":1718388671,"current_range_meters":28000,"station_id":"ce4bgpp2rcd13ifvqc3g","pricing_plan_id":"cebpf4jnsgd1na2vs0mg"},{"bike_id":"9d4b1b0a-8231-4983-8ab5-53dba90b32d4","system_id":"levelo_inurba_marseille","lat":43.311722,"lon":5.387247,"is_reserved":false,"is_disabled":false,"rental_uris":{"android":"levelo://app?vid=9d4b1b0a-8231-4983-8ab5-53dba90b32d4","ios":"levelo://app?vid=9d4b1b0a-8231-4983-8ab5-53dba90b32d4"},"vehicle_type_id":"4","last_reported":1718388671,"current_range_meters":0,"station_id":"ce4bgv12rcd13ifvqcp0","pricing_plan_id":"cebpf4jnsgd1na2vs0mg"},{"bike_id":"2b2c4183-b46b-4473-9ac9-4daeebceab3e","system_id":"levelo_inurba_marseille","lat":43.297774,"lon":5.370875,"is_reserved":false,"is_disabled":false,"rental_uris":{"android":"levelo://app?vid=2b2c4183-b46b-4473-9ac9-4daeebceab3e","ios":"levelo://app?vid=2b2c4183-b46b-4473-9ac9-4daeebceab3e"},"vehicle_type_id":"4","last_reported":1718388671,"current_range_meters":29600,"station_id":"ce4bgop2rcd13ifvqc1g","pricing_plan_id":"cebpf4jnsgd1na2vs0mg"},{"bike_id":"e025e930-8f82-4879-b09c-3202c4ca43ad","system_id":"levelo_inurba_marseille","lat":43.322872,"lon":5.382756,"is_reserved":false,"is_disabled":false,"rental_uris":{"android":"levelo://app?vid=e025e930-8f82-4879-b09c-3202c4ca43ad","ios":"levelo://app?vid=e025e930-8f82-4879-b09c-3202c4ca43ad"},"vehicle_type_id":"4","last_reported":1718388671,"current_range_meters":0,"station_id":"ce4bhr12rcd13ifvqhqg","pricing_plan_id":"cebpf4jnsgd1na2vs0mg"},{"bike_id":"a78fce40-39b3-47a3-9f62-07729dc0911c","system_id":"levelo_inurba_marseille","lat":43.297163,"lon":5.365866,"is_reserved":false,"is_disabled":false,"rental_uris":{"android":"levelo://app?vid=a78fce40-39b3-47a3-9f62-07729dc0911c","ios":"levelo://app?vid=a78fce40-39b3-47a3-9f62-07729dc0911c"},"vehicle_type_id":"4","last_reported":1718388671,"current_range_meters":8800,"station_id":"ce4bgn12rcd13ifvqbt0","pricing_plan_id":"cebpf4jnsgd1na2vs0mg"},{"bike_id":"785f58d1-8318-4ac1-b858-6a2d0c73de02","system_id":"levelo_inurba_marseille","lat":43.297163,"lon":5.365866,"is_reserved":false,"is_disabled":false,"rental_uris":{"android":"levelo://app?vid=785f58d1-8318-4ac1-b858-6a2d0c73de02","ios":"levelo://app?vid=785f58d1-8318-4ac1-b858-6a2d0c73de02"},"vehicle_type_id":"4","last_reported":1718388671,"current_range_meters":12000,"station_id":"ce4bgn12rcd13ifvqbt0","pricing_plan_id":"cebpf4jnsgd1na2vs0mg"},{"bike_id":"e9684d58-b10a-469e-a02c-43cd1e02c7d6","system_id":"levelo_inurba_marseille","lat":43.297163,"lon":5.365866,"is_reserved":false,"is_disabled":false,"rental_uris":{"android":"levelo://app?vid=e9684d58-b10a-469e-a02c-43cd1e02c7d6","ios":"levelo://app?vid=e9684d58-b10a-469e-a02c-43cd1e02c7d6"},"vehicle_type_id":"4","last_reported":1718388671,"current_range_meters":24000,"station_id":"ce4bgn12rcd13ifvqbt0","pricing_plan_id":"cebpf4jnsgd1na2vs0mg"},{"bike_id":"0070df20-4c22-4500-81b9-958ef84c563a","system_id":"levelo_inurba_marseille","lat":43.296543,"lon":5.370177,"is_reserved":false,"is_disabled":false,"rental_uris":{"android":"levelo://app?vid=0070df20-4c22-4500-81b9-958ef84c563a","ios":"levelo://app?vid=0070df20-4c22-4500-81b9-958ef84c563a"},"vehicle_type_id":"4","last_reported":1718388671,"current_range_meters":6400,"station_id":"","pricing_plan_id":"cebpf4jnsgd1na2vs0mg"},{"bike_id":"37471f4c-741d-4423-ad28-3beb8104ff11","system_id":"levelo_inurba_marseille","lat":43.296215,"lon":5.36323,"is_reserved":false,"is_disabled":false,"rental_uris":{"android":"levelo://app?vid=37471f4c-741d-4423-ad28-3beb8104ff11","ios":"levelo://app?vid=37471f4c-741d-4423-ad28-3beb8104ff11"},"vehicle_type_id":"4","last_reported":1718388671,"current_range_meters":12800,"station_id":"","pricing_plan_id":"cebpf4jnsgd1na2vs0mg"},{"bike_id":"664f1ed7-8913-4bb2-bf37-26cfdc2a98cf","system_id":"levelo_inurba_marseille","lat":43.29615,"lon":5.36314,"is_reserved":false,"is_disabled":false,"rental_uris":{"android":"levelo://app?vid=664f1ed7-8913-4bb2-bf37-26cfdc2a98cf","ios":"levelo://app?vid=664f1ed7-8913-4bb2-bf37-26cfdc2a98cf"},"vehicle_type_id":"4","last_reported":1718388671,"current_range_meters":17200,"station_id":"","pricing_plan_id":"cebpf4jnsgd1na2vs0mg"},{"bike_id":"b6c1268c-a7ff-4aa5-aaf3-52187293dc93","system_id":"levelo_inurba_marseille","lat":43.296121,"lon":5.363276,"is_reserved":false,"is_disabled":false,"rental_uris":{"android":"levelo://app?vid=b6c1268c-a7ff-4aa5-aaf3-52187293dc93","ios":"levelo://app?vid=b6c1268c-a7ff-4aa5-aaf3-52187293dc93"},"vehicle_type_id":"4","last_reported":1718388671,"current_range_meters":19600,"station_id":"","pricing_plan_id":"cebpf4jnsgd1na2vs0mg"},{"bike_id":"dd7e401b-6a03-470d-96c9-db14a4f614bc","system_id":"levelo_inurba_marseille","lat":43.29573,"lon":5.367355,"is_reserved":false,"is_disabled":false,"rental_uris":{"android":"levelo://app?vid=dd7e401b-6a03-470d-96c9-db14a4f614bc","ios":"levelo://app?vid=dd7e401b-6a03-470d-96c9-db14a4f614bc"},"vehicle_type_id":"4","last_reported":1718388671,"current_range_meters":20800,"station_id":"ce4bgph2rcd13ifvqc2g","pricing_plan_id":"cebpf4jnsgd1na2vs0mg"},{"bike_id":"ffc994be-3933-46dc-a600-3af6a6a3e775","system_id":"levelo_inurba_marseille","lat":43.296131,"lon":5.370773,"is_reserved":false,"is_disabled":false,"rental_uris":{"android":"levelo://app?vid=ffc994be-3933-46dc-a600-3af6a6a3e775","ios":"levelo://app?vid=ffc994be-3933-46dc-a600-3af6a6a3e775"},"vehicle_type_id":"4","last_reported":1718388671,"current_range_meters":27200,"station_id":"ce4bgnh2rcd13ifvqc0g","pricing_plan_id":"cebpf4jnsgd1na2vs0mg"},{"bike_id":"8e1a6b51-3902-4a68-bfdf-21791d39a903","system_id":"levelo_inurba_marseille","lat":43.29573,"lon":5.367355,"is_reserved":false,"is_disabled":false,"rental_uris":{"android":"levelo://app?vid=8e1a6b51-3902-4a68-bfdf-21791d39a903","ios":"levelo://app?vid=8e1a6b51-3902-4a68-bfdf-21791d39a903"},"vehicle_type_id":"4","last_reported":1718388671,"current_range_meters":400,"station_id":"ce4bgph2rcd13ifvqc2g","pricing_plan_id":"cebpf4jnsgd1na2vs0mg"},{"bike_id":"b7f1b88e-d1a3-457c-ab9e-3b1af615215b","system_id":"levelo_inurba_marseille","lat":43.295799,"lon":5.364316,"is_reserved":false,"is_disabled":false,"rental_uris":{"android":"levelo://app?vid=b7f1b88e-d1a3-457c-ab9e-3b1af615215b","ios":"levelo://app?vid=b7f1b88e-d1a3-457c-ab9e-3b1af615215b"},"vehicle_type_id":"4","last_reported":1718388671,"current_range_meters":5200,"station_id":"","pricing_plan_id":"cebpf4jnsgd1na2vs0mg"},{"bike_id":"91636b3f-4c0c-4746-8c73-835e267774de","system_id":"levelo_inurba_marseille","lat":43.29723,"lon":5.37689,"is_reserved":false,"is_disabled":false,"rental_uris":{"android":"levelo://app?vid=91636b3f-4c0c-4746-8c73-835e267774de","ios":"levelo://app?vid=91636b3f-4c0c-4746-8c73-835e267774de"},"vehicle_type_id":"4","last_reported":1718388671,"current_range_meters":11200,"station_id":"ce4bgkh2rcd13ifvqbl0","pricing_plan_id":"cebpf4jnsgd1na2vs0mg"},{"bike_id":"cfbca06b-fadf-4645-9c1b-db99604867da","system_id":"levelo_inurba_marseille","lat":43.29911,"lon":5.38151,"is_reserved":false,"is_disabled":false,"rental_uris":{"android":"levelo://app?vid=cfbca06b-fadf-4645-9c1b-db99604867da","ios":"levelo://app?vid=cfbca06b-fadf-4645-9c1b-db99604867da"},"vehicle_type_id":"4","last_reported":1718388671,"current_range_meters":7600,"station_id":"ce4bgj12rcd13ifvqbc0","pricing_plan_id":"cebpf4jnsgd1na2vs0mg"},{"bike_id":"bdc4f63f-a09e-4bc0-bcbd-47f826aea90a","system_id":"levelo_inurba_marseille","lat":43.309589,"lon":5.390258,"is_reserved":false,"is_disabled":false,"rental_uris":{"android":"levelo://app?vid=bdc4f63f-a09e-4bc0-bcbd-47f826aea90a","ios":"levelo://app?vid=bdc4f63f-a09e-4bc0-bcbd-47f826aea90a"},"vehicle_type_id":"4","last_reported":1718388671,"current_range_meters":2800,"station_id":"ce4bgup2rcd13ifvqco0","pricing_plan_id":"cebpf4jnsgd1na2vs0mg"},{"bike_id":"4fefd2b8-e03d-4123-9c56-dd477de6c69d","system_id":"levelo_inurba_marseille","lat":43.30945,"lon":5.390282,"is_reserved":false,"is_disabled":false,"rental_uris":{"android":"levelo://app?vid=4fefd2b8-e03d-4123-9c56-dd477de6c69d","ios":"levelo://app?vid=4fefd2b8-e03d-4123-9c56-dd477de6c69d"},"vehicle_type_id":"4","last_reported":1718388671,"current_range_meters":0,"station_id":"ce4bgup2rcd13ifvqco0","pricing_plan_id":"cebpf4jnsgd1na2vs0mg"},{"bike_id":"bd124437-c1e1-4bd1-85c4-6ca69c6aa0c9","system_id":"levelo_inurba_marseille","lat":43.309589,"lon":5.390258,"is_reserved":false,"is_disabled":false,"rental_uris":{"android":"levelo://app?vid=bd124437-c1e1-4bd1-85c4-6ca69c6aa0c9","ios":"levelo://app?vid=bd124437-c1e1-4bd1-85c4-6ca69c6aa0c9"},"vehicle_type_id":"4","last_reported":1718388671,"current_range_meters":1200,"station_id":"ce4bgup2rcd13ifvqco0","pricing_plan_id":"cebpf4jnsgd1na2vs0mg"},{"bike_id":"d89e56d6-156b-47d9-a016-4a0059dd05ab","system_id":"levelo_inurba_marseille","lat":43.309589,"lon":5.390258,"is_reserved":false,"is_disabled":false,"rental_uris":{"android":"levelo://app?vid=d89e56d6-156b-47d9-a016-4a0059dd05ab","ios":"levelo://app?vid=d89e56d6-156b-47d9-a016-4a0059dd05ab"},"vehicle_type_id":"4","last_reported":1718388671,"current_range_meters":5600,"station_id":"ce4bgup2rcd13ifvqco0","pricing_plan_id":"cebpf4jnsgd1na2vs0mg"},{"bike_id":"9438a427-5bf2-4543-9e46-0ce97487b4e4","system_id":"levelo_inurba_marseille","lat":43.309589,"lon":5.390258,"is_reserved":false,"is_disabled":false,"rental_uris":{"android":"levelo://app?vid=9438a427-5bf2-4543-9e46-0ce97487b4e4","ios":"levelo://app?vid=9438a427-5bf2-4543-9e46-0ce97487b4e4"},"vehicle_type_id":"4","last_reported":1718388671,"current_range_meters":1600,"station_id":"ce4bgup2rcd13ifvqco0","pricing_plan_id":"cebpf4jnsgd1na2vs0mg"},{"bike_id":"af30faf9-80b7-4bd8-850e-d962d9f1ff5f","system_id":"levelo_inurba_marseille","lat":43.309589,"lon":5.390258,"is_reserved":false,"is_disabled":false,"rental_uris":{"android":"levelo://app?vid=af30faf9-80b7-4bd8-850e-d962d9f1ff5f","ios":"levelo://app?vid=af30faf9-80b7-4bd8-850e-d962d9f1ff5f"},"vehicle_type_id":"4","last_reported":1718388671,"current_range_meters":27200,"station_id":"ce4bgup2rcd13ifvqco0","pricing_plan_id":"cebpf4jnsgd1na2vs0mg"},{"bike_id":"387b10e8-ea19-47ba-a13c-38f7b538c4f1","system_id":"levelo_inurba_marseille","lat":43.30955,"lon":5.39039,"is_reserved":false,"is_disabled":false,"rental_uris":{"android":"levelo://app?vid=387b10e8-ea19-47ba-a13c-38f7b538c4f1","ios":"levelo://app?vid=387b10e8-ea19-47ba-a13c-38f7b538c4f1"},"vehicle_type_id":"4","last_reported":1718388671,"current_range_meters":0,"station_id":"ce4bgup2rcd13ifvqco0","pricing_plan_id":"cebpf4jnsgd1na2vs0mg"},{"bike_id":"a42b51f6-aa9a-4870-aaed-986ea2168d03","system_id":"levelo_inurba_marseille","lat":43.309589,"lon":5.390258,"is_reserved":false,"is_disabled":false,"rental_uris":{"android":"levelo://app?vid=a42b51f6-aa9a-4870-aaed-986ea2168d03","ios":"levelo://app?vid=a42b51f6-aa9a-4870-aaed-986ea2168d03"},"vehicle_type_id":"4","last_reported":1718388671,"current_range_meters":12800,"station_id":"ce4bgup2rcd13ifvqco0","pricing_plan_id":"cebpf4jnsgd1na2vs0mg"},{"bike_id":"d51789ea-eb04-4e0b-b0d1-a567aa1af80c","system_id":"levelo_inurba_marseille","lat":43.304606,"lon":5.379026,"is_reserved":false,"is_disabled":false,"rental_uris":{"android":"levelo://app?vid=d51789ea-eb04-4e0b-b0d1-a567aa1af80c","ios":"levelo://app?vid=d51789ea-eb04-4e0b-b0d1-a567aa1af80c"},"vehicle_type_id":"4","last_reported":1718388671,"current_range_meters":800,"station_id":"ce4bgup2rcd13ifvqcn0","pricing_plan_id":"cebpf4jnsgd1na2vs0mg"},{"bike_id":"aa502ccf-a507-4ea8-a027-3be5ca4e33c5","system_id":"levelo_inurba_marseille","lat":43.298037,"lon":5.381066,"is_reserved":false,"is_disabled":false,"rental_uris":{"android":"levelo://app?vid=aa502ccf-a507-4ea8-a027-3be5ca4e33c5","ios":"levelo://app?vid=aa502ccf-a507-4ea8-a027-3be5ca4e33c5"},"vehicle_type_id":"4","last_reported":1718388671,"current_range_meters":24400,"station_id":"ce4bgip2rcd13ifvqbb0","pricing_plan_id":"cebpf4jnsgd1na2vs0mg"},{"bike_id":"c4c0dd99-0713-46bb-9568-490ec5726ba9","system_id":"levelo_inurba_marseille","lat":43.298037,"lon":5.381066,"is_reserved":false,"is_disabled":false,"rental_uris":{"android":"levelo://app?vid=c4c0dd99-0713-46bb-9568-490ec5726ba9","ios":"levelo://app?vid=c4c0dd99-0713-46bb-9568-490ec5726ba9"},"vehicle_type_id":"4","last_reported":1718388671,"current_range_meters":13600,"station_id":"ce4bgip2rcd13ifvqbb0","pricing_plan_id":"cebpf4jnsgd1na2vs0mg"},{"bike_id":"3f258ae9-53e5-4aa8-95e4-50fdaa41cc9a","system_id":"levelo_inurba_marseille","lat":43.29801,"lon":5.38107,"is_reserved":false,"is_disabled":false,"rental_uris":{"android":"levelo://app?vid=3f258ae9-53e5-4aa8-95e4-50fdaa41cc9a","ios":"levelo://app?vid=3f258ae9-53e5-4aa8-95e4-50fdaa41cc9a"},"vehicle_type_id":"4","last_reported":1718388671,"current_range_meters":6800,"station_id":"ce4bgip2rcd13ifvqbb0","pricing_plan_id":"cebpf4jnsgd1na2vs0mg"},{"bike_id":"5c2183bd-8208-477a-8387-f721f1a79791","system_id":"levelo_inurba_marseille","lat":43.298,"lon":5.38107,"is_reserved":false,"is_disabled":false,"rental_uris":{"android":"levelo://app?vid=5c2183bd-8208-477a-8387-f721f1a79791","ios":"levelo://app?vid=5c2183bd-8208-477a-8387-f721f1a79791"},"vehicle_type_id":"4","last_reported":1718388671,"current_range_meters":20400,"station_id":"ce4bgip2rcd13ifvqbb0","pricing_plan_id":"cebpf4jnsgd1na2vs0mg"},{"bike_id":"34fd745b-72d0-4ab7-ab15-f2f8a505de48","system_id":"levelo_inurba_marseille","lat":43.2972,"lon":5.3803,"is_reserved":false,"is_disabled":false,"rental_uris":{"android":"levelo://app?vid=34fd745b-72d0-4ab7-ab15-f2f8a505de48","ios":"levelo://app?vid=34fd745b-72d0-4ab7-ab15-f2f8a505de48"},"vehicle_type_id":"4","last_reported":1718388671,"current_range_meters":0,"station_id":"","pricing_plan_id":"cebpf4jnsgd1na2vs0mg"},{"bike_id":"32e4fdd7-a73c-4126-a6c8-4189a06b6845","system_id":"levelo_inurba_marseille","lat":43.299707,"lon":5.384859,"is_reserved":false,"is_disabled":false,"rental_uris":{"android":"levelo://app?vid=32e4fdd7-a73c-4126-a6c8-4189a06b6845","ios":"levelo://app?vid=32e4fdd7-a73c-4126-a6c8-4189a06b6845"},"vehicle_type_id":"4","last_reported":1718388671,"current_range_meters":0,"station_id":"ce4bgj92rcd13ifvqbd0","pricing_plan_id":"cebpf4jnsgd1na2vs0mg"},{"bike_id":"156c452e-cb69-431b-9353-aed826cd42a8","system_id":"levelo_inurba_marseille","lat":43.30423,"lon":5.38947,"is_reserved":false,"is_disabled":false,"rental_uris":{"android":"levelo://app?vid=156c452e-cb69-431b-9353-aed826cd42a8","ios":"levelo://app?vid=156c452e-cb69-431b-9353-aed826cd42a8"},"vehicle_type_id":"4","last_reported":1718388671,"current_range_meters":31200,"station_id":"ce4bgk12rcd13ifvqbi0","pricing_plan_id":"cebpf4jnsgd1na2vs0mg"},{"bike_id":"643d5c5e-3efe-423e-801a-06b9fee6cabc","system_id":"levelo_inurba_marseille","lat":43.32367,"lon":5.388836,"is_reserved":false,"is_disabled":false,"rental_uris":{"android":"levelo://app?vid=643d5c5e-3efe-423e-801a-06b9fee6cabc","ios":"levelo://app?vid=643d5c5e-3efe-423e-801a-06b9fee6cabc"},"vehicle_type_id":"4","last_reported":1718388671,"current_range_meters":18400,"station_id":"ce4bhqp2rcd13ifvqhog","pricing_plan_id":"cebpf4jnsgd1na2vs0mg"},{"bike_id":"ac1342bb-4550-4511-94a5-fef8e41df146","system_id":"levelo_inurba_marseille","lat":43.32367,"lon":5.388836,"is_reserved":false,"is_disabled":false,"rental_uris":{"android":"levelo://app?vid=ac1342bb-4550-4511-94a5-fef8e41df146","ios":"levelo://app?vid=ac1342bb-4550-4511-94a5-fef8e41df146"},"vehicle_type_id":"4","last_reported":1718388671,"current_range_meters":400,"station_id":"ce4bhqp2rcd13ifvqhog","pricing_plan_id":"cebpf4jnsgd1na2vs0mg"},{"bike_id":"a1f9c265-1f9f-4959-9373-8c51353f8229","system_id":"levelo_inurba_marseille","lat":43.292749,"lon":5.368402,"is_reserved":false,"is_disabled":false,"rental_uris":{"android":"levelo://app?vid=a1f9c265-1f9f-4959-9373-8c51353f8229","ios":"levelo://app?vid=a1f9c265-1f9f-4959-9373-8c51353f8229"},"vehicle_type_id":"4","last_reported":1718388671,"current_range_meters":30000,"station_id":"ce4bhbp2rcd13ifvqesg","pricing_plan_id":"cebpf4jnsgd1na2vs0mg"},{"bike_id":"7fe2440a-02f7-42cf-bbc5-56eeb437f4f0","system_id":"levelo_inurba_marseille","lat":43.292749,"lon":5.368402,"is_reserved":false,"is_disabled":false,"rental_uris":{"android":"levelo://app?vid=7fe2440a-02f7-42cf-bbc5-56eeb437f4f0","ios":"levelo://app?vid=7fe2440a-02f7-42cf-bbc5-56eeb437f4f0"},"vehicle_type_id":"4","last_reported":1718388671,"current_range_meters":20400,"station_id":"ce4bhbp2rcd13ifvqesg","pricing_plan_id":"cebpf4jnsgd1na2vs0mg"},{"bike_id":"924e041d-8fdb-4918-a74f-24008e064ac8","system_id":"levelo_inurba_marseille","lat":43.29303,"lon":5.37457,"is_reserved":false,"is_disabled":false,"rental_uris":{"android":"levelo://app?vid=924e041d-8fdb-4918-a74f-24008e064ac8","ios":"levelo://app?vid=924e041d-8fdb-4918-a74f-24008e064ac8"},"vehicle_type_id":"4","last_reported":1718388671,"current_range_meters":0,"station_id":"ce4bgi12rcd13ifvqb70","pricing_plan_id":"cebpf4jnsgd1na2vs0mg"},{"bike_id":"f68f8300-f9d3-4cba-bfa5-87cc97e410f8","system_id":"levelo_inurba_marseille","lat":43.305994,"lon":5.393687,"is_reserved":false,"is_disabled":false,"rental_uris":{"android":"levelo://app?vid=f68f8300-f9d3-4cba-bfa5-87cc97e410f8","ios":"levelo://app?vid=f68f8300-f9d3-4cba-bfa5-87cc97e410f8"},"vehicle_type_id":"4","last_reported":1718388671,"current_range_meters":0,"station_id":"ce4bh0p2rcd13ifvqd80","pricing_plan_id":"cebpf4jnsgd1na2vs0mg"},{"bike_id":"ed86f38c-85f1-4d08-9614-40bd2eb97eea","system_id":"levelo_inurba_marseille","lat":43.30591,"lon":5.39355,"is_reserved":false,"is_disabled":false,"rental_uris":{"android":"levelo://app?vid=ed86f38c-85f1-4d08-9614-40bd2eb97eea","ios":"levelo://app?vid=ed86f38c-85f1-4d08-9614-40bd2eb97eea"},"vehicle_type_id":"4","last_reported":1718388671,"current_range_meters":10800,"station_id":"ce4bh0p2rcd13ifvqd80","pricing_plan_id":"cebpf4jnsgd1na2vs0mg"},{"bike_id":"2f3858b1-198b-4ba2-b1cb-5b9c08962c0e","system_id":"levelo_inurba_marseille","lat":43.293067,"lon":5.358742,"is_reserved":false,"is_disabled":false,"rental_uris":{"android":"levelo://app?vid=2f3858b1-198b-4ba2-b1cb-5b9c08962c0e","ios":"levelo://app?vid=2f3858b1-198b-4ba2-b1cb-5b9c08962c0e"},"vehicle_type_id":"4","last_reported":1718388671,"current_range_meters":11200,"station_id":"","pricing_plan_id":"cebpf4jnsgd1na2vs0mg"},{"bike_id":"ec0dd081-2d38-412f-9b67-3fa2f7375936","system_id":"levelo_inurba_marseille","lat":43.29293,"lon":5.37454,"is_reserved":false,"is_disabled":false,"rental_uris":{"android":"levelo://app?vid=ec0dd081-2d38-412f-9b67-3fa2f7375936","ios":"levelo://app?vid=ec0dd081-2d38-412f-9b67-3fa2f7375936"},"vehicle_type_id":"4","last_reported":1718388671,"current_range_meters":16000,"station_id":"ce4bgi12rcd13ifvqb70","pricing_plan_id":"cebpf4jnsgd1na2vs0mg"},{"bike_id":"45584d98-fdec-4c3e-987f-2e3e1a6030d2","system_id":"levelo_inurba_marseille","lat":43.29263,"lon":5.3763,"is_reserved":false,"is_disabled":false,"rental_uris":{"android":"levelo://app?vid=45584d98-fdec-4c3e-987f-2e3e1a6030d2","ios":"levelo://app?vid=45584d98-fdec-4c3e-987f-2e3e1a6030d2"},"vehicle_type_id":"4","last_reported":1718388671,"current_range_meters":18400,"station_id":"","pricing_plan_id":"cebpf4jnsgd1na2vs0mg"},{"bike_id":"4e8f07a0-03f6-4627-935b-4260462613a6","system_id":"levelo_inurba_marseille","lat":43.291994,"lon":5.357886,"is_reserved":false,"is_disabled":false,"rental_uris":{"android":"levelo://app?vid=4e8f07a0-03f6-4627-935b-4260462613a6","ios":"levelo://app?vid=4e8f07a0-03f6-4627-935b-4260462613a6"},"vehicle_type_id":"4","last_reported":1718388671,"current_range_meters":14800,"station_id":"ce4bhb12rcd13ifvqel0","pricing_plan_id":"cebpf4jnsgd1na2vs0mg"},{"bike_id":"7473a529-5442-46f0-af9b-37c0f27927e6","system_id":"levelo_inurba_marseille","lat":43.291994,"lon":5.357886,"is_reserved":false,"is_disabled":false,"rental_uris":{"android":"levelo://app?vid=7473a529-5442-46f0-af9b-37c0f27927e6","ios":"levelo://app?vid=7473a529-5442-46f0-af9b-37c0f27927e6"},"vehicle_type_id":"4","last_reported":1718388671,"current_range_meters":0,"station_id":"ce4bhb12rcd13ifvqel0","pricing_plan_id":"cebpf4jnsgd1na2vs0mg"},{"bike_id":"30d23fa3-fce5-45b1-9ba5-5a084bc8febc","system_id":"levelo_inurba_marseille","lat":43.31335,"lon":5.3969,"is_reserved":false,"is_disabled":false,"rental_uris":{"android":"levelo://app?vid=30d23fa3-fce5-45b1-9ba5-5a084bc8febc","ios":"levelo://app?vid=30d23fa3-fce5-45b1-9ba5-5a084bc8febc"},"vehicle_type_id":"4","last_reported":1718388671,"current_range_meters":0,"station_id":"ce4bgvp2rcd13ifvqcu0","pricing_plan_id":"cebpf4jnsgd1na2vs0mg"},{"bike_id":"754058de-decc-4f33-8fc7-4c63c147b09a","system_id":"levelo_inurba_marseille","lat":43.313291,"lon":5.396838,"is_reserved":false,"is_disabled":false,"rental_uris":{"android":"levelo://app?vid=754058de-decc-4f33-8fc7-4c63c147b09a","ios":"levelo://app?vid=754058de-decc-4f33-8fc7-4c63c147b09a"},"vehicle_type_id":"4","last_reported":1718388671,"current_range_meters":400,"station_id":"ce4bgvp2rcd13ifvqcu0","pricing_plan_id":"cebpf4jnsgd1na2vs0mg"},{"bike_id":"44af9338-ef86-47b4-ab4b-49416fb7b5e8","system_id":"levelo_inurba_marseille","lat":43.291994,"lon":5.357886,"is_reserved":false,"is_disabled":false,"rental_uris":{"android":"levelo://app?vid=44af9338-ef86-47b4-ab4b-49416fb7b5e8","ios":"levelo://app?vid=44af9338-ef86-47b4-ab4b-49416fb7b5e8"},"vehicle_type_id":"4","last_reported":1718388671,"current_range_meters":4400,"station_id":"ce4bhb12rcd13ifvqel0","pricing_plan_id":"cebpf4jnsgd1na2vs0mg"},{"bike_id":"3591c195-e205-4c05-95ac-1aa374d7ac57","system_id":"levelo_inurba_marseille","lat":43.29529,"lon":5.385581,"is_reserved":false,"is_disabled":false,"rental_uris":{"android":"levelo://app?vid=3591c195-e205-4c05-95ac-1aa374d7ac57","ios":"levelo://app?vid=3591c195-e205-4c05-95ac-1aa374d7ac57"},"vehicle_type_id":"4","last_reported":1718388671,"current_range_meters":11200,"station_id":"ce4bgih2rcd13ifvqba0","pricing_plan_id":"cebpf4jnsgd1na2vs0mg"},{"bike_id":"d0ba23cd-2a36-4dc6-bcb7-37213f0628a6","system_id":"levelo_inurba_marseille","lat":43.29529,"lon":5.385581,"is_reserved":false,"is_disabled":false,"rental_uris":{"android":"levelo://app?vid=d0ba23cd-2a36-4dc6-bcb7-37213f0628a6","ios":"levelo://app?vid=d0ba23cd-2a36-4dc6-bcb7-37213f0628a6"},"vehicle_type_id":"4","last_reported":1718388671,"current_range_meters":12000,"station_id":"ce4bgih2rcd13ifvqba0","pricing_plan_id":"cebpf4jnsgd1na2vs0mg"},{"bike_id":"21884fad-05be-4952-9693-4064431c6f03","system_id":"levelo_inurba_marseille","lat":43.290779,"lon":5.371482,"is_reserved":false,"is_disabled":false,"rental_uris":{"android":"levelo://app?vid=21884fad-05be-4952-9693-4064431c6f03","ios":"levelo://app?vid=21884fad-05be-4952-9693-4064431c6f03"},"vehicle_type_id":"4","last_reported":1718388671,"current_range_meters":0,"station_id":"ce4bh5p2rcd13ifvqe4g","pricing_plan_id":"cebpf4jnsgd1na2vs0mg"},{"bike_id":"8622a3aa-694a-4a10-8b1d-b10b7989090b","system_id":"levelo_inurba_marseille","lat":43.29063,"lon":5.37162,"is_reserved":false,"is_disabled":false,"rental_uris":{"android":"levelo://app?vid=8622a3aa-694a-4a10-8b1d-b10b7989090b","ios":"levelo://app?vid=8622a3aa-694a-4a10-8b1d-b10b7989090b"},"vehicle_type_id":"4","last_reported":1718388671,"current_range_meters":0,"station_id":"ce4bh5p2rcd13ifvqe4g","pricing_plan_id":"cebpf4jnsgd1na2vs0mg"},{"bike_id":"80a9e224-1682-4881-8ff7-8ec950c8aad3","system_id":"levelo_inurba_marseille","lat":43.302008,"lon":5.394694,"is_reserved":false,"is_disabled":false,"rental_uris":{"android":"levelo://app?vid=80a9e224-1682-4881-8ff7-8ec950c8aad3","ios":"levelo://app?vid=80a9e224-1682-4881-8ff7-8ec950c8aad3"},"vehicle_type_id":"4","last_reported":1718388671,"current_range_meters":29600,"station_id":"ce4bh0p2rcd13ifvqd70","pricing_plan_id":"cebpf4jnsgd1na2vs0mg"},{"bike_id":"f007411d-fb9e-49d1-93cd-a1b4674500fa","system_id":"levelo_inurba_marseille","lat":43.294153,"lon":5.386305,"is_reserved":false,"is_disabled":false,"rental_uris":{"android":"levelo://app?vid=f007411d-fb9e-49d1-93cd-a1b4674500fa","ios":"levelo://app?vid=f007411d-fb9e-49d1-93cd-a1b4674500fa"},"vehicle_type_id":"4","last_reported":1718388671,"current_range_meters":3600,"station_id":"ce4bh2h2rcd13ifvqdh0","pricing_plan_id":"cebpf4jnsgd1na2vs0mg"},{"bike_id":"92be357f-06e0-44c6-8702-e5d283cafef9","system_id":"levelo_inurba_marseille","lat":43.294153,"lon":5.386305,"is_reserved":false,"is_disabled":false,"rental_uris":{"android":"levelo://app?vid=92be357f-06e0-44c6-8702-e5d283cafef9","ios":"levelo://app?vid=92be357f-06e0-44c6-8702-e5d283cafef9"},"vehicle_type_id":"4","last_reported":1718388671,"current_range_meters":28000,"station_id":"ce4bh2h2rcd13ifvqdh0","pricing_plan_id":"cebpf4jnsgd1na2vs0mg"},{"bike_id":"22a3639f-47d0-412a-9ce7-dea8bd12f244","system_id":"levelo_inurba_marseille","lat":43.294153,"lon":5.386305,"is_reserved":false,"is_disabled":false,"rental_uris":{"android":"levelo://app?vid=22a3639f-47d0-412a-9ce7-dea8bd12f244","ios":"levelo://app?vid=22a3639f-47d0-412a-9ce7-dea8bd12f244"},"vehicle_type_id":"4","last_reported":1718388671,"current_range_meters":27600,"station_id":"ce4bh2h2rcd13ifvqdh0","pricing_plan_id":"cebpf4jnsgd1na2vs0mg"},{"bike_id":"48458070-555e-413c-b19f-31c614c020a4","system_id":"levelo_inurba_marseille","lat":43.290327,"lon":5.375711,"is_reserved":false,"is_disabled":false,"rental_uris":{"android":"levelo://app?vid=48458070-555e-413c-b19f-31c614c020a4","ios":"levelo://app?vid=48458070-555e-413c-b19f-31c614c020a4"},"vehicle_type_id":"4","last_reported":1718388671,"current_range_meters":28800,"station_id":"ce4bh692rcd13ifvqe90","pricing_plan_id":"cebpf4jnsgd1na2vs0mg"},{"bike_id":"7e421e47-946f-46de-a1c6-69975d84e284","system_id":"levelo_inurba_marseille","lat":43.29034,"lon":5.37555,"is_reserved":false,"is_disabled":false,"rental_uris":{"android":"levelo://app?vid=7e421e47-946f-46de-a1c6-69975d84e284","ios":"levelo://app?vid=7e421e47-946f-46de-a1c6-69975d84e284"},"vehicle_type_id":"4","last_reported":1718388671,"current_range_meters":0,"station_id":"ce4bh692rcd13ifvqe90","pricing_plan_id":"cebpf4jnsgd1na2vs0mg"},{"bike_id":"21166982-ded9-408c-8607-9b3a5d851a86","system_id":"levelo_inurba_marseille","lat":43.29418,"lon":5.38621,"is_reserved":false,"is_disabled":false,"rental_uris":{"android":"levelo://app?vid=21166982-ded9-408c-8607-9b3a5d851a86","ios":"levelo://app?vid=21166982-ded9-408c-8607-9b3a5d851a86"},"vehicle_type_id":"4","last_reported":1718388671,"current_range_meters":31200,"station_id":"ce4bh2h2rcd13ifvqdh0","pricing_plan_id":"cebpf4jnsgd1na2vs0mg"},{"bike_id":"b65af7df-1d88-4c33-94b7-64e9ced928fe","system_id":"levelo_inurba_marseille","lat":43.294153,"lon":5.386305,"is_reserved":false,"is_disabled":false,"rental_uris":{"android":"levelo://app?vid=b65af7df-1d88-4c33-94b7-64e9ced928fe","ios":"levelo://app?vid=b65af7df-1d88-4c33-94b7-64e9ced928fe"},"vehicle_type_id":"4","last_reported":1718388671,"current_range_meters":31200,"station_id":"ce4bh2h2rcd13ifvqdh0","pricing_plan_id":"cebpf4jnsgd1na2vs0mg"},{"bike_id":"19811dfa-db78-4e59-be9a-b47693ae1d39","system_id":"levelo_inurba_marseille","lat":43.28946,"lon":5.36633,"is_reserved":false,"is_disabled":false,"rental_uris":{"android":"levelo://app?vid=19811dfa-db78-4e59-be9a-b47693ae1d39","ios":"levelo://app?vid=19811dfa-db78-4e59-be9a-b47693ae1d39"},"vehicle_type_id":"4","last_reported":1718388671,"current_range_meters":0,"station_id":"ce4bhap2rcd13ifvqek0","pricing_plan_id":"cebpf4jnsgd1na2vs0mg"},{"bike_id":"dc852a9f-8f02-48e1-a890-ac00d743fd39","system_id":"levelo_inurba_marseille","lat":43.294153,"lon":5.386305,"is_reserved":false,"is_disabled":false,"rental_uris":{"android":"levelo://app?vid=dc852a9f-8f02-48e1-a890-ac00d743fd39","ios":"levelo://app?vid=dc852a9f-8f02-48e1-a890-ac00d743fd39"},"vehicle_type_id":"4","last_reported":1718388671,"current_range_meters":800,"station_id":"ce4bh2h2rcd13ifvqdh0","pricing_plan_id":"cebpf4jnsgd1na2vs0mg"},{"bike_id":"57106f93-54bd-4b90-af98-e95df38d1cea","system_id":"levelo_inurba_marseille","lat":43.289343,"lon":5.363947,"is_reserved":false,"is_disabled":false,"rental_uris":{"android":"levelo://app?vid=57106f93-54bd-4b90-af98-e95df38d1cea","ios":"levelo://app?vid=57106f93-54bd-4b90-af98-e95df38d1cea"},"vehicle_type_id":"4","last_reported":1718388671,"current_range_meters":0,"station_id":"ce4bhc92rcd13ifvqetg","pricing_plan_id":"cebpf4jnsgd1na2vs0mg"},{"bike_id":"9581aa82-d726-4317-8091-f38e0fe95446","system_id":"levelo_inurba_marseille","lat":43.29262,"lon":5.38443,"is_reserved":false,"is_disabled":false,"rental_uris":{"android":"levelo://app?vid=9581aa82-d726-4317-8091-f38e0fe95446","ios":"levelo://app?vid=9581aa82-d726-4317-8091-f38e0fe95446"},"vehicle_type_id":"4","last_reported":1718388671,"current_range_meters":0,"station_id":"ce4bh692rcd13ifvqea0","pricing_plan_id":"cebpf4jnsgd1na2vs0mg"},{"bike_id":"4eaf905f-6145-4f27-ba46-43738122e40a","system_id":"levelo_inurba_marseille","lat":43.32959,"lon":5.39023,"is_reserved":false,"is_disabled":false,"rental_uris":{"android":"levelo://app?vid=4eaf905f-6145-4f27-ba46-43738122e40a","ios":"levelo://app?vid=4eaf905f-6145-4f27-ba46-43738122e40a"},"vehicle_type_id":"4","last_reported":1718388671,"current_range_meters":29200,"station_id":"","pricing_plan_id":"cebpf4jnsgd1na2vs0mg"},{"bike_id":"48cd5dd5-2dfc-40f6-b38f-0b5c4cc2be09","system_id":"levelo_inurba_marseille","lat":43.290103,"lon":5.356114,"is_reserved":false,"is_disabled":false,"rental_uris":{"android":"levelo://app?vid=48cd5dd5-2dfc-40f6-b38f-0b5c4cc2be09","ios":"levelo://app?vid=48cd5dd5-2dfc-40f6-b38f-0b5c4cc2be09"},"vehicle_type_id":"4","last_reported":1718388671,"current_range_meters":10400,"station_id":"ce4bhb92rcd13ifvqen0","pricing_plan_id":"cebpf4jnsgd1na2vs0mg"},{"bike_id":"68d1fe74-e886-4269-b250-500707969b89","system_id":"levelo_inurba_marseille","lat":43.290104,"lon":5.356111,"is_reserved":false,"is_disabled":false,"rental_uris":{"android":"levelo://app?vid=68d1fe74-e886-4269-b250-500707969b89","ios":"levelo://app?vid=68d1fe74-e886-4269-b250-500707969b89"},"vehicle_type_id":"4","last_reported":1718388671,"current_range_meters":28800,"station_id":"ce4bhb92rcd13ifvqen0","pricing_plan_id":"cebpf4jnsgd1na2vs0mg"},{"bike_id":"1561bf9b-ecce-4e5f-8bda-d45b3270b441","system_id":"levelo_inurba_marseille","lat":43.29785,"lon":5.39329,"is_reserved":false,"is_disabled":false,"rental_uris":{"android":"levelo://app?vid=1561bf9b-ecce-4e5f-8bda-d45b3270b441","ios":"levelo://app?vid=1561bf9b-ecce-4e5f-8bda-d45b3270b441"},"vehicle_type_id":"4","last_reported":1718388671,"current_range_meters":16000,"station_id":"chh1huq6cuj3fo74tm60","pricing_plan_id":"cebpf4jnsgd1na2vs0mg"},{"bike_id":"ef7233ad-3dd5-4e4f-b43c-17c7b3985931","system_id":"levelo_inurba_marseille","lat":43.33021,"lon":5.39037,"is_reserved":false,"is_disabled":false,"rental_uris":{"android":"levelo://app?vid=ef7233ad-3dd5-4e4f-b43c-17c7b3985931","ios":"levelo://app?vid=ef7233ad-3dd5-4e4f-b43c-17c7b3985931"},"vehicle_type_id":"4","last_reported":1718388671,"current_range_meters":28800,"station_id":"ce4bhr92rcd13ifvqhrg","pricing_plan_id":"cebpf4jnsgd1na2vs0mg"},{"bike_id":"1f9c0157-b48a-441a-acfe-d869bb050b1e","system_id":"levelo_inurba_marseille","lat":43.33021,"lon":5.39039,"is_reserved":false,"is_disabled":false,"rental_uris":{"android":"levelo://app?vid=1f9c0157-b48a-441a-acfe-d869bb050b1e","ios":"levelo://app?vid=1f9c0157-b48a-441a-acfe-d869bb050b1e"},"vehicle_type_id":"4","last_reported":1718388671,"current_range_meters":9200,"station_id":"ce4bhr92rcd13ifvqhrg","pricing_plan_id":"cebpf4jnsgd1na2vs0mg"},{"bike_id":"85952132-cd6b-4482-8c6d-92b54171ff4f","system_id":"levelo_inurba_marseille","lat":43.33021,"lon":5.39039,"is_reserved":false,"is_disabled":false,"rental_uris":{"android":"levelo://app?vid=85952132-cd6b-4482-8c6d-92b54171ff4f","ios":"levelo://app?vid=85952132-cd6b-4482-8c6d-92b54171ff4f"},"vehicle_type_id":"4","last_reported":1718388671,"current_range_meters":5200,"station_id":"ce4bhr92rcd13ifvqhrg","pricing_plan_id":"cebpf4jnsgd1na2vs0mg"},{"bike_id":"2806c8e4-e44e-4aac-8dc3-28abebb23624","system_id":"levelo_inurba_marseille","lat":43.295169,"lon":5.390426,"is_reserved":false,"is_disabled":false,"rental_uris":{"android":"levelo://app?vid=2806c8e4-e44e-4aac-8dc3-28abebb23624","ios":"levelo://app?vid=2806c8e4-e44e-4aac-8dc3-28abebb23624"},"vehicle_type_id":"4","last_reported":1718388671,"current_range_meters":0,"station_id":"ce4bh3p2rcd13ifvqdp0","pricing_plan_id":"cebpf4jnsgd1na2vs0mg"},{"bike_id":"4ed77616-6ab3-4c0c-bee4-335e233bc20c","system_id":"levelo_inurba_marseille","lat":43.33023,"lon":5.39038,"is_reserved":false,"is_disabled":false,"rental_uris":{"android":"levelo://app?vid=4ed77616-6ab3-4c0c-bee4-335e233bc20c","ios":"levelo://app?vid=4ed77616-6ab3-4c0c-bee4-335e233bc20c"},"vehicle_type_id":"4","last_reported":1718388671,"current_range_meters":20400,"station_id":"ce4bhr92rcd13ifvqhrg","pricing_plan_id":"cebpf4jnsgd1na2vs0mg"},{"bike_id":"6f532b18-46a1-444c-8005-a8f072db8a33","system_id":"levelo_inurba_marseille","lat":43.33025,"lon":5.39039,"is_reserved":false,"is_disabled":false,"rental_uris":{"android":"levelo://app?vid=6f532b18-46a1-444c-8005-a8f072db8a33","ios":"levelo://app?vid=6f532b18-46a1-444c-8005-a8f072db8a33"},"vehicle_type_id":"4","last_reported":1718388671,"current_range_meters":16400,"station_id":"ce4bhr92rcd13ifvqhrg","pricing_plan_id":"cebpf4jnsgd1na2vs0mg"},{"bike_id":"98da1dfe-2356-49c0-8c5f-bdaa39e8df81","system_id":"levelo_inurba_marseille","lat":43.33025,"lon":5.3904,"is_reserved":false,"is_disabled":false,"rental_uris":{"android":"levelo://app?vid=98da1dfe-2356-49c0-8c5f-bdaa39e8df81","ios":"levelo://app?vid=98da1dfe-2356-49c0-8c5f-bdaa39e8df81"},"vehicle_type_id":"4","last_reported":1718388671,"current_range_meters":19200,"station_id":"ce4bhr92rcd13ifvqhrg","pricing_plan_id":"cebpf4jnsgd1na2vs0mg"},{"bike_id":"74564513-15fa-46bb-96ef-467ce06937d9","system_id":"levelo_inurba_marseille","lat":43.330442,"lon":5.389148,"is_reserved":false,"is_disabled":false,"rental_uris":{"android":"levelo://app?vid=74564513-15fa-46bb-96ef-467ce06937d9","ios":"levelo://app?vid=74564513-15fa-46bb-96ef-467ce06937d9"},"vehicle_type_id":"4","last_reported":1718388671,"current_range_meters":800,"station_id":"ce4bhr92rcd13ifvqhrg","pricing_plan_id":"cebpf4jnsgd1na2vs0mg"},{"bike_id":"310e8249-b929-4e31-a286-7e36ab6ef111","system_id":"levelo_inurba_marseille","lat":43.33028,"lon":5.39038,"is_reserved":false,"is_disabled":false,"rental_uris":{"android":"levelo://app?vid=310e8249-b929-4e31-a286-7e36ab6ef111","ios":"levelo://app?vid=310e8249-b929-4e31-a286-7e36ab6ef111"},"vehicle_type_id":"4","last_reported":1718388671,"current_range_meters":19200,"station_id":"ce4bhr92rcd13ifvqhrg","pricing_plan_id":"cebpf4jnsgd1na2vs0mg"},{"bike_id":"9a709f79-795d-4469-b6a8-d9fcb4d8b955","system_id":"levelo_inurba_marseille","lat":43.330442,"lon":5.389148,"is_reserved":false,"is_disabled":false,"rental_uris":{"android":"levelo://app?vid=9a709f79-795d-4469-b6a8-d9fcb4d8b955","ios":"levelo://app?vid=9a709f79-795d-4469-b6a8-d9fcb4d8b955"},"vehicle_type_id":"4","last_reported":1718388671,"current_range_meters":8800,"station_id":"ce4bhr92rcd13ifvqhrg","pricing_plan_id":"cebpf4jnsgd1na2vs0mg"},{"bike_id":"d66a66b9-6b89-4ac3-a027-04ddf51ec1d1","system_id":"levelo_inurba_marseille","lat":43.330442,"lon":5.389148,"is_reserved":false,"is_disabled":false,"rental_uris":{"android":"levelo://app?vid=d66a66b9-6b89-4ac3-a027-04ddf51ec1d1","ios":"levelo://app?vid=d66a66b9-6b89-4ac3-a027-04ddf51ec1d1"},"vehicle_type_id":"4","last_reported":1718388671,"current_range_meters":1600,"station_id":"ce4bhr92rcd13ifvqhrg","pricing_plan_id":"cebpf4jnsgd1na2vs0mg"},{"bike_id":"6dc79a9a-2eb1-4016-b9a1-51702fd43ca3","system_id":"levelo_inurba_marseille","lat":43.33057,"lon":5.39024,"is_reserved":false,"is_disabled":false,"rental_uris":{"android":"levelo://app?vid=6dc79a9a-2eb1-4016-b9a1-51702fd43ca3","ios":"levelo://app?vid=6dc79a9a-2eb1-4016-b9a1-51702fd43ca3"},"vehicle_type_id":"4","last_reported":1718388671,"current_range_meters":31200,"station_id":"ce4bhr92rcd13ifvqhrg","pricing_plan_id":"cebpf4jnsgd1na2vs0mg"},{"bike_id":"28a27423-b14e-4580-9ede-01f2f782adce","system_id":"levelo_inurba_marseille","lat":43.312609,"lon":5.401662,"is_reserved":false,"is_disabled":false,"rental_uris":{"android":"levelo://app?vid=28a27423-b14e-4580-9ede-01f2f782adce","ios":"levelo://app?vid=28a27423-b14e-4580-9ede-01f2f782adce"},"vehicle_type_id":"4","last_reported":1718388671,"current_range_meters":0,"station_id":"ce4bh092rcd13ifvqd30","pricing_plan_id":"cebpf4jnsgd1na2vs0mg"},{"bike_id":"18ad8024-1ea1-4a9f-bc70-3db51b1c6666","system_id":"levelo_inurba_marseille","lat":43.31271,"lon":5.40171,"is_reserved":false,"is_disabled":false,"rental_uris":{"android":"levelo://app?vid=18ad8024-1ea1-4a9f-bc70-3db51b1c6666","ios":"levelo://app?vid=18ad8024-1ea1-4a9f-bc70-3db51b1c6666"},"vehicle_type_id":"4","last_reported":1718388671,"current_range_meters":800,"station_id":"ce4bh092rcd13ifvqd30","pricing_plan_id":"cebpf4jnsgd1na2vs0mg"},{"bike_id":"ddaa8e50-4724-4d0b-85fd-bacc2fcbacf3","system_id":"levelo_inurba_marseille","lat":43.30921,"lon":5.40146,"is_reserved":false,"is_disabled":false,"rental_uris":{"android":"levelo://app?vid=ddaa8e50-4724-4d0b-85fd-bacc2fcbacf3","ios":"levelo://app?vid=ddaa8e50-4724-4d0b-85fd-bacc2fcbacf3"},"vehicle_type_id":"4","last_reported":1718388671,"current_range_meters":0,"station_id":"ce4bgvp2rcd13ifvqct0","pricing_plan_id":"cebpf4jnsgd1na2vs0mg"},{"bike_id":"3ab4e3ec-07f5-4c5f-8645-e3937796c552","system_id":"levelo_inurba_marseille","lat":43.337562,"lon":5.3745,"is_reserved":false,"is_disabled":false,"rental_uris":{"android":"levelo://app?vid=3ab4e3ec-07f5-4c5f-8645-e3937796c552","ios":"levelo://app?vid=3ab4e3ec-07f5-4c5f-8645-e3937796c552"},"vehicle_type_id":"4","last_reported":1718388671,"current_range_meters":13600,"station_id":"","pricing_plan_id":"cebpf4jnsgd1na2vs0mg"},{"bike_id":"4606f127-24f6-49ab-9db3-cf76bf609f2b","system_id":"levelo_inurba_marseille","lat":43.33766,"lon":5.37423,"is_reserved":false,"is_disabled":false,"rental_uris":{"android":"levelo://app?vid=4606f127-24f6-49ab-9db3-cf76bf609f2b","ios":"levelo://app?vid=4606f127-24f6-49ab-9db3-cf76bf609f2b"},"vehicle_type_id":"4","last_reported":1718388671,"current_range_meters":13200,"station_id":"","pricing_plan_id":"cebpf4jnsgd1na2vs0mg"},{"bike_id":"0e274428-4364-43f4-8fc1-6899a8a7f22d","system_id":"levelo_inurba_marseille","lat":43.30642,"lon":5.401031,"is_reserved":false,"is_disabled":false,"rental_uris":{"android":"levelo://app?vid=0e274428-4364-43f4-8fc1-6899a8a7f22d","ios":"levelo://app?vid=0e274428-4364-43f4-8fc1-6899a8a7f22d"},"vehicle_type_id":"4","last_reported":1718388671,"current_range_meters":29600,"station_id":"ce4bh112rcd13ifvqda0","pricing_plan_id":"cebpf4jnsgd1na2vs0mg"},{"bike_id":"b26448bd-359f-4861-81c2-13fb41be7535","system_id":"levelo_inurba_marseille","lat":43.306412,"lon":5.401035,"is_reserved":false,"is_disabled":false,"rental_uris":{"android":"levelo://app?vid=b26448bd-359f-4861-81c2-13fb41be7535","ios":"levelo://app?vid=b26448bd-359f-4861-81c2-13fb41be7535"},"vehicle_type_id":"4","last_reported":1718388671,"current_range_meters":24800,"station_id":"ce4bh112rcd13ifvqda0","pricing_plan_id":"cebpf4jnsgd1na2vs0mg"},{"bike_id":"c4afa0bc-2dcd-4012-be97-7828cd4d5102","system_id":"levelo_inurba_marseille","lat":43.30649,"lon":5.40099,"is_reserved":false,"is_disabled":false,"rental_uris":{"android":"levelo://app?vid=c4afa0bc-2dcd-4012-be97-7828cd4d5102","ios":"levelo://app?vid=c4afa0bc-2dcd-4012-be97-7828cd4d5102"},"vehicle_type_id":"4","last_reported":1718388671,"current_range_meters":21200,"station_id":"ce4bh112rcd13ifvqda0","pricing_plan_id":"cebpf4jnsgd1na2vs0mg"},{"bike_id":"3524e4ef-d297-4600-a277-f5c2e7a85327","system_id":"levelo_inurba_marseille","lat":43.337991,"lon":5.37436,"is_reserved":false,"is_disabled":false,"rental_uris":{"android":"levelo://app?vid=3524e4ef-d297-4600-a277-f5c2e7a85327","ios":"levelo://app?vid=3524e4ef-d297-4600-a277-f5c2e7a85327"},"vehicle_type_id":"4","last_reported":1718388671,"current_range_meters":30400,"station_id":"","pricing_plan_id":"cebpf4jnsgd1na2vs0mg"},{"bike_id":"c0eede8f-f92a-47cb-a122-d20bab3be28f","system_id":"levelo_inurba_marseille","lat":43.28708,"lon":5.373853,"is_reserved":false,"is_disabled":false,"rental_uris":{"android":"levelo://app?vid=c0eede8f-f92a-47cb-a122-d20bab3be28f","ios":"levelo://app?vid=c0eede8f-f92a-47cb-a122-d20bab3be28f"},"vehicle_type_id":"4","last_reported":1718388671,"current_range_meters":0,"station_id":"ce4bh3p2rcd13ifvqdq0","pricing_plan_id":"cebpf4jnsgd1na2vs0mg"},{"bike_id":"3cba8db3-8430-4705-a6f7-1459c5df9330","system_id":"levelo_inurba_marseille","lat":43.28703,"lon":5.37385,"is_reserved":false,"is_disabled":false,"rental_uris":{"android":"levelo://app?vid=3cba8db3-8430-4705-a6f7-1459c5df9330","ios":"levelo://app?vid=3cba8db3-8430-4705-a6f7-1459c5df9330"},"vehicle_type_id":"4","last_reported":1718388671,"current_range_meters":0,"station_id":"ce4bh3p2rcd13ifvqdq0","pricing_plan_id":"cebpf4jnsgd1na2vs0mg"},{"bike_id":"bf03a0c0-faad-4825-ad73-c733f5976262","system_id":"levelo_inurba_marseille","lat":43.286961,"lon":5.373785,"is_reserved":false,"is_disabled":false,"rental_uris":{"android":"levelo://app?vid=bf03a0c0-faad-4825-ad73-c733f5976262","ios":"levelo://app?vid=bf03a0c0-faad-4825-ad73-c733f5976262"},"vehicle_type_id":"4","last_reported":1718388671,"current_range_meters":0,"station_id":"ce4bh3p2rcd13ifvqdq0","pricing_plan_id":"cebpf4jnsgd1na2vs0mg"},{"bike_id":"8a93981a-5979-4165-a7da-a0da5c345924","system_id":"levelo_inurba_marseille","lat":43.28662,"lon":5.36349,"is_reserved":false,"is_disabled":false,"rental_uris":{"android":"levelo://app?vid=8a93981a-5979-4165-a7da-a0da5c345924","ios":"levelo://app?vid=8a93981a-5979-4165-a7da-a0da5c345924"},"vehicle_type_id":"4","last_reported":1718388671,"current_range_meters":0,"station_id":"ce4bhah2rcd13ifvqej0","pricing_plan_id":"cebpf4jnsgd1na2vs0mg"},{"bike_id":"229c0ec9-ce28-49a5-baaf-c33e37610884","system_id":"levelo_inurba_marseille","lat":43.295194,"lon":5.39397,"is_reserved":false,"is_disabled":false,"rental_uris":{"android":"levelo://app?vid=229c0ec9-ce28-49a5-baaf-c33e37610884","ios":"levelo://app?vid=229c0ec9-ce28-49a5-baaf-c33e37610884"},"vehicle_type_id":"4","last_reported":1718388671,"current_range_meters":30800,"station_id":"ce4bh292rcd13ifvqdf0","pricing_plan_id":"cebpf4jnsgd1na2vs0mg"},{"bike_id":"f88acc3e-1a88-48cf-bf1d-a11d27f722b5","system_id":"levelo_inurba_marseille","lat":43.295153,"lon":5.394022,"is_reserved":false,"is_disabled":false,"rental_uris":{"android":"levelo://app?vid=f88acc3e-1a88-48cf-bf1d-a11d27f722b5","ios":"levelo://app?vid=f88acc3e-1a88-48cf-bf1d-a11d27f722b5"},"vehicle_type_id":"4","last_reported":1718388671,"current_range_meters":31200,"station_id":"ce4bh292rcd13ifvqdf0","pricing_plan_id":"cebpf4jnsgd1na2vs0mg"},{"bike_id":"aba1995a-c063-4e5d-bf65-b43a302af935","system_id":"levelo_inurba_marseille","lat":43.302759,"lon":5.400793,"is_reserved":false,"is_disabled":false,"rental_uris":{"android":"levelo://app?vid=aba1995a-c063-4e5d-bf65-b43a302af935","ios":"levelo://app?vid=aba1995a-c063-4e5d-bf65-b43a302af935"},"vehicle_type_id":"4","last_reported":1718388671,"current_range_meters":31200,"station_id":"ce4bgvh2rcd13ifvqcs0","pricing_plan_id":"cebpf4jnsgd1na2vs0mg"},{"bike_id":"a4a128ea-3145-4b5f-bce7-458bfaf752ed","system_id":"levelo_inurba_marseille","lat":43.286039,"lon":5.370681,"is_reserved":false,"is_disabled":false,"rental_uris":{"android":"levelo://app?vid=a4a128ea-3145-4b5f-bce7-458bfaf752ed","ios":"levelo://app?vid=a4a128ea-3145-4b5f-bce7-458bfaf752ed"},"vehicle_type_id":"4","last_reported":1718388671,"current_range_meters":12800,"station_id":"ce4bht12rcd13ifvqi60","pricing_plan_id":"cebpf4jnsgd1na2vs0mg"},{"bike_id":"d91eb188-5ee0-48dc-980f-56eb3ed524a8","system_id":"levelo_inurba_marseille","lat":43.286039,"lon":5.370679,"is_reserved":false,"is_disabled":false,"rental_uris":{"android":"levelo://app?vid=d91eb188-5ee0-48dc-980f-56eb3ed524a8","ios":"levelo://app?vid=d91eb188-5ee0-48dc-980f-56eb3ed524a8"},"vehicle_type_id":"4","last_reported":1718388671,"current_range_meters":26800,"station_id":"ce4bht12rcd13ifvqi60","pricing_plan_id":"cebpf4jnsgd1na2vs0mg"},{"bike_id":"42f75c0d-5ba4-4dd8-b837-9d049c1d81f7","system_id":"levelo_inurba_marseille","lat":43.286039,"lon":5.370681,"is_reserved":false,"is_disabled":false,"rental_uris":{"android":"levelo://app?vid=42f75c0d-5ba4-4dd8-b837-9d049c1d81f7","ios":"levelo://app?vid=42f75c0d-5ba4-4dd8-b837-9d049c1d81f7"},"vehicle_type_id":"4","last_reported":1718388671,"current_range_meters":2400,"station_id":"ce4bht12rcd13ifvqi60","pricing_plan_id":"cebpf4jnsgd1na2vs0mg"},{"bike_id":"7d9faeb5-88e6-4741-845f-dd3a1e698c30","system_id":"levelo_inurba_marseille","lat":43.286039,"lon":5.370681,"is_reserved":false,"is_disabled":false,"rental_uris":{"android":"levelo://app?vid=7d9faeb5-88e6-4741-845f-dd3a1e698c30","ios":"levelo://app?vid=7d9faeb5-88e6-4741-845f-dd3a1e698c30"},"vehicle_type_id":"4","last_reported":1718388671,"current_range_meters":4400,"station_id":"ce4bht12rcd13ifvqi60","pricing_plan_id":"cebpf4jnsgd1na2vs0mg"},{"bike_id":"ba2514ea-65a0-4235-9852-7b37d24d6335","system_id":"levelo_inurba_marseille","lat":43.302759,"lon":5.400793,"is_reserved":false,"is_disabled":false,"rental_uris":{"android":"levelo://app?vid=ba2514ea-65a0-4235-9852-7b37d24d6335","ios":"levelo://app?vid=ba2514ea-65a0-4235-9852-7b37d24d6335"},"vehicle_type_id":"4","last_reported":1718388671,"current_range_meters":12000,"station_id":"ce4bgvh2rcd13ifvqcs0","pricing_plan_id":"cebpf4jnsgd1na2vs0mg"},{"bike_id":"35f42fe1-3b3b-4caa-b848-71275d818d90","system_id":"levelo_inurba_marseille","lat":43.286039,"lon":5.370681,"is_reserved":false,"is_disabled":false,"rental_uris":{"android":"levelo://app?vid=35f42fe1-3b3b-4caa-b848-71275d818d90","ios":"levelo://app?vid=35f42fe1-3b3b-4caa-b848-71275d818d90"},"vehicle_type_id":"4","last_reported":1718388671,"current_range_meters":16800,"station_id":"ce4bht12rcd13ifvqi60","pricing_plan_id":"cebpf4jnsgd1na2vs0mg"},{"bike_id":"3e3239d3-3b2e-4447-b2d5-2cd46a8a1f38","system_id":"levelo_inurba_marseille","lat":43.286039,"lon":5.370679,"is_reserved":false,"is_disabled":false,"rental_uris":{"android":"levelo://app?vid=3e3239d3-3b2e-4447-b2d5-2cd46a8a1f38","ios":"levelo://app?vid=3e3239d3-3b2e-4447-b2d5-2cd46a8a1f38"},"vehicle_type_id":"4","last_reported":1718388671,"current_range_meters":27600,"station_id":"ce4bht12rcd13ifvqi60","pricing_plan_id":"cebpf4jnsgd1na2vs0mg"},{"bike_id":"a0cabb95-e528-43ff-9d4c-8144b62c1172","system_id":"levelo_inurba_marseille","lat":43.287184,"lon":5.37937,"is_reserved":false,"is_disabled":false,"rental_uris":{"android":"levelo://app?vid=a0cabb95-e528-43ff-9d4c-8144b62c1172","ios":"levelo://app?vid=a0cabb95-e528-43ff-9d4c-8144b62c1172"},"vehicle_type_id":"4","last_reported":1718388671,"current_range_meters":23600,"station_id":"ce4bh9p2rcd13ifvqec0","pricing_plan_id":"cebpf4jnsgd1na2vs0mg"},{"bike_id":"7039e463-6822-4265-8712-7f90ae22df0a","system_id":"levelo_inurba_marseille","lat":43.28716,"lon":5.37944,"is_reserved":false,"is_disabled":false,"rental_uris":{"android":"levelo://app?vid=7039e463-6822-4265-8712-7f90ae22df0a","ios":"levelo://app?vid=7039e463-6822-4265-8712-7f90ae22df0a"},"vehicle_type_id":"4","last_reported":1718388671,"current_range_meters":0,"station_id":"ce4bh9p2rcd13ifvqec0","pricing_plan_id":"cebpf4jnsgd1na2vs0mg"},{"bike_id":"85876b66-55e6-4c87-828d-93e5fe1a4c5d","system_id":"levelo_inurba_marseille","lat":43.316821,"lon":5.404737,"is_reserved":false,"is_disabled":false,"rental_uris":{"android":"levelo://app?vid=85876b66-55e6-4c87-828d-93e5fe1a4c5d","ios":"levelo://app?vid=85876b66-55e6-4c87-828d-93e5fe1a4c5d"},"vehicle_type_id":"4","last_reported":1718388671,"current_range_meters":1200,"station_id":"ce4bh012rcd13ifvqd00","pricing_plan_id":"cebpf4jnsgd1na2vs0mg"},{"bike_id":"21e1e54a-92dc-4cd4-b701-8f2158335521","system_id":"levelo_inurba_marseille","lat":43.316828,"lon":5.404723,"is_reserved":false,"is_disabled":false,"rental_uris":{"android":"levelo://app?vid=21e1e54a-92dc-4cd4-b701-8f2158335521","ios":"levelo://app?vid=21e1e54a-92dc-4cd4-b701-8f2158335521"},"vehicle_type_id":"4","last_reported":1718388671,"current_range_meters":0,"station_id":"ce4bh012rcd13ifvqd00","pricing_plan_id":"cebpf4jnsgd1na2vs0mg"},{"bike_id":"c1744980-f8b7-404d-a120-b38aafd38e25","system_id":"levelo_inurba_marseille","lat":43.291994,"lon":5.392907,"is_reserved":false,"is_disabled":false,"rental_uris":{"android":"levelo://app?vid=c1744980-f8b7-404d-a120-b38aafd38e25","ios":"levelo://app?vid=c1744980-f8b7-404d-a120-b38aafd38e25"},"vehicle_type_id":"4","last_reported":1718388671,"current_range_meters":13600,"station_id":"ce4bh192rcd13ifvqdd0","pricing_plan_id":"cebpf4jnsgd1na2vs0mg"},{"bike_id":"ee66685c-febe-4667-a063-a99e5b387d29","system_id":"levelo_inurba_marseille","lat":43.291994,"lon":5.392907,"is_reserved":false,"is_disabled":false,"rental_uris":{"android":"levelo://app?vid=ee66685c-febe-4667-a063-a99e5b387d29","ios":"levelo://app?vid=ee66685c-febe-4667-a063-a99e5b387d29"},"vehicle_type_id":"4","last_reported":1718388671,"current_range_meters":0,"station_id":"ce4bh192rcd13ifvqdd0","pricing_plan_id":"cebpf4jnsgd1na2vs0mg"},{"bike_id":"1d62fb08-43ef-4d0a-9bc2-7519172309fe","system_id":"levelo_inurba_marseille","lat":43.28618,"lon":5.35112,"is_reserved":false,"is_disabled":false,"rental_uris":{"android":"levelo://app?vid=1d62fb08-43ef-4d0a-9bc2-7519172309fe","ios":"levelo://app?vid=1d62fb08-43ef-4d0a-9bc2-7519172309fe"},"vehicle_type_id":"4","last_reported":1718388671,"current_range_meters":28800,"station_id":"ce4bhch2rcd13ifvqeug","pricing_plan_id":"cebpf4jnsgd1na2vs0mg"},{"bike_id":"6103f782-5cd6-49e3-8daf-7b1e176ca8ae","system_id":"levelo_inurba_marseille","lat":43.285856,"lon":5.350771,"is_reserved":false,"is_disabled":false,"rental_uris":{"android":"levelo://app?vid=6103f782-5cd6-49e3-8daf-7b1e176ca8ae","ios":"levelo://app?vid=6103f782-5cd6-49e3-8daf-7b1e176ca8ae"},"vehicle_type_id":"4","last_reported":1718388671,"current_range_meters":14800,"station_id":"ce4bhch2rcd13ifvqeug","pricing_plan_id":"cebpf4jnsgd1na2vs0mg"},{"bike_id":"e6f0d0b8-a79a-49e7-9fb2-f4812120c92b","system_id":"levelo_inurba_marseille","lat":43.28618,"lon":5.35103,"is_reserved":false,"is_disabled":false,"rental_uris":{"android":"levelo://app?vid=e6f0d0b8-a79a-49e7-9fb2-f4812120c92b","ios":"levelo://app?vid=e6f0d0b8-a79a-49e7-9fb2-f4812120c92b"},"vehicle_type_id":"4","last_reported":1718388671,"current_range_meters":17200,"station_id":"ce4bhch2rcd13ifvqeug","pricing_plan_id":"cebpf4jnsgd1na2vs0mg"},{"bike_id":"6500b58a-1337-4c1c-b0de-d358f90e9267","system_id":"levelo_inurba_marseille","lat":43.28615,"lon":5.35106,"is_reserved":false,"is_disabled":false,"rental_uris":{"android":"levelo://app?vid=6500b58a-1337-4c1c-b0de-d358f90e9267","ios":"levelo://app?vid=6500b58a-1337-4c1c-b0de-d358f90e9267"},"vehicle_type_id":"4","last_reported":1718388671,"current_range_meters":31200,"station_id":"ce4bhch2rcd13ifvqeug","pricing_plan_id":"cebpf4jnsgd1na2vs0mg"},{"bike_id":"9158bf8e-4ed1-412f-8892-1756e3390bc1","system_id":"levelo_inurba_marseille","lat":43.285856,"lon":5.350771,"is_reserved":false,"is_disabled":false,"rental_uris":{"android":"levelo://app?vid=9158bf8e-4ed1-412f-8892-1756e3390bc1","ios":"levelo://app?vid=9158bf8e-4ed1-412f-8892-1756e3390bc1"},"vehicle_type_id":"4","last_reported":1718388671,"current_range_meters":20800,"station_id":"ce4bhch2rcd13ifvqeug","pricing_plan_id":"cebpf4jnsgd1na2vs0mg"},{"bike_id":"c20f112f-3a73-48fe-8bdb-b1f0a9ae0d38","system_id":"levelo_inurba_marseille","lat":43.28616,"lon":5.35101,"is_reserved":false,"is_disabled":false,"rental_uris":{"android":"levelo://app?vid=c20f112f-3a73-48fe-8bdb-b1f0a9ae0d38","ios":"levelo://app?vid=c20f112f-3a73-48fe-8bdb-b1f0a9ae0d38"},"vehicle_type_id":"4","last_reported":1718388671,"current_range_meters":31200,"station_id":"","pricing_plan_id":"cebpf4jnsgd1na2vs0mg"},{"bike_id":"d306fb33-2245-4b8d-8c8e-0145866f7887","system_id":"levelo_inurba_marseille","lat":43.28614,"lon":5.35105,"is_reserved":false,"is_disabled":false,"rental_uris":{"android":"levelo://app?vid=d306fb33-2245-4b8d-8c8e-0145866f7887","ios":"levelo://app?vid=d306fb33-2245-4b8d-8c8e-0145866f7887"},"vehicle_type_id":"4","last_reported":1718388671,"current_range_meters":400,"station_id":"ce4bhch2rcd13ifvqeug","pricing_plan_id":"cebpf4jnsgd1na2vs0mg"},{"bike_id":"d7864b6b-b560-46b1-b010-f1faad17d8d4","system_id":"levelo_inurba_marseille","lat":43.28614,"lon":5.35103,"is_reserved":false,"is_disabled":false,"rental_uris":{"android":"levelo://app?vid=d7864b6b-b560-46b1-b010-f1faad17d8d4","ios":"levelo://app?vid=d7864b6b-b560-46b1-b010-f1faad17d8d4"},"vehicle_type_id":"4","last_reported":1718388671,"current_range_meters":31200,"station_id":"ce4bhch2rcd13ifvqeug","pricing_plan_id":"cebpf4jnsgd1na2vs0mg"},{"bike_id":"1c0c52fc-f998-4a7f-93ac-2ff7cf245c04","system_id":"levelo_inurba_marseille","lat":43.28613,"lon":5.35105,"is_reserved":false,"is_disabled":false,"rental_uris":{"android":"levelo://app?vid=1c0c52fc-f998-4a7f-93ac-2ff7cf245c04","ios":"levelo://app?vid=1c0c52fc-f998-4a7f-93ac-2ff7cf245c04"},"vehicle_type_id":"4","last_reported":1718388671,"current_range_meters":4800,"station_id":"ce4bhch2rcd13ifvqeug","pricing_plan_id":"cebpf4jnsgd1na2vs0mg"},{"bike_id":"6e5ac248-8b95-4d9c-924d-c93c13840781","system_id":"levelo_inurba_marseille","lat":43.286112,"lon":5.351077,"is_reserved":false,"is_disabled":false,"rental_uris":{"android":"levelo://app?vid=6e5ac248-8b95-4d9c-924d-c93c13840781","ios":"levelo://app?vid=6e5ac248-8b95-4d9c-924d-c93c13840781"},"vehicle_type_id":"4","last_reported":1718388671,"current_range_meters":30000,"station_id":"","pricing_plan_id":"cebpf4jnsgd1na2vs0mg"},{"bike_id":"8cc1a28d-07ed-4770-850c-6ac6b1e8e57d","system_id":"levelo_inurba_marseille","lat":43.283998,"lon":5.375062,"is_reserved":false,"is_disabled":false,"rental_uris":{"android":"levelo://app?vid=8cc1a28d-07ed-4770-850c-6ac6b1e8e57d","ios":"levelo://app?vid=8cc1a28d-07ed-4770-850c-6ac6b1e8e57d"},"vehicle_type_id":"4","last_reported":1718388671,"current_range_meters":15600,"station_id":"ce4bh412rcd13ifvqds0","pricing_plan_id":"cebpf4jnsgd1na2vs0mg"},{"bike_id":"db844715-3def-4163-a8e0-189fbd0cedf3","system_id":"levelo_inurba_marseille","lat":43.28404,"lon":5.37518,"is_reserved":false,"is_disabled":false,"rental_uris":{"android":"levelo://app?vid=db844715-3def-4163-a8e0-189fbd0cedf3","ios":"levelo://app?vid=db844715-3def-4163-a8e0-189fbd0cedf3"},"vehicle_type_id":"4","last_reported":1718388671,"current_range_meters":0,"station_id":"ce4bh412rcd13ifvqds0","pricing_plan_id":"cebpf4jnsgd1na2vs0mg"},{"bike_id":"438f860d-f792-42e8-bab8-70b9304488ee","system_id":"levelo_inurba_marseille","lat":43.284,"lon":5.37524,"is_reserved":false,"is_disabled":false,"rental_uris":{"android":"levelo://app?vid=438f860d-f792-42e8-bab8-70b9304488ee","ios":"levelo://app?vid=438f860d-f792-42e8-bab8-70b9304488ee"},"vehicle_type_id":"4","last_reported":1718388671,"current_range_meters":0,"station_id":"ce4bh412rcd13ifvqds0","pricing_plan_id":"cebpf4jnsgd1na2vs0mg"},{"bike_id":"a274883a-3572-4e92-ad99-48390b4c778c","system_id":"levelo_inurba_marseille","lat":43.286595,"lon":5.386795,"is_reserved":false,"is_disabled":false,"rental_uris":{"android":"levelo://app?vid=a274883a-3572-4e92-ad99-48390b4c778c","ios":"levelo://app?vid=a274883a-3572-4e92-ad99-48390b4c778c"},"vehicle_type_id":"4","last_reported":1718388671,"current_range_meters":0,"station_id":"ce4bh492rcd13ifvqdug","pricing_plan_id":"cebpf4jnsgd1na2vs0mg"},{"bike_id":"03ae9ee6-9d82-4dc0-9c23-5a4d94f42d90","system_id":"levelo_inurba_marseille","lat":43.28664,"lon":5.386692,"is_reserved":false,"is_disabled":false,"rental_uris":{"android":"levelo://app?vid=03ae9ee6-9d82-4dc0-9c23-5a4d94f42d90","ios":"levelo://app?vid=03ae9ee6-9d82-4dc0-9c23-5a4d94f42d90"},"vehicle_type_id":"4","last_reported":1718388671,"current_range_meters":0,"station_id":"ce4bh492rcd13ifvqdug","pricing_plan_id":"cebpf4jnsgd1na2vs0mg"},{"bike_id":"7f2467de-57b5-4c18-9a33-66880f8fd35c","system_id":"levelo_inurba_marseille","lat":43.28814,"lon":5.39131,"is_reserved":false,"is_disabled":false,"rental_uris":{"android":"levelo://app?vid=7f2467de-57b5-4c18-9a33-66880f8fd35c","ios":"levelo://app?vid=7f2467de-57b5-4c18-9a33-66880f8fd35c"},"vehicle_type_id":"4","last_reported":1718388671,"current_range_meters":1200,"station_id":"","pricing_plan_id":"cebpf4jnsgd1na2vs0mg"},{"bike_id":"86d9c52b-e5bf-45ec-a477-98b94665837e","system_id":"levelo_inurba_marseille","lat":43.337168,"lon":5.391825,"is_reserved":false,"is_disabled":false,"rental_uris":{"android":"levelo://app?vid=86d9c52b-e5bf-45ec-a477-98b94665837e","ios":"levelo://app?vid=86d9c52b-e5bf-45ec-a477-98b94665837e"},"vehicle_type_id":"4","last_reported":1718388671,"current_range_meters":29600,"station_id":"ce4bhr92rcd13ifvqhsg","pricing_plan_id":"cebpf4jnsgd1na2vs0mg"},{"bike_id":"680d5a41-8105-486a-a1e2-ff67bd19d887","system_id":"levelo_inurba_marseille","lat":43.337291,"lon":5.391784,"is_reserved":false,"is_disabled":false,"rental_uris":{"android":"levelo://app?vid=680d5a41-8105-486a-a1e2-ff67bd19d887","ios":"levelo://app?vid=680d5a41-8105-486a-a1e2-ff67bd19d887"},"vehicle_type_id":"4","last_reported":1718388671,"current_range_meters":800,"station_id":"ce4bhr92rcd13ifvqhsg","pricing_plan_id":"cebpf4jnsgd1na2vs0mg"},{"bike_id":"5c5569ed-1502-4fe9-af47-a596ade3472b","system_id":"levelo_inurba_marseille","lat":43.337168,"lon":5.391825,"is_reserved":false,"is_disabled":false,"rental_uris":{"android":"levelo://app?vid=5c5569ed-1502-4fe9-af47-a596ade3472b","ios":"levelo://app?vid=5c5569ed-1502-4fe9-af47-a596ade3472b"},"vehicle_type_id":"4","last_reported":1718388671,"current_range_meters":13200,"station_id":"ce4bhr92rcd13ifvqhsg","pricing_plan_id":"cebpf4jnsgd1na2vs0mg"},{"bike_id":"7902fdc2-855b-46d5-8f4b-148985859e4b","system_id":"levelo_inurba_marseille","lat":43.337239,"lon":5.391918,"is_reserved":false,"is_disabled":false,"rental_uris":{"android":"levelo://app?vid=7902fdc2-855b-46d5-8f4b-148985859e4b","ios":"levelo://app?vid=7902fdc2-855b-46d5-8f4b-148985859e4b"},"vehicle_type_id":"4","last_reported":1718388671,"current_range_meters":2800,"station_id":"ce4bhr92rcd13ifvqhsg","pricing_plan_id":"cebpf4jnsgd1na2vs0mg"},{"bike_id":"69c7aabb-1c96-4f41-a12a-e696b2ac9148","system_id":"levelo_inurba_marseille","lat":43.323464,"lon":5.406297,"is_reserved":false,"is_disabled":false,"rental_uris":{"android":"levelo://app?vid=69c7aabb-1c96-4f41-a12a-e696b2ac9148","ios":"levelo://app?vid=69c7aabb-1c96-4f41-a12a-e696b2ac9148"},"vehicle_type_id":"4","last_reported":1718388671,"current_range_meters":3600,"station_id":"ce4bhq92rcd13ifvqhjg","pricing_plan_id":"cebpf4jnsgd1na2vs0mg"},{"bike_id":"d213429e-2a93-48c8-b6ab-e65713cec287","system_id":"levelo_inurba_marseille","lat":43.323464,"lon":5.406297,"is_reserved":false,"is_disabled":false,"rental_uris":{"android":"levelo://app?vid=d213429e-2a93-48c8-b6ab-e65713cec287","ios":"levelo://app?vid=d213429e-2a93-48c8-b6ab-e65713cec287"},"vehicle_type_id":"4","last_reported":1718388671,"current_range_meters":22400,"station_id":"ce4bhq92rcd13ifvqhjg","pricing_plan_id":"cebpf4jnsgd1na2vs0mg"},{"bike_id":"5faa7aef-3e39-4e59-ad27-67fd0c63a75d","system_id":"levelo_inurba_marseille","lat":43.284793,"lon":5.384119,"is_reserved":false,"is_disabled":false,"rental_uris":{"android":"levelo://app?vid=5faa7aef-3e39-4e59-ad27-67fd0c63a75d","ios":"levelo://app?vid=5faa7aef-3e39-4e59-ad27-67fd0c63a75d"},"vehicle_type_id":"4","last_reported":1718388671,"current_range_meters":800,"station_id":"ce4bh512rcd13ifvqe3g","pricing_plan_id":"cebpf4jnsgd1na2vs0mg"},{"bike_id":"9fac7791-4353-4bcd-b64a-0b43d1653e2b","system_id":"levelo_inurba_marseille","lat":43.29795,"lon":5.404086,"is_reserved":false,"is_disabled":false,"rental_uris":{"android":"levelo://app?vid=9fac7791-4353-4bcd-b64a-0b43d1653e2b","ios":"levelo://app?vid=9fac7791-4353-4bcd-b64a-0b43d1653e2b"},"vehicle_type_id":"4","last_reported":1718388671,"current_range_meters":31600,"station_id":"ce4bh112rcd13ifvqd90","pricing_plan_id":"cebpf4jnsgd1na2vs0mg"},{"bike_id":"72c62b10-b7d9-4a36-b37a-484aaf7b69e0","system_id":"levelo_inurba_marseille","lat":43.28851,"lon":5.39327,"is_reserved":false,"is_disabled":false,"rental_uris":{"android":"levelo://app?vid=72c62b10-b7d9-4a36-b37a-484aaf7b69e0","ios":"levelo://app?vid=72c62b10-b7d9-4a36-b37a-484aaf7b69e0"},"vehicle_type_id":"4","last_reported":1718388671,"current_range_meters":0,"station_id":"ce4bh2p2rcd13ifvqdi0","pricing_plan_id":"cebpf4jnsgd1na2vs0mg"},{"bike_id":"46df231f-599c-4bb9-a760-45a3ae7168c1","system_id":"levelo_inurba_marseille","lat":43.284776,"lon":5.385603,"is_reserved":false,"is_disabled":false,"rental_uris":{"android":"levelo://app?vid=46df231f-599c-4bb9-a760-45a3ae7168c1","ios":"levelo://app?vid=46df231f-599c-4bb9-a760-45a3ae7168c1"},"vehicle_type_id":"4","last_reported":1718388671,"current_range_meters":4800,"station_id":"ce4bh8p2rcd13ifvqeb0","pricing_plan_id":"cebpf4jnsgd1na2vs0mg"},{"bike_id":"f93f3941-9351-4b2f-b4aa-7b26a31c0539","system_id":"levelo_inurba_marseille","lat":43.284219,"lon":5.3497,"is_reserved":false,"is_disabled":false,"rental_uris":{"android":"levelo://app?vid=f93f3941-9351-4b2f-b4aa-7b26a31c0539","ios":"levelo://app?vid=f93f3941-9351-4b2f-b4aa-7b26a31c0539"},"vehicle_type_id":"4","last_reported":1718388671,"current_range_meters":400,"station_id":"ce4bhbh2rcd13ifvqepg","pricing_plan_id":"cebpf4jnsgd1na2vs0mg"},{"bike_id":"30c095d7-bf9f-4103-972f-60210f54d2ec","system_id":"levelo_inurba_marseille","lat":43.34158,"lon":5.38547,"is_reserved":false,"is_disabled":false,"rental_uris":{"android":"levelo://app?vid=30c095d7-bf9f-4103-972f-60210f54d2ec","ios":"levelo://app?vid=30c095d7-bf9f-4103-972f-60210f54d2ec"},"vehicle_type_id":"4","last_reported":1718388671,"current_range_meters":4000,"station_id":"","pricing_plan_id":"cebpf4jnsgd1na2vs0mg"},{"bike_id":"bd6ea279-37d9-4dc3-a7fe-0f3787ab11f5","system_id":"levelo_inurba_marseille","lat":43.292724,"lon":5.401131,"is_reserved":false,"is_disabled":false,"rental_uris":{"android":"levelo://app?vid=bd6ea279-37d9-4dc3-a7fe-0f3787ab11f5","ios":"levelo://app?vid=bd6ea279-37d9-4dc3-a7fe-0f3787ab11f5"},"vehicle_type_id":"4","last_reported":1718388671,"current_range_meters":17200,"station_id":"ce4bh312rcd13ifvqdk0","pricing_plan_id":"cebpf4jnsgd1na2vs0mg"},{"bike_id":"5378b034-b0e9-4378-b1b1-c9cdd28ee7ec","system_id":"levelo_inurba_marseille","lat":43.282754,"lon":5.350519,"is_reserved":false,"is_disabled":false,"rental_uris":{"android":"levelo://app?vid=5378b034-b0e9-4378-b1b1-c9cdd28ee7ec","ios":"levelo://app?vid=5378b034-b0e9-4378-b1b1-c9cdd28ee7ec"},"vehicle_type_id":"4","last_reported":1718388671,"current_range_meters":2000,"station_id":"ce4bhbp2rcd13ifvqerg","pricing_plan_id":"cebpf4jnsgd1na2vs0mg"},{"bike_id":"ecea8a00-5512-4bf1-8536-3f105fcf1dd7","system_id":"levelo_inurba_marseille","lat":43.282754,"lon":5.350519,"is_reserved":false,"is_disabled":false,"rental_uris":{"android":"levelo://app?vid=ecea8a00-5512-4bf1-8536-3f105fcf1dd7","ios":"levelo://app?vid=ecea8a00-5512-4bf1-8536-3f105fcf1dd7"},"vehicle_type_id":"4","last_reported":1718388671,"current_range_meters":800,"station_id":"ce4bhbp2rcd13ifvqerg","pricing_plan_id":"cebpf4jnsgd1na2vs0mg"},{"bike_id":"1a905cd6-b585-4296-a08b-c9ba75239a11","system_id":"levelo_inurba_marseille","lat":43.28039,"lon":5.369297,"is_reserved":false,"is_disabled":false,"rental_uris":{"android":"levelo://app?vid=1a905cd6-b585-4296-a08b-c9ba75239a11","ios":"levelo://app?vid=1a905cd6-b585-4296-a08b-c9ba75239a11"},"vehicle_type_id":"4","last_reported":1718388671,"current_range_meters":4800,"station_id":"ce4bha12rcd13ifvqef0","pricing_plan_id":"cebpf4jnsgd1na2vs0mg"},{"bike_id":"aec837e7-c765-4564-b7db-82d22d5d4c28","system_id":"levelo_inurba_marseille","lat":43.28112,"lon":5.3784,"is_reserved":false,"is_disabled":false,"rental_uris":{"android":"levelo://app?vid=aec837e7-c765-4564-b7db-82d22d5d4c28","ios":"levelo://app?vid=aec837e7-c765-4564-b7db-82d22d5d4c28"},"vehicle_type_id":"4","last_reported":1718388671,"current_range_meters":0,"station_id":"ce4bha12rcd13ifvqee0","pricing_plan_id":"cebpf4jnsgd1na2vs0mg"},{"bike_id":"585608e4-27c7-461e-9cce-cfee6f6a431d","system_id":"levelo_inurba_marseille","lat":43.281044,"lon":5.378308,"is_reserved":false,"is_disabled":false,"rental_uris":{"android":"levelo://app?vid=585608e4-27c7-461e-9cce-cfee6f6a431d","ios":"levelo://app?vid=585608e4-27c7-461e-9cce-cfee6f6a431d"},"vehicle_type_id":"4","last_reported":1718388671,"current_range_meters":1200,"station_id":"ce4bha12rcd13ifvqee0","pricing_plan_id":"cebpf4jnsgd1na2vs0mg"},{"bike_id":"0778512a-55e3-4f5a-b2f6-993a434a4dcd","system_id":"levelo_inurba_marseille","lat":43.290412,"lon":5.399633,"is_reserved":false,"is_disabled":false,"rental_uris":{"android":"levelo://app?vid=0778512a-55e3-4f5a-b2f6-993a434a4dcd","ios":"levelo://app?vid=0778512a-55e3-4f5a-b2f6-993a434a4dcd"},"vehicle_type_id":"4","last_reported":1718388671,"current_range_meters":19600,"station_id":"ce4bh392rcd13ifvqdm0","pricing_plan_id":"cebpf4jnsgd1na2vs0mg"},{"bike_id":"657a3598-a41a-474f-bacd-a32954fa96ec","system_id":"levelo_inurba_marseille","lat":43.28022,"lon":5.36093,"is_reserved":false,"is_disabled":false,"rental_uris":{"android":"levelo://app?vid=657a3598-a41a-474f-bacd-a32954fa96ec","ios":"levelo://app?vid=657a3598-a41a-474f-bacd-a32954fa96ec"},"vehicle_type_id":"4","last_reported":1718388671,"current_range_meters":12800,"station_id":"","pricing_plan_id":"cebpf4jnsgd1na2vs0mg"},{"bike_id":"bc924481-44ff-458e-be46-6ccb614b0a3f","system_id":"levelo_inurba_marseille","lat":43.281044,"lon":5.378308,"is_reserved":false,"is_disabled":false,"rental_uris":{"android":"levelo://app?vid=bc924481-44ff-458e-be46-6ccb614b0a3f","ios":"levelo://app?vid=bc924481-44ff-458e-be46-6ccb614b0a3f"},"vehicle_type_id":"4","last_reported":1718388671,"current_range_meters":14000,"station_id":"ce4bha12rcd13ifvqee0","pricing_plan_id":"cebpf4jnsgd1na2vs0mg"},{"bike_id":"168d8d20-63d4-47c0-959b-835523cbf65a","system_id":"levelo_inurba_marseille","lat":43.281044,"lon":5.378308,"is_reserved":false,"is_disabled":false,"rental_uris":{"android":"levelo://app?vid=168d8d20-63d4-47c0-959b-835523cbf65a","ios":"levelo://app?vid=168d8d20-63d4-47c0-959b-835523cbf65a"},"vehicle_type_id":"4","last_reported":1718388671,"current_range_meters":12000,"station_id":"ce4bha12rcd13ifvqee0","pricing_plan_id":"cebpf4jnsgd1na2vs0mg"},{"bike_id":"05eedb30-2fff-432c-aa11-c762018cb891","system_id":"levelo_inurba_marseille","lat":43.296263,"lon":5.40601,"is_reserved":false,"is_disabled":false,"rental_uris":{"android":"levelo://app?vid=05eedb30-2fff-432c-aa11-c762018cb891","ios":"levelo://app?vid=05eedb30-2fff-432c-aa11-c762018cb891"},"vehicle_type_id":"4","last_reported":1718388671,"current_range_meters":10800,"station_id":"ce4bh0h2rcd13ifvqd60","pricing_plan_id":"cebpf4jnsgd1na2vs0mg"},{"bike_id":"ff16a6ce-8158-49d0-b9c9-3d14bc1254c6","system_id":"levelo_inurba_marseille","lat":43.284462,"lon":5.392121,"is_reserved":false,"is_disabled":false,"rental_uris":{"android":"levelo://app?vid=ff16a6ce-8158-49d0-b9c9-3d14bc1254c6","ios":"levelo://app?vid=ff16a6ce-8158-49d0-b9c9-3d14bc1254c6"},"vehicle_type_id":"4","last_reported":1718388671,"current_range_meters":6000,"station_id":"ce4bhoh2rcd13ifvqh5g","pricing_plan_id":"cebpf4jnsgd1na2vs0mg"},{"bike_id":"90f0844e-7691-4849-934c-e5cf17528ca5","system_id":"levelo_inurba_marseille","lat":43.28193,"lon":5.38587,"is_reserved":false,"is_disabled":false,"rental_uris":{"android":"levelo://app?vid=90f0844e-7691-4849-934c-e5cf17528ca5","ios":"levelo://app?vid=90f0844e-7691-4849-934c-e5cf17528ca5"},"vehicle_type_id":"4","last_reported":1718388671,"current_range_meters":0,"station_id":"","pricing_plan_id":"cebpf4jnsgd1na2vs0mg"},{"bike_id":"52eadd2e-33e9-406e-82da-aa3383ab7228","system_id":"levelo_inurba_marseille","lat":43.28191,"lon":5.3859,"is_reserved":false,"is_disabled":false,"rental_uris":{"android":"levelo://app?vid=52eadd2e-33e9-406e-82da-aa3383ab7228","ios":"levelo://app?vid=52eadd2e-33e9-406e-82da-aa3383ab7228"},"vehicle_type_id":"4","last_reported":1718388671,"current_range_meters":0,"station_id":"","pricing_plan_id":"cebpf4jnsgd1na2vs0mg"},{"bike_id":"c53f8190-a38f-425a-a773-e96f7741ba42","system_id":"levelo_inurba_marseille","lat":43.285742,"lon":5.395004,"is_reserved":false,"is_disabled":false,"rental_uris":{"android":"levelo://app?vid=c53f8190-a38f-425a-a773-e96f7741ba42","ios":"levelo://app?vid=c53f8190-a38f-425a-a773-e96f7741ba42"},"vehicle_type_id":"4","last_reported":1718388671,"current_range_meters":1200,"station_id":"ce4bh292rcd13ifvqdg0","pricing_plan_id":"cebpf4jnsgd1na2vs0mg"},{"bike_id":"527fce56-bd63-4c70-8df5-6f48d900e819","system_id":"levelo_inurba_marseille","lat":43.326605,"lon":5.409903,"is_reserved":false,"is_disabled":false,"rental_uris":{"android":"levelo://app?vid=527fce56-bd63-4c70-8df5-6f48d900e819","ios":"levelo://app?vid=527fce56-bd63-4c70-8df5-6f48d900e819"},"vehicle_type_id":"4","last_reported":1718388671,"current_range_meters":30000,"station_id":"ce4bhpp2rcd13ifvqhgg","pricing_plan_id":"cebpf4jnsgd1na2vs0mg"},{"bike_id":"9791db3b-601d-4b27-8611-6f83e05da25e","system_id":"levelo_inurba_marseille","lat":43.304188,"lon":5.412904,"is_reserved":false,"is_disabled":false,"rental_uris":{"android":"levelo://app?vid=9791db3b-601d-4b27-8611-6f83e05da25e","ios":"levelo://app?vid=9791db3b-601d-4b27-8611-6f83e05da25e"},"vehicle_type_id":"4","last_reported":1718388671,"current_range_meters":7600,"station_id":"ce4bhop2rcd13ifvqh8g","pricing_plan_id":"cebpf4jnsgd1na2vs0mg"},{"bike_id":"7a6b24b4-7b0b-4e5b-8943-9238dbdc6c6c","system_id":"levelo_inurba_marseille","lat":43.305714,"lon":5.365633,"is_reserved":false,"is_disabled":false,"rental_uris":{"android":"levelo://app?vid=7a6b24b4-7b0b-4e5b-8943-9238dbdc6c6c","ios":"levelo://app?vid=7a6b24b4-7b0b-4e5b-8943-9238dbdc6c6c"},"vehicle_type_id":"4","last_reported":1718388671,"current_range_meters":0,"station_id":"ce4bgs12rcd13ifvqcag","pricing_plan_id":"cebpf4jnsgd1na2vs0mg"},{"bike_id":"41c84a03-4217-484d-bc67-afc1effccc47","system_id":"levelo_inurba_marseille","lat":43.2871,"lon":5.39996,"is_reserved":false,"is_disabled":false,"rental_uris":{"android":"levelo://app?vid=41c84a03-4217-484d-bc67-afc1effccc47","ios":"levelo://app?vid=41c84a03-4217-484d-bc67-afc1effccc47"},"vehicle_type_id":"4","last_reported":1718388671,"current_range_meters":0,"station_id":"ce4bho92rcd13ifvqh3g","pricing_plan_id":"cebpf4jnsgd1na2vs0mg"},{"bike_id":"3060a6af-5ec6-4d3d-be53-a55298eea9e2","system_id":"levelo_inurba_marseille","lat":43.320045,"lon":5.415046,"is_reserved":false,"is_disabled":false,"rental_uris":{"android":"levelo://app?vid=3060a6af-5ec6-4d3d-be53-a55298eea9e2","ios":"levelo://app?vid=3060a6af-5ec6-4d3d-be53-a55298eea9e2"},"vehicle_type_id":"4","last_reported":1718388671,"current_range_meters":12800,"station_id":"ce4bhq92rcd13ifvqhkg","pricing_plan_id":"cebpf4jnsgd1na2vs0mg"},{"bike_id":"da920985-d742-4e86-a77a-69c5061e1219","system_id":"levelo_inurba_marseille","lat":43.320045,"lon":5.415046,"is_reserved":false,"is_disabled":false,"rental_uris":{"android":"levelo://app?vid=da920985-d742-4e86-a77a-69c5061e1219","ios":"levelo://app?vid=da920985-d742-4e86-a77a-69c5061e1219"},"vehicle_type_id":"4","last_reported":1718388671,"current_range_meters":4000,"station_id":"ce4bhq92rcd13ifvqhkg","pricing_plan_id":"cebpf4jnsgd1na2vs0mg"},{"bike_id":"15566061-4169-4514-8ae8-a07a12804ec9","system_id":"levelo_inurba_marseille","lat":43.279742,"lon":5.38744,"is_reserved":false,"is_disabled":false,"rental_uris":{"android":"levelo://app?vid=15566061-4169-4514-8ae8-a07a12804ec9","ios":"levelo://app?vid=15566061-4169-4514-8ae8-a07a12804ec9"},"vehicle_type_id":"4","last_reported":1718388671,"current_range_meters":31200,"station_id":"ce4bhg12rcd13ifvqf80","pricing_plan_id":"cebpf4jnsgd1na2vs0mg"},{"bike_id":"5f9afeb9-7cf4-4968-939a-328ac8494f40","system_id":"levelo_inurba_marseille","lat":43.279742,"lon":5.38744,"is_reserved":false,"is_disabled":false,"rental_uris":{"android":"levelo://app?vid=5f9afeb9-7cf4-4968-939a-328ac8494f40","ios":"levelo://app?vid=5f9afeb9-7cf4-4968-939a-328ac8494f40"},"vehicle_type_id":"4","last_reported":1718388671,"current_range_meters":31200,"station_id":"ce4bhg12rcd13ifvqf80","pricing_plan_id":"cebpf4jnsgd1na2vs0mg"},{"bike_id":"db3e667b-a814-4823-afba-305a8ce7116f","system_id":"levelo_inurba_marseille","lat":43.27953,"lon":5.38731,"is_reserved":false,"is_disabled":false,"rental_uris":{"android":"levelo://app?vid=db3e667b-a814-4823-afba-305a8ce7116f","ios":"levelo://app?vid=db3e667b-a814-4823-afba-305a8ce7116f"},"vehicle_type_id":"4","last_reported":1718388671,"current_range_meters":23200,"station_id":"ce4bhg12rcd13ifvqf80","pricing_plan_id":"cebpf4jnsgd1na2vs0mg"},{"bike_id":"924ffeb9-8f80-460d-b529-3a960e8f0671","system_id":"levelo_inurba_marseille","lat":43.29258,"lon":5.40904,"is_reserved":false,"is_disabled":false,"rental_uris":{"android":"levelo://app?vid=924ffeb9-8f80-460d-b529-3a960e8f0671","ios":"levelo://app?vid=924ffeb9-8f80-460d-b529-3a960e8f0671"},"vehicle_type_id":"4","last_reported":1718388671,"current_range_meters":21600,"station_id":"ce4bh192rcd13ifvqdc0","pricing_plan_id":"cebpf4jnsgd1na2vs0mg"},{"bike_id":"279b9e17-2096-4379-845d-0a9932089181","system_id":"levelo_inurba_marseille","lat":43.292571,"lon":5.409107,"is_reserved":false,"is_disabled":false,"rental_uris":{"android":"levelo://app?vid=279b9e17-2096-4379-845d-0a9932089181","ios":"levelo://app?vid=279b9e17-2096-4379-845d-0a9932089181"},"vehicle_type_id":"4","last_reported":1718388671,"current_range_meters":0,"station_id":"ce4bh192rcd13ifvqdc0","pricing_plan_id":"cebpf4jnsgd1na2vs0mg"},{"bike_id":"05964765-1499-4ba9-834e-5085dfe92d01","system_id":"levelo_inurba_marseille","lat":43.325233,"lon":5.414318,"is_reserved":false,"is_disabled":false,"rental_uris":{"android":"levelo://app?vid=05964765-1499-4ba9-834e-5085dfe92d01","ios":"levelo://app?vid=05964765-1499-4ba9-834e-5085dfe92d01"},"vehicle_type_id":"4","last_reported":1718388671,"current_range_meters":6000,"station_id":"ce4bhq12rcd13ifvqhhg","pricing_plan_id":"cebpf4jnsgd1na2vs0mg"},{"bike_id":"53dc4fcb-6633-4b10-a241-f409517e99ab","system_id":"levelo_inurba_marseille","lat":43.292528,"lon":5.409113,"is_reserved":false,"is_disabled":false,"rental_uris":{"android":"levelo://app?vid=53dc4fcb-6633-4b10-a241-f409517e99ab","ios":"levelo://app?vid=53dc4fcb-6633-4b10-a241-f409517e99ab"},"vehicle_type_id":"4","last_reported":1718388671,"current_range_meters":0,"station_id":"ce4bh192rcd13ifvqdc0","pricing_plan_id":"cebpf4jnsgd1na2vs0mg"},{"bike_id":"cd264bbb-a623-46f4-ad6f-0164d15812cc","system_id":"levelo_inurba_marseille","lat":43.292569,"lon":5.409107,"is_reserved":false,"is_disabled":false,"rental_uris":{"android":"levelo://app?vid=cd264bbb-a623-46f4-ad6f-0164d15812cc","ios":"levelo://app?vid=cd264bbb-a623-46f4-ad6f-0164d15812cc"},"vehicle_type_id":"4","last_reported":1718388671,"current_range_meters":5200,"station_id":"ce4bh192rcd13ifvqdc0","pricing_plan_id":"cebpf4jnsgd1na2vs0mg"},{"bike_id":"9ebcafa5-205f-41b9-98df-15b10b61dbbb","system_id":"levelo_inurba_marseille","lat":43.27618,"lon":5.361009,"is_reserved":false,"is_disabled":false,"rental_uris":{"android":"levelo://app?vid=9ebcafa5-205f-41b9-98df-15b10b61dbbb","ios":"levelo://app?vid=9ebcafa5-205f-41b9-98df-15b10b61dbbb"},"vehicle_type_id":"4","last_reported":1718388671,"current_range_meters":28800,"station_id":"ce4bgj92rcd13ifvqbe0","pricing_plan_id":"cebpf4jnsgd1na2vs0mg"},{"bike_id":"eb1b1b46-e3fb-4125-af23-5b278a40ef1e","system_id":"levelo_inurba_marseille","lat":43.279742,"lon":5.38744,"is_reserved":false,"is_disabled":false,"rental_uris":{"android":"levelo://app?vid=eb1b1b46-e3fb-4125-af23-5b278a40ef1e","ios":"levelo://app?vid=eb1b1b46-e3fb-4125-af23-5b278a40ef1e"},"vehicle_type_id":"4","last_reported":1718388671,"current_range_meters":29600,"station_id":"ce4bhg12rcd13ifvqf80","pricing_plan_id":"cebpf4jnsgd1na2vs0mg"},{"bike_id":"c278c793-165e-4e28-9dfe-27f227e3f7eb","system_id":"levelo_inurba_marseille","lat":43.280784,"lon":5.396622,"is_reserved":false,"is_disabled":false,"rental_uris":{"android":"levelo://app?vid=c278c793-165e-4e28-9dfe-27f227e3f7eb","ios":"levelo://app?vid=c278c793-165e-4e28-9dfe-27f227e3f7eb"},"vehicle_type_id":"4","last_reported":1718388671,"current_range_meters":6400,"station_id":"ce4bho12rcd13ifvqh2g","pricing_plan_id":"cebpf4jnsgd1na2vs0mg"},{"bike_id":"93cbadda-574d-4973-b07a-739a13041fbe","system_id":"levelo_inurba_marseille","lat":43.28078,"lon":5.39657,"is_reserved":false,"is_disabled":false,"rental_uris":{"android":"levelo://app?vid=93cbadda-574d-4973-b07a-739a13041fbe","ios":"levelo://app?vid=93cbadda-574d-4973-b07a-739a13041fbe"},"vehicle_type_id":"4","last_reported":1718388671,"current_range_meters":0,"station_id":"","pricing_plan_id":"cebpf4jnsgd1na2vs0mg"},{"bike_id":"ec57286c-f0ef-4384-8c1c-7b351bb52b02","system_id":"levelo_inurba_marseille","lat":43.280784,"lon":5.396622,"is_reserved":false,"is_disabled":false,"rental_uris":{"android":"levelo://app?vid=ec57286c-f0ef-4384-8c1c-7b351bb52b02","ios":"levelo://app?vid=ec57286c-f0ef-4384-8c1c-7b351bb52b02"},"vehicle_type_id":"4","last_reported":1718388671,"current_range_meters":7200,"station_id":"ce4bho12rcd13ifvqh2g","pricing_plan_id":"cebpf4jnsgd1na2vs0mg"},{"bike_id":"546dbfbe-e827-450a-ad5b-5223c04169da","system_id":"levelo_inurba_marseille","lat":43.303837,"lon":5.418724,"is_reserved":false,"is_disabled":false,"rental_uris":{"android":"levelo://app?vid=546dbfbe-e827-450a-ad5b-5223c04169da","ios":"levelo://app?vid=546dbfbe-e827-450a-ad5b-5223c04169da"},"vehicle_type_id":"4","last_reported":1718388671,"current_range_meters":7200,"station_id":"ce4bhop2rcd13ifvqh7g","pricing_plan_id":"cebpf4jnsgd1na2vs0mg"},{"bike_id":"fec085ac-23c8-4885-a8f6-33aaaf4c72b6","system_id":"levelo_inurba_marseille","lat":43.303837,"lon":5.418724,"is_reserved":false,"is_disabled":false,"rental_uris":{"android":"levelo://app?vid=fec085ac-23c8-4885-a8f6-33aaaf4c72b6","ios":"levelo://app?vid=fec085ac-23c8-4885-a8f6-33aaaf4c72b6"},"vehicle_type_id":"4","last_reported":1718388671,"current_range_meters":31200,"station_id":"ce4bhop2rcd13ifvqh7g","pricing_plan_id":"cebpf4jnsgd1na2vs0mg"},{"bike_id":"7b078621-9384-444a-a243-66f6cb143068","system_id":"levelo_inurba_marseille","lat":43.275625,"lon":5.384392,"is_reserved":false,"is_disabled":false,"rental_uris":{"android":"levelo://app?vid=7b078621-9384-444a-a243-66f6cb143068","ios":"levelo://app?vid=7b078621-9384-444a-a243-66f6cb143068"},"vehicle_type_id":"4","last_reported":1718388671,"current_range_meters":5600,"station_id":"ce4bhh92rcd13ifvqfi0","pricing_plan_id":"cebpf4jnsgd1na2vs0mg"},{"bike_id":"44082fd5-c04f-4895-a7b2-f650b1dcdf41","system_id":"levelo_inurba_marseille","lat":43.27377,"lon":5.36259,"is_reserved":false,"is_disabled":false,"rental_uris":{"android":"levelo://app?vid=44082fd5-c04f-4895-a7b2-f650b1dcdf41","ios":"levelo://app?vid=44082fd5-c04f-4895-a7b2-f650b1dcdf41"},"vehicle_type_id":"4","last_reported":1718388671,"current_range_meters":26400,"station_id":"ce4bhbh2rcd13ifvqeo0","pricing_plan_id":"cebpf4jnsgd1na2vs0mg"},{"bike_id":"58b6ae36-fe21-4b21-a1cf-cc85f4296476","system_id":"levelo_inurba_marseille","lat":43.27376,"lon":5.36264,"is_reserved":false,"is_disabled":false,"rental_uris":{"android":"levelo://app?vid=58b6ae36-fe21-4b21-a1cf-cc85f4296476","ios":"levelo://app?vid=58b6ae36-fe21-4b21-a1cf-cc85f4296476"},"vehicle_type_id":"4","last_reported":1718388671,"current_range_meters":5600,"station_id":"ce4bhbh2rcd13ifvqeo0","pricing_plan_id":"cebpf4jnsgd1na2vs0mg"},{"bike_id":"4f37a7d6-21ea-4ef3-8ef6-01faeea051e5","system_id":"levelo_inurba_marseille","lat":43.27375,"lon":5.36263,"is_reserved":false,"is_disabled":false,"rental_uris":{"android":"levelo://app?vid=4f37a7d6-21ea-4ef3-8ef6-01faeea051e5","ios":"levelo://app?vid=4f37a7d6-21ea-4ef3-8ef6-01faeea051e5"},