{"last_updated":1748348498,"ttl":60,"version":"2.2","data":{"bikes":[{"bike_id":"c0b9fd4f-e181-46ce-b0bf-f5119973334f","system_id":"levelo_inurba_marseille","lat":43.33771,"lon":5.37424,"is_reserved":false,"is_disabled":true,"rental_uris":{"android":"levelo://app?vid=c0b9fd4f-e181-46ce-b0bf-f5119973334f","ios":"levelo://app?vid=c0b9fd4f-e181-46ce-b0bf-f5119973334f"},"vehicle_type_id":"4","last_reported":1748348498,"current_range_meters":0,"station_id":"","pricing_plan_id":"cebpf4jnsgd1na2vs0mg"},{"bike_id":"9dfea71a-4994-4298-98be-a818ae9ee8f8","system_id":"levelo_inurba_marseille","lat":43.33337,"lon":5.40702,"is_reserved":false,"is_disabled":true,"rental_uris":{"android":"levelo://app?vid=9dfea71a-4994-4298-98be-a818ae9ee8f8","ios":"levelo://app?vid=9dfea71a-4994-4298-98be-a818ae9ee8f8"},"vehicle_type_id":"4","last_reported":1748348498,"current_range_meters":0,"station_id":"","pricing_plan_id":"cebpf4jnsgd1na2vs0mg"},{"bike_id":"3fe3d6c4-138a-47df-b6b4-e6f19e8f7d46","system_id":"levelo_inurba_marseille","lat":43.21411,"lon":5.34114,"is_reserved":false,"is_disabled":true,"rental_uris":{"android":"levelo://app?vid=3fe3d6c4-138a-47df-b6b4-e6f19e8f7d46","ios":"levelo://app?vid=3fe3d6c4-138a-47df-b6b4-e6f19e8f7d46"},"vehicle_type_id":"4","last_reported":1748348498,"current_range_meters":0,"station_id":"","pricing_plan_id":"cebpf4jnsgd1na2vs0mg"},{"bike_id":"fd133867-b5d2-4fd2-aa0a-382781ea3f5a","system_id":"levelo_inurba_marseille","lat":43.29001,"lon":5.43034,"is_reserved":false,"is_disabled":true,"rental_uris":{"android":"levelo://app?vid=fd133867-b5d2-4fd2-aa0a-382781ea3f5a","ios":"levelo://app?vid=fd133867-b5d2-4fd2-aa0a-382781ea3f5a"},"vehicle_type_id":"4","last_reported":1748348498,"current_range_meters":0,"station_id":"","pricing_plan_id":"cebpf4jnsgd1na2vs0mg"},{"bike_id":"d9fa0449-e47c-4bbe-a91c-4939cab5d888","system_id":"levelo_inurba_marseille","lat":43.28526,"lon":5.42617,"is_reserved":false,"is_disabled":true,"rental_uris":{"android":"levelo://app?vid=d9fa0449-e47c-4bbe-a91c-4939cab5d888","ios":"levelo://app?vid=d9fa0449-e47c-4bbe-a91c-4939cab5d888"},"vehicle_type_id":"4","last_reported":1748348498,"current_range_meters":0,"station_id":"","pricing_plan_id":"cebpf4jnsgd1na2vs0mg"},{"bike_id":"15dcdbbd-a41e-43eb-9ed6-26ec15ce7a50","system_id":"levelo_inurba_marseille","lat":43.21411,"lon":5.34113,"is_reserved":false,"is_disabled":true,"rental_uris":{"android":"levelo://app?vid=15dcdbbd-a41e-43eb-9ed6-26ec15ce7a50","ios":"levelo://app?vid=15dcdbbd-a41e-43eb-9ed6-26ec15ce7a50"},"vehicle_type_id":"4","last_reported":1748348498,"current_range_meters":0,"station_id":"","pricing_plan_id":"cebpf4jnsgd1na2vs0mg"},{"bike_id":"f9fb40c0-1fcd-48cb-8e26-3f2dc0fb2451","system_id":"levelo_inurba_marseille","lat":43.33751,"lon":5.37509,"is_reserved":false,"is_disabled":true,"rental_uris":{"android":"levelo://app?vid=f9fb40c0-1fcd-48cb-8e26-3f2dc0fb2451","ios":"levelo://app?vid=f9fb40c0-1fcd-48cb-8e26-3f2dc0fb2451"},"vehicle_type_id":"4","last_reported":1748348498,"current_range_meters":0,"station_id":"","pricing_plan_id":"cebpf4jnsgd1na2vs0mg"},{"bike_id":"e9dd3aa4-b5e7-4480-926d-d7f537719bfa","system_id":"levelo_inurba_marseille","lat":43.230331,"lon":5.401847,"is_reserved":false,"is_disabled":true,"rental_uris":{"android":"levelo://app?vid=e9dd3aa4-b5e7-4480-926d-d7f537719bfa","ios":"levelo://app?vid=e9dd3aa4-b5e7-4480-926d-d7f537719bfa"},"vehicle_type_id":"4","last_reported":1748348498,"current_range_meters":0,"station_id":"","pricing_plan_id":"cebpf4jnsgd1na2vs0mg"},{"bike_id":"dcd075ea-b4af-4d6d-90b2-1236858b7bc1","system_id":"levelo_inurba_marseille","lat":43.27609,"lon":5.35873,"is_reserved":false,"is_disabled":true,"rental_uris":{"android":"levelo://app?vid=dcd075ea-b4af-4d6d-90b2-1236858b7bc1","ios":"levelo://app?vid=dcd075ea-b4af-4d6d-90b2-1236858b7bc1"},"vehicle_type_id":"4","last_reported":1748348498,"current_range_meters":0,"station_id":"","pricing_plan_id":"cebpf4jnsgd1na2vs0mg"},{"bike_id":"45280b14-312b-4d7b-bdb4-d510a9e3be24","system_id":"levelo_inurba_marseille","lat":43.273773,"lon":5.362582,"is_reserved":false,"is_disabled":true,"rental_uris":{"android":"levelo://app?vid=45280b14-312b-4d7b-bdb4-d510a9e3be24","ios":"levelo://app?vid=45280b14-312b-4d7b-bdb4-d510a9e3be24"},"vehicle_type_id":"4","last_reported":1748348498,"current_range_meters":0,"station_id":"ce4bgj92rcd13ifvqbe0","pricing_plan_id":"cebpf4jnsgd1na2vs0mg"},{"bike_id":"2802ee45-d6af-4af2-8afb-cc589b2bb609","system_id":"levelo_inurba_marseille","lat":43.27623,"lon":5.36109,"is_reserved":false,"is_disabled":true,"rental_uris":{"android":"levelo://app?vid=2802ee45-d6af-4af2-8afb-cc589b2bb609","ios":"levelo://app?vid=2802ee45-d6af-4af2-8afb-cc589b2bb609"},"vehicle_type_id":"4","last_reported":1748348498,"current_range_meters":0,"station_id":"ce4bgj92rcd13ifvqbe0","pricing_plan_id":"cebpf4jnsgd1na2vs0mg"},{"bike_id":"9aa2be2f-0f80-4278-8532-78211127b372","system_id":"levelo_inurba_marseille","lat":43.3112,"lon":5.37776,"is_reserved":false,"is_disabled":true,"rental_uris":{"android":"levelo://app?vid=9aa2be2f-0f80-4278-8532-78211127b372","ios":"levelo://app?vid=9aa2be2f-0f80-4278-8532-78211127b372"},"vehicle_type_id":"4","last_reported":1748348498,"current_range_meters":0,"station_id":"ce4bgt92rcd13ifvqcg0","pricing_plan_id":"cebpf4jnsgd1na2vs0mg"},{"bike_id":"6faed463-1af9-4880-a623-2d6027292867","system_id":"levelo_inurba_marseille","lat":43.3094,"lon":5.40169,"is_reserved":false,"is_disabled":true,"rental_uris":{"android":"levelo://app?vid=6faed463-1af9-4880-a623-2d6027292867","ios":"levelo://app?vid=6faed463-1af9-4880-a623-2d6027292867"},"vehicle_type_id":"4","last_reported":1748348498,"current_range_meters":0,"station_id":"ce4bgvp2rcd13ifvqct0","pricing_plan_id":"cebpf4jnsgd1na2vs0mg"},{"bike_id":"4f70dbc7-119e-464a-b395-beb457301e95","system_id":"levelo_inurba_marseille","lat":43.29063,"lon":5.37144,"is_reserved":false,"is_disabled":true,"rental_uris":{"android":"levelo://app?vid=4f70dbc7-119e-464a-b395-beb457301e95","ios":"levelo://app?vid=4f70dbc7-119e-464a-b395-beb457301e95"},"vehicle_type_id":"4","last_reported":1748348498,"current_range_meters":0,"station_id":"ce4bh5p2rcd13ifvqe4g","pricing_plan_id":"cebpf4jnsgd1na2vs0mg"},{"bike_id":"878d117d-f4a7-4150-af51-5e33a6f38bab","system_id":"levelo_inurba_marseille","lat":43.27361,"lon":5.36246,"is_reserved":false,"is_disabled":true,"rental_uris":{"android":"levelo://app?vid=878d117d-f4a7-4150-af51-5e33a6f38bab","ios":"levelo://app?vid=878d117d-f4a7-4150-af51-5e33a6f38bab"},"vehicle_type_id":"4","last_reported":1748348498,"current_range_meters":0,"station_id":"ce4bhbh2rcd13ifvqeo0","pricing_plan_id":"cebpf4jnsgd1na2vs0mg"},{"bike_id":"94cb938d-bc36-42ad-af73-a2aa616d60b8","system_id":"levelo_inurba_marseille","lat":48.855438,"lon":2.428261,"is_reserved":false,"is_disabled":true,"rental_uris":{"android":"levelo://app?vid=94cb938d-bc36-42ad-af73-a2aa616d60b8","ios":"levelo://app?vid=94cb938d-bc36-42ad-af73-a2aa616d60b8"},"vehicle_type_id":"4","last_reported":1748348498,"current_range_meters":0,"station_id":"ce4bhgh2rcd13ifvqfb0","pricing_plan_id":"cebpf4jnsgd1na2vs0mg"},{"bike_id":"dbdde4e3-8322-4806-9609-4dfa1ef9adf4","system_id":"levelo_inurba_marseille","lat":43.27669,"lon":5.38914,"is_reserved":false,"is_disabled":true,"rental_uris":{"android":"levelo://app?vid=dbdde4e3-8322-4806-9609-4dfa1ef9adf4","ios":"levelo://app?vid=dbdde4e3-8322-4806-9609-4dfa1ef9adf4"},"vehicle_type_id":"4","last_reported":1748348498,"current_range_meters":0,"station_id":"ce4bhi12rcd13ifvqfo0","pricing_plan_id":"cebpf4jnsgd1na2vs0mg"},{"bike_id":"d4c59b46-cd82-4605-83da-1114cac9e20e","system_id":"levelo_inurba_marseille","lat":43.24071,"lon":5.37758,"is_reserved":false,"is_disabled":true,"rental_uris":{"android":"levelo://app?vid=d4c59b46-cd82-4605-83da-1114cac9e20e","ios":"levelo://app?vid=d4c59b46-cd82-4605-83da-1114cac9e20e"},"vehicle_type_id":"4","last_reported":1748348498,"current_range_meters":0,"station_id":"ce4bhnp2rcd13ifvqgvg","pricing_plan_id":"cebpf4jnsgd1na2vs0mg"},{"bike_id":"1f055a4b-621e-478c-8c4a-43a56e0ff762","system_id":"levelo_inurba_marseille","lat":43.22931,"lon":5.35372,"is_reserved":false,"is_disabled":true,"rental_uris":{"android":"levelo://app?vid=1f055a4b-621e-478c-8c4a-43a56e0ff762","ios":"levelo://app?vid=1f055a4b-621e-478c-8c4a-43a56e0ff762"},"vehicle_type_id":"4","last_reported":1748348498,"current_range_meters":0,"station_id":"cpo3532slgdg3j2ikp40","pricing_plan_id":"cebpf4jnsgd1na2vs0mg"},{"bike_id":"da453a88-f81b-4e0f-9781-5a7f6c1d364c","system_id":"levelo_inurba_marseille","lat":43.337499,"lon":5.374469,"is_reserved":false,"is_disabled":true,"rental_uris":{"android":"levelo://app?vid=da453a88-f81b-4e0f-9781-5a7f6c1d364c","ios":"levelo://app?vid=da453a88-f81b-4e0f-9781-5a7f6c1d364c"},"vehicle_type_id":"4","last_reported":1748348498,"current_range_meters":400,"station_id":"","pricing_plan_id":"cebpf4jnsgd1na2vs0mg"},{"bike_id":"b67b45b5-86c3-4855-b9ac-2f9ba7529e37","system_id":"levelo_inurba_marseille","lat":43.29309,"lon":5.37177,"is_reserved":false,"is_disabled":true,"rental_uris":{"android":"levelo://app?vid=b67b45b5-86c3-4855-b9ac-2f9ba7529e37","ios":"levelo://app?vid=b67b45b5-86c3-4855-b9ac-2f9ba7529e37"},"vehicle_type_id":"4","last_reported":1748348498,"current_range_meters":800,"station_id":"ce4bgh92rcd13ifvqb40","pricing_plan_id":"cebpf4jnsgd1na2vs0mg"},{"bike_id":"800a6b87-733c-4e09-9691-576ae67ece42","system_id":"levelo_inurba_marseille","lat":43.26028,"lon":5.37581,"is_reserved":false,"is_disabled":true,"rental_uris":{"android":"levelo://app?vid=800a6b87-733c-4e09-9691-576ae67ece42","ios":"levelo://app?vid=800a6b87-733c-4e09-9691-576ae67ece42"},"vehicle_type_id":"4","last_reported":1748348498,"current_range_meters":800,"station_id":"ce4bhgh2rcd13ifvqfa0","pricing_plan_id":"cebpf4jnsgd1na2vs0mg"},{"bike_id":"3311c8c1-ebff-47e9-8ab9-0a5dd4011eeb","system_id":"levelo_inurba_marseille","lat":43.24074,"lon":5.37763,"is_reserved":false,"is_disabled":true,"rental_uris":{"android":"levelo://app?vid=3311c8c1-ebff-47e9-8ab9-0a5dd4011eeb","ios":"levelo://app?vid=3311c8c1-ebff-47e9-8ab9-0a5dd4011eeb"},"vehicle_type_id":"4","last_reported":1748348498,"current_range_meters":800,"station_id":"ce4bhnp2rcd13ifvqgvg","pricing_plan_id":"cebpf4jnsgd1na2vs0mg"},{"bike_id":"ae9ac33e-6b71-439c-979f-3a5bd5a37079","system_id":"levelo_inurba_marseille","lat":43.28217,"lon":5.39034,"is_reserved":false,"is_disabled":true,"rental_uris":{"android":"levelo://app?vid=ae9ac33e-6b71-439c-979f-3a5bd5a37079","ios":"levelo://app?vid=ae9ac33e-6b71-439c-979f-3a5bd5a37079"},"vehicle_type_id":"4","last_reported":1748348498,"current_range_meters":1200,"station_id":"","pricing_plan_id":"cebpf4jnsgd1na2vs0mg"},{"bike_id":"7c528214-7312-40a2-92fc-c2d7a436ce88","system_id":"levelo_inurba_marseille","lat":43.26568,"lon":5.39019,"is_reserved":false,"is_disabled":true,"rental_uris":{"android":"levelo://app?vid=7c528214-7312-40a2-92fc-c2d7a436ce88","ios":"levelo://app?vid=7c528214-7312-40a2-92fc-c2d7a436ce88"},"vehicle_type_id":"4","last_reported":1748348498,"current_range_meters":1200,"station_id":"ce4bhe12rcd13ifvqf30","pricing_plan_id":"cebpf4jnsgd1na2vs0mg"},{"bike_id":"cc910586-183d-4491-a7f2-c003a7582cd3","system_id":"levelo_inurba_marseille","lat":43.29717,"lon":5.36605,"is_reserved":false,"is_disabled":false,"rental_uris":{"android":"levelo://app?vid=cc910586-183d-4491-a7f2-c003a7582cd3","ios":"levelo://app?vid=cc910586-183d-4491-a7f2-c003a7582cd3"},"vehicle_type_id":"4","last_reported":1748348498,"current_range_meters":1600,"station_id":"ce4bgn12rcd13ifvqbt0","pricing_plan_id":"cebpf4jnsgd1na2vs0mg"},{"bike_id":"d828965c-04fc-4c26-aad4-f979be5c505d","system_id":"levelo_inurba_marseille","lat":43.31331,"lon":5.39683,"is_reserved":false,"is_disabled":true,"rental_uris":{"android":"levelo://app?vid=d828965c-04fc-4c26-aad4-f979be5c505d","ios":"levelo://app?vid=d828965c-04fc-4c26-aad4-f979be5c505d"},"vehicle_type_id":"4","last_reported":1748348498,"current_range_meters":1600,"station_id":"ce4bgvp2rcd13ifvqcu0","pricing_plan_id":"cebpf4jnsgd1na2vs0mg"},{"bike_id":"9e299925-800f-45f1-bf54-e909b020238a","system_id":"levelo_inurba_marseille","lat":43.29265,"lon":5.40908,"is_reserved":false,"is_disabled":true,"rental_uris":{"android":"levelo://app?vid=9e299925-800f-45f1-bf54-e909b020238a","ios":"levelo://app?vid=9e299925-800f-45f1-bf54-e909b020238a"},"vehicle_type_id":"4","last_reported":1748348498,"current_range_meters":1600,"station_id":"ce4bh192rcd13ifvqdc0","pricing_plan_id":"cebpf4jnsgd1na2vs0mg"},{"bike_id":"09c2f593-19b0-41bd-b7fc-330099293a3e","system_id":"levelo_inurba_marseille","lat":43.30205,"lon":5.36624,"is_reserved":false,"is_disabled":true,"rental_uris":{"android":"levelo://app?vid=09c2f593-19b0-41bd-b7fc-330099293a3e","ios":"levelo://app?vid=09c2f593-19b0-41bd-b7fc-330099293a3e"},"vehicle_type_id":"4","last_reported":1748348498,"current_range_meters":2000,"station_id":"ce4bgrh2rcd13ifvqc8g","pricing_plan_id":"cebpf4jnsgd1na2vs0mg"},{"bike_id":"4b9b6e23-32e0-4d60-8205-f03d1bdf5e14","system_id":"levelo_inurba_marseille","lat":43.28413,"lon":5.34973,"is_reserved":false,"is_disabled":true,"rental_uris":{"android":"levelo://app?vid=4b9b6e23-32e0-4d60-8205-f03d1bdf5e14","ios":"levelo://app?vid=4b9b6e23-32e0-4d60-8205-f03d1bdf5e14"},"vehicle_type_id":"4","last_reported":1748348498,"current_range_meters":2000,"station_id":"ce4bhbh2rcd13ifvqepg","pricing_plan_id":"cebpf4jnsgd1na2vs0mg"},{"bike_id":"e1ec5872-63b1-4790-9e36-d1dd89e514b7","system_id":"levelo_inurba_marseille","lat":43.26184,"lon":5.37472,"is_reserved":false,"is_disabled":true,"rental_uris":{"android":"levelo://app?vid=e1ec5872-63b1-4790-9e36-d1dd89e514b7","ios":"levelo://app?vid=e1ec5872-63b1-4790-9e36-d1dd89e514b7"},"vehicle_type_id":"4","last_reported":1748348498,"current_range_meters":2000,"station_id":"ce4bhgp2rcd13ifvqfc0","pricing_plan_id":"cebpf4jnsgd1na2vs0mg"},{"bike_id":"f34cc2de-6b07-4237-8848-25f737cdb210","system_id":"levelo_inurba_marseille","lat":43.28164,"lon":5.42644,"is_reserved":false,"is_disabled":true,"rental_uris":{"android":"levelo://app?vid=f34cc2de-6b07-4237-8848-25f737cdb210","ios":"levelo://app?vid=f34cc2de-6b07-4237-8848-25f737cdb210"},"vehicle_type_id":"4","last_reported":1748348498,"current_range_meters":2000,"station_id":"ce4bhnh2rcd13ifvqgug","pricing_plan_id":"cebpf4jnsgd1na2vs0mg"},{"bike_id":"5828f676-3515-4b2d-9dba-f47c8df953b7","system_id":"levelo_inurba_marseille","lat":43.297913,"lon":5.381125,"is_reserved":false,"is_disabled":false,"rental_uris":{"android":"levelo://app?vid=5828f676-3515-4b2d-9dba-f47c8df953b7","ios":"levelo://app?vid=5828f676-3515-4b2d-9dba-f47c8df953b7"},"vehicle_type_id":"4","last_reported":1748348498,"current_range_meters":2800,"station_id":"","pricing_plan_id":"cebpf4jnsgd1na2vs0mg"},{"bike_id":"b7ab4751-3dbf-4148-86b3-37e175a4d63e","system_id":"levelo_inurba_marseille","lat":43.24627,"lon":5.39333,"is_reserved":false,"is_disabled":false,"rental_uris":{"android":"levelo://app?vid=b7ab4751-3dbf-4148-86b3-37e175a4d63e","ios":"levelo://app?vid=b7ab4751-3dbf-4148-86b3-37e175a4d63e"},"vehicle_type_id":"4","last_reported":1748348498,"current_range_meters":2800,"station_id":"","pricing_plan_id":"cebpf4jnsgd1na2vs0mg"},{"bike_id":"36bc4eae-6090-4d8e-b1a0-194eadad677d","system_id":"levelo_inurba_marseille","lat":43.306587,"lon":5.381167,"is_reserved":false,"is_disabled":false,"rental_uris":{"android":"levelo://app?vid=36bc4eae-6090-4d8e-b1a0-194eadad677d","ios":"levelo://app?vid=36bc4eae-6090-4d8e-b1a0-194eadad677d"},"vehicle_type_id":"4","last_reported":1748348498,"current_range_meters":3200,"station_id":"","pricing_plan_id":"cebpf4jnsgd1na2vs0mg"},{"bike_id":"81c37a7c-8e74-4909-8e52-f1653e85f9e4","system_id":"levelo_inurba_marseille","lat":43.30464,"lon":5.379065,"is_reserved":false,"is_disabled":false,"rental_uris":{"android":"levelo://app?vid=81c37a7c-8e74-4909-8e52-f1653e85f9e4","ios":"levelo://app?vid=81c37a7c-8e74-4909-8e52-f1653e85f9e4"},"vehicle_type_id":"4","last_reported":1748348498,"current_range_meters":3200,"station_id":"ce4bgup2rcd13ifvqcn0","pricing_plan_id":"cebpf4jnsgd1na2vs0mg"},{"bike_id":"a36718de-a929-4dfa-96bb-a7a316156a6c","system_id":"levelo_inurba_marseille","lat":43.28107,"lon":5.37838,"is_reserved":false,"is_disabled":false,"rental_uris":{"android":"levelo://app?vid=a36718de-a929-4dfa-96bb-a7a316156a6c","ios":"levelo://app?vid=a36718de-a929-4dfa-96bb-a7a316156a6c"},"vehicle_type_id":"4","last_reported":1748348498,"current_range_meters":3200,"station_id":"ce4bha12rcd13ifvqee0","pricing_plan_id":"cebpf4jnsgd1na2vs0mg"},{"bike_id":"754acf6f-6eff-4557-8b57-1bfaee052be4","system_id":"levelo_inurba_marseille","lat":43.29011,"lon":5.3561,"is_reserved":false,"is_disabled":false,"rental_uris":{"android":"levelo://app?vid=754acf6f-6eff-4557-8b57-1bfaee052be4","ios":"levelo://app?vid=754acf6f-6eff-4557-8b57-1bfaee052be4"},"vehicle_type_id":"4","last_reported":1748348498,"current_range_meters":3200,"station_id":"ce4bhb92rcd13ifvqen0","pricing_plan_id":"cebpf4jnsgd1na2vs0mg"},{"bike_id":"ab485184-dee6-4278-8ed8-78cb97c31dd5","system_id":"levelo_inurba_marseille","lat":43.2921,"lon":5.35824,"is_reserved":false,"is_disabled":false,"rental_uris":{"android":"levelo://app?vid=ab485184-dee6-4278-8ed8-78cb97c31dd5","ios":"levelo://app?vid=ab485184-dee6-4278-8ed8-78cb97c31dd5"},"vehicle_type_id":"4","last_reported":1748348498,"current_range_meters":3600,"station_id":"","pricing_plan_id":"cebpf4jnsgd1na2vs0mg"},{"bike_id":"fb53e5ba-e111-438d-bf8c-9a0ec8a32e84","system_id":"levelo_inurba_marseille","lat":43.30592,"lon":5.39355,"is_reserved":false,"is_disabled":false,"rental_uris":{"android":"levelo://app?vid=fb53e5ba-e111-438d-bf8c-9a0ec8a32e84","ios":"levelo://app?vid=fb53e5ba-e111-438d-bf8c-9a0ec8a32e84"},"vehicle_type_id":"4","last_reported":1748348498,"current_range_meters":3600,"station_id":"ce4bh0p2rcd13ifvqd80","pricing_plan_id":"cebpf4jnsgd1na2vs0mg"},{"bike_id":"4beeeb52-71be-4d45-ae6a-82ecf979b7a2","system_id":"levelo_inurba_marseille","lat":43.29165,"lon":5.3716,"is_reserved":false,"is_disabled":false,"rental_uris":{"android":"levelo://app?vid=4beeeb52-71be-4d45-ae6a-82ecf979b7a2","ios":"levelo://app?vid=4beeeb52-71be-4d45-ae6a-82ecf979b7a2"},"vehicle_type_id":"4","last_reported":1748348498,"current_range_meters":3600,"station_id":"ce4bha92rcd13ifvqeh0","pricing_plan_id":"cebpf4jnsgd1na2vs0mg"},{"bike_id":"2d302386-c715-4040-b34f-6c5d6cb85937","system_id":"levelo_inurba_marseille","lat":43.27582,"lon":5.38421,"is_reserved":false,"is_disabled":false,"rental_uris":{"android":"levelo://app?vid=2d302386-c715-4040-b34f-6c5d6cb85937","ios":"levelo://app?vid=2d302386-c715-4040-b34f-6c5d6cb85937"},"vehicle_type_id":"4","last_reported":1748348498,"current_range_meters":3600,"station_id":"ce4bhh92rcd13ifvqfi0","pricing_plan_id":"cebpf4jnsgd1na2vs0mg"},{"bike_id":"9c55a8d9-5bf3-497a-b2e1-24eb44f8d47a","system_id":"levelo_inurba_marseille","lat":43.29705,"lon":5.36603,"is_reserved":false,"is_disabled":false,"rental_uris":{"android":"levelo://app?vid=9c55a8d9-5bf3-497a-b2e1-24eb44f8d47a","ios":"levelo://app?vid=9c55a8d9-5bf3-497a-b2e1-24eb44f8d47a"},"vehicle_type_id":"4","last_reported":1748348498,"current_range_meters":4000,"station_id":"ce4bgn12rcd13ifvqbt0","pricing_plan_id":"cebpf4jnsgd1na2vs0mg"},{"bike_id":"ace3d183-3e7f-48d5-b553-28551904b178","system_id":"levelo_inurba_marseille","lat":43.30605,"lon":5.37215,"is_reserved":false,"is_disabled":false,"rental_uris":{"android":"levelo://app?vid=ace3d183-3e7f-48d5-b553-28551904b178","ios":"levelo://app?vid=ace3d183-3e7f-48d5-b553-28551904b178"},"vehicle_type_id":"4","last_reported":1748348498,"current_range_meters":4000,"station_id":"ce4bgqh2rcd13ifvqc4g","pricing_plan_id":"cebpf4jnsgd1na2vs0mg"},{"bike_id":"e9496718-b841-4999-823d-28c5bee5d6f1","system_id":"levelo_inurba_marseille","lat":43.265398,"lon":5.389919,"is_reserved":false,"is_disabled":false,"rental_uris":{"android":"levelo://app?vid=e9496718-b841-4999-823d-28c5bee5d6f1","ios":"levelo://app?vid=e9496718-b841-4999-823d-28c5bee5d6f1"},"vehicle_type_id":"4","last_reported":1748348498,"current_range_meters":4000,"station_id":"ce4bhe12rcd13ifvqf30","pricing_plan_id":"cebpf4jnsgd1na2vs0mg"},{"bike_id":"013b29b5-910d-4547-b953-a122dcc791ff","system_id":"levelo_inurba_marseille","lat":43.24665,"lon":5.3816,"is_reserved":false,"is_disabled":false,"rental_uris":{"android":"levelo://app?vid=013b29b5-910d-4547-b953-a122dcc791ff","ios":"levelo://app?vid=013b29b5-910d-4547-b953-a122dcc791ff"},"vehicle_type_id":"4","last_reported":1748348498,"current_range_meters":4000,"station_id":"ce4bhih2rcd13ifvqfr0","pricing_plan_id":"cebpf4jnsgd1na2vs0mg"},{"bike_id":"513700e9-e125-4261-bfdd-b0ed8a4bf091","system_id":"levelo_inurba_marseille","lat":43.34147,"lon":5.4091,"is_reserved":false,"is_disabled":false,"rental_uris":{"android":"levelo://app?vid=513700e9-e125-4261-bfdd-b0ed8a4bf091","ios":"levelo://app?vid=513700e9-e125-4261-bfdd-b0ed8a4bf091"},"vehicle_type_id":"4","last_reported":1748348498,"current_range_meters":4000,"station_id":"ce4bhqh2rcd13ifvqhlg","pricing_plan_id":"cebpf4jnsgd1na2vs0mg"},{"bike_id":"87c78516-6e68-4110-bc43-f80211190e66","system_id":"levelo_inurba_marseille","lat":43.30469,"lon":5.37906,"is_reserved":false,"is_disabled":false,"rental_uris":{"android":"levelo://app?vid=87c78516-6e68-4110-bc43-f80211190e66","ios":"levelo://app?vid=87c78516-6e68-4110-bc43-f80211190e66"},"vehicle_type_id":"4","last_reported":1748348498,"current_range_meters":4400,"station_id":"ce4bgup2rcd13ifvqcn0","pricing_plan_id":"cebpf4jnsgd1na2vs0mg"},{"bike_id":"9001f0ef-a8f6-4fde-b8e5-4ff4deb31716","system_id":"levelo_inurba_marseille","lat":43.2923,"lon":5.36075,"is_reserved":false,"is_disabled":false,"rental_uris":{"android":"levelo://app?vid=9001f0ef-a8f6-4fde-b8e5-4ff4deb31716","ios":"levelo://app?vid=9001f0ef-a8f6-4fde-b8e5-4ff4deb31716"},"vehicle_type_id":"4","last_reported":1748348498,"current_range_meters":4400,"station_id":"ce4bhbh2rcd13ifvqeqg","pricing_plan_id":"cebpf4jnsgd1na2vs0mg"},{"bike_id":"8d751143-c114-4864-aac3-98d08eadf596","system_id":"levelo_inurba_marseille","lat":43.27072,"lon":5.42276,"is_reserved":false,"is_disabled":false,"rental_uris":{"android":"levelo://app?vid=8d751143-c114-4864-aac3-98d08eadf596","ios":"levelo://app?vid=8d751143-c114-4864-aac3-98d08eadf596"},"vehicle_type_id":"4","last_reported":1748348498,"current_range_meters":4400,"station_id":"ce4bhk92rcd13ifvqgb0","pricing_plan_id":"cebpf4jnsgd1na2vs0mg"},{"bike_id":"6eeed17c-bc90-48bb-893c-72714b4f8a1b","system_id":"levelo_inurba_marseille","lat":43.24071,"lon":5.377598,"is_reserved":false,"is_disabled":false,"rental_uris":{"android":"levelo://app?vid=6eeed17c-bc90-48bb-893c-72714b4f8a1b","ios":"levelo://app?vid=6eeed17c-bc90-48bb-893c-72714b4f8a1b"},"vehicle_type_id":"4","last_reported":1748348498,"current_range_meters":4400,"station_id":"ce4bhnp2rcd13ifvqgvg","pricing_plan_id":"cebpf4jnsgd1na2vs0mg"},{"bike_id":"9dba8239-6956-4394-b88b-f67913567de3","system_id":"levelo_inurba_marseille","lat":43.26572,"lon":5.40328,"is_reserved":false,"is_disabled":false,"rental_uris":{"android":"levelo://app?vid=9dba8239-6956-4394-b88b-f67913567de3","ios":"levelo://app?vid=9dba8239-6956-4394-b88b-f67913567de3"},"vehicle_type_id":"4","last_reported":1748348498,"current_range_meters":4800,"station_id":"","pricing_plan_id":"cebpf4jnsgd1na2vs0mg"},{"bike_id":"32a2585a-2721-48f1-9be2-519c980b10dd","system_id":"levelo_inurba_marseille","lat":43.26202,"lon":5.37928,"is_reserved":false,"is_disabled":false,"rental_uris":{"android":"levelo://app?vid=32a2585a-2721-48f1-9be2-519c980b10dd","ios":"levelo://app?vid=32a2585a-2721-48f1-9be2-519c980b10dd"},"vehicle_type_id":"4","last_reported":1748348498,"current_range_meters":4800,"station_id":"ce4bhjp2rcd13ifvqg90","pricing_plan_id":"cebpf4jnsgd1na2vs0mg"},{"bike_id":"a4aef2b9-b7e8-4e2d-8340-592d28bc6c85","system_id":"levelo_inurba_marseille","lat":43.337654,"lon":5.37434,"is_reserved":false,"is_disabled":false,"rental_uris":{"android":"levelo://app?vid=a4aef2b9-b7e8-4e2d-8340-592d28bc6c85","ios":"levelo://app?vid=a4aef2b9-b7e8-4e2d-8340-592d28bc6c85"},"vehicle_type_id":"4","last_reported":1748348498,"current_range_meters":5600,"station_id":"","pricing_plan_id":"cebpf4jnsgd1na2vs0mg"},{"bike_id":"4b15c05b-7a78-452b-b2ef-7de72be20910","system_id":"levelo_inurba_marseille","lat":43.27906,"lon":5.38002,"is_reserved":false,"is_disabled":false,"rental_uris":{"android":"levelo://app?vid=4b15c05b-7a78-452b-b2ef-7de72be20910","ios":"levelo://app?vid=4b15c05b-7a78-452b-b2ef-7de72be20910"},"vehicle_type_id":"4","last_reported":1748348498,"current_range_meters":5600,"station_id":"ce4bhf92rcd13ifvqf50","pricing_plan_id":"cebpf4jnsgd1na2vs0mg"},{"bike_id":"7ed37256-a041-4714-98c7-cb34e9095bd7","system_id":"levelo_inurba_marseille","lat":43.25007,"lon":5.38952,"is_reserved":false,"is_disabled":false,"rental_uris":{"android":"levelo://app?vid=7ed37256-a041-4714-98c7-cb34e9095bd7","ios":"levelo://app?vid=7ed37256-a041-4714-98c7-cb34e9095bd7"},"vehicle_type_id":"4","last_reported":1748348498,"current_range_meters":5600,"station_id":"ce4bhgp2rcd13ifvqfd0","pricing_plan_id":"cebpf4jnsgd1na2vs0mg"},{"bike_id":"0273017d-bf99-4449-8417-738a7e000fe6","system_id":"levelo_inurba_marseille","lat":43.30468,"lon":5.37898,"is_reserved":false,"is_disabled":false,"rental_uris":{"android":"levelo://app?vid=0273017d-bf99-4449-8417-738a7e000fe6","ios":"levelo://app?vid=0273017d-bf99-4449-8417-738a7e000fe6"},"vehicle_type_id":"4","last_reported":1748348498,"current_range_meters":6000,"station_id":"ce4bgup2rcd13ifvqcn0","pricing_plan_id":"cebpf4jnsgd1na2vs0mg"},{"bike_id":"9cc02171-4fb3-4e13-9244-4ec7d07ff470","system_id":"levelo_inurba_marseille","lat":43.24184,"lon":5.3973,"is_reserved":false,"is_disabled":false,"rental_uris":{"android":"levelo://app?vid=9cc02171-4fb3-4e13-9244-4ec7d07ff470","ios":"levelo://app?vid=9cc02171-4fb3-4e13-9244-4ec7d07ff470"},"vehicle_type_id":"4","last_reported":1748348498,"current_range_meters":6000,"station_id":"ce4bhn12rcd13ifvqgpg","pricing_plan_id":"cebpf4jnsgd1na2vs0mg"},{"bike_id":"cf334fda-687d-40c6-8ac7-d45fc63f8e38","system_id":"levelo_inurba_marseille","lat":43.30463,"lon":5.37261,"is_reserved":false,"is_disabled":false,"rental_uris":{"android":"levelo://app?vid=cf334fda-687d-40c6-8ac7-d45fc63f8e38","ios":"levelo://app?vid=cf334fda-687d-40c6-8ac7-d45fc63f8e38"},"vehicle_type_id":"4","last_reported":1748348498,"current_range_meters":6400,"station_id":"","pricing_plan_id":"cebpf4jnsgd1na2vs0mg"},{"bike_id":"b744080c-dd77-486d-9609-00c9cf60c1ad","system_id":"levelo_inurba_marseille","lat":43.23613,"lon":5.39184,"is_reserved":false,"is_disabled":false,"rental_uris":{"android":"levelo://app?vid=b744080c-dd77-486d-9609-00c9cf60c1ad","ios":"levelo://app?vid=b744080c-dd77-486d-9609-00c9cf60c1ad"},"vehicle_type_id":"4","last_reported":1748348498,"current_range_meters":6400,"station_id":"","pricing_plan_id":"cebpf4jnsgd1na2vs0mg"},{"bike_id":"299f1fe5-9a61-42c9-b435-2b85995b436e","system_id":"levelo_inurba_marseille","lat":43.31688,"lon":5.40467,"is_reserved":false,"is_disabled":false,"rental_uris":{"android":"levelo://app?vid=299f1fe5-9a61-42c9-b435-2b85995b436e","ios":"levelo://app?vid=299f1fe5-9a61-42c9-b435-2b85995b436e"},"vehicle_type_id":"4","last_reported":1748348498,"current_range_meters":6400,"station_id":"ce4bh012rcd13ifvqd00","pricing_plan_id":"cebpf4jnsgd1na2vs0mg"},{"bike_id":"2b73315a-ee87-4d8e-8a09-44cb343862e1","system_id":"levelo_inurba_marseille","lat":43.27992,"lon":5.41661,"is_reserved":false,"is_disabled":false,"rental_uris":{"android":"levelo://app?vid=2b73315a-ee87-4d8e-8a09-44cb343862e1","ios":"levelo://app?vid=2b73315a-ee87-4d8e-8a09-44cb343862e1"},"vehicle_type_id":"4","last_reported":1748348498,"current_range_meters":6400,"station_id":"ce4bho12rcd13ifvqh1g","pricing_plan_id":"cebpf4jnsgd1na2vs0mg"},{"bike_id":"a3fdfab4-cb8b-4639-a8f9-ac99f398c758","system_id":"levelo_inurba_marseille","lat":43.24172,"lon":5.36391,"is_reserved":false,"is_disabled":false,"rental_uris":{"android":"levelo://app?vid=a3fdfab4-cb8b-4639-a8f9-ac99f398c758","ios":"levelo://app?vid=a3fdfab4-cb8b-4639-a8f9-ac99f398c758"},"vehicle_type_id":"4","last_reported":1748348498,"current_range_meters":6400,"station_id":"cpo36qri1sfpv3e86is0","pricing_plan_id":"cebpf4jnsgd1na2vs0mg"},{"bike_id":"52b5b118-122f-4853-96dc-c2da0a1b15ff","system_id":"levelo_inurba_marseille","lat":43.3054,"lon":5.36549,"is_reserved":false,"is_disabled":false,"rental_uris":{"android":"levelo://app?vid=52b5b118-122f-4853-96dc-c2da0a1b15ff","ios":"levelo://app?vid=52b5b118-122f-4853-96dc-c2da0a1b15ff"},"vehicle_type_id":"4","last_reported":1748348498,"current_range_meters":6800,"station_id":"ce4bgs12rcd13ifvqcag","pricing_plan_id":"cebpf4jnsgd1na2vs0mg"},{"bike_id":"4ef92608-8cb5-44b8-bed5-c50621942c57","system_id":"levelo_inurba_marseille","lat":43.29205,"lon":5.35794,"is_reserved":false,"is_disabled":false,"rental_uris":{"android":"levelo://app?vid=4ef92608-8cb5-44b8-bed5-c50621942c57","ios":"levelo://app?vid=4ef92608-8cb5-44b8-bed5-c50621942c57"},"vehicle_type_id":"4","last_reported":1748348498,"current_range_meters":6800,"station_id":"ce4bhb12rcd13ifvqel0","pricing_plan_id":"cebpf4jnsgd1na2vs0mg"},{"bike_id":"b9757801-8ca9-4def-ab86-4d48b16a67dc","system_id":"levelo_inurba_marseille","lat":43.27569,"lon":5.38421,"is_reserved":false,"is_disabled":false,"rental_uris":{"android":"levelo://app?vid=b9757801-8ca9-4def-ab86-4d48b16a67dc","ios":"levelo://app?vid=b9757801-8ca9-4def-ab86-4d48b16a67dc"},"vehicle_type_id":"4","last_reported":1748348498,"current_range_meters":6800,"station_id":"ce4bhh92rcd13ifvqfi0","pricing_plan_id":"cebpf4jnsgd1na2vs0mg"},{"bike_id":"58de4e8f-073d-4f96-9392-63c1cfc472ce","system_id":"levelo_inurba_marseille","lat":43.25071,"lon":5.39488,"is_reserved":false,"is_disabled":false,"rental_uris":{"android":"levelo://app?vid=58de4e8f-073d-4f96-9392-63c1cfc472ce","ios":"levelo://app?vid=58de4e8f-073d-4f96-9392-63c1cfc472ce"},"vehicle_type_id":"4","last_reported":1748348498,"current_range_meters":7200,"station_id":"ce4bhm12rcd13ifvqgkg","pricing_plan_id":"cebpf4jnsgd1na2vs0mg"},{"bike_id":"6a80d0cd-0ed1-4299-94b2-c768810a3301","system_id":"levelo_inurba_marseille","lat":43.25926,"lon":5.40897,"is_reserved":false,"is_disabled":false,"rental_uris":{"android":"levelo://app?vid=6a80d0cd-0ed1-4299-94b2-c768810a3301","ios":"levelo://app?vid=6a80d0cd-0ed1-4299-94b2-c768810a3301"},"vehicle_type_id":"4","last_reported":1748348498,"current_range_meters":7200,"station_id":"ce4bhm92rcd13ifvqglg","pricing_plan_id":"cebpf4jnsgd1na2vs0mg"},{"bike_id":"2ec3c1ab-f731-420e-be73-810c4409ee8e","system_id":"levelo_inurba_marseille","lat":43.3176,"lon":5.3901,"is_reserved":false,"is_disabled":false,"rental_uris":{"android":"levelo://app?vid=2ec3c1ab-f731-420e-be73-810c4409ee8e","ios":"levelo://app?vid=2ec3c1ab-f731-420e-be73-810c4409ee8e"},"vehicle_type_id":"4","last_reported":1748348498,"current_range_meters":7200,"station_id":"ce4bhqp2rcd13ifvqhng","pricing_plan_id":"cebpf4jnsgd1na2vs0mg"},{"bike_id":"15895a4c-6504-4c01-aecb-996f77f1a3b5","system_id":"levelo_inurba_marseille","lat":43.32116,"lon":5.36778,"is_reserved":false,"is_disabled":false,"rental_uris":{"android":"levelo://app?vid=15895a4c-6504-4c01-aecb-996f77f1a3b5","ios":"levelo://app?vid=15895a4c-6504-4c01-aecb-996f77f1a3b5"},"vehicle_type_id":"4","last_reported":1748348498,"current_range_meters":7200,"station_id":"ce4bhrh2rcd13ifvqhug","pricing_plan_id":"cebpf4jnsgd1na2vs0mg"},{"bike_id":"8654a797-522d-48db-9c8f-3e52a37eb0a7","system_id":"levelo_inurba_marseille","lat":43.24666,"lon":5.38159,"is_reserved":false,"is_disabled":false,"rental_uris":{"android":"levelo://app?vid=8654a797-522d-48db-9c8f-3e52a37eb0a7","ios":"levelo://app?vid=8654a797-522d-48db-9c8f-3e52a37eb0a7"},"vehicle_type_id":"4","last_reported":1748348498,"current_range_meters":8000,"station_id":"","pricing_plan_id":"cebpf4jnsgd1na2vs0mg"},{"bike_id":"326ee234-beb0-44e0-b8c6-df6a570c5281","system_id":"levelo_inurba_marseille","lat":43.29534,"lon":5.39398,"is_reserved":false,"is_disabled":false,"rental_uris":{"android":"levelo://app?vid=326ee234-beb0-44e0-b8c6-df6a570c5281","ios":"levelo://app?vid=326ee234-beb0-44e0-b8c6-df6a570c5281"},"vehicle_type_id":"4","last_reported":1748348498,"current_range_meters":8000,"station_id":"ce4bh292rcd13ifvqdf0","pricing_plan_id":"cebpf4jnsgd1na2vs0mg"},{"bike_id":"d9fb3e9c-dcd3-453b-93db-e5a9a772567c","system_id":"levelo_inurba_marseille","lat":43.29203,"lon":5.35815,"is_reserved":false,"is_disabled":false,"rental_uris":{"android":"levelo://app?vid=d9fb3e9c-dcd3-453b-93db-e5a9a772567c","ios":"levelo://app?vid=d9fb3e9c-dcd3-453b-93db-e5a9a772567c"},"vehicle_type_id":"4","last_reported":1748348498,"current_range_meters":8000,"station_id":"ce4bhb12rcd13ifvqel0","pricing_plan_id":"cebpf4jnsgd1na2vs0mg"},{"bike_id":"ce774b24-e1b1-46f4-ac51-05d81ca0ea34","system_id":"levelo_inurba_marseille","lat":43.27905,"lon":5.38011,"is_reserved":false,"is_disabled":false,"rental_uris":{"android":"levelo://app?vid=ce774b24-e1b1-46f4-ac51-05d81ca0ea34","ios":"levelo://app?vid=ce774b24-e1b1-46f4-ac51-05d81ca0ea34"},"vehicle_type_id":"4","last_reported":1748348498,"current_range_meters":8000,"station_id":"ce4bhf92rcd13ifvqf50","pricing_plan_id":"cebpf4jnsgd1na2vs0mg"},{"bike_id":"39b9e6f9-7f50-4c15-865f-e83796dd4da6","system_id":"levelo_inurba_marseille","lat":43.25589,"lon":5.38241,"is_reserved":false,"is_disabled":false,"rental_uris":{"android":"levelo://app?vid=39b9e6f9-7f50-4c15-865f-e83796dd4da6","ios":"levelo://app?vid=39b9e6f9-7f50-4c15-865f-e83796dd4da6"},"vehicle_type_id":"4","last_reported":1748348498,"current_range_meters":8000,"station_id":"ce4bhih2rcd13ifvqfs0","pricing_plan_id":"cebpf4jnsgd1na2vs0mg"},{"bike_id":"4de9b7e5-eeb0-4157-a33c-ea0bec568ecd","system_id":"levelo_inurba_marseille","lat":43.26204,"lon":5.37929,"is_reserved":false,"is_disabled":false,"rental_uris":{"android":"levelo://app?vid=4de9b7e5-eeb0-4157-a33c-ea0bec568ecd","ios":"levelo://app?vid=4de9b7e5-eeb0-4157-a33c-ea0bec568ecd"},"vehicle_type_id":"4","last_reported":1748348498,"current_range_meters":8000,"station_id":"ce4bhjp2rcd13ifvqg90","pricing_plan_id":"cebpf4jnsgd1na2vs0mg"},{"bike_id":"8cd23309-5551-4519-ab81-4b86ceac5311","system_id":"levelo_inurba_marseille","lat":43.25095,"lon":5.39606,"is_reserved":false,"is_disabled":false,"rental_uris":{"android":"levelo://app?vid=8cd23309-5551-4519-ab81-4b86ceac5311","ios":"levelo://app?vid=8cd23309-5551-4519-ab81-4b86ceac5311"},"vehicle_type_id":"4","last_reported":1748348498,"current_range_meters":8400,"station_id":"","pricing_plan_id":"cebpf4jnsgd1na2vs0mg"},{"bike_id":"166b08df-68d9-490e-9ae4-6f373c2aeda4","system_id":"levelo_inurba_marseille","lat":43.254969,"lon":5.37649,"is_reserved":false,"is_disabled":false,"rental_uris":{"android":"levelo://app?vid=166b08df-68d9-490e-9ae4-6f373c2aeda4","ios":"levelo://app?vid=166b08df-68d9-490e-9ae4-6f373c2aeda4"},"vehicle_type_id":"4","last_reported":1748348498,"current_range_meters":8400,"station_id":"","pricing_plan_id":"cebpf4jnsgd1na2vs0mg"},{"bike_id":"6e37d84b-0136-4bd4-a1ae-bc58fa2f7419","system_id":"levelo_inurba_marseille","lat":43.31503,"lon":5.37292,"is_reserved":false,"is_disabled":false,"rental_uris":{"android":"levelo://app?vid=6e37d84b-0136-4bd4-a1ae-bc58fa2f7419","ios":"levelo://app?vid=6e37d84b-0136-4bd4-a1ae-bc58fa2f7419"},"vehicle_type_id":"4","last_reported":1748348498,"current_range_meters":8400,"station_id":"ce4bgt12rcd13ifvqcd0","pricing_plan_id":"cebpf4jnsgd1na2vs0mg"},{"bike_id":"807095be-ee99-4c5a-bcf2-45454a81aec6","system_id":"levelo_inurba_marseille","lat":43.269568,"lon":5.38633,"is_reserved":false,"is_disabled":false,"rental_uris":{"android":"levelo://app?vid=807095be-ee99-4c5a-bcf2-45454a81aec6","ios":"levelo://app?vid=807095be-ee99-4c5a-bcf2-45454a81aec6"},"vehicle_type_id":"4","last_reported":1748348498,"current_range_meters":8400,"station_id":"ce4bhh92rcd13ifvqfh0","pricing_plan_id":"cebpf4jnsgd1na2vs0mg"},{"bike_id":"4e3a6c84-3034-477f-a251-8b284d794b30","system_id":"levelo_inurba_marseille","lat":43.25939,"lon":5.409,"is_reserved":false,"is_disabled":false,"rental_uris":{"android":"levelo://app?vid=4e3a6c84-3034-477f-a251-8b284d794b30","ios":"levelo://app?vid=4e3a6c84-3034-477f-a251-8b284d794b30"},"vehicle_type_id":"4","last_reported":1748348498,"current_range_meters":8400,"station_id":"ce4bhm92rcd13ifvqglg","pricing_plan_id":"cebpf4jnsgd1na2vs0mg"},{"bike_id":"fb1a3b4e-0be5-4550-bfd4-854affb491cd","system_id":"levelo_inurba_marseille","lat":43.25934,"lon":5.40901,"is_reserved":false,"is_disabled":false,"rental_uris":{"android":"levelo://app?vid=fb1a3b4e-0be5-4550-bfd4-854affb491cd","ios":"levelo://app?vid=fb1a3b4e-0be5-4550-bfd4-854affb491cd"},"vehicle_type_id":"4","last_reported":1748348498,"current_range_meters":8400,"station_id":"ce4bhm92rcd13ifvqglg","pricing_plan_id":"cebpf4jnsgd1na2vs0mg"},{"bike_id":"37874b61-c12a-4fb9-9a27-c118d4a2cbe0","system_id":"levelo_inurba_marseille","lat":43.30889,"lon":5.39653,"is_reserved":false,"is_disabled":false,"rental_uris":{"android":"levelo://app?vid=37874b61-c12a-4fb9-9a27-c118d4a2cbe0","ios":"levelo://app?vid=37874b61-c12a-4fb9-9a27-c118d4a2cbe0"},"vehicle_type_id":"4","last_reported":1748348498,"current_range_meters":8800,"station_id":"ce4bh012rcd13ifvqcv0","pricing_plan_id":"cebpf4jnsgd1na2vs0mg"},{"bike_id":"1a0998e5-8bb9-474f-a827-53cad24c9e8f","system_id":"levelo_inurba_marseille","lat":43.32027,"lon":5.4495,"is_reserved":false,"is_disabled":false,"rental_uris":{"android":"levelo://app?vid=1a0998e5-8bb9-474f-a827-53cad24c9e8f","ios":"levelo://app?vid=1a0998e5-8bb9-474f-a827-53cad24c9e8f"},"vehicle_type_id":"4","last_reported":1748348498,"current_range_meters":9200,"station_id":"","pricing_plan_id":"cebpf4jnsgd1na2vs0mg"},{"bike_id":"ae6e6868-2635-4f49-b7c1-b03759c58ec7","system_id":"levelo_inurba_marseille","lat":43.27281,"lon":5.41587,"is_reserved":false,"is_disabled":false,"rental_uris":{"android":"levelo://app?vid=ae6e6868-2635-4f49-b7c1-b03759c58ec7","ios":"levelo://app?vid=ae6e6868-2635-4f49-b7c1-b03759c58ec7"},"vehicle_type_id":"4","last_reported":1748348498,"current_range_meters":9200,"station_id":"","pricing_plan_id":"cebpf4jnsgd1na2vs0mg"},{"bike_id":"8151cbc3-0a69-4481-9edd-fbaa5988b68e","system_id":"levelo_inurba_marseille","lat":43.231895,"lon":5.39988,"is_reserved":false,"is_disabled":false,"rental_uris":{"android":"levelo://app?vid=8151cbc3-0a69-4481-9edd-fbaa5988b68e","ios":"levelo://app?vid=8151cbc3-0a69-4481-9edd-fbaa5988b68e"},"vehicle_type_id":"4","last_reported":1748348498,"current_range_meters":9200,"station_id":"","pricing_plan_id":"cebpf4jnsgd1na2vs0mg"},{"bike_id":"179e670b-338a-4c35-90c1-db1256311ade","system_id":"levelo_inurba_marseille","lat":43.23174,"lon":5.39998,"is_reserved":false,"is_disabled":false,"rental_uris":{"android":"levelo://app?vid=179e670b-338a-4c35-90c1-db1256311ade","ios":"levelo://app?vid=179e670b-338a-4c35-90c1-db1256311ade"},"vehicle_type_id":"4","last_reported":1748348498,"current_range_meters":9200,"station_id":"","pricing_plan_id":"cebpf4jnsgd1na2vs0mg"},{"bike_id":"9c8ab5ff-7a98-4cff-9fc1-ebfa4504dbaf","system_id":"levelo_inurba_marseille","lat":43.31478,"lon":5.37303,"is_reserved":false,"is_disabled":false,"rental_uris":{"android":"levelo://app?vid=9c8ab5ff-7a98-4cff-9fc1-ebfa4504dbaf","ios":"levelo://app?vid=9c8ab5ff-7a98-4cff-9fc1-ebfa4504dbaf"},"vehicle_type_id":"4","last_reported":1748348498,"current_range_meters":9200,"station_id":"ce4bgt12rcd13ifvqcd0","pricing_plan_id":"cebpf4jnsgd1na2vs0mg"},{"bike_id":"641bb3ce-f02a-4fba-b77e-ed3905b320a7","system_id":"levelo_inurba_marseille","lat":43.30884,"lon":5.37197,"is_reserved":false,"is_disabled":false,"rental_uris":{"android":"levelo://app?vid=641bb3ce-f02a-4fba-b77e-ed3905b320a7","ios":"levelo://app?vid=641bb3ce-f02a-4fba-b77e-ed3905b320a7"},"vehicle_type_id":"4","last_reported":1748348498,"current_range_meters":9200,"station_id":"ce4bguh2rcd13ifvqckg","pricing_plan_id":"cebpf4jnsgd1na2vs0mg"},{"bike_id":"533c0c00-7bf6-4715-9a0d-0623d5e81e84","system_id":"levelo_inurba_marseille","lat":43.28418,"lon":5.34985,"is_reserved":false,"is_disabled":false,"rental_uris":{"android":"levelo://app?vid=533c0c00-7bf6-4715-9a0d-0623d5e81e84","ios":"levelo://app?vid=533c0c00-7bf6-4715-9a0d-0623d5e81e84"},"vehicle_type_id":"4","last_reported":1748348498,"current_range_meters":9200,"station_id":"ce4bhbh2rcd13ifvqepg","pricing_plan_id":"cebpf4jnsgd1na2vs0mg"},{"bike_id":"817e7478-bdc6-4277-9f7d-93ef98137d43","system_id":"levelo_inurba_marseille","lat":43.284242,"lon":5.349818,"is_reserved":false,"is_disabled":false,"rental_uris":{"android":"levelo://app?vid=817e7478-bdc6-4277-9f7d-93ef98137d43","ios":"levelo://app?vid=817e7478-bdc6-4277-9f7d-93ef98137d43"},"vehicle_type_id":"4","last_reported":1748348498,"current_range_meters":9200,"station_id":"ce4bhbh2rcd13ifvqepg","pricing_plan_id":"cebpf4jnsgd1na2vs0mg"},{"bike_id":"6012310c-0064-4716-bd84-b662be8ca61a","system_id":"levelo_inurba_marseille","lat":43.28421,"lon":5.3498,"is_reserved":false,"is_disabled":false,"rental_uris":{"android":"levelo://app?vid=6012310c-0064-4716-bd84-b662be8ca61a","ios":"levelo://app?vid=6012310c-0064-4716-bd84-b662be8ca61a"},"vehicle_type_id":"4","last_reported":1748348498,"current_range_meters":9200,"station_id":"ce4bhbh2rcd13ifvqepg","pricing_plan_id":"cebpf4jnsgd1na2vs0mg"},{"bike_id":"5b8dfdca-cd3e-40fc-9037-d8ed209bace7","system_id":"levelo_inurba_marseille","lat":43.278327,"lon":5.392023,"is_reserved":false,"is_disabled":false,"rental_uris":{"android":"levelo://app?vid=5b8dfdca-cd3e-40fc-9037-d8ed209bace7","ios":"levelo://app?vid=5b8dfdca-cd3e-40fc-9037-d8ed209bace7"},"vehicle_type_id":"4","last_reported":1748348498,"current_range_meters":9200,"station_id":"ce4bhjp2rcd13ifvqga0","pricing_plan_id":"cebpf4jnsgd1na2vs0mg"},{"bike_id":"f6a291c8-009c-4799-858f-3d0684b35fea","system_id":"levelo_inurba_marseille","lat":43.23148,"lon":5.43704,"is_reserved":false,"is_disabled":false,"rental_uris":{"android":"levelo://app?vid=f6a291c8-009c-4799-858f-3d0684b35fea","ios":"levelo://app?vid=f6a291c8-009c-4799-858f-3d0684b35fea"},"vehicle_type_id":"4","last_reported":1748348498,"current_range_meters":9200,"station_id":"ce4bhmp2rcd13ifvqgog","pricing_plan_id":"cebpf4jnsgd1na2vs0mg"},{"bike_id":"25853d19-5d1f-494a-a293-243ec360eb47","system_id":"levelo_inurba_marseille","lat":43.24189,"lon":5.39735,"is_reserved":false,"is_disabled":false,"rental_uris":{"android":"levelo://app?vid=25853d19-5d1f-494a-a293-243ec360eb47","ios":"levelo://app?vid=25853d19-5d1f-494a-a293-243ec360eb47"},"vehicle_type_id":"4","last_reported":1748348498,"current_range_meters":9200,"station_id":"ce4bhn12rcd13ifvqgpg","pricing_plan_id":"cebpf4jnsgd1na2vs0mg"},{"bike_id":"2447e726-02f2-4707-a232-a209224dd9ad","system_id":"levelo_inurba_marseille","lat":43.33024,"lon":5.39043,"is_reserved":false,"is_disabled":false,"rental_uris":{"android":"levelo://app?vid=2447e726-02f2-4707-a232-a209224dd9ad","ios":"levelo://app?vid=2447e726-02f2-4707-a232-a209224dd9ad"},"vehicle_type_id":"4","last_reported":1748348498,"current_range_meters":9200,"station_id":"ce4bhr92rcd13ifvqhrg","pricing_plan_id":"cebpf4jnsgd1na2vs0mg"},{"bike_id":"de7de93d-7329-426c-a55a-9e1f5b37f3bc","system_id":"levelo_inurba_marseille","lat":43.30147,"lon":5.37403,"is_reserved":false,"is_disabled":false,"rental_uris":{"android":"levelo://app?vid=de7de93d-7329-426c-a55a-9e1f5b37f3bc","ios":"levelo://app?vid=de7de93d-7329-426c-a55a-9e1f5b37f3bc"},"vehicle_type_id":"4","last_reported":1748348498,"current_range_meters":9600,"station_id":"ce4bgs92rcd13ifvqcc0","pricing_plan_id":"cebpf4jnsgd1na2vs0mg"},{"bike_id":"d7cffa04-7522-4642-b040-6875cef5771b","system_id":"levelo_inurba_marseille","lat":43.30465,"lon":5.37905,"is_reserved":false,"is_disabled":false,"rental_uris":{"android":"levelo://app?vid=d7cffa04-7522-4642-b040-6875cef5771b","ios":"levelo://app?vid=d7cffa04-7522-4642-b040-6875cef5771b"},"vehicle_type_id":"4","last_reported":1748348498,"current_range_meters":9600,"station_id":"ce4bgup2rcd13ifvqcn0","pricing_plan_id":"cebpf4jnsgd1na2vs0mg"},{"bike_id":"11cfae62-63cc-4e34-a428-8d45e8e5fd6b","system_id":"levelo_inurba_marseille","lat":43.29573,"lon":5.39986,"is_reserved":false,"is_disabled":false,"rental_uris":{"android":"levelo://app?vid=11cfae62-63cc-4e34-a428-8d45e8e5fd6b","ios":"levelo://app?vid=11cfae62-63cc-4e34-a428-8d45e8e5fd6b"},"vehicle_type_id":"4","last_reported":1748348498,"current_range_meters":9600,"station_id":"ce4bh312rcd13ifvqdj0","pricing_plan_id":"cebpf4jnsgd1na2vs0mg"},{"bike_id":"19d2420d-6934-47ed-bd13-3997559b9b5c","system_id":"levelo_inurba_marseille","lat":43.30466,"lon":5.37902,"is_reserved":false,"is_disabled":false,"rental_uris":{"android":"levelo://app?vid=19d2420d-6934-47ed-bd13-3997559b9b5c","ios":"levelo://app?vid=19d2420d-6934-47ed-bd13-3997559b9b5c"},"vehicle_type_id":"4","last_reported":1748348498,"current_range_meters":10000,"station_id":"ce4bgup2rcd13ifvqcn0","pricing_plan_id":"cebpf4jnsgd1na2vs0mg"},{"bike_id":"cd431521-2266-4f45-ac9a-95e56b6903c9","system_id":"levelo_inurba_marseille","lat":43.24174,"lon":5.39735,"is_reserved":false,"is_disabled":false,"rental_uris":{"android":"levelo://app?vid=cd431521-2266-4f45-ac9a-95e56b6903c9","ios":"levelo://app?vid=cd431521-2266-4f45-ac9a-95e56b6903c9"},"vehicle_type_id":"4","last_reported":1748348498,"current_range_meters":10000,"station_id":"ce4bhn12rcd13ifvqgpg","pricing_plan_id":"cebpf4jnsgd1na2vs0mg"},{"bike_id":"6ef27e84-462a-46f9-afe5-e09b209cc7f0","system_id":"levelo_inurba_marseille","lat":43.33114,"lon":5.362045,"is_reserved":false,"is_disabled":false,"rental_uris":{"android":"levelo://app?vid=6ef27e84-462a-46f9-afe5-e09b209cc7f0","ios":"levelo://app?vid=6ef27e84-462a-46f9-afe5-e09b209cc7f0"},"vehicle_type_id":"4","last_reported":1748348498,"current_range_meters":10800,"station_id":"","pricing_plan_id":"cebpf4jnsgd1na2vs0mg"},{"bike_id":"f9a1ccb4-eefa-4aee-bcfd-72472de0c30f","system_id":"levelo_inurba_marseille","lat":43.29265,"lon":5.37631,"is_reserved":false,"is_disabled":false,"rental_uris":{"android":"levelo://app?vid=f9a1ccb4-eefa-4aee-bcfd-72472de0c30f","ios":"levelo://app?vid=f9a1ccb4-eefa-4aee-bcfd-72472de0c30f"},"vehicle_type_id":"4","last_reported":1748348498,"current_range_meters":10800,"station_id":"ce4bgi12rcd13ifvqb80","pricing_plan_id":"cebpf4jnsgd1na2vs0mg"},{"bike_id":"daa8a49f-122c-4d26-bdef-9f4f3e827bca","system_id":"levelo_inurba_marseille","lat":43.28418,"lon":5.3498,"is_reserved":false,"is_disabled":false,"rental_uris":{"android":"levelo://app?vid=daa8a49f-122c-4d26-bdef-9f4f3e827bca","ios":"levelo://app?vid=daa8a49f-122c-4d26-bdef-9f4f3e827bca"},"vehicle_type_id":"4","last_reported":1748348498,"current_range_meters":10800,"station_id":"ce4bhbh2rcd13ifvqepg","pricing_plan_id":"cebpf4jnsgd1na2vs0mg"},{"bike_id":"b939364f-a9d5-4ce5-9f14-c4aad01a7bc2","system_id":"levelo_inurba_marseille","lat":43.27815,"lon":5.407103,"is_reserved":false,"is_disabled":false,"rental_uris":{"android":"levelo://app?vid=b939364f-a9d5-4ce5-9f14-c4aad01a7bc2","ios":"levelo://app?vid=b939364f-a9d5-4ce5-9f14-c4aad01a7bc2"},"vehicle_type_id":"4","last_reported":1748348498,"current_range_meters":10800,"station_id":"ce4bhnh2rcd13ifvqgtg","pricing_plan_id":"cebpf4jnsgd1na2vs0mg"},{"bike_id":"9752a2cc-cd35-4082-b045-1cd9489ac7b3","system_id":"levelo_inurba_marseille","lat":43.28725,"lon":5.36087,"is_reserved":false,"is_disabled":false,"rental_uris":{"android":"levelo://app?vid=9752a2cc-cd35-4082-b045-1cd9489ac7b3","ios":"levelo://app?vid=9752a2cc-cd35-4082-b045-1cd9489ac7b3"},"vehicle_type_id":"4","last_reported":1748348498,"current_range_meters":10800,"station_id":"cki0cbj6b192h4jlfktg","pricing_plan_id":"cebpf4jnsgd1na2vs0mg"},{"bike_id":"e6c65de3-7d92-4979-809c-6677188473c0","system_id":"levelo_inurba_marseille","lat":43.337598,"lon":5.374632,"is_reserved":false,"is_disabled":false,"rental_uris":{"android":"levelo://app?vid=e6c65de3-7d92-4979-809c-6677188473c0","ios":"levelo://app?vid=e6c65de3-7d92-4979-809c-6677188473c0"},"vehicle_type_id":"4","last_reported":1748348498,"current_range_meters":11200,"station_id":"","pricing_plan_id":"cebpf4jnsgd1na2vs0mg"},{"bike_id":"82e61e28-6553-43b1-802a-e27fca196057","system_id":"levelo_inurba_marseille","lat":43.23182,"lon":5.399864,"is_reserved":false,"is_disabled":false,"rental_uris":{"android":"levelo://app?vid=82e61e28-6553-43b1-802a-e27fca196057","ios":"levelo://app?vid=82e61e28-6553-43b1-802a-e27fca196057"},"vehicle_type_id":"4","last_reported":1748348498,"current_range_meters":11200,"station_id":"","pricing_plan_id":"cebpf4jnsgd1na2vs0mg"},{"bike_id":"5f9391d7-2924-464d-abdc-d40ada4b1c07","system_id":"levelo_inurba_marseille","lat":43.301,"lon":5.37393,"is_reserved":false,"is_disabled":false,"rental_uris":{"android":"levelo://app?vid=5f9391d7-2924-464d-abdc-d40ada4b1c07","ios":"levelo://app?vid=5f9391d7-2924-464d-abdc-d40ada4b1c07"},"vehicle_type_id":"4","last_reported":1748348498,"current_range_meters":11200,"station_id":"","pricing_plan_id":"cebpf4jnsgd1na2vs0mg"},{"bike_id":"2a046dee-b3af-48c9-9659-b7d30ba20af5","system_id":"levelo_inurba_marseille","lat":43.24358,"lon":5.38006,"is_reserved":false,"is_disabled":false,"rental_uris":{"android":"levelo://app?vid=2a046dee-b3af-48c9-9659-b7d30ba20af5","ios":"levelo://app?vid=2a046dee-b3af-48c9-9659-b7d30ba20af5"},"vehicle_type_id":"4","last_reported":1748348498,"current_range_meters":11200,"station_id":"","pricing_plan_id":"cebpf4jnsgd1na2vs0mg"},{"bike_id":"fb61e36d-3a3d-48ae-9d6c-33ff8c857b96","system_id":"levelo_inurba_marseille","lat":43.3133,"lon":5.39687,"is_reserved":false,"is_disabled":false,"rental_uris":{"android":"levelo://app?vid=fb61e36d-3a3d-48ae-9d6c-33ff8c857b96","ios":"levelo://app?vid=fb61e36d-3a3d-48ae-9d6c-33ff8c857b96"},"vehicle_type_id":"4","last_reported":1748348498,"current_range_meters":11200,"station_id":"ce4bgvp2rcd13ifvqcu0","pricing_plan_id":"cebpf4jnsgd1na2vs0mg"},{"bike_id":"5a5d3cd9-43c9-4580-afc1-94b3cc3c8454","system_id":"levelo_inurba_marseille","lat":43.23144,"lon":5.43714,"is_reserved":false,"is_disabled":false,"rental_uris":{"android":"levelo://app?vid=5a5d3cd9-43c9-4580-afc1-94b3cc3c8454","ios":"levelo://app?vid=5a5d3cd9-43c9-4580-afc1-94b3cc3c8454"},"vehicle_type_id":"4","last_reported":1748348498,"current_range_meters":11200,"station_id":"ce4bhmp2rcd13ifvqgog","pricing_plan_id":"cebpf4jnsgd1na2vs0mg"},{"bike_id":"a5e16e8e-7fe5-429f-8b45-b479238101bf","system_id":"levelo_inurba_marseille","lat":43.31765,"lon":5.39011,"is_reserved":false,"is_disabled":false,"rental_uris":{"android":"levelo://app?vid=a5e16e8e-7fe5-429f-8b45-b479238101bf","ios":"levelo://app?vid=a5e16e8e-7fe5-429f-8b45-b479238101bf"},"vehicle_type_id":"4","last_reported":1748348498,"current_range_meters":11200,"station_id":"ce4bhqp2rcd13ifvqhng","pricing_plan_id":"cebpf4jnsgd1na2vs0mg"},{"bike_id":"3f855aa9-a03a-4d28-bbc8-2f3b26d07315","system_id":"levelo_inurba_marseille","lat":43.229301,"lon":5.353789,"is_reserved":false,"is_disabled":false,"rental_uris":{"android":"levelo://app?vid=3f855aa9-a03a-4d28-bbc8-2f3b26d07315","ios":"levelo://app?vid=3f855aa9-a03a-4d28-bbc8-2f3b26d07315"},"vehicle_type_id":"4","last_reported":1748348498,"current_range_meters":11200,"station_id":"cpo3532slgdg3j2ikp40","pricing_plan_id":"cebpf4jnsgd1na2vs0mg"},{"bike_id":"35657823-8cda-44f5-a555-1f769cf1fe31","system_id":"levelo_inurba_marseille","lat":43.27226,"lon":5.40954,"is_reserved":false,"is_disabled":false,"rental_uris":{"android":"levelo://app?vid=35657823-8cda-44f5-a555-1f769cf1fe31","ios":"levelo://app?vid=35657823-8cda-44f5-a555-1f769cf1fe31"},"vehicle_type_id":"4","last_reported":1748348498,"current_range_meters":11600,"station_id":"","pricing_plan_id":"cebpf4jnsgd1na2vs0mg"},{"bike_id":"17b0d8ff-aa28-408b-9628-4a545be2c769","system_id":"levelo_inurba_marseille","lat":43.319241,"lon":5.380246,"is_reserved":false,"is_disabled":false,"rental_uris":{"android":"levelo://app?vid=17b0d8ff-aa28-408b-9628-4a545be2c769","ios":"levelo://app?vid=17b0d8ff-aa28-408b-9628-4a545be2c769"},"vehicle_type_id":"4","last_reported":1748348498,"current_range_meters":11600,"station_id":"","pricing_plan_id":"cebpf4jnsgd1na2vs0mg"},{"bike_id":"14cfd1c8-42d6-4fb4-aec7-be9686fb83dc","system_id":"levelo_inurba_marseille","lat":43.30309,"lon":5.39212,"is_reserved":false,"is_disabled":false,"rental_uris":{"android":"levelo://app?vid=14cfd1c8-42d6-4fb4-aec7-be9686fb83dc","ios":"levelo://app?vid=14cfd1c8-42d6-4fb4-aec7-be9686fb83dc"},"vehicle_type_id":"4","last_reported":1748348498,"current_range_meters":11600,"station_id":"ce4bgkh2rcd13ifvqbk0","pricing_plan_id":"cebpf4jnsgd1na2vs0mg"},{"bike_id":"aafabf1c-f19b-441e-ba6e-f7d36c05405e","system_id":"levelo_inurba_marseille","lat":43.29941,"lon":5.36538,"is_reserved":false,"is_disabled":false,"rental_uris":{"android":"levelo://app?vid=aafabf1c-f19b-441e-ba6e-f7d36c05405e","ios":"levelo://app?vid=aafabf1c-f19b-441e-ba6e-f7d36c05405e"},"vehicle_type_id":"4","last_reported":1748348498,"current_range_meters":11600,"station_id":"ce4bgm92rcd13ifvqbr0","pricing_plan_id":"cebpf4jnsgd1na2vs0mg"},{"bike_id":"f1344b95-4890-4bd8-be3b-7f6fe2a94f56","system_id":"levelo_inurba_marseille","lat":43.30545,"lon":5.36523,"is_reserved":false,"is_disabled":false,"rental_uris":{"android":"levelo://app?vid=f1344b95-4890-4bd8-be3b-7f6fe2a94f56","ios":"levelo://app?vid=f1344b95-4890-4bd8-be3b-7f6fe2a94f56"},"vehicle_type_id":"4","last_reported":1748348498,"current_range_meters":11600,"station_id":"ce4bgs12rcd13ifvqcag","pricing_plan_id":"cebpf4jnsgd1na2vs0mg"},{"bike_id":"6a763caa-db62-44e2-8846-a6ba89cc4736","system_id":"levelo_inurba_marseille","lat":43.30128,"lon":5.37402,"is_reserved":false,"is_disabled":false,"rental_uris":{"android":"levelo://app?vid=6a763caa-db62-44e2-8846-a6ba89cc4736","ios":"levelo://app?vid=6a763caa-db62-44e2-8846-a6ba89cc4736"},"vehicle_type_id":"4","last_reported":1748348498,"current_range_meters":11600,"station_id":"ce4bgs92rcd13ifvqcc0","pricing_plan_id":"cebpf4jnsgd1na2vs0mg"},{"bike_id":"0a34896a-ecf4-4133-b259-48302d8209b0","system_id":"levelo_inurba_marseille","lat":43.26676,"lon":5.38264,"is_reserved":false,"is_disabled":false,"rental_uris":{"android":"levelo://app?vid=0a34896a-ecf4-4133-b259-48302d8209b0","ios":"levelo://app?vid=0a34896a-ecf4-4133-b259-48302d8209b0"},"vehicle_type_id":"4","last_reported":1748348498,"current_range_meters":11600,"station_id":"ce4bhg92rcd13ifvqf90","pricing_plan_id":"cebpf4jnsgd1na2vs0mg"},{"bike_id":"402deea4-adb4-415b-af68-06ec3042e724","system_id":"levelo_inurba_marseille","lat":43.23193,"lon":5.39974,"is_reserved":false,"is_disabled":false,"rental_uris":{"android":"levelo://app?vid=402deea4-adb4-415b-af68-06ec3042e724","ios":"levelo://app?vid=402deea4-adb4-415b-af68-06ec3042e724"},"vehicle_type_id":"4","last_reported":1748348498,"current_range_meters":11600,"station_id":"ce4bhn12rcd13ifvqgqg","pricing_plan_id":"cebpf4jnsgd1na2vs0mg"},{"bike_id":"03ef6ddd-8352-4018-a026-59ae3ff98d65","system_id":"levelo_inurba_marseille","lat":43.274917,"lon":5.424513,"is_reserved":false,"is_disabled":false,"rental_uris":{"android":"levelo://app?vid=03ef6ddd-8352-4018-a026-59ae3ff98d65","ios":"levelo://app?vid=03ef6ddd-8352-4018-a026-59ae3ff98d65"},"vehicle_type_id":"4","last_reported":1748348498,"current_range_meters":11600,"station_id":"ce4bhn92rcd13ifvqgrg","pricing_plan_id":"cebpf4jnsgd1na2vs0mg"},{"bike_id":"6b482028-512e-4dbe-b943-3138dd0f6f46","system_id":"levelo_inurba_marseille","lat":43.29682,"lon":5.36872,"is_reserved":false,"is_disabled":false,"rental_uris":{"android":"levelo://app?vid=6b482028-512e-4dbe-b943-3138dd0f6f46","ios":"levelo://app?vid=6b482028-512e-4dbe-b943-3138dd0f6f46"},"vehicle_type_id":"4","last_reported":1748348498,"current_range_meters":12000,"station_id":"","pricing_plan_id":"cebpf4jnsgd1na2vs0mg"},{"bike_id":"94004fcd-16e5-45bb-a3b1-a3a41297d76d","system_id":"levelo_inurba_marseille","lat":43.31229,"lon":5.36864,"is_reserved":false,"is_disabled":false,"rental_uris":{"android":"levelo://app?vid=94004fcd-16e5-45bb-a3b1-a3a41297d76d","ios":"levelo://app?vid=94004fcd-16e5-45bb-a3b1-a3a41297d76d"},"vehicle_type_id":"4","last_reported":1748348498,"current_range_meters":12000,"station_id":"ce4bgl92rcd13ifvqbq0","pricing_plan_id":"cebpf4jnsgd1na2vs0mg"},{"bike_id":"fde53455-2f85-41d5-b6c1-18c0e087865c","system_id":"levelo_inurba_marseille","lat":43.30303,"lon":5.3771,"is_reserved":false,"is_disabled":false,"rental_uris":{"android":"levelo://app?vid=fde53455-2f85-41d5-b6c1-18c0e087865c","ios":"levelo://app?vid=fde53455-2f85-41d5-b6c1-18c0e087865c"},"vehicle_type_id":"4","last_reported":1748348498,"current_range_meters":12000,"station_id":"ce4bguh2rcd13ifvqcj0","pricing_plan_id":"cebpf4jnsgd1na2vs0mg"},{"bike_id":"2a9b9f6f-e086-4a48-b343-0410abb19aae","system_id":"levelo_inurba_marseille","lat":43.25911,"lon":5.40907,"is_reserved":false,"is_disabled":false,"rental_uris":{"android":"levelo://app?vid=2a9b9f6f-e086-4a48-b343-0410abb19aae","ios":"levelo://app?vid=2a9b9f6f-e086-4a48-b343-0410abb19aae"},"vehicle_type_id":"4","last_reported":1748348498,"current_range_meters":12000,"station_id":"ce4bhm92rcd13ifvqglg","pricing_plan_id":"cebpf4jnsgd1na2vs0mg"},{"bike_id":"a3a1e2f8-c082-4657-9cf8-ceb282e14a71","system_id":"levelo_inurba_marseille","lat":43.23189,"lon":5.39985,"is_reserved":false,"is_disabled":false,"rental_uris":{"android":"levelo://app?vid=a3a1e2f8-c082-4657-9cf8-ceb282e14a71","ios":"levelo://app?vid=a3a1e2f8-c082-4657-9cf8-ceb282e14a71"},"vehicle_type_id":"4","last_reported":1748348498,"current_range_meters":12000,"station_id":"ce4bhn12rcd13ifvqgqg","pricing_plan_id":"cebpf4jnsgd1na2vs0mg"},{"bike_id":"ceb81090-b40e-47dd-bc35-8598d269ef58","system_id":"levelo_inurba_marseille","lat":43.26663,"lon":5.38431,"is_reserved":false,"is_disabled":false,"rental_uris":{"android":"levelo://app?vid=ceb81090-b40e-47dd-bc35-8598d269ef58","ios":"levelo://app?vid=ceb81090-b40e-47dd-bc35-8598d269ef58"},"vehicle_type_id":"4","last_reported":1748348498,"current_range_meters":12400,"station_id":"","pricing_plan_id":"cebpf4jnsgd1na2vs0mg"},{"bike_id":"b2a4b7bf-ba6f-45a6-9955-d2c27fb47ee9","system_id":"levelo_inurba_marseille","lat":43.261833,"lon":5.379394,"is_reserved":false,"is_disabled":false,"rental_uris":{"android":"levelo://app?vid=b2a4b7bf-ba6f-45a6-9955-d2c27fb47ee9","ios":"levelo://app?vid=b2a4b7bf-ba6f-45a6-9955-d2c27fb47ee9"},"vehicle_type_id":"4","last_reported":1748348498,"current_range_meters":12400,"station_id":"ce4bhjp2rcd13ifvqg90","pricing_plan_id":"cebpf4jnsgd1na2vs0mg"},{"bike_id":"26cefabb-6a16-41aa-96ef-b636f51d675a","system_id":"levelo_inurba_marseille","lat":43.231465,"lon":5.437109,"is_reserved":false,"is_disabled":false,"rental_uris":{"android":"levelo://app?vid=26cefabb-6a16-41aa-96ef-b636f51d675a","ios":"levelo://app?vid=26cefabb-6a16-41aa-96ef-b636f51d675a"},"vehicle_type_id":"4","last_reported":1748348498,"current_range_meters":12400,"station_id":"ce4bhmp2rcd13ifvqgog","pricing_plan_id":"cebpf4jnsgd1na2vs0mg"},{"bike_id":"659cfb2d-9fa6-476d-b135-1d1da7c0d60e","system_id":"levelo_inurba_marseille","lat":43.3176,"lon":5.39015,"is_reserved":false,"is_disabled":false,"rental_uris":{"android":"levelo://app?vid=659cfb2d-9fa6-476d-b135-1d1da7c0d60e","ios":"levelo://app?vid=659cfb2d-9fa6-476d-b135-1d1da7c0d60e"},"vehicle_type_id":"4","last_reported":1748348498,"current_range_meters":12400,"station_id":"ce4bhqp2rcd13ifvqhng","pricing_plan_id":"cebpf4jnsgd1na2vs0mg"},{"bike_id":"46bcf709-653f-43fc-9abb-3659a7309cc5","system_id":"levelo_inurba_marseille","lat":43.26214,"lon":5.37437,"is_reserved":false,"is_disabled":false,"rental_uris":{"android":"levelo://app?vid=46bcf709-653f-43fc-9abb-3659a7309cc5","ios":"levelo://app?vid=46bcf709-653f-43fc-9abb-3659a7309cc5"},"vehicle_type_id":"4","last_reported":1748348498,"current_range_meters":12800,"station_id":"","pricing_plan_id":"cebpf4jnsgd1na2vs0mg"},{"bike_id":"3f60d365-9469-4560-aad1-afb5844d90e8","system_id":"levelo_inurba_marseille","lat":43.30313,"lon":5.39208,"is_reserved":false,"is_disabled":false,"rental_uris":{"android":"levelo://app?vid=3f60d365-9469-4560-aad1-afb5844d90e8","ios":"levelo://app?vid=3f60d365-9469-4560-aad1-afb5844d90e8"},"vehicle_type_id":"4","last_reported":1748348498,"current_range_meters":12800,"station_id":"ce4bgkh2rcd13ifvqbk0","pricing_plan_id":"cebpf4jnsgd1na2vs0mg"},{"bike_id":"5bbc924b-5bb1-445d-84b3-0feac2c9e3a4","system_id":"levelo_inurba_marseille","lat":43.25494,"lon":5.37643,"is_reserved":false,"is_disabled":false,"rental_uris":{"android":"levelo://app?vid=5bbc924b-5bb1-445d-84b3-0feac2c9e3a4","ios":"levelo://app?vid=5bbc924b-5bb1-445d-84b3-0feac2c9e3a4"},"vehicle_type_id":"4","last_reported":1748348498,"current_range_meters":12800,"station_id":"ce4bhh12rcd13ifvqff0","pricing_plan_id":"cebpf4jnsgd1na2vs0mg"},{"bike_id":"6993fe0f-2cd4-4ecb-983e-9a92e74ddd06","system_id":"levelo_inurba_marseille","lat":43.24405,"lon":5.37053,"is_reserved":false,"is_disabled":false,"rental_uris":{"android":"levelo://app?vid=6993fe0f-2cd4-4ecb-983e-9a92e74ddd06","ios":"levelo://app?vid=6993fe0f-2cd4-4ecb-983e-9a92e74ddd06"},"vehicle_type_id":"4","last_reported":1748348498,"current_range_meters":12800,"station_id":"ce4bhhh2rcd13ifvqfk0","pricing_plan_id":"cebpf4jnsgd1na2vs0mg"},{"bike_id":"0faa77cd-73c9-4445-b2e2-e790c9db7859","system_id":"levelo_inurba_marseille","lat":43.25589,"lon":5.38234,"is_reserved":false,"is_disabled":false,"rental_uris":{"android":"levelo://app?vid=0faa77cd-73c9-4445-b2e2-e790c9db7859","ios":"levelo://app?vid=0faa77cd-73c9-4445-b2e2-e790c9db7859"},"vehicle_type_id":"4","last_reported":1748348498,"current_range_meters":12800,"station_id":"ce4bhih2rcd13ifvqfs0","pricing_plan_id":"cebpf4jnsgd1na2vs0mg"},{"bike_id":"435d1a1f-35a7-45ad-ad6b-fa7767471b2e","system_id":"levelo_inurba_marseille","lat":43.33029,"lon":5.39043,"is_reserved":false,"is_disabled":false,"rental_uris":{"android":"levelo://app?vid=435d1a1f-35a7-45ad-ad6b-fa7767471b2e","ios":"levelo://app?vid=435d1a1f-35a7-45ad-ad6b-fa7767471b2e"},"vehicle_type_id":"4","last_reported":1748348498,"current_range_meters":12800,"station_id":"ce4bhr92rcd13ifvqhrg","pricing_plan_id":"cebpf4jnsgd1na2vs0mg"},{"bike_id":"e5c82b4c-e30f-487a-ae65-76f66da567ea","system_id":"levelo_inurba_marseille","lat":43.32331,"lon":5.36711,"is_reserved":false,"is_disabled":false,"rental_uris":{"android":"levelo://app?vid=e5c82b4c-e30f-487a-ae65-76f66da567ea","ios":"levelo://app?vid=e5c82b4c-e30f-487a-ae65-76f66da567ea"},"vehicle_type_id":"4","last_reported":1748348498,"current_range_meters":12800,"station_id":"ce4bhsh2rcd13ifvqi2g","pricing_plan_id":"cebpf4jnsgd1na2vs0mg"},{"bike_id":"bf9b6e5a-c72b-46db-bf12-d09740cc4861","system_id":"levelo_inurba_marseille","lat":43.31361,"lon":5.38491,"is_reserved":false,"is_disabled":false,"rental_uris":{"android":"levelo://app?vid=bf9b6e5a-c72b-46db-bf12-d09740cc4861","ios":"levelo://app?vid=bf9b6e5a-c72b-46db-bf12-d09740cc4861"},"vehicle_type_id":"4","last_reported":1748348498,"current_range_meters":13600,"station_id":"ce4bgt92rcd13ifvqcf0","pricing_plan_id":"cebpf4jnsgd1na2vs0mg"},{"bike_id":"86018fe3-1e71-4659-b264-c783dc351d92","system_id":"levelo_inurba_marseille","lat":43.31072,"lon":5.38352,"is_reserved":false,"is_disabled":false,"rental_uris":{"android":"levelo://app?vid=86018fe3-1e71-4659-b264-c783dc351d92","ios":"levelo://app?vid=86018fe3-1e71-4659-b264-c783dc351d92"},"vehicle_type_id":"4","last_reported":1748348498,"current_range_meters":13600,"station_id":"ce4bgv92rcd13ifvqcr0","pricing_plan_id":"cebpf4jnsgd1na2vs0mg"},{"bike_id":"03a878d5-7464-43c2-bb12-8804355fff55","system_id":"levelo_inurba_marseille","lat":43.25584,"lon":5.38236,"is_reserved":false,"is_disabled":false,"rental_uris":{"android":"levelo://app?vid=03a878d5-7464-43c2-bb12-8804355fff55","ios":"levelo://app?vid=03a878d5-7464-43c2-bb12-8804355fff55"},"vehicle_type_id":"4","last_reported":1748348498,"current_range_meters":13600,"station_id":"ce4bhih2rcd13ifvqfs0","pricing_plan_id":"cebpf4jnsgd1na2vs0mg"},{"bike_id":"91778dc6-5ac3-4d73-a11f-9b1ddc717184","system_id":"levelo_inurba_marseille","lat":43.23199,"lon":5.39977,"is_reserved":false,"is_disabled":false,"rental_uris":{"android":"levelo://app?vid=91778dc6-5ac3-4d73-a11f-9b1ddc717184","ios":"levelo://app?vid=91778dc6-5ac3-4d73-a11f-9b1ddc717184"},"vehicle_type_id":"4","last_reported":1748348498,"current_range_meters":13600,"station_id":"ce4bhn12rcd13ifvqgqg","pricing_plan_id":"cebpf4jnsgd1na2vs0mg"},{"bike_id":"a40588ee-00f9-4620-a7e7-03b577ebbb6e","system_id":"levelo_inurba_marseille","lat":43.23188,"lon":5.39993,"is_reserved":false,"is_disabled":false,"rental_uris":{"android":"levelo://app?vid=a40588ee-00f9-4620-a7e7-03b577ebbb6e","ios":"levelo://app?vid=a40588ee-00f9-4620-a7e7-03b577ebbb6e"},"vehicle_type_id":"4","last_reported":1748348498,"current_range_meters":13600,"station_id":"ce4bhn12rcd13ifvqgqg","pricing_plan_id":"cebpf4jnsgd1na2vs0mg"},{"bike_id":"064e6fa0-0d7c-4ec8-b1ad-7f69178c75b7","system_id":"levelo_inurba_marseille","lat":43.299001,"lon":5.436743,"is_reserved":false,"is_disabled":false,"rental_uris":{"android":"levelo://app?vid=064e6fa0-0d7c-4ec8-b1ad-7f69178c75b7","ios":"levelo://app?vid=064e6fa0-0d7c-4ec8-b1ad-7f69178c75b7"},"vehicle_type_id":"4","last_reported":1748348498,"current_range_meters":13600,"station_id":"ce4bhpp2rcd13ifvqhfg","pricing_plan_id":"cebpf4jnsgd1na2vs0mg"},{"bike_id":"56303e41-2b27-4d35-8ea7-4c7f6f219c1a","system_id":"levelo_inurba_marseille","lat":43.2176,"lon":5.34605,"is_reserved":false,"is_disabled":false,"rental_uris":{"android":"levelo://app?vid=56303e41-2b27-4d35-8ea7-4c7f6f219c1a","ios":"levelo://app?vid=56303e41-2b27-4d35-8ea7-4c7f6f219c1a"},"vehicle_type_id":"4","last_reported":1748348498,"current_range_meters":14400,"station_id":"","pricing_plan_id":"cebpf4jnsgd1na2vs0mg"},{"bike_id":"50ea3e51-6909-4f8b-9c96-70d97007165e","system_id":"levelo_inurba_marseille","lat":43.29987,"lon":5.37175,"is_reserved":false,"is_disabled":false,"rental_uris":{"android":"levelo://app?vid=50ea3e51-6909-4f8b-9c96-70d97007165e","ios":"levelo://app?vid=50ea3e51-6909-4f8b-9c96-70d97007165e"},"vehicle_type_id":"4","last_reported":1748348498,"current_range_meters":14400,"station_id":"ce4bgr92rcd13ifvqc7g","pricing_plan_id":"cebpf4jnsgd1na2vs0mg"},{"bike_id":"9880208a-0aec-4720-bd42-08be8b49fab8","system_id":"levelo_inurba_marseille","lat":43.30588,"lon":5.36518,"is_reserved":false,"is_disabled":false,"rental_uris":{"android":"levelo://app?vid=9880208a-0aec-4720-bd42-08be8b49fab8","ios":"levelo://app?vid=9880208a-0aec-4720-bd42-08be8b49fab8"},"vehicle_type_id":"4","last_reported":1748348498,"current_range_meters":14400,"station_id":"ce4bgs12rcd13ifvqcag","pricing_plan_id":"cebpf4jnsgd1na2vs0mg"},{"bike_id":"01fb0934-c8b9-4fd3-a118-fc6aab7694f9","system_id":"levelo_inurba_marseille","lat":43.305358,"lon":5.365403,"is_reserved":false,"is_disabled":false,"rental_uris":{"android":"levelo://app?vid=01fb0934-c8b9-4fd3-a118-fc6aab7694f9","ios":"levelo://app?vid=01fb0934-c8b9-4fd3-a118-fc6aab7694f9"},"vehicle_type_id":"4","last_reported":1748348498,"current_range_meters":14400,"station_id":"ce4bgs12rcd13ifvqcag","pricing_plan_id":"cebpf4jnsgd1na2vs0mg"},{"bike_id":"84f20522-6fe9-4131-aa99-7e652947bcde","system_id":"levelo_inurba_marseille","lat":43.28418,"lon":5.3498,"is_reserved":false,"is_disabled":false,"rental_uris":{"android":"levelo://app?vid=84f20522-6fe9-4131-aa99-7e652947bcde","ios":"levelo://app?vid=84f20522-6fe9-4131-aa99-7e652947bcde"},"vehicle_type_id":"4","last_reported":1748348498,"current_range_meters":14400,"station_id":"ce4bhbh2rcd13ifvqepg","pricing_plan_id":"cebpf4jnsgd1na2vs0mg"},{"bike_id":"9198b550-c5cf-463c-bb76-767cf162342b","system_id":"levelo_inurba_marseille","lat":43.25581,"lon":5.38241,"is_reserved":false,"is_disabled":false,"rental_uris":{"android":"levelo://app?vid=9198b550-c5cf-463c-bb76-767cf162342b","ios":"levelo://app?vid=9198b550-c5cf-463c-bb76-767cf162342b"},"vehicle_type_id":"4","last_reported":1748348498,"current_range_meters":14400,"station_id":"ce4bhih2rcd13ifvqfs0","pricing_plan_id":"cebpf4jnsgd1na2vs0mg"},{"bike_id":"67aa453e-44b1-41a6-a4d5-2c3d1a1a30b9","system_id":"levelo_inurba_marseille","lat":43.31893,"lon":5.40725,"is_reserved":false,"is_disabled":false,"rental_uris":{"android":"levelo://app?vid=67aa453e-44b1-41a6-a4d5-2c3d1a1a30b9","ios":"levelo://app?vid=67aa453e-44b1-41a6-a4d5-2c3d1a1a30b9"},"vehicle_type_id":"4","last_reported":1748348498,"current_range_meters":14400,"station_id":"ce4bhq12rcd13ifvqhig","pricing_plan_id":"cebpf4jnsgd1na2vs0mg"},{"bike_id":"c359ce31-503c-4864-81a4-8b7ff30ded70","system_id":"levelo_inurba_marseille","lat":43.32484,"lon":5.36565,"is_reserved":false,"is_disabled":false,"rental_uris":{"android":"levelo://app?vid=c359ce31-503c-4864-81a4-8b7ff30ded70","ios":"levelo://app?vid=c359ce31-503c-4864-81a4-8b7ff30ded70"},"vehicle_type_id":"4","last_reported":1748348498,"current_range_meters":14400,"station_id":"ce4bhs12rcd13ifvqhvg","pricing_plan_id":"cebpf4jnsgd1na2vs0mg"},{"bike_id":"e5c41bcc-15b4-4856-a15a-1d642ce07776","system_id":"levelo_inurba_marseille","lat":43.29852,"lon":5.36254,"is_reserved":false,"is_disabled":false,"rental_uris":{"android":"levelo://app?vid=e5c41bcc-15b4-4856-a15a-1d642ce07776","ios":"levelo://app?vid=e5c41bcc-15b4-4856-a15a-1d642ce07776"},"vehicle_type_id":"4","last_reported":1748348498,"current_range_meters":14800,"station_id":"ce4bgpp2rcd13ifvqc3g","pricing_plan_id":"cebpf4jnsgd1na2vs0mg"},{"bike_id":"23bf6be8-6c72-47d5-8a79-1616b9644d73","system_id":"levelo_inurba_marseille","lat":43.24654,"lon":5.38893,"is_reserved":false,"is_disabled":false,"rental_uris":{"android":"levelo://app?vid=23bf6be8-6c72-47d5-8a79-1616b9644d73","ios":"levelo://app?vid=23bf6be8-6c72-47d5-8a79-1616b9644d73"},"vehicle_type_id":"4","last_reported":1748348498,"current_range_meters":14800,"station_id":"ce4bhg12rcd13ifvqf60","pricing_plan_id":"cebpf4jnsgd1na2vs0mg"},{"bike_id":"4ab38b2d-a158-4e05-b0b5-50bd6be2e94f","system_id":"levelo_inurba_marseille","lat":43.26208,"lon":5.37451,"is_reserved":false,"is_disabled":false,"rental_uris":{"android":"levelo://app?vid=4ab38b2d-a158-4e05-b0b5-50bd6be2e94f","ios":"levelo://app?vid=4ab38b2d-a158-4e05-b0b5-50bd6be2e94f"},"vehicle_type_id":"4","last_reported":1748348498,"current_range_meters":14800,"station_id":"ce4bhgp2rcd13ifvqfc0","pricing_plan_id":"cebpf4jnsgd1na2vs0mg"},{"bike_id":"48cd0317-1c6f-4804-9cd1-21cb1ebe5af3","system_id":"levelo_inurba_marseille","lat":43.25503,"lon":5.37647,"is_reserved":false,"is_disabled":false,"rental_uris":{"android":"levelo://app?vid=48cd0317-1c6f-4804-9cd1-21cb1ebe5af3","ios":"levelo://app?vid=48cd0317-1c6f-4804-9cd1-21cb1ebe5af3"},"vehicle_type_id":"4","last_reported":1748348498,"current_range_meters":14800,"station_id":"ce4bhh12rcd13ifvqff0","pricing_plan_id":"cebpf4jnsgd1na2vs0mg"},{"bike_id":"e572f301-b2c7-42f5-af5c-379ca5457f2b","system_id":"levelo_inurba_marseille","lat":43.22933,"lon":5.35378,"is_reserved":false,"is_disabled":false,"rental_uris":{"android":"levelo://app?vid=e572f301-b2c7-42f5-af5c-379ca5457f2b","ios":"levelo://app?vid=e572f301-b2c7-42f5-af5c-379ca5457f2b"},"vehicle_type_id":"4","last_reported":1748348498,"current_range_meters":14800,"station_id":"cpo3532slgdg3j2ikp40","pricing_plan_id":"cebpf4jnsgd1na2vs0mg"},{"bike_id":"69c0fd55-cd72-4f90-a33e-0ecbe62d3f06","system_id":"levelo_inurba_marseille","lat":43.28419,"lon":5.34979,"is_reserved":false,"is_disabled":false,"rental_uris":{"android":"levelo://app?vid=69c0fd55-cd72-4f90-a33e-0ecbe62d3f06","ios":"levelo://app?vid=69c0fd55-cd72-4f90-a33e-0ecbe62d3f06"},"vehicle_type_id":"4","last_reported":1748348498,"current_range_meters":15200,"station_id":"ce4bhbh2rcd13ifvqepg","pricing_plan_id":"cebpf4jnsgd1na2vs0mg"},{"bike_id":"e1d82ed1-ec24-41b8-be60-541818d36362","system_id":"levelo_inurba_marseille","lat":43.29897,"lon":5.43663,"is_reserved":false,"is_disabled":false,"rental_uris":{"android":"levelo://app?vid=e1d82ed1-ec24-41b8-be60-541818d36362","ios":"levelo://app?vid=e1d82ed1-ec24-41b8-be60-541818d36362"},"vehicle_type_id":"4","last_reported":1748348498,"current_range_meters":15200,"station_id":"ce4bhpp2rcd13ifvqhfg","pricing_plan_id":"cebpf4jnsgd1na2vs0mg"},{"bike_id":"8b8f4ddc-5f2d-41ad-9613-91a528fd4361","system_id":"levelo_inurba_marseille","lat":43.22941,"lon":5.353573,"is_reserved":false,"is_disabled":false,"rental_uris":{"android":"levelo://app?vid=8b8f4ddc-5f2d-41ad-9613-91a528fd4361","ios":"levelo://app?vid=8b8f4ddc-5f2d-41ad-9613-91a528fd4361"},"vehicle_type_id":"4","last_reported":1748348498,"current_range_meters":16000,"station_id":"","pricing_plan_id":"cebpf4jnsgd1na2vs0mg"},{"bike_id":"3e139436-3434-4215-b225-fea14c8df283","system_id":"levelo_inurba_marseille","lat":43.28215,"lon":5.39062,"is_reserved":false,"is_disabled":false,"rental_uris":{"android":"levelo://app?vid=3e139436-3434-4215-b225-fea14c8df283","ios":"levelo://app?vid=3e139436-3434-4215-b225-fea14c8df283"},"vehicle_type_id":"4","last_reported":1748348498,"current_range_meters":16000,"station_id":"","pricing_plan_id":"cebpf4jnsgd1na2vs0mg"},{"bike_id":"b9feece3-8db7-4d9c-b5c4-3d592ac61b90","system_id":"levelo_inurba_marseille","lat":43.291848,"lon":5.358085,"is_reserved":false,"is_disabled":false,"rental_uris":{"android":"levelo://app?vid=b9feece3-8db7-4d9c-b5c4-3d592ac61b90","ios":"levelo://app?vid=b9feece3-8db7-4d9c-b5c4-3d592ac61b90"},"vehicle_type_id":"4","last_reported":1748348498,"current_range_meters":16000,"station_id":"","pricing_plan_id":"cebpf4jnsgd1na2vs0mg"},{"bike_id":"e87a2898-6968-42c2-8926-def1df190225","system_id":"levelo_inurba_marseille","lat":43.298123,"lon":5.381162,"is_reserved":false,"is_disabled":false,"rental_uris":{"android":"levelo://app?vid=e87a2898-6968-42c2-8926-def1df190225","ios":"levelo://app?vid=e87a2898-6968-42c2-8926-def1df190225"},"vehicle_type_id":"4","last_reported":1748348498,"current_range_meters":16000,"station_id":"ce4bgip2rcd13ifvqbb0","pricing_plan_id":"cebpf4jnsgd1na2vs0mg"},{"bike_id":"4807cc62-6a9b-4bb6-9a64-b3c1da7dd454","system_id":"levelo_inurba_marseille","lat":43.30527,"lon":5.36531,"is_reserved":false,"is_disabled":false,"rental_uris":{"android":"levelo://app?vid=4807cc62-6a9b-4bb6-9a64-b3c1da7dd454","ios":"levelo://app?vid=4807cc62-6a9b-4bb6-9a64-b3c1da7dd454"},"vehicle_type_id":"4","last_reported":1748348498,"current_range_meters":16000,"station_id":"ce4bgs12rcd13ifvqcag","pricing_plan_id":"cebpf4jnsgd1na2vs0mg"},{"bike_id":"58ed21bb-c1eb-4517-97b4-9ee0d4db9f9d","system_id":"levelo_inurba_marseille","lat":43.30133,"lon":5.37383,"is_reserved":false,"is_disabled":false,"rental_uris":{"android":"levelo://app?vid=58ed21bb-c1eb-4517-97b4-9ee0d4db9f9d","ios":"levelo://app?vid=58ed21bb-c1eb-4517-97b4-9ee0d4db9f9d"},"vehicle_type_id":"4","last_reported":1748348498,"current_range_meters":16000,"station_id":"ce4bgs92rcd13ifvqcc0","pricing_plan_id":"cebpf4jnsgd1na2vs0mg"},{"bike_id":"b9fb025b-f2b9-4a12-ad60-c114d5a98e73","system_id":"levelo_inurba_marseille","lat":43.2695,"lon":5.38646,"is_reserved":false,"is_disabled":false,"rental_uris":{"android":"levelo://app?vid=b9fb025b-f2b9-4a12-ad60-c114d5a98e73","ios":"levelo://app?vid=b9fb025b-f2b9-4a12-ad60-c114d5a98e73"},"vehicle_type_id":"4","last_reported":1748348498,"current_range_meters":16000,"station_id":"ce4bhh92rcd13ifvqfh0","pricing_plan_id":"cebpf4jnsgd1na2vs0mg"},{"bike_id":"b022cf3a-ed71-4b84-a8d7-575675b7a40f","system_id":"levelo_inurba_marseille","lat":43.25938,"lon":5.40903,"is_reserved":false,"is_disabled":false,"rental_uris":{"android":"levelo://app?vid=b022cf3a-ed71-4b84-a8d7-575675b7a40f","ios":"levelo://app?vid=b022cf3a-ed71-4b84-a8d7-575675b7a40f"},"vehicle_type_id":"4","last_reported":1748348498,"current_range_meters":16000,"station_id":"ce4bhm92rcd13ifvqglg","pricing_plan_id":"cebpf4jnsgd1na2vs0mg"},{"bike_id":"d1844141-bbf9-4af9-a8cb-9124dbc03530","system_id":"levelo_inurba_marseille","lat":43.2315,"lon":5.43696,"is_reserved":false,"is_disabled":false,"rental_uris":{"android":"levelo://app?vid=d1844141-bbf9-4af9-a8cb-9124dbc03530","ios":"levelo://app?vid=d1844141-bbf9-4af9-a8cb-9124dbc03530"},"vehicle_type_id":"4","last_reported":1748348498,"current_range_meters":16000,"station_id":"ce4bhmp2rcd13ifvqgog","pricing_plan_id":"cebpf4jnsgd1na2vs0mg"},{"bike_id":"69ac8acb-6816-4e3d-b61e-e01a1548e4df","system_id":"levelo_inurba_marseille","lat":43.23146,"lon":5.43748,"is_reserved":false,"is_disabled":false,"rental_uris":{"android":"levelo://app?vid=69ac8acb-6816-4e3d-b61e-e01a1548e4df","ios":"levelo://app?vid=69ac8acb-6816-4e3d-b61e-e01a1548e4df"},"vehicle_type_id":"4","last_reported":1748348498,"current_range_meters":16000,"station_id":"ce4bhmp2rcd13ifvqgog","pricing_plan_id":"cebpf4jnsgd1na2vs0mg"},{"bike_id":"f13f4b28-de3f-45df-b660-ca3905149b96","system_id":"levelo_inurba_marseille","lat":43.32368,"lon":5.38887,"is_reserved":false,"is_disabled":false,"rental_uris":{"android":"levelo://app?vid=f13f4b28-de3f-45df-b660-ca3905149b96","ios":"levelo://app?vid=f13f4b28-de3f-45df-b660-ca3905149b96"},"vehicle_type_id":"4","last_reported":1748348498,"current_range_meters":16000,"station_id":"ce4bhqp2rcd13ifvqhog","pricing_plan_id":"cebpf4jnsgd1na2vs0mg"},{"bike_id":"0feb5fc7-c1f1-435d-b268-924592d7b8a0","system_id":"levelo_inurba_marseille","lat":43.3052,"lon":5.36698,"is_reserved":false,"is_disabled":false,"rental_uris":{"android":"levelo://app?vid=0feb5fc7-c1f1-435d-b268-924592d7b8a0","ios":"levelo://app?vid=0feb5fc7-c1f1-435d-b268-924592d7b8a0"},"vehicle_type_id":"4","last_reported":1748348498,"current_range_meters":16400,"station_id":"ce4bgrp2rcd13ifvqc9g","pricing_plan_id":"cebpf4jnsgd1na2vs0mg"},{"bike_id":"575d51bb-caaf-4091-a7ab-a61abff3644f","system_id":"levelo_inurba_marseille","lat":43.30121,"lon":5.37405,"is_reserved":false,"is_disabled":false,"rental_uris":{"android":"levelo://app?vid=575d51bb-caaf-4091-a7ab-a61abff3644f","ios":"levelo://app?vid=575d51bb-caaf-4091-a7ab-a61abff3644f"},"vehicle_type_id":"4","last_reported":1748348498,"current_range_meters":16400,"station_id":"ce4bgs92rcd13ifvqcc0","pricing_plan_id":"cebpf4jnsgd1na2vs0mg"},{"bike_id":"dae3fc33-4b95-47d2-a716-b028de3acbc1","system_id":"levelo_inurba_marseille","lat":43.28613,"lon":5.35109,"is_reserved":false,"is_disabled":false,"rental_uris":{"android":"levelo://app?vid=dae3fc33-4b95-47d2-a716-b028de3acbc1","ios":"levelo://app?vid=dae3fc33-4b95-47d2-a716-b028de3acbc1"},"vehicle_type_id":"4","last_reported":1748348498,"current_range_meters":16400,"station_id":"ce4bhch2rcd13ifvqeug","pricing_plan_id":"cebpf4jnsgd1na2vs0mg"},{"bike_id":"d4bcc636-6bd2-4d89-a14b-857f593b977a","system_id":"levelo_inurba_marseille","lat":43.25576,"lon":5.38225,"is_reserved":false,"is_disabled":false,"rental_uris":{"android":"levelo://app?vid=d4bcc636-6bd2-4d89-a14b-857f593b977a","ios":"levelo://app?vid=d4bcc636-6bd2-4d89-a14b-857f593b977a"},"vehicle_type_id":"4","last_reported":1748348498,"current_range_meters":16400,"station_id":"ce4bhih2rcd13ifvqfs0","pricing_plan_id":"cebpf4jnsgd1na2vs0mg"},{"bike_id":"134c70cc-46f1-414c-ba60-b99ba2b4a992","system_id":"levelo_inurba_marseille","lat":43.3481,"lon":5.3512,"is_reserved":false,"is_disabled":false,"rental_uris":{"android":"levelo://app?vid=134c70cc-46f1-414c-ba60-b99ba2b4a992","ios":"levelo://app?vid=134c70cc-46f1-414c-ba60-b99ba2b4a992"},"vehicle_type_id":"4","last_reported":1748348498,"current_range_meters":16800,"station_id":"","pricing_plan_id":"cebpf4jnsgd1na2vs0mg"},{"bike_id":"343644a9-dacc-40c6-82a4-eb063c3a36d5","system_id":"levelo_inurba_marseille","lat":43.30152,"lon":5.38772,"is_reserved":false,"is_disabled":false,"rental_uris":{"android":"levelo://app?vid=343644a9-dacc-40c6-82a4-eb063c3a36d5","ios":"levelo://app?vid=343644a9-dacc-40c6-82a4-eb063c3a36d5"},"vehicle_type_id":"4","last_reported":1748348498,"current_range_meters":16800,"station_id":"ce4bghh2rcd13ifvqb60","pricing_plan_id":"cebpf4jnsgd1na2vs0mg"},{"bike_id":"db534f2e-558f-4938-a255-680044c6e0fa","system_id":"levelo_inurba_marseille","lat":43.243877,"lon":5.370533,"is_reserved":false,"is_disabled":false,"rental_uris":{"android":"levelo://app?vid=db534f2e-558f-4938-a255-680044c6e0fa","ios":"levelo://app?vid=db534f2e-558f-4938-a255-680044c6e0fa"},"vehicle_type_id":"4","last_reported":1748348498,"current_range_meters":16800,"station_id":"ce4bhhh2rcd13ifvqfk0","pricing_plan_id":"cebpf4jnsgd1na2vs0mg"},{"bike_id":"80c04c31-5e8e-49c1-9207-28964c75cea6","system_id":"levelo_inurba_marseille","lat":43.25934,"lon":5.40905,"is_reserved":false,"is_disabled":false,"rental_uris":{"android":"levelo://app?vid=80c04c31-5e8e-49c1-9207-28964c75cea6","ios":"levelo://app?vid=80c04c31-5e8e-49c1-9207-28964c75cea6"},"vehicle_type_id":"4","last_reported":1748348498,"current_range_meters":16800,"station_id":"ce4bhm92rcd13ifvqglg","pricing_plan_id":"cebpf4jnsgd1na2vs0mg"},{"bike_id":"920be628-8bb6-4abf-8cd2-9431b9177f5a","system_id":"levelo_inurba_marseille","lat":43.23144,"lon":5.43717,"is_reserved":false,"is_disabled":false,"rental_uris":{"android":"levelo://app?vid=920be628-8bb6-4abf-8cd2-9431b9177f5a","ios":"levelo://app?vid=920be628-8bb6-4abf-8cd2-9431b9177f5a"},"vehicle_type_id":"4","last_reported":1748348498,"current_range_meters":16800,"station_id":"ce4bhmp2rcd13ifvqgog","pricing_plan_id":"cebpf4jnsgd1na2vs0mg"},{"bike_id":"e8264270-6e82-48a0-9de5-a3f73f59db95","system_id":"levelo_inurba_marseille","lat":43.23183,"lon":5.39975,"is_reserved":false,"is_disabled":false,"rental_uris":{"android":"levelo://app?vid=e8264270-6e82-48a0-9de5-a3f73f59db95","ios":"levelo://app?vid=e8264270-6e82-48a0-9de5-a3f73f59db95"},"vehicle_type_id":"4","last_reported":1748348498,"current_range_meters":16800,"station_id":"ce4bhn12rcd13ifvqgqg","pricing_plan_id":"cebpf4jnsgd1na2vs0mg"},{"bike_id":"b3e5f010-5162-4166-a0dc-e52949af64c2","system_id":"levelo_inurba_marseille","lat":43.27494,"lon":5.42454,"is_reserved":false,"is_disabled":false,"rental_uris":{"android":"levelo://app?vid=b3e5f010-5162-4166-a0dc-e52949af64c2","ios":"levelo://app?vid=b3e5f010-5162-4166-a0dc-e52949af64c2"},"vehicle_type_id":"4","last_reported":1748348498,"current_range_meters":16800,"station_id":"ce4bhn92rcd13ifvqgrg","pricing_plan_id":"cebpf4jnsgd1na2vs0mg"},{"bike_id":"288fbda4-d562-476c-99e7-4d6fd057c551","system_id":"levelo_inurba_marseille","lat":43.33723,"lon":5.39189,"is_reserved":false,"is_disabled":false,"rental_uris":{"android":"levelo://app?vid=288fbda4-d562-476c-99e7-4d6fd057c551","ios":"levelo://app?vid=288fbda4-d562-476c-99e7-4d6fd057c551"},"vehicle_type_id":"4","last_reported":1748348498,"current_range_meters":16800,"station_id":"ce4bhr92rcd13ifvqhsg","pricing_plan_id":"cebpf4jnsgd1na2vs0mg"},{"bike_id":"fe0747fe-9635-42fb-a1b2-1756415dd3ef","system_id":"levelo_inurba_marseille","lat":43.31234,"lon":5.36857,"is_reserved":false,"is_disabled":false,"rental_uris":{"android":"levelo://app?vid=fe0747fe-9635-42fb-a1b2-1756415dd3ef","ios":"levelo://app?vid=fe0747fe-9635-42fb-a1b2-1756415dd3ef"},"vehicle_type_id":"4","last_reported":1748348498,"current_range_meters":17200,"station_id":"ce4bgl92rcd13ifvqbq0","pricing_plan_id":"cebpf4jnsgd1na2vs0mg"},{"bike_id":"54d54403-4df4-448b-b522-41aee07a2743","system_id":"levelo_inurba_marseille","lat":43.29848,"lon":5.36284,"is_reserved":false,"is_disabled":false,"rental_uris":{"android":"levelo://app?vid=54d54403-4df4-448b-b522-41aee07a2743","ios":"levelo://app?vid=54d54403-4df4-448b-b522-41aee07a2743"},"vehicle_type_id":"4","last_reported":1748348498,"current_range_meters":17200,"station_id":"ce4bgpp2rcd13ifvqc3g","pricing_plan_id":"cebpf4jnsgd1na2vs0mg"},{"bike_id":"7a1fd772-13ec-4eca-9a59-8b3a894bb453","system_id":"levelo_inurba_marseille","lat":43.30147,"lon":5.37388,"is_reserved":false,"is_disabled":false,"rental_uris":{"android":"levelo://app?vid=7a1fd772-13ec-4eca-9a59-8b3a894bb453","ios":"levelo://app?vid=7a1fd772-13ec-4eca-9a59-8b3a894bb453"},"vehicle_type_id":"4","last_reported":1748348498,"current_range_meters":17200,"station_id":"ce4bgs92rcd13ifvqcc0","pricing_plan_id":"cebpf4jnsgd1na2vs0mg"},{"bike_id":"44ec1f37-be60-49e4-bb5a-83e871444fde","system_id":"levelo_inurba_marseille","lat":43.29007,"lon":5.356176,"is_reserved":false,"is_disabled":false,"rental_uris":{"android":"levelo://app?vid=44ec1f37-be60-49e4-bb5a-83e871444fde","ios":"levelo://app?vid=44ec1f37-be60-49e4-bb5a-83e871444fde"},"vehicle_type_id":"4","last_reported":1748348498,"current_range_meters":17200,"station_id":"ce4bhb92rcd13ifvqen0","pricing_plan_id":"cebpf4jnsgd1na2vs0mg"},{"bike_id":"f2fc1692-01b9-4b02-8b2c-252289992f8e","system_id":"levelo_inurba_marseille","lat":43.28422,"lon":5.34981,"is_reserved":false,"is_disabled":false,"rental_uris":{"android":"levelo://app?vid=f2fc1692-01b9-4b02-8b2c-252289992f8e","ios":"levelo://app?vid=f2fc1692-01b9-4b02-8b2c-252289992f8e"},"vehicle_type_id":"4","last_reported":1748348498,"current_range_meters":17200,"station_id":"ce4bhbh2rcd13ifvqepg","pricing_plan_id":"cebpf4jnsgd1na2vs0mg"},{"bike_id":"3158ed97-171e-4f6d-b654-271885e2dbac","system_id":"levelo_inurba_marseille","lat":43.26191,"lon":5.37447,"is_reserved":false,"is_disabled":false,"rental_uris":{"android":"levelo://app?vid=3158ed97-171e-4f6d-b654-271885e2dbac","ios":"levelo://app?vid=3158ed97-171e-4f6d-b654-271885e2dbac"},"vehicle_type_id":"4","last_reported":1748348498,"current_range_meters":17200,"station_id":"ce4bhgp2rcd13ifvqfc0","pricing_plan_id":"cebpf4jnsgd1na2vs0mg"},{"bike_id":"1dafdf51-656d-4975-819b-79ae74d93918","system_id":"levelo_inurba_marseille","lat":43.231608,"lon":5.436854,"is_reserved":false,"is_disabled":false,"rental_uris":{"android":"levelo://app?vid=1dafdf51-656d-4975-819b-79ae74d93918","ios":"levelo://app?vid=1dafdf51-656d-4975-819b-79ae74d93918"},"vehicle_type_id":"4","last_reported":1748348498,"current_range_meters":17200,"station_id":"ce4bhmp2rcd13ifvqgog","pricing_plan_id":"cebpf4jnsgd1na2vs0mg"},{"bike_id":"095a1188-4e42-408e-b00b-427b37118f68","system_id":"levelo_inurba_marseille","lat":43.23154,"lon":5.43702,"is_reserved":false,"is_disabled":false,"rental_uris":{"android":"levelo://app?vid=095a1188-4e42-408e-b00b-427b37118f68","ios":"levelo://app?vid=095a1188-4e42-408e-b00b-427b37118f68"},"vehicle_type_id":"4","last_reported":1748348498,"current_range_meters":17200,"station_id":"ce4bhmp2rcd13ifvqgog","pricing_plan_id":"cebpf4jnsgd1na2vs0mg"},{"bike_id":"b4a36e5e-245a-41cc-a9cf-03d5c03f3457","system_id":"levelo_inurba_marseille","lat":43.23152,"lon":5.43722,"is_reserved":false,"is_disabled":false,"rental_uris":{"android":"levelo://app?vid=b4a36e5e-245a-41cc-a9cf-03d5c03f3457","ios":"levelo://app?vid=b4a36e5e-245a-41cc-a9cf-03d5c03f3457"},"vehicle_type_id":"4","last_reported":1748348498,"current_range_meters":17200,"station_id":"ce4bhmp2rcd13ifvqgog","pricing_plan_id":"cebpf4jnsgd1na2vs0mg"},{"bike_id":"98cbf70d-d9f6-4b71-bf03-63425172bed7","system_id":"levelo_inurba_marseille","lat":43.23124,"lon":5.43691,"is_reserved":false,"is_disabled":false,"rental_uris":{"android":"levelo://app?vid=98cbf70d-d9f6-4b71-bf03-63425172bed7","ios":"levelo://app?vid=98cbf70d-d9f6-4b71-bf03-63425172bed7"},"vehicle_type_id":"4","last_reported":1748348498,"current_range_meters":17200,"station_id":"ce4bhmp2rcd13ifvqgog","pricing_plan_id":"cebpf4jnsgd1na2vs0mg"},{"bike_id":"53b5a3f4-731c-4f3e-ae19-9a2d7c970ad3","system_id":"levelo_inurba_marseille","lat":43.31246,"lon":5.36862,"is_reserved":false,"is_disabled":false,"rental_uris":{"android":"levelo://app?vid=53b5a3f4-731c-4f3e-ae19-9a2d7c970ad3","ios":"levelo://app?vid=53b5a3f4-731c-4f3e-ae19-9a2d7c970ad3"},"vehicle_type_id":"4","last_reported":1748348498,"current_range_meters":17600,"station_id":"ce4bgl92rcd13ifvqbq0","pricing_plan_id":"cebpf4jnsgd1na2vs0mg"},{"bike_id":"3da58d2f-d00d-45b1-ade9-7b0c76498ff7","system_id":"levelo_inurba_marseille","lat":43.30912,"lon":5.36849,"is_reserved":false,"is_disabled":false,"rental_uris":{"android":"levelo://app?vid=3da58d2f-d00d-45b1-ade9-7b0c76498ff7","ios":"levelo://app?vid=3da58d2f-d00d-45b1-ade9-7b0c76498ff7"},"vehicle_type_id":"4","last_reported":1748348498,"current_range_meters":17600,"station_id":"ce4bgn92rcd13ifvqbvg","pricing_plan_id":"cebpf4jnsgd1na2vs0mg"},{"bike_id":"329a6f0a-1f73-4e11-92f5-cd0525da8dd9","system_id":"levelo_inurba_marseille","lat":43.30148,"lon":5.37417,"is_reserved":false,"is_disabled":false,"rental_uris":{"android":"levelo://app?vid=329a6f0a-1f73-4e11-92f5-cd0525da8dd9","ios":"levelo://app?vid=329a6f0a-1f73-4e11-92f5-cd0525da8dd9"},"vehicle_type_id":"4","last_reported":1748348498,"current_range_meters":17600,"station_id":"ce4bgs92rcd13ifvqcc0","pricing_plan_id":"cebpf4jnsgd1na2vs0mg"},{"bike_id":"5b5ecd89-833e-4be9-8cfa-98c47077fa63","system_id":"levelo_inurba_marseille","lat":43.28945,"lon":5.39632,"is_reserved":false,"is_disabled":false,"rental_uris":{"android":"levelo://app?vid=5b5ecd89-833e-4be9-8cfa-98c47077fa63","ios":"levelo://app?vid=5b5ecd89-833e-4be9-8cfa-98c47077fa63"},"vehicle_type_id":"4","last_reported":1748348498,"current_range_meters":17600,"station_id":"ce4bh3h2rcd13ifvqdn0","pricing_plan_id":"cebpf4jnsgd1na2vs0mg"},{"bike_id":"415f69d6-69fe-47fc-a5c4-163effc37496","system_id":"levelo_inurba_marseille","lat":43.28042,"lon":5.36941,"is_reserved":false,"is_disabled":false,"rental_uris":{"android":"levelo://app?vid=415f69d6-69fe-47fc-a5c4-163effc37496","ios":"levelo://app?vid=415f69d6-69fe-47fc-a5c4-163effc37496"},"vehicle_type_id":"4","last_reported":1748348498,"current_range_meters":17600,"station_id":"ce4bha12rcd13ifvqef0","pricing_plan_id":"cebpf4jnsgd1na2vs0mg"},{"bike_id":"0643f289-f879-4db0-91e1-78db01fdc43a","system_id":"levelo_inurba_marseille","lat":43.28616,"lon":5.35103,"is_reserved":false,"is_disabled":false,"rental_uris":{"android":"levelo://app?vid=0643f289-f879-4db0-91e1-78db01fdc43a","ios":"levelo://app?vid=0643f289-f879-4db0-91e1-78db01fdc43a"},"vehicle_type_id":"4","last_reported":1748348498,"current_range_meters":17600,"station_id":"ce4bhch2rcd13ifvqeug","pricing_plan_id":"cebpf4jnsgd1na2vs0mg"},{"bike_id":"f75d78bc-dcb6-4048-9b0a-676ba870ec9c","system_id":"levelo_inurba_marseille","lat":43.26201,"lon":5.37931,"is_reserved":false,"is_disabled":false,"rental_uris":{"android":"levelo://app?vid=f75d78bc-dcb6-4048-9b0a-676ba870ec9c","ios":"levelo://app?vid=f75d78bc-dcb6-4048-9b0a-676ba870ec9c"},"vehicle_type_id":"4","last_reported":1748348498,"current_range_meters":17600,"station_id":"ce4bhjp2rcd13ifvqg90","pricing_plan_id":"cebpf4jnsgd1na2vs0mg"},{"bike_id":"69af4c7a-acaa-4e50-9849-93b13f3931db","system_id":"levelo_inurba_marseille","lat":43.32539,"lon":5.4146,"is_reserved":false,"is_disabled":false,"rental_uris":{"android":"levelo://app?vid=69af4c7a-acaa-4e50-9849-93b13f3931db","ios":"levelo://app?vid=69af4c7a-acaa-4e50-9849-93b13f3931db"},"vehicle_type_id":"4","last_reported":1748348498,"current_range_meters":17600,"station_id":"ce4bhq12rcd13ifvqhhg","pricing_plan_id":"cebpf4jnsgd1na2vs0mg"},{"bike_id":"fc374944-cd63-4d3d-8efa-ce3bae07a3c1","system_id":"levelo_inurba_marseille","lat":43.31347,"lon":5.36725,"is_reserved":false,"is_disabled":false,"rental_uris":{"android":"levelo://app?vid=fc374944-cd63-4d3d-8efa-ce3bae07a3c1","ios":"levelo://app?vid=fc374944-cd63-4d3d-8efa-ce3bae07a3c1"},"vehicle_type_id":"4","last_reported":1748348498,"current_range_meters":18000,"station_id":"ce4bgr92rcd13ifvqc6g","pricing_plan_id":"cebpf4jnsgd1na2vs0mg"},{"bike_id":"694826cd-19a1-499c-af7c-83a7fd9a0111","system_id":"levelo_inurba_marseille","lat":43.28618,"lon":5.35107,"is_reserved":false,"is_disabled":false,"rental_uris":{"android":"levelo://app?vid=694826cd-19a1-499c-af7c-83a7fd9a0111","ios":"levelo://app?vid=694826cd-19a1-499c-af7c-83a7fd9a0111"},"vehicle_type_id":"4","last_reported":1748348498,"current_range_meters":18000,"station_id":"ce4bhch2rcd13ifvqeug","pricing_plan_id":"cebpf4jnsgd1na2vs0mg"},{"bike_id":"62ff9d66-9750-4ce9-ad12-2baea91caa50","system_id":"levelo_inurba_marseille","lat":43.27674,"lon":5.38875,"is_reserved":false,"is_disabled":false,"rental_uris":{"android":"levelo://app?vid=62ff9d66-9750-4ce9-ad12-2baea91caa50","ios":"levelo://app?vid=62ff9d66-9750-4ce9-ad12-2baea91caa50"},"vehicle_type_id":"4","last_reported":1748348498,"current_range_meters":18000,"station_id":"ce4bhi12rcd13ifvqfo0","pricing_plan_id":"cebpf4jnsgd1na2vs0mg"},{"bike_id":"799d75e0-088b-4441-bd94-28f251fa8a3d","system_id":"levelo_inurba_marseille","lat":43.23151,"lon":5.437059,"is_reserved":false,"is_disabled":false,"rental_uris":{"android":"levelo://app?vid=799d75e0-088b-4441-bd94-28f251fa8a3d","ios":"levelo://app?vid=799d75e0-088b-4441-bd94-28f251fa8a3d"},"vehicle_type_id":"4","last_reported":1748348498,"current_range_meters":18000,"station_id":"ce4bhmp2rcd13ifvqgog","pricing_plan_id":"cebpf4jnsgd1na2vs0mg"},{"bike_id":"159b5b03-b07a-4fa4-b689-6a2ca553228e","system_id":"levelo_inurba_marseille","lat":43.31681,"lon":5.38938,"is_reserved":false,"is_disabled":false,"rental_uris":{"android":"levelo://app?vid=159b5b03-b07a-4fa4-b689-6a2ca553228e","ios":"levelo://app?vid=159b5b03-b07a-4fa4-b689-6a2ca553228e"},"vehicle_type_id":"4","last_reported":1748348498,"current_range_meters":18800,"station_id":"","pricing_plan_id":"cebpf4jnsgd1na2vs0mg"},{"bike_id":"3b07f020-3d8e-47eb-b723-de46e817e2a3","system_id":"levelo_inurba_marseille","lat":43.2973,"lon":5.38355,"is_reserved":false,"is_disabled":false,"rental_uris":{"android":"levelo://app?vid=3b07f020-3d8e-47eb-b723-de46e817e2a3","ios":"levelo://app?vid=3b07f020-3d8e-47eb-b723-de46e817e2a3"},"vehicle_type_id":"4","last_reported":1748348498,"current_range_meters":18800,"station_id":"","pricing_plan_id":"cebpf4jnsgd1na2vs0mg"},{"bike_id":"6933d3ff-12bb-4fff-871c-dfdaa9093219","system_id":"levelo_inurba_marseille","lat":43.27373,"lon":5.4239,"is_reserved":false,"is_disabled":false,"rental_uris":{"android":"levelo://app?vid=6933d3ff-12bb-4fff-871c-dfdaa9093219","ios":"levelo://app?vid=6933d3ff-12bb-4fff-871c-dfdaa9093219"},"vehicle_type_id":"4","last_reported":1748348498,"current_range_meters":18800,"station_id":"","pricing_plan_id":"cebpf4jnsgd1na2vs0mg"},{"bike_id":"ec5612cb-98f6-474d-af9e-4e3c8d95f3e3","system_id":"levelo_inurba_marseille","lat":43.29269,"lon":5.37627,"is_reserved":false,"is_disabled":false,"rental_uris":{"android":"levelo://app?vid=ec5612cb-98f6-474d-af9e-4e3c8d95f3e3","ios":"levelo://app?vid=ec5612cb-98f6-474d-af9e-4e3c8d95f3e3"},"vehicle_type_id":"4","last_reported":1748348498,"current_range_meters":18800,"station_id":"ce4bgi12rcd13ifvqb80","pricing_plan_id":"cebpf4jnsgd1na2vs0mg"},{"bike_id":"fef54560-e002-42dc-baed-4c468890c451","system_id":"levelo_inurba_marseille","lat":43.31458,"lon":5.37292,"is_reserved":false,"is_disabled":false,"rental_uris":{"android":"levelo://app?vid=fef54560-e002-42dc-baed-4c468890c451","ios":"levelo://app?vid=fef54560-e002-42dc-baed-4c468890c451"},"vehicle_type_id":"4","last_reported":1748348498,"current_range_meters":18800,"station_id":"ce4bgt12rcd13ifvqcd0","pricing_plan_id":"cebpf4jnsgd1na2vs0mg"},{"bike_id":"979d9789-c329-4da1-b73b-0b7b0ca1652b","system_id":"levelo_inurba_marseille","lat":43.28726,"lon":5.37929,"is_reserved":false,"is_disabled":false,"rental_uris":{"android":"levelo://app?vid=979d9789-c329-4da1-b73b-0b7b0ca1652b","ios":"levelo://app?vid=979d9789-c329-4da1-b73b-0b7b0ca1652b"},"vehicle_type_id":"4","last_reported":1748348498,"current_range_meters":18800,"station_id":"ce4bh9p2rcd13ifvqec0","pricing_plan_id":"cebpf4jnsgd1na2vs0mg"},{"bike_id":"33a17458-6c0e-45b1-851c-6e7d61922118","system_id":"levelo_inurba_marseille","lat":43.29204,"lon":5.35791,"is_reserved":false,"is_disabled":false,"rental_uris":{"android":"levelo://app?vid=33a17458-6c0e-45b1-851c-6e7d61922118","ios":"levelo://app?vid=33a17458-6c0e-45b1-851c-6e7d61922118"},"vehicle_type_id":"4","last_reported":1748348498,"current_range_meters":18800,"station_id":"ce4bhb12rcd13ifvqel0","pricing_plan_id":"cebpf4jnsgd1na2vs0mg"},{"bike_id":"d2fa4782-488a-4881-a239-b76276ba6d73","system_id":"levelo_inurba_marseille","lat":43.25932,"lon":5.40904,"is_reserved":false,"is_disabled":false,"rental_uris":{"android":"levelo://app?vid=d2fa4782-488a-4881-a239-b76276ba6d73","ios":"levelo://app?vid=d2fa4782-488a-4881-a239-b76276ba6d73"},"vehicle_type_id":"4","last_reported":1748348498,"current_range_meters":18800,"station_id":"ce4bhm92rcd13ifvqglg","pricing_plan_id":"cebpf4jnsgd1na2vs0mg"},{"bike_id":"5046fad6-7e56-4b3d-b074-accb7f2f5a2e","system_id":"levelo_inurba_marseille","lat":43.231516,"lon":5.437049,"is_reserved":false,"is_disabled":false,"rental_uris":{"android":"levelo://app?vid=5046fad6-7e56-4b3d-b074-accb7f2f5a2e","ios":"levelo://app?vid=5046fad6-7e56-4b3d-b074-accb7f2f5a2e"},"vehicle_type_id":"4","last_reported":1748348498,"current_range_meters":18800,"station_id":"ce4bhmp2rcd13ifvqgog","pricing_plan_id":"cebpf4jnsgd1na2vs0mg"},{"bike_id":"1be24196-7e90-4f9d-9fc8-24d153682613","system_id":"levelo_inurba_marseille","lat":43.23165,"lon":5.43703,"is_reserved":false,"is_disabled":false,"rental_uris":{"android":"levelo://app?vid=1be24196-7e90-4f9d-9fc8-24d153682613","ios":"levelo://app?vid=1be24196-7e90-4f9d-9fc8-24d153682613"},"vehicle_type_id":"4","last_reported":1748348498,"current_range_meters":18800,"station_id":"ce4bhmp2rcd13ifvqgog","pricing_plan_id":"cebpf4jnsgd1na2vs0mg"},{"bike_id":"13f44831-c6c1-4d03-9899-2a7d2c674a4b","system_id":"levelo_inurba_marseille","lat":43.28101,"lon":5.40636,"is_reserved":false,"is_disabled":false,"rental_uris":{"android":"levelo://app?vid=13f44831-c6c1-4d03-9899-2a7d2c674a4b","ios":"levelo://app?vid=13f44831-c6c1-4d03-9899-2a7d2c674a4b"},"vehicle_type_id":"4","last_reported":1748348498,"current_range_meters":19200,"station_id":"","pricing_plan_id":"cebpf4jnsgd1na2vs0mg"},{"bike_id":"289abd39-a0e9-45f2-8b8c-d1d53081b8bc","system_id":"levelo_inurba_marseille","lat":43.30534,"lon":5.3651,"is_reserved":false,"is_disabled":false,"rental_uris":{"android":"levelo://app?vid=289abd39-a0e9-45f2-8b8c-d1d53081b8bc","ios":"levelo://app?vid=289abd39-a0e9-45f2-8b8c-d1d53081b8bc"},"vehicle_type_id":"4","last_reported":1748348498,"current_range_meters":19200,"station_id":"","pricing_plan_id":"cebpf4jnsgd1na2vs0mg"},{"bike_id":"93f32e7a-3b74-4d8c-be0e-3360336ca0b0","system_id":"levelo_inurba_marseille","lat":43.285,"lon":5.38573,"is_reserved":false,"is_disabled":false,"rental_uris":{"android":"levelo://app?vid=93f32e7a-3b74-4d8c-be0e-3360336ca0b0","ios":"levelo://app?vid=93f32e7a-3b74-4d8c-be0e-3360336ca0b0"},"vehicle_type_id":"4","last_reported":1748348498,"current_range_meters":19200,"station_id":"ce4bh8p2rcd13ifvqeb0","pricing_plan_id":"cebpf4jnsgd1na2vs0mg"},{"bike_id":"7adfba2a-83c5-4ab3-b3ed-9d09d0a13be4","system_id":"levelo_inurba_marseille","lat":43.26062,"lon":5.39405,"is_reserved":false,"is_disabled":false,"rental_uris":{"android":"levelo://app?vid=7adfba2a-83c5-4ab3-b3ed-9d09d0a13be4","ios":"levelo://app?vid=7adfba2a-83c5-4ab3-b3ed-9d09d0a13be4"},"vehicle_type_id":"4","last_reported":1748348498,"current_range_meters":19200,"station_id":"ce4bhh92rcd13ifvqfj0","pricing_plan_id":"cebpf4jnsgd1na2vs0mg"},{"bike_id":"5c410044-783a-4bf0-a539-9010017a1490","system_id":"levelo_inurba_marseille","lat":43.27073,"lon":5.4228,"is_reserved":false,"is_disabled":false,"rental_uris":{"android":"levelo://app?vid=5c410044-783a-4bf0-a539-9010017a1490","ios":"levelo://app?vid=5c410044-783a-4bf0-a539-9010017a1490"},"vehicle_type_id":"4","last_reported":1748348498,"current_range_meters":19200,"station_id":"ce4bhk92rcd13ifvqgb0","pricing_plan_id":"cebpf4jnsgd1na2vs0mg"},{"bike_id":"f579db9f-3b77-4eed-8565-6c47b3b7956e","system_id":"levelo_inurba_marseille","lat":43.32546,"lon":5.41498,"is_reserved":false,"is_disabled":false,"rental_uris":{"android":"levelo://app?vid=f579db9f-3b77-4eed-8565-6c47b3b7956e","ios":"levelo://app?vid=f579db9f-3b77-4eed-8565-6c47b3b7956e"},"vehicle_type_id":"4","last_reported":1748348498,"current_range_meters":19200,"station_id":"ce4bhq12rcd13ifvqhhg","pricing_plan_id":"cebpf4jnsgd1na2vs0mg"},