{"last_updated":1749618774,"ttl":60,"version":"2.2","data":{"bikes":[{"bike_id":"a82b6895-358a-426a-ab44-de0487817b5d","system_id":"levelo_inurba_marseille","lat":43.3234,"lon":5.40616,"is_reserved":false,"is_disabled":false,"rental_uris":{"android":"levelo://app?vid=a82b6895-358a-426a-ab44-de0487817b5d","ios":"levelo://app?vid=a82b6895-358a-426a-ab44-de0487817b5d"},"vehicle_type_id":"4","last_reported":1749618775,"current_range_meters":3200,"station_id":"ce4bhq92rcd13ifvqhjg","pricing_plan_id":"cebpf4jnsgd1na2vs0mg"},{"bike_id":"dd67f108-95bf-4a1e-b619-4bb77e009c5b","system_id":"levelo_inurba_marseille","lat":43.29063,"lon":5.42767,"is_reserved":false,"is_disabled":false,"rental_uris":{"android":"levelo://app?vid=dd67f108-95bf-4a1e-b619-4bb77e009c5b","ios":"levelo://app?vid=dd67f108-95bf-4a1e-b619-4bb77e009c5b"},"vehicle_type_id":"4","last_reported":1749618775,"current_range_meters":3200,"station_id":"","pricing_plan_id":"cebpf4jnsgd1na2vs0mg"},{"bike_id":"d4b88bf1-453d-4923-9d8f-b21510f3de86","system_id":"levelo_inurba_marseille","lat":43.30542,"lon":5.36558,"is_reserved":false,"is_disabled":false,"rental_uris":{"android":"levelo://app?vid=d4b88bf1-453d-4923-9d8f-b21510f3de86","ios":"levelo://app?vid=d4b88bf1-453d-4923-9d8f-b21510f3de86"},"vehicle_type_id":"4","last_reported":1749618775,"current_range_meters":3600,"station_id":"ce4bgs12rcd13ifvqcag","pricing_plan_id":"cebpf4jnsgd1na2vs0mg"},{"bike_id":"88113087-f0bb-4133-ab2a-bbfce1f3d99a","system_id":"levelo_inurba_marseille","lat":43.31706,"lon":5.40467,"is_reserved":false,"is_disabled":true,"rental_uris":{"android":"levelo://app?vid=88113087-f0bb-4133-ab2a-bbfce1f3d99a","ios":"levelo://app?vid=88113087-f0bb-4133-ab2a-bbfce1f3d99a"},"vehicle_type_id":"4","last_reported":1749618775,"current_range_meters":4400,"station_id":"ce4bh012rcd13ifvqd00","pricing_plan_id":"cebpf4jnsgd1na2vs0mg"},{"bike_id":"4bbf18c4-952a-4eb4-8649-6803f058eaa5","system_id":"levelo_inurba_marseille","lat":43.3321,"lon":5.42951,"is_reserved":false,"is_disabled":false,"rental_uris":{"android":"levelo://app?vid=4bbf18c4-952a-4eb4-8649-6803f058eaa5","ios":"levelo://app?vid=4bbf18c4-952a-4eb4-8649-6803f058eaa5"},"vehicle_type_id":"4","last_reported":1749618775,"current_range_meters":4400,"station_id":"","pricing_plan_id":"cebpf4jnsgd1na2vs0mg"},{"bike_id":"076b5781-da6d-4df3-8708-1c305959a7c9","system_id":"levelo_inurba_marseille","lat":43.30327,"lon":5.40437,"is_reserved":false,"is_disabled":false,"rental_uris":{"android":"levelo://app?vid=076b5781-da6d-4df3-8708-1c305959a7c9","ios":"levelo://app?vid=076b5781-da6d-4df3-8708-1c305959a7c9"},"vehicle_type_id":"4","last_reported":1749618775,"current_range_meters":4400,"station_id":"ce4bh012rcd13ifvqd10","pricing_plan_id":"cebpf4jnsgd1na2vs0mg"},{"bike_id":"e5b7ea25-4775-43a3-9ad6-9de1ec0967f9","system_id":"levelo_inurba_marseille","lat":43.28661,"lon":5.36357,"is_reserved":false,"is_disabled":false,"rental_uris":{"android":"levelo://app?vid=e5b7ea25-4775-43a3-9ad6-9de1ec0967f9","ios":"levelo://app?vid=e5b7ea25-4775-43a3-9ad6-9de1ec0967f9"},"vehicle_type_id":"4","last_reported":1749618775,"current_range_meters":4800,"station_id":"ce4bhah2rcd13ifvqej0","pricing_plan_id":"cebpf4jnsgd1na2vs0mg"},{"bike_id":"c555f70c-866d-4d56-b60f-fdd3434007cf","system_id":"levelo_inurba_marseille","lat":43.29094,"lon":5.38171,"is_reserved":false,"is_disabled":true,"rental_uris":{"android":"levelo://app?vid=c555f70c-866d-4d56-b60f-fdd3434007cf","ios":"levelo://app?vid=c555f70c-866d-4d56-b60f-fdd3434007cf"},"vehicle_type_id":"4","last_reported":1749618775,"current_range_meters":4800,"station_id":"ce4bh512rcd13ifvqe2g","pricing_plan_id":"cebpf4jnsgd1na2vs0mg"},{"bike_id":"783fb3e4-49e0-49bd-a00e-3b817dfa3d18","system_id":"levelo_inurba_marseille","lat":43.31483,"lon":5.37308,"is_reserved":false,"is_disabled":false,"rental_uris":{"android":"levelo://app?vid=783fb3e4-49e0-49bd-a00e-3b817dfa3d18","ios":"levelo://app?vid=783fb3e4-49e0-49bd-a00e-3b817dfa3d18"},"vehicle_type_id":"4","last_reported":1749618775,"current_range_meters":5600,"station_id":"ce4bgt12rcd13ifvqcd0","pricing_plan_id":"cebpf4jnsgd1na2vs0mg"},{"bike_id":"072850f1-77e7-4877-8e1d-d9ff513249cf","system_id":"levelo_inurba_marseille","lat":43.29044,"lon":5.39996,"is_reserved":false,"is_disabled":false,"rental_uris":{"android":"levelo://app?vid=072850f1-77e7-4877-8e1d-d9ff513249cf","ios":"levelo://app?vid=072850f1-77e7-4877-8e1d-d9ff513249cf"},"vehicle_type_id":"4","last_reported":1749618775,"current_range_meters":2000,"station_id":"ce4bh392rcd13ifvqdm0","pricing_plan_id":"cebpf4jnsgd1na2vs0mg"},{"bike_id":"c480b01d-e74a-4e3d-8514-9b730d6c8c09","system_id":"levelo_inurba_marseille","lat":43.28682,"lon":5.39983,"is_reserved":false,"is_disabled":false,"rental_uris":{"android":"levelo://app?vid=c480b01d-e74a-4e3d-8514-9b730d6c8c09","ios":"levelo://app?vid=c480b01d-e74a-4e3d-8514-9b730d6c8c09"},"vehicle_type_id":"4","last_reported":1749618775,"current_range_meters":6800,"station_id":"ce4bho92rcd13ifvqh3g","pricing_plan_id":"cebpf4jnsgd1na2vs0mg"},{"bike_id":"33a7407a-f9ba-430d-abc6-01fe5e60108f","system_id":"levelo_inurba_marseille","lat":43.287263,"lon":5.400024,"is_reserved":false,"is_disabled":false,"rental_uris":{"android":"levelo://app?vid=33a7407a-f9ba-430d-abc6-01fe5e60108f","ios":"levelo://app?vid=33a7407a-f9ba-430d-abc6-01fe5e60108f"},"vehicle_type_id":"4","last_reported":1749618775,"current_range_meters":6800,"station_id":"","pricing_plan_id":"cebpf4jnsgd1na2vs0mg"},{"bike_id":"2d6c2d8f-e27c-4623-ad51-01be29de4af7","system_id":"levelo_inurba_marseille","lat":43.27941,"lon":5.4104,"is_reserved":false,"is_disabled":false,"rental_uris":{"android":"levelo://app?vid=2d6c2d8f-e27c-4623-ad51-01be29de4af7","ios":"levelo://app?vid=2d6c2d8f-e27c-4623-ad51-01be29de4af7"},"vehicle_type_id":"4","last_reported":1749618775,"current_range_meters":6800,"station_id":"ce4bhnp2rcd13ifvqh0g","pricing_plan_id":"cebpf4jnsgd1na2vs0mg"},{"bike_id":"032a6e18-5dbb-4c70-9980-99b77182b61b","system_id":"levelo_inurba_marseille","lat":43.30787,"lon":5.38156,"is_reserved":false,"is_disabled":false,"rental_uris":{"android":"levelo://app?vid=032a6e18-5dbb-4c70-9980-99b77182b61b","ios":"levelo://app?vid=032a6e18-5dbb-4c70-9980-99b77182b61b"},"vehicle_type_id":"4","last_reported":1749618775,"current_range_meters":7200,"station_id":"ce4bgt12rcd13ifvqce0","pricing_plan_id":"cebpf4jnsgd1na2vs0mg"},{"bike_id":"49938379-7218-4c9f-884c-7e199e43a101","system_id":"levelo_inurba_marseille","lat":43.317079,"lon":5.404558,"is_reserved":false,"is_disabled":false,"rental_uris":{"android":"levelo://app?vid=49938379-7218-4c9f-884c-7e199e43a101","ios":"levelo://app?vid=49938379-7218-4c9f-884c-7e199e43a101"},"vehicle_type_id":"4","last_reported":1749618775,"current_range_meters":7200,"station_id":"ce4bh012rcd13ifvqd00","pricing_plan_id":"cebpf4jnsgd1na2vs0mg"},{"bike_id":"8aaf160b-5145-4216-8d8a-dbabf43143b3","system_id":"levelo_inurba_marseille","lat":43.31167,"lon":5.38713,"is_reserved":false,"is_disabled":false,"rental_uris":{"android":"levelo://app?vid=8aaf160b-5145-4216-8d8a-dbabf43143b3","ios":"levelo://app?vid=8aaf160b-5145-4216-8d8a-dbabf43143b3"},"vehicle_type_id":"4","last_reported":1749618775,"current_range_meters":7200,"station_id":"ce4bgv12rcd13ifvqcp0","pricing_plan_id":"cebpf4jnsgd1na2vs0mg"},{"bike_id":"cba8c14d-5cc1-49b7-8a05-fbd3bcec932d","system_id":"levelo_inurba_marseille","lat":43.28663,"lon":5.36342,"is_reserved":false,"is_disabled":false,"rental_uris":{"android":"levelo://app?vid=cba8c14d-5cc1-49b7-8a05-fbd3bcec932d","ios":"levelo://app?vid=cba8c14d-5cc1-49b7-8a05-fbd3bcec932d"},"vehicle_type_id":"4","last_reported":1749618775,"current_range_meters":7200,"station_id":"ce4bhah2rcd13ifvqej0","pricing_plan_id":"cebpf4jnsgd1na2vs0mg"},{"bike_id":"3924f8b3-f13b-4c6d-bf0e-03aef010c488","system_id":"levelo_inurba_marseille","lat":43.31512,"lon":5.37249,"is_reserved":false,"is_disabled":false,"rental_uris":{"android":"levelo://app?vid=3924f8b3-f13b-4c6d-bf0e-03aef010c488","ios":"levelo://app?vid=3924f8b3-f13b-4c6d-bf0e-03aef010c488"},"vehicle_type_id":"4","last_reported":1749618775,"current_range_meters":8000,"station_id":"ce4bgt12rcd13ifvqcd0","pricing_plan_id":"cebpf4jnsgd1na2vs0mg"},{"bike_id":"b1e81a2d-39af-4690-852c-a2189509d737","system_id":"levelo_inurba_marseille","lat":43.306522,"lon":5.40068,"is_reserved":false,"is_disabled":false,"rental_uris":{"android":"levelo://app?vid=b1e81a2d-39af-4690-852c-a2189509d737","ios":"levelo://app?vid=b1e81a2d-39af-4690-852c-a2189509d737"},"vehicle_type_id":"4","last_reported":1749618775,"current_range_meters":8000,"station_id":"ce4bh112rcd13ifvqda0","pricing_plan_id":"cebpf4jnsgd1na2vs0mg"},{"bike_id":"b6285f6b-e9e7-470d-9b6d-1afe99ab71bf","system_id":"levelo_inurba_marseille","lat":43.26151,"lon":5.41988,"is_reserved":false,"is_disabled":false,"rental_uris":{"android":"levelo://app?vid=b6285f6b-e9e7-470d-9b6d-1afe99ab71bf","ios":"levelo://app?vid=b6285f6b-e9e7-470d-9b6d-1afe99ab71bf"},"vehicle_type_id":"4","last_reported":1749618775,"current_range_meters":8000,"station_id":"","pricing_plan_id":"cebpf4jnsgd1na2vs0mg"},{"bike_id":"e523f706-8c3e-4c14-b599-8e03c9d72beb","system_id":"levelo_inurba_marseille","lat":43.317,"lon":5.40464,"is_reserved":false,"is_disabled":false,"rental_uris":{"android":"levelo://app?vid=e523f706-8c3e-4c14-b599-8e03c9d72beb","ios":"levelo://app?vid=e523f706-8c3e-4c14-b599-8e03c9d72beb"},"vehicle_type_id":"4","last_reported":1749618775,"current_range_meters":8000,"station_id":"ce4bh012rcd13ifvqd00","pricing_plan_id":"cebpf4jnsgd1na2vs0mg"},{"bike_id":"3d59d2ec-b59a-43e8-abae-40ac02fdcdb8","system_id":"levelo_inurba_marseille","lat":43.295521,"lon":5.422803,"is_reserved":false,"is_disabled":false,"rental_uris":{"android":"levelo://app?vid=3d59d2ec-b59a-43e8-abae-40ac02fdcdb8","ios":"levelo://app?vid=3d59d2ec-b59a-43e8-abae-40ac02fdcdb8"},"vehicle_type_id":"4","last_reported":1749618775,"current_range_meters":8000,"station_id":"ce4bhph2rcd13ifvqhdg","pricing_plan_id":"cebpf4jnsgd1na2vs0mg"},{"bike_id":"39d32260-51d5-455a-ba53-6471389bd255","system_id":"levelo_inurba_marseille","lat":43.31976,"lon":5.37589,"is_reserved":false,"is_disabled":false,"rental_uris":{"android":"levelo://app?vid=39d32260-51d5-455a-ba53-6471389bd255","ios":"levelo://app?vid=39d32260-51d5-455a-ba53-6471389bd255"},"vehicle_type_id":"4","last_reported":1749618775,"current_range_meters":8000,"station_id":"","pricing_plan_id":"cebpf4jnsgd1na2vs0mg"},{"bike_id":"955c930c-c336-417f-bb8a-3d2b0a0f3d0c","system_id":"levelo_inurba_marseille","lat":43.27835,"lon":5.392,"is_reserved":false,"is_disabled":true,"rental_uris":{"android":"levelo://app?vid=955c930c-c336-417f-bb8a-3d2b0a0f3d0c","ios":"levelo://app?vid=955c930c-c336-417f-bb8a-3d2b0a0f3d0c"},"vehicle_type_id":"4","last_reported":1749618775,"current_range_meters":8000,"station_id":"ce4bhjp2rcd13ifvqga0","pricing_plan_id":"cebpf4jnsgd1na2vs0mg"},{"bike_id":"f2dbf428-afa2-41d8-bcf4-ffd85e948536","system_id":"levelo_inurba_marseille","lat":43.31061,"lon":5.38338,"is_reserved":false,"is_disabled":false,"rental_uris":{"android":"levelo://app?vid=f2dbf428-afa2-41d8-bcf4-ffd85e948536","ios":"levelo://app?vid=f2dbf428-afa2-41d8-bcf4-ffd85e948536"},"vehicle_type_id":"4","last_reported":1749618775,"current_range_meters":8000,"station_id":"ce4bgv92rcd13ifvqcr0","pricing_plan_id":"cebpf4jnsgd1na2vs0mg"},{"bike_id":"796770a8-91f4-4fb9-ab55-d72970417245","system_id":"levelo_inurba_marseille","lat":43.287009,"lon":5.399993,"is_reserved":false,"is_disabled":false,"rental_uris":{"android":"levelo://app?vid=796770a8-91f4-4fb9-ab55-d72970417245","ios":"levelo://app?vid=796770a8-91f4-4fb9-ab55-d72970417245"},"vehicle_type_id":"4","last_reported":1749618775,"current_range_meters":8000,"station_id":"ce4bho92rcd13ifvqh3g","pricing_plan_id":"cebpf4jnsgd1na2vs0mg"},{"bike_id":"89751972-2148-47e8-a9f5-6238a039cba7","system_id":"levelo_inurba_marseille","lat":43.30534,"lon":5.36536,"is_reserved":false,"is_disabled":true,"rental_uris":{"android":"levelo://app?vid=89751972-2148-47e8-a9f5-6238a039cba7","ios":"levelo://app?vid=89751972-2148-47e8-a9f5-6238a039cba7"},"vehicle_type_id":"4","last_reported":1749618775,"current_range_meters":8000,"station_id":"ce4bgs12rcd13ifvqcag","pricing_plan_id":"cebpf4jnsgd1na2vs0mg"},{"bike_id":"63b5796e-e5fa-4c08-b52b-4ffb68437406","system_id":"levelo_inurba_marseille","lat":43.315391,"lon":5.383709,"is_reserved":false,"is_disabled":false,"rental_uris":{"android":"levelo://app?vid=63b5796e-e5fa-4c08-b52b-4ffb68437406","ios":"levelo://app?vid=63b5796e-e5fa-4c08-b52b-4ffb68437406"},"vehicle_type_id":"4","last_reported":1749618775,"current_range_meters":8400,"station_id":"","pricing_plan_id":"cebpf4jnsgd1na2vs0mg"},{"bike_id":"74aeaf94-9bcf-48af-9c47-b41e90681380","system_id":"levelo_inurba_marseille","lat":43.29093,"lon":5.38155,"is_reserved":false,"is_disabled":false,"rental_uris":{"android":"levelo://app?vid=74aeaf94-9bcf-48af-9c47-b41e90681380","ios":"levelo://app?vid=74aeaf94-9bcf-48af-9c47-b41e90681380"},"vehicle_type_id":"4","last_reported":1749618775,"current_range_meters":8400,"station_id":"ce4bh512rcd13ifvqe2g","pricing_plan_id":"cebpf4jnsgd1na2vs0mg"},{"bike_id":"66fac9ba-4e53-469d-8c0e-b15cb784136c","system_id":"levelo_inurba_marseille","lat":43.290558,"lon":5.371628,"is_reserved":false,"is_disabled":true,"rental_uris":{"android":"levelo://app?vid=66fac9ba-4e53-469d-8c0e-b15cb784136c","ios":"levelo://app?vid=66fac9ba-4e53-469d-8c0e-b15cb784136c"},"vehicle_type_id":"4","last_reported":1749618775,"current_range_meters":8400,"station_id":"ce4bh5p2rcd13ifvqe4g","pricing_plan_id":"cebpf4jnsgd1na2vs0mg"},{"bike_id":"778d49f3-77b2-4be0-a4e4-253d54dcc49c","system_id":"levelo_inurba_marseille","lat":43.29936,"lon":5.36561,"is_reserved":false,"is_disabled":false,"rental_uris":{"android":"levelo://app?vid=778d49f3-77b2-4be0-a4e4-253d54dcc49c","ios":"levelo://app?vid=778d49f3-77b2-4be0-a4e4-253d54dcc49c"},"vehicle_type_id":"4","last_reported":1749618775,"current_range_meters":8400,"station_id":"ce4bgm92rcd13ifvqbr0","pricing_plan_id":"cebpf4jnsgd1na2vs0mg"},{"bike_id":"8dedf3e1-d071-4785-8743-3dcaa7e6060f","system_id":"levelo_inurba_marseille","lat":43.29843,"lon":5.36271,"is_reserved":false,"is_disabled":false,"rental_uris":{"android":"levelo://app?vid=8dedf3e1-d071-4785-8743-3dcaa7e6060f","ios":"levelo://app?vid=8dedf3e1-d071-4785-8743-3dcaa7e6060f"},"vehicle_type_id":"4","last_reported":1749618775,"current_range_meters":8400,"station_id":"ce4bgpp2rcd13ifvqc3g","pricing_plan_id":"cebpf4jnsgd1na2vs0mg"},{"bike_id":"7fff9681-113f-4808-9b13-4b12e7d19f2f","system_id":"levelo_inurba_marseille","lat":43.30538,"lon":5.38436,"is_reserved":false,"is_disabled":false,"rental_uris":{"android":"levelo://app?vid=7fff9681-113f-4808-9b13-4b12e7d19f2f","ios":"levelo://app?vid=7fff9681-113f-4808-9b13-4b12e7d19f2f"},"vehicle_type_id":"4","last_reported":1749618775,"current_range_meters":8400,"station_id":"ce4bgg92rcd13ifvqb30","pricing_plan_id":"cebpf4jnsgd1na2vs0mg"},{"bike_id":"2c448b5b-2e4a-4008-ae60-65f91460a3c5","system_id":"levelo_inurba_marseille","lat":43.28662,"lon":5.3867,"is_reserved":false,"is_disabled":false,"rental_uris":{"android":"levelo://app?vid=2c448b5b-2e4a-4008-ae60-65f91460a3c5","ios":"levelo://app?vid=2c448b5b-2e4a-4008-ae60-65f91460a3c5"},"vehicle_type_id":"4","last_reported":1749618775,"current_range_meters":8400,"station_id":"ce4bh492rcd13ifvqdug","pricing_plan_id":"cebpf4jnsgd1na2vs0mg"},{"bike_id":"01223f92-9a8a-44b1-a96e-0459a65a2d6e","system_id":"levelo_inurba_marseille","lat":43.30924,"lon":5.40154,"is_reserved":false,"is_disabled":false,"rental_uris":{"android":"levelo://app?vid=01223f92-9a8a-44b1-a96e-0459a65a2d6e","ios":"levelo://app?vid=01223f92-9a8a-44b1-a96e-0459a65a2d6e"},"vehicle_type_id":"4","last_reported":1749618775,"current_range_meters":8400,"station_id":"ce4bgvp2rcd13ifvqct0","pricing_plan_id":"cebpf4jnsgd1na2vs0mg"},{"bike_id":"5e6b1e47-16fd-488b-b7eb-507767b76ee6","system_id":"levelo_inurba_marseille","lat":43.268123,"lon":5.390654,"is_reserved":false,"is_disabled":false,"rental_uris":{"android":"levelo://app?vid=5e6b1e47-16fd-488b-b7eb-507767b76ee6","ios":"levelo://app?vid=5e6b1e47-16fd-488b-b7eb-507767b76ee6"},"vehicle_type_id":"4","last_reported":1749618775,"current_range_meters":8400,"station_id":"","pricing_plan_id":"cebpf4jnsgd1na2vs0mg"},{"bike_id":"125bd855-10ed-4a56-9707-403f3a8b58a0","system_id":"levelo_inurba_marseille","lat":43.33077,"lon":5.40509,"is_reserved":false,"is_disabled":false,"rental_uris":{"android":"levelo://app?vid=125bd855-10ed-4a56-9707-403f3a8b58a0","ios":"levelo://app?vid=125bd855-10ed-4a56-9707-403f3a8b58a0"},"vehicle_type_id":"4","last_reported":1749618775,"current_range_meters":8400,"station_id":"","pricing_plan_id":"cebpf4jnsgd1na2vs0mg"},{"bike_id":"a2bcab2a-6bfc-4b2e-8edc-c0755f556489","system_id":"levelo_inurba_marseille","lat":43.28278,"lon":5.350746,"is_reserved":false,"is_disabled":true,"rental_uris":{"android":"levelo://app?vid=a2bcab2a-6bfc-4b2e-8edc-c0755f556489","ios":"levelo://app?vid=a2bcab2a-6bfc-4b2e-8edc-c0755f556489"},"vehicle_type_id":"4","last_reported":1749618775,"current_range_meters":8800,"station_id":"ce4bhbp2rcd13ifvqerg","pricing_plan_id":"cebpf4jnsgd1na2vs0mg"},{"bike_id":"5b87aa1a-6c1c-4e2d-8a20-f8fa27a536c2","system_id":"levelo_inurba_marseille","lat":43.28434,"lon":5.3753,"is_reserved":false,"is_disabled":false,"rental_uris":{"android":"levelo://app?vid=5b87aa1a-6c1c-4e2d-8a20-f8fa27a536c2","ios":"levelo://app?vid=5b87aa1a-6c1c-4e2d-8a20-f8fa27a536c2"},"vehicle_type_id":"4","last_reported":1749618775,"current_range_meters":8800,"station_id":"ce4bh412rcd13ifvqds0","pricing_plan_id":"cebpf4jnsgd1na2vs0mg"},{"bike_id":"c96defc4-7d86-4a0a-9944-e593e4547d0e","system_id":"levelo_inurba_marseille","lat":43.32345,"lon":5.40612,"is_reserved":false,"is_disabled":false,"rental_uris":{"android":"levelo://app?vid=c96defc4-7d86-4a0a-9944-e593e4547d0e","ios":"levelo://app?vid=c96defc4-7d86-4a0a-9944-e593e4547d0e"},"vehicle_type_id":"4","last_reported":1749618775,"current_range_meters":8800,"station_id":"ce4bhq92rcd13ifvqhjg","pricing_plan_id":"cebpf4jnsgd1na2vs0mg"},{"bike_id":"a679cb80-4242-4d18-a97e-ea4a60dc83be","system_id":"levelo_inurba_marseille","lat":43.32205,"lon":5.41301,"is_reserved":false,"is_disabled":false,"rental_uris":{"android":"levelo://app?vid=a679cb80-4242-4d18-a97e-ea4a60dc83be","ios":"levelo://app?vid=a679cb80-4242-4d18-a97e-ea4a60dc83be"},"vehicle_type_id":"4","last_reported":1749618775,"current_range_meters":8800,"station_id":"","pricing_plan_id":"cebpf4jnsgd1na2vs0mg"},{"bike_id":"6890b9e2-87e1-40b6-9e0f-8af99f456400","system_id":"levelo_inurba_marseille","lat":43.295969,"lon":5.381011,"is_reserved":false,"is_disabled":true,"rental_uris":{"android":"levelo://app?vid=6890b9e2-87e1-40b6-9e0f-8af99f456400","ios":"levelo://app?vid=6890b9e2-87e1-40b6-9e0f-8af99f456400"},"vehicle_type_id":"4","last_reported":1749618775,"current_range_meters":8800,"station_id":"ce4bgl12rcd13ifvqbo0","pricing_plan_id":"cebpf4jnsgd1na2vs0mg"},{"bike_id":"1ab048e4-d16d-4228-b804-d09de6f24b1e","system_id":"levelo_inurba_marseille","lat":43.28702,"lon":5.37417,"is_reserved":false,"is_disabled":true,"rental_uris":{"android":"levelo://app?vid=1ab048e4-d16d-4228-b804-d09de6f24b1e","ios":"levelo://app?vid=1ab048e4-d16d-4228-b804-d09de6f24b1e"},"vehicle_type_id":"4","last_reported":1749618775,"current_range_meters":8800,"station_id":"ce4bh3p2rcd13ifvqdq0","pricing_plan_id":"cebpf4jnsgd1na2vs0mg"},{"bike_id":"df0bf95e-b0d2-446e-9481-f5d66e904f86","system_id":"levelo_inurba_marseille","lat":43.30935,"lon":5.401438,"is_reserved":false,"is_disabled":false,"rental_uris":{"android":"levelo://app?vid=df0bf95e-b0d2-446e-9481-f5d66e904f86","ios":"levelo://app?vid=df0bf95e-b0d2-446e-9481-f5d66e904f86"},"vehicle_type_id":"4","last_reported":1749618775,"current_range_meters":8800,"station_id":"ce4bgvp2rcd13ifvqct0","pricing_plan_id":"cebpf4jnsgd1na2vs0mg"},{"bike_id":"b2b091c7-ef42-4c06-871f-fd9e224b498e","system_id":"levelo_inurba_marseille","lat":43.30925,"lon":5.40154,"is_reserved":false,"is_disabled":false,"rental_uris":{"android":"levelo://app?vid=b2b091c7-ef42-4c06-871f-fd9e224b498e","ios":"levelo://app?vid=b2b091c7-ef42-4c06-871f-fd9e224b498e"},"vehicle_type_id":"4","last_reported":1749618775,"current_range_meters":9200,"station_id":"ce4bgvp2rcd13ifvqct0","pricing_plan_id":"cebpf4jnsgd1na2vs0mg"},{"bike_id":"5077581b-cebb-46fc-ba69-4fa8272d4810","system_id":"levelo_inurba_marseille","lat":43.21368,"lon":5.3553,"is_reserved":false,"is_disabled":false,"rental_uris":{"android":"levelo://app?vid=5077581b-cebb-46fc-ba69-4fa8272d4810","ios":"levelo://app?vid=5077581b-cebb-46fc-ba69-4fa8272d4810"},"vehicle_type_id":"4","last_reported":1749618775,"current_range_meters":9200,"station_id":"","pricing_plan_id":"cebpf4jnsgd1na2vs0mg"},{"bike_id":"247bf4d1-ea2b-4e09-b584-ac3f9a91ae37","system_id":"levelo_inurba_marseille","lat":43.30807,"lon":5.435282,"is_reserved":false,"is_disabled":false,"rental_uris":{"android":"levelo://app?vid=247bf4d1-ea2b-4e09-b584-ac3f9a91ae37","ios":"levelo://app?vid=247bf4d1-ea2b-4e09-b584-ac3f9a91ae37"},"vehicle_type_id":"4","last_reported":1749618775,"current_range_meters":9200,"station_id":"ce4bhph2rcd13ifvqheg","pricing_plan_id":"cebpf4jnsgd1na2vs0mg"},{"bike_id":"86a6f41b-d810-4a57-be75-5851f58e18c7","system_id":"levelo_inurba_marseille","lat":43.29009,"lon":5.35604,"is_reserved":false,"is_disabled":false,"rental_uris":{"android":"levelo://app?vid=86a6f41b-d810-4a57-be75-5851f58e18c7","ios":"levelo://app?vid=86a6f41b-d810-4a57-be75-5851f58e18c7"},"vehicle_type_id":"4","last_reported":1749618775,"current_range_meters":8800,"station_id":"ce4bhb92rcd13ifvqen0","pricing_plan_id":"cebpf4jnsgd1na2vs0mg"},{"bike_id":"9a6e0bfd-8a08-48d8-8290-696a41db3865","system_id":"levelo_inurba_marseille","lat":43.28424,"lon":5.37542,"is_reserved":false,"is_disabled":false,"rental_uris":{"android":"levelo://app?vid=9a6e0bfd-8a08-48d8-8290-696a41db3865","ios":"levelo://app?vid=9a6e0bfd-8a08-48d8-8290-696a41db3865"},"vehicle_type_id":"4","last_reported":1749618775,"current_range_meters":9200,"station_id":"ce4bh412rcd13ifvqds0","pricing_plan_id":"cebpf4jnsgd1na2vs0mg"},{"bike_id":"2fb82a4e-0ee1-4839-87e1-0819fb18ed3d","system_id":"levelo_inurba_marseille","lat":43.27062,"lon":5.42273,"is_reserved":false,"is_disabled":true,"rental_uris":{"android":"levelo://app?vid=2fb82a4e-0ee1-4839-87e1-0819fb18ed3d","ios":"levelo://app?vid=2fb82a4e-0ee1-4839-87e1-0819fb18ed3d"},"vehicle_type_id":"4","last_reported":1749618775,"current_range_meters":9200,"station_id":"ce4bhk92rcd13ifvqgb0","pricing_plan_id":"cebpf4jnsgd1na2vs0mg"},{"bike_id":"5a8aebc1-4b9f-40cd-af06-b2c2750a7146","system_id":"levelo_inurba_marseille","lat":43.31751,"lon":5.39028,"is_reserved":false,"is_disabled":false,"rental_uris":{"android":"levelo://app?vid=5a8aebc1-4b9f-40cd-af06-b2c2750a7146","ios":"levelo://app?vid=5a8aebc1-4b9f-40cd-af06-b2c2750a7146"},"vehicle_type_id":"4","last_reported":1749618775,"current_range_meters":9200,"station_id":"ce4bhqp2rcd13ifvqhng","pricing_plan_id":"cebpf4jnsgd1na2vs0mg"},{"bike_id":"ea3aa8cc-3da5-4c9f-b785-438f25aae8ad","system_id":"levelo_inurba_marseille","lat":43.3094,"lon":5.40149,"is_reserved":false,"is_disabled":false,"rental_uris":{"android":"levelo://app?vid=ea3aa8cc-3da5-4c9f-b785-438f25aae8ad","ios":"levelo://app?vid=ea3aa8cc-3da5-4c9f-b785-438f25aae8ad"},"vehicle_type_id":"4","last_reported":1749618775,"current_range_meters":9600,"station_id":"ce4bgvp2rcd13ifvqct0","pricing_plan_id":"cebpf4jnsgd1na2vs0mg"},{"bike_id":"c12a43dd-d6f2-41de-a6c5-03c32c4840c8","system_id":"levelo_inurba_marseille","lat":43.30157,"lon":5.38092,"is_reserved":false,"is_disabled":false,"rental_uris":{"android":"levelo://app?vid=c12a43dd-d6f2-41de-a6c5-03c32c4840c8","ios":"levelo://app?vid=c12a43dd-d6f2-41de-a6c5-03c32c4840c8"},"vehicle_type_id":"4","last_reported":1749618775,"current_range_meters":9600,"station_id":"ce4bgjp2rcd13ifvqbh0","pricing_plan_id":"cebpf4jnsgd1na2vs0mg"},{"bike_id":"29453fc9-b720-4b8b-b038-78f17aac8faf","system_id":"levelo_inurba_marseille","lat":43.27059,"lon":5.402658,"is_reserved":false,"is_disabled":true,"rental_uris":{"android":"levelo://app?vid=29453fc9-b720-4b8b-b038-78f17aac8faf","ios":"levelo://app?vid=29453fc9-b720-4b8b-b038-78f17aac8faf"},"vehicle_type_id":"4","last_reported":1749618775,"current_range_meters":9600,"station_id":"ce4bhk92rcd13ifvqgc0","pricing_plan_id":"cebpf4jnsgd1na2vs0mg"},{"bike_id":"ca27e12a-1f2d-4cf2-be29-12a2b9ff1547","system_id":"levelo_inurba_marseille","lat":43.317142,"lon":5.424046,"is_reserved":false,"is_disabled":false,"rental_uris":{"android":"levelo://app?vid=ca27e12a-1f2d-4cf2-be29-12a2b9ff1547","ios":"levelo://app?vid=ca27e12a-1f2d-4cf2-be29-12a2b9ff1547"},"vehicle_type_id":"4","last_reported":1749618775,"current_range_meters":9600,"station_id":"ce4bhp92rcd13ifvqhbg","pricing_plan_id":"cebpf4jnsgd1na2vs0mg"},{"bike_id":"357ba489-6fde-4265-a087-406fcaeb1fac","system_id":"levelo_inurba_marseille","lat":43.29278,"lon":5.40123,"is_reserved":false,"is_disabled":false,"rental_uris":{"android":"levelo://app?vid=357ba489-6fde-4265-a087-406fcaeb1fac","ios":"levelo://app?vid=357ba489-6fde-4265-a087-406fcaeb1fac"},"vehicle_type_id":"4","last_reported":1749618775,"current_range_meters":10000,"station_id":"ce4bh312rcd13ifvqdk0","pricing_plan_id":"cebpf4jnsgd1na2vs0mg"},{"bike_id":"092dcad3-5c24-489f-9804-9bda75f06bc8","system_id":"levelo_inurba_marseille","lat":43.30929,"lon":5.40136,"is_reserved":false,"is_disabled":false,"rental_uris":{"android":"levelo://app?vid=092dcad3-5c24-489f-9804-9bda75f06bc8","ios":"levelo://app?vid=092dcad3-5c24-489f-9804-9bda75f06bc8"},"vehicle_type_id":"4","last_reported":1749618775,"current_range_meters":10000,"station_id":"ce4bgvp2rcd13ifvqct0","pricing_plan_id":"cebpf4jnsgd1na2vs0mg"},{"bike_id":"f840516d-f17b-447e-b7c7-a1e81a892e00","system_id":"levelo_inurba_marseille","lat":43.309221,"lon":5.40159,"is_reserved":false,"is_disabled":false,"rental_uris":{"android":"levelo://app?vid=f840516d-f17b-447e-b7c7-a1e81a892e00","ios":"levelo://app?vid=f840516d-f17b-447e-b7c7-a1e81a892e00"},"vehicle_type_id":"4","last_reported":1749618775,"current_range_meters":10000,"station_id":"ce4bgvp2rcd13ifvqct0","pricing_plan_id":"cebpf4jnsgd1na2vs0mg"},{"bike_id":"4e58bfc6-5a7c-406a-ab51-d831d6cc8676","system_id":"levelo_inurba_marseille","lat":43.33024,"lon":5.39059,"is_reserved":false,"is_disabled":true,"rental_uris":{"android":"levelo://app?vid=4e58bfc6-5a7c-406a-ab51-d831d6cc8676","ios":"levelo://app?vid=4e58bfc6-5a7c-406a-ab51-d831d6cc8676"},"vehicle_type_id":"4","last_reported":1749618775,"current_range_meters":10000,"station_id":"ce4bhr92rcd13ifvqhrg","pricing_plan_id":"cebpf4jnsgd1na2vs0mg"},{"bike_id":"f1fb07d1-58fc-4a98-8566-d35611570f9f","system_id":"levelo_inurba_marseille","lat":43.31083,"lon":5.38373,"is_reserved":false,"is_disabled":false,"rental_uris":{"android":"levelo://app?vid=f1fb07d1-58fc-4a98-8566-d35611570f9f","ios":"levelo://app?vid=f1fb07d1-58fc-4a98-8566-d35611570f9f"},"vehicle_type_id":"4","last_reported":1749618775,"current_range_meters":10000,"station_id":"ce4bgv92rcd13ifvqcr0","pricing_plan_id":"cebpf4jnsgd1na2vs0mg"},{"bike_id":"ab5d796b-6f87-4b6e-a5bd-6ac051fcacd1","system_id":"levelo_inurba_marseille","lat":43.324802,"lon":5.365721,"is_reserved":false,"is_disabled":false,"rental_uris":{"android":"levelo://app?vid=ab5d796b-6f87-4b6e-a5bd-6ac051fcacd1","ios":"levelo://app?vid=ab5d796b-6f87-4b6e-a5bd-6ac051fcacd1"},"vehicle_type_id":"4","last_reported":1749618775,"current_range_meters":10000,"station_id":"ce4bhs12rcd13ifvqhvg","pricing_plan_id":"cebpf4jnsgd1na2vs0mg"},{"bike_id":"187b0a7b-e256-4c19-9794-bb250a6c5653","system_id":"levelo_inurba_marseille","lat":43.318473,"lon":5.3795,"is_reserved":false,"is_disabled":false,"rental_uris":{"android":"levelo://app?vid=187b0a7b-e256-4c19-9794-bb250a6c5653","ios":"levelo://app?vid=187b0a7b-e256-4c19-9794-bb250a6c5653"},"vehicle_type_id":"4","last_reported":1749618775,"current_range_meters":10000,"station_id":"","pricing_plan_id":"cebpf4jnsgd1na2vs0mg"},{"bike_id":"15138ce4-9850-4a09-9eb2-0da12393d0d8","system_id":"levelo_inurba_marseille","lat":43.31726,"lon":5.43697,"is_reserved":false,"is_disabled":false,"rental_uris":{"android":"levelo://app?vid=15138ce4-9850-4a09-9eb2-0da12393d0d8","ios":"levelo://app?vid=15138ce4-9850-4a09-9eb2-0da12393d0d8"},"vehicle_type_id":"4","last_reported":1749618775,"current_range_meters":10000,"station_id":"ce4bhp92rcd13ifvqhcg","pricing_plan_id":"cebpf4jnsgd1na2vs0mg"},{"bike_id":"c30dbedc-c866-492b-a092-32c1ee0c1f22","system_id":"levelo_inurba_marseille","lat":43.29562,"lon":5.38552,"is_reserved":false,"is_disabled":true,"rental_uris":{"android":"levelo://app?vid=c30dbedc-c866-492b-a092-32c1ee0c1f22","ios":"levelo://app?vid=c30dbedc-c866-492b-a092-32c1ee0c1f22"},"vehicle_type_id":"4","last_reported":1749618775,"current_range_meters":10800,"station_id":"ce4bgih2rcd13ifvqba0","pricing_plan_id":"cebpf4jnsgd1na2vs0mg"},{"bike_id":"55b7171e-3eba-4412-b568-99c2bd3afd38","system_id":"levelo_inurba_marseille","lat":43.31882,"lon":5.40672,"is_reserved":false,"is_disabled":true,"rental_uris":{"android":"levelo://app?vid=55b7171e-3eba-4412-b568-99c2bd3afd38","ios":"levelo://app?vid=55b7171e-3eba-4412-b568-99c2bd3afd38"},"vehicle_type_id":"4","last_reported":1749618775,"current_range_meters":10800,"station_id":"ce4bhq12rcd13ifvqhig","pricing_plan_id":"cebpf4jnsgd1na2vs0mg"},{"bike_id":"e03aca03-3da7-4097-86c4-2654658a4249","system_id":"levelo_inurba_marseille","lat":43.30161,"lon":5.38076,"is_reserved":false,"is_disabled":false,"rental_uris":{"android":"levelo://app?vid=e03aca03-3da7-4097-86c4-2654658a4249","ios":"levelo://app?vid=e03aca03-3da7-4097-86c4-2654658a4249"},"vehicle_type_id":"4","last_reported":1749618775,"current_range_meters":10800,"station_id":"ce4bgjp2rcd13ifvqbh0","pricing_plan_id":"cebpf4jnsgd1na2vs0mg"},{"bike_id":"3ee6165b-b2c0-4036-a331-ec913cfc06b4","system_id":"levelo_inurba_marseille","lat":43.27917,"lon":5.37975,"is_reserved":false,"is_disabled":false,"rental_uris":{"android":"levelo://app?vid=3ee6165b-b2c0-4036-a331-ec913cfc06b4","ios":"levelo://app?vid=3ee6165b-b2c0-4036-a331-ec913cfc06b4"},"vehicle_type_id":"4","last_reported":1749618775,"current_range_meters":10800,"station_id":"ce4bhf92rcd13ifvqf50","pricing_plan_id":"cebpf4jnsgd1na2vs0mg"},{"bike_id":"1e20f032-0f6a-40b2-ad29-e4d2225496fa","system_id":"levelo_inurba_marseille","lat":43.302894,"lon":5.37062,"is_reserved":false,"is_disabled":false,"rental_uris":{"android":"levelo://app?vid=1e20f032-0f6a-40b2-ad29-e4d2225496fa","ios":"levelo://app?vid=1e20f032-0f6a-40b2-ad29-e4d2225496fa"},"vehicle_type_id":"4","last_reported":1749618775,"current_range_meters":10800,"station_id":"","pricing_plan_id":"cebpf4jnsgd1na2vs0mg"},{"bike_id":"70a1f7d6-d4e4-425e-8558-e073cabd3caf","system_id":"levelo_inurba_marseille","lat":43.302536,"lon":5.400544,"is_reserved":false,"is_disabled":false,"rental_uris":{"android":"levelo://app?vid=70a1f7d6-d4e4-425e-8558-e073cabd3caf","ios":"levelo://app?vid=70a1f7d6-d4e4-425e-8558-e073cabd3caf"},"vehicle_type_id":"4","last_reported":1749618775,"current_range_meters":10800,"station_id":"ce4bgvh2rcd13ifvqcs0","pricing_plan_id":"cebpf4jnsgd1na2vs0mg"},{"bike_id":"e588da8c-2074-46ad-8d03-e87d632aa618","system_id":"levelo_inurba_marseille","lat":43.29278,"lon":5.40117,"is_reserved":false,"is_disabled":false,"rental_uris":{"android":"levelo://app?vid=e588da8c-2074-46ad-8d03-e87d632aa618","ios":"levelo://app?vid=e588da8c-2074-46ad-8d03-e87d632aa618"},"vehicle_type_id":"4","last_reported":1749618775,"current_range_meters":10800,"station_id":"ce4bh312rcd13ifvqdk0","pricing_plan_id":"cebpf4jnsgd1na2vs0mg"},{"bike_id":"deffc81e-6587-424c-836b-c268a30049d8","system_id":"levelo_inurba_marseille","lat":43.29981,"lon":5.40072,"is_reserved":false,"is_disabled":false,"rental_uris":{"android":"levelo://app?vid=deffc81e-6587-424c-836b-c268a30049d8","ios":"levelo://app?vid=deffc81e-6587-424c-836b-c268a30049d8"},"vehicle_type_id":"4","last_reported":1749618775,"current_range_meters":10800,"station_id":"","pricing_plan_id":"cebpf4jnsgd1na2vs0mg"},{"bike_id":"7cb0b543-9cbd-4b05-9c7c-5ac5db7c6b78","system_id":"levelo_inurba_marseille","lat":43.306532,"lon":5.400929,"is_reserved":false,"is_disabled":false,"rental_uris":{"android":"levelo://app?vid=7cb0b543-9cbd-4b05-9c7c-5ac5db7c6b78","ios":"levelo://app?vid=7cb0b543-9cbd-4b05-9c7c-5ac5db7c6b78"},"vehicle_type_id":"4","last_reported":1749618775,"current_range_meters":10800,"station_id":"ce4bh112rcd13ifvqda0","pricing_plan_id":"cebpf4jnsgd1na2vs0mg"},{"bike_id":"6181a8f6-1227-49a1-9beb-bb1c37c1ae5c","system_id":"levelo_inurba_marseille","lat":43.28015,"lon":5.41686,"is_reserved":false,"is_disabled":true,"rental_uris":{"android":"levelo://app?vid=6181a8f6-1227-49a1-9beb-bb1c37c1ae5c","ios":"levelo://app?vid=6181a8f6-1227-49a1-9beb-bb1c37c1ae5c"},"vehicle_type_id":"4","last_reported":1749618775,"current_range_meters":11200,"station_id":"ce4bho12rcd13ifvqh1g","pricing_plan_id":"cebpf4jnsgd1na2vs0mg"},{"bike_id":"09fc93df-1b5b-4565-bebf-a33c16f5f13b","system_id":"levelo_inurba_marseille","lat":43.3317,"lon":5.38191,"is_reserved":false,"is_disabled":false,"rental_uris":{"android":"levelo://app?vid=09fc93df-1b5b-4565-bebf-a33c16f5f13b","ios":"levelo://app?vid=09fc93df-1b5b-4565-bebf-a33c16f5f13b"},"vehicle_type_id":"4","last_reported":1749618775,"current_range_meters":11200,"station_id":"","pricing_plan_id":"cebpf4jnsgd1na2vs0mg"},{"bike_id":"236e422e-563d-45a9-89dd-b134d86f6f50","system_id":"levelo_inurba_marseille","lat":43.29239,"lon":5.39611,"is_reserved":false,"is_disabled":false,"rental_uris":{"android":"levelo://app?vid=236e422e-563d-45a9-89dd-b134d86f6f50","ios":"levelo://app?vid=236e422e-563d-45a9-89dd-b134d86f6f50"},"vehicle_type_id":"4","last_reported":1749618775,"current_range_meters":11200,"station_id":"","pricing_plan_id":"cebpf4jnsgd1na2vs0mg"},{"bike_id":"3c50889a-9a6c-4af0-a722-9cf082f51ee6","system_id":"levelo_inurba_marseille","lat":43.312713,"lon":5.401645,"is_reserved":false,"is_disabled":false,"rental_uris":{"android":"levelo://app?vid=3c50889a-9a6c-4af0-a722-9cf082f51ee6","ios":"levelo://app?vid=3c50889a-9a6c-4af0-a722-9cf082f51ee6"},"vehicle_type_id":"4","last_reported":1749618775,"current_range_meters":11200,"station_id":"ce4bh092rcd13ifvqd30","pricing_plan_id":"cebpf4jnsgd1na2vs0mg"},{"bike_id":"5cede98f-b8f7-4349-88d6-3ef62b7fcf9e","system_id":"levelo_inurba_marseille","lat":43.27954,"lon":5.41029,"is_reserved":false,"is_disabled":false,"rental_uris":{"android":"levelo://app?vid=5cede98f-b8f7-4349-88d6-3ef62b7fcf9e","ios":"levelo://app?vid=5cede98f-b8f7-4349-88d6-3ef62b7fcf9e"},"vehicle_type_id":"4","last_reported":1749618775,"current_range_meters":11200,"station_id":"ce4bhnp2rcd13ifvqh0g","pricing_plan_id":"cebpf4jnsgd1na2vs0mg"},{"bike_id":"2909fdf1-5de0-4015-965c-4039eac7212a","system_id":"levelo_inurba_marseille","lat":43.31701,"lon":5.40448,"is_reserved":false,"is_disabled":false,"rental_uris":{"android":"levelo://app?vid=2909fdf1-5de0-4015-965c-4039eac7212a","ios":"levelo://app?vid=2909fdf1-5de0-4015-965c-4039eac7212a"},"vehicle_type_id":"4","last_reported":1749618775,"current_range_meters":11600,"station_id":"ce4bh012rcd13ifvqd00","pricing_plan_id":"cebpf4jnsgd1na2vs0mg"},{"bike_id":"ea3db42c-1bc7-40c9-b609-3062125a4bac","system_id":"levelo_inurba_marseille","lat":43.30803,"lon":5.43533,"is_reserved":false,"is_disabled":false,"rental_uris":{"android":"levelo://app?vid=ea3db42c-1bc7-40c9-b609-3062125a4bac","ios":"levelo://app?vid=ea3db42c-1bc7-40c9-b609-3062125a4bac"},"vehicle_type_id":"4","last_reported":1749618775,"current_range_meters":12000,"station_id":"ce4bhph2rcd13ifvqheg","pricing_plan_id":"cebpf4jnsgd1na2vs0mg"},{"bike_id":"0917dc07-1198-4902-b422-c5fc9e6fcca4","system_id":"levelo_inurba_marseille","lat":43.31325,"lon":5.39716,"is_reserved":false,"is_disabled":false,"rental_uris":{"android":"levelo://app?vid=0917dc07-1198-4902-b422-c5fc9e6fcca4","ios":"levelo://app?vid=0917dc07-1198-4902-b422-c5fc9e6fcca4"},"vehicle_type_id":"4","last_reported":1749618775,"current_range_meters":12000,"station_id":"ce4bgvp2rcd13ifvqcu0","pricing_plan_id":"cebpf4jnsgd1na2vs0mg"},{"bike_id":"e6d67648-0d34-4392-8e2c-f83f208c9d05","system_id":"levelo_inurba_marseille","lat":43.317019,"lon":5.404479,"is_reserved":false,"is_disabled":false,"rental_uris":{"android":"levelo://app?vid=e6d67648-0d34-4392-8e2c-f83f208c9d05","ios":"levelo://app?vid=e6d67648-0d34-4392-8e2c-f83f208c9d05"},"vehicle_type_id":"4","last_reported":1749618775,"current_range_meters":12000,"station_id":"ce4bh012rcd13ifvqd00","pricing_plan_id":"cebpf4jnsgd1na2vs0mg"},{"bike_id":"2fb77abd-3112-4fce-99a6-71b8052ec74f","system_id":"levelo_inurba_marseille","lat":43.27954,"lon":5.41031,"is_reserved":false,"is_disabled":false,"rental_uris":{"android":"levelo://app?vid=2fb77abd-3112-4fce-99a6-71b8052ec74f","ios":"levelo://app?vid=2fb77abd-3112-4fce-99a6-71b8052ec74f"},"vehicle_type_id":"4","last_reported":1749618775,"current_range_meters":12000,"station_id":"ce4bhnp2rcd13ifvqh0g","pricing_plan_id":"cebpf4jnsgd1na2vs0mg"},{"bike_id":"53a94670-e86d-41d7-97b1-7a71aac81e4c","system_id":"levelo_inurba_marseille","lat":43.30919,"lon":5.40149,"is_reserved":false,"is_disabled":false,"rental_uris":{"android":"levelo://app?vid=53a94670-e86d-41d7-97b1-7a71aac81e4c","ios":"levelo://app?vid=53a94670-e86d-41d7-97b1-7a71aac81e4c"},"vehicle_type_id":"4","last_reported":1749618775,"current_range_meters":12000,"station_id":"ce4bgvp2rcd13ifvqct0","pricing_plan_id":"cebpf4jnsgd1na2vs0mg"},{"bike_id":"fd1d14a0-1a3e-4eb9-b19e-044738f5d1c3","system_id":"levelo_inurba_marseille","lat":43.28994,"lon":5.35607,"is_reserved":false,"is_disabled":true,"rental_uris":{"android":"levelo://app?vid=fd1d14a0-1a3e-4eb9-b19e-044738f5d1c3","ios":"levelo://app?vid=fd1d14a0-1a3e-4eb9-b19e-044738f5d1c3"},"vehicle_type_id":"4","last_reported":1749618775,"current_range_meters":12000,"station_id":"ce4bhb92rcd13ifvqen0","pricing_plan_id":"cebpf4jnsgd1na2vs0mg"},{"bike_id":"50490822-204a-4b19-9af8-0374c540b273","system_id":"levelo_inurba_marseille","lat":43.30895,"lon":5.37193,"is_reserved":false,"is_disabled":false,"rental_uris":{"android":"levelo://app?vid=50490822-204a-4b19-9af8-0374c540b273","ios":"levelo://app?vid=50490822-204a-4b19-9af8-0374c540b273"},"vehicle_type_id":"4","last_reported":1749618775,"current_range_meters":12000,"station_id":"","pricing_plan_id":"cebpf4jnsgd1na2vs0mg"},{"bike_id":"e6adfd8c-872e-4689-984e-b1a178abae5c","system_id":"levelo_inurba_marseille","lat":43.22954,"lon":5.3536,"is_reserved":false,"is_disabled":false,"rental_uris":{"android":"levelo://app?vid=e6adfd8c-872e-4689-984e-b1a178abae5c","ios":"levelo://app?vid=e6adfd8c-872e-4689-984e-b1a178abae5c"},"vehicle_type_id":"4","last_reported":1749618775,"current_range_meters":12000,"station_id":"cpo3532slgdg3j2ikp40","pricing_plan_id":"cebpf4jnsgd1na2vs0mg"},{"bike_id":"f3b2bcba-9f25-405a-9faf-a74cc0e081ba","system_id":"levelo_inurba_marseille","lat":43.29249,"lon":5.409,"is_reserved":false,"is_disabled":false,"rental_uris":{"android":"levelo://app?vid=f3b2bcba-9f25-405a-9faf-a74cc0e081ba","ios":"levelo://app?vid=f3b2bcba-9f25-405a-9faf-a74cc0e081ba"},"vehicle_type_id":"4","last_reported":1749618775,"current_range_meters":11600,"station_id":"ce4bh192rcd13ifvqdc0","pricing_plan_id":"cebpf4jnsgd1na2vs0mg"},{"bike_id":"262903a9-22b9-4b2d-96c2-2e5dbd155090","system_id":"levelo_inurba_marseille","lat":43.32488,"lon":5.36553,"is_reserved":false,"is_disabled":false,"rental_uris":{"android":"levelo://app?vid=262903a9-22b9-4b2d-96c2-2e5dbd155090","ios":"levelo://app?vid=262903a9-22b9-4b2d-96c2-2e5dbd155090"},"vehicle_type_id":"4","last_reported":1749618775,"current_range_meters":12400,"station_id":"ce4bhs12rcd13ifvqhvg","pricing_plan_id":"cebpf4jnsgd1na2vs0mg"},{"bike_id":"77f6f3b8-304d-45f4-909b-fe68944bc597","system_id":"levelo_inurba_marseille","lat":43.31716,"lon":5.40462,"is_reserved":false,"is_disabled":false,"rental_uris":{"android":"levelo://app?vid=77f6f3b8-304d-45f4-909b-fe68944bc597","ios":"levelo://app?vid=77f6f3b8-304d-45f4-909b-fe68944bc597"},"vehicle_type_id":"4","last_reported":1749618775,"current_range_meters":12400,"station_id":"ce4bh012rcd13ifvqd00","pricing_plan_id":"cebpf4jnsgd1na2vs0mg"},{"bike_id":"84f5a926-1dd6-4535-b647-2764ce0ca103","system_id":"levelo_inurba_marseille","lat":43.321105,"lon":5.367799,"is_reserved":false,"is_disabled":false,"rental_uris":{"android":"levelo://app?vid=84f5a926-1dd6-4535-b647-2764ce0ca103","ios":"levelo://app?vid=84f5a926-1dd6-4535-b647-2764ce0ca103"},"vehicle_type_id":"4","last_reported":1749618775,"current_range_meters":12400,"station_id":"ce4bhrh2rcd13ifvqhug","pricing_plan_id":"cebpf4jnsgd1na2vs0mg"},{"bike_id":"c4ac7a5c-c960-4c83-b776-b8ff573e7853","system_id":"levelo_inurba_marseille","lat":43.30374,"lon":5.4248,"is_reserved":false,"is_disabled":false,"rental_uris":{"android":"levelo://app?vid=c4ac7a5c-c960-4c83-b776-b8ff573e7853","ios":"levelo://app?vid=c4ac7a5c-c960-4c83-b776-b8ff573e7853"},"vehicle_type_id":"4","last_reported":1749618775,"current_range_meters":12400,"station_id":"ce4bhoh2rcd13ifvqh6g","pricing_plan_id":"cebpf4jnsgd1na2vs0mg"},{"bike_id":"4c1d17d4-327b-412a-b5fe-13fda86712c4","system_id":"levelo_inurba_marseille","lat":43.27507,"lon":5.42518,"is_reserved":false,"is_disabled":false,"rental_uris":{"android":"levelo://app?vid=4c1d17d4-327b-412a-b5fe-13fda86712c4","ios":"levelo://app?vid=4c1d17d4-327b-412a-b5fe-13fda86712c4"},"vehicle_type_id":"4","last_reported":1749618775,"current_range_meters":12400,"station_id":"ce4bhn92rcd13ifvqgrg","pricing_plan_id":"cebpf4jnsgd1na2vs0mg"},{"bike_id":"72a94b25-2fe0-4919-8521-e8b66695aa46","system_id":"levelo_inurba_marseille","lat":43.286987,"lon":5.399945,"is_reserved":false,"is_disabled":false,"rental_uris":{"android":"levelo://app?vid=72a94b25-2fe0-4919-8521-e8b66695aa46","ios":"levelo://app?vid=72a94b25-2fe0-4919-8521-e8b66695aa46"},"vehicle_type_id":"4","last_reported":1749618775,"current_range_meters":12800,"station_id":"","pricing_plan_id":"cebpf4jnsgd1na2vs0mg"},{"bike_id":"e857b26f-e98d-4e5b-a472-9489934cc3bc","system_id":"levelo_inurba_marseille","lat":43.30935,"lon":5.40168,"is_reserved":false,"is_disabled":true,"rental_uris":{"android":"levelo://app?vid=e857b26f-e98d-4e5b-a472-9489934cc3bc","ios":"levelo://app?vid=e857b26f-e98d-4e5b-a472-9489934cc3bc"},"vehicle_type_id":"4","last_reported":1749618775,"current_range_meters":12800,"station_id":"ce4bgvp2rcd13ifvqct0","pricing_plan_id":"cebpf4jnsgd1na2vs0mg"},{"bike_id":"53ad8fa1-d150-4303-9608-ed288946d58c","system_id":"levelo_inurba_marseille","lat":43.313192,"lon":5.396974,"is_reserved":false,"is_disabled":false,"rental_uris":{"android":"levelo://app?vid=53ad8fa1-d150-4303-9608-ed288946d58c","ios":"levelo://app?vid=53ad8fa1-d150-4303-9608-ed288946d58c"},"vehicle_type_id":"4","last_reported":1749618775,"current_range_meters":12800,"station_id":"ce4bgvp2rcd13ifvqcu0","pricing_plan_id":"cebpf4jnsgd1na2vs0mg"},{"bike_id":"4d547f95-647f-41ae-aea4-9963a80c49f0","system_id":"levelo_inurba_marseille","lat":43.28143,"lon":5.4266,"is_reserved":false,"is_disabled":false,"rental_uris":{"android":"levelo://app?vid=4d547f95-647f-41ae-aea4-9963a80c49f0","ios":"levelo://app?vid=4d547f95-647f-41ae-aea4-9963a80c49f0"},"vehicle_type_id":"4","last_reported":1749618775,"current_range_meters":12800,"station_id":"ce4bhnh2rcd13ifvqgug","pricing_plan_id":"cebpf4jnsgd1na2vs0mg"},{"bike_id":"abac1aef-dbbd-4e20-b5da-a2236e654af5","system_id":"levelo_inurba_marseille","lat":43.26953,"lon":5.4025,"is_reserved":false,"is_disabled":false,"rental_uris":{"android":"levelo://app?vid=abac1aef-dbbd-4e20-b5da-a2236e654af5","ios":"levelo://app?vid=abac1aef-dbbd-4e20-b5da-a2236e654af5"},"vehicle_type_id":"4","last_reported":1749618775,"current_range_meters":12800,"station_id":"cjm6bp8fraef2m0cb0m0","pricing_plan_id":"cebpf4jnsgd1na2vs0mg"},{"bike_id":"c43fe918-bbce-4c81-b905-f4ca5ca72e1a","system_id":"levelo_inurba_marseille","lat":43.310709,"lon":5.383478,"is_reserved":false,"is_disabled":false,"rental_uris":{"android":"levelo://app?vid=c43fe918-bbce-4c81-b905-f4ca5ca72e1a","ios":"levelo://app?vid=c43fe918-bbce-4c81-b905-f4ca5ca72e1a"},"vehicle_type_id":"4","last_reported":1749618775,"current_range_meters":12800,"station_id":"ce4bgv92rcd13ifvqcr0","pricing_plan_id":"cebpf4jnsgd1na2vs0mg"},{"bike_id":"3ab83fea-df80-4413-887f-96261459d77c","system_id":"levelo_inurba_marseille","lat":43.30894,"lon":5.39652,"is_reserved":false,"is_disabled":false,"rental_uris":{"android":"levelo://app?vid=3ab83fea-df80-4413-887f-96261459d77c","ios":"levelo://app?vid=3ab83fea-df80-4413-887f-96261459d77c"},"vehicle_type_id":"4","last_reported":1749618775,"current_range_meters":13600,"station_id":"ce4bh012rcd13ifvqcv0","pricing_plan_id":"cebpf4jnsgd1na2vs0mg"},{"bike_id":"459ca737-6f77-471f-8093-5a88355f5584","system_id":"levelo_inurba_marseille","lat":43.27508,"lon":5.4249,"is_reserved":false,"is_disabled":false,"rental_uris":{"android":"levelo://app?vid=459ca737-6f77-471f-8093-5a88355f5584","ios":"levelo://app?vid=459ca737-6f77-471f-8093-5a88355f5584"},"vehicle_type_id":"4","last_reported":1749618775,"current_range_meters":13600,"station_id":"ce4bhn92rcd13ifvqgrg","pricing_plan_id":"cebpf4jnsgd1na2vs0mg"},{"bike_id":"91252cb4-db98-4cff-ba49-0337a6eacf8f","system_id":"levelo_inurba_marseille","lat":43.319784,"lon":5.388011,"is_reserved":false,"is_disabled":false,"rental_uris":{"android":"levelo://app?vid=91252cb4-db98-4cff-ba49-0337a6eacf8f","ios":"levelo://app?vid=91252cb4-db98-4cff-ba49-0337a6eacf8f"},"vehicle_type_id":"4","last_reported":1749618775,"current_range_meters":13600,"station_id":"","pricing_plan_id":"cebpf4jnsgd1na2vs0mg"},{"bike_id":"a2652db9-6cfe-47a6-94f5-ea8f8860e9f9","system_id":"levelo_inurba_marseille","lat":43.28026,"lon":5.36959,"is_reserved":false,"is_disabled":false,"rental_uris":{"android":"levelo://app?vid=a2652db9-6cfe-47a6-94f5-ea8f8860e9f9","ios":"levelo://app?vid=a2652db9-6cfe-47a6-94f5-ea8f8860e9f9"},"vehicle_type_id":"4","last_reported":1749618775,"current_range_meters":13600,"station_id":"ce4bha12rcd13ifvqef0","pricing_plan_id":"cebpf4jnsgd1na2vs0mg"},{"bike_id":"51c791a7-9ff0-4c1f-ab28-bf7e9eafbec8","system_id":"levelo_inurba_marseille","lat":43.308837,"lon":5.396414,"is_reserved":false,"is_disabled":false,"rental_uris":{"android":"levelo://app?vid=51c791a7-9ff0-4c1f-ab28-bf7e9eafbec8","ios":"levelo://app?vid=51c791a7-9ff0-4c1f-ab28-bf7e9eafbec8"},"vehicle_type_id":"4","last_reported":1749618775,"current_range_meters":13600,"station_id":"ce4bh012rcd13ifvqcv0","pricing_plan_id":"cebpf4jnsgd1na2vs0mg"},{"bike_id":"b350c8e9-ed32-4415-aae6-ec1b9bd87516","system_id":"levelo_inurba_marseille","lat":43.28663,"lon":5.36352,"is_reserved":false,"is_disabled":false,"rental_uris":{"android":"levelo://app?vid=b350c8e9-ed32-4415-aae6-ec1b9bd87516","ios":"levelo://app?vid=b350c8e9-ed32-4415-aae6-ec1b9bd87516"},"vehicle_type_id":"4","last_reported":1749618775,"current_range_meters":14000,"station_id":"ce4bhah2rcd13ifvqej0","pricing_plan_id":"cebpf4jnsgd1na2vs0mg"},{"bike_id":"7130eafd-58ef-49e3-8296-da23b92ff172","system_id":"levelo_inurba_marseille","lat":43.246865,"lon":5.394231,"is_reserved":false,"is_disabled":true,"rental_uris":{"android":"levelo://app?vid=7130eafd-58ef-49e3-8296-da23b92ff172","ios":"levelo://app?vid=7130eafd-58ef-49e3-8296-da23b92ff172"},"vehicle_type_id":"4","last_reported":1749618775,"current_range_meters":14400,"station_id":"","pricing_plan_id":"cebpf4jnsgd1na2vs0mg"},{"bike_id":"4ac55865-de56-42ff-9c2f-27be692fc73d","system_id":"levelo_inurba_marseille","lat":43.27013,"lon":5.38753,"is_reserved":false,"is_disabled":false,"rental_uris":{"android":"levelo://app?vid=4ac55865-de56-42ff-9c2f-27be692fc73d","ios":"levelo://app?vid=4ac55865-de56-42ff-9c2f-27be692fc73d"},"vehicle_type_id":"4","last_reported":1749618775,"current_range_meters":14400,"station_id":"","pricing_plan_id":"cebpf4jnsgd1na2vs0mg"},{"bike_id":"4727b314-3bd1-43f9-b43d-76c9166f290d","system_id":"levelo_inurba_marseille","lat":43.32329,"lon":5.40626,"is_reserved":false,"is_disabled":false,"rental_uris":{"android":"levelo://app?vid=4727b314-3bd1-43f9-b43d-76c9166f290d","ios":"levelo://app?vid=4727b314-3bd1-43f9-b43d-76c9166f290d"},"vehicle_type_id":"4","last_reported":1749618775,"current_range_meters":14400,"station_id":"ce4bhq92rcd13ifvqhjg","pricing_plan_id":"cebpf4jnsgd1na2vs0mg"},{"bike_id":"514f3ce4-4675-4352-bc6b-a6afd14c005f","system_id":"levelo_inurba_marseille","lat":43.28362,"lon":5.38632,"is_reserved":false,"is_disabled":false,"rental_uris":{"android":"levelo://app?vid=514f3ce4-4675-4352-bc6b-a6afd14c005f","ios":"levelo://app?vid=514f3ce4-4675-4352-bc6b-a6afd14c005f"},"vehicle_type_id":"4","last_reported":1749618775,"current_range_meters":14400,"station_id":"ce4bh492rcd13ifvqdvg","pricing_plan_id":"cebpf4jnsgd1na2vs0mg"},{"bike_id":"c0059c6b-affa-4894-ad35-e029cf9a2a71","system_id":"levelo_inurba_marseille","lat":43.2756,"lon":5.38401,"is_reserved":false,"is_disabled":false,"rental_uris":{"android":"levelo://app?vid=c0059c6b-affa-4894-ad35-e029cf9a2a71","ios":"levelo://app?vid=c0059c6b-affa-4894-ad35-e029cf9a2a71"},"vehicle_type_id":"4","last_reported":1749618775,"current_range_meters":14400,"station_id":"ce4bhh92rcd13ifvqfi0","pricing_plan_id":"cebpf4jnsgd1na2vs0mg"},{"bike_id":"9562bfc4-497e-4a46-bbda-0273d157d83d","system_id":"levelo_inurba_marseille","lat":43.28362,"lon":5.38137,"is_reserved":false,"is_disabled":false,"rental_uris":{"android":"levelo://app?vid=9562bfc4-497e-4a46-bbda-0273d157d83d","ios":"levelo://app?vid=9562bfc4-497e-4a46-bbda-0273d157d83d"},"vehicle_type_id":"4","last_reported":1749618775,"current_range_meters":14400,"station_id":"ce4bh412rcd13ifvqdr0","pricing_plan_id":"cebpf4jnsgd1na2vs0mg"},{"bike_id":"aa9085db-88fc-49be-aad8-9551ff3c1877","system_id":"levelo_inurba_marseille","lat":43.279451,"lon":5.410442,"is_reserved":false,"is_disabled":false,"rental_uris":{"android":"levelo://app?vid=aa9085db-88fc-49be-aad8-9551ff3c1877","ios":"levelo://app?vid=aa9085db-88fc-49be-aad8-9551ff3c1877"},"vehicle_type_id":"4","last_reported":1749618775,"current_range_meters":14400,"station_id":"ce4bhnp2rcd13ifvqh0g","pricing_plan_id":"cebpf4jnsgd1na2vs0mg"},{"bike_id":"b9dce34d-aeb2-409b-9fbd-9266ac903aaa","system_id":"levelo_inurba_marseille","lat":43.28982,"lon":5.37829,"is_reserved":false,"is_disabled":true,"rental_uris":{"android":"levelo://app?vid=b9dce34d-aeb2-409b-9fbd-9266ac903aaa","ios":"levelo://app?vid=b9dce34d-aeb2-409b-9fbd-9266ac903aaa"},"vehicle_type_id":"4","last_reported":1749618775,"current_range_meters":14400,"station_id":"ce4bh9p2rcd13ifvqed0","pricing_plan_id":"cebpf4jnsgd1na2vs0mg"},{"bike_id":"1acfb620-cad7-48c0-8901-d7a5b74a5b65","system_id":"levelo_inurba_marseille","lat":43.33751,"lon":5.37456,"is_reserved":false,"is_disabled":false,"rental_uris":{"android":"levelo://app?vid=1acfb620-cad7-48c0-8901-d7a5b74a5b65","ios":"levelo://app?vid=1acfb620-cad7-48c0-8901-d7a5b74a5b65"},"vehicle_type_id":"4","last_reported":1749618775,"current_range_meters":14400,"station_id":"","pricing_plan_id":"cebpf4jnsgd1na2vs0mg"},{"bike_id":"65b4ff9e-3d90-4983-ac06-dc0994dce3e1","system_id":"levelo_inurba_marseille","lat":43.307919,"lon":5.435331,"is_reserved":false,"is_disabled":false,"rental_uris":{"android":"levelo://app?vid=65b4ff9e-3d90-4983-ac06-dc0994dce3e1","ios":"levelo://app?vid=65b4ff9e-3d90-4983-ac06-dc0994dce3e1"},"vehicle_type_id":"4","last_reported":1749618775,"current_range_meters":14800,"station_id":"ce4bhph2rcd13ifvqheg","pricing_plan_id":"cebpf4jnsgd1na2vs0mg"},{"bike_id":"8ff811ea-f688-4c56-8b61-1084846cf6c9","system_id":"levelo_inurba_marseille","lat":43.2835,"lon":5.38106,"is_reserved":false,"is_disabled":false,"rental_uris":{"android":"levelo://app?vid=8ff811ea-f688-4c56-8b61-1084846cf6c9","ios":"levelo://app?vid=8ff811ea-f688-4c56-8b61-1084846cf6c9"},"vehicle_type_id":"4","last_reported":1749618775,"current_range_meters":14800,"station_id":"ce4bh412rcd13ifvqdr0","pricing_plan_id":"cebpf4jnsgd1na2vs0mg"},{"bike_id":"4d885cf9-4fe8-45a8-b371-c6d832b00a4d","system_id":"levelo_inurba_marseille","lat":43.28935,"lon":5.38377,"is_reserved":false,"is_disabled":false,"rental_uris":{"android":"levelo://app?vid=4d885cf9-4fe8-45a8-b371-c6d832b00a4d","ios":"levelo://app?vid=4d885cf9-4fe8-45a8-b371-c6d832b00a4d"},"vehicle_type_id":"4","last_reported":1749618775,"current_range_meters":18000,"station_id":"ce4bh492rcd13ifvqdvg","pricing_plan_id":"cebpf4jnsgd1na2vs0mg"},{"bike_id":"ec9994e0-6b77-4d37-8bb0-1517c100633a","system_id":"levelo_inurba_marseille","lat":43.30942,"lon":5.40166,"is_reserved":false,"is_disabled":false,"rental_uris":{"android":"levelo://app?vid=ec9994e0-6b77-4d37-8bb0-1517c100633a","ios":"levelo://app?vid=ec9994e0-6b77-4d37-8bb0-1517c100633a"},"vehicle_type_id":"4","last_reported":1749618775,"current_range_meters":14800,"station_id":"ce4bgvp2rcd13ifvqct0","pricing_plan_id":"cebpf4jnsgd1na2vs0mg"},{"bike_id":"0c050ed5-a0c9-42a9-b23d-3c426fdc0025","system_id":"levelo_inurba_marseille","lat":43.24084,"lon":5.37774,"is_reserved":false,"is_disabled":false,"rental_uris":{"android":"levelo://app?vid=0c050ed5-a0c9-42a9-b23d-3c426fdc0025","ios":"levelo://app?vid=0c050ed5-a0c9-42a9-b23d-3c426fdc0025"},"vehicle_type_id":"4","last_reported":1749618775,"current_range_meters":15200,"station_id":"ce4bhnp2rcd13ifvqgvg","pricing_plan_id":"cebpf4jnsgd1na2vs0mg"},{"bike_id":"d32881a8-61b6-484c-ae48-7a9248de250a","system_id":"levelo_inurba_marseille","lat":43.281549,"lon":5.426405,"is_reserved":false,"is_disabled":false,"rental_uris":{"android":"levelo://app?vid=d32881a8-61b6-484c-ae48-7a9248de250a","ios":"levelo://app?vid=d32881a8-61b6-484c-ae48-7a9248de250a"},"vehicle_type_id":"4","last_reported":1749618775,"current_range_meters":15200,"station_id":"ce4bhnh2rcd13ifvqgug","pricing_plan_id":"cebpf4jnsgd1na2vs0mg"},{"bike_id":"1f42e774-0b65-4738-b3e3-0aae7ec0e65c","system_id":"levelo_inurba_marseille","lat":43.29583,"lon":5.37495,"is_reserved":false,"is_disabled":true,"rental_uris":{"android":"levelo://app?vid=1f42e774-0b65-4738-b3e3-0aae7ec0e65c","ios":"levelo://app?vid=1f42e774-0b65-4738-b3e3-0aae7ec0e65c"},"vehicle_type_id":"4","last_reported":1749618775,"current_range_meters":15200,"station_id":"ce4bgh92rcd13ifvqb50","pricing_plan_id":"cebpf4jnsgd1na2vs0mg"},{"bike_id":"e34169b4-cf78-483f-8b17-84117cba3e14","system_id":"levelo_inurba_marseille","lat":43.26832,"lon":5.40317,"is_reserved":false,"is_disabled":false,"rental_uris":{"android":"levelo://app?vid=e34169b4-cf78-483f-8b17-84117cba3e14","ios":"levelo://app?vid=e34169b4-cf78-483f-8b17-84117cba3e14"},"vehicle_type_id":"4","last_reported":1749618775,"current_range_meters":15200,"station_id":"ce501612rcd8frsf0b60","pricing_plan_id":"cebpf4jnsgd1na2vs0mg"},{"bike_id":"e591062d-e6af-42d6-b8c5-8323ee2cea64","system_id":"levelo_inurba_marseille","lat":43.317,"lon":5.40472,"is_reserved":false,"is_disabled":false,"rental_uris":{"android":"levelo://app?vid=e591062d-e6af-42d6-b8c5-8323ee2cea64","ios":"levelo://app?vid=e591062d-e6af-42d6-b8c5-8323ee2cea64"},"vehicle_type_id":"4","last_reported":1749618775,"current_range_meters":16000,"station_id":"ce4bh012rcd13ifvqd00","pricing_plan_id":"cebpf4jnsgd1na2vs0mg"},{"bike_id":"5fff7fbf-49f1-40cb-855e-fedb6332ede0","system_id":"levelo_inurba_marseille","lat":43.278267,"lon":5.39206,"is_reserved":false,"is_disabled":false,"rental_uris":{"android":"levelo://app?vid=5fff7fbf-49f1-40cb-855e-fedb6332ede0","ios":"levelo://app?vid=5fff7fbf-49f1-40cb-855e-fedb6332ede0"},"vehicle_type_id":"4","last_reported":1749618775,"current_range_meters":16000,"station_id":"ce4bhjp2rcd13ifvqga0","pricing_plan_id":"cebpf4jnsgd1na2vs0mg"},{"bike_id":"38f50f9a-b344-4f2f-8799-90ea853fdead","system_id":"levelo_inurba_marseille","lat":43.28447,"lon":5.39193,"is_reserved":false,"is_disabled":false,"rental_uris":{"android":"levelo://app?vid=38f50f9a-b344-4f2f-8799-90ea853fdead","ios":"levelo://app?vid=38f50f9a-b344-4f2f-8799-90ea853fdead"},"vehicle_type_id":"4","last_reported":1749618775,"current_range_meters":16000,"station_id":"ce4bhoh2rcd13ifvqh5g","pricing_plan_id":"cebpf4jnsgd1na2vs0mg"},{"bike_id":"d6515318-ac2c-47f0-b0e4-ac5ab2c5d151","system_id":"levelo_inurba_marseille","lat":43.24169,"lon":5.36388,"is_reserved":false,"is_disabled":false,"rental_uris":{"android":"levelo://app?vid=d6515318-ac2c-47f0-b0e4-ac5ab2c5d151","ios":"levelo://app?vid=d6515318-ac2c-47f0-b0e4-ac5ab2c5d151"},"vehicle_type_id":"4","last_reported":1749618775,"current_range_meters":16000,"station_id":"cpo36qri1sfpv3e86is0","pricing_plan_id":"cebpf4jnsgd1na2vs0mg"},{"bike_id":"0b0e2438-4263-43eb-819b-4dc7f21a29b4","system_id":"levelo_inurba_marseille","lat":43.30876,"lon":5.39638,"is_reserved":false,"is_disabled":false,"rental_uris":{"android":"levelo://app?vid=0b0e2438-4263-43eb-819b-4dc7f21a29b4","ios":"levelo://app?vid=0b0e2438-4263-43eb-819b-4dc7f21a29b4"},"vehicle_type_id":"4","last_reported":1749618775,"current_range_meters":16000,"station_id":"ce4bh012rcd13ifvqcv0","pricing_plan_id":"cebpf4jnsgd1na2vs0mg"},{"bike_id":"9231f021-d06e-4dc9-b555-e59bf1d45ecd","system_id":"levelo_inurba_marseille","lat":43.32119,"lon":5.36807,"is_reserved":false,"is_disabled":false,"rental_uris":{"android":"levelo://app?vid=9231f021-d06e-4dc9-b555-e59bf1d45ecd","ios":"levelo://app?vid=9231f021-d06e-4dc9-b555-e59bf1d45ecd"},"vehicle_type_id":"4","last_reported":1749618775,"current_range_meters":16000,"station_id":"ce4bhrh2rcd13ifvqhug","pricing_plan_id":"cebpf4jnsgd1na2vs0mg"},{"bike_id":"3a739672-c67e-4a21-a7cf-272409c07aa5","system_id":"levelo_inurba_marseille","lat":43.27596,"lon":5.38434,"is_reserved":false,"is_disabled":false,"rental_uris":{"android":"levelo://app?vid=3a739672-c67e-4a21-a7cf-272409c07aa5","ios":"levelo://app?vid=3a739672-c67e-4a21-a7cf-272409c07aa5"},"vehicle_type_id":"4","last_reported":1749618775,"current_range_meters":16000,"station_id":"ce4bhh92rcd13ifvqfi0","pricing_plan_id":"cebpf4jnsgd1na2vs0mg"},{"bike_id":"b918f339-a33d-489c-826a-8fffafca2d2e","system_id":"levelo_inurba_marseille","lat":43.3228,"lon":5.38827,"is_reserved":false,"is_disabled":false,"rental_uris":{"android":"levelo://app?vid=b918f339-a33d-489c-826a-8fffafca2d2e","ios":"levelo://app?vid=b918f339-a33d-489c-826a-8fffafca2d2e"},"vehicle_type_id":"4","last_reported":1749618775,"current_range_meters":16000,"station_id":"ce4bhqp2rcd13ifvqhog","pricing_plan_id":"cebpf4jnsgd1na2vs0mg"},{"bike_id":"af225b33-8362-4424-9216-f142b83b3fb0","system_id":"levelo_inurba_marseille","lat":43.30925,"lon":5.40152,"is_reserved":false,"is_disabled":false,"rental_uris":{"android":"levelo://app?vid=af225b33-8362-4424-9216-f142b83b3fb0","ios":"levelo://app?vid=af225b33-8362-4424-9216-f142b83b3fb0"},"vehicle_type_id":"4","last_reported":1749618775,"current_range_meters":16400,"station_id":"ce4bgvp2rcd13ifvqct0","pricing_plan_id":"cebpf4jnsgd1na2vs0mg"},{"bike_id":"813663ce-3733-4eb5-a4b1-4afc95a56122","system_id":"levelo_inurba_marseille","lat":43.28877,"lon":5.39342,"is_reserved":false,"is_disabled":false,"rental_uris":{"android":"levelo://app?vid=813663ce-3733-4eb5-a4b1-4afc95a56122","ios":"levelo://app?vid=813663ce-3733-4eb5-a4b1-4afc95a56122"},"vehicle_type_id":"4","last_reported":1749618775,"current_range_meters":16400,"station_id":"ce4bh2p2rcd13ifvqdi0","pricing_plan_id":"cebpf4jnsgd1na2vs0mg"},{"bike_id":"f35a7651-f30c-47cd-91f6-9220617a9209","system_id":"levelo_inurba_marseille","lat":43.27852,"lon":5.39188,"is_reserved":false,"is_disabled":false,"rental_uris":{"android":"levelo://app?vid=f35a7651-f30c-47cd-91f6-9220617a9209","ios":"levelo://app?vid=f35a7651-f30c-47cd-91f6-9220617a9209"},"vehicle_type_id":"4","last_reported":1749618775,"current_range_meters":16400,"station_id":"ce4bhjp2rcd13ifvqga0","pricing_plan_id":"cebpf4jnsgd1na2vs0mg"},{"bike_id":"03ff7327-9d80-465b-bc3e-d109526df4c5","system_id":"levelo_inurba_marseille","lat":43.26227,"lon":5.40446,"is_reserved":false,"is_disabled":false,"rental_uris":{"android":"levelo://app?vid=03ff7327-9d80-465b-bc3e-d109526df4c5","ios":"levelo://app?vid=03ff7327-9d80-465b-bc3e-d109526df4c5"},"vehicle_type_id":"4","last_reported":1749618775,"current_range_meters":16400,"station_id":"ce4bhmh2rcd13ifvqgmg","pricing_plan_id":"cebpf4jnsgd1na2vs0mg"},{"bike_id":"5a1d050c-2159-4454-9a9b-40cab73aa2fb","system_id":"levelo_inurba_marseille","lat":43.323386,"lon":5.406176,"is_reserved":false,"is_disabled":false,"rental_uris":{"android":"levelo://app?vid=5a1d050c-2159-4454-9a9b-40cab73aa2fb","ios":"levelo://app?vid=5a1d050c-2159-4454-9a9b-40cab73aa2fb"},"vehicle_type_id":"4","last_reported":1749618775,"current_range_meters":16400,"station_id":"ce4bhq92rcd13ifvqhjg","pricing_plan_id":"cebpf4jnsgd1na2vs0mg"},{"bike_id":"a172b0cf-62c4-4c52-a818-ce564350df02","system_id":"levelo_inurba_marseille","lat":43.21192,"lon":5.3508,"is_reserved":false,"is_disabled":false,"rental_uris":{"android":"levelo://app?vid=a172b0cf-62c4-4c52-a818-ce564350df02","ios":"levelo://app?vid=a172b0cf-62c4-4c52-a818-ce564350df02"},"vehicle_type_id":"4","last_reported":1749618775,"current_range_meters":16400,"station_id":"st_cvj6sg6p6f1abm77japg","pricing_plan_id":"cebpf4jnsgd1na2vs0mg"},{"bike_id":"314bac2c-e47f-46cd-afcd-53cd84a7d142","system_id":"levelo_inurba_marseille","lat":43.27602,"lon":5.36118,"is_reserved":false,"is_disabled":true,"rental_uris":{"android":"levelo://app?vid=314bac2c-e47f-46cd-afcd-53cd84a7d142","ios":"levelo://app?vid=314bac2c-e47f-46cd-afcd-53cd84a7d142"},"vehicle_type_id":"4","last_reported":1749618775,"current_range_meters":16400,"station_id":"ce4bgj92rcd13ifvqbe0","pricing_plan_id":"cebpf4jnsgd1na2vs0mg"},{"bike_id":"a2421370-e442-436f-a98a-844d44299694","system_id":"levelo_inurba_marseille","lat":43.3233,"lon":5.36599,"is_reserved":false,"is_disabled":false,"rental_uris":{"android":"levelo://app?vid=a2421370-e442-436f-a98a-844d44299694","ios":"levelo://app?vid=a2421370-e442-436f-a98a-844d44299694"},"vehicle_type_id":"4","last_reported":1749618775,"current_range_meters":16800,"station_id":"","pricing_plan_id":"cebpf4jnsgd1na2vs0mg"},{"bike_id":"7e465627-ff3e-415d-9b80-dbdfeed5492b","system_id":"levelo_inurba_marseille","lat":43.30896,"lon":5.39653,"is_reserved":false,"is_disabled":false,"rental_uris":{"android":"levelo://app?vid=7e465627-ff3e-415d-9b80-dbdfeed5492b","ios":"levelo://app?vid=7e465627-ff3e-415d-9b80-dbdfeed5492b"},"vehicle_type_id":"4","last_reported":1749618775,"current_range_meters":16800,"station_id":"ce4bh012rcd13ifvqcv0","pricing_plan_id":"cebpf4jnsgd1na2vs0mg"},{"bike_id":"f10adc7e-6a3a-4a5d-9515-dc52fefe2058","system_id":"levelo_inurba_marseille","lat":43.32348,"lon":5.36701,"is_reserved":false,"is_disabled":false,"rental_uris":{"android":"levelo://app?vid=f10adc7e-6a3a-4a5d-9515-dc52fefe2058","ios":"levelo://app?vid=f10adc7e-6a3a-4a5d-9515-dc52fefe2058"},"vehicle_type_id":"4","last_reported":1749618775,"current_range_meters":16800,"station_id":"ce4bhsh2rcd13ifvqi2g","pricing_plan_id":"cebpf4jnsgd1na2vs0mg"},{"bike_id":"e52167b8-b978-4996-b457-39e378d310f5","system_id":"levelo_inurba_marseille","lat":43.30402,"lon":5.38918,"is_reserved":false,"is_disabled":false,"rental_uris":{"android":"levelo://app?vid=e52167b8-b978-4996-b457-39e378d310f5","ios":"levelo://app?vid=e52167b8-b978-4996-b457-39e378d310f5"},"vehicle_type_id":"4","last_reported":1749618775,"current_range_meters":16800,"station_id":"ce4bgk12rcd13ifvqbi0","pricing_plan_id":"cebpf4jnsgd1na2vs0mg"},{"bike_id":"e5544675-2264-4872-bca5-7dfec0b1bf90","system_id":"levelo_inurba_marseille","lat":43.28712,"lon":5.39992,"is_reserved":false,"is_disabled":false,"rental_uris":{"android":"levelo://app?vid=e5544675-2264-4872-bca5-7dfec0b1bf90","ios":"levelo://app?vid=e5544675-2264-4872-bca5-7dfec0b1bf90"},"vehicle_type_id":"4","last_reported":1749618775,"current_range_meters":16800,"station_id":"ce4bho92rcd13ifvqh3g","pricing_plan_id":"cebpf4jnsgd1na2vs0mg"},{"bike_id":"65066ef9-1c39-47d6-b104-be1d784d3bad","system_id":"levelo_inurba_marseille","lat":43.26226,"lon":5.40446,"is_reserved":false,"is_disabled":false,"rental_uris":{"android":"levelo://app?vid=65066ef9-1c39-47d6-b104-be1d784d3bad","ios":"levelo://app?vid=65066ef9-1c39-47d6-b104-be1d784d3bad"},"vehicle_type_id":"4","last_reported":1749618775,"current_range_meters":17200,"station_id":"ce4bhmh2rcd13ifvqgmg","pricing_plan_id":"cebpf4jnsgd1na2vs0mg"},{"bike_id":"757cced2-69fc-4019-81bc-6eaad8e07fd7","system_id":"levelo_inurba_marseille","lat":43.23159,"lon":5.40072,"is_reserved":false,"is_disabled":false,"rental_uris":{"android":"levelo://app?vid=757cced2-69fc-4019-81bc-6eaad8e07fd7","ios":"levelo://app?vid=757cced2-69fc-4019-81bc-6eaad8e07fd7"},"vehicle_type_id":"4","last_reported":1749618775,"current_range_meters":17200,"station_id":"","pricing_plan_id":"cebpf4jnsgd1na2vs0mg"},{"bike_id":"645e0d47-935a-4360-99e6-6ef38dd101d1","system_id":"levelo_inurba_marseille","lat":43.280702,"lon":5.396418,"is_reserved":false,"is_disabled":false,"rental_uris":{"android":"levelo://app?vid=645e0d47-935a-4360-99e6-6ef38dd101d1","ios":"levelo://app?vid=645e0d47-935a-4360-99e6-6ef38dd101d1"},"vehicle_type_id":"4","last_reported":1749618775,"current_range_meters":17200,"station_id":"ce4bho12rcd13ifvqh2g","pricing_plan_id":"cebpf4jnsgd1na2vs0mg"},{"bike_id":"812e4842-d011-45eb-9f3e-65d6a7b1e1f0","system_id":"levelo_inurba_marseille","lat":43.30933,"lon":5.40133,"is_reserved":false,"is_disabled":false,"rental_uris":{"android":"levelo://app?vid=812e4842-d011-45eb-9f3e-65d6a7b1e1f0","ios":"levelo://app?vid=812e4842-d011-45eb-9f3e-65d6a7b1e1f0"},"vehicle_type_id":"4","last_reported":1749618775,"current_range_meters":17200,"station_id":"ce4bgvp2rcd13ifvqct0","pricing_plan_id":"cebpf4jnsgd1na2vs0mg"},{"bike_id":"ba74330e-e7e1-47b7-aac8-f61ede63b89c","system_id":"levelo_inurba_marseille","lat":43.28129,"lon":5.42626,"is_reserved":false,"is_disabled":false,"rental_uris":{"android":"levelo://app?vid=ba74330e-e7e1-47b7-aac8-f61ede63b89c","ios":"levelo://app?vid=ba74330e-e7e1-47b7-aac8-f61ede63b89c"},"vehicle_type_id":"4","last_reported":1749618775,"current_range_meters":17200,"station_id":"ce4bhnh2rcd13ifvqgug","pricing_plan_id":"cebpf4jnsgd1na2vs0mg"},{"bike_id":"0696a1f3-5695-4872-bc63-5287fed19034","system_id":"levelo_inurba_marseille","lat":43.29545,"lon":5.39037,"is_reserved":false,"is_disabled":true,"rental_uris":{"android":"levelo://app?vid=0696a1f3-5695-4872-bc63-5287fed19034","ios":"levelo://app?vid=0696a1f3-5695-4872-bc63-5287fed19034"},"vehicle_type_id":"4","last_reported":1749618775,"current_range_meters":17200,"station_id":"","pricing_plan_id":"cebpf4jnsgd1na2vs0mg"},{"bike_id":"d49963c9-4a74-4b7c-ae71-2e7f71f19deb","system_id":"levelo_inurba_marseille","lat":43.29588,"lon":5.36762,"is_reserved":false,"is_disabled":true,"rental_uris":{"android":"levelo://app?vid=d49963c9-4a74-4b7c-ae71-2e7f71f19deb","ios":"levelo://app?vid=d49963c9-4a74-4b7c-ae71-2e7f71f19deb"},"vehicle_type_id":"4","last_reported":1749618775,"current_range_meters":17600,"station_id":"ce4bgph2rcd13ifvqc2g","pricing_plan_id":"cebpf4jnsgd1na2vs0mg"},{"bike_id":"7d030959-b934-40a7-9c11-4e30c7be4879","system_id":"levelo_inurba_marseille","lat":43.313608,"lon":5.385063,"is_reserved":false,"is_disabled":false,"rental_uris":{"android":"levelo://app?vid=7d030959-b934-40a7-9c11-4e30c7be4879","ios":"levelo://app?vid=7d030959-b934-40a7-9c11-4e30c7be4879"},"vehicle_type_id":"4","last_reported":1749618775,"current_range_meters":17600,"station_id":"ce4bgt92rcd13ifvqcf0","pricing_plan_id":"cebpf4jnsgd1na2vs0mg"},{"bike_id":"fb6eccf4-9903-4008-ab3b-d3df46689d9a","system_id":"levelo_inurba_marseille","lat":43.2318,"lon":5.39989,"is_reserved":false,"is_disabled":false,"rental_uris":{"android":"levelo://app?vid=fb6eccf4-9903-4008-ab3b-d3df46689d9a","ios":"levelo://app?vid=fb6eccf4-9903-4008-ab3b-d3df46689d9a"},"vehicle_type_id":"4","last_reported":1749618775,"current_range_meters":17600,"station_id":"ce4bhn12rcd13ifvqgqg","pricing_plan_id":"cebpf4jnsgd1na2vs0mg"},{"bike_id":"04f107b7-020e-49a3-8513-6c594c244cad","system_id":"levelo_inurba_marseille","lat":43.31359,"lon":5.3849,"is_reserved":false,"is_disabled":false,"rental_uris":{"android":"levelo://app?vid=04f107b7-020e-49a3-8513-6c594c244cad","ios":"levelo://app?vid=04f107b7-020e-49a3-8513-6c594c244cad"},"vehicle_type_id":"4","last_reported":1749618775,"current_range_meters":17600,"station_id":"ce4bgt92rcd13ifvqcf0","pricing_plan_id":"cebpf4jnsgd1na2vs0mg"},{"bike_id":"4fd39fa2-15f2-4f32-aae2-799f83873f62","system_id":"levelo_inurba_marseille","lat":43.28937,"lon":5.39633,"is_reserved":false,"is_disabled":false,"rental_uris":{"android":"levelo://app?vid=4fd39fa2-15f2-4f32-aae2-799f83873f62","ios":"levelo://app?vid=4fd39fa2-15f2-4f32-aae2-799f83873f62"},"vehicle_type_id":"4","last_reported":1749618775,"current_range_meters":17600,"station_id":"ce4bh3h2rcd13ifvqdn0","pricing_plan_id":"cebpf4jnsgd1na2vs0mg"},{"bike_id":"3c303a44-1dd1-4654-b81f-470a11ddb47e","system_id":"levelo_inurba_marseille","lat":43.23152,"lon":5.43721,"is_reserved":false,"is_disabled":false,"rental_uris":{"android":"levelo://app?vid=3c303a44-1dd1-4654-b81f-470a11ddb47e","ios":"levelo://app?vid=3c303a44-1dd1-4654-b81f-470a11ddb47e"},"vehicle_type_id":"4","last_reported":1749618775,"current_range_meters":18000,"station_id":"ce4bhmp2rcd13ifvqgog","pricing_plan_id":"cebpf4jnsgd1na2vs0mg"},{"bike_id":"122899e6-7e09-495a-be69-af0902766ffc","system_id":"levelo_inurba_marseille","lat":43.288642,"lon":5.393199,"is_reserved":false,"is_disabled":false,"rental_uris":{"android":"levelo://app?vid=122899e6-7e09-495a-be69-af0902766ffc","ios":"levelo://app?vid=122899e6-7e09-495a-be69-af0902766ffc"},"vehicle_type_id":"4","last_reported":1749618775,"current_range_meters":18000,"station_id":"ce4bh2p2rcd13ifvqdi0","pricing_plan_id":"cebpf4jnsgd1na2vs0mg"},{"bike_id":"43d06fb2-37ef-4f7f-bea3-608ee6d0f3e3","system_id":"levelo_inurba_marseille","lat":43.26484,"lon":5.39544,"is_reserved":false,"is_disabled":true,"rental_uris":{"android":"levelo://app?vid=43d06fb2-37ef-4f7f-bea3-608ee6d0f3e3","ios":"levelo://app?vid=43d06fb2-37ef-4f7f-bea3-608ee6d0f3e3"},"vehicle_type_id":"4","last_reported":1749618775,"current_range_meters":18000,"station_id":"ce4bhi12rcd13ifvqfq0","pricing_plan_id":"cebpf4jnsgd1na2vs0mg"},{"bike_id":"71bbf359-9fd1-423f-a7b9-9134e73c1ef0","system_id":"levelo_inurba_marseille","lat":43.299336,"lon":5.365346,"is_reserved":false,"is_disabled":false,"rental_uris":{"android":"levelo://app?vid=71bbf359-9fd1-423f-a7b9-9134e73c1ef0","ios":"levelo://app?vid=71bbf359-9fd1-423f-a7b9-9134e73c1ef0"},"vehicle_type_id":"4","last_reported":1749618775,"current_range_meters":18000,"station_id":"ce4bgm92rcd13ifvqbr0","pricing_plan_id":"cebpf4jnsgd1na2vs0mg"},{"bike_id":"355cf286-0b63-4ba5-8fd3-08f2449a771d","system_id":"levelo_inurba_marseille","lat":43.274856,"lon":5.424577,"is_reserved":false,"is_disabled":false,"rental_uris":{"android":"levelo://app?vid=355cf286-0b63-4ba5-8fd3-08f2449a771d","ios":"levelo://app?vid=355cf286-0b63-4ba5-8fd3-08f2449a771d"},"vehicle_type_id":"4","last_reported":1749618775,"current_range_meters":18000,"station_id":"ce4bhn92rcd13ifvqgrg","pricing_plan_id":"cebpf4jnsgd1na2vs0mg"},{"bike_id":"99ccb411-d7f9-4fcb-b612-4d8582e16182","system_id":"levelo_inurba_marseille","lat":43.33727,"lon":5.3918,"is_reserved":false,"is_disabled":false,"rental_uris":{"android":"levelo://app?vid=99ccb411-d7f9-4fcb-b612-4d8582e16182","ios":"levelo://app?vid=99ccb411-d7f9-4fcb-b612-4d8582e16182"},"vehicle_type_id":"4","last_reported":1749618775,"current_range_meters":18000,"station_id":"ce4bhr92rcd13ifvqhsg","pricing_plan_id":"cebpf4jnsgd1na2vs0mg"},{"bike_id":"b8967b29-404c-4317-b38f-26ebac1cd31c","system_id":"levelo_inurba_marseille","lat":43.2707,"lon":5.42277,"is_reserved":false,"is_disabled":false,"rental_uris":{"android":"levelo://app?vid=b8967b29-404c-4317-b38f-26ebac1cd31c","ios":"levelo://app?vid=b8967b29-404c-4317-b38f-26ebac1cd31c"},"vehicle_type_id":"4","last_reported":1749618775,"current_range_meters":18800,"station_id":"ce4bhk92rcd13ifvqgb0","pricing_plan_id":"cebpf4jnsgd1na2vs0mg"},{"bike_id":"1ffe6267-ffee-48b5-9a1a-8fe4f3a18bb0","system_id":"levelo_inurba_marseille","lat":43.31517,"lon":5.37306,"is_reserved":false,"is_disabled":false,"rental_uris":{"android":"levelo://app?vid=1ffe6267-ffee-48b5-9a1a-8fe4f3a18bb0","ios":"levelo://app?vid=1ffe6267-ffee-48b5-9a1a-8fe4f3a18bb0"},"vehicle_type_id":"4","last_reported":1749618775,"current_range_meters":18800,"station_id":"ce4bgt12rcd13ifvqcd0","pricing_plan_id":"cebpf4jnsgd1na2vs0mg"},{"bike_id":"00c94cd1-33f1-4483-8d50-d32717f9fe3e","system_id":"levelo_inurba_marseille","lat":43.3174,"lon":5.42401,"is_reserved":false,"is_disabled":false,"rental_uris":{"android":"levelo://app?vid=00c94cd1-33f1-4483-8d50-d32717f9fe3e","ios":"levelo://app?vid=00c94cd1-33f1-4483-8d50-d32717f9fe3e"},"vehicle_type_id":"4","last_reported":1749618775,"current_range_meters":18800,"station_id":"ce4bhp92rcd13ifvqhbg","pricing_plan_id":"cebpf4jnsgd1na2vs0mg"},{"bike_id":"136a956b-c67e-4ee7-bafc-f4953a39f893","system_id":"levelo_inurba_marseille","lat":43.25146,"lon":5.39638,"is_reserved":false,"is_disabled":false,"rental_uris":{"android":"levelo://app?vid=136a956b-c67e-4ee7-bafc-f4953a39f893","ios":"levelo://app?vid=136a956b-c67e-4ee7-bafc-f4953a39f893"},"vehicle_type_id":"4","last_reported":1749618775,"current_range_meters":18800,"station_id":"","pricing_plan_id":"cebpf4jnsgd1na2vs0mg"},{"bike_id":"7b1cfe02-109e-4836-ae59-8aad9c4f2698","system_id":"levelo_inurba_marseille","lat":43.3235,"lon":5.40623,"is_reserved":false,"is_disabled":false,"rental_uris":{"android":"levelo://app?vid=7b1cfe02-109e-4836-ae59-8aad9c4f2698","ios":"levelo://app?vid=7b1cfe02-109e-4836-ae59-8aad9c4f2698"},"vehicle_type_id":"4","last_reported":1749618775,"current_range_meters":18800,"station_id":"ce4bhq92rcd13ifvqhjg","pricing_plan_id":"cebpf4jnsgd1na2vs0mg"},{"bike_id":"1f01b44c-5f74-458f-bd4e-74f1314b1ea9","system_id":"levelo_inurba_marseille","lat":43.272061,"lon":5.392032,"is_reserved":false,"is_disabled":true,"rental_uris":{"android":"levelo://app?vid=1f01b44c-5f74-458f-bd4e-74f1314b1ea9","ios":"levelo://app?vid=1f01b44c-5f74-458f-bd4e-74f1314b1ea9"},"vehicle_type_id":"4","last_reported":1749618775,"current_range_meters":18800,"station_id":"","pricing_plan_id":"cebpf4jnsgd1na2vs0mg"},{"bike_id":"c5eddcdc-05cb-4e8a-a104-e4e9c1d4cff2","system_id":"levelo_inurba_marseille","lat":43.30531,"lon":5.38404,"is_reserved":false,"is_disabled":false,"rental_uris":{"android":"levelo://app?vid=c5eddcdc-05cb-4e8a-a104-e4e9c1d4cff2","ios":"levelo://app?vid=c5eddcdc-05cb-4e8a-a104-e4e9c1d4cff2"},"vehicle_type_id":"4","last_reported":1749618775,"current_range_meters":18800,"station_id":"ce4bgg92rcd13ifvqb30","pricing_plan_id":"cebpf4jnsgd1na2vs0mg"},{"bike_id":"816dfc3c-bc4b-4d01-9d85-6f372c9f2d04","system_id":"levelo_inurba_marseille","lat":43.30424,"lon":5.39738,"is_reserved":false,"is_disabled":false,"rental_uris":{"android":"levelo://app?vid=816dfc3c-bc4b-4d01-9d85-6f372c9f2d04","ios":"levelo://app?vid=816dfc3c-bc4b-4d01-9d85-6f372c9f2d04"},"vehicle_type_id":"4","last_reported":1749618775,"current_range_meters":18800,"station_id":"ce4bh092rcd13ifvqd20","pricing_plan_id":"cebpf4jnsgd1na2vs0mg"},{"bike_id":"9cf2e2c0-8c8a-4772-b5e0-42561336bb8a","system_id":"levelo_inurba_marseille","lat":43.309218,"lon":5.401477,"is_reserved":false,"is_disabled":false,"rental_uris":{"android":"levelo://app?vid=9cf2e2c0-8c8a-4772-b5e0-42561336bb8a","ios":"levelo://app?vid=9cf2e2c0-8c8a-4772-b5e0-42561336bb8a"},"vehicle_type_id":"4","last_reported":1749618775,"current_range_meters":18800,"station_id":"ce4bgvp2rcd13ifvqct0","pricing_plan_id":"cebpf4jnsgd1na2vs0mg"},{"bike_id":"26188140-1807-466a-b47c-9cde473e1f96","system_id":"levelo_inurba_marseille","lat":43.29984,"lon":5.37178,"is_reserved":false,"is_disabled":true,"rental_uris":{"android":"levelo://app?vid=26188140-1807-466a-b47c-9cde473e1f96","ios":"levelo://app?vid=26188140-1807-466a-b47c-9cde473e1f96"},"vehicle_type_id":"4","last_reported":1749618775,"current_range_meters":18800,"station_id":"ce4bgr92rcd13ifvqc7g","pricing_plan_id":"cebpf4jnsgd1na2vs0mg"},{"bike_id":"9b27829e-5332-4f5a-9e45-aad00442a969","system_id":"levelo_inurba_marseille","lat":43.27931,"lon":5.38281,"is_reserved":false,"is_disabled":false,"rental_uris":{"android":"levelo://app?vid=9b27829e-5332-4f5a-9e45-aad00442a969","ios":"levelo://app?vid=9b27829e-5332-4f5a-9e45-aad00442a969"},"vehicle_type_id":"4","last_reported":1749618775,"current_range_meters":18800,"station_id":"","pricing_plan_id":"cebpf4jnsgd1na2vs0mg"},{"bike_id":"1f946e20-d142-4cbb-9385-f87ae2569b7b","system_id":"levelo_inurba_marseille","lat":43.281476,"lon":5.426436,"is_reserved":false,"is_disabled":false,"rental_uris":{"android":"levelo://app?vid=1f946e20-d142-4cbb-9385-f87ae2569b7b","ios":"levelo://app?vid=1f946e20-d142-4cbb-9385-f87ae2569b7b"},"vehicle_type_id":"4","last_reported":1749618775,"current_range_meters":18800,"station_id":"ce4bhnh2rcd13ifvqgug","pricing_plan_id":"cebpf4jnsgd1na2vs0mg"},{"bike_id":"ea9fe97b-04b3-4826-ae12-d22cd9e3b82e","system_id":"levelo_inurba_marseille","lat":43.28488,"lon":5.38404,"is_reserved":false,"is_disabled":false,"rental_uris":{"android":"levelo://app?vid=ea9fe97b-04b3-4826-ae12-d22cd9e3b82e","ios":"levelo://app?vid=ea9fe97b-04b3-4826-ae12-d22cd9e3b82e"},"vehicle_type_id":"4","last_reported":1749618775,"current_range_meters":18800,"station_id":"ce4bh512rcd13ifvqe3g","pricing_plan_id":"cebpf4jnsgd1na2vs0mg"},{"bike_id":"07496176-d4c7-444e-b485-13025cec7453","system_id":"levelo_inurba_marseille","lat":43.25145,"lon":5.4032,"is_reserved":false,"is_disabled":false,"rental_uris":{"android":"levelo://app?vid=07496176-d4c7-444e-b485-13025cec7453","ios":"levelo://app?vid=07496176-d4c7-444e-b485-13025cec7453"},"vehicle_type_id":"4","last_reported":1749618775,"current_range_meters":19200,"station_id":"ce4bhlh2rcd13ifvqgig","pricing_plan_id":"cebpf4jnsgd1na2vs0mg"},{"bike_id":"5ff7c736-c5f0-4780-81ba-48446872c362","system_id":"levelo_inurba_marseille","lat":43.26937,"lon":5.40248,"is_reserved":false,"is_disabled":false,"rental_uris":{"android":"levelo://app?vid=5ff7c736-c5f0-4780-81ba-48446872c362","ios":"levelo://app?vid=5ff7c736-c5f0-4780-81ba-48446872c362"},"vehicle_type_id":"4","last_reported":1749618775,"current_range_meters":19200,"station_id":"cjm6bp8fraef2m0cb0m0","pricing_plan_id":"cebpf4jnsgd1na2vs0mg"},{"bike_id":"c9fce19b-bd54-4522-bdc7-aa26a9be634a","system_id":"levelo_inurba_marseille","lat":43.27331,"lon":5.39115,"is_reserved":false,"is_disabled":true,"rental_uris":{"android":"levelo://app?vid=c9fce19b-bd54-4522-bdc7-aa26a9be634a","ios":"levelo://app?vid=c9fce19b-bd54-4522-bdc7-aa26a9be634a"},"vehicle_type_id":"4","last_reported":1749618775,"current_range_meters":19200,"station_id":"ce4bhgp2rcd13ifvqfe0","pricing_plan_id":"cebpf4jnsgd1na2vs0mg"},{"bike_id":"df40d743-ca7b-4f7c-882e-6472a0df34cc","system_id":"levelo_inurba_marseille","lat":43.23199,"lon":5.35544,"is_reserved":false,"is_disabled":false,"rental_uris":{"android":"levelo://app?vid=df40d743-ca7b-4f7c-882e-6472a0df34cc","ios":"levelo://app?vid=df40d743-ca7b-4f7c-882e-6472a0df34cc"},"vehicle_type_id":"4","last_reported":1749618775,"current_range_meters":19200,"station_id":"ce4bhu92rcd13ifvqi70","pricing_plan_id":"cebpf4jnsgd1na2vs0mg"},{"bike_id":"2582e4e6-eee3-41b6-8789-7cc9471e4fb4","system_id":"levelo_inurba_marseille","lat":43.30729,"lon":5.42432,"is_reserved":false,"is_disabled":false,"rental_uris":{"android":"levelo://app?vid=2582e4e6-eee3-41b6-8789-7cc9471e4fb4","ios":"levelo://app?vid=2582e4e6-eee3-41b6-8789-7cc9471e4fb4"},"vehicle_type_id":"4","last_reported":1749618775,"current_range_meters":19200,"station_id":"st_cvj6ca6bvosntc0bfgr0","pricing_plan_id":"cebpf4jnsgd1na2vs0mg"},{"bike_id":"6c7d34d3-c6bd-4add-80c3-539a4460ae1e","system_id":"levelo_inurba_marseille","lat":43.31176,"lon":5.38707,"is_reserved":false,"is_disabled":false,"rental_uris":{"android":"levelo://app?vid=6c7d34d3-c6bd-4add-80c3-539a4460ae1e","ios":"levelo://app?vid=6c7d34d3-c6bd-4add-80c3-539a4460ae1e"},"vehicle_type_id":"4","last_reported":1749618775,"current_range_meters":19200,"station_id":"ce4bgv12rcd13ifvqcp0","pricing_plan_id":"cebpf4jnsgd1na2vs0mg"},{"bike_id":"5cd55621-a46b-4861-9b0a-eaf6e6a41dd0","system_id":"levelo_inurba_marseille","lat":43.29259,"lon":5.4091,"is_reserved":false,"is_disabled":false,"rental_uris":{"android":"levelo://app?vid=5cd55621-a46b-4861-9b0a-eaf6e6a41dd0","ios":"levelo://app?vid=5cd55621-a46b-4861-9b0a-eaf6e6a41dd0"},"vehicle_type_id":"4","last_reported":1749618775,"current_range_meters":19200,"station_id":"ce4bh192rcd13ifvqdc0","pricing_plan_id":"cebpf4jnsgd1na2vs0mg"},{"bike_id":"929c0d1a-61d0-4797-aab5-b8531e32d169","system_id":"levelo_inurba_marseille","lat":43.28368,"lon":5.38121,"is_reserved":false,"is_disabled":false,"rental_uris":{"android":"levelo://app?vid=929c0d1a-61d0-4797-aab5-b8531e32d169","ios":"levelo://app?vid=929c0d1a-61d0-4797-aab5-b8531e32d169"},"vehicle_type_id":"4","last_reported":1749618775,"current_range_meters":19200,"station_id":"ce4bh412rcd13ifvqdr0","pricing_plan_id":"cebpf4jnsgd1na2vs0mg"},{"bike_id":"042e1db3-8955-4b86-8d6f-00865c82e6d1","system_id":"levelo_inurba_marseille","lat":43.296268,"lon":5.377406,"is_reserved":false,"is_disabled":false,"rental_uris":{"android":"levelo://app?vid=042e1db3-8955-4b86-8d6f-00865c82e6d1","ios":"levelo://app?vid=042e1db3-8955-4b86-8d6f-00865c82e6d1"},"vehicle_type_id":"4","last_reported":1749618775,"current_range_meters":19200,"station_id":"ce4bhc92rcd13ifvqetg","pricing_plan_id":"cebpf4jnsgd1na2vs0mg"},{"bike_id":"556ea021-f173-497b-9607-7375aef62e86","system_id":"levelo_inurba_marseille","lat":43.316888,"lon":5.404724,"is_reserved":false,"is_disabled":false,"rental_uris":{"android":"levelo://app?vid=556ea021-f173-497b-9607-7375aef62e86","ios":"levelo://app?vid=556ea021-f173-497b-9607-7375aef62e86"},"vehicle_type_id":"4","last_reported":1749618775,"current_range_meters":19200,"station_id":"","pricing_plan_id":"cebpf4jnsgd1na2vs0mg"},{"bike_id":"27c3ce4c-2f83-41ff-abde-3fb4e2e068fb","system_id":"levelo_inurba_marseille","lat":43.30991,"lon":5.37472,"is_reserved":false,"is_disabled":false,"rental_uris":{"android":"levelo://app?vid=27c3ce4c-2f83-41ff-abde-3fb4e2e068fb","ios":"levelo://app?vid=27c3ce4c-2f83-41ff-abde-3fb4e2e068fb"},"vehicle_type_id":"4","last_reported":1749618775,"current_range_meters":19200,"station_id":"","pricing_plan_id":"cebpf4jnsgd1na2vs0mg"},{"bike_id":"9cc09854-d27d-4772-a587-4e62b3e1423f","system_id":"levelo_inurba_marseille","lat":43.25115,"lon":5.40342,"is_reserved":false,"is_disabled":false,"rental_uris":{"android":"levelo://app?vid=9cc09854-d27d-4772-a587-4e62b3e1423f","ios":"levelo://app?vid=9cc09854-d27d-4772-a587-4e62b3e1423f"},"vehicle_type_id":"4","last_reported":1749618775,"current_range_meters":19200,"station_id":"ce4bhlh2rcd13ifvqgig","pricing_plan_id":"cebpf4jnsgd1na2vs0mg"},{"bike_id":"dbb3b8fb-fe6b-468a-b993-7c9487b6c88c","system_id":"levelo_inurba_marseille","lat":43.240729,"lon":5.377514,"is_reserved":false,"is_disabled":false,"rental_uris":{"android":"levelo://app?vid=dbb3b8fb-fe6b-468a-b993-7c9487b6c88c","ios":"levelo://app?vid=dbb3b8fb-fe6b-468a-b993-7c9487b6c88c"},"vehicle_type_id":"4","last_reported":1749618775,"current_range_meters":19200,"station_id":"ce4bhnp2rcd13ifvqgvg","pricing_plan_id":"cebpf4jnsgd1na2vs0mg"},{"bike_id":"f247d1c8-41f9-4d35-a31d-cfe3be064909","system_id":"levelo_inurba_marseille","lat":43.29253,"lon":5.40938,"is_reserved":false,"is_disabled":false,"rental_uris":{"android":"levelo://app?vid=f247d1c8-41f9-4d35-a31d-cfe3be064909","ios":"levelo://app?vid=f247d1c8-41f9-4d35-a31d-cfe3be064909"},"vehicle_type_id":"4","last_reported":1749618775,"current_range_meters":19600,"station_id":"ce4bh192rcd13ifvqdc0","pricing_plan_id":"cebpf4jnsgd1na2vs0mg"},{"bike_id":"c6bbdb40-7d37-4f26-80b4-818e8018c364","system_id":"levelo_inurba_marseille","lat":43.26486,"lon":5.39543,"is_reserved":false,"is_disabled":false,"rental_uris":{"android":"levelo://app?vid=c6bbdb40-7d37-4f26-80b4-818e8018c364","ios":"levelo://app?vid=c6bbdb40-7d37-4f26-80b4-818e8018c364"},"vehicle_type_id":"4","last_reported":1749618775,"current_range_meters":19600,"station_id":"ce4bhi12rcd13ifvqfq0","pricing_plan_id":"cebpf4jnsgd1na2vs0mg"},{"bike_id":"1b986ab5-899b-45c0-ae8f-5234203e90af","system_id":"levelo_inurba_marseille","lat":43.32098,"lon":5.36784,"is_reserved":false,"is_disabled":false,"rental_uris":{"android":"levelo://app?vid=1b986ab5-899b-45c0-ae8f-5234203e90af","ios":"levelo://app?vid=1b986ab5-899b-45c0-ae8f-5234203e90af"},"vehicle_type_id":"4","last_reported":1749618775,"current_range_meters":20000,"station_id":"ce4bhrh2rcd13ifvqhug","pricing_plan_id":"cebpf4jnsgd1na2vs0mg"},{"bike_id":"43905188-6755-4fcf-a1e5-419d01155020","system_id":"levelo_inurba_marseille","lat":43.26215,"lon":5.40439,"is_reserved":false,"is_disabled":false,"rental_uris":{"android":"levelo://app?vid=43905188-6755-4fcf-a1e5-419d01155020","ios":"levelo://app?vid=43905188-6755-4fcf-a1e5-419d01155020"},"vehicle_type_id":"4","last_reported":1749618775,"current_range_meters":20000,"station_id":"ce4bhmh2rcd13ifvqgmg","pricing_plan_id":"cebpf4jnsgd1na2vs0mg"},{"bike_id":"d6bd24a5-0420-4d7e-abbb-40c7a817dcf7","system_id":"levelo_inurba_marseille","lat":43.27978,"lon":5.41637,"is_reserved":false,"is_disabled":false,"rental_uris":{"android":"levelo://app?vid=d6bd24a5-0420-4d7e-abbb-40c7a817dcf7","ios":"levelo://app?vid=d6bd24a5-0420-4d7e-abbb-40c7a817dcf7"},"vehicle_type_id":"4","last_reported":1749618775,"current_range_meters":20000,"station_id":"ce4bho12rcd13ifvqh1g","pricing_plan_id":"cebpf4jnsgd1na2vs0mg"},{"bike_id":"4c7d11cc-361d-4c0a-b7b6-b403260380b1","system_id":"levelo_inurba_marseille","lat":43.301289,"lon":5.387843,"is_reserved":false,"is_disabled":true,"rental_uris":{"android":"levelo://app?vid=4c7d11cc-361d-4c0a-b7b6-b403260380b1","ios":"levelo://app?vid=4c7d11cc-361d-4c0a-b7b6-b403260380b1"},"vehicle_type_id":"4","last_reported":1749618775,"current_range_meters":20400,"station_id":"ce4bghh2rcd13ifvqb60","pricing_plan_id":"cebpf4jnsgd1na2vs0mg"},{"bike_id":"2a7344b5-7126-4cc1-bbd1-a9bb0e44b7bd","system_id":"levelo_inurba_marseille","lat":43.23044,"lon":5.35462,"is_reserved":false,"is_disabled":false,"rental_uris":{"android":"levelo://app?vid=2a7344b5-7126-4cc1-bbd1-a9bb0e44b7bd","ios":"levelo://app?vid=2a7344b5-7126-4cc1-bbd1-a9bb0e44b7bd"},"vehicle_type_id":"4","last_reported":1749618775,"current_range_meters":20400,"station_id":"cpo3342slgdg3j2ifvpg","pricing_plan_id":"cebpf4jnsgd1na2vs0mg"},{"bike_id":"51ac4440-dde0-4f13-bf9a-5a5b6810d184","system_id":"levelo_inurba_marseille","lat":43.30376,"lon":5.4247,"is_reserved":false,"is_disabled":false,"rental_uris":{"android":"levelo://app?vid=51ac4440-dde0-4f13-bf9a-5a5b6810d184","ios":"levelo://app?vid=51ac4440-dde0-4f13-bf9a-5a5b6810d184"},"vehicle_type_id":"4","last_reported":1749618775,"current_range_meters":20400,"station_id":"ce4bhoh2rcd13ifvqh6g","pricing_plan_id":"cebpf4jnsgd1na2vs0mg"},{"bike_id":"f9b0ea1c-2469-49ee-9f1f-4840961b3c0b","system_id":"levelo_inurba_marseille","lat":43.30465,"lon":5.37903,"is_reserved":false,"is_disabled":false,"rental_uris":{"android":"levelo://app?vid=f9b0ea1c-2469-49ee-9f1f-4840961b3c0b","ios":"levelo://app?vid=f9b0ea1c-2469-49ee-9f1f-4840961b3c0b"},"vehicle_type_id":"4","last_reported":1749618775,"current_range_meters":20400,"station_id":"ce4bgup2rcd13ifvqcn0","pricing_plan_id":"cebpf4jnsgd1na2vs0mg"},{"bike_id":"3f1574d6-fc40-4341-9dac-b195059ec68d","system_id":"levelo_inurba_marseille","lat":43.272014,"lon":5.392006,"is_reserved":false,"is_disabled":true,"rental_uris":{"android":"levelo://app?vid=3f1574d6-fc40-4341-9dac-b195059ec68d","ios":"levelo://app?vid=3f1574d6-fc40-4341-9dac-b195059ec68d"},"vehicle_type_id":"4","last_reported":1749618775,"current_range_meters":20400,"station_id":"ce4bhhp2rcd13ifvqfm0","pricing_plan_id":"cebpf4jnsgd1na2vs0mg"},{"bike_id":"ed1aa8e0-a33b-4919-9e0d-ab75dc3c6a07","system_id":"levelo_inurba_marseille","lat":43.26483,"lon":5.40968,"is_reserved":false,"is_disabled":false,"rental_uris":{"android":"levelo://app?vid=ed1aa8e0-a33b-4919-9e0d-ab75dc3c6a07","ios":"levelo://app?vid=ed1aa8e0-a33b-4919-9e0d-ab75dc3c6a07"},"vehicle_type_id":"4","last_reported":1749618775,"current_range_meters":20400,"station_id":"","pricing_plan_id":"cebpf4jnsgd1na2vs0mg"},{"bike_id":"3db8fde5-dc25-47f9-adb5-1429f5338e31","system_id":"levelo_inurba_marseille","lat":43.31758,"lon":5.3848,"is_reserved":false,"is_disabled":false,"rental_uris":{"android":"levelo://app?vid=3db8fde5-dc25-47f9-adb5-1429f5338e31","ios":"levelo://app?vid=3db8fde5-dc25-47f9-adb5-1429f5338e31"},"vehicle_type_id":"4","last_reported":1749618775,"current_range_meters":20400,"station_id":"","pricing_plan_id":"cebpf4jnsgd1na2vs0mg"},{"bike_id":"ea10a0c6-3ddf-42e5-97b0-69a1037504de","system_id":"levelo_inurba_marseille","lat":43.29289,"lon":5.38461,"is_reserved":false,"is_disabled":true,"rental_uris":{"android":"levelo://app?vid=ea10a0c6-3ddf-42e5-97b0-69a1037504de","ios":"levelo://app?vid=ea10a0c6-3ddf-42e5-97b0-69a1037504de"},"vehicle_type_id":"4","last_reported":1749618775,"current_range_meters":20400,"station_id":"ce4bh692rcd13ifvqea0","pricing_plan_id":"cebpf4jnsgd1na2vs0mg"},{"bike_id":"406a6825-3b38-4c41-9e15-2e4a97c287ee","system_id":"levelo_inurba_marseille","lat":43.284534,"lon":5.35909,"is_reserved":false,"is_disabled":true,"rental_uris":{"android":"levelo://app?vid=406a6825-3b38-4c41-9e15-2e4a97c287ee","ios":"levelo://app?vid=406a6825-3b38-4c41-9e15-2e4a97c287ee"},"vehicle_type_id":"4","last_reported":1749618775,"current_range_meters":20800,"station_id":"ce4bhah2rcd13ifvqei0","pricing_plan_id":"cebpf4jnsgd1na2vs0mg"},{"bike_id":"f61fedfe-dd1b-4d4f-a41d-ed2e8059b1e7","system_id":"levelo_inurba_marseille","lat":43.30885,"lon":5.396328,"is_reserved":false,"is_disabled":false,"rental_uris":{"android":"levelo://app?vid=f61fedfe-dd1b-4d4f-a41d-ed2e8059b1e7","ios":"levelo://app?vid=f61fedfe-dd1b-4d4f-a41d-ed2e8059b1e7"},"vehicle_type_id":"4","last_reported":1749618775,"current_range_meters":20800,"station_id":"ce4bh012rcd13ifvqcv0","pricing_plan_id":"cebpf4jnsgd1na2vs0mg"},{"bike_id":"199978a5-d5a4-49e7-ad67-bb91c097cd3c","system_id":"levelo_inurba_marseille","lat":43.24537,"lon":5.39514,"is_reserved":false,"is_disabled":false,"rental_uris":{"android":"levelo://app?vid=199978a5-d5a4-49e7-ad67-bb91c097cd3c","ios":"levelo://app?vid=199978a5-d5a4-49e7-ad67-bb91c097cd3c"},"vehicle_type_id":"4","last_reported":1749618775,"current_range_meters":20800,"station_id":"ce4bhlp2rcd13ifvqgjg","pricing_plan_id":"cebpf4jnsgd1na2vs0mg"},{"bike_id":"7003b93c-725d-412e-9127-fbade718cbc3","system_id":"levelo_inurba_marseille","lat":43.211913,"lon":5.350736,"is_reserved":false,"is_disabled":false,"rental_uris":{"android":"levelo://app?vid=7003b93c-725d-412e-9127-fbade718cbc3","ios":"levelo://app?vid=7003b93c-725d-412e-9127-fbade718cbc3"},"vehicle_type_id":"4","last_reported":1749618775,"current_range_meters":20800,"station_id":"st_cvj6sg6p6f1abm77japg","pricing_plan_id":"cebpf4jnsgd1na2vs0mg"},{"bike_id":"07f2764f-d708-485b-a45e-82b90ff8e946","system_id":"levelo_inurba_marseille","lat":43.30901,"lon":5.37183,"is_reserved":false,"is_disabled":false,"rental_uris":{"android":"levelo://app?vid=07f2764f-d708-485b-a45e-82b90ff8e946","ios":"levelo://app?vid=07f2764f-d708-485b-a45e-82b90ff8e946"},"vehicle_type_id":"4","last_reported":1749618775,"current_range_meters":20800,"station_id":"ce4bguh2rcd13ifvqckg","pricing_plan_id":"cebpf4jnsgd1na2vs0mg"},{"bike_id":"268a324a-8e4d-4216-854d-c09220f5a417","system_id":"levelo_inurba_marseille","lat":43.240671,"lon":5.377646,"is_reserved":false,"is_disabled":false,"rental_uris":{"android":"levelo://app?vid=268a324a-8e4d-4216-854d-c09220f5a417","ios":"levelo://app?vid=268a324a-8e4d-4216-854d-c09220f5a417"},"vehicle_type_id":"4","last_reported":1749618775,"current_range_meters":20800,"station_id":"ce4bhnp2rcd13ifvqgvg","pricing_plan_id":"cebpf4jnsgd1na2vs0mg"},{"bike_id":"c6a3987b-480e-4eed-9a0e-9f08c779c95a","system_id":"levelo_inurba_marseille","lat":43.30654,"lon":5.40077,"is_reserved":false,"is_disabled":false,"rental_uris":{"android":"levelo://app?vid=c6a3987b-480e-4eed-9a0e-9f08c779c95a","ios":"levelo://app?vid=c6a3987b-480e-4eed-9a0e-9f08c779c95a"},"vehicle_type_id":"4","last_reported":1749618775,"current_range_meters":20800,"station_id":"ce4bh112rcd13ifvqda0","pricing_plan_id":"cebpf4jnsgd1na2vs0mg"},{"bike_id":"36604c08-b0ea-4a17-be13-9ad9348add4f","system_id":"levelo_inurba_marseille","lat":43.30153,"lon":5.38087,"is_reserved":false,"is_disabled":false,"rental_uris":{"android":"levelo://app?vid=36604c08-b0ea-4a17-be13-9ad9348add4f","ios":"levelo://app?vid=36604c08-b0ea-4a17-be13-9ad9348add4f"},"vehicle_type_id":"4","last_reported":1749618775,"current_range_meters":20800,"station_id":"ce4bgjp2rcd13ifvqbh0","pricing_plan_id":"cebpf4jnsgd1na2vs0mg"},{"bike_id":"e6f3b353-37d9-46ba-86f6-791aa172e6fc","system_id":"levelo_inurba_marseille","lat":43.30448,"lon":5.38878,"is_reserved":false,"is_disabled":false,"rental_uris":{"android":"levelo://app?vid=e6f3b353-37d9-46ba-86f6-791aa172e6fc","ios":"levelo://app?vid=e6f3b353-37d9-46ba-86f6-791aa172e6fc"},"vehicle_type_id":"4","last_reported":1749618775,"current_range_meters":20800,"station_id":"ce4bgk12rcd13ifvqbi0","pricing_plan_id":"cebpf4jnsgd1na2vs0mg"},{"bike_id":"09eda147-ba5d-4f75-813b-8736cdbf337e","system_id":"levelo_inurba_marseille","lat":43.25116,"lon":5.40322,"is_reserved":false,"is_disabled":false,"rental_uris":{"android":"levelo://app?vid=09eda147-ba5d-4f75-813b-8736cdbf337e","ios":"levelo://app?vid=09eda147-ba5d-4f75-813b-8736cdbf337e"},"vehicle_type_id":"4","last_reported":1749618775,"current_range_meters":21600,"station_id":"ce4bhlh2rcd13ifvqgig","pricing_plan_id":"cebpf4jnsgd1na2vs0mg"},{"bike_id":"98855dfb-7f1a-4ad2-b5c8-6854d863a5f3","system_id":"levelo_inurba_marseille","lat":43.28163,"lon":5.42633,"is_reserved":false,"is_disabled":true,"rental_uris":{"android":"levelo://app?vid=98855dfb-7f1a-4ad2-b5c8-6854d863a5f3","ios":"levelo://app?vid=98855dfb-7f1a-4ad2-b5c8-6854d863a5f3"},"vehicle_type_id":"4","last_reported":1749618775,"current_range_meters":21600,"station_id":"ce4bhnh2rcd13ifvqgug","pricing_plan_id":"cebpf4jnsgd1na2vs0mg"},{"bike_id":"ed7b6444-d227-40dd-8b71-2b25b2f39759","system_id":"levelo_inurba_marseille","lat":43.315481,"lon":5.373235,"is_reserved":false,"is_disabled":false,"rental_uris":{"android":"levelo://app?vid=ed7b6444-d227-40dd-8b71-2b25b2f39759","ios":"levelo://app?vid=ed7b6444-d227-40dd-8b71-2b25b2f39759"},"vehicle_type_id":"4","last_reported":1749618775,"current_range_meters":21600,"station_id":"","pricing_plan_id":"cebpf4jnsgd1na2vs0mg"},{"bike_id":"d6be148f-714e-4292-b556-351deb516243","system_id":"levelo_inurba_marseille","lat":43.27909,"lon":5.39588,"is_reserved":false,"is_disabled":false,"rental_uris":{"android":"levelo://app?vid=d6be148f-714e-4292-b556-351deb516243","ios":"levelo://app?vid=d6be148f-714e-4292-b556-351deb516243"},"vehicle_type_id":"4","last_reported":1749618775,"current_range_meters":21600,"station_id":"ce4bhf92rcd13ifvqf40","pricing_plan_id":"cebpf4jnsgd1na2vs0mg"},{"bike_id":"da3304cf-e9fb-48d8-ae6e-a5601281487d","system_id":"levelo_inurba_marseille","lat":43.32348,"lon":5.3892,"is_reserved":false,"is_disabled":false,"rental_uris":{"android":"levelo://app?vid=da3304cf-e9fb-48d8-ae6e-a5601281487d","ios":"levelo://app?vid=da3304cf-e9fb-48d8-ae6e-a5601281487d"},"vehicle_type_id":"4","last_reported":1749618775,"current_range_meters":22000,"station_id":"ce4bhqp2rcd13ifvqhog","pricing_plan_id":"cebpf4jnsgd1na2vs0mg"},{"bike_id":"6129c9c1-d980-4e3a-a2b6-78c73976d62a","system_id":"levelo_inurba_marseille","lat":43.23199,"lon":5.39992,"is_reserved":false,"is_disabled":false,"rental_uris":{"android":"levelo://app?vid=6129c9c1-d980-4e3a-a2b6-78c73976d62a","ios":"levelo://app?vid=6129c9c1-d980-4e3a-a2b6-78c73976d62a"},"vehicle_type_id":"4","last_reported":1749618775,"current_range_meters":22000,"station_id":"ce4bhn12rcd13ifvqgqg","pricing_plan_id":"cebpf4jnsgd1na2vs0mg"},{"bike_id":"3f721d0a-a8f4-479e-aaa6-6ed8f7b1d35e","system_id":"levelo_inurba_marseille","lat":43.26217,"lon":5.37925,"is_reserved":false,"is_disabled":true,"rental_uris":{"android":"levelo://app?vid=3f721d0a-a8f4-479e-aaa6-6ed8f7b1d35e","ios":"levelo://app?vid=3f721d0a-a8f4-479e-aaa6-6ed8f7b1d35e"},"vehicle_type_id":"4","last_reported":1749618775,"current_range_meters":22400,"station_id":"ce4bhjp2rcd13ifvqg90","pricing_plan_id":"cebpf4jnsgd1na2vs0mg"},{"bike_id":"605a0b52-817a-43ed-8b91-452fd7956a07","system_id":"levelo_inurba_marseille","lat":43.267465,"lon":5.394023,"is_reserved":false,"is_disabled":false,"rental_uris":{"android":"levelo://app?vid=605a0b52-817a-43ed-8b91-452fd7956a07","ios":"levelo://app?vid=605a0b52-817a-43ed-8b91-452fd7956a07"},"vehicle_type_id":"4","last_reported":1749618775,"current_range_meters":22400,"station_id":"ce4bhh12rcd13ifvqfg0","pricing_plan_id":"cebpf4jnsgd1na2vs0mg"},{"bike_id":"cc5545da-166a-4b18-bbc0-06acd916340a","system_id":"levelo_inurba_marseille","lat":43.28077,"lon":5.39634,"is_reserved":false,"is_disabled":false,"rental_uris":{"android":"levelo://app?vid=cc5545da-166a-4b18-bbc0-06acd916340a","ios":"levelo://app?vid=cc5545da-166a-4b18-bbc0-06acd916340a"},"vehicle_type_id":"4","last_reported":1749618775,"current_range_meters":22400,"station_id":"ce4bho12rcd13ifvqh2g","pricing_plan_id":"cebpf4jnsgd1na2vs0mg"},{"bike_id":"e0249f4b-8d8b-4dc7-a224-9ea697947c37","system_id":"levelo_inurba_marseille","lat":43.31701,"lon":5.42415,"is_reserved":false,"is_disabled":false,"rental_uris":{"android":"levelo://app?vid=e0249f4b-8d8b-4dc7-a224-9ea697947c37","ios":"levelo://app?vid=e0249f4b-8d8b-4dc7-a224-9ea697947c37"},"vehicle_type_id":"4","last_reported":1749618775,"current_range_meters":22400,"station_id":"ce4bhp92rcd13ifvqhbg","pricing_plan_id":"cebpf4jnsgd1na2vs0mg"},{"bike_id":"8d9fab8c-f711-40c2-bb91-e2437a249ee3","system_id":"levelo_inurba_marseille","lat":43.3064,"lon":5.401107,"is_reserved":false,"is_disabled":false,"rental_uris":{"android":"levelo://app?vid=8d9fab8c-f711-40c2-bb91-e2437a249ee3","ios":"levelo://app?vid=8d9fab8c-f711-40c2-bb91-e2437a249ee3"},"vehicle_type_id":"4","last_reported":1749618775,"current_range_meters":22400,"station_id":"ce4bh112rcd13ifvqda0","pricing_plan_id":"cebpf4jnsgd1na2vs0mg"},{"bike_id":"3cb0af7c-994a-4b71-98dc-211ebea626ad","system_id":"levelo_inurba_marseille","lat":43.32358,"lon":5.36746,"is_reserved":false,"is_disabled":false,"rental_uris":{"android":"levelo://app?vid=3cb0af7c-994a-4b71-98dc-211ebea626ad","ios":"levelo://app?vid=3cb0af7c-994a-4b71-98dc-211ebea626ad"},"vehicle_type_id":"4","last_reported":1749618775,"current_range_meters":22400,"station_id":"ce4bhsh2rcd13ifvqi2g","pricing_plan_id":"cebpf4jnsgd1na2vs0mg"},{"bike_id":"a5ddbe8a-bccf-4d23-a1f7-ea82efb74b74","system_id":"levelo_inurba_marseille","lat":43.317151,"lon":5.437072,"is_reserved":false,"is_disabled":false,"rental_uris":{"android":"levelo://app?vid=a5ddbe8a-bccf-4d23-a1f7-ea82efb74b74","ios":"levelo://app?vid=a5ddbe8a-bccf-4d23-a1f7-ea82efb74b74"},"vehicle_type_id":"4","last_reported":1749618775,"current_range_meters":22400,"station_id":"ce4bhp92rcd13ifvqhcg","pricing_plan_id":"cebpf4jnsgd1na2vs0mg"},{"bike_id":"fed9df9d-e54c-42c9-99f0-aea68d0d6d0c","system_id":"levelo_inurba_marseille","lat":43.280276,"lon":5.369473,"is_reserved":false,"is_disabled":false,"rental_uris":{"android":"levelo://app?vid=fed9df9d-e54c-42c9-99f0-aea68d0d6d0c","ios":"levelo://app?vid=fed9df9d-e54c-42c9-99f0-aea68d0d6d0c"},"vehicle_type_id":"4","last_reported":1749618775,"current_range_meters":22400,"station_id":"ce4bha12rcd13ifvqef0","pricing_plan_id":"cebpf4jnsgd1na2vs0mg"},