{"last_updated":1736240996,"ttl":60,"version":"2.2","data":{"bikes":[{"bike_id":"858bd43e-5fdd-4e4e-b8dc-df4e2d53b013","system_id":"levelo_inurba_marseille","lat":43.25811,"lon":5.39429,"is_reserved":false,"is_disabled":false,"rental_uris":{"android":"levelo://app?vid=858bd43e-5fdd-4e4e-b8dc-df4e2d53b013","ios":"levelo://app?vid=858bd43e-5fdd-4e4e-b8dc-df4e2d53b013"},"vehicle_type_id":"4","last_reported":1736240996,"current_range_meters":26800,"station_id":"ce4bhip2rcd13ifvqft0","pricing_plan_id":"cebpf4jnsgd1na2vs0mg"},{"bike_id":"6468ca15-1b81-4ca0-9d51-e5a545b05c54","system_id":"levelo_inurba_marseille","lat":43.27814,"lon":5.40743,"is_reserved":false,"is_disabled":true,"rental_uris":{"android":"levelo://app?vid=6468ca15-1b81-4ca0-9d51-e5a545b05c54","ios":"levelo://app?vid=6468ca15-1b81-4ca0-9d51-e5a545b05c54"},"vehicle_type_id":"4","last_reported":1736240996,"current_range_meters":26800,"station_id":"ce4bhnh2rcd13ifvqgtg","pricing_plan_id":"cebpf4jnsgd1na2vs0mg"},{"bike_id":"353691b9-2d3f-4d73-8ad0-0dbb644ba427","system_id":"levelo_inurba_marseille","lat":43.26944,"lon":5.38635,"is_reserved":false,"is_disabled":false,"rental_uris":{"android":"levelo://app?vid=353691b9-2d3f-4d73-8ad0-0dbb644ba427","ios":"levelo://app?vid=353691b9-2d3f-4d73-8ad0-0dbb644ba427"},"vehicle_type_id":"4","last_reported":1736240996,"current_range_meters":19600,"station_id":"ce4bhh92rcd13ifvqfh0","pricing_plan_id":"cebpf4jnsgd1na2vs0mg"},{"bike_id":"a014ed2c-58fa-4d24-b582-84c9362d3354","system_id":"levelo_inurba_marseille","lat":43.24064,"lon":5.37757,"is_reserved":false,"is_disabled":false,"rental_uris":{"android":"levelo://app?vid=a014ed2c-58fa-4d24-b582-84c9362d3354","ios":"levelo://app?vid=a014ed2c-58fa-4d24-b582-84c9362d3354"},"vehicle_type_id":"4","last_reported":1736240996,"current_range_meters":29600,"station_id":"ce4bhnp2rcd13ifvqgvg","pricing_plan_id":"cebpf4jnsgd1na2vs0mg"},{"bike_id":"32829077-ee54-4f4c-90d5-62abc645a1fb","system_id":"levelo_inurba_marseille","lat":43.30947,"lon":5.39042,"is_reserved":false,"is_disabled":false,"rental_uris":{"android":"levelo://app?vid=32829077-ee54-4f4c-90d5-62abc645a1fb","ios":"levelo://app?vid=32829077-ee54-4f4c-90d5-62abc645a1fb"},"vehicle_type_id":"4","last_reported":1736240996,"current_range_meters":34800,"station_id":"ce4bgup2rcd13ifvqco0","pricing_plan_id":"cebpf4jnsgd1na2vs0mg"},{"bike_id":"9613f90b-2f37-462c-b77e-fcda65943653","system_id":"levelo_inurba_marseille","lat":43.27986,"lon":5.41665,"is_reserved":false,"is_disabled":false,"rental_uris":{"android":"levelo://app?vid=9613f90b-2f37-462c-b77e-fcda65943653","ios":"levelo://app?vid=9613f90b-2f37-462c-b77e-fcda65943653"},"vehicle_type_id":"4","last_reported":1736240996,"current_range_meters":32800,"station_id":"ce4bho12rcd13ifvqh1g","pricing_plan_id":"cebpf4jnsgd1na2vs0mg"},{"bike_id":"1c2c3464-8b3a-4eab-9fdd-fd6c6e2d5657","system_id":"levelo_inurba_marseille","lat":43.28676,"lon":5.38661,"is_reserved":false,"is_disabled":true,"rental_uris":{"android":"levelo://app?vid=1c2c3464-8b3a-4eab-9fdd-fd6c6e2d5657","ios":"levelo://app?vid=1c2c3464-8b3a-4eab-9fdd-fd6c6e2d5657"},"vehicle_type_id":"4","last_reported":1736240996,"current_range_meters":800,"station_id":"ce4bh492rcd13ifvqdug","pricing_plan_id":"cebpf4jnsgd1na2vs0mg"},{"bike_id":"4d557de7-c82d-4422-a616-878f1c1fa4a9","system_id":"levelo_inurba_marseille","lat":43.31766,"lon":5.38997,"is_reserved":false,"is_disabled":false,"rental_uris":{"android":"levelo://app?vid=4d557de7-c82d-4422-a616-878f1c1fa4a9","ios":"levelo://app?vid=4d557de7-c82d-4422-a616-878f1c1fa4a9"},"vehicle_type_id":"4","last_reported":1736240996,"current_range_meters":23200,"station_id":"ce4bhqp2rcd13ifvqhng","pricing_plan_id":"cebpf4jnsgd1na2vs0mg"},{"bike_id":"2d6928f8-4b5e-4102-9da8-4203b801ad10","system_id":"levelo_inurba_marseille","lat":43.30158,"lon":5.380827,"is_reserved":false,"is_disabled":false,"rental_uris":{"android":"levelo://app?vid=2d6928f8-4b5e-4102-9da8-4203b801ad10","ios":"levelo://app?vid=2d6928f8-4b5e-4102-9da8-4203b801ad10"},"vehicle_type_id":"4","last_reported":1736240996,"current_range_meters":38800,"station_id":"ce4bgjp2rcd13ifvqbh0","pricing_plan_id":"cebpf4jnsgd1na2vs0mg"},{"bike_id":"e8f7458c-cf19-43d7-a972-43547ad9fe30","system_id":"levelo_inurba_marseille","lat":43.27197,"lon":5.40994,"is_reserved":false,"is_disabled":false,"rental_uris":{"android":"levelo://app?vid=e8f7458c-cf19-43d7-a972-43547ad9fe30","ios":"levelo://app?vid=e8f7458c-cf19-43d7-a972-43547ad9fe30"},"vehicle_type_id":"4","last_reported":1736240996,"current_range_meters":4000,"station_id":"ce4bhl12rcd13ifvqgf0","pricing_plan_id":"cebpf4jnsgd1na2vs0mg"},{"bike_id":"05a2c15a-fb68-455c-8082-fdf747a62fe7","system_id":"levelo_inurba_marseille","lat":43.27808,"lon":5.40733,"is_reserved":false,"is_disabled":true,"rental_uris":{"android":"levelo://app?vid=05a2c15a-fb68-455c-8082-fdf747a62fe7","ios":"levelo://app?vid=05a2c15a-fb68-455c-8082-fdf747a62fe7"},"vehicle_type_id":"4","last_reported":1736240996,"current_range_meters":0,"station_id":"ce4bhnh2rcd13ifvqgtg","pricing_plan_id":"cebpf4jnsgd1na2vs0mg"},{"bike_id":"0e1b95fc-b8d5-43d7-88bf-7f7ee38eb74a","system_id":"levelo_inurba_marseille","lat":43.28711,"lon":5.37951,"is_reserved":false,"is_disabled":false,"rental_uris":{"android":"levelo://app?vid=0e1b95fc-b8d5-43d7-88bf-7f7ee38eb74a","ios":"levelo://app?vid=0e1b95fc-b8d5-43d7-88bf-7f7ee38eb74a"},"vehicle_type_id":"4","last_reported":1736240996,"current_range_meters":22800,"station_id":"ce4bh9p2rcd13ifvqec0","pricing_plan_id":"cebpf4jnsgd1na2vs0mg"},{"bike_id":"68ed12ce-19b0-4151-b855-11515b9fdf32","system_id":"levelo_inurba_marseille","lat":43.2931,"lon":5.37142,"is_reserved":false,"is_disabled":false,"rental_uris":{"android":"levelo://app?vid=68ed12ce-19b0-4151-b855-11515b9fdf32","ios":"levelo://app?vid=68ed12ce-19b0-4151-b855-11515b9fdf32"},"vehicle_type_id":"4","last_reported":1736240996,"current_range_meters":39200,"station_id":"ce4bgh92rcd13ifvqb40","pricing_plan_id":"cebpf4jnsgd1na2vs0mg"},{"bike_id":"2e3020fc-739e-484f-aff1-968aa18f2ac1","system_id":"levelo_inurba_marseille","lat":43.27989,"lon":5.41663,"is_reserved":false,"is_disabled":true,"rental_uris":{"android":"levelo://app?vid=2e3020fc-739e-484f-aff1-968aa18f2ac1","ios":"levelo://app?vid=2e3020fc-739e-484f-aff1-968aa18f2ac1"},"vehicle_type_id":"4","last_reported":1736240996,"current_range_meters":36800,"station_id":"ce4bho12rcd13ifvqh1g","pricing_plan_id":"cebpf4jnsgd1na2vs0mg"},{"bike_id":"a425e945-da11-41d8-bb80-d32256760811","system_id":"levelo_inurba_marseille","lat":43.30139,"lon":5.37418,"is_reserved":false,"is_disabled":false,"rental_uris":{"android":"levelo://app?vid=a425e945-da11-41d8-bb80-d32256760811","ios":"levelo://app?vid=a425e945-da11-41d8-bb80-d32256760811"},"vehicle_type_id":"4","last_reported":1736240996,"current_range_meters":36400,"station_id":"ce4bgs92rcd13ifvqcc0","pricing_plan_id":"cebpf4jnsgd1na2vs0mg"},{"bike_id":"25eada10-1de1-4fd2-9f49-86dd4ee2d477","system_id":"levelo_inurba_marseille","lat":43.26684,"lon":5.38264,"is_reserved":false,"is_disabled":false,"rental_uris":{"android":"levelo://app?vid=25eada10-1de1-4fd2-9f49-86dd4ee2d477","ios":"levelo://app?vid=25eada10-1de1-4fd2-9f49-86dd4ee2d477"},"vehicle_type_id":"4","last_reported":1736240996,"current_range_meters":39200,"station_id":"ce4bhg92rcd13ifvqf90","pricing_plan_id":"cebpf4jnsgd1na2vs0mg"},{"bike_id":"9bc564bb-6773-485d-ac7c-33edf80314fe","system_id":"levelo_inurba_marseille","lat":43.25006,"lon":5.38916,"is_reserved":false,"is_disabled":true,"rental_uris":{"android":"levelo://app?vid=9bc564bb-6773-485d-ac7c-33edf80314fe","ios":"levelo://app?vid=9bc564bb-6773-485d-ac7c-33edf80314fe"},"vehicle_type_id":"4","last_reported":1736240996,"current_range_meters":1600,"station_id":"ce4bhgp2rcd13ifvqfd0","pricing_plan_id":"cebpf4jnsgd1na2vs0mg"},{"bike_id":"5108d1d9-0c7d-43c6-8ed5-ca24fad54860","system_id":"levelo_inurba_marseille","lat":43.24054,"lon":5.37778,"is_reserved":false,"is_disabled":false,"rental_uris":{"android":"levelo://app?vid=5108d1d9-0c7d-43c6-8ed5-ca24fad54860","ios":"levelo://app?vid=5108d1d9-0c7d-43c6-8ed5-ca24fad54860"},"vehicle_type_id":"4","last_reported":1736240996,"current_range_meters":26800,"station_id":"ce4bhnp2rcd13ifvqgvg","pricing_plan_id":"cebpf4jnsgd1na2vs0mg"},{"bike_id":"5f21cdc1-e56d-4c94-b8ac-7c72599c490f","system_id":"levelo_inurba_marseille","lat":43.30558,"lon":5.3653,"is_reserved":false,"is_disabled":false,"rental_uris":{"android":"levelo://app?vid=5f21cdc1-e56d-4c94-b8ac-7c72599c490f","ios":"levelo://app?vid=5f21cdc1-e56d-4c94-b8ac-7c72599c490f"},"vehicle_type_id":"4","last_reported":1736240996,"current_range_meters":38800,"station_id":"ce4bgs12rcd13ifvqcag","pricing_plan_id":"cebpf4jnsgd1na2vs0mg"},{"bike_id":"c6c5246a-6c57-426f-a7e1-dc372ef756c9","system_id":"levelo_inurba_marseille","lat":43.28462,"lon":5.35896,"is_reserved":false,"is_disabled":false,"rental_uris":{"android":"levelo://app?vid=c6c5246a-6c57-426f-a7e1-dc372ef756c9","ios":"levelo://app?vid=c6c5246a-6c57-426f-a7e1-dc372ef756c9"},"vehicle_type_id":"4","last_reported":1736240996,"current_range_meters":9200,"station_id":"ce4bhah2rcd13ifvqei0","pricing_plan_id":"cebpf4jnsgd1na2vs0mg"},{"bike_id":"4eeaeffa-480f-4a94-8286-42f1bcb601fc","system_id":"levelo_inurba_marseille","lat":43.29257,"lon":5.40082,"is_reserved":false,"is_disabled":true,"rental_uris":{"android":"levelo://app?vid=4eeaeffa-480f-4a94-8286-42f1bcb601fc","ios":"levelo://app?vid=4eeaeffa-480f-4a94-8286-42f1bcb601fc"},"vehicle_type_id":"4","last_reported":1736240996,"current_range_meters":18000,"station_id":"ce4bh312rcd13ifvqdk0","pricing_plan_id":"cebpf4jnsgd1na2vs0mg"},{"bike_id":"3dcc1c8e-6db9-4000-a7ee-f1b5b658ee7a","system_id":"levelo_inurba_marseille","lat":43.2716,"lon":5.41002,"is_reserved":false,"is_disabled":true,"rental_uris":{"android":"levelo://app?vid=3dcc1c8e-6db9-4000-a7ee-f1b5b658ee7a","ios":"levelo://app?vid=3dcc1c8e-6db9-4000-a7ee-f1b5b658ee7a"},"vehicle_type_id":"4","last_reported":1736240996,"current_range_meters":400,"station_id":"ce4bhl12rcd13ifvqgf0","pricing_plan_id":"cebpf4jnsgd1na2vs0mg"},{"bike_id":"7785ab47-fc21-464f-82e3-4fad2439c0ee","system_id":"levelo_inurba_marseille","lat":43.29829,"lon":5.43736,"is_reserved":false,"is_disabled":false,"rental_uris":{"android":"levelo://app?vid=7785ab47-fc21-464f-82e3-4fad2439c0ee","ios":"levelo://app?vid=7785ab47-fc21-464f-82e3-4fad2439c0ee"},"vehicle_type_id":"4","last_reported":1736240996,"current_range_meters":16000,"station_id":"","pricing_plan_id":"cebpf4jnsgd1na2vs0mg"},{"bike_id":"791627df-7292-49e5-a18d-ea9baf1b04d0","system_id":"levelo_inurba_marseille","lat":43.232346,"lon":5.436156,"is_reserved":false,"is_disabled":true,"rental_uris":{"android":"levelo://app?vid=791627df-7292-49e5-a18d-ea9baf1b04d0","ios":"levelo://app?vid=791627df-7292-49e5-a18d-ea9baf1b04d0"},"vehicle_type_id":"4","last_reported":1736240996,"current_range_meters":2000,"station_id":"ce4bhmp2rcd13ifvqgog","pricing_plan_id":"cebpf4jnsgd1na2vs0mg"},{"bike_id":"85eb1240-6178-48df-89e5-923d4c805952","system_id":"levelo_inurba_marseille","lat":43.30946,"lon":5.39034,"is_reserved":false,"is_disabled":false,"rental_uris":{"android":"levelo://app?vid=85eb1240-6178-48df-89e5-923d4c805952","ios":"levelo://app?vid=85eb1240-6178-48df-89e5-923d4c805952"},"vehicle_type_id":"4","last_reported":1736240996,"current_range_meters":19600,"station_id":"ce4bgup2rcd13ifvqco0","pricing_plan_id":"cebpf4jnsgd1na2vs0mg"},{"bike_id":"fdb9800d-3c2b-423d-84ef-3f20c68ea843","system_id":"levelo_inurba_marseille","lat":43.30525,"lon":5.36703,"is_reserved":false,"is_disabled":false,"rental_uris":{"android":"levelo://app?vid=fdb9800d-3c2b-423d-84ef-3f20c68ea843","ios":"levelo://app?vid=fdb9800d-3c2b-423d-84ef-3f20c68ea843"},"vehicle_type_id":"4","last_reported":1736240996,"current_range_meters":35200,"station_id":"ce4bgrp2rcd13ifvqc9g","pricing_plan_id":"cebpf4jnsgd1na2vs0mg"},{"bike_id":"d35cec4d-8661-4dbc-b66d-18f973903a1a","system_id":"levelo_inurba_marseille","lat":43.3111,"lon":5.37766,"is_reserved":false,"is_disabled":false,"rental_uris":{"android":"levelo://app?vid=d35cec4d-8661-4dbc-b66d-18f973903a1a","ios":"levelo://app?vid=d35cec4d-8661-4dbc-b66d-18f973903a1a"},"vehicle_type_id":"4","last_reported":1736240996,"current_range_meters":38000,"station_id":"ce4bgt92rcd13ifvqcg0","pricing_plan_id":"cebpf4jnsgd1na2vs0mg"},{"bike_id":"c023aed8-c4af-47de-bf55-7ec6cfb1c879","system_id":"levelo_inurba_marseille","lat":43.261962,"lon":5.37458,"is_reserved":false,"is_disabled":true,"rental_uris":{"android":"levelo://app?vid=c023aed8-c4af-47de-bf55-7ec6cfb1c879","ios":"levelo://app?vid=c023aed8-c4af-47de-bf55-7ec6cfb1c879"},"vehicle_type_id":"4","last_reported":1736240996,"current_range_meters":28000,"station_id":"ce4bhgp2rcd13ifvqfc0","pricing_plan_id":"cebpf4jnsgd1na2vs0mg"},{"bike_id":"9bdd282d-6584-43c5-a2dc-f4c9643edd6e","system_id":"levelo_inurba_marseille","lat":43.24084,"lon":5.37747,"is_reserved":false,"is_disabled":false,"rental_uris":{"android":"levelo://app?vid=9bdd282d-6584-43c5-a2dc-f4c9643edd6e","ios":"levelo://app?vid=9bdd282d-6584-43c5-a2dc-f4c9643edd6e"},"vehicle_type_id":"4","last_reported":1736240996,"current_range_meters":36000,"station_id":"ce4bhnp2rcd13ifvqgvg","pricing_plan_id":"cebpf4jnsgd1na2vs0mg"},{"bike_id":"ad036647-e9f4-4246-953d-37ee6601db50","system_id":"levelo_inurba_marseille","lat":43.246685,"lon":5.381662,"is_reserved":false,"is_disabled":false,"rental_uris":{"android":"levelo://app?vid=ad036647-e9f4-4246-953d-37ee6601db50","ios":"levelo://app?vid=ad036647-e9f4-4246-953d-37ee6601db50"},"vehicle_type_id":"4","last_reported":1736240996,"current_range_meters":17200,"station_id":"ce4bhih2rcd13ifvqfr0","pricing_plan_id":"cebpf4jnsgd1na2vs0mg"},{"bike_id":"149e3021-1368-416e-9e1b-afdb4ad781f2","system_id":"levelo_inurba_marseille","lat":43.24164,"lon":5.36397,"is_reserved":false,"is_disabled":false,"rental_uris":{"android":"levelo://app?vid=149e3021-1368-416e-9e1b-afdb4ad781f2","ios":"levelo://app?vid=149e3021-1368-416e-9e1b-afdb4ad781f2"},"vehicle_type_id":"4","last_reported":1736240996,"current_range_meters":32400,"station_id":"cpo36qri1sfpv3e86is0","pricing_plan_id":"cebpf4jnsgd1na2vs0mg"},{"bike_id":"d3f4dc47-22e3-4b3a-8557-9ec7893c6ec5","system_id":"levelo_inurba_marseille","lat":43.2695,"lon":5.38632,"is_reserved":false,"is_disabled":false,"rental_uris":{"android":"levelo://app?vid=d3f4dc47-22e3-4b3a-8557-9ec7893c6ec5","ios":"levelo://app?vid=d3f4dc47-22e3-4b3a-8557-9ec7893c6ec5"},"vehicle_type_id":"4","last_reported":1736240996,"current_range_meters":24400,"station_id":"ce4bhh92rcd13ifvqfh0","pricing_plan_id":"cebpf4jnsgd1na2vs0mg"},{"bike_id":"ee7f5816-483f-4372-8ce1-bc546e1bdb5f","system_id":"levelo_inurba_marseille","lat":43.2499,"lon":5.3894,"is_reserved":false,"is_disabled":false,"rental_uris":{"android":"levelo://app?vid=ee7f5816-483f-4372-8ce1-bc546e1bdb5f","ios":"levelo://app?vid=ee7f5816-483f-4372-8ce1-bc546e1bdb5f"},"vehicle_type_id":"4","last_reported":1736240996,"current_range_meters":24000,"station_id":"ce4bhgp2rcd13ifvqfd0","pricing_plan_id":"cebpf4jnsgd1na2vs0mg"},{"bike_id":"1751b565-b17d-4e26-9377-4c37c46c3564","system_id":"levelo_inurba_marseille","lat":43.29707,"lon":5.36619,"is_reserved":false,"is_disabled":false,"rental_uris":{"android":"levelo://app?vid=1751b565-b17d-4e26-9377-4c37c46c3564","ios":"levelo://app?vid=1751b565-b17d-4e26-9377-4c37c46c3564"},"vehicle_type_id":"4","last_reported":1736240996,"current_range_meters":37600,"station_id":"ce4bgn12rcd13ifvqbt0","pricing_plan_id":"cebpf4jnsgd1na2vs0mg"},{"bike_id":"b92414fa-f45e-4dc8-ba9a-7a0d49f60619","system_id":"levelo_inurba_marseille","lat":43.27202,"lon":5.39187,"is_reserved":false,"is_disabled":false,"rental_uris":{"android":"levelo://app?vid=b92414fa-f45e-4dc8-ba9a-7a0d49f60619","ios":"levelo://app?vid=b92414fa-f45e-4dc8-ba9a-7a0d49f60619"},"vehicle_type_id":"4","last_reported":1736240996,"current_range_meters":16800,"station_id":"ce4bhhp2rcd13ifvqfm0","pricing_plan_id":"cebpf4jnsgd1na2vs0mg"},{"bike_id":"8ab598b6-74e1-4b0e-8edb-ab2a2e4eb67e","system_id":"levelo_inurba_marseille","lat":43.28402,"lon":5.37531,"is_reserved":false,"is_disabled":true,"rental_uris":{"android":"levelo://app?vid=8ab598b6-74e1-4b0e-8edb-ab2a2e4eb67e","ios":"levelo://app?vid=8ab598b6-74e1-4b0e-8edb-ab2a2e4eb67e"},"vehicle_type_id":"4","last_reported":1736240996,"current_range_meters":36800,"station_id":"","pricing_plan_id":"cebpf4jnsgd1na2vs0mg"},{"bike_id":"2a019b16-5261-4423-a8db-9a6a598a732b","system_id":"levelo_inurba_marseille","lat":43.296198,"lon":5.377137,"is_reserved":false,"is_disabled":false,"rental_uris":{"android":"levelo://app?vid=2a019b16-5261-4423-a8db-9a6a598a732b","ios":"levelo://app?vid=2a019b16-5261-4423-a8db-9a6a598a732b"},"vehicle_type_id":"4","last_reported":1736240996,"current_range_meters":26800,"station_id":"ce4bgi92rcd13ifvqb90","pricing_plan_id":"cebpf4jnsgd1na2vs0mg"},{"bike_id":"5b81f44d-6688-40d5-965f-8cf49074bbc3","system_id":"levelo_inurba_marseille","lat":43.29626,"lon":5.37729,"is_reserved":false,"is_disabled":false,"rental_uris":{"android":"levelo://app?vid=5b81f44d-6688-40d5-965f-8cf49074bbc3","ios":"levelo://app?vid=5b81f44d-6688-40d5-965f-8cf49074bbc3"},"vehicle_type_id":"4","last_reported":1736240996,"current_range_meters":25200,"station_id":"ce4bgi92rcd13ifvqb90","pricing_plan_id":"cebpf4jnsgd1na2vs0mg"},{"bike_id":"e649eee8-9bc7-4af1-8705-8eca6508f8fb","system_id":"levelo_inurba_marseille","lat":43.3089,"lon":5.36854,"is_reserved":false,"is_disabled":false,"rental_uris":{"android":"levelo://app?vid=e649eee8-9bc7-4af1-8705-8eca6508f8fb","ios":"levelo://app?vid=e649eee8-9bc7-4af1-8705-8eca6508f8fb"},"vehicle_type_id":"4","last_reported":1736240996,"current_range_meters":38800,"station_id":"ce4bgn92rcd13ifvqbvg","pricing_plan_id":"cebpf4jnsgd1na2vs0mg"},{"bike_id":"90cc549c-0caa-4120-a382-164d27980f0d","system_id":"levelo_inurba_marseille","lat":43.2594,"lon":5.40901,"is_reserved":false,"is_disabled":false,"rental_uris":{"android":"levelo://app?vid=90cc549c-0caa-4120-a382-164d27980f0d","ios":"levelo://app?vid=90cc549c-0caa-4120-a382-164d27980f0d"},"vehicle_type_id":"4","last_reported":1736240996,"current_range_meters":27200,"station_id":"ce4bhm92rcd13ifvqglg","pricing_plan_id":"cebpf4jnsgd1na2vs0mg"},{"bike_id":"0d869571-702b-474e-9734-e51fa36b8db2","system_id":"levelo_inurba_marseille","lat":43.29189,"lon":5.3932,"is_reserved":false,"is_disabled":true,"rental_uris":{"android":"levelo://app?vid=0d869571-702b-474e-9734-e51fa36b8db2","ios":"levelo://app?vid=0d869571-702b-474e-9734-e51fa36b8db2"},"vehicle_type_id":"4","last_reported":1736240996,"current_range_meters":8400,"station_id":"ce4bh192rcd13ifvqdd0","pricing_plan_id":"cebpf4jnsgd1na2vs0mg"},{"bike_id":"f3744943-ee86-4660-bc5b-2f1e243daeed","system_id":"levelo_inurba_marseille","lat":43.28274,"lon":5.35059,"is_reserved":false,"is_disabled":false,"rental_uris":{"android":"levelo://app?vid=f3744943-ee86-4660-bc5b-2f1e243daeed","ios":"levelo://app?vid=f3744943-ee86-4660-bc5b-2f1e243daeed"},"vehicle_type_id":"4","last_reported":1736240996,"current_range_meters":18000,"station_id":"ce4bhbp2rcd13ifvqerg","pricing_plan_id":"cebpf4jnsgd1na2vs0mg"},{"bike_id":"6df17fb0-2ddd-4e94-9f55-4c7ec4dae7de","system_id":"levelo_inurba_marseille","lat":43.2902,"lon":5.38131,"is_reserved":false,"is_disabled":false,"rental_uris":{"android":"levelo://app?vid=6df17fb0-2ddd-4e94-9f55-4c7ec4dae7de","ios":"levelo://app?vid=6df17fb0-2ddd-4e94-9f55-4c7ec4dae7de"},"vehicle_type_id":"4","last_reported":1736240996,"current_range_meters":19600,"station_id":"ce4bh4p2rcd13ifvqe1g","pricing_plan_id":"cebpf4jnsgd1na2vs0mg"},{"bike_id":"634f6533-1a25-40ca-9a18-12a912b70bc8","system_id":"levelo_inurba_marseille","lat":43.25923,"lon":5.4091,"is_reserved":false,"is_disabled":false,"rental_uris":{"android":"levelo://app?vid=634f6533-1a25-40ca-9a18-12a912b70bc8","ios":"levelo://app?vid=634f6533-1a25-40ca-9a18-12a912b70bc8"},"vehicle_type_id":"4","last_reported":1736240996,"current_range_meters":30400,"station_id":"ce4bhm92rcd13ifvqglg","pricing_plan_id":"cebpf4jnsgd1na2vs0mg"},{"bike_id":"4c58a8a6-dfaa-45fe-b47a-5a02dc616ff5","system_id":"levelo_inurba_marseille","lat":43.27068,"lon":5.42277,"is_reserved":false,"is_disabled":false,"rental_uris":{"android":"levelo://app?vid=4c58a8a6-dfaa-45fe-b47a-5a02dc616ff5","ios":"levelo://app?vid=4c58a8a6-dfaa-45fe-b47a-5a02dc616ff5"},"vehicle_type_id":"4","last_reported":1736240996,"current_range_meters":38000,"station_id":"ce4bhk92rcd13ifvqgb0","pricing_plan_id":"cebpf4jnsgd1na2vs0mg"},{"bike_id":"e0ea2237-0ef2-4154-8a69-ef93b2bdd65b","system_id":"levelo_inurba_marseille","lat":43.25494,"lon":5.37651,"is_reserved":false,"is_disabled":false,"rental_uris":{"android":"levelo://app?vid=e0ea2237-0ef2-4154-8a69-ef93b2bdd65b","ios":"levelo://app?vid=e0ea2237-0ef2-4154-8a69-ef93b2bdd65b"},"vehicle_type_id":"4","last_reported":1736240996,"current_range_meters":38400,"station_id":"ce4bhh12rcd13ifvqff0","pricing_plan_id":"cebpf4jnsgd1na2vs0mg"},{"bike_id":"8d0a5209-eca8-4990-a4f5-66f0ee5c1c9b","system_id":"levelo_inurba_marseille","lat":43.33592,"lon":5.41017,"is_reserved":false,"is_disabled":false,"rental_uris":{"android":"levelo://app?vid=8d0a5209-eca8-4990-a4f5-66f0ee5c1c9b","ios":"levelo://app?vid=8d0a5209-eca8-4990-a4f5-66f0ee5c1c9b"},"vehicle_type_id":"4","last_reported":1736240996,"current_range_meters":23200,"station_id":"ce4bhqh2rcd13ifvqhmg","pricing_plan_id":"cebpf4jnsgd1na2vs0mg"},{"bike_id":"19ee9c6d-d080-4458-972e-e5429aeeacf2","system_id":"levelo_inurba_marseille","lat":43.241749,"lon":5.397374,"is_reserved":false,"is_disabled":false,"rental_uris":{"android":"levelo://app?vid=19ee9c6d-d080-4458-972e-e5429aeeacf2","ios":"levelo://app?vid=19ee9c6d-d080-4458-972e-e5429aeeacf2"},"vehicle_type_id":"4","last_reported":1736240996,"current_range_meters":37600,"station_id":"ce4bhn12rcd13ifvqgpg","pricing_plan_id":"cebpf4jnsgd1na2vs0mg"},{"bike_id":"f74f192e-39bc-4ab0-b0a6-e42592d371cb","system_id":"levelo_inurba_marseille","lat":43.299072,"lon":5.441651,"is_reserved":false,"is_disabled":false,"rental_uris":{"android":"levelo://app?vid=f74f192e-39bc-4ab0-b0a6-e42592d371cb","ios":"levelo://app?vid=f74f192e-39bc-4ab0-b0a6-e42592d371cb"},"vehicle_type_id":"4","last_reported":1736240996,"current_range_meters":30400,"station_id":"","pricing_plan_id":"cebpf4jnsgd1na2vs0mg"},{"bike_id":"a23e7dd5-84cc-4eca-9236-90b42c7ed41b","system_id":"levelo_inurba_marseille","lat":43.32341,"lon":5.40654,"is_reserved":false,"is_disabled":true,"rental_uris":{"android":"levelo://app?vid=a23e7dd5-84cc-4eca-9236-90b42c7ed41b","ios":"levelo://app?vid=a23e7dd5-84cc-4eca-9236-90b42c7ed41b"},"vehicle_type_id":"4","last_reported":1736240996,"current_range_meters":13600,"station_id":"ce4bhq92rcd13ifvqhjg","pricing_plan_id":"cebpf4jnsgd1na2vs0mg"},{"bike_id":"bbfcb00c-14e8-4a5b-bdad-4c72d963ad05","system_id":"levelo_inurba_marseille","lat":43.30143,"lon":5.37418,"is_reserved":false,"is_disabled":false,"rental_uris":{"android":"levelo://app?vid=bbfcb00c-14e8-4a5b-bdad-4c72d963ad05","ios":"levelo://app?vid=bbfcb00c-14e8-4a5b-bdad-4c72d963ad05"},"vehicle_type_id":"4","last_reported":1736240996,"current_range_meters":16000,"station_id":"ce4bgs92rcd13ifvqcc0","pricing_plan_id":"cebpf4jnsgd1na2vs0mg"},{"bike_id":"27c39241-fa06-47c1-9d45-a5cbaafe95c9","system_id":"levelo_inurba_marseille","lat":43.30926,"lon":5.401423,"is_reserved":false,"is_disabled":false,"rental_uris":{"android":"levelo://app?vid=27c39241-fa06-47c1-9d45-a5cbaafe95c9","ios":"levelo://app?vid=27c39241-fa06-47c1-9d45-a5cbaafe95c9"},"vehicle_type_id":"4","last_reported":1736240996,"current_range_meters":28000,"station_id":"ce4bgvp2rcd13ifvqct0","pricing_plan_id":"cebpf4jnsgd1na2vs0mg"},{"bike_id":"891f4eac-933d-47fe-8649-2250e48f74dc","system_id":"levelo_inurba_marseille","lat":43.29583,"lon":5.37766,"is_reserved":false,"is_disabled":false,"rental_uris":{"android":"levelo://app?vid=891f4eac-933d-47fe-8649-2250e48f74dc","ios":"levelo://app?vid=891f4eac-933d-47fe-8649-2250e48f74dc"},"vehicle_type_id":"4","last_reported":1736240996,"current_range_meters":27200,"station_id":"ce4bgi92rcd13ifvqb90","pricing_plan_id":"cebpf4jnsgd1na2vs0mg"},{"bike_id":"bcfcdd76-be36-45b6-88f2-c3189a920404","system_id":"levelo_inurba_marseille","lat":43.30287,"lon":5.376986,"is_reserved":false,"is_disabled":false,"rental_uris":{"android":"levelo://app?vid=bcfcdd76-be36-45b6-88f2-c3189a920404","ios":"levelo://app?vid=bcfcdd76-be36-45b6-88f2-c3189a920404"},"vehicle_type_id":"4","last_reported":1736240996,"current_range_meters":38800,"station_id":"ce4bguh2rcd13ifvqcj0","pricing_plan_id":"cebpf4jnsgd1na2vs0mg"},{"bike_id":"f11f56c5-47e5-43f6-bbfb-e36c082db081","system_id":"levelo_inurba_marseille","lat":43.3129,"lon":5.3676,"is_reserved":false,"is_disabled":false,"rental_uris":{"android":"levelo://app?vid=f11f56c5-47e5-43f6-bbfb-e36c082db081","ios":"levelo://app?vid=f11f56c5-47e5-43f6-bbfb-e36c082db081"},"vehicle_type_id":"4","last_reported":1736240996,"current_range_meters":38800,"station_id":"ce4bgr92rcd13ifvqc6g","pricing_plan_id":"cebpf4jnsgd1na2vs0mg"},{"bike_id":"210f83f0-8084-4178-b9ec-f82e2b99aa76","system_id":"levelo_inurba_marseille","lat":43.25583,"lon":5.38285,"is_reserved":false,"is_disabled":false,"rental_uris":{"android":"levelo://app?vid=210f83f0-8084-4178-b9ec-f82e2b99aa76","ios":"levelo://app?vid=210f83f0-8084-4178-b9ec-f82e2b99aa76"},"vehicle_type_id":"4","last_reported":1736240996,"current_range_meters":38800,"station_id":"ce4bhih2rcd13ifvqfs0","pricing_plan_id":"cebpf4jnsgd1na2vs0mg"},{"bike_id":"db973fb0-a7a7-419f-905d-9711a91dd280","system_id":"levelo_inurba_marseille","lat":43.2572,"lon":5.4112,"is_reserved":false,"is_disabled":true,"rental_uris":{"android":"levelo://app?vid=db973fb0-a7a7-419f-905d-9711a91dd280","ios":"levelo://app?vid=db973fb0-a7a7-419f-905d-9711a91dd280"},"vehicle_type_id":"4","last_reported":1736240996,"current_range_meters":36400,"station_id":"ce4bhkp2rcd13ifvqgd0","pricing_plan_id":"cebpf4jnsgd1na2vs0mg"},{"bike_id":"a0b57a50-67bc-4d12-bffe-4176748f2bc4","system_id":"levelo_inurba_marseille","lat":43.3031,"lon":5.36904,"is_reserved":false,"is_disabled":false,"rental_uris":{"android":"levelo://app?vid=a0b57a50-67bc-4d12-bffe-4176748f2bc4","ios":"levelo://app?vid=a0b57a50-67bc-4d12-bffe-4176748f2bc4"},"vehicle_type_id":"4","last_reported":1736240996,"current_range_meters":16400,"station_id":"ce4bgqh2rcd13ifvqc5g","pricing_plan_id":"cebpf4jnsgd1na2vs0mg"},{"bike_id":"92468610-4619-4028-811e-242ed2a589b0","system_id":"levelo_inurba_marseille","lat":43.23184,"lon":5.39993,"is_reserved":false,"is_disabled":false,"rental_uris":{"android":"levelo://app?vid=92468610-4619-4028-811e-242ed2a589b0","ios":"levelo://app?vid=92468610-4619-4028-811e-242ed2a589b0"},"vehicle_type_id":"4","last_reported":1736240996,"current_range_meters":14000,"station_id":"ce4bhn12rcd13ifvqgqg","pricing_plan_id":"cebpf4jnsgd1na2vs0mg"},{"bike_id":"fe09f8ca-f67b-4f31-8eb2-63074d94e886","system_id":"levelo_inurba_marseille","lat":43.25113,"lon":5.4032,"is_reserved":false,"is_disabled":false,"rental_uris":{"android":"levelo://app?vid=fe09f8ca-f67b-4f31-8eb2-63074d94e886","ios":"levelo://app?vid=fe09f8ca-f67b-4f31-8eb2-63074d94e886"},"vehicle_type_id":"4","last_reported":1736240996,"current_range_meters":4400,"station_id":"ce4bhlh2rcd13ifvqgig","pricing_plan_id":"cebpf4jnsgd1na2vs0mg"},{"bike_id":"1bf907ea-0717-4d4f-8585-f590c9ecec4d","system_id":"levelo_inurba_marseille","lat":43.24097,"lon":5.37764,"is_reserved":false,"is_disabled":true,"rental_uris":{"android":"levelo://app?vid=1bf907ea-0717-4d4f-8585-f590c9ecec4d","ios":"levelo://app?vid=1bf907ea-0717-4d4f-8585-f590c9ecec4d"},"vehicle_type_id":"4","last_reported":1736240996,"current_range_meters":37600,"station_id":"ce4bhnp2rcd13ifvqgvg","pricing_plan_id":"cebpf4jnsgd1na2vs0mg"},{"bike_id":"bf3b87f9-dd67-49e8-97eb-076d78f0412d","system_id":"levelo_inurba_marseille","lat":43.26675,"lon":5.38281,"is_reserved":false,"is_disabled":false,"rental_uris":{"android":"levelo://app?vid=bf3b87f9-dd67-49e8-97eb-076d78f0412d","ios":"levelo://app?vid=bf3b87f9-dd67-49e8-97eb-076d78f0412d"},"vehicle_type_id":"4","last_reported":1736240996,"current_range_meters":33600,"station_id":"ce4bhg92rcd13ifvqf90","pricing_plan_id":"cebpf4jnsgd1na2vs0mg"},{"bike_id":"ad92df60-f3d5-495a-8326-c79bafcf1594","system_id":"levelo_inurba_marseille","lat":43.32272,"lon":5.38286,"is_reserved":false,"is_disabled":false,"rental_uris":{"android":"levelo://app?vid=ad92df60-f3d5-495a-8326-c79bafcf1594","ios":"levelo://app?vid=ad92df60-f3d5-495a-8326-c79bafcf1594"},"vehicle_type_id":"4","last_reported":1736240996,"current_range_meters":38800,"station_id":"ce4bhr12rcd13ifvqhqg","pricing_plan_id":"cebpf4jnsgd1na2vs0mg"},{"bike_id":"c0582d81-71b0-4eea-ba50-4da054cc145f","system_id":"levelo_inurba_marseille","lat":43.28179,"lon":5.42647,"is_reserved":false,"is_disabled":false,"rental_uris":{"android":"levelo://app?vid=c0582d81-71b0-4eea-ba50-4da054cc145f","ios":"levelo://app?vid=c0582d81-71b0-4eea-ba50-4da054cc145f"},"vehicle_type_id":"4","last_reported":1736240996,"current_range_meters":6400,"station_id":"ce4bhnh2rcd13ifvqgug","pricing_plan_id":"cebpf4jnsgd1na2vs0mg"},{"bike_id":"0aa10dfe-cc5f-4fc7-90b8-fc6a5ef6e9bf","system_id":"levelo_inurba_marseille","lat":43.25553,"lon":5.38255,"is_reserved":false,"is_disabled":false,"rental_uris":{"android":"levelo://app?vid=0aa10dfe-cc5f-4fc7-90b8-fc6a5ef6e9bf","ios":"levelo://app?vid=0aa10dfe-cc5f-4fc7-90b8-fc6a5ef6e9bf"},"vehicle_type_id":"4","last_reported":1736240996,"current_range_meters":17200,"station_id":"ce4bhih2rcd13ifvqfs0","pricing_plan_id":"cebpf4jnsgd1na2vs0mg"},{"bike_id":"bc9bb4d7-2fdc-4d34-b0a0-ed77a3035abd","system_id":"levelo_inurba_marseille","lat":43.31691,"lon":5.37761,"is_reserved":false,"is_disabled":false,"rental_uris":{"android":"levelo://app?vid=bc9bb4d7-2fdc-4d34-b0a0-ed77a3035abd","ios":"levelo://app?vid=bc9bb4d7-2fdc-4d34-b0a0-ed77a3035abd"},"vehicle_type_id":"4","last_reported":1736240996,"current_range_meters":27200,"station_id":"ce4bgth2rcd13ifvqch0","pricing_plan_id":"cebpf4jnsgd1na2vs0mg"},{"bike_id":"8426cb75-87ab-4635-ad12-c9daf81b2fdc","system_id":"levelo_inurba_marseille","lat":43.28159,"lon":5.42643,"is_reserved":false,"is_disabled":false,"rental_uris":{"android":"levelo://app?vid=8426cb75-87ab-4635-ad12-c9daf81b2fdc","ios":"levelo://app?vid=8426cb75-87ab-4635-ad12-c9daf81b2fdc"},"vehicle_type_id":"4","last_reported":1736240996,"current_range_meters":22800,"station_id":"ce4bhnh2rcd13ifvqgug","pricing_plan_id":"cebpf4jnsgd1na2vs0mg"},{"bike_id":"b8b1b502-8ae9-40ed-87d7-b3409a56128f","system_id":"levelo_inurba_marseille","lat":43.29166,"lon":5.37163,"is_reserved":false,"is_disabled":false,"rental_uris":{"android":"levelo://app?vid=b8b1b502-8ae9-40ed-87d7-b3409a56128f","ios":"levelo://app?vid=b8b1b502-8ae9-40ed-87d7-b3409a56128f"},"vehicle_type_id":"4","last_reported":1736240996,"current_range_meters":33200,"station_id":"ce4bha92rcd13ifvqeh0","pricing_plan_id":"cebpf4jnsgd1na2vs0mg"},{"bike_id":"7b78d5e2-5142-402d-a4f8-0f3037a6c533","system_id":"levelo_inurba_marseille","lat":43.26951,"lon":5.38628,"is_reserved":false,"is_disabled":true,"rental_uris":{"android":"levelo://app?vid=7b78d5e2-5142-402d-a4f8-0f3037a6c533","ios":"levelo://app?vid=7b78d5e2-5142-402d-a4f8-0f3037a6c533"},"vehicle_type_id":"4","last_reported":1736240996,"current_range_meters":34000,"station_id":"ce4bhh92rcd13ifvqfh0","pricing_plan_id":"cebpf4jnsgd1na2vs0mg"},{"bike_id":"f6b49847-7134-4441-8100-28b15567ae18","system_id":"levelo_inurba_marseille","lat":43.23144,"lon":5.43701,"is_reserved":false,"is_disabled":false,"rental_uris":{"android":"levelo://app?vid=f6b49847-7134-4441-8100-28b15567ae18","ios":"levelo://app?vid=f6b49847-7134-4441-8100-28b15567ae18"},"vehicle_type_id":"4","last_reported":1736240996,"current_range_meters":32400,"station_id":"ce4bhmp2rcd13ifvqgog","pricing_plan_id":"cebpf4jnsgd1na2vs0mg"},{"bike_id":"3eae848c-6f60-4f5d-91a5-c7bb0289e355","system_id":"levelo_inurba_marseille","lat":43.29609,"lon":5.37702,"is_reserved":false,"is_disabled":false,"rental_uris":{"android":"levelo://app?vid=3eae848c-6f60-4f5d-91a5-c7bb0289e355","ios":"levelo://app?vid=3eae848c-6f60-4f5d-91a5-c7bb0289e355"},"vehicle_type_id":"4","last_reported":1736240996,"current_range_meters":38800,"station_id":"ce4bgi92rcd13ifvqb90","pricing_plan_id":"cebpf4jnsgd1na2vs0mg"},{"bike_id":"9ffcb48c-ab9c-459c-98c2-77a5fb4040e2","system_id":"levelo_inurba_marseille","lat":43.29004,"lon":5.40003,"is_reserved":false,"is_disabled":false,"rental_uris":{"android":"levelo://app?vid=9ffcb48c-ab9c-459c-98c2-77a5fb4040e2","ios":"levelo://app?vid=9ffcb48c-ab9c-459c-98c2-77a5fb4040e2"},"vehicle_type_id":"4","last_reported":1736240996,"current_range_meters":28800,"station_id":"","pricing_plan_id":"cebpf4jnsgd1na2vs0mg"},{"bike_id":"ccefbdf4-df27-4947-9b01-eba3707af800","system_id":"levelo_inurba_marseille","lat":43.29534,"lon":5.38554,"is_reserved":false,"is_disabled":true,"rental_uris":{"android":"levelo://app?vid=ccefbdf4-df27-4947-9b01-eba3707af800","ios":"levelo://app?vid=ccefbdf4-df27-4947-9b01-eba3707af800"},"vehicle_type_id":"4","last_reported":1736240996,"current_range_meters":22000,"station_id":"ce4bgih2rcd13ifvqba0","pricing_plan_id":"cebpf4jnsgd1na2vs0mg"},{"bike_id":"05efc8db-a5eb-4569-9898-5a3e81ef0286","system_id":"levelo_inurba_marseille","lat":43.26561,"lon":5.39016,"is_reserved":false,"is_disabled":false,"rental_uris":{"android":"levelo://app?vid=05efc8db-a5eb-4569-9898-5a3e81ef0286","ios":"levelo://app?vid=05efc8db-a5eb-4569-9898-5a3e81ef0286"},"vehicle_type_id":"4","last_reported":1736240996,"current_range_meters":33600,"station_id":"ce4bhe12rcd13ifvqf30","pricing_plan_id":"cebpf4jnsgd1na2vs0mg"},{"bike_id":"1a8a4ac6-721e-46c5-9bc1-8786c572105f","system_id":"levelo_inurba_marseille","lat":43.24082,"lon":5.3776,"is_reserved":false,"is_disabled":true,"rental_uris":{"android":"levelo://app?vid=1a8a4ac6-721e-46c5-9bc1-8786c572105f","ios":"levelo://app?vid=1a8a4ac6-721e-46c5-9bc1-8786c572105f"},"vehicle_type_id":"4","last_reported":1736240996,"current_range_meters":1600,"station_id":"ce4bhnp2rcd13ifvqgvg","pricing_plan_id":"cebpf4jnsgd1na2vs0mg"},{"bike_id":"7cf7b25f-d4b6-482e-ab44-d17028d65cd7","system_id":"levelo_inurba_marseille","lat":43.3171,"lon":5.37753,"is_reserved":false,"is_disabled":false,"rental_uris":{"android":"levelo://app?vid=7cf7b25f-d4b6-482e-ab44-d17028d65cd7","ios":"levelo://app?vid=7cf7b25f-d4b6-482e-ab44-d17028d65cd7"},"vehicle_type_id":"4","last_reported":1736240996,"current_range_meters":31200,"station_id":"ce4bgth2rcd13ifvqch0","pricing_plan_id":"cebpf4jnsgd1na2vs0mg"},{"bike_id":"76cd352e-a8d9-42f0-bb47-cbf0cb3d076a","system_id":"levelo_inurba_marseille","lat":43.26674,"lon":5.38268,"is_reserved":false,"is_disabled":false,"rental_uris":{"android":"levelo://app?vid=76cd352e-a8d9-42f0-bb47-cbf0cb3d076a","ios":"levelo://app?vid=76cd352e-a8d9-42f0-bb47-cbf0cb3d076a"},"vehicle_type_id":"4","last_reported":1736240996,"current_range_meters":14000,"station_id":"ce4bhg92rcd13ifvqf90","pricing_plan_id":"cebpf4jnsgd1na2vs0mg"},{"bike_id":"600b0f80-e1c6-4a08-b3fb-0f2cfd8dcd3e","system_id":"levelo_inurba_marseille","lat":43.31501,"lon":5.37264,"is_reserved":false,"is_disabled":false,"rental_uris":{"android":"levelo://app?vid=600b0f80-e1c6-4a08-b3fb-0f2cfd8dcd3e","ios":"levelo://app?vid=600b0f80-e1c6-4a08-b3fb-0f2cfd8dcd3e"},"vehicle_type_id":"4","last_reported":1736240996,"current_range_meters":38000,"station_id":"ce4bgt12rcd13ifvqcd0","pricing_plan_id":"cebpf4jnsgd1na2vs0mg"},{"bike_id":"595af76e-9cd9-40a6-be88-7f0bf392cb89","system_id":"levelo_inurba_marseille","lat":43.30876,"lon":5.37186,"is_reserved":false,"is_disabled":false,"rental_uris":{"android":"levelo://app?vid=595af76e-9cd9-40a6-be88-7f0bf392cb89","ios":"levelo://app?vid=595af76e-9cd9-40a6-be88-7f0bf392cb89"},"vehicle_type_id":"4","last_reported":1736240996,"current_range_meters":28800,"station_id":"ce4bguh2rcd13ifvqckg","pricing_plan_id":"cebpf4jnsgd1na2vs0mg"},{"bike_id":"1c481475-c11b-4ecc-bc54-1fc518f12b1f","system_id":"levelo_inurba_marseille","lat":43.31707,"lon":5.3776,"is_reserved":false,"is_disabled":false,"rental_uris":{"android":"levelo://app?vid=1c481475-c11b-4ecc-bc54-1fc518f12b1f","ios":"levelo://app?vid=1c481475-c11b-4ecc-bc54-1fc518f12b1f"},"vehicle_type_id":"4","last_reported":1736240996,"current_range_meters":38800,"station_id":"ce4bgth2rcd13ifvqch0","pricing_plan_id":"cebpf4jnsgd1na2vs0mg"},{"bike_id":"575780d5-a55f-439e-b7aa-e26e28129fb6","system_id":"levelo_inurba_marseille","lat":43.29567,"lon":5.3752,"is_reserved":false,"is_disabled":false,"rental_uris":{"android":"levelo://app?vid=575780d5-a55f-439e-b7aa-e26e28129fb6","ios":"levelo://app?vid=575780d5-a55f-439e-b7aa-e26e28129fb6"},"vehicle_type_id":"4","last_reported":1736240996,"current_range_meters":25200,"station_id":"ce4bgh92rcd13ifvqb50","pricing_plan_id":"cebpf4jnsgd1na2vs0mg"},{"bike_id":"bf21850d-acff-4543-bb38-ded9a3c0e11c","system_id":"levelo_inurba_marseille","lat":43.26685,"lon":5.38265,"is_reserved":false,"is_disabled":false,"rental_uris":{"android":"levelo://app?vid=bf21850d-acff-4543-bb38-ded9a3c0e11c","ios":"levelo://app?vid=bf21850d-acff-4543-bb38-ded9a3c0e11c"},"vehicle_type_id":"4","last_reported":1736240996,"current_range_meters":14800,"station_id":"ce4bhg92rcd13ifvqf90","pricing_plan_id":"cebpf4jnsgd1na2vs0mg"},{"bike_id":"637c9e25-6ec5-4d5c-9ec9-ed6c73dcb821","system_id":"levelo_inurba_marseille","lat":43.31684,"lon":5.37781,"is_reserved":false,"is_disabled":false,"rental_uris":{"android":"levelo://app?vid=637c9e25-6ec5-4d5c-9ec9-ed6c73dcb821","ios":"levelo://app?vid=637c9e25-6ec5-4d5c-9ec9-ed6c73dcb821"},"vehicle_type_id":"4","last_reported":1736240996,"current_range_meters":36400,"station_id":"ce4bgth2rcd13ifvqch0","pricing_plan_id":"cebpf4jnsgd1na2vs0mg"},{"bike_id":"177ffa1e-b447-4332-b1a4-7216cfbbfdd7","system_id":"levelo_inurba_marseille","lat":43.2956,"lon":5.37506,"is_reserved":false,"is_disabled":false,"rental_uris":{"android":"levelo://app?vid=177ffa1e-b447-4332-b1a4-7216cfbbfdd7","ios":"levelo://app?vid=177ffa1e-b447-4332-b1a4-7216cfbbfdd7"},"vehicle_type_id":"4","last_reported":1736240996,"current_range_meters":20800,"station_id":"ce4bgh92rcd13ifvqb50","pricing_plan_id":"cebpf4jnsgd1na2vs0mg"},{"bike_id":"ed3ff826-4ec5-4872-9377-da8d91801879","system_id":"levelo_inurba_marseille","lat":43.29278,"lon":5.40115,"is_reserved":false,"is_disabled":false,"rental_uris":{"android":"levelo://app?vid=ed3ff826-4ec5-4872-9377-da8d91801879","ios":"levelo://app?vid=ed3ff826-4ec5-4872-9377-da8d91801879"},"vehicle_type_id":"4","last_reported":1736240996,"current_range_meters":27600,"station_id":"ce4bh312rcd13ifvqdk0","pricing_plan_id":"cebpf4jnsgd1na2vs0mg"},{"bike_id":"ba43b9d9-6708-4b9e-ba0e-3ccd9c760fe2","system_id":"levelo_inurba_marseille","lat":43.30419,"lon":5.41288,"is_reserved":false,"is_disabled":false,"rental_uris":{"android":"levelo://app?vid=ba43b9d9-6708-4b9e-ba0e-3ccd9c760fe2","ios":"levelo://app?vid=ba43b9d9-6708-4b9e-ba0e-3ccd9c760fe2"},"vehicle_type_id":"4","last_reported":1736240996,"current_range_meters":38000,"station_id":"ce4bhop2rcd13ifvqh8g","pricing_plan_id":"cebpf4jnsgd1na2vs0mg"},{"bike_id":"bdd62aa5-2f74-44b1-8170-3e44d6ed0b87","system_id":"levelo_inurba_marseille","lat":43.30949,"lon":5.39051,"is_reserved":false,"is_disabled":false,"rental_uris":{"android":"levelo://app?vid=bdd62aa5-2f74-44b1-8170-3e44d6ed0b87","ios":"levelo://app?vid=bdd62aa5-2f74-44b1-8170-3e44d6ed0b87"},"vehicle_type_id":"4","last_reported":1736240996,"current_range_meters":38800,"station_id":"ce4bgup2rcd13ifvqco0","pricing_plan_id":"cebpf4jnsgd1na2vs0mg"},{"bike_id":"0c812796-6432-4407-90e3-d880842172aa","system_id":"levelo_inurba_marseille","lat":43.2408,"lon":5.37751,"is_reserved":false,"is_disabled":false,"rental_uris":{"android":"levelo://app?vid=0c812796-6432-4407-90e3-d880842172aa","ios":"levelo://app?vid=0c812796-6432-4407-90e3-d880842172aa"},"vehicle_type_id":"4","last_reported":1736240996,"current_range_meters":23200,"station_id":"ce4bhnp2rcd13ifvqgvg","pricing_plan_id":"cebpf4jnsgd1na2vs0mg"},{"bike_id":"48ea2051-fcf3-46d8-a1d9-b7059b514789","system_id":"levelo_inurba_marseille","lat":43.28261,"lon":5.350725,"is_reserved":false,"is_disabled":false,"rental_uris":{"android":"levelo://app?vid=48ea2051-fcf3-46d8-a1d9-b7059b514789","ios":"levelo://app?vid=48ea2051-fcf3-46d8-a1d9-b7059b514789"},"vehicle_type_id":"4","last_reported":1736240996,"current_range_meters":38400,"station_id":"ce4bhbp2rcd13ifvqerg","pricing_plan_id":"cebpf4jnsgd1na2vs0mg"},{"bike_id":"6e8d4ead-5679-4803-9da9-ab2f84388d19","system_id":"levelo_inurba_marseille","lat":43.25814,"lon":5.39438,"is_reserved":false,"is_disabled":false,"rental_uris":{"android":"levelo://app?vid=6e8d4ead-5679-4803-9da9-ab2f84388d19","ios":"levelo://app?vid=6e8d4ead-5679-4803-9da9-ab2f84388d19"},"vehicle_type_id":"4","last_reported":1736240996,"current_range_meters":38000,"station_id":"ce4bhip2rcd13ifvqft0","pricing_plan_id":"cebpf4jnsgd1na2vs0mg"},{"bike_id":"cd364d72-d31a-4414-89fd-aae55a557184","system_id":"levelo_inurba_marseille","lat":43.32323,"lon":5.40619,"is_reserved":false,"is_disabled":false,"rental_uris":{"android":"levelo://app?vid=cd364d72-d31a-4414-89fd-aae55a557184","ios":"levelo://app?vid=cd364d72-d31a-4414-89fd-aae55a557184"},"vehicle_type_id":"4","last_reported":1736240996,"current_range_meters":38800,"station_id":"ce4bhq92rcd13ifvqhjg","pricing_plan_id":"cebpf4jnsgd1na2vs0mg"},{"bike_id":"95e5cb8a-94c1-4734-b68c-d5e982be7034","system_id":"levelo_inurba_marseille","lat":43.25826,"lon":5.39414,"is_reserved":false,"is_disabled":true,"rental_uris":{"android":"levelo://app?vid=95e5cb8a-94c1-4734-b68c-d5e982be7034","ios":"levelo://app?vid=95e5cb8a-94c1-4734-b68c-d5e982be7034"},"vehicle_type_id":"4","last_reported":1736240996,"current_range_meters":35600,"station_id":"ce4bhip2rcd13ifvqft0","pricing_plan_id":"cebpf4jnsgd1na2vs0mg"},{"bike_id":"6a595de3-0911-46a9-bdbf-4cca5437105e","system_id":"levelo_inurba_marseille","lat":43.231959,"lon":5.355435,"is_reserved":false,"is_disabled":false,"rental_uris":{"android":"levelo://app?vid=6a595de3-0911-46a9-bdbf-4cca5437105e","ios":"levelo://app?vid=6a595de3-0911-46a9-bdbf-4cca5437105e"},"vehicle_type_id":"4","last_reported":1736240996,"current_range_meters":16800,"station_id":"ce4bhu92rcd13ifvqi70","pricing_plan_id":"cebpf4jnsgd1na2vs0mg"},{"bike_id":"641d8acc-50b2-4173-ab23-c70f2a11d28e","system_id":"levelo_inurba_marseille","lat":43.28146,"lon":5.42652,"is_reserved":false,"is_disabled":true,"rental_uris":{"android":"levelo://app?vid=641d8acc-50b2-4173-ab23-c70f2a11d28e","ios":"levelo://app?vid=641d8acc-50b2-4173-ab23-c70f2a11d28e"},"vehicle_type_id":"4","last_reported":1736240996,"current_range_meters":24400,"station_id":"ce4bhnh2rcd13ifvqgug","pricing_plan_id":"cebpf4jnsgd1na2vs0mg"},{"bike_id":"15e503f5-1d52-42d6-a98f-33a61fd8b554","system_id":"levelo_inurba_marseille","lat":43.28464,"lon":5.35881,"is_reserved":false,"is_disabled":true,"rental_uris":{"android":"levelo://app?vid=15e503f5-1d52-42d6-a98f-33a61fd8b554","ios":"levelo://app?vid=15e503f5-1d52-42d6-a98f-33a61fd8b554"},"vehicle_type_id":"4","last_reported":1736240996,"current_range_meters":17200,"station_id":"ce4bhah2rcd13ifvqei0","pricing_plan_id":"cebpf4jnsgd1na2vs0mg"},{"bike_id":"fc4f4fbe-0b2c-431b-a14f-b432ec7eed3b","system_id":"levelo_inurba_marseille","lat":43.30949,"lon":5.39026,"is_reserved":false,"is_disabled":false,"rental_uris":{"android":"levelo://app?vid=fc4f4fbe-0b2c-431b-a14f-b432ec7eed3b","ios":"levelo://app?vid=fc4f4fbe-0b2c-431b-a14f-b432ec7eed3b"},"vehicle_type_id":"4","last_reported":1736240996,"current_range_meters":4800,"station_id":"ce4bgup2rcd13ifvqco0","pricing_plan_id":"cebpf4jnsgd1na2vs0mg"},{"bike_id":"226eba7b-86df-4cc7-a539-29d5666582be","system_id":"levelo_inurba_marseille","lat":43.270602,"lon":5.422783,"is_reserved":false,"is_disabled":false,"rental_uris":{"android":"levelo://app?vid=226eba7b-86df-4cc7-a539-29d5666582be","ios":"levelo://app?vid=226eba7b-86df-4cc7-a539-29d5666582be"},"vehicle_type_id":"4","last_reported":1736240996,"current_range_meters":38800,"station_id":"ce4bhk92rcd13ifvqgb0","pricing_plan_id":"cebpf4jnsgd1na2vs0mg"},{"bike_id":"2eeaf332-0d9d-4b54-9ab1-76de66e1189c","system_id":"levelo_inurba_marseille","lat":43.26929,"lon":5.38642,"is_reserved":false,"is_disabled":false,"rental_uris":{"android":"levelo://app?vid=2eeaf332-0d9d-4b54-9ab1-76de66e1189c","ios":"levelo://app?vid=2eeaf332-0d9d-4b54-9ab1-76de66e1189c"},"vehicle_type_id":"4","last_reported":1736240996,"current_range_meters":38800,"station_id":"ce4bhh92rcd13ifvqfh0","pricing_plan_id":"cebpf4jnsgd1na2vs0mg"},{"bike_id":"0c4b82b8-4ee9-4dc4-ac7d-6813a20fa47b","system_id":"levelo_inurba_marseille","lat":43.29527,"lon":5.375,"is_reserved":false,"is_disabled":false,"rental_uris":{"android":"levelo://app?vid=0c4b82b8-4ee9-4dc4-ac7d-6813a20fa47b","ios":"levelo://app?vid=0c4b82b8-4ee9-4dc4-ac7d-6813a20fa47b"},"vehicle_type_id":"4","last_reported":1736240996,"current_range_meters":38800,"station_id":"ce4bgkp2rcd13ifvqbmg","pricing_plan_id":"cebpf4jnsgd1na2vs0mg"},{"bike_id":"e79bc630-e2e9-4018-ae9a-5aaa4afbca11","system_id":"levelo_inurba_marseille","lat":43.29277,"lon":5.37432,"is_reserved":false,"is_disabled":false,"rental_uris":{"android":"levelo://app?vid=e79bc630-e2e9-4018-ae9a-5aaa4afbca11","ios":"levelo://app?vid=e79bc630-e2e9-4018-ae9a-5aaa4afbca11"},"vehicle_type_id":"4","last_reported":1736240996,"current_range_meters":33600,"station_id":"ce4bgi12rcd13ifvqb70","pricing_plan_id":"cebpf4jnsgd1na2vs0mg"},{"bike_id":"97db5fba-863c-4fa0-a4ed-153fce28887a","system_id":"levelo_inurba_marseille","lat":43.29056,"lon":5.37194,"is_reserved":false,"is_disabled":false,"rental_uris":{"android":"levelo://app?vid=97db5fba-863c-4fa0-a4ed-153fce28887a","ios":"levelo://app?vid=97db5fba-863c-4fa0-a4ed-153fce28887a"},"vehicle_type_id":"4","last_reported":1736240996,"current_range_meters":35200,"station_id":"ce4bh5p2rcd13ifvqe4g","pricing_plan_id":"cebpf4jnsgd1na2vs0mg"},{"bike_id":"6d88bbf0-f428-4bd4-ab8a-2ee8d5e7c74e","system_id":"levelo_inurba_marseille","lat":43.23058,"lon":5.35491,"is_reserved":false,"is_disabled":false,"rental_uris":{"android":"levelo://app?vid=6d88bbf0-f428-4bd4-ab8a-2ee8d5e7c74e","ios":"levelo://app?vid=6d88bbf0-f428-4bd4-ab8a-2ee8d5e7c74e"},"vehicle_type_id":"4","last_reported":1736240996,"current_range_meters":38400,"station_id":"cpo3342slgdg3j2ifvpg","pricing_plan_id":"cebpf4jnsgd1na2vs0mg"},{"bike_id":"111d7d6a-43fa-4e21-a451-9e07a8a13e56","system_id":"levelo_inurba_marseille","lat":43.29955,"lon":5.37106,"is_reserved":false,"is_disabled":false,"rental_uris":{"android":"levelo://app?vid=111d7d6a-43fa-4e21-a451-9e07a8a13e56","ios":"levelo://app?vid=111d7d6a-43fa-4e21-a451-9e07a8a13e56"},"vehicle_type_id":"4","last_reported":1736240996,"current_range_meters":35600,"station_id":"ce4bgr92rcd13ifvqc7g","pricing_plan_id":"cebpf4jnsgd1na2vs0mg"},{"bike_id":"fc28be46-23fe-4f09-821c-8a3bd21ca77c","system_id":"levelo_inurba_marseille","lat":43.25566,"lon":5.3824,"is_reserved":false,"is_disabled":true,"rental_uris":{"android":"levelo://app?vid=fc28be46-23fe-4f09-821c-8a3bd21ca77c","ios":"levelo://app?vid=fc28be46-23fe-4f09-821c-8a3bd21ca77c"},"vehicle_type_id":"4","last_reported":1736240996,"current_range_meters":1600,"station_id":"ce4bhih2rcd13ifvqfs0","pricing_plan_id":"cebpf4jnsgd1na2vs0mg"},{"bike_id":"237eb7a7-7331-4631-9377-6cdbdc6e4e98","system_id":"levelo_inurba_marseille","lat":43.26533,"lon":5.39021,"is_reserved":false,"is_disabled":true,"rental_uris":{"android":"levelo://app?vid=237eb7a7-7331-4631-9377-6cdbdc6e4e98","ios":"levelo://app?vid=237eb7a7-7331-4631-9377-6cdbdc6e4e98"},"vehicle_type_id":"4","last_reported":1736240996,"current_range_meters":32400,"station_id":"ce4bhe12rcd13ifvqf30","pricing_plan_id":"cebpf4jnsgd1na2vs0mg"},{"bike_id":"77e9c561-76d3-47c0-bcdd-db58bcf9815b","system_id":"levelo_inurba_marseille","lat":43.299639,"lon":5.413256,"is_reserved":false,"is_disabled":false,"rental_uris":{"android":"levelo://app?vid=77e9c561-76d3-47c0-bcdd-db58bcf9815b","ios":"levelo://app?vid=77e9c561-76d3-47c0-bcdd-db58bcf9815b"},"vehicle_type_id":"4","last_reported":1736240996,"current_range_meters":39200,"station_id":"ce4bhp12rcd13ifvqh9g","pricing_plan_id":"cebpf4jnsgd1na2vs0mg"},{"bike_id":"05bd0f7d-2e1d-4674-8e4e-7a85c8b489af","system_id":"levelo_inurba_marseille","lat":43.27057,"lon":5.40259,"is_reserved":false,"is_disabled":false,"rental_uris":{"android":"levelo://app?vid=05bd0f7d-2e1d-4674-8e4e-7a85c8b489af","ios":"levelo://app?vid=05bd0f7d-2e1d-4674-8e4e-7a85c8b489af"},"vehicle_type_id":"4","last_reported":1736240996,"current_range_meters":20000,"station_id":"ce4bhk92rcd13ifvqgc0","pricing_plan_id":"cebpf4jnsgd1na2vs0mg"},{"bike_id":"228ba626-e003-4cad-b2b7-161dbc218949","system_id":"levelo_inurba_marseille","lat":43.30606,"lon":5.39348,"is_reserved":false,"is_disabled":true,"rental_uris":{"android":"levelo://app?vid=228ba626-e003-4cad-b2b7-161dbc218949","ios":"levelo://app?vid=228ba626-e003-4cad-b2b7-161dbc218949"},"vehicle_type_id":"4","last_reported":1736240996,"current_range_meters":35600,"station_id":"ce4bh0p2rcd13ifvqd80","pricing_plan_id":"cebpf4jnsgd1na2vs0mg"},{"bike_id":"86cfe359-1d07-4226-a8aa-b9731bd056a4","system_id":"levelo_inurba_marseille","lat":43.301275,"lon":5.374308,"is_reserved":false,"is_disabled":false,"rental_uris":{"android":"levelo://app?vid=86cfe359-1d07-4226-a8aa-b9731bd056a4","ios":"levelo://app?vid=86cfe359-1d07-4226-a8aa-b9731bd056a4"},"vehicle_type_id":"4","last_reported":1736240996,"current_range_meters":39200,"station_id":"ce4bgs92rcd13ifvqcc0","pricing_plan_id":"cebpf4jnsgd1na2vs0mg"},{"bike_id":"e0666f4c-dba6-4762-b951-342d9dc779cb","system_id":"levelo_inurba_marseille","lat":43.26682,"lon":5.38269,"is_reserved":false,"is_disabled":false,"rental_uris":{"android":"levelo://app?vid=e0666f4c-dba6-4762-b951-342d9dc779cb","ios":"levelo://app?vid=e0666f4c-dba6-4762-b951-342d9dc779cb"},"vehicle_type_id":"4","last_reported":1736240996,"current_range_meters":12400,"station_id":"ce4bhg92rcd13ifvqf90","pricing_plan_id":"cebpf4jnsgd1na2vs0mg"},{"bike_id":"52e74274-9992-45ef-9ae7-22eff92ca4cd","system_id":"levelo_inurba_marseille","lat":43.29563,"lon":5.37506,"is_reserved":false,"is_disabled":false,"rental_uris":{"android":"levelo://app?vid=52e74274-9992-45ef-9ae7-22eff92ca4cd","ios":"levelo://app?vid=52e74274-9992-45ef-9ae7-22eff92ca4cd"},"vehicle_type_id":"4","last_reported":1736240996,"current_range_meters":35200,"station_id":"ce4bgh92rcd13ifvqb50","pricing_plan_id":"cebpf4jnsgd1na2vs0mg"},{"bike_id":"66598c6d-17b8-4c5c-8a32-40fe324e52f3","system_id":"levelo_inurba_marseille","lat":43.31123,"lon":5.37737,"is_reserved":false,"is_disabled":true,"rental_uris":{"android":"levelo://app?vid=66598c6d-17b8-4c5c-8a32-40fe324e52f3","ios":"levelo://app?vid=66598c6d-17b8-4c5c-8a32-40fe324e52f3"},"vehicle_type_id":"4","last_reported":1736240996,"current_range_meters":29600,"station_id":"ce4bgt92rcd13ifvqcg0","pricing_plan_id":"cebpf4jnsgd1na2vs0mg"},{"bike_id":"d072e0b2-c8ec-4de5-a5f6-fa297e4b6b75","system_id":"levelo_inurba_marseille","lat":43.2978,"lon":5.38115,"is_reserved":false,"is_disabled":false,"rental_uris":{"android":"levelo://app?vid=d072e0b2-c8ec-4de5-a5f6-fa297e4b6b75","ios":"levelo://app?vid=d072e0b2-c8ec-4de5-a5f6-fa297e4b6b75"},"vehicle_type_id":"4","last_reported":1736240996,"current_range_meters":16000,"station_id":"ce4bgip2rcd13ifvqbb0","pricing_plan_id":"cebpf4jnsgd1na2vs0mg"},{"bike_id":"4cc64dcc-6960-4c84-ace2-19b9cb422b48","system_id":"levelo_inurba_marseille","lat":43.29366,"lon":5.378558,"is_reserved":false,"is_disabled":false,"rental_uris":{"android":"levelo://app?vid=4cc64dcc-6960-4c84-ace2-19b9cb422b48","ios":"levelo://app?vid=4cc64dcc-6960-4c84-ace2-19b9cb422b48"},"vehicle_type_id":"4","last_reported":1736240996,"current_range_meters":39200,"station_id":"ce4bgjh2rcd13ifvqbf0","pricing_plan_id":"cebpf4jnsgd1na2vs0mg"},{"bike_id":"2287bfb2-bbe5-436a-bfa1-f68b1de88627","system_id":"levelo_inurba_marseille","lat":43.31756,"lon":5.39007,"is_reserved":false,"is_disabled":false,"rental_uris":{"android":"levelo://app?vid=2287bfb2-bbe5-436a-bfa1-f68b1de88627","ios":"levelo://app?vid=2287bfb2-bbe5-436a-bfa1-f68b1de88627"},"vehicle_type_id":"4","last_reported":1736240996,"current_range_meters":38800,"station_id":"ce4bhqp2rcd13ifvqhng","pricing_plan_id":"cebpf4jnsgd1na2vs0mg"},{"bike_id":"8572b3f3-d4bc-477b-9933-943a03b296e5","system_id":"levelo_inurba_marseille","lat":43.30425,"lon":5.38892,"is_reserved":false,"is_disabled":false,"rental_uris":{"android":"levelo://app?vid=8572b3f3-d4bc-477b-9933-943a03b296e5","ios":"levelo://app?vid=8572b3f3-d4bc-477b-9933-943a03b296e5"},"vehicle_type_id":"4","last_reported":1736240996,"current_range_meters":37600,"station_id":"ce4bgk12rcd13ifvqbi0","pricing_plan_id":"cebpf4jnsgd1na2vs0mg"},{"bike_id":"82b84c4a-7a6d-4314-a8be-5ece29c41aa5","system_id":"levelo_inurba_marseille","lat":43.29027,"lon":5.39966,"is_reserved":false,"is_disabled":false,"rental_uris":{"android":"levelo://app?vid=82b84c4a-7a6d-4314-a8be-5ece29c41aa5","ios":"levelo://app?vid=82b84c4a-7a6d-4314-a8be-5ece29c41aa5"},"vehicle_type_id":"4","last_reported":1736240996,"current_range_meters":38800,"station_id":"ce4bh392rcd13ifvqdm0","pricing_plan_id":"cebpf4jnsgd1na2vs0mg"},{"bike_id":"cca2f7c7-45e7-4f8a-80d9-cffca2b70c93","system_id":"levelo_inurba_marseille","lat":43.26673,"lon":5.38287,"is_reserved":false,"is_disabled":true,"rental_uris":{"android":"levelo://app?vid=cca2f7c7-45e7-4f8a-80d9-cffca2b70c93","ios":"levelo://app?vid=cca2f7c7-45e7-4f8a-80d9-cffca2b70c93"},"vehicle_type_id":"4","last_reported":1736240996,"current_range_meters":32800,"station_id":"ce4bhg92rcd13ifvqf90","pricing_plan_id":"cebpf4jnsgd1na2vs0mg"},{"bike_id":"c06688ba-3baf-43ca-bd73-f6695e1ed516","system_id":"levelo_inurba_marseille","lat":43.240692,"lon":5.377533,"is_reserved":false,"is_disabled":false,"rental_uris":{"android":"levelo://app?vid=c06688ba-3baf-43ca-bd73-f6695e1ed516","ios":"levelo://app?vid=c06688ba-3baf-43ca-bd73-f6695e1ed516"},"vehicle_type_id":"4","last_reported":1736240996,"current_range_meters":24400,"station_id":"ce4bhnp2rcd13ifvqgvg","pricing_plan_id":"cebpf4jnsgd1na2vs0mg"},{"bike_id":"edf135d7-fe46-453d-a20f-2c11dcbf0da8","system_id":"levelo_inurba_marseille","lat":43.23964,"lon":5.36639,"is_reserved":false,"is_disabled":false,"rental_uris":{"android":"levelo://app?vid=edf135d7-fe46-453d-a20f-2c11dcbf0da8","ios":"levelo://app?vid=edf135d7-fe46-453d-a20f-2c11dcbf0da8"},"vehicle_type_id":"4","last_reported":1736240996,"current_range_meters":33200,"station_id":"ce4bhi12rcd13ifvqfp0","pricing_plan_id":"cebpf4jnsgd1na2vs0mg"},{"bike_id":"10aaa063-1c87-45e7-8ea1-13f83539ec39","system_id":"levelo_inurba_marseille","lat":43.25033,"lon":5.39542,"is_reserved":false,"is_disabled":true,"rental_uris":{"android":"levelo://app?vid=10aaa063-1c87-45e7-8ea1-13f83539ec39","ios":"levelo://app?vid=10aaa063-1c87-45e7-8ea1-13f83539ec39"},"vehicle_type_id":"4","last_reported":1736240996,"current_range_meters":29600,"station_id":"","pricing_plan_id":"cebpf4jnsgd1na2vs0mg"},{"bike_id":"dec7d51c-8fa2-4406-8226-0b8749577fae","system_id":"levelo_inurba_marseille","lat":43.28856,"lon":5.35861,"is_reserved":false,"is_disabled":false,"rental_uris":{"android":"levelo://app?vid=dec7d51c-8fa2-4406-8226-0b8749577fae","ios":"levelo://app?vid=dec7d51c-8fa2-4406-8226-0b8749577fae"},"vehicle_type_id":"4","last_reported":1736240996,"current_range_meters":37600,"station_id":"ce4bhb12rcd13ifvqem0","pricing_plan_id":"cebpf4jnsgd1na2vs0mg"},{"bike_id":"0a967f6d-fd0e-4773-80c2-1aa9d073824b","system_id":"levelo_inurba_marseille","lat":43.25089,"lon":5.39491,"is_reserved":false,"is_disabled":false,"rental_uris":{"android":"levelo://app?vid=0a967f6d-fd0e-4773-80c2-1aa9d073824b","ios":"levelo://app?vid=0a967f6d-fd0e-4773-80c2-1aa9d073824b"},"vehicle_type_id":"4","last_reported":1736240996,"current_range_meters":29600,"station_id":"ce4bhm12rcd13ifvqgkg","pricing_plan_id":"cebpf4jnsgd1na2vs0mg"},{"bike_id":"16a304b1-2b6b-438f-998a-e5716446067e","system_id":"levelo_inurba_marseille","lat":43.29226,"lon":5.36059,"is_reserved":false,"is_disabled":false,"rental_uris":{"android":"levelo://app?vid=16a304b1-2b6b-438f-998a-e5716446067e","ios":"levelo://app?vid=16a304b1-2b6b-438f-998a-e5716446067e"},"vehicle_type_id":"4","last_reported":1736240996,"current_range_meters":30800,"station_id":"ce4bhbh2rcd13ifvqeqg","pricing_plan_id":"cebpf4jnsgd1na2vs0mg"},{"bike_id":"a7b6a724-b627-427f-a203-c936f30961bc","system_id":"levelo_inurba_marseille","lat":43.29314,"lon":5.37164,"is_reserved":false,"is_disabled":false,"rental_uris":{"android":"levelo://app?vid=a7b6a724-b627-427f-a203-c936f30961bc","ios":"levelo://app?vid=a7b6a724-b627-427f-a203-c936f30961bc"},"vehicle_type_id":"4","last_reported":1736240996,"current_range_meters":28000,"station_id":"ce4bgh92rcd13ifvqb40","pricing_plan_id":"cebpf4jnsgd1na2vs0mg"},{"bike_id":"56f32ca1-61d2-4c1d-a93f-700e526b9d42","system_id":"levelo_inurba_marseille","lat":43.29842,"lon":5.36266,"is_reserved":false,"is_disabled":false,"rental_uris":{"android":"levelo://app?vid=56f32ca1-61d2-4c1d-a93f-700e526b9d42","ios":"levelo://app?vid=56f32ca1-61d2-4c1d-a93f-700e526b9d42"},"vehicle_type_id":"4","last_reported":1736240996,"current_range_meters":25200,"station_id":"ce4bgpp2rcd13ifvqc3g","pricing_plan_id":"cebpf4jnsgd1na2vs0mg"},{"bike_id":"a0625591-cb45-467d-a069-ebdaaba74ccb","system_id":"levelo_inurba_marseille","lat":43.30279,"lon":5.37694,"is_reserved":false,"is_disabled":false,"rental_uris":{"android":"levelo://app?vid=a0625591-cb45-467d-a069-ebdaaba74ccb","ios":"levelo://app?vid=a0625591-cb45-467d-a069-ebdaaba74ccb"},"vehicle_type_id":"4","last_reported":1736240996,"current_range_meters":33600,"station_id":"ce4bguh2rcd13ifvqcj0","pricing_plan_id":"cebpf4jnsgd1na2vs0mg"},{"bike_id":"c470bbc9-4194-432f-bce6-4b58296a2289","system_id":"levelo_inurba_marseille","lat":43.29368,"lon":5.37832,"is_reserved":false,"is_disabled":false,"rental_uris":{"android":"levelo://app?vid=c470bbc9-4194-432f-bce6-4b58296a2289","ios":"levelo://app?vid=c470bbc9-4194-432f-bce6-4b58296a2289"},"vehicle_type_id":"4","last_reported":1736240996,"current_range_meters":31200,"station_id":"ce4bgjh2rcd13ifvqbf0","pricing_plan_id":"cebpf4jnsgd1na2vs0mg"},{"bike_id":"893e03bc-c800-414c-a869-e15d3f7f3f52","system_id":"levelo_inurba_marseille","lat":43.27666,"lon":5.38875,"is_reserved":false,"is_disabled":false,"rental_uris":{"android":"levelo://app?vid=893e03bc-c800-414c-a869-e15d3f7f3f52","ios":"levelo://app?vid=893e03bc-c800-414c-a869-e15d3f7f3f52"},"vehicle_type_id":"4","last_reported":1736240996,"current_range_meters":20400,"station_id":"ce4bhi12rcd13ifvqfo0","pricing_plan_id":"cebpf4jnsgd1na2vs0mg"},{"bike_id":"a654bcd9-87ff-4423-9dec-90165872ac51","system_id":"levelo_inurba_marseille","lat":43.25492,"lon":5.3766,"is_reserved":false,"is_disabled":false,"rental_uris":{"android":"levelo://app?vid=a654bcd9-87ff-4423-9dec-90165872ac51","ios":"levelo://app?vid=a654bcd9-87ff-4423-9dec-90165872ac51"},"vehicle_type_id":"4","last_reported":1736240996,"current_range_meters":38400,"station_id":"ce4bhh12rcd13ifvqff0","pricing_plan_id":"cebpf4jnsgd1na2vs0mg"},{"bike_id":"700c7098-1ae9-438c-b451-782d89121947","system_id":"levelo_inurba_marseille","lat":43.25865,"lon":5.39897,"is_reserved":false,"is_disabled":false,"rental_uris":{"android":"levelo://app?vid=700c7098-1ae9-438c-b451-782d89121947","ios":"levelo://app?vid=700c7098-1ae9-438c-b451-782d89121947"},"vehicle_type_id":"4","last_reported":1736240996,"current_range_meters":33200,"station_id":"ce4bhl92rcd13ifvqghg","pricing_plan_id":"cebpf4jnsgd1na2vs0mg"},{"bike_id":"cbc8ef3d-db5b-4e2d-8062-ee6eeb43702e","system_id":"levelo_inurba_marseille","lat":43.3091,"lon":5.3685,"is_reserved":false,"is_disabled":false,"rental_uris":{"android":"levelo://app?vid=cbc8ef3d-db5b-4e2d-8062-ee6eeb43702e","ios":"levelo://app?vid=cbc8ef3d-db5b-4e2d-8062-ee6eeb43702e"},"vehicle_type_id":"4","last_reported":1736240996,"current_range_meters":36800,"station_id":"ce4bgn92rcd13ifvqbvg","pricing_plan_id":"cebpf4jnsgd1na2vs0mg"},{"bike_id":"756c961f-df7e-4151-a9a6-fa46b857fd74","system_id":"levelo_inurba_marseille","lat":43.30956,"lon":5.390539,"is_reserved":false,"is_disabled":false,"rental_uris":{"android":"levelo://app?vid=756c961f-df7e-4151-a9a6-fa46b857fd74","ios":"levelo://app?vid=756c961f-df7e-4151-a9a6-fa46b857fd74"},"vehicle_type_id":"4","last_reported":1736240996,"current_range_meters":7200,"station_id":"ce4bgup2rcd13ifvqco0","pricing_plan_id":"cebpf4jnsgd1na2vs0mg"},{"bike_id":"90b25500-3042-426a-acfe-81ec7682fcb0","system_id":"levelo_inurba_marseille","lat":43.24068,"lon":5.37763,"is_reserved":false,"is_disabled":false,"rental_uris":{"android":"levelo://app?vid=90b25500-3042-426a-acfe-81ec7682fcb0","ios":"levelo://app?vid=90b25500-3042-426a-acfe-81ec7682fcb0"},"vehicle_type_id":"4","last_reported":1736240996,"current_range_meters":10000,"station_id":"ce4bhnp2rcd13ifvqgvg","pricing_plan_id":"cebpf4jnsgd1na2vs0mg"},{"bike_id":"24bccac7-1e4b-45e8-bc23-0feeff5509f0","system_id":"levelo_inurba_marseille","lat":43.26504,"lon":5.39515,"is_reserved":false,"is_disabled":true,"rental_uris":{"android":"levelo://app?vid=24bccac7-1e4b-45e8-bc23-0feeff5509f0","ios":"levelo://app?vid=24bccac7-1e4b-45e8-bc23-0feeff5509f0"},"vehicle_type_id":"4","last_reported":1736240996,"current_range_meters":0,"station_id":"ce4bhi12rcd13ifvqfq0","pricing_plan_id":"cebpf4jnsgd1na2vs0mg"},{"bike_id":"1c91e94a-d32d-4506-b8b8-b791431e401e","system_id":"levelo_inurba_marseille","lat":43.28922,"lon":5.38402,"is_reserved":false,"is_disabled":true,"rental_uris":{"android":"levelo://app?vid=1c91e94a-d32d-4506-b8b8-b791431e401e","ios":"levelo://app?vid=1c91e94a-d32d-4506-b8b8-b791431e401e"},"vehicle_type_id":"4","last_reported":1736240996,"current_range_meters":32000,"station_id":"ce4bh612rcd13ifvqe6g","pricing_plan_id":"cebpf4jnsgd1na2vs0mg"},{"bike_id":"7082a147-72ba-427b-b7d0-01f4c79523c2","system_id":"levelo_inurba_marseille","lat":43.33237,"lon":5.35911,"is_reserved":false,"is_disabled":false,"rental_uris":{"android":"levelo://app?vid=7082a147-72ba-427b-b7d0-01f4c79523c2","ios":"levelo://app?vid=7082a147-72ba-427b-b7d0-01f4c79523c2"},"vehicle_type_id":"4","last_reported":1736240996,"current_range_meters":16800,"station_id":"","pricing_plan_id":"cebpf4jnsgd1na2vs0mg"},{"bike_id":"b354de21-01c7-4a47-964b-4c267c08f725","system_id":"levelo_inurba_marseille","lat":43.30896,"lon":5.36855,"is_reserved":false,"is_disabled":false,"rental_uris":{"android":"levelo://app?vid=b354de21-01c7-4a47-964b-4c267c08f725","ios":"levelo://app?vid=b354de21-01c7-4a47-964b-4c267c08f725"},"vehicle_type_id":"4","last_reported":1736240996,"current_range_meters":21600,"station_id":"ce4bgn92rcd13ifvqbvg","pricing_plan_id":"cebpf4jnsgd1na2vs0mg"},{"bike_id":"7ac0b8f4-b144-4a52-bf8d-93e2ea2b1290","system_id":"levelo_inurba_marseille","lat":43.29364,"lon":5.37843,"is_reserved":false,"is_disabled":false,"rental_uris":{"android":"levelo://app?vid=7ac0b8f4-b144-4a52-bf8d-93e2ea2b1290","ios":"levelo://app?vid=7ac0b8f4-b144-4a52-bf8d-93e2ea2b1290"},"vehicle_type_id":"4","last_reported":1736240996,"current_range_meters":39200,"station_id":"ce4bgjh2rcd13ifvqbf0","pricing_plan_id":"cebpf4jnsgd1na2vs0mg"},{"bike_id":"956c311b-9b96-482a-9feb-34268d1c3452","system_id":"levelo_inurba_marseille","lat":43.313477,"lon":5.367277,"is_reserved":false,"is_disabled":false,"rental_uris":{"android":"levelo://app?vid=956c311b-9b96-482a-9feb-34268d1c3452","ios":"levelo://app?vid=956c311b-9b96-482a-9feb-34268d1c3452"},"vehicle_type_id":"4","last_reported":1736240996,"current_range_meters":32400,"station_id":"ce4bgr92rcd13ifvqc6g","pricing_plan_id":"cebpf4jnsgd1na2vs0mg"},{"bike_id":"b6bc1350-2d1a-4d28-83e5-2f76e73dd989","system_id":"levelo_inurba_marseille","lat":43.26952,"lon":5.3863,"is_reserved":false,"is_disabled":false,"rental_uris":{"android":"levelo://app?vid=b6bc1350-2d1a-4d28-83e5-2f76e73dd989","ios":"levelo://app?vid=b6bc1350-2d1a-4d28-83e5-2f76e73dd989"},"vehicle_type_id":"4","last_reported":1736240996,"current_range_meters":16000,"station_id":"ce4bhh92rcd13ifvqfh0","pricing_plan_id":"cebpf4jnsgd1na2vs0mg"},{"bike_id":"a95030f4-3784-4a78-af6c-f4505a047751","system_id":"levelo_inurba_marseille","lat":43.29376,"lon":5.37856,"is_reserved":false,"is_disabled":true,"rental_uris":{"android":"levelo://app?vid=a95030f4-3784-4a78-af6c-f4505a047751","ios":"levelo://app?vid=a95030f4-3784-4a78-af6c-f4505a047751"},"vehicle_type_id":"4","last_reported":1736240996,"current_range_meters":3200,"station_id":"ce4bgjh2rcd13ifvqbf0","pricing_plan_id":"cebpf4jnsgd1na2vs0mg"},{"bike_id":"d45d0089-5e8c-41ac-a04c-9866c8dc94cc","system_id":"levelo_inurba_marseille","lat":43.23201,"lon":5.35544,"is_reserved":false,"is_disabled":false,"rental_uris":{"android":"levelo://app?vid=d45d0089-5e8c-41ac-a04c-9866c8dc94cc","ios":"levelo://app?vid=d45d0089-5e8c-41ac-a04c-9866c8dc94cc"},"vehicle_type_id":"4","last_reported":1736240996,"current_range_meters":4800,"station_id":"ce4bhu92rcd13ifvqi70","pricing_plan_id":"cebpf4jnsgd1na2vs0mg"},{"bike_id":"b5de95e0-8f34-41aa-a5fc-c4e76e03a994","system_id":"levelo_inurba_marseille","lat":43.28089,"lon":5.39659,"is_reserved":false,"is_disabled":true,"rental_uris":{"android":"levelo://app?vid=b5de95e0-8f34-41aa-a5fc-c4e76e03a994","ios":"levelo://app?vid=b5de95e0-8f34-41aa-a5fc-c4e76e03a994"},"vehicle_type_id":"4","last_reported":1736240996,"current_range_meters":24800,"station_id":"ce4bho12rcd13ifvqh2g","pricing_plan_id":"cebpf4jnsgd1na2vs0mg"},{"bike_id":"aa33a53e-f806-43a8-ad7e-8e2bd9644426","system_id":"levelo_inurba_marseille","lat":43.32345,"lon":5.40629,"is_reserved":false,"is_disabled":true,"rental_uris":{"android":"levelo://app?vid=aa33a53e-f806-43a8-ad7e-8e2bd9644426","ios":"levelo://app?vid=aa33a53e-f806-43a8-ad7e-8e2bd9644426"},"vehicle_type_id":"4","last_reported":1736240996,"current_range_meters":0,"station_id":"ce4bhq92rcd13ifvqhjg","pricing_plan_id":"cebpf4jnsgd1na2vs0mg"},{"bike_id":"47e4e733-ddae-489d-8488-ea0c12e2344c","system_id":"levelo_inurba_marseille","lat":43.30207,"lon":5.3811,"is_reserved":false,"is_disabled":false,"rental_uris":{"android":"levelo://app?vid=47e4e733-ddae-489d-8488-ea0c12e2344c","ios":"levelo://app?vid=47e4e733-ddae-489d-8488-ea0c12e2344c"},"vehicle_type_id":"4","last_reported":1736240996,"current_range_meters":33200,"station_id":"","pricing_plan_id":"cebpf4jnsgd1na2vs0mg"},{"bike_id":"ab3ef614-fdb3-4aee-a71b-8b4b61a00d6a","system_id":"levelo_inurba_marseille","lat":43.27906,"lon":5.38015,"is_reserved":false,"is_disabled":false,"rental_uris":{"android":"levelo://app?vid=ab3ef614-fdb3-4aee-a71b-8b4b61a00d6a","ios":"levelo://app?vid=ab3ef614-fdb3-4aee-a71b-8b4b61a00d6a"},"vehicle_type_id":"4","last_reported":1736240996,"current_range_meters":38400,"station_id":"ce4bhf92rcd13ifvqf50","pricing_plan_id":"cebpf4jnsgd1na2vs0mg"},{"bike_id":"72454cb5-1a90-4931-8dfa-351acc2991e7","system_id":"levelo_inurba_marseille","lat":43.30584,"lon":5.39359,"is_reserved":false,"is_disabled":false,"rental_uris":{"android":"levelo://app?vid=72454cb5-1a90-4931-8dfa-351acc2991e7","ios":"levelo://app?vid=72454cb5-1a90-4931-8dfa-351acc2991e7"},"vehicle_type_id":"4","last_reported":1736240996,"current_range_meters":32000,"station_id":"ce4bh0p2rcd13ifvqd80","pricing_plan_id":"cebpf4jnsgd1na2vs0mg"},{"bike_id":"9f067e76-a631-4de3-8b36-6688d4c426e4","system_id":"levelo_inurba_marseille","lat":43.31691,"lon":5.40477,"is_reserved":false,"is_disabled":false,"rental_uris":{"android":"levelo://app?vid=9f067e76-a631-4de3-8b36-6688d4c426e4","ios":"levelo://app?vid=9f067e76-a631-4de3-8b36-6688d4c426e4"},"vehicle_type_id":"4","last_reported":1736240996,"current_range_meters":25200,"station_id":"ce4bh012rcd13ifvqd00","pricing_plan_id":"cebpf4jnsgd1na2vs0mg"},{"bike_id":"a60f5a33-cf0d-4ed2-a9fc-3aa098d1769b","system_id":"levelo_inurba_marseille","lat":43.30265,"lon":5.37714,"is_reserved":false,"is_disabled":false,"rental_uris":{"android":"levelo://app?vid=a60f5a33-cf0d-4ed2-a9fc-3aa098d1769b","ios":"levelo://app?vid=a60f5a33-cf0d-4ed2-a9fc-3aa098d1769b"},"vehicle_type_id":"4","last_reported":1736240996,"current_range_meters":30800,"station_id":"ce4bguh2rcd13ifvqcj0","pricing_plan_id":"cebpf4jnsgd1na2vs0mg"},{"bike_id":"917d223a-fe5d-458f-9265-0b1e04cdf504","system_id":"levelo_inurba_marseille","lat":43.28475,"lon":5.38432,"is_reserved":false,"is_disabled":true,"rental_uris":{"android":"levelo://app?vid=917d223a-fe5d-458f-9265-0b1e04cdf504","ios":"levelo://app?vid=917d223a-fe5d-458f-9265-0b1e04cdf504"},"vehicle_type_id":"4","last_reported":1736240996,"current_range_meters":9600,"station_id":"ce4bh512rcd13ifvqe3g","pricing_plan_id":"cebpf4jnsgd1na2vs0mg"},{"bike_id":"72aa27b6-580e-44c5-9bd2-168553fdc64a","system_id":"levelo_inurba_marseille","lat":43.29026,"lon":5.37604,"is_reserved":false,"is_disabled":true,"rental_uris":{"android":"levelo://app?vid=72aa27b6-580e-44c5-9bd2-168553fdc64a","ios":"levelo://app?vid=72aa27b6-580e-44c5-9bd2-168553fdc64a"},"vehicle_type_id":"4","last_reported":1736240996,"current_range_meters":400,"station_id":"ce4bh692rcd13ifvqe90","pricing_plan_id":"cebpf4jnsgd1na2vs0mg"},{"bike_id":"da882a09-5fa7-4248-9ef3-e445fdc393f3","system_id":"levelo_inurba_marseille","lat":43.24078,"lon":5.37759,"is_reserved":false,"is_disabled":false,"rental_uris":{"android":"levelo://app?vid=da882a09-5fa7-4248-9ef3-e445fdc393f3","ios":"levelo://app?vid=da882a09-5fa7-4248-9ef3-e445fdc393f3"},"vehicle_type_id":"4","last_reported":1736240996,"current_range_meters":24000,"station_id":"ce4bhnp2rcd13ifvqgvg","pricing_plan_id":"cebpf4jnsgd1na2vs0mg"},{"bike_id":"517fd185-487c-4878-bcca-a4b7aa48bd7a","system_id":"levelo_inurba_marseille","lat":43.32655,"lon":5.40992,"is_reserved":false,"is_disabled":false,"rental_uris":{"android":"levelo://app?vid=517fd185-487c-4878-bcca-a4b7aa48bd7a","ios":"levelo://app?vid=517fd185-487c-4878-bcca-a4b7aa48bd7a"},"vehicle_type_id":"4","last_reported":1736240996,"current_range_meters":30000,"station_id":"ce4bhpp2rcd13ifvqhgg","pricing_plan_id":"cebpf4jnsgd1na2vs0mg"},{"bike_id":"a81f0dac-b594-48b8-b2f2-26e21503c95a","system_id":"levelo_inurba_marseille","lat":43.31706,"lon":5.43719,"is_reserved":false,"is_disabled":false,"rental_uris":{"android":"levelo://app?vid=a81f0dac-b594-48b8-b2f2-26e21503c95a","ios":"levelo://app?vid=a81f0dac-b594-48b8-b2f2-26e21503c95a"},"vehicle_type_id":"4","last_reported":1736240996,"current_range_meters":13600,"station_id":"ce4bhp92rcd13ifvqhcg","pricing_plan_id":"cebpf4jnsgd1na2vs0mg"},{"bike_id":"0ec4f7f9-2f87-466a-9de1-15393cc6eda9","system_id":"levelo_inurba_marseille","lat":43.30562,"lon":5.36526,"is_reserved":false,"is_disabled":false,"rental_uris":{"android":"levelo://app?vid=0ec4f7f9-2f87-466a-9de1-15393cc6eda9","ios":"levelo://app?vid=0ec4f7f9-2f87-466a-9de1-15393cc6eda9"},"vehicle_type_id":"4","last_reported":1736240996,"current_range_meters":38000,"station_id":"ce4bgs12rcd13ifvqcag","pricing_plan_id":"cebpf4jnsgd1na2vs0mg"},{"bike_id":"8bcaeacd-55f2-48aa-840b-5ec48f7447b2","system_id":"levelo_inurba_marseille","lat":43.26576,"lon":5.39017,"is_reserved":false,"is_disabled":false,"rental_uris":{"android":"levelo://app?vid=8bcaeacd-55f2-48aa-840b-5ec48f7447b2","ios":"levelo://app?vid=8bcaeacd-55f2-48aa-840b-5ec48f7447b2"},"vehicle_type_id":"4","last_reported":1736240996,"current_range_meters":33200,"station_id":"ce4bhe12rcd13ifvqf30","pricing_plan_id":"cebpf4jnsgd1na2vs0mg"},{"bike_id":"7a92d907-ce7d-4776-b9fe-0b8ebe9491a1","system_id":"levelo_inurba_marseille","lat":43.2766,"lon":5.36061,"is_reserved":false,"is_disabled":false,"rental_uris":{"android":"levelo://app?vid=7a92d907-ce7d-4776-b9fe-0b8ebe9491a1","ios":"levelo://app?vid=7a92d907-ce7d-4776-b9fe-0b8ebe9491a1"},"vehicle_type_id":"4","last_reported":1736240996,"current_range_meters":38000,"station_id":"ce4bgj92rcd13ifvqbe0","pricing_plan_id":"cebpf4jnsgd1na2vs0mg"},{"bike_id":"6d9211fb-9ada-4014-8126-3f768b1782a7","system_id":"levelo_inurba_marseille","lat":43.24164,"lon":5.3639,"is_reserved":false,"is_disabled":false,"rental_uris":{"android":"levelo://app?vid=6d9211fb-9ada-4014-8126-3f768b1782a7","ios":"levelo://app?vid=6d9211fb-9ada-4014-8126-3f768b1782a7"},"vehicle_type_id":"4","last_reported":1736240996,"current_range_meters":26800,"station_id":"cpo36qri1sfpv3e86is0","pricing_plan_id":"cebpf4jnsgd1na2vs0mg"},{"bike_id":"f809d5a8-1ff6-4a11-9b37-65168fe48fec","system_id":"levelo_inurba_marseille","lat":43.27488,"lon":5.42447,"is_reserved":false,"is_disabled":false,"rental_uris":{"android":"levelo://app?vid=f809d5a8-1ff6-4a11-9b37-65168fe48fec","ios":"levelo://app?vid=f809d5a8-1ff6-4a11-9b37-65168fe48fec"},"vehicle_type_id":"4","last_reported":1736240996,"current_range_meters":32800,"station_id":"ce4bhn92rcd13ifvqgrg","pricing_plan_id":"cebpf4jnsgd1na2vs0mg"},{"bike_id":"8434c30a-2635-4936-bca1-849d3bd3a533","system_id":"levelo_inurba_marseille","lat":43.23962,"lon":5.36627,"is_reserved":false,"is_disabled":false,"rental_uris":{"android":"levelo://app?vid=8434c30a-2635-4936-bca1-849d3bd3a533","ios":"levelo://app?vid=8434c30a-2635-4936-bca1-849d3bd3a533"},"vehicle_type_id":"4","last_reported":1736240996,"current_range_meters":24800,"station_id":"ce4bhi12rcd13ifvqfp0","pricing_plan_id":"cebpf4jnsgd1na2vs0mg"},{"bike_id":"6b7e7b7d-703a-46a9-9632-17988fb8f2dd","system_id":"levelo_inurba_marseille","lat":43.30413,"lon":5.41291,"is_reserved":false,"is_disabled":false,"rental_uris":{"android":"levelo://app?vid=6b7e7b7d-703a-46a9-9632-17988fb8f2dd","ios":"levelo://app?vid=6b7e7b7d-703a-46a9-9632-17988fb8f2dd"},"vehicle_type_id":"4","last_reported":1736240996,"current_range_meters":19200,"station_id":"ce4bhop2rcd13ifvqh8g","pricing_plan_id":"cebpf4jnsgd1na2vs0mg"},{"bike_id":"8a474426-cd46-4cf8-9edc-ef843a0ca02e","system_id":"levelo_inurba_marseille","lat":43.26564,"lon":5.39002,"is_reserved":false,"is_disabled":true,"rental_uris":{"android":"levelo://app?vid=8a474426-cd46-4cf8-9edc-ef843a0ca02e","ios":"levelo://app?vid=8a474426-cd46-4cf8-9edc-ef843a0ca02e"},"vehicle_type_id":"4","last_reported":1736240996,"current_range_meters":36800,"station_id":"ce4bhe12rcd13ifvqf30","pricing_plan_id":"cebpf4jnsgd1na2vs0mg"},{"bike_id":"b8e8befc-076e-4a84-a746-24b09895b81b","system_id":"levelo_inurba_marseille","lat":43.25576,"lon":5.38235,"is_reserved":false,"is_disabled":false,"rental_uris":{"android":"levelo://app?vid=b8e8befc-076e-4a84-a746-24b09895b81b","ios":"levelo://app?vid=b8e8befc-076e-4a84-a746-24b09895b81b"},"vehicle_type_id":"4","last_reported":1736240996,"current_range_meters":34800,"station_id":"ce4bhih2rcd13ifvqfs0","pricing_plan_id":"cebpf4jnsgd1na2vs0mg"},{"bike_id":"bbf998ea-d252-4590-8711-16d78ff4b07c","system_id":"levelo_inurba_marseille","lat":43.24644,"lon":5.38886,"is_reserved":false,"is_disabled":false,"rental_uris":{"android":"levelo://app?vid=bbf998ea-d252-4590-8711-16d78ff4b07c","ios":"levelo://app?vid=bbf998ea-d252-4590-8711-16d78ff4b07c"},"vehicle_type_id":"4","last_reported":1736240996,"current_range_meters":27200,"station_id":"ce4bhg12rcd13ifvqf60","pricing_plan_id":"cebpf4jnsgd1na2vs0mg"},{"bike_id":"e9dcdd34-b189-4d62-a46f-8838f8d5e652","system_id":"levelo_inurba_marseille","lat":43.2408,"lon":5.37741,"is_reserved":false,"is_disabled":false,"rental_uris":{"android":"levelo://app?vid=e9dcdd34-b189-4d62-a46f-8838f8d5e652","ios":"levelo://app?vid=e9dcdd34-b189-4d62-a46f-8838f8d5e652"},"vehicle_type_id":"4","last_reported":1736240996,"current_range_meters":17200,"station_id":"ce4bhnp2rcd13ifvqgvg","pricing_plan_id":"cebpf4jnsgd1na2vs0mg"},{"bike_id":"ded1e44c-e4a7-40dd-b713-6c7ef6537058","system_id":"levelo_inurba_marseille","lat":43.24982,"lon":5.38949,"is_reserved":false,"is_disabled":false,"rental_uris":{"android":"levelo://app?vid=ded1e44c-e4a7-40dd-b713-6c7ef6537058","ios":"levelo://app?vid=ded1e44c-e4a7-40dd-b713-6c7ef6537058"},"vehicle_type_id":"4","last_reported":1736240996,"current_range_meters":27200,"station_id":"ce4bhgp2rcd13ifvqfd0","pricing_plan_id":"cebpf4jnsgd1na2vs0mg"},{"bike_id":"bfb2a8c4-a8de-401b-830e-eb9b976adb23","system_id":"levelo_inurba_marseille","lat":43.27072,"lon":5.42287,"is_reserved":false,"is_disabled":false,"rental_uris":{"android":"levelo://app?vid=bfb2a8c4-a8de-401b-830e-eb9b976adb23","ios":"levelo://app?vid=bfb2a8c4-a8de-401b-830e-eb9b976adb23"},"vehicle_type_id":"4","last_reported":1736240996,"current_range_meters":35200,"station_id":"ce4bhk92rcd13ifvqgb0","pricing_plan_id":"cebpf4jnsgd1na2vs0mg"},{"bike_id":"9167256e-c95d-4d3b-8323-b584cb9e608f","system_id":"levelo_inurba_marseille","lat":43.27197,"lon":5.39209,"is_reserved":false,"is_disabled":true,"rental_uris":{"android":"levelo://app?vid=9167256e-c95d-4d3b-8323-b584cb9e608f","ios":"levelo://app?vid=9167256e-c95d-4d3b-8323-b584cb9e608f"},"vehicle_type_id":"4","last_reported":1736240996,"current_range_meters":0,"station_id":"ce4bhhp2rcd13ifvqfm0","pricing_plan_id":"cebpf4jnsgd1na2vs0mg"},{"bike_id":"ff78d977-97b2-4f84-bc22-78608d306c04","system_id":"levelo_inurba_marseille","lat":43.31307,"lon":5.36734,"is_reserved":false,"is_disabled":false,"rental_uris":{"android":"levelo://app?vid=ff78d977-97b2-4f84-bc22-78608d306c04","ios":"levelo://app?vid=ff78d977-97b2-4f84-bc22-78608d306c04"},"vehicle_type_id":"4","last_reported":1736240996,"current_range_meters":34800,"station_id":"ce4bgr92rcd13ifvqc6g","pricing_plan_id":"cebpf4jnsgd1na2vs0mg"},{"bike_id":"664044e6-e824-440a-a874-8e818a3a1b1b","system_id":"levelo_inurba_marseille","lat":43.28569,"lon":5.39495,"is_reserved":false,"is_disabled":true,"rental_uris":{"android":"levelo://app?vid=664044e6-e824-440a-a874-8e818a3a1b1b","ios":"levelo://app?vid=664044e6-e824-440a-a874-8e818a3a1b1b"},"vehicle_type_id":"4","last_reported":1736240996,"current_range_meters":35600,"station_id":"ce4bh292rcd13ifvqdg0","pricing_plan_id":"cebpf4jnsgd1na2vs0mg"},{"bike_id":"5230b8f3-adf2-431f-b9b6-5c013e08717a","system_id":"levelo_inurba_marseille","lat":43.30921,"lon":5.36823,"is_reserved":false,"is_disabled":false,"rental_uris":{"android":"levelo://app?vid=5230b8f3-adf2-431f-b9b6-5c013e08717a","ios":"levelo://app?vid=5230b8f3-adf2-431f-b9b6-5c013e08717a"},"vehicle_type_id":"4","last_reported":1736240996,"current_range_meters":28000,"station_id":"ce4bgn92rcd13ifvqbvg","pricing_plan_id":"cebpf4jnsgd1na2vs0mg"},{"bike_id":"a7938283-87a3-49c4-a45c-ee982e077e68","system_id":"levelo_inurba_marseille","lat":43.33607,"lon":5.41016,"is_reserved":false,"is_disabled":false,"rental_uris":{"android":"levelo://app?vid=a7938283-87a3-49c4-a45c-ee982e077e68","ios":"levelo://app?vid=a7938283-87a3-49c4-a45c-ee982e077e68"},"vehicle_type_id":"4","last_reported":1736240996,"current_range_meters":39200,"station_id":"ce4bhqh2rcd13ifvqhmg","pricing_plan_id":"cebpf4jnsgd1na2vs0mg"},{"bike_id":"3d5215c2-1845-4ea9-95c3-66c603d13955","system_id":"levelo_inurba_marseille","lat":43.30528,"lon":5.36546,"is_reserved":false,"is_disabled":false,"rental_uris":{"android":"levelo://app?vid=3d5215c2-1845-4ea9-95c3-66c603d13955","ios":"levelo://app?vid=3d5215c2-1845-4ea9-95c3-66c603d13955"},"vehicle_type_id":"4","last_reported":1736240996,"current_range_meters":27200,"station_id":"ce4bgs12rcd13ifvqcag","pricing_plan_id":"cebpf4jnsgd1na2vs0mg"},{"bike_id":"6e2d590b-13dc-4d39-8257-e699f8ea4c2f","system_id":"levelo_inurba_marseille","lat":43.25933,"lon":5.40909,"is_reserved":false,"is_disabled":false,"rental_uris":{"android":"levelo://app?vid=6e2d590b-13dc-4d39-8257-e699f8ea4c2f","ios":"levelo://app?vid=6e2d590b-13dc-4d39-8257-e699f8ea4c2f"},"vehicle_type_id":"4","last_reported":1736240996,"current_range_meters":20000,"station_id":"ce4bhm92rcd13ifvqglg","pricing_plan_id":"cebpf4jnsgd1na2vs0mg"},{"bike_id":"0bcfea18-61ca-412d-bded-b63f59943884","system_id":"levelo_inurba_marseille","lat":43.28613,"lon":5.35092,"is_reserved":false,"is_disabled":true,"rental_uris":{"android":"levelo://app?vid=0bcfea18-61ca-412d-bded-b63f59943884","ios":"levelo://app?vid=0bcfea18-61ca-412d-bded-b63f59943884"},"vehicle_type_id":"4","last_reported":1736240996,"current_range_meters":28800,"station_id":"ce4bhch2rcd13ifvqeug","pricing_plan_id":"cebpf4jnsgd1na2vs0mg"},{"bike_id":"a311ec93-1eee-4380-86bf-d059b9a88a81","system_id":"levelo_inurba_marseille","lat":43.27326,"lon":5.39098,"is_reserved":false,"is_disabled":false,"rental_uris":{"android":"levelo://app?vid=a311ec93-1eee-4380-86bf-d059b9a88a81","ios":"levelo://app?vid=a311ec93-1eee-4380-86bf-d059b9a88a81"},"vehicle_type_id":"4","last_reported":1736240996,"current_range_meters":36800,"station_id":"ce4bhgp2rcd13ifvqfe0","pricing_plan_id":"cebpf4jnsgd1na2vs0mg"},{"bike_id":"9f433d9b-ae4b-4283-8872-934dec5a9645","system_id":"levelo_inurba_marseille","lat":43.33687,"lon":5.38554,"is_reserved":false,"is_disabled":false,"rental_uris":{"android":"levelo://app?vid=9f433d9b-ae4b-4283-8872-934dec5a9645","ios":"levelo://app?vid=9f433d9b-ae4b-4283-8872-934dec5a9645"},"vehicle_type_id":"4","last_reported":1736240996,"current_range_meters":30400,"station_id":"","pricing_plan_id":"cebpf4jnsgd1na2vs0mg"},{"bike_id":"4070b9b6-f174-4e8d-90de-1fce4cee8802","system_id":"levelo_inurba_marseille","lat":43.30536,"lon":5.367,"is_reserved":false,"is_disabled":false,"rental_uris":{"android":"levelo://app?vid=4070b9b6-f174-4e8d-90de-1fce4cee8802","ios":"levelo://app?vid=4070b9b6-f174-4e8d-90de-1fce4cee8802"},"vehicle_type_id":"4","last_reported":1736240996,"current_range_meters":36800,"station_id":"ce4bgrp2rcd13ifvqc9g","pricing_plan_id":"cebpf4jnsgd1na2vs0mg"},{"bike_id":"03630410-cff2-41ca-8ab4-df6ebc45a627","system_id":"levelo_inurba_marseille","lat":43.3015,"lon":5.38107,"is_reserved":false,"is_disabled":true,"rental_uris":{"android":"levelo://app?vid=03630410-cff2-41ca-8ab4-df6ebc45a627","ios":"levelo://app?vid=03630410-cff2-41ca-8ab4-df6ebc45a627"},"vehicle_type_id":"4","last_reported":1736240996,"current_range_meters":34000,"station_id":"ce4bgjp2rcd13ifvqbh0","pricing_plan_id":"cebpf4jnsgd1na2vs0mg"},{"bike_id":"f16fafcc-22ff-4365-886c-6a46c4e60984","system_id":"levelo_inurba_marseille","lat":43.24051,"lon":5.37764,"is_reserved":false,"is_disabled":false,"rental_uris":{"android":"levelo://app?vid=f16fafcc-22ff-4365-886c-6a46c4e60984","ios":"levelo://app?vid=f16fafcc-22ff-4365-886c-6a46c4e60984"},"vehicle_type_id":"4","last_reported":1736240996,"current_range_meters":35600,"station_id":"ce4bhnp2rcd13ifvqgvg","pricing_plan_id":"cebpf4jnsgd1na2vs0mg"},{"bike_id":"6b9c481c-5557-4051-a4b9-ddd082853e48","system_id":"levelo_inurba_marseille","lat":43.28954,"lon":5.37828,"is_reserved":false,"is_disabled":false,"rental_uris":{"android":"levelo://app?vid=6b9c481c-5557-4051-a4b9-ddd082853e48","ios":"levelo://app?vid=6b9c481c-5557-4051-a4b9-ddd082853e48"},"vehicle_type_id":"4","last_reported":1736240996,"current_range_meters":38000,"station_id":"ce4bh9p2rcd13ifvqed0","pricing_plan_id":"cebpf4jnsgd1na2vs0mg"},{"bike_id":"be7ba3d3-7869-4990-af93-489a469e05b1","system_id":"levelo_inurba_marseille","lat":43.2402,"lon":5.37786,"is_reserved":false,"is_disabled":false,"rental_uris":{"android":"levelo://app?vid=be7ba3d3-7869-4990-af93-489a469e05b1","ios":"levelo://app?vid=be7ba3d3-7869-4990-af93-489a469e05b1"},"vehicle_type_id":"4","last_reported":1736240996,"current_range_meters":39200,"station_id":"ce4bhnp2rcd13ifvqgvg","pricing_plan_id":"cebpf4jnsgd1na2vs0mg"},{"bike_id":"8a9759a1-471a-4ae1-a694-122c5cb679a9","system_id":"levelo_inurba_marseille","lat":43.25002,"lon":5.38929,"is_reserved":false,"is_disabled":false,"rental_uris":{"android":"levelo://app?vid=8a9759a1-471a-4ae1-a694-122c5cb679a9","ios":"levelo://app?vid=8a9759a1-471a-4ae1-a694-122c5cb679a9"},"vehicle_type_id":"4","last_reported":1736240996,"current_range_meters":34800,"station_id":"ce4bhgp2rcd13ifvqfd0","pricing_plan_id":"cebpf4jnsgd1na2vs0mg"},{"bike_id":"9206d9db-6a1d-4495-9bc2-7d4e1ef0f397","system_id":"levelo_inurba_marseille","lat":43.289222,"lon":5.384023,"is_reserved":false,"is_disabled":true,"rental_uris":{"android":"levelo://app?vid=9206d9db-6a1d-4495-9bc2-7d4e1ef0f397","ios":"levelo://app?vid=9206d9db-6a1d-4495-9bc2-7d4e1ef0f397"},"vehicle_type_id":"4","last_reported":1736240996,"current_range_meters":36000,"station_id":"ce4bh612rcd13ifvqe6g","pricing_plan_id":"cebpf4jnsgd1na2vs0mg"},{"bike_id":"2937c8f0-6f06-4c7f-8240-41ad44bc55fa","system_id":"levelo_inurba_marseille","lat":43.23194,"lon":5.39991,"is_reserved":false,"is_disabled":false,"rental_uris":{"android":"levelo://app?vid=2937c8f0-6f06-4c7f-8240-41ad44bc55fa","ios":"levelo://app?vid=2937c8f0-6f06-4c7f-8240-41ad44bc55fa"},"vehicle_type_id":"4","last_reported":1736240996,"current_range_meters":11600,"station_id":"ce4bhn12rcd13ifvqgqg","pricing_plan_id":"cebpf4jnsgd1na2vs0mg"},{"bike_id":"70a62a50-6e09-4c81-aa9b-5c4bcd92475b","system_id":"levelo_inurba_marseille","lat":43.28721,"lon":5.37936,"is_reserved":false,"is_disabled":false,"rental_uris":{"android":"levelo://app?vid=70a62a50-6e09-4c81-aa9b-5c4bcd92475b","ios":"levelo://app?vid=70a62a50-6e09-4c81-aa9b-5c4bcd92475b"},"vehicle_type_id":"4","last_reported":1736240996,"current_range_meters":32800,"station_id":"ce4bh9p2rcd13ifvqec0","pricing_plan_id":"cebpf4jnsgd1na2vs0mg"},{"bike_id":"457174c4-39db-4616-8471-ca62bc384bb7","system_id":"levelo_inurba_marseille","lat":43.30445,"lon":5.37899,"is_reserved":false,"is_disabled":true,"rental_uris":{"android":"levelo://app?vid=457174c4-39db-4616-8471-ca62bc384bb7","ios":"levelo://app?vid=457174c4-39db-4616-8471-ca62bc384bb7"},"vehicle_type_id":"4","last_reported":1736240996,"current_range_meters":33200,"station_id":"ce4bgup2rcd13ifvqcn0","pricing_plan_id":"cebpf4jnsgd1na2vs0mg"},{"bike_id":"f49298c6-b208-404d-bb0c-160ccbda2eed","system_id":"levelo_inurba_marseille","lat":43.27986,"lon":5.40014,"is_reserved":false,"is_disabled":true,"rental_uris":{"android":"levelo://app?vid=f49298c6-b208-404d-bb0c-160ccbda2eed","ios":"levelo://app?vid=f49298c6-b208-404d-bb0c-160ccbda2eed"},"vehicle_type_id":"4","last_reported":1736240996,"current_range_meters":30800,"station_id":"ce4bho92rcd13ifvqh4g","pricing_plan_id":"cebpf4jnsgd1na2vs0mg"},{"bike_id":"d014f699-d84d-436b-b3bf-8c059d18ea89","system_id":"levelo_inurba_marseille","lat":43.229234,"lon":5.353716,"is_reserved":false,"is_disabled":false,"rental_uris":{"android":"levelo://app?vid=d014f699-d84d-436b-b3bf-8c059d18ea89","ios":"levelo://app?vid=d014f699-d84d-436b-b3bf-8c059d18ea89"},"vehicle_type_id":"4","last_reported":1736240996,"current_range_meters":8400,"station_id":"cpo3532slgdg3j2ikp40","pricing_plan_id":"cebpf4jnsgd1na2vs0mg"},{"bike_id":"90d1bffc-ccd2-43ae-9b2b-82988f3b9734","system_id":"levelo_inurba_marseille","lat":43.27305,"lon":5.39057,"is_reserved":false,"is_disabled":false,"rental_uris":{"android":"levelo://app?vid=90d1bffc-ccd2-43ae-9b2b-82988f3b9734","ios":"levelo://app?vid=90d1bffc-ccd2-43ae-9b2b-82988f3b9734"},"vehicle_type_id":"4","last_reported":1736240996,"current_range_meters":38800,"station_id":"ce4bhgp2rcd13ifvqfe0","pricing_plan_id":"cebpf4jnsgd1na2vs0mg"},{"bike_id":"9a2d0ff3-9896-40ff-a026-aeb37cde85ae","system_id":"levelo_inurba_marseille","lat":43.31496,"lon":5.37288,"is_reserved":false,"is_disabled":false,"rental_uris":{"android":"levelo://app?vid=9a2d0ff3-9896-40ff-a026-aeb37cde85ae","ios":"levelo://app?vid=9a2d0ff3-9896-40ff-a026-aeb37cde85ae"},"vehicle_type_id":"4","last_reported":1736240996,"current_range_meters":14000,"station_id":"ce4bgt12rcd13ifvqcd0","pricing_plan_id":"cebpf4jnsgd1na2vs0mg"},{"bike_id":"955387a8-4a47-4691-946f-78754c88504b","system_id":"levelo_inurba_marseille","lat":43.232,"lon":5.35564,"is_reserved":false,"is_disabled":false,"rental_uris":{"android":"levelo://app?vid=955387a8-4a47-4691-946f-78754c88504b","ios":"levelo://app?vid=955387a8-4a47-4691-946f-78754c88504b"},"vehicle_type_id":"4","last_reported":1736240996,"current_range_meters":36800,"station_id":"ce4bhu92rcd13ifvqi70","pricing_plan_id":"cebpf4jnsgd1na2vs0mg"},{"bike_id":"ef72cdb4-465d-4178-b952-49906f159c48","system_id":"levelo_inurba_marseille","lat":43.28139,"lon":5.42643,"is_reserved":false,"is_disabled":false,"rental_uris":{"android":"levelo://app?vid=ef72cdb4-465d-4178-b952-49906f159c48","ios":"levelo://app?vid=ef72cdb4-465d-4178-b952-49906f159c48"},"vehicle_type_id":"4","last_reported":1736240996,"current_range_meters":37600,"station_id":"ce4bhnh2rcd13ifvqgug","pricing_plan_id":"cebpf4jnsgd1na2vs0mg"},{"bike_id":"1526205b-db60-41b9-8970-27dca19f4645","system_id":"levelo_inurba_marseille","lat":43.33583,"lon":5.41021,"is_reserved":false,"is_disabled":false,"rental_uris":{"android":"levelo://app?vid=1526205b-db60-41b9-8970-27dca19f4645","ios":"levelo://app?vid=1526205b-db60-41b9-8970-27dca19f4645"},"vehicle_type_id":"4","last_reported":1736240996,"current_range_meters":9600,"station_id":"ce4bhqh2rcd13ifvqhmg","pricing_plan_id":"cebpf4jnsgd1na2vs0mg"},{"bike_id":"f949af9a-2683-4ec9-b4bf-168b31b3bcb2","system_id":"levelo_inurba_marseille","lat":43.246486,"lon":5.388975,"is_reserved":false,"is_disabled":false,"rental_uris":{"android":"levelo://app?vid=f949af9a-2683-4ec9-b4bf-168b31b3bcb2","ios":"levelo://app?vid=f949af9a-2683-4ec9-b4bf-168b31b3bcb2"},"vehicle_type_id":"4","last_reported":1736240996,"current_range_meters":19200,"station_id":"ce4bhg12rcd13ifvqf60","pricing_plan_id":"cebpf4jnsgd1na2vs0mg"},{"bike_id":"5716fd4e-02bd-4a7d-b0ae-b602c555354f","system_id":"levelo_inurba_marseille","lat":43.2912,"lon":5.38131,"is_reserved":false,"is_disabled":true,"rental_uris":{"android":"levelo://app?vid=5716fd4e-02bd-4a7d-b0ae-b602c555354f","ios":"levelo://app?vid=5716fd4e-02bd-4a7d-b0ae-b602c555354f"},"vehicle_type_id":"4","last_reported":1736240996,"current_range_meters":0,"station_id":"ce4bh512rcd13ifvqe2g","pricing_plan_id":"cebpf4jnsgd1na2vs0mg"},{"bike_id":"35366d3e-9927-4914-80da-37300e9998f0","system_id":"levelo_inurba_marseille","lat":43.28694,"lon":5.37403,"is_reserved":false,"is_disabled":true,"rental_uris":{"android":"levelo://app?vid=35366d3e-9927-4914-80da-37300e9998f0","ios":"levelo://app?vid=35366d3e-9927-4914-80da-37300e9998f0"},"vehicle_type_id":"4","last_reported":1736240996,"current_range_meters":29600,"station_id":"ce4bh3p2rcd13ifvqdq0","pricing_plan_id":"cebpf4jnsgd1na2vs0mg"},{"bike_id":"49a58075-360f-493d-a66e-87bce6e29700","system_id":"levelo_inurba_marseille","lat":43.32959,"lon":5.39102,"is_reserved":false,"is_disabled":false,"rental_uris":{"android":"levelo://app?vid=49a58075-360f-493d-a66e-87bce6e29700","ios":"levelo://app?vid=49a58075-360f-493d-a66e-87bce6e29700"},"vehicle_type_id":"4","last_reported":1736240996,"current_range_meters":27600,"station_id":"","pricing_plan_id":"cebpf4jnsgd1na2vs0mg"},{"bike_id":"79ff8c15-50e6-493a-80e7-16be3ee55efc","system_id":"levelo_inurba_marseille","lat":43.23153,"lon":5.43705,"is_reserved":false,"is_disabled":false,"rental_uris":{"android":"levelo://app?vid=79ff8c15-50e6-493a-80e7-16be3ee55efc","ios":"levelo://app?vid=79ff8c15-50e6-493a-80e7-16be3ee55efc"},"vehicle_type_id":"4","last_reported":1736240996,"current_range_meters":18800,"station_id":"ce4bhmp2rcd13ifvqgog","pricing_plan_id":"cebpf4jnsgd1na2vs0mg"},{"bike_id":"0eaa564a-644a-43f8-ab87-c179b75f38f8","system_id":"levelo_inurba_marseille","lat":43.29211,"lon":5.37151,"is_reserved":false,"is_disabled":false,"rental_uris":{"android":"levelo://app?vid=0eaa564a-644a-43f8-ab87-c179b75f38f8","ios":"levelo://app?vid=0eaa564a-644a-43f8-ab87-c179b75f38f8"},"vehicle_type_id":"4","last_reported":1736240996,"current_range_meters":27600,"station_id":"ce4bha92rcd13ifvqeh0","pricing_plan_id":"cebpf4jnsgd1na2vs0mg"},{"bike_id":"9089cb5e-354c-4126-83cf-d4a2b7fd0b83","system_id":"levelo_inurba_marseille","lat":43.29033,"lon":5.39986,"is_reserved":false,"is_disabled":false,"rental_uris":{"android":"levelo://app?vid=9089cb5e-354c-4126-83cf-d4a2b7fd0b83","ios":"levelo://app?vid=9089cb5e-354c-4126-83cf-d4a2b7fd0b83"},"vehicle_type_id":"4","last_reported":1736240996,"current_range_meters":12800,"station_id":"ce4bh392rcd13ifvqdm0","pricing_plan_id":"cebpf4jnsgd1na2vs0mg"},{"bike_id":"bc7dfde3-0f89-48df-b36d-8e0593ae995a","system_id":"levelo_inurba_marseille","lat":43.24073,"lon":5.37721,"is_reserved":false,"is_disabled":true,"rental_uris":{"android":"levelo://app?vid=bc7dfde3-0f89-48df-b36d-8e0593ae995a","ios":"levelo://app?vid=bc7dfde3-0f89-48df-b36d-8e0593ae995a"},"vehicle_type_id":"4","last_reported":1736240996,"current_range_meters":1600,"station_id":"ce4bhnp2rcd13ifvqgvg","pricing_plan_id":"cebpf4jnsgd1na2vs0mg"},{"bike_id":"26e93668-3f32-4cdf-873b-a4af8fb4d1e8","system_id":"levelo_inurba_marseille","lat":43.26932,"lon":5.38907,"is_reserved":false,"is_disabled":false,"rental_uris":{"android":"levelo://app?vid=26e93668-3f32-4cdf-873b-a4af8fb4d1e8","ios":"levelo://app?vid=26e93668-3f32-4cdf-873b-a4af8fb4d1e8"},"vehicle_type_id":"4","last_reported":1736240996,"current_range_meters":36400,"station_id":"ce4bhhh2rcd13ifvqfl0","pricing_plan_id":"cebpf4jnsgd1na2vs0mg"},{"bike_id":"d8abaf67-708b-4db2-a73b-fb2a8a1352a9","system_id":"levelo_inurba_marseille","lat":43.3361,"lon":5.41035,"is_reserved":false,"is_disabled":false,"rental_uris":{"android":"levelo://app?vid=d8abaf67-708b-4db2-a73b-fb2a8a1352a9","ios":"levelo://app?vid=d8abaf67-708b-4db2-a73b-fb2a8a1352a9"},"vehicle_type_id":"4","last_reported":1736240996,"current_range_meters":16000,"station_id":"ce4bhqh2rcd13ifvqhmg","pricing_plan_id":"cebpf4jnsgd1na2vs0mg"},{"bike_id":"6e70db46-d585-4f7e-8f38-a05159428413","system_id":"levelo_inurba_marseille","lat":43.3046,"lon":5.37912,"is_reserved":false,"is_disabled":false,"rental_uris":{"android":"levelo://app?vid=6e70db46-d585-4f7e-8f38-a05159428413","ios":"levelo://app?vid=6e70db46-d585-4f7e-8f38-a05159428413"},"vehicle_type_id":"4","last_reported":1736240996,"current_range_meters":33200,"station_id":"ce4bgup2rcd13ifvqcn0","pricing_plan_id":"cebpf4jnsgd1na2vs0mg"},{"bike_id":"25b6f245-cadc-4cad-812c-53e062c1ef53","system_id":"levelo_inurba_marseille","lat":43.2315,"lon":5.43715,"is_reserved":false,"is_disabled":false,"rental_uris":{"android":"levelo://app?vid=25b6f245-cadc-4cad-812c-53e062c1ef53","ios":"levelo://app?vid=25b6f245-cadc-4cad-812c-53e062c1ef53"},"vehicle_type_id":"4","last_reported":1736240996,"current_range_meters":28000,"station_id":"ce4bhmp2rcd13ifvqgog","pricing_plan_id":"cebpf4jnsgd1na2vs0mg"},{"bike_id":"71ccad13-b7be-48f9-af73-d619231cd0d0","system_id":"levelo_inurba_marseille","lat":43.29043,"lon":5.39963,"is_reserved":false,"is_disabled":false,"rental_uris":{"android":"levelo://app?vid=71ccad13-b7be-48f9-af73-d619231cd0d0","ios":"levelo://app?vid=71ccad13-b7be-48f9-af73-d619231cd0d0"},"vehicle_type_id":"4","last_reported":1736240996,"current_range_meters":30800,"station_id":"ce4bh392rcd13ifvqdm0","pricing_plan_id":"cebpf4jnsgd1na2vs0mg"},{"bike_id":"65d496a5-3142-4ae0-85b5-c379aff183cf","system_id":"levelo_inurba_marseille","lat":43.2407,"lon":5.37761,"is_reserved":false,"is_disabled":true,"rental_uris":{"android":"levelo://app?vid=65d496a5-3142-4ae0-85b5-c379aff183cf","ios":"levelo://app?vid=65d496a5-3142-4ae0-85b5-c379aff183cf"},"vehicle_type_id":"4","last_reported":1736240996,"current_range_meters":1600,"station_id":"ce4bhnp2rcd13ifvqgvg","pricing_plan_id":"cebpf4jnsgd1na2vs0mg"},{"bike_id":"11d68355-da76-4aa4-8637-bac4921bef29","system_id":"levelo_inurba_marseille","lat":43.29528,"lon":5.38545,"is_reserved":false,"is_disabled":false,"rental_uris":{"android":"levelo://app?vid=11d68355-da76-4aa4-8637-bac4921bef29","ios":"levelo://app?vid=11d68355-da76-4aa4-8637-bac4921bef29"},"vehicle_type_id":"4","last_reported":1736240996,"current_range_meters":14400,"station_id":"ce4bgih2rcd13ifvqba0","pricing_plan_id":"cebpf4jnsgd1na2vs0mg"},{"bike_id":"d96a94fa-78c1-4a1b-8963-819e952c0c73","system_id":"levelo_inurba_marseille","lat":43.28144,"lon":5.42654,"is_reserved":false,"is_disabled":false,"rental_uris":{"android":"levelo://app?vid=d96a94fa-78c1-4a1b-8963-819e952c0c73","ios":"levelo://app?vid=d96a94fa-78c1-4a1b-8963-819e952c0c73"},"vehicle_type_id":"4","last_reported":1736240996,"current_range_meters":25200,"station_id":"ce4bhnh2rcd13ifvqgug","pricing_plan_id":"cebpf4jnsgd1na2vs0mg"},{"bike_id":"ea7bebe3-4aff-4a01-b28d-c9b866182ae3","system_id":"levelo_inurba_marseille","lat":43.30795,"lon":5.3921,"is_reserved":false,"is_disabled":true,"rental_uris":{"android":"levelo://app?vid=ea7bebe3-4aff-4a01-b28d-c9b866182ae3","ios":"levelo://app?vid=ea7bebe3-4aff-4a01-b28d-c9b866182ae3"},"vehicle_type_id":"4","last_reported":1736240996,"current_range_meters":28400,"station_id":"","pricing_plan_id":"cebpf4jnsgd1na2vs0mg"},{"bike_id":"4349e322-e54f-4a7c-8de9-2ce06a16918d","system_id":"levelo_inurba_marseille","lat":43.27917,"lon":5.41053,"is_reserved":false,"is_disabled":true,"rental_uris":{"android":"levelo://app?vid=4349e322-e54f-4a7c-8de9-2ce06a16918d","ios":"levelo://app?vid=4349e322-e54f-4a7c-8de9-2ce06a16918d"},"vehicle_type_id":"4","last_reported":1736240996,"current_range_meters":0,"station_id":"ce4bhnp2rcd13ifvqh0g","pricing_plan_id":"cebpf4jnsgd1na2vs0mg"},{"bike_id":"fcd76537-439b-4948-b1e5-7b54d5125382","system_id":"levelo_inurba_marseille","lat":43.28714,"lon":5.37935,"is_reserved":false,"is_disabled":false,"rental_uris":{"android":"levelo://app?vid=fcd76537-439b-4948-b1e5-7b54d5125382","ios":"levelo://app?vid=fcd76537-439b-4948-b1e5-7b54d5125382"},"vehicle_type_id":"4","last_reported":1736240996,"current_range_meters":39200,"station_id":"ce4bh9p2rcd13ifvqec0","pricing_plan_id":"cebpf4jnsgd1na2vs0mg"},{"bike_id":"41447cd4-de79-4bde-8e7a-cb13f2bef527","system_id":"levelo_inurba_marseille","lat":43.34138,"lon":5.40913,"is_reserved":false,"is_disabled":false,"rental_uris":{"android":"levelo://app?vid=41447cd4-de79-4bde-8e7a-cb13f2bef527","ios":"levelo://app?vid=41447cd4-de79-4bde-8e7a-cb13f2bef527"},"vehicle_type_id":"4","last_reported":1736240996,"current_range_meters":32800,"station_id":"ce4bhqh2rcd13ifvqhlg","pricing_plan_id":"cebpf4jnsgd1na2vs0mg"},{"bike_id":"1ecbf214-5d35-4cf0-b38a-77f20fe9e9d3","system_id":"levelo_inurba_marseille","lat":43.266675,"lon":5.38275,"is_reserved":false,"is_disabled":false,"rental_uris":{"android":"levelo://app?vid=1ecbf214-5d35-4cf0-b38a-77f20fe9e9d3","ios":"levelo://app?vid=1ecbf214-5d35-4cf0-b38a-77f20fe9e9d3"},"vehicle_type_id":"4","last_reported":1736240996,"current_range_meters":28000,"station_id":"ce4bhg92rcd13ifvqf90","pricing_plan_id":"cebpf4jnsgd1na2vs0mg"},{"bike_id":"380ac25f-ddad-469c-8de6-f4bbe4522ccc","system_id":"levelo_inurba_marseille","lat":43.29832,"lon":5.36275,"is_reserved":false,"is_disabled":false,"rental_uris":{"android":"levelo://app?vid=380ac25f-ddad-469c-8de6-f4bbe4522ccc","ios":"levelo://app?vid=380ac25f-ddad-469c-8de6-f4bbe4522ccc"},"vehicle_type_id":"4","last_reported":1736240996,"current_range_meters":38400,"station_id":"ce4bgpp2rcd13ifvqc3g","pricing_plan_id":"cebpf4jnsgd1na2vs0mg"},{"bike_id":"dbf15f4f-1c23-4805-befd-fbfe477eed8d","system_id":"levelo_inurba_marseille","lat":43.30142,"lon":5.37407,"is_reserved":false,"is_disabled":false,"rental_uris":{"android":"levelo://app?vid=dbf15f4f-1c23-4805-befd-fbfe477eed8d","ios":"levelo://app?vid=dbf15f4f-1c23-4805-befd-fbfe477eed8d"},"vehicle_type_id":"4","last_reported":1736240996,"current_range_meters":36800,"station_id":"ce4bgs92rcd13ifvqcc0","pricing_plan_id":"cebpf4jnsgd1na2vs0mg"},{"bike_id":"e9547845-011e-4aeb-adaf-464066d5fd63","system_id":"levelo_inurba_marseille","lat":43.317535,"lon":5.390223,"is_reserved":false,"is_disabled":false,"rental_uris":{"android":"levelo://app?vid=e9547845-011e-4aeb-adaf-464066d5fd63","ios":"levelo://app?vid=e9547845-011e-4aeb-adaf-464066d5fd63"},"vehicle_type_id":"4","last_reported":1736240996,"current_range_meters":37600,"station_id":"ce4bhqp2rcd13ifvqhng","pricing_plan_id":"cebpf4jnsgd1na2vs0mg"},