{"last_updated":1752232167,"ttl":60,"version":"2.2","data":{"bikes":[{"bike_id":"864830cd-471c-4ae8-8ff1-495934107509","system_id":"levelo_inurba_marseille","lat":43.31893,"lon":5.40746,"is_reserved":false,"is_disabled":true,"rental_uris":{"android":"levelo://app?vid=864830cd-471c-4ae8-8ff1-495934107509","ios":"levelo://app?vid=864830cd-471c-4ae8-8ff1-495934107509"},"vehicle_type_id":"4","last_reported":1752232168,"current_range_meters":2800,"station_id":"ce4bhq12rcd13ifvqhig","pricing_plan_id":"cebpf4jnsgd1na2vs0mg"},{"bike_id":"e18173a5-18c4-4ee3-986b-125bb04fa1df","system_id":"levelo_inurba_marseille","lat":43.29898,"lon":5.37484,"is_reserved":false,"is_disabled":false,"rental_uris":{"android":"levelo://app?vid=e18173a5-18c4-4ee3-986b-125bb04fa1df","ios":"levelo://app?vid=e18173a5-18c4-4ee3-986b-125bb04fa1df"},"vehicle_type_id":"4","last_reported":1752232168,"current_range_meters":3200,"station_id":"ce4bgjh2rcd13ifvqbg0","pricing_plan_id":"cebpf4jnsgd1na2vs0mg"},{"bike_id":"06667a19-8afb-45a0-8636-6bd7ff344ba1","system_id":"levelo_inurba_marseille","lat":43.28466,"lon":5.35889,"is_reserved":false,"is_disabled":false,"rental_uris":{"android":"levelo://app?vid=06667a19-8afb-45a0-8636-6bd7ff344ba1","ios":"levelo://app?vid=06667a19-8afb-45a0-8636-6bd7ff344ba1"},"vehicle_type_id":"4","last_reported":1752232168,"current_range_meters":2800,"station_id":"ce4bhah2rcd13ifvqei0","pricing_plan_id":"cebpf4jnsgd1na2vs0mg"},{"bike_id":"158f2c0e-a23d-41e3-b58c-e266220f8c0c","system_id":"levelo_inurba_marseille","lat":43.28612,"lon":5.35105,"is_reserved":false,"is_disabled":false,"rental_uris":{"android":"levelo://app?vid=158f2c0e-a23d-41e3-b58c-e266220f8c0c","ios":"levelo://app?vid=158f2c0e-a23d-41e3-b58c-e266220f8c0c"},"vehicle_type_id":"4","last_reported":1752232168,"current_range_meters":3600,"station_id":"ce4bhch2rcd13ifvqeug","pricing_plan_id":"cebpf4jnsgd1na2vs0mg"},{"bike_id":"6ca609aa-c384-4be4-bb1e-c76cf4949efb","system_id":"levelo_inurba_marseille","lat":43.28416,"lon":5.34984,"is_reserved":false,"is_disabled":false,"rental_uris":{"android":"levelo://app?vid=6ca609aa-c384-4be4-bb1e-c76cf4949efb","ios":"levelo://app?vid=6ca609aa-c384-4be4-bb1e-c76cf4949efb"},"vehicle_type_id":"4","last_reported":1752232168,"current_range_meters":3600,"station_id":"ce4bhbh2rcd13ifvqepg","pricing_plan_id":"cebpf4jnsgd1na2vs0mg"},{"bike_id":"b8d6bf6b-ecbb-4c40-8ce7-0169ef070b49","system_id":"levelo_inurba_marseille","lat":43.29568,"lon":5.3739,"is_reserved":false,"is_disabled":false,"rental_uris":{"android":"levelo://app?vid=b8d6bf6b-ecbb-4c40-8ce7-0169ef070b49","ios":"levelo://app?vid=b8d6bf6b-ecbb-4c40-8ce7-0169ef070b49"},"vehicle_type_id":"4","last_reported":1752232168,"current_range_meters":4000,"station_id":"","pricing_plan_id":"cebpf4jnsgd1na2vs0mg"},{"bike_id":"2bd2509c-8e69-46fb-904c-1c65a6340b60","system_id":"levelo_inurba_marseille","lat":43.229397,"lon":5.35412,"is_reserved":false,"is_disabled":true,"rental_uris":{"android":"levelo://app?vid=2bd2509c-8e69-46fb-904c-1c65a6340b60","ios":"levelo://app?vid=2bd2509c-8e69-46fb-904c-1c65a6340b60"},"vehicle_type_id":"4","last_reported":1752232168,"current_range_meters":4400,"station_id":"cpo3532slgdg3j2ikp40","pricing_plan_id":"cebpf4jnsgd1na2vs0mg"},{"bike_id":"dec7de2a-4992-439a-b3f4-d4b96af2ae52","system_id":"levelo_inurba_marseille","lat":43.21749,"lon":5.346,"is_reserved":false,"is_disabled":false,"rental_uris":{"android":"levelo://app?vid=dec7de2a-4992-439a-b3f4-d4b96af2ae52","ios":"levelo://app?vid=dec7de2a-4992-439a-b3f4-d4b96af2ae52"},"vehicle_type_id":"4","last_reported":1752232168,"current_range_meters":4800,"station_id":"st_cvj6r9ubvosntc0bgbag","pricing_plan_id":"cebpf4jnsgd1na2vs0mg"},{"bike_id":"1d32518a-166c-4e82-ba8b-3ebb260ee9e9","system_id":"levelo_inurba_marseille","lat":43.24999,"lon":5.38922,"is_reserved":false,"is_disabled":false,"rental_uris":{"android":"levelo://app?vid=1d32518a-166c-4e82-ba8b-3ebb260ee9e9","ios":"levelo://app?vid=1d32518a-166c-4e82-ba8b-3ebb260ee9e9"},"vehicle_type_id":"4","last_reported":1752232168,"current_range_meters":4800,"station_id":"ce4bhgp2rcd13ifvqfd0","pricing_plan_id":"cebpf4jnsgd1na2vs0mg"},{"bike_id":"d59e80ba-427c-424d-bca1-462a14e0e1ae","system_id":"levelo_inurba_marseille","lat":43.31161,"lon":5.38729,"is_reserved":false,"is_disabled":false,"rental_uris":{"android":"levelo://app?vid=d59e80ba-427c-424d-bca1-462a14e0e1ae","ios":"levelo://app?vid=d59e80ba-427c-424d-bca1-462a14e0e1ae"},"vehicle_type_id":"4","last_reported":1752232168,"current_range_meters":4400,"station_id":"ce4bgv12rcd13ifvqcp0","pricing_plan_id":"cebpf4jnsgd1na2vs0mg"},{"bike_id":"5d21f503-3703-4f18-989a-cfb1cd68c168","system_id":"levelo_inurba_marseille","lat":43.29068,"lon":5.37175,"is_reserved":false,"is_disabled":false,"rental_uris":{"android":"levelo://app?vid=5d21f503-3703-4f18-989a-cfb1cd68c168","ios":"levelo://app?vid=5d21f503-3703-4f18-989a-cfb1cd68c168"},"vehicle_type_id":"4","last_reported":1752232168,"current_range_meters":5600,"station_id":"ce4bh5p2rcd13ifvqe4g","pricing_plan_id":"cebpf4jnsgd1na2vs0mg"},{"bike_id":"ebeaeb19-b78f-43dd-9173-06cc069a5846","system_id":"levelo_inurba_marseille","lat":43.2418,"lon":5.39728,"is_reserved":false,"is_disabled":false,"rental_uris":{"android":"levelo://app?vid=ebeaeb19-b78f-43dd-9173-06cc069a5846","ios":"levelo://app?vid=ebeaeb19-b78f-43dd-9173-06cc069a5846"},"vehicle_type_id":"4","last_reported":1752232168,"current_range_meters":5600,"station_id":"ce4bhn12rcd13ifvqgpg","pricing_plan_id":"cebpf4jnsgd1na2vs0mg"},{"bike_id":"c9ec8264-b1f7-41db-a127-5dfa02fc980f","system_id":"levelo_inurba_marseille","lat":43.315695,"lon":5.401746,"is_reserved":false,"is_disabled":false,"rental_uris":{"android":"levelo://app?vid=c9ec8264-b1f7-41db-a127-5dfa02fc980f","ios":"levelo://app?vid=c9ec8264-b1f7-41db-a127-5dfa02fc980f"},"vehicle_type_id":"4","last_reported":1752232168,"current_range_meters":5600,"station_id":"","pricing_plan_id":"cebpf4jnsgd1na2vs0mg"},{"bike_id":"5af2e2aa-d6f1-49b0-9d52-952454a69acf","system_id":"levelo_inurba_marseille","lat":43.23171,"lon":5.39983,"is_reserved":false,"is_disabled":false,"rental_uris":{"android":"levelo://app?vid=5af2e2aa-d6f1-49b0-9d52-952454a69acf","ios":"levelo://app?vid=5af2e2aa-d6f1-49b0-9d52-952454a69acf"},"vehicle_type_id":"4","last_reported":1752232168,"current_range_meters":6000,"station_id":"ce4bhn12rcd13ifvqgqg","pricing_plan_id":"cebpf4jnsgd1na2vs0mg"},{"bike_id":"fc4f74d0-b9f6-4652-bd29-de9283b7243b","system_id":"levelo_inurba_marseille","lat":43.31363,"lon":5.38485,"is_reserved":false,"is_disabled":false,"rental_uris":{"android":"levelo://app?vid=fc4f74d0-b9f6-4652-bd29-de9283b7243b","ios":"levelo://app?vid=fc4f74d0-b9f6-4652-bd29-de9283b7243b"},"vehicle_type_id":"4","last_reported":1752232168,"current_range_meters":6000,"station_id":"ce4bgt92rcd13ifvqcf0","pricing_plan_id":"cebpf4jnsgd1na2vs0mg"},{"bike_id":"3108e78c-759c-4d11-b361-5abb833e983c","system_id":"levelo_inurba_marseille","lat":43.28862,"lon":5.39411,"is_reserved":false,"is_disabled":false,"rental_uris":{"android":"levelo://app?vid=3108e78c-759c-4d11-b361-5abb833e983c","ios":"levelo://app?vid=3108e78c-759c-4d11-b361-5abb833e983c"},"vehicle_type_id":"4","last_reported":1752232168,"current_range_meters":6400,"station_id":"","pricing_plan_id":"cebpf4jnsgd1na2vs0mg"},{"bike_id":"9dd192a4-ea33-49d0-ac98-e48e95baca6d","system_id":"levelo_inurba_marseille","lat":43.25497,"lon":5.37645,"is_reserved":false,"is_disabled":false,"rental_uris":{"android":"levelo://app?vid=9dd192a4-ea33-49d0-ac98-e48e95baca6d","ios":"levelo://app?vid=9dd192a4-ea33-49d0-ac98-e48e95baca6d"},"vehicle_type_id":"4","last_reported":1752232168,"current_range_meters":12000,"station_id":"ce4bhh12rcd13ifvqff0","pricing_plan_id":"cebpf4jnsgd1na2vs0mg"},{"bike_id":"20763534-4b4f-4a23-86b4-3e729e1b3926","system_id":"levelo_inurba_marseille","lat":43.337444,"lon":5.374475,"is_reserved":false,"is_disabled":false,"rental_uris":{"android":"levelo://app?vid=20763534-4b4f-4a23-86b4-3e729e1b3926","ios":"levelo://app?vid=20763534-4b4f-4a23-86b4-3e729e1b3926"},"vehicle_type_id":"4","last_reported":1752232168,"current_range_meters":6400,"station_id":"","pricing_plan_id":"cebpf4jnsgd1na2vs0mg"},{"bike_id":"1a84ed0f-7ac5-46df-aba6-e2ad9d009749","system_id":"levelo_inurba_marseille","lat":43.31282,"lon":5.40179,"is_reserved":false,"is_disabled":false,"rental_uris":{"android":"levelo://app?vid=1a84ed0f-7ac5-46df-aba6-e2ad9d009749","ios":"levelo://app?vid=1a84ed0f-7ac5-46df-aba6-e2ad9d009749"},"vehicle_type_id":"4","last_reported":1752232168,"current_range_meters":6400,"station_id":"ce4bh092rcd13ifvqd30","pricing_plan_id":"cebpf4jnsgd1na2vs0mg"},{"bike_id":"c4310f89-8850-4216-9d1f-156096d5a64e","system_id":"levelo_inurba_marseille","lat":43.292145,"lon":5.360001,"is_reserved":false,"is_disabled":false,"rental_uris":{"android":"levelo://app?vid=c4310f89-8850-4216-9d1f-156096d5a64e","ios":"levelo://app?vid=c4310f89-8850-4216-9d1f-156096d5a64e"},"vehicle_type_id":"4","last_reported":1752232168,"current_range_meters":6800,"station_id":"ce4bhbh2rcd13ifvqeqg","pricing_plan_id":"cebpf4jnsgd1na2vs0mg"},{"bike_id":"78d6e7c8-8477-436d-96d8-0d0ab485a2b5","system_id":"levelo_inurba_marseille","lat":43.2175,"lon":5.34603,"is_reserved":false,"is_disabled":false,"rental_uris":{"android":"levelo://app?vid=78d6e7c8-8477-436d-96d8-0d0ab485a2b5","ios":"levelo://app?vid=78d6e7c8-8477-436d-96d8-0d0ab485a2b5"},"vehicle_type_id":"4","last_reported":1752232168,"current_range_meters":6800,"station_id":"st_cvj6r9ubvosntc0bgbag","pricing_plan_id":"cebpf4jnsgd1na2vs0mg"},{"bike_id":"159fe00e-1605-4a3a-a906-ef8dcd52b1db","system_id":"levelo_inurba_marseille","lat":43.30835,"lon":5.373274,"is_reserved":false,"is_disabled":false,"rental_uris":{"android":"levelo://app?vid=159fe00e-1605-4a3a-a906-ef8dcd52b1db","ios":"levelo://app?vid=159fe00e-1605-4a3a-a906-ef8dcd52b1db"},"vehicle_type_id":"4","last_reported":1752232168,"current_range_meters":6800,"station_id":"","pricing_plan_id":"cebpf4jnsgd1na2vs0mg"},{"bike_id":"df712ea8-fa0e-4dc0-9487-73c43f88a2a0","system_id":"levelo_inurba_marseille","lat":43.307868,"lon":5.376507,"is_reserved":false,"is_disabled":false,"rental_uris":{"android":"levelo://app?vid=df712ea8-fa0e-4dc0-9487-73c43f88a2a0","ios":"levelo://app?vid=df712ea8-fa0e-4dc0-9487-73c43f88a2a0"},"vehicle_type_id":"4","last_reported":1752232168,"current_range_meters":6800,"station_id":"ce4bgg92rcd13ifvqb30","pricing_plan_id":"cebpf4jnsgd1na2vs0mg"},{"bike_id":"eb5eb941-d64d-42be-822a-244c616a8f2b","system_id":"levelo_inurba_marseille","lat":43.26205,"lon":5.37442,"is_reserved":false,"is_disabled":false,"rental_uris":{"android":"levelo://app?vid=eb5eb941-d64d-42be-822a-244c616a8f2b","ios":"levelo://app?vid=eb5eb941-d64d-42be-822a-244c616a8f2b"},"vehicle_type_id":"4","last_reported":1752232168,"current_range_meters":6800,"station_id":"ce4bhgp2rcd13ifvqfc0","pricing_plan_id":"cebpf4jnsgd1na2vs0mg"},{"bike_id":"83d041a5-791e-4792-bcdd-f32e8bb21fdf","system_id":"levelo_inurba_marseille","lat":43.25857,"lon":5.39907,"is_reserved":false,"is_disabled":false,"rental_uris":{"android":"levelo://app?vid=83d041a5-791e-4792-bcdd-f32e8bb21fdf","ios":"levelo://app?vid=83d041a5-791e-4792-bcdd-f32e8bb21fdf"},"vehicle_type_id":"4","last_reported":1752232168,"current_range_meters":7200,"station_id":"ce4bhl92rcd13ifvqghg","pricing_plan_id":"cebpf4jnsgd1na2vs0mg"},{"bike_id":"b757ffbb-2b71-4330-9f60-5f8a9d46d16e","system_id":"levelo_inurba_marseille","lat":43.296601,"lon":5.370917,"is_reserved":false,"is_disabled":false,"rental_uris":{"android":"levelo://app?vid=b757ffbb-2b71-4330-9f60-5f8a9d46d16e","ios":"levelo://app?vid=b757ffbb-2b71-4330-9f60-5f8a9d46d16e"},"vehicle_type_id":"4","last_reported":1752232168,"current_range_meters":7200,"station_id":"","pricing_plan_id":"cebpf4jnsgd1na2vs0mg"},{"bike_id":"a0a694eb-6626-4050-84c5-9c36d1db879c","system_id":"levelo_inurba_marseille","lat":43.25724,"lon":5.41108,"is_reserved":false,"is_disabled":false,"rental_uris":{"android":"levelo://app?vid=a0a694eb-6626-4050-84c5-9c36d1db879c","ios":"levelo://app?vid=a0a694eb-6626-4050-84c5-9c36d1db879c"},"vehicle_type_id":"4","last_reported":1752232168,"current_range_meters":7200,"station_id":"ce4bhkp2rcd13ifvqgd0","pricing_plan_id":"cebpf4jnsgd1na2vs0mg"},{"bike_id":"3b6d3bbd-57cc-4e4d-9ffc-f8925c72233c","system_id":"levelo_inurba_marseille","lat":43.30131,"lon":5.39846,"is_reserved":false,"is_disabled":false,"rental_uris":{"android":"levelo://app?vid=3b6d3bbd-57cc-4e4d-9ffc-f8925c72233c","ios":"levelo://app?vid=3b6d3bbd-57cc-4e4d-9ffc-f8925c72233c"},"vehicle_type_id":"4","last_reported":1752232168,"current_range_meters":7200,"station_id":"ce4bh0h2rcd13ifvqd40","pricing_plan_id":"cebpf4jnsgd1na2vs0mg"},{"bike_id":"b697b359-2117-44b5-bb87-bdbf00f86e01","system_id":"levelo_inurba_marseille","lat":43.29281,"lon":5.36838,"is_reserved":false,"is_disabled":false,"rental_uris":{"android":"levelo://app?vid=b697b359-2117-44b5-bb87-bdbf00f86e01","ios":"levelo://app?vid=b697b359-2117-44b5-bb87-bdbf00f86e01"},"vehicle_type_id":"4","last_reported":1752232168,"current_range_meters":7200,"station_id":"ce4bhbp2rcd13ifvqesg","pricing_plan_id":"cebpf4jnsgd1na2vs0mg"},{"bike_id":"21ae54b9-7375-4101-b8a7-bff9d6e1fa32","system_id":"levelo_inurba_marseille","lat":43.29985,"lon":5.37599,"is_reserved":false,"is_disabled":false,"rental_uris":{"android":"levelo://app?vid=21ae54b9-7375-4101-b8a7-bff9d6e1fa32","ios":"levelo://app?vid=21ae54b9-7375-4101-b8a7-bff9d6e1fa32"},"vehicle_type_id":"4","last_reported":1752232168,"current_range_meters":8000,"station_id":"","pricing_plan_id":"cebpf4jnsgd1na2vs0mg"},{"bike_id":"e134fff9-6403-45bc-9873-d99aea840b5a","system_id":"levelo_inurba_marseille","lat":43.30149,"lon":5.3809,"is_reserved":false,"is_disabled":false,"rental_uris":{"android":"levelo://app?vid=e134fff9-6403-45bc-9873-d99aea840b5a","ios":"levelo://app?vid=e134fff9-6403-45bc-9873-d99aea840b5a"},"vehicle_type_id":"4","last_reported":1752232168,"current_range_meters":8000,"station_id":"ce4bgjp2rcd13ifvqbh0","pricing_plan_id":"cebpf4jnsgd1na2vs0mg"},{"bike_id":"e36e4e14-ce0d-4f03-8622-1d297bfc6dda","system_id":"levelo_inurba_marseille","lat":43.30213,"lon":5.39466,"is_reserved":false,"is_disabled":false,"rental_uris":{"android":"levelo://app?vid=e36e4e14-ce0d-4f03-8622-1d297bfc6dda","ios":"levelo://app?vid=e36e4e14-ce0d-4f03-8622-1d297bfc6dda"},"vehicle_type_id":"4","last_reported":1752232168,"current_range_meters":8000,"station_id":"ce4bh0p2rcd13ifvqd70","pricing_plan_id":"cebpf4jnsgd1na2vs0mg"},{"bike_id":"ca37c346-ca1f-45c8-a09d-8108ee20d2d3","system_id":"levelo_inurba_marseille","lat":43.24152,"lon":5.3639,"is_reserved":false,"is_disabled":false,"rental_uris":{"android":"levelo://app?vid=ca37c346-ca1f-45c8-a09d-8108ee20d2d3","ios":"levelo://app?vid=ca37c346-ca1f-45c8-a09d-8108ee20d2d3"},"vehicle_type_id":"4","last_reported":1752232168,"current_range_meters":8000,"station_id":"cpo36qri1sfpv3e86is0","pricing_plan_id":"cebpf4jnsgd1na2vs0mg"},{"bike_id":"ba219473-b3bb-4b50-9717-91583f34a9fc","system_id":"levelo_inurba_marseille","lat":43.28034,"lon":5.36954,"is_reserved":false,"is_disabled":false,"rental_uris":{"android":"levelo://app?vid=ba219473-b3bb-4b50-9717-91583f34a9fc","ios":"levelo://app?vid=ba219473-b3bb-4b50-9717-91583f34a9fc"},"vehicle_type_id":"4","last_reported":1752232168,"current_range_meters":8400,"station_id":"ce4bha12rcd13ifvqef0","pricing_plan_id":"cebpf4jnsgd1na2vs0mg"},{"bike_id":"833f97ec-e704-4051-ab3b-2e9eb58f71d0","system_id":"levelo_inurba_marseille","lat":43.30265,"lon":5.37531,"is_reserved":false,"is_disabled":false,"rental_uris":{"android":"levelo://app?vid=833f97ec-e704-4051-ab3b-2e9eb58f71d0","ios":"levelo://app?vid=833f97ec-e704-4051-ab3b-2e9eb58f71d0"},"vehicle_type_id":"4","last_reported":1752232168,"current_range_meters":8400,"station_id":"","pricing_plan_id":"cebpf4jnsgd1na2vs0mg"},{"bike_id":"6c007af5-b74e-4e51-8ef7-549d1233f8fd","system_id":"levelo_inurba_marseille","lat":43.2318,"lon":5.39985,"is_reserved":false,"is_disabled":false,"rental_uris":{"android":"levelo://app?vid=6c007af5-b74e-4e51-8ef7-549d1233f8fd","ios":"levelo://app?vid=6c007af5-b74e-4e51-8ef7-549d1233f8fd"},"vehicle_type_id":"4","last_reported":1752232168,"current_range_meters":8400,"station_id":"ce4bhn12rcd13ifvqgqg","pricing_plan_id":"cebpf4jnsgd1na2vs0mg"},{"bike_id":"aefcdd74-6482-42e0-92ee-b3d9efe0d8e2","system_id":"levelo_inurba_marseille","lat":43.324861,"lon":5.365643,"is_reserved":false,"is_disabled":false,"rental_uris":{"android":"levelo://app?vid=aefcdd74-6482-42e0-92ee-b3d9efe0d8e2","ios":"levelo://app?vid=aefcdd74-6482-42e0-92ee-b3d9efe0d8e2"},"vehicle_type_id":"4","last_reported":1752232168,"current_range_meters":8800,"station_id":"ce4bhs12rcd13ifvqhvg","pricing_plan_id":"cebpf4jnsgd1na2vs0mg"},{"bike_id":"2a8b9463-3b47-48a9-a44c-d4877252fdc7","system_id":"levelo_inurba_marseille","lat":43.28274,"lon":5.35083,"is_reserved":false,"is_disabled":false,"rental_uris":{"android":"levelo://app?vid=2a8b9463-3b47-48a9-a44c-d4877252fdc7","ios":"levelo://app?vid=2a8b9463-3b47-48a9-a44c-d4877252fdc7"},"vehicle_type_id":"4","last_reported":1752232168,"current_range_meters":8800,"station_id":"ce4bhbp2rcd13ifvqerg","pricing_plan_id":"cebpf4jnsgd1na2vs0mg"},{"bike_id":"a816948a-4f74-4d8f-b3e3-42f708dba3bc","system_id":"levelo_inurba_marseille","lat":43.2318,"lon":5.39993,"is_reserved":false,"is_disabled":false,"rental_uris":{"android":"levelo://app?vid=a816948a-4f74-4d8f-b3e3-42f708dba3bc","ios":"levelo://app?vid=a816948a-4f74-4d8f-b3e3-42f708dba3bc"},"vehicle_type_id":"4","last_reported":1752232168,"current_range_meters":8800,"station_id":"ce4bhn12rcd13ifvqgqg","pricing_plan_id":"cebpf4jnsgd1na2vs0mg"},{"bike_id":"9ea22431-ccdc-4d4c-a9f4-032a7ae8a696","system_id":"levelo_inurba_marseille","lat":43.29694,"lon":5.37291,"is_reserved":false,"is_disabled":false,"rental_uris":{"android":"levelo://app?vid=9ea22431-ccdc-4d4c-a9f4-032a7ae8a696","ios":"levelo://app?vid=9ea22431-ccdc-4d4c-a9f4-032a7ae8a696"},"vehicle_type_id":"4","last_reported":1752232168,"current_range_meters":8400,"station_id":"ce4bgk12rcd13ifvqbj0","pricing_plan_id":"cebpf4jnsgd1na2vs0mg"},{"bike_id":"c3898ed2-8480-4d26-a9ec-d2e20757aca9","system_id":"levelo_inurba_marseille","lat":43.284149,"lon":5.349813,"is_reserved":false,"is_disabled":false,"rental_uris":{"android":"levelo://app?vid=c3898ed2-8480-4d26-a9ec-d2e20757aca9","ios":"levelo://app?vid=c3898ed2-8480-4d26-a9ec-d2e20757aca9"},"vehicle_type_id":"4","last_reported":1752232168,"current_range_meters":8800,"station_id":"ce4bhbh2rcd13ifvqepg","pricing_plan_id":"cebpf4jnsgd1na2vs0mg"},{"bike_id":"9b244fec-614f-41c9-bd85-f47c827c6326","system_id":"levelo_inurba_marseille","lat":43.30157,"lon":5.38077,"is_reserved":false,"is_disabled":false,"rental_uris":{"android":"levelo://app?vid=9b244fec-614f-41c9-bd85-f47c827c6326","ios":"levelo://app?vid=9b244fec-614f-41c9-bd85-f47c827c6326"},"vehicle_type_id":"4","last_reported":1752232168,"current_range_meters":9200,"station_id":"ce4bgjp2rcd13ifvqbh0","pricing_plan_id":"cebpf4jnsgd1na2vs0mg"},{"bike_id":"83fd4ad5-cf55-4ca3-8f23-447491946de7","system_id":"levelo_inurba_marseille","lat":43.29218,"lon":5.36049,"is_reserved":false,"is_disabled":false,"rental_uris":{"android":"levelo://app?vid=83fd4ad5-cf55-4ca3-8f23-447491946de7","ios":"levelo://app?vid=83fd4ad5-cf55-4ca3-8f23-447491946de7"},"vehicle_type_id":"4","last_reported":1752232168,"current_range_meters":9200,"station_id":"ce4bhbh2rcd13ifvqeqg","pricing_plan_id":"cebpf4jnsgd1na2vs0mg"},{"bike_id":"e204274b-73ad-4c6f-862d-8af730ce2e2b","system_id":"levelo_inurba_marseille","lat":43.29545,"lon":5.42271,"is_reserved":false,"is_disabled":false,"rental_uris":{"android":"levelo://app?vid=e204274b-73ad-4c6f-862d-8af730ce2e2b","ios":"levelo://app?vid=e204274b-73ad-4c6f-862d-8af730ce2e2b"},"vehicle_type_id":"4","last_reported":1752232168,"current_range_meters":9200,"station_id":"ce4bhph2rcd13ifvqhdg","pricing_plan_id":"cebpf4jnsgd1na2vs0mg"},{"bike_id":"d535abe4-24dd-438b-b7e9-cd22caa8040f","system_id":"levelo_inurba_marseille","lat":43.26791,"lon":5.39419,"is_reserved":false,"is_disabled":false,"rental_uris":{"android":"levelo://app?vid=d535abe4-24dd-438b-b7e9-cd22caa8040f","ios":"levelo://app?vid=d535abe4-24dd-438b-b7e9-cd22caa8040f"},"vehicle_type_id":"4","last_reported":1752232168,"current_range_meters":9200,"station_id":"ce4bhh12rcd13ifvqfg0","pricing_plan_id":"cebpf4jnsgd1na2vs0mg"},{"bike_id":"6fa0df8f-9ff1-40c3-a15b-344b5a0d383b","system_id":"levelo_inurba_marseille","lat":43.32367,"lon":5.36775,"is_reserved":false,"is_disabled":false,"rental_uris":{"android":"levelo://app?vid=6fa0df8f-9ff1-40c3-a15b-344b5a0d383b","ios":"levelo://app?vid=6fa0df8f-9ff1-40c3-a15b-344b5a0d383b"},"vehicle_type_id":"4","last_reported":1752232168,"current_range_meters":9600,"station_id":"ce4bhsh2rcd13ifvqi2g","pricing_plan_id":"cebpf4jnsgd1na2vs0mg"},{"bike_id":"ddb9be4f-f3f8-43f9-aa75-a62ae12dac83","system_id":"levelo_inurba_marseille","lat":43.29047,"lon":5.3992,"is_reserved":false,"is_disabled":false,"rental_uris":{"android":"levelo://app?vid=ddb9be4f-f3f8-43f9-aa75-a62ae12dac83","ios":"levelo://app?vid=ddb9be4f-f3f8-43f9-aa75-a62ae12dac83"},"vehicle_type_id":"4","last_reported":1752232168,"current_range_meters":10000,"station_id":"ce4bh392rcd13ifvqdm0","pricing_plan_id":"cebpf4jnsgd1na2vs0mg"},{"bike_id":"e2a843da-2b0e-4a8d-82d0-82e2fd33644c","system_id":"levelo_inurba_marseille","lat":43.29528,"lon":5.38545,"is_reserved":false,"is_disabled":false,"rental_uris":{"android":"levelo://app?vid=e2a843da-2b0e-4a8d-82d0-82e2fd33644c","ios":"levelo://app?vid=e2a843da-2b0e-4a8d-82d0-82e2fd33644c"},"vehicle_type_id":"4","last_reported":1752232168,"current_range_meters":10000,"station_id":"ce4bgih2rcd13ifvqba0","pricing_plan_id":"cebpf4jnsgd1na2vs0mg"},{"bike_id":"ea7f713a-f8eb-4f16-8168-36d2161084e8","system_id":"levelo_inurba_marseille","lat":43.27863,"lon":5.39482,"is_reserved":false,"is_disabled":false,"rental_uris":{"android":"levelo://app?vid=ea7f713a-f8eb-4f16-8168-36d2161084e8","ios":"levelo://app?vid=ea7f713a-f8eb-4f16-8168-36d2161084e8"},"vehicle_type_id":"4","last_reported":1752232168,"current_range_meters":10000,"station_id":"","pricing_plan_id":"cebpf4jnsgd1na2vs0mg"},{"bike_id":"7c2d071d-3793-47df-b931-9d1ad060c48c","system_id":"levelo_inurba_marseille","lat":43.29558,"lon":5.42293,"is_reserved":false,"is_disabled":false,"rental_uris":{"android":"levelo://app?vid=7c2d071d-3793-47df-b931-9d1ad060c48c","ios":"levelo://app?vid=7c2d071d-3793-47df-b931-9d1ad060c48c"},"vehicle_type_id":"4","last_reported":1752232168,"current_range_meters":10000,"station_id":"ce4bhph2rcd13ifvqhdg","pricing_plan_id":"cebpf4jnsgd1na2vs0mg"},{"bike_id":"95ed45be-0cbe-4ada-ab9b-3d6fe6e0c22e","system_id":"levelo_inurba_marseille","lat":43.27608,"lon":5.36088,"is_reserved":false,"is_disabled":true,"rental_uris":{"android":"levelo://app?vid=95ed45be-0cbe-4ada-ab9b-3d6fe6e0c22e","ios":"levelo://app?vid=95ed45be-0cbe-4ada-ab9b-3d6fe6e0c22e"},"vehicle_type_id":"4","last_reported":1752232168,"current_range_meters":10000,"station_id":"ce4bgj92rcd13ifvqbe0","pricing_plan_id":"cebpf4jnsgd1na2vs0mg"},{"bike_id":"00164d5c-db41-494b-88d8-e429a400dc25","system_id":"levelo_inurba_marseille","lat":43.2827,"lon":5.35072,"is_reserved":false,"is_disabled":false,"rental_uris":{"android":"levelo://app?vid=00164d5c-db41-494b-88d8-e429a400dc25","ios":"levelo://app?vid=00164d5c-db41-494b-88d8-e429a400dc25"},"vehicle_type_id":"4","last_reported":1752232168,"current_range_meters":10800,"station_id":"ce4bhbp2rcd13ifvqerg","pricing_plan_id":"cebpf4jnsgd1na2vs0mg"},{"bike_id":"2892c59b-e1f7-4d16-baa4-2c49420c8688","system_id":"levelo_inurba_marseille","lat":43.28429,"lon":5.34984,"is_reserved":false,"is_disabled":false,"rental_uris":{"android":"levelo://app?vid=2892c59b-e1f7-4d16-baa4-2c49420c8688","ios":"levelo://app?vid=2892c59b-e1f7-4d16-baa4-2c49420c8688"},"vehicle_type_id":"4","last_reported":1752232168,"current_range_meters":10800,"station_id":"ce4bhbh2rcd13ifvqepg","pricing_plan_id":"cebpf4jnsgd1na2vs0mg"},{"bike_id":"73fe94e8-74f9-41f0-85e9-7d8c52adf2fc","system_id":"levelo_inurba_marseille","lat":43.21262,"lon":5.35285,"is_reserved":false,"is_disabled":false,"rental_uris":{"android":"levelo://app?vid=73fe94e8-74f9-41f0-85e9-7d8c52adf2fc","ios":"levelo://app?vid=73fe94e8-74f9-41f0-85e9-7d8c52adf2fc"},"vehicle_type_id":"4","last_reported":1752232168,"current_range_meters":10800,"station_id":"","pricing_plan_id":"cebpf4jnsgd1na2vs0mg"},{"bike_id":"cec5f38f-6e4a-4994-b899-fb4eff440304","system_id":"levelo_inurba_marseille","lat":43.301466,"lon":5.380653,"is_reserved":false,"is_disabled":false,"rental_uris":{"android":"levelo://app?vid=cec5f38f-6e4a-4994-b899-fb4eff440304","ios":"levelo://app?vid=cec5f38f-6e4a-4994-b899-fb4eff440304"},"vehicle_type_id":"4","last_reported":1752232168,"current_range_meters":10800,"station_id":"ce4bgjp2rcd13ifvqbh0","pricing_plan_id":"cebpf4jnsgd1na2vs0mg"},{"bike_id":"77a895c0-f47c-4ec3-a855-a3289edee2ca","system_id":"levelo_inurba_marseille","lat":43.27827,"lon":5.39206,"is_reserved":false,"is_disabled":true,"rental_uris":{"android":"levelo://app?vid=77a895c0-f47c-4ec3-a855-a3289edee2ca","ios":"levelo://app?vid=77a895c0-f47c-4ec3-a855-a3289edee2ca"},"vehicle_type_id":"4","last_reported":1752232168,"current_range_meters":10800,"station_id":"ce4bhjp2rcd13ifvqga0","pricing_plan_id":"cebpf4jnsgd1na2vs0mg"},{"bike_id":"1889d19b-4a96-4387-a313-990194c09bfc","system_id":"levelo_inurba_marseille","lat":43.3133,"lon":5.39696,"is_reserved":false,"is_disabled":false,"rental_uris":{"android":"levelo://app?vid=1889d19b-4a96-4387-a313-990194c09bfc","ios":"levelo://app?vid=1889d19b-4a96-4387-a313-990194c09bfc"},"vehicle_type_id":"4","last_reported":1752232168,"current_range_meters":10800,"station_id":"ce4bgvp2rcd13ifvqcu0","pricing_plan_id":"cebpf4jnsgd1na2vs0mg"},{"bike_id":"973f261a-81e1-483e-9208-18d0fae60a30","system_id":"levelo_inurba_marseille","lat":43.29518,"lon":5.37504,"is_reserved":false,"is_disabled":false,"rental_uris":{"android":"levelo://app?vid=973f261a-81e1-483e-9208-18d0fae60a30","ios":"levelo://app?vid=973f261a-81e1-483e-9208-18d0fae60a30"},"vehicle_type_id":"4","last_reported":1752232168,"current_range_meters":10000,"station_id":"ce4bgkp2rcd13ifvqbmg","pricing_plan_id":"cebpf4jnsgd1na2vs0mg"},{"bike_id":"03b768cd-a998-45cf-8eae-f6fd0e628504","system_id":"levelo_inurba_marseille","lat":43.293067,"lon":5.371677,"is_reserved":false,"is_disabled":false,"rental_uris":{"android":"levelo://app?vid=03b768cd-a998-45cf-8eae-f6fd0e628504","ios":"levelo://app?vid=03b768cd-a998-45cf-8eae-f6fd0e628504"},"vehicle_type_id":"4","last_reported":1752232168,"current_range_meters":10800,"station_id":"ce4bgh92rcd13ifvqb40","pricing_plan_id":"cebpf4jnsgd1na2vs0mg"},{"bike_id":"9f5e74ce-2459-4c6f-a171-f6d1e8a1ed83","system_id":"levelo_inurba_marseille","lat":43.318773,"lon":5.375513,"is_reserved":false,"is_disabled":false,"rental_uris":{"android":"levelo://app?vid=9f5e74ce-2459-4c6f-a171-f6d1e8a1ed83","ios":"levelo://app?vid=9f5e74ce-2459-4c6f-a171-f6d1e8a1ed83"},"vehicle_type_id":"4","last_reported":1752232168,"current_range_meters":10800,"station_id":"","pricing_plan_id":"cebpf4jnsgd1na2vs0mg"},{"bike_id":"b3d60eb0-7aa4-4c31-880d-886f21433e0c","system_id":"levelo_inurba_marseille","lat":43.31686,"lon":5.40503,"is_reserved":false,"is_disabled":false,"rental_uris":{"android":"levelo://app?vid=b3d60eb0-7aa4-4c31-880d-886f21433e0c","ios":"levelo://app?vid=b3d60eb0-7aa4-4c31-880d-886f21433e0c"},"vehicle_type_id":"4","last_reported":1752232168,"current_range_meters":10800,"station_id":"ce4bh012rcd13ifvqd00","pricing_plan_id":"cebpf4jnsgd1na2vs0mg"},{"bike_id":"5ed8effa-6539-4a17-9b0b-88a1e88bb81f","system_id":"levelo_inurba_marseille","lat":43.30529,"lon":5.36708,"is_reserved":false,"is_disabled":false,"rental_uris":{"android":"levelo://app?vid=5ed8effa-6539-4a17-9b0b-88a1e88bb81f","ios":"levelo://app?vid=5ed8effa-6539-4a17-9b0b-88a1e88bb81f"},"vehicle_type_id":"4","last_reported":1752232168,"current_range_meters":11200,"station_id":"ce4bgrp2rcd13ifvqc9g","pricing_plan_id":"cebpf4jnsgd1na2vs0mg"},{"bike_id":"4e209b0c-855f-4b51-8120-2faef8673853","system_id":"levelo_inurba_marseille","lat":43.306053,"lon":5.368886,"is_reserved":false,"is_disabled":false,"rental_uris":{"android":"levelo://app?vid=4e209b0c-855f-4b51-8120-2faef8673853","ios":"levelo://app?vid=4e209b0c-855f-4b51-8120-2faef8673853"},"vehicle_type_id":"4","last_reported":1752232168,"current_range_meters":11200,"station_id":"","pricing_plan_id":"cebpf4jnsgd1na2vs0mg"},{"bike_id":"0ff9ac8c-3e33-4435-9863-0428c693722c","system_id":"levelo_inurba_marseille","lat":43.28402,"lon":5.34978,"is_reserved":false,"is_disabled":false,"rental_uris":{"android":"levelo://app?vid=0ff9ac8c-3e33-4435-9863-0428c693722c","ios":"levelo://app?vid=0ff9ac8c-3e33-4435-9863-0428c693722c"},"vehicle_type_id":"4","last_reported":1752232168,"current_range_meters":11600,"station_id":"ce4bhbh2rcd13ifvqepg","pricing_plan_id":"cebpf4jnsgd1na2vs0mg"},{"bike_id":"21f59b5b-8998-4f73-aaea-45bdd2a1a4b4","system_id":"levelo_inurba_marseille","lat":43.29906,"lon":5.38132,"is_reserved":false,"is_disabled":false,"rental_uris":{"android":"levelo://app?vid=21f59b5b-8998-4f73-aaea-45bdd2a1a4b4","ios":"levelo://app?vid=21f59b5b-8998-4f73-aaea-45bdd2a1a4b4"},"vehicle_type_id":"4","last_reported":1752232168,"current_range_meters":11600,"station_id":"ce4bgj12rcd13ifvqbc0","pricing_plan_id":"cebpf4jnsgd1na2vs0mg"},{"bike_id":"93e273d6-7a36-4156-b986-dca69b918910","system_id":"levelo_inurba_marseille","lat":43.29189,"lon":5.39316,"is_reserved":false,"is_disabled":false,"rental_uris":{"android":"levelo://app?vid=93e273d6-7a36-4156-b986-dca69b918910","ios":"levelo://app?vid=93e273d6-7a36-4156-b986-dca69b918910"},"vehicle_type_id":"4","last_reported":1752232168,"current_range_meters":11600,"station_id":"ce4bh192rcd13ifvqdd0","pricing_plan_id":"cebpf4jnsgd1na2vs0mg"},{"bike_id":"5a7b57ef-a00d-4d19-853c-d49c119db95f","system_id":"levelo_inurba_marseille","lat":43.24566,"lon":5.3734,"is_reserved":false,"is_disabled":false,"rental_uris":{"android":"levelo://app?vid=5a7b57ef-a00d-4d19-853c-d49c119db95f","ios":"levelo://app?vid=5a7b57ef-a00d-4d19-853c-d49c119db95f"},"vehicle_type_id":"4","last_reported":1752232168,"current_range_meters":12000,"station_id":"","pricing_plan_id":"cebpf4jnsgd1na2vs0mg"},{"bike_id":"8330a68f-2f6e-4337-9657-35d7d87c04ca","system_id":"levelo_inurba_marseille","lat":43.25451,"lon":5.37946,"is_reserved":false,"is_disabled":false,"rental_uris":{"android":"levelo://app?vid=8330a68f-2f6e-4337-9657-35d7d87c04ca","ios":"levelo://app?vid=8330a68f-2f6e-4337-9657-35d7d87c04ca"},"vehicle_type_id":"4","last_reported":1752232168,"current_range_meters":12000,"station_id":"","pricing_plan_id":"cebpf4jnsgd1na2vs0mg"},{"bike_id":"52ded562-124e-46e9-8eee-59b1479b9e35","system_id":"levelo_inurba_marseille","lat":43.32465,"lon":5.36587,"is_reserved":false,"is_disabled":false,"rental_uris":{"android":"levelo://app?vid=52ded562-124e-46e9-8eee-59b1479b9e35","ios":"levelo://app?vid=52ded562-124e-46e9-8eee-59b1479b9e35"},"vehicle_type_id":"4","last_reported":1752232168,"current_range_meters":12000,"station_id":"ce4bhs12rcd13ifvqhvg","pricing_plan_id":"cebpf4jnsgd1na2vs0mg"},{"bike_id":"ae74847b-5128-4848-92eb-3f0b8b6ebcf6","system_id":"levelo_inurba_marseille","lat":43.29778,"lon":5.37097,"is_reserved":false,"is_disabled":false,"rental_uris":{"android":"levelo://app?vid=ae74847b-5128-4848-92eb-3f0b8b6ebcf6","ios":"levelo://app?vid=ae74847b-5128-4848-92eb-3f0b8b6ebcf6"},"vehicle_type_id":"4","last_reported":1752232168,"current_range_meters":12000,"station_id":"ce4bgop2rcd13ifvqc1g","pricing_plan_id":"cebpf4jnsgd1na2vs0mg"},{"bike_id":"fa87fcb5-aacb-41a1-a789-0296bbd02085","system_id":"levelo_inurba_marseille","lat":43.24575,"lon":5.37352,"is_reserved":false,"is_disabled":false,"rental_uris":{"android":"levelo://app?vid=fa87fcb5-aacb-41a1-a789-0296bbd02085","ios":"levelo://app?vid=fa87fcb5-aacb-41a1-a789-0296bbd02085"},"vehicle_type_id":"4","last_reported":1752232168,"current_range_meters":12000,"station_id":"","pricing_plan_id":"cebpf4jnsgd1na2vs0mg"},{"bike_id":"6f8a9163-3d95-4211-9ba8-c0f7dffe1501","system_id":"levelo_inurba_marseille","lat":43.28455,"lon":5.35879,"is_reserved":false,"is_disabled":false,"rental_uris":{"android":"levelo://app?vid=6f8a9163-3d95-4211-9ba8-c0f7dffe1501","ios":"levelo://app?vid=6f8a9163-3d95-4211-9ba8-c0f7dffe1501"},"vehicle_type_id":"4","last_reported":1752232168,"current_range_meters":12000,"station_id":"ce4bhah2rcd13ifvqei0","pricing_plan_id":"cebpf4jnsgd1na2vs0mg"},{"bike_id":"a3a375b9-e4fe-4b5b-8b52-11c2bf2a4718","system_id":"levelo_inurba_marseille","lat":43.279154,"lon":5.395809,"is_reserved":false,"is_disabled":false,"rental_uris":{"android":"levelo://app?vid=a3a375b9-e4fe-4b5b-8b52-11c2bf2a4718","ios":"levelo://app?vid=a3a375b9-e4fe-4b5b-8b52-11c2bf2a4718"},"vehicle_type_id":"4","last_reported":1752232168,"current_range_meters":12000,"station_id":"ce4bhhp2rcd13ifvqfm0","pricing_plan_id":"cebpf4jnsgd1na2vs0mg"},{"bike_id":"6447aef8-ff90-4ad1-a31b-85fba04a6025","system_id":"levelo_inurba_marseille","lat":43.28616,"lon":5.35096,"is_reserved":false,"is_disabled":false,"rental_uris":{"android":"levelo://app?vid=6447aef8-ff90-4ad1-a31b-85fba04a6025","ios":"levelo://app?vid=6447aef8-ff90-4ad1-a31b-85fba04a6025"},"vehicle_type_id":"4","last_reported":1752232168,"current_range_meters":12000,"station_id":"ce4bhch2rcd13ifvqeug","pricing_plan_id":"cebpf4jnsgd1na2vs0mg"},{"bike_id":"384e2b54-0585-40be-9c95-1ae683dcc4a7","system_id":"levelo_inurba_marseille","lat":43.249968,"lon":5.389326,"is_reserved":false,"is_disabled":false,"rental_uris":{"android":"levelo://app?vid=384e2b54-0585-40be-9c95-1ae683dcc4a7","ios":"levelo://app?vid=384e2b54-0585-40be-9c95-1ae683dcc4a7"},"vehicle_type_id":"4","last_reported":1752232168,"current_range_meters":12400,"station_id":"ce4bhgp2rcd13ifvqfd0","pricing_plan_id":"cebpf4jnsgd1na2vs0mg"},{"bike_id":"a57f7812-01a3-4e91-a54f-8d21c3a40e85","system_id":"levelo_inurba_marseille","lat":43.292978,"lon":5.374625,"is_reserved":false,"is_disabled":false,"rental_uris":{"android":"levelo://app?vid=a57f7812-01a3-4e91-a54f-8d21c3a40e85","ios":"levelo://app?vid=a57f7812-01a3-4e91-a54f-8d21c3a40e85"},"vehicle_type_id":"4","last_reported":1752232168,"current_range_meters":12400,"station_id":"ce4bgi12rcd13ifvqb70","pricing_plan_id":"cebpf4jnsgd1na2vs0mg"},{"bike_id":"d24f9e56-6e16-459e-9e9d-d5dab89c7487","system_id":"levelo_inurba_marseille","lat":43.24389,"lon":5.37059,"is_reserved":false,"is_disabled":false,"rental_uris":{"android":"levelo://app?vid=d24f9e56-6e16-459e-9e9d-d5dab89c7487","ios":"levelo://app?vid=d24f9e56-6e16-459e-9e9d-d5dab89c7487"},"vehicle_type_id":"4","last_reported":1752232168,"current_range_meters":12400,"station_id":"ce4bhhh2rcd13ifvqfk0","pricing_plan_id":"cebpf4jnsgd1na2vs0mg"},{"bike_id":"9a38b8ae-de57-4388-9942-2cd602d3a5ea","system_id":"levelo_inurba_marseille","lat":43.29552,"lon":5.42268,"is_reserved":false,"is_disabled":false,"rental_uris":{"android":"levelo://app?vid=9a38b8ae-de57-4388-9942-2cd602d3a5ea","ios":"levelo://app?vid=9a38b8ae-de57-4388-9942-2cd602d3a5ea"},"vehicle_type_id":"4","last_reported":1752232168,"current_range_meters":12400,"station_id":"ce4bhph2rcd13ifvqhdg","pricing_plan_id":"cebpf4jnsgd1na2vs0mg"},{"bike_id":"718aff8d-4f05-4e31-8ebf-f09ac437893d","system_id":"levelo_inurba_marseille","lat":43.24166,"lon":5.36391,"is_reserved":false,"is_disabled":false,"rental_uris":{"android":"levelo://app?vid=718aff8d-4f05-4e31-8ebf-f09ac437893d","ios":"levelo://app?vid=718aff8d-4f05-4e31-8ebf-f09ac437893d"},"vehicle_type_id":"4","last_reported":1752232168,"current_range_meters":12400,"station_id":"cpo36qri1sfpv3e86is0","pricing_plan_id":"cebpf4jnsgd1na2vs0mg"},{"bike_id":"bea47d0d-d0c3-4b0e-8ab5-d0fb741b04b7","system_id":"levelo_inurba_marseille","lat":43.29846,"lon":5.36285,"is_reserved":false,"is_disabled":false,"rental_uris":{"android":"levelo://app?vid=bea47d0d-d0c3-4b0e-8ab5-d0fb741b04b7","ios":"levelo://app?vid=bea47d0d-d0c3-4b0e-8ab5-d0fb741b04b7"},"vehicle_type_id":"4","last_reported":1752232168,"current_range_meters":12800,"station_id":"ce4bgpp2rcd13ifvqc3g","pricing_plan_id":"cebpf4jnsgd1na2vs0mg"},{"bike_id":"4a9cf30e-1321-47ca-ab1a-d9e0561a86b9","system_id":"levelo_inurba_marseille","lat":43.299738,"lon":5.371771,"is_reserved":false,"is_disabled":false,"rental_uris":{"android":"levelo://app?vid=4a9cf30e-1321-47ca-ab1a-d9e0561a86b9","ios":"levelo://app?vid=4a9cf30e-1321-47ca-ab1a-d9e0561a86b9"},"vehicle_type_id":"4","last_reported":1752232168,"current_range_meters":12800,"station_id":"ce4bgr92rcd13ifvqc7g","pricing_plan_id":"cebpf4jnsgd1na2vs0mg"},{"bike_id":"a12604ab-dd3a-420d-aba7-8c60ec3f799f","system_id":"levelo_inurba_marseille","lat":43.2842,"lon":5.3499,"is_reserved":false,"is_disabled":false,"rental_uris":{"android":"levelo://app?vid=a12604ab-dd3a-420d-aba7-8c60ec3f799f","ios":"levelo://app?vid=a12604ab-dd3a-420d-aba7-8c60ec3f799f"},"vehicle_type_id":"4","last_reported":1752232168,"current_range_meters":12800,"station_id":"ce4bhbh2rcd13ifvqepg","pricing_plan_id":"cebpf4jnsgd1na2vs0mg"},{"bike_id":"24b17f7b-dff1-4936-b27a-7c2c6813a894","system_id":"levelo_inurba_marseille","lat":43.24583,"lon":5.37373,"is_reserved":false,"is_disabled":false,"rental_uris":{"android":"levelo://app?vid=24b17f7b-dff1-4936-b27a-7c2c6813a894","ios":"levelo://app?vid=24b17f7b-dff1-4936-b27a-7c2c6813a894"},"vehicle_type_id":"4","last_reported":1752232168,"current_range_meters":12800,"station_id":"","pricing_plan_id":"cebpf4jnsgd1na2vs0mg"},{"bike_id":"4147360a-ab41-414e-8a9f-9b75ab62e839","system_id":"levelo_inurba_marseille","lat":43.23195,"lon":5.35556,"is_reserved":false,"is_disabled":false,"rental_uris":{"android":"levelo://app?vid=4147360a-ab41-414e-8a9f-9b75ab62e839","ios":"levelo://app?vid=4147360a-ab41-414e-8a9f-9b75ab62e839"},"vehicle_type_id":"4","last_reported":1752232168,"current_range_meters":13600,"station_id":"ce4bhu92rcd13ifvqi70","pricing_plan_id":"cebpf4jnsgd1na2vs0mg"},{"bike_id":"c74b27ee-3cfc-4e11-b4c4-f418cd2e9569","system_id":"levelo_inurba_marseille","lat":43.241702,"lon":5.363931,"is_reserved":false,"is_disabled":false,"rental_uris":{"android":"levelo://app?vid=c74b27ee-3cfc-4e11-b4c4-f418cd2e9569","ios":"levelo://app?vid=c74b27ee-3cfc-4e11-b4c4-f418cd2e9569"},"vehicle_type_id":"4","last_reported":1752232168,"current_range_meters":13600,"station_id":"cpo36qri1sfpv3e86is0","pricing_plan_id":"cebpf4jnsgd1na2vs0mg"},{"bike_id":"8f89e4f3-495a-4317-bd6d-37a19186d65b","system_id":"levelo_inurba_marseille","lat":43.33738,"lon":5.39231,"is_reserved":false,"is_disabled":false,"rental_uris":{"android":"levelo://app?vid=8f89e4f3-495a-4317-bd6d-37a19186d65b","ios":"levelo://app?vid=8f89e4f3-495a-4317-bd6d-37a19186d65b"},"vehicle_type_id":"4","last_reported":1752232168,"current_range_meters":13600,"station_id":"ce4bhr92rcd13ifvqhsg","pricing_plan_id":"cebpf4jnsgd1na2vs0mg"},{"bike_id":"d47f4098-ab80-4387-ae4a-5811a84b1d85","system_id":"levelo_inurba_marseille","lat":43.30146,"lon":5.37419,"is_reserved":false,"is_disabled":false,"rental_uris":{"android":"levelo://app?vid=d47f4098-ab80-4387-ae4a-5811a84b1d85","ios":"levelo://app?vid=d47f4098-ab80-4387-ae4a-5811a84b1d85"},"vehicle_type_id":"4","last_reported":1752232168,"current_range_meters":14000,"station_id":"ce4bgs92rcd13ifvqcc0","pricing_plan_id":"cebpf4jnsgd1na2vs0mg"},{"bike_id":"f3661e7a-8c35-4a8d-bc56-20889509e479","system_id":"levelo_inurba_marseille","lat":43.33419,"lon":5.40078,"is_reserved":false,"is_disabled":false,"rental_uris":{"android":"levelo://app?vid=f3661e7a-8c35-4a8d-bc56-20889509e479","ios":"levelo://app?vid=f3661e7a-8c35-4a8d-bc56-20889509e479"},"vehicle_type_id":"4","last_reported":1752232168,"current_range_meters":14000,"station_id":"","pricing_plan_id":"cebpf4jnsgd1na2vs0mg"},{"bike_id":"c3c5b26c-e834-4db6-994b-52abb31f20f1","system_id":"levelo_inurba_marseille","lat":43.24067,"lon":5.37757,"is_reserved":false,"is_disabled":false,"rental_uris":{"android":"levelo://app?vid=c3c5b26c-e834-4db6-994b-52abb31f20f1","ios":"levelo://app?vid=c3c5b26c-e834-4db6-994b-52abb31f20f1"},"vehicle_type_id":"4","last_reported":1752232168,"current_range_meters":14000,"station_id":"ce4bhnp2rcd13ifvqgvg","pricing_plan_id":"cebpf4jnsgd1na2vs0mg"},{"bike_id":"e16b6c04-3994-4476-9af0-9084b67d8f63","system_id":"levelo_inurba_marseille","lat":43.31214,"lon":5.36831,"is_reserved":false,"is_disabled":false,"rental_uris":{"android":"levelo://app?vid=e16b6c04-3994-4476-9af0-9084b67d8f63","ios":"levelo://app?vid=e16b6c04-3994-4476-9af0-9084b67d8f63"},"vehicle_type_id":"4","last_reported":1752232168,"current_range_meters":14000,"station_id":"ce4bgl92rcd13ifvqbq0","pricing_plan_id":"cebpf4jnsgd1na2vs0mg"},{"bike_id":"2c702aa4-2ac5-4550-b697-5b3cdcd314b3","system_id":"levelo_inurba_marseille","lat":43.32035,"lon":5.41573,"is_reserved":false,"is_disabled":false,"rental_uris":{"android":"levelo://app?vid=2c702aa4-2ac5-4550-b697-5b3cdcd314b3","ios":"levelo://app?vid=2c702aa4-2ac5-4550-b697-5b3cdcd314b3"},"vehicle_type_id":"4","last_reported":1752232168,"current_range_meters":14000,"station_id":"ce4bhq92rcd13ifvqhkg","pricing_plan_id":"cebpf4jnsgd1na2vs0mg"},{"bike_id":"d849a247-c2c0-4619-bac8-f5a6994e0014","system_id":"levelo_inurba_marseille","lat":43.3204,"lon":5.41566,"is_reserved":false,"is_disabled":true,"rental_uris":{"android":"levelo://app?vid=d849a247-c2c0-4619-bac8-f5a6994e0014","ios":"levelo://app?vid=d849a247-c2c0-4619-bac8-f5a6994e0014"},"vehicle_type_id":"4","last_reported":1752232168,"current_range_meters":14000,"station_id":"ce4bhq92rcd13ifvqhkg","pricing_plan_id":"cebpf4jnsgd1na2vs0mg"},{"bike_id":"031ea9e5-4c7a-44d5-8573-04597f20d979","system_id":"levelo_inurba_marseille","lat":43.30148,"lon":5.38067,"is_reserved":false,"is_disabled":false,"rental_uris":{"android":"levelo://app?vid=031ea9e5-4c7a-44d5-8573-04597f20d979","ios":"levelo://app?vid=031ea9e5-4c7a-44d5-8573-04597f20d979"},"vehicle_type_id":"4","last_reported":1752232168,"current_range_meters":14400,"station_id":"ce4bgjp2rcd13ifvqbh0","pricing_plan_id":"cebpf4jnsgd1na2vs0mg"},{"bike_id":"6994c34f-7b9e-4588-9c5d-f80e030067a1","system_id":"levelo_inurba_marseille","lat":43.323626,"lon":5.388784,"is_reserved":false,"is_disabled":false,"rental_uris":{"android":"levelo://app?vid=6994c34f-7b9e-4588-9c5d-f80e030067a1","ios":"levelo://app?vid=6994c34f-7b9e-4588-9c5d-f80e030067a1"},"vehicle_type_id":"4","last_reported":1752232168,"current_range_meters":14400,"station_id":"ce4bhqp2rcd13ifvqhog","pricing_plan_id":"cebpf4jnsgd1na2vs0mg"},{"bike_id":"0c190117-b4ee-4ec6-8f3e-929771e0c789","system_id":"levelo_inurba_marseille","lat":43.25711,"lon":5.41112,"is_reserved":false,"is_disabled":false,"rental_uris":{"android":"levelo://app?vid=0c190117-b4ee-4ec6-8f3e-929771e0c789","ios":"levelo://app?vid=0c190117-b4ee-4ec6-8f3e-929771e0c789"},"vehicle_type_id":"4","last_reported":1752232168,"current_range_meters":14400,"station_id":"ce4bhkp2rcd13ifvqgd0","pricing_plan_id":"cebpf4jnsgd1na2vs0mg"},{"bike_id":"4464c91a-b8cf-48b1-82b6-b9f3398a5c02","system_id":"levelo_inurba_marseille","lat":43.28415,"lon":5.34975,"is_reserved":false,"is_disabled":false,"rental_uris":{"android":"levelo://app?vid=4464c91a-b8cf-48b1-82b6-b9f3398a5c02","ios":"levelo://app?vid=4464c91a-b8cf-48b1-82b6-b9f3398a5c02"},"vehicle_type_id":"4","last_reported":1752232168,"current_range_meters":14400,"station_id":"ce4bhbh2rcd13ifvqepg","pricing_plan_id":"cebpf4jnsgd1na2vs0mg"},{"bike_id":"184e2297-eded-4566-a165-0bfc47cfc547","system_id":"levelo_inurba_marseille","lat":43.3015,"lon":5.38078,"is_reserved":false,"is_disabled":false,"rental_uris":{"android":"levelo://app?vid=184e2297-eded-4566-a165-0bfc47cfc547","ios":"levelo://app?vid=184e2297-eded-4566-a165-0bfc47cfc547"},"vehicle_type_id":"4","last_reported":1752232168,"current_range_meters":14400,"station_id":"ce4bgjp2rcd13ifvqbh0","pricing_plan_id":"cebpf4jnsgd1na2vs0mg"},{"bike_id":"d263de9c-115f-417f-977b-8d0ef8cd06ed","system_id":"levelo_inurba_marseille","lat":43.30539,"lon":5.36702,"is_reserved":false,"is_disabled":false,"rental_uris":{"android":"levelo://app?vid=d263de9c-115f-417f-977b-8d0ef8cd06ed","ios":"levelo://app?vid=d263de9c-115f-417f-977b-8d0ef8cd06ed"},"vehicle_type_id":"4","last_reported":1752232168,"current_range_meters":14800,"station_id":"ce4bh312rcd13ifvqdj0","pricing_plan_id":"cebpf4jnsgd1na2vs0mg"},{"bike_id":"4d4b9e28-a4f6-4d45-ac6b-64a63a768bd8","system_id":"levelo_inurba_marseille","lat":43.31518,"lon":5.37413,"is_reserved":false,"is_disabled":false,"rental_uris":{"android":"levelo://app?vid=4d4b9e28-a4f6-4d45-ac6b-64a63a768bd8","ios":"levelo://app?vid=4d4b9e28-a4f6-4d45-ac6b-64a63a768bd8"},"vehicle_type_id":"4","last_reported":1752232168,"current_range_meters":14800,"station_id":"","pricing_plan_id":"cebpf4jnsgd1na2vs0mg"},{"bike_id":"595e9351-a7ce-45de-8995-771f7d9fe86e","system_id":"levelo_inurba_marseille","lat":43.309243,"lon":5.378088,"is_reserved":false,"is_disabled":false,"rental_uris":{"android":"levelo://app?vid=595e9351-a7ce-45de-8995-771f7d9fe86e","ios":"levelo://app?vid=595e9351-a7ce-45de-8995-771f7d9fe86e"},"vehicle_type_id":"4","last_reported":1752232168,"current_range_meters":14800,"station_id":"","pricing_plan_id":"cebpf4jnsgd1na2vs0mg"},{"bike_id":"6e44525d-ed45-445a-a877-081b94eb5813","system_id":"levelo_inurba_marseille","lat":43.30378,"lon":5.41914,"is_reserved":false,"is_disabled":true,"rental_uris":{"android":"levelo://app?vid=6e44525d-ed45-445a-a877-081b94eb5813","ios":"levelo://app?vid=6e44525d-ed45-445a-a877-081b94eb5813"},"vehicle_type_id":"4","last_reported":1752232168,"current_range_meters":14800,"station_id":"ce4bhop2rcd13ifvqh7g","pricing_plan_id":"cebpf4jnsgd1na2vs0mg"},{"bike_id":"829f10b0-9af6-4471-8140-8f8ad8162b46","system_id":"levelo_inurba_marseille","lat":43.28402,"lon":5.34973,"is_reserved":false,"is_disabled":false,"rental_uris":{"android":"levelo://app?vid=829f10b0-9af6-4471-8140-8f8ad8162b46","ios":"levelo://app?vid=829f10b0-9af6-4471-8140-8f8ad8162b46"},"vehicle_type_id":"4","last_reported":1752232168,"current_range_meters":14800,"station_id":"ce4bhbh2rcd13ifvqepg","pricing_plan_id":"cebpf4jnsgd1na2vs0mg"},{"bike_id":"66b6e0c7-c7ab-4b7f-90c4-94f46ad46093","system_id":"levelo_inurba_marseille","lat":43.25002,"lon":5.38924,"is_reserved":false,"is_disabled":false,"rental_uris":{"android":"levelo://app?vid=66b6e0c7-c7ab-4b7f-90c4-94f46ad46093","ios":"levelo://app?vid=66b6e0c7-c7ab-4b7f-90c4-94f46ad46093"},"vehicle_type_id":"4","last_reported":1752232168,"current_range_meters":14800,"station_id":"ce4bhgp2rcd13ifvqfd0","pricing_plan_id":"cebpf4jnsgd1na2vs0mg"},{"bike_id":"c6a80404-0b82-4bac-a58d-0caa47987300","system_id":"levelo_inurba_marseille","lat":43.301332,"lon":5.374256,"is_reserved":false,"is_disabled":false,"rental_uris":{"android":"levelo://app?vid=c6a80404-0b82-4bac-a58d-0caa47987300","ios":"levelo://app?vid=c6a80404-0b82-4bac-a58d-0caa47987300"},"vehicle_type_id":"4","last_reported":1752232168,"current_range_meters":14800,"station_id":"ce4bgs92rcd13ifvqcc0","pricing_plan_id":"cebpf4jnsgd1na2vs0mg"},{"bike_id":"e3a75ee9-c614-467b-8cc2-f813bcef2ab1","system_id":"levelo_inurba_marseille","lat":43.33743,"lon":5.3919,"is_reserved":false,"is_disabled":false,"rental_uris":{"android":"levelo://app?vid=e3a75ee9-c614-467b-8cc2-f813bcef2ab1","ios":"levelo://app?vid=e3a75ee9-c614-467b-8cc2-f813bcef2ab1"},"vehicle_type_id":"4","last_reported":1752232168,"current_range_meters":14800,"station_id":"ce4bhr92rcd13ifvqhsg","pricing_plan_id":"cebpf4jnsgd1na2vs0mg"},{"bike_id":"46300fd1-5629-472c-937f-7ade2b5ae82a","system_id":"levelo_inurba_marseille","lat":43.27819,"lon":5.40715,"is_reserved":false,"is_disabled":false,"rental_uris":{"android":"levelo://app?vid=46300fd1-5629-472c-937f-7ade2b5ae82a","ios":"levelo://app?vid=46300fd1-5629-472c-937f-7ade2b5ae82a"},"vehicle_type_id":"4","last_reported":1752232168,"current_range_meters":14800,"station_id":"ce4bhnh2rcd13ifvqgtg","pricing_plan_id":"cebpf4jnsgd1na2vs0mg"},{"bike_id":"f993caa3-ade3-4fe5-9ef4-5c02d19b5b3b","system_id":"levelo_inurba_marseille","lat":43.28409,"lon":5.34998,"is_reserved":false,"is_disabled":false,"rental_uris":{"android":"levelo://app?vid=f993caa3-ade3-4fe5-9ef4-5c02d19b5b3b","ios":"levelo://app?vid=f993caa3-ade3-4fe5-9ef4-5c02d19b5b3b"},"vehicle_type_id":"4","last_reported":1752232168,"current_range_meters":15200,"station_id":"ce4bhbh2rcd13ifvqepg","pricing_plan_id":"cebpf4jnsgd1na2vs0mg"},{"bike_id":"55075b44-1035-4839-832e-0c90f8ddf705","system_id":"levelo_inurba_marseille","lat":43.27668,"lon":5.38879,"is_reserved":false,"is_disabled":false,"rental_uris":{"android":"levelo://app?vid=55075b44-1035-4839-832e-0c90f8ddf705","ios":"levelo://app?vid=55075b44-1035-4839-832e-0c90f8ddf705"},"vehicle_type_id":"4","last_reported":1752232168,"current_range_meters":15200,"station_id":"ce4bhi12rcd13ifvqfo0","pricing_plan_id":"cebpf4jnsgd1na2vs0mg"},{"bike_id":"5423e7d5-07f9-4264-9d42-219884898d7f","system_id":"levelo_inurba_marseille","lat":43.24174,"lon":5.36366,"is_reserved":false,"is_disabled":false,"rental_uris":{"android":"levelo://app?vid=5423e7d5-07f9-4264-9d42-219884898d7f","ios":"levelo://app?vid=5423e7d5-07f9-4264-9d42-219884898d7f"},"vehicle_type_id":"4","last_reported":1752232168,"current_range_meters":15200,"station_id":"cpo36qri1sfpv3e86is0","pricing_plan_id":"cebpf4jnsgd1na2vs0mg"},{"bike_id":"544ec108-796d-413d-8a7c-7e4ffa805fe3","system_id":"levelo_inurba_marseille","lat":43.27328,"lon":5.39271,"is_reserved":false,"is_disabled":false,"rental_uris":{"android":"levelo://app?vid=544ec108-796d-413d-8a7c-7e4ffa805fe3","ios":"levelo://app?vid=544ec108-796d-413d-8a7c-7e4ffa805fe3"},"vehicle_type_id":"4","last_reported":1752232168,"current_range_meters":15200,"station_id":"","pricing_plan_id":"cebpf4jnsgd1na2vs0mg"},{"bike_id":"0c6938d3-e9df-4938-981f-1336ff201ec8","system_id":"levelo_inurba_marseille","lat":43.28612,"lon":5.35104,"is_reserved":false,"is_disabled":false,"rental_uris":{"android":"levelo://app?vid=0c6938d3-e9df-4938-981f-1336ff201ec8","ios":"levelo://app?vid=0c6938d3-e9df-4938-981f-1336ff201ec8"},"vehicle_type_id":"4","last_reported":1752232168,"current_range_meters":15200,"station_id":"ce4bhch2rcd13ifvqeug","pricing_plan_id":"cebpf4jnsgd1na2vs0mg"},{"bike_id":"96c49139-ce96-45e6-a513-849b6f5a0c03","system_id":"levelo_inurba_marseille","lat":43.28266,"lon":5.35062,"is_reserved":false,"is_disabled":false,"rental_uris":{"android":"levelo://app?vid=96c49139-ce96-45e6-a513-849b6f5a0c03","ios":"levelo://app?vid=96c49139-ce96-45e6-a513-849b6f5a0c03"},"vehicle_type_id":"4","last_reported":1752232168,"current_range_meters":16000,"station_id":"ce4bhbp2rcd13ifvqerg","pricing_plan_id":"cebpf4jnsgd1na2vs0mg"},{"bike_id":"cab820d9-ce4c-4ec5-b20c-1a247c21af93","system_id":"levelo_inurba_marseille","lat":43.26566,"lon":5.39004,"is_reserved":false,"is_disabled":false,"rental_uris":{"android":"levelo://app?vid=cab820d9-ce4c-4ec5-b20c-1a247c21af93","ios":"levelo://app?vid=cab820d9-ce4c-4ec5-b20c-1a247c21af93"},"vehicle_type_id":"4","last_reported":1752232168,"current_range_meters":16000,"station_id":"ce4bhe12rcd13ifvqf30","pricing_plan_id":"cebpf4jnsgd1na2vs0mg"},{"bike_id":"530fdaa0-3dcf-48bd-ae6d-18f67ca1c283","system_id":"levelo_inurba_marseille","lat":43.297111,"lon":5.366155,"is_reserved":false,"is_disabled":false,"rental_uris":{"android":"levelo://app?vid=530fdaa0-3dcf-48bd-ae6d-18f67ca1c283","ios":"levelo://app?vid=530fdaa0-3dcf-48bd-ae6d-18f67ca1c283"},"vehicle_type_id":"4","last_reported":1752232168,"current_range_meters":16000,"station_id":"","pricing_plan_id":"cebpf4jnsgd1na2vs0mg"},{"bike_id":"ecec5a70-47e2-4076-ac88-b63310387724","system_id":"levelo_inurba_marseille","lat":43.21746,"lon":5.34607,"is_reserved":false,"is_disabled":true,"rental_uris":{"android":"levelo://app?vid=ecec5a70-47e2-4076-ac88-b63310387724","ios":"levelo://app?vid=ecec5a70-47e2-4076-ac88-b63310387724"},"vehicle_type_id":"4","last_reported":1752232168,"current_range_meters":16000,"station_id":"st_cvj6r9ubvosntc0bgbag","pricing_plan_id":"cebpf4jnsgd1na2vs0mg"},{"bike_id":"d05e987d-6766-4c70-b7d6-4c4ecf5a7258","system_id":"levelo_inurba_marseille","lat":43.2841,"lon":5.34976,"is_reserved":false,"is_disabled":false,"rental_uris":{"android":"levelo://app?vid=d05e987d-6766-4c70-b7d6-4c4ecf5a7258","ios":"levelo://app?vid=d05e987d-6766-4c70-b7d6-4c4ecf5a7258"},"vehicle_type_id":"4","last_reported":1752232168,"current_range_meters":16000,"station_id":"ce4bhbh2rcd13ifvqepg","pricing_plan_id":"cebpf4jnsgd1na2vs0mg"},{"bike_id":"bd69f1e7-b901-41a0-b2c9-aee4bd027443","system_id":"levelo_inurba_marseille","lat":43.2119,"lon":5.3507,"is_reserved":false,"is_disabled":false,"rental_uris":{"android":"levelo://app?vid=bd69f1e7-b901-41a0-b2c9-aee4bd027443","ios":"levelo://app?vid=bd69f1e7-b901-41a0-b2c9-aee4bd027443"},"vehicle_type_id":"4","last_reported":1752232168,"current_range_meters":16000,"station_id":"st_cvj6sg6p6f1abm77japg","pricing_plan_id":"cebpf4jnsgd1na2vs0mg"},{"bike_id":"2f8a5f2d-3e40-49a3-af7d-3f339ed1b4f8","system_id":"levelo_inurba_marseille","lat":43.31691,"lon":5.37792,"is_reserved":false,"is_disabled":false,"rental_uris":{"android":"levelo://app?vid=2f8a5f2d-3e40-49a3-af7d-3f339ed1b4f8","ios":"levelo://app?vid=2f8a5f2d-3e40-49a3-af7d-3f339ed1b4f8"},"vehicle_type_id":"4","last_reported":1752232168,"current_range_meters":16000,"station_id":"ce4bgth2rcd13ifvqch0","pricing_plan_id":"cebpf4jnsgd1na2vs0mg"},{"bike_id":"eda0ea69-6404-43e6-9ede-2655d170d444","system_id":"levelo_inurba_marseille","lat":43.28822,"lon":5.3583,"is_reserved":false,"is_disabled":true,"rental_uris":{"android":"levelo://app?vid=eda0ea69-6404-43e6-9ede-2655d170d444","ios":"levelo://app?vid=eda0ea69-6404-43e6-9ede-2655d170d444"},"vehicle_type_id":"4","last_reported":1752232168,"current_range_meters":16000,"station_id":"ce4bhb12rcd13ifvqem0","pricing_plan_id":"cebpf4jnsgd1na2vs0mg"},{"bike_id":"a086063c-8319-4212-8505-feb788fe148e","system_id":"levelo_inurba_marseille","lat":43.2826,"lon":5.35068,"is_reserved":false,"is_disabled":false,"rental_uris":{"android":"levelo://app?vid=a086063c-8319-4212-8505-feb788fe148e","ios":"levelo://app?vid=a086063c-8319-4212-8505-feb788fe148e"},"vehicle_type_id":"4","last_reported":1752232168,"current_range_meters":16000,"station_id":"ce4bhbp2rcd13ifvqerg","pricing_plan_id":"cebpf4jnsgd1na2vs0mg"},{"bike_id":"e8e03632-b9d1-480f-a4da-da482a543464","system_id":"levelo_inurba_marseille","lat":43.29041,"lon":5.37576,"is_reserved":false,"is_disabled":true,"rental_uris":{"android":"levelo://app?vid=e8e03632-b9d1-480f-a4da-da482a543464","ios":"levelo://app?vid=e8e03632-b9d1-480f-a4da-da482a543464"},"vehicle_type_id":"4","last_reported":1752232168,"current_range_meters":16400,"station_id":"ce4bh692rcd13ifvqe90","pricing_plan_id":"cebpf4jnsgd1na2vs0mg"},{"bike_id":"8f2f890e-e2b4-483b-9115-f34122aabb7a","system_id":"levelo_inurba_marseille","lat":43.29716,"lon":5.36611,"is_reserved":false,"is_disabled":false,"rental_uris":{"android":"levelo://app?vid=8f2f890e-e2b4-483b-9115-f34122aabb7a","ios":"levelo://app?vid=8f2f890e-e2b4-483b-9115-f34122aabb7a"},"vehicle_type_id":"4","last_reported":1752232168,"current_range_meters":16000,"station_id":"ce4bgn12rcd13ifvqbt0","pricing_plan_id":"cebpf4jnsgd1na2vs0mg"},{"bike_id":"9aaf1cf6-d570-4ef8-bca4-9b95f9226d97","system_id":"levelo_inurba_marseille","lat":43.32335,"lon":5.40615,"is_reserved":false,"is_disabled":false,"rental_uris":{"android":"levelo://app?vid=9aaf1cf6-d570-4ef8-bca4-9b95f9226d97","ios":"levelo://app?vid=9aaf1cf6-d570-4ef8-bca4-9b95f9226d97"},"vehicle_type_id":"4","last_reported":1752232168,"current_range_meters":16400,"station_id":"ce4bhq92rcd13ifvqhjg","pricing_plan_id":"cebpf4jnsgd1na2vs0mg"},{"bike_id":"d3f8ad38-97a4-4eb9-abf0-63a357cd60a9","system_id":"levelo_inurba_marseille","lat":43.31379,"lon":5.36723,"is_reserved":false,"is_disabled":false,"rental_uris":{"android":"levelo://app?vid=d3f8ad38-97a4-4eb9-abf0-63a357cd60a9","ios":"levelo://app?vid=d3f8ad38-97a4-4eb9-abf0-63a357cd60a9"},"vehicle_type_id":"4","last_reported":1752232168,"current_range_meters":16400,"station_id":"ce4bgr92rcd13ifvqc6g","pricing_plan_id":"cebpf4jnsgd1na2vs0mg"},{"bike_id":"647a1903-1834-4730-b34e-6397917620f0","system_id":"levelo_inurba_marseille","lat":43.31673,"lon":5.37017,"is_reserved":false,"is_disabled":false,"rental_uris":{"android":"levelo://app?vid=647a1903-1834-4730-b34e-6397917620f0","ios":"levelo://app?vid=647a1903-1834-4730-b34e-6397917620f0"},"vehicle_type_id":"4","last_reported":1752232168,"current_range_meters":16400,"station_id":"","pricing_plan_id":"cebpf4jnsgd1na2vs0mg"},{"bike_id":"5d7986d2-e256-4217-8890-7567b97c388e","system_id":"levelo_inurba_marseille","lat":43.253513,"lon":5.402151,"is_reserved":false,"is_disabled":false,"rental_uris":{"android":"levelo://app?vid=5d7986d2-e256-4217-8890-7567b97c388e","ios":"levelo://app?vid=5d7986d2-e256-4217-8890-7567b97c388e"},"vehicle_type_id":"4","last_reported":1752232168,"current_range_meters":17600,"station_id":"ce4bhlh2rcd13ifvqgig","pricing_plan_id":"cebpf4jnsgd1na2vs0mg"},{"bike_id":"405dbd18-f6e1-4f7d-ab36-07194d21eec1","system_id":"levelo_inurba_marseille","lat":43.29199,"lon":5.358004,"is_reserved":false,"is_disabled":false,"rental_uris":{"android":"levelo://app?vid=405dbd18-f6e1-4f7d-ab36-07194d21eec1","ios":"levelo://app?vid=405dbd18-f6e1-4f7d-ab36-07194d21eec1"},"vehicle_type_id":"4","last_reported":1752232168,"current_range_meters":16400,"station_id":"","pricing_plan_id":"cebpf4jnsgd1na2vs0mg"},{"bike_id":"38517b3c-d5b8-4eeb-9fbf-dc7e0b13c55b","system_id":"levelo_inurba_marseille","lat":43.30467,"lon":5.3792,"is_reserved":false,"is_disabled":false,"rental_uris":{"android":"levelo://app?vid=38517b3c-d5b8-4eeb-9fbf-dc7e0b13c55b","ios":"levelo://app?vid=38517b3c-d5b8-4eeb-9fbf-dc7e0b13c55b"},"vehicle_type_id":"4","last_reported":1752232168,"current_range_meters":16400,"station_id":"ce4bgup2rcd13ifvqcn0","pricing_plan_id":"cebpf4jnsgd1na2vs0mg"},{"bike_id":"dafa5a87-b26d-4379-9a6b-1f02133b78a6","system_id":"levelo_inurba_marseille","lat":43.21194,"lon":5.35069,"is_reserved":false,"is_disabled":false,"rental_uris":{"android":"levelo://app?vid=dafa5a87-b26d-4379-9a6b-1f02133b78a6","ios":"levelo://app?vid=dafa5a87-b26d-4379-9a6b-1f02133b78a6"},"vehicle_type_id":"4","last_reported":1752232168,"current_range_meters":16400,"station_id":"st_cvj6sg6p6f1abm77japg","pricing_plan_id":"cebpf4jnsgd1na2vs0mg"},{"bike_id":"485e458e-2aaa-4260-b411-6909bcda375c","system_id":"levelo_inurba_marseille","lat":43.305278,"lon":5.365387,"is_reserved":false,"is_disabled":false,"rental_uris":{"android":"levelo://app?vid=485e458e-2aaa-4260-b411-6909bcda375c","ios":"levelo://app?vid=485e458e-2aaa-4260-b411-6909bcda375c"},"vehicle_type_id":"4","last_reported":1752232168,"current_range_meters":16400,"station_id":"ce4bgs12rcd13ifvqcag","pricing_plan_id":"cebpf4jnsgd1na2vs0mg"},{"bike_id":"0218405b-8196-457b-9403-772b177cf636","system_id":"levelo_inurba_marseille","lat":43.23141,"lon":5.43703,"is_reserved":false,"is_disabled":false,"rental_uris":{"android":"levelo://app?vid=0218405b-8196-457b-9403-772b177cf636","ios":"levelo://app?vid=0218405b-8196-457b-9403-772b177cf636"},"vehicle_type_id":"4","last_reported":1752232168,"current_range_meters":16800,"station_id":"ce4bhmp2rcd13ifvqgog","pricing_plan_id":"cebpf4jnsgd1na2vs0mg"},{"bike_id":"8929c1bf-fd4d-44e4-aa66-b3eb6538c998","system_id":"levelo_inurba_marseille","lat":43.28577,"lon":5.42974,"is_reserved":false,"is_disabled":false,"rental_uris":{"android":"levelo://app?vid=8929c1bf-fd4d-44e4-aa66-b3eb6538c998","ios":"levelo://app?vid=8929c1bf-fd4d-44e4-aa66-b3eb6538c998"},"vehicle_type_id":"4","last_reported":1752232168,"current_range_meters":16800,"station_id":"","pricing_plan_id":"cebpf4jnsgd1na2vs0mg"},{"bike_id":"e9fd0cf8-573b-4177-88a6-f1faf33e8aca","system_id":"levelo_inurba_marseille","lat":43.29015,"lon":5.35616,"is_reserved":false,"is_disabled":true,"rental_uris":{"android":"levelo://app?vid=e9fd0cf8-573b-4177-88a6-f1faf33e8aca","ios":"levelo://app?vid=e9fd0cf8-573b-4177-88a6-f1faf33e8aca"},"vehicle_type_id":"4","last_reported":1752232168,"current_range_meters":16800,"station_id":"ce4bhb92rcd13ifvqen0","pricing_plan_id":"cebpf4jnsgd1na2vs0mg"},{"bike_id":"f84d414b-b83e-4804-9933-e2e4067ccad4","system_id":"levelo_inurba_marseille","lat":43.31697,"lon":5.40469,"is_reserved":false,"is_disabled":false,"rental_uris":{"android":"levelo://app?vid=f84d414b-b83e-4804-9933-e2e4067ccad4","ios":"levelo://app?vid=f84d414b-b83e-4804-9933-e2e4067ccad4"},"vehicle_type_id":"4","last_reported":1752232168,"current_range_meters":16800,"station_id":"ce4bh012rcd13ifvqd00","pricing_plan_id":"cebpf4jnsgd1na2vs0mg"},{"bike_id":"43b90c82-97e0-4fa7-8b67-2448f07d529e","system_id":"levelo_inurba_marseille","lat":43.211908,"lon":5.350678,"is_reserved":false,"is_disabled":false,"rental_uris":{"android":"levelo://app?vid=43b90c82-97e0-4fa7-8b67-2448f07d529e","ios":"levelo://app?vid=43b90c82-97e0-4fa7-8b67-2448f07d529e"},"vehicle_type_id":"4","last_reported":1752232168,"current_range_meters":16800,"station_id":"","pricing_plan_id":"cebpf4jnsgd1na2vs0mg"},{"bike_id":"e8ce8de4-2a03-4969-bc41-ff891c625e9a","system_id":"levelo_inurba_marseille","lat":43.27375,"lon":5.36263,"is_reserved":false,"is_disabled":false,"rental_uris":{"android":"levelo://app?vid=e8ce8de4-2a03-4969-bc41-ff891c625e9a","ios":"levelo://app?vid=e8ce8de4-2a03-4969-bc41-ff891c625e9a"},"vehicle_type_id":"4","last_reported":1752232168,"current_range_meters":16800,"station_id":"ce4bhbh2rcd13ifvqeo0","pricing_plan_id":"cebpf4jnsgd1na2vs0mg"},{"bike_id":"af1cde33-5506-4304-9bde-62aa1392a4b6","system_id":"levelo_inurba_marseille","lat":43.32359,"lon":5.38889,"is_reserved":false,"is_disabled":false,"rental_uris":{"android":"levelo://app?vid=af1cde33-5506-4304-9bde-62aa1392a4b6","ios":"levelo://app?vid=af1cde33-5506-4304-9bde-62aa1392a4b6"},"vehicle_type_id":"4","last_reported":1752232168,"current_range_meters":16800,"station_id":"ce4bhqp2rcd13ifvqhog","pricing_plan_id":"cebpf4jnsgd1na2vs0mg"},{"bike_id":"ca0ee2dc-7c18-4a57-bc42-4663c89d1a77","system_id":"levelo_inurba_marseille","lat":43.29225,"lon":5.36168,"is_reserved":false,"is_disabled":false,"rental_uris":{"android":"levelo://app?vid=ca0ee2dc-7c18-4a57-bc42-4663c89d1a77","ios":"levelo://app?vid=ca0ee2dc-7c18-4a57-bc42-4663c89d1a77"},"vehicle_type_id":"4","last_reported":1752232168,"current_range_meters":16800,"station_id":"","pricing_plan_id":"cebpf4jnsgd1na2vs0mg"},{"bike_id":"7b5cd6ce-df57-4328-854d-cb2d1407ab18","system_id":"levelo_inurba_marseille","lat":43.330282,"lon":5.39041,"is_reserved":false,"is_disabled":false,"rental_uris":{"android":"levelo://app?vid=7b5cd6ce-df57-4328-854d-cb2d1407ab18","ios":"levelo://app?vid=7b5cd6ce-df57-4328-854d-cb2d1407ab18"},"vehicle_type_id":"4","last_reported":1752232168,"current_range_meters":16800,"station_id":"ce4bhr92rcd13ifvqhrg","pricing_plan_id":"cebpf4jnsgd1na2vs0mg"},{"bike_id":"79191804-d49d-409e-8b15-361c9d6f9867","system_id":"levelo_inurba_marseille","lat":43.27059,"lon":5.4026,"is_reserved":false,"is_disabled":false,"rental_uris":{"android":"levelo://app?vid=79191804-d49d-409e-8b15-361c9d6f9867","ios":"levelo://app?vid=79191804-d49d-409e-8b15-361c9d6f9867"},"vehicle_type_id":"4","last_reported":1752232168,"current_range_meters":17200,"station_id":"ce4bhk92rcd13ifvqgc0","pricing_plan_id":"cebpf4jnsgd1na2vs0mg"},{"bike_id":"2719b67f-90e1-4bd7-99b7-35777b5be959","system_id":"levelo_inurba_marseille","lat":43.29322,"lon":5.37423,"is_reserved":false,"is_disabled":false,"rental_uris":{"android":"levelo://app?vid=2719b67f-90e1-4bd7-99b7-35777b5be959","ios":"levelo://app?vid=2719b67f-90e1-4bd7-99b7-35777b5be959"},"vehicle_type_id":"4","last_reported":1752232168,"current_range_meters":17200,"station_id":"ce4bgi12rcd13ifvqb70","pricing_plan_id":"cebpf4jnsgd1na2vs0mg"},{"bike_id":"9f8a8f55-908a-4421-8a00-e56b4cc0e419","system_id":"levelo_inurba_marseille","lat":43.28857,"lon":5.39318,"is_reserved":false,"is_disabled":false,"rental_uris":{"android":"levelo://app?vid=9f8a8f55-908a-4421-8a00-e56b4cc0e419","ios":"levelo://app?vid=9f8a8f55-908a-4421-8a00-e56b4cc0e419"},"vehicle_type_id":"4","last_reported":1752232168,"current_range_meters":16800,"station_id":"ce4bh2p2rcd13ifvqdi0","pricing_plan_id":"cebpf4jnsgd1na2vs0mg"},{"bike_id":"45bf7bb2-07d1-4864-86fe-8e74a893ff6b","system_id":"levelo_inurba_marseille","lat":43.28408,"lon":5.34975,"is_reserved":false,"is_disabled":false,"rental_uris":{"android":"levelo://app?vid=45bf7bb2-07d1-4864-86fe-8e74a893ff6b","ios":"levelo://app?vid=45bf7bb2-07d1-4864-86fe-8e74a893ff6b"},"vehicle_type_id":"4","last_reported":1752232168,"current_range_meters":17200,"station_id":"ce4bhbh2rcd13ifvqepg","pricing_plan_id":"cebpf4jnsgd1na2vs0mg"},{"bike_id":"2a16ae50-7dbe-4fc6-bba2-cf897e5fa99d","system_id":"levelo_inurba_marseille","lat":43.29047,"lon":5.38124,"is_reserved":false,"is_disabled":true,"rental_uris":{"android":"levelo://app?vid=2a16ae50-7dbe-4fc6-bba2-cf897e5fa99d","ios":"levelo://app?vid=2a16ae50-7dbe-4fc6-bba2-cf897e5fa99d"},"vehicle_type_id":"4","last_reported":1752232168,"current_range_meters":17200,"station_id":"ce4bh4p2rcd13ifvqe1g","pricing_plan_id":"cebpf4jnsgd1na2vs0mg"},{"bike_id":"37b84a38-055a-4a6e-a56a-8ff3d0c1b2ec","system_id":"levelo_inurba_marseille","lat":43.21164,"lon":5.35119,"is_reserved":false,"is_disabled":false,"rental_uris":{"android":"levelo://app?vid=37b84a38-055a-4a6e-a56a-8ff3d0c1b2ec","ios":"levelo://app?vid=37b84a38-055a-4a6e-a56a-8ff3d0c1b2ec"},"vehicle_type_id":"4","last_reported":1752232168,"current_range_meters":17200,"station_id":"st_cvj6sg6p6f1abm77japg","pricing_plan_id":"cebpf4jnsgd1na2vs0mg"},{"bike_id":"bf2b5275-3949-4e73-9bd9-b2862ff75707","system_id":"levelo_inurba_marseille","lat":43.3266,"lon":5.40991,"is_reserved":false,"is_disabled":false,"rental_uris":{"android":"levelo://app?vid=bf2b5275-3949-4e73-9bd9-b2862ff75707","ios":"levelo://app?vid=bf2b5275-3949-4e73-9bd9-b2862ff75707"},"vehicle_type_id":"4","last_reported":1752232168,"current_range_meters":16800,"station_id":"ce4bhpp2rcd13ifvqhgg","pricing_plan_id":"cebpf4jnsgd1na2vs0mg"},{"bike_id":"dbba3321-20c7-4989-a7b5-ea9ab2c4b3e8","system_id":"levelo_inurba_marseille","lat":43.261935,"lon":5.374477,"is_reserved":false,"is_disabled":false,"rental_uris":{"android":"levelo://app?vid=dbba3321-20c7-4989-a7b5-ea9ab2c4b3e8","ios":"levelo://app?vid=dbba3321-20c7-4989-a7b5-ea9ab2c4b3e8"},"vehicle_type_id":"4","last_reported":1752232168,"current_range_meters":17200,"station_id":"ce4bhgp2rcd13ifvqfc0","pricing_plan_id":"cebpf4jnsgd1na2vs0mg"},{"bike_id":"2857db6d-f7f4-4d10-93f3-db3268039ae8","system_id":"levelo_inurba_marseille","lat":43.30321,"lon":5.40432,"is_reserved":false,"is_disabled":false,"rental_uris":{"android":"levelo://app?vid=2857db6d-f7f4-4d10-93f3-db3268039ae8","ios":"levelo://app?vid=2857db6d-f7f4-4d10-93f3-db3268039ae8"},"vehicle_type_id":"4","last_reported":1752232168,"current_range_meters":17200,"station_id":"ce4bh012rcd13ifvqd10","pricing_plan_id":"cebpf4jnsgd1na2vs0mg"},{"bike_id":"b620d153-643f-40de-ac68-913e4a865b99","system_id":"levelo_inurba_marseille","lat":43.27068,"lon":5.40275,"is_reserved":false,"is_disabled":false,"rental_uris":{"android":"levelo://app?vid=b620d153-643f-40de-ac68-913e4a865b99","ios":"levelo://app?vid=b620d153-643f-40de-ac68-913e4a865b99"},"vehicle_type_id":"4","last_reported":1752232168,"current_range_meters":17600,"station_id":"ce4bhk92rcd13ifvqgc0","pricing_plan_id":"cebpf4jnsgd1na2vs0mg"},{"bike_id":"8fccf46e-4269-459a-bd9a-cdd93f6b32bc","system_id":"levelo_inurba_marseille","lat":43.30349,"lon":5.41874,"is_reserved":false,"is_disabled":true,"rental_uris":{"android":"levelo://app?vid=8fccf46e-4269-459a-bd9a-cdd93f6b32bc","ios":"levelo://app?vid=8fccf46e-4269-459a-bd9a-cdd93f6b32bc"},"vehicle_type_id":"4","last_reported":1752232168,"current_range_meters":17600,"station_id":"ce4bhop2rcd13ifvqh7g","pricing_plan_id":"cebpf4jnsgd1na2vs0mg"},{"bike_id":"76071f38-e76e-4cf2-b364-d188982b6005","system_id":"levelo_inurba_marseille","lat":43.26788,"lon":5.39419,"is_reserved":false,"is_disabled":false,"rental_uris":{"android":"levelo://app?vid=76071f38-e76e-4cf2-b364-d188982b6005","ios":"levelo://app?vid=76071f38-e76e-4cf2-b364-d188982b6005"},"vehicle_type_id":"4","last_reported":1752232168,"current_range_meters":17200,"station_id":"ce4bhh12rcd13ifvqfg0","pricing_plan_id":"cebpf4jnsgd1na2vs0mg"},{"bike_id":"e5aa6fcc-52da-4541-8217-b024d7af709b","system_id":"levelo_inurba_marseille","lat":43.31106,"lon":5.37781,"is_reserved":false,"is_disabled":false,"rental_uris":{"android":"levelo://app?vid=e5aa6fcc-52da-4541-8217-b024d7af709b","ios":"levelo://app?vid=e5aa6fcc-52da-4541-8217-b024d7af709b"},"vehicle_type_id":"4","last_reported":1752232168,"current_range_meters":17600,"station_id":"ce4bgt92rcd13ifvqcg0","pricing_plan_id":"cebpf4jnsgd1na2vs0mg"},{"bike_id":"5f9facdb-d1e1-40e1-8ceb-766e4b9ac193","system_id":"levelo_inurba_marseille","lat":43.21754,"lon":5.345992,"is_reserved":false,"is_disabled":false,"rental_uris":{"android":"levelo://app?vid=5f9facdb-d1e1-40e1-8ceb-766e4b9ac193","ios":"levelo://app?vid=5f9facdb-d1e1-40e1-8ceb-766e4b9ac193"},"vehicle_type_id":"4","last_reported":1752232168,"current_range_meters":17600,"station_id":"","pricing_plan_id":"cebpf4jnsgd1na2vs0mg"},{"bike_id":"eb6a2290-40e2-4780-bdeb-a149c699215d","system_id":"levelo_inurba_marseille","lat":43.27956,"lon":5.41052,"is_reserved":false,"is_disabled":false,"rental_uris":{"android":"levelo://app?vid=eb6a2290-40e2-4780-bdeb-a149c699215d","ios":"levelo://app?vid=eb6a2290-40e2-4780-bdeb-a149c699215d"},"vehicle_type_id":"4","last_reported":1752232168,"current_range_meters":17600,"station_id":"ce4bhnp2rcd13ifvqh0g","pricing_plan_id":"cebpf4jnsgd1na2vs0mg"},{"bike_id":"82935648-d297-414f-bd1a-061493c87ec1","system_id":"levelo_inurba_marseille","lat":43.23202,"lon":5.35557,"is_reserved":false,"is_disabled":false,"rental_uris":{"android":"levelo://app?vid=82935648-d297-414f-bd1a-061493c87ec1","ios":"levelo://app?vid=82935648-d297-414f-bd1a-061493c87ec1"},"vehicle_type_id":"4","last_reported":1752232168,"current_range_meters":17600,"station_id":"ce4bhu92rcd13ifvqi70","pricing_plan_id":"cebpf4jnsgd1na2vs0mg"},{"bike_id":"199fc732-b1f9-4b43-a682-43aab23bc41d","system_id":"levelo_inurba_marseille","lat":43.30546,"lon":5.36697,"is_reserved":false,"is_disabled":false,"rental_uris":{"android":"levelo://app?vid=199fc732-b1f9-4b43-a682-43aab23bc41d","ios":"levelo://app?vid=199fc732-b1f9-4b43-a682-43aab23bc41d"},"vehicle_type_id":"4","last_reported":1752232168,"current_range_meters":17600,"station_id":"ce4bgrp2rcd13ifvqc9g","pricing_plan_id":"cebpf4jnsgd1na2vs0mg"},{"bike_id":"8677a116-3b38-407d-8bc5-47255bf2566d","system_id":"levelo_inurba_marseille","lat":43.29254,"lon":5.37634,"is_reserved":false,"is_disabled":false,"rental_uris":{"android":"levelo://app?vid=8677a116-3b38-407d-8bc5-47255bf2566d","ios":"levelo://app?vid=8677a116-3b38-407d-8bc5-47255bf2566d"},"vehicle_type_id":"4","last_reported":1752232168,"current_range_meters":17600,"station_id":"ce4bgi12rcd13ifvqb80","pricing_plan_id":"cebpf4jnsgd1na2vs0mg"},{"bike_id":"e86ba8c9-208d-482c-a826-4c100938472a","system_id":"levelo_inurba_marseille","lat":43.21197,"lon":5.3511,"is_reserved":false,"is_disabled":false,"rental_uris":{"android":"levelo://app?vid=e86ba8c9-208d-482c-a826-4c100938472a","ios":"levelo://app?vid=e86ba8c9-208d-482c-a826-4c100938472a"},"vehicle_type_id":"4","last_reported":1752232168,"current_range_meters":17600,"station_id":"st_cvj6sg6p6f1abm77japg","pricing_plan_id":"cebpf4jnsgd1na2vs0mg"},{"bike_id":"61198919-e72c-4fce-bc96-126627987dc0","system_id":"levelo_inurba_marseille","lat":43.29598,"lon":5.37915,"is_reserved":false,"is_disabled":false,"rental_uris":{"android":"levelo://app?vid=61198919-e72c-4fce-bc96-126627987dc0","ios":"levelo://app?vid=61198919-e72c-4fce-bc96-126627987dc0"},"vehicle_type_id":"4","last_reported":1752232168,"current_range_meters":18000,"station_id":"","pricing_plan_id":"cebpf4jnsgd1na2vs0mg"},{"bike_id":"a90c9fa5-9191-47c5-99fe-f324adadfc02","system_id":"levelo_inurba_marseille","lat":43.26957,"lon":5.38643,"is_reserved":false,"is_disabled":false,"rental_uris":{"android":"levelo://app?vid=a90c9fa5-9191-47c5-99fe-f324adadfc02","ios":"levelo://app?vid=a90c9fa5-9191-47c5-99fe-f324adadfc02"},"vehicle_type_id":"4","last_reported":1752232168,"current_range_meters":18000,"station_id":"ce4bhh92rcd13ifvqfh0","pricing_plan_id":"cebpf4jnsgd1na2vs0mg"},{"bike_id":"452e8211-4f44-45d0-814a-3e9e25b8c44e","system_id":"levelo_inurba_marseille","lat":43.21193,"lon":5.35074,"is_reserved":false,"is_disabled":false,"rental_uris":{"android":"levelo://app?vid=452e8211-4f44-45d0-814a-3e9e25b8c44e","ios":"levelo://app?vid=452e8211-4f44-45d0-814a-3e9e25b8c44e"},"vehicle_type_id":"4","last_reported":1752232168,"current_range_meters":18000,"station_id":"st_cvj6sg6p6f1abm77japg","pricing_plan_id":"cebpf4jnsgd1na2vs0mg"},{"bike_id":"a81ede20-43a9-47cd-942d-8fb15c54f5f7","system_id":"levelo_inurba_marseille","lat":43.30096,"lon":5.45158,"is_reserved":false,"is_disabled":false,"rental_uris":{"android":"levelo://app?vid=a81ede20-43a9-47cd-942d-8fb15c54f5f7","ios":"levelo://app?vid=a81ede20-43a9-47cd-942d-8fb15c54f5f7"},"vehicle_type_id":"4","last_reported":1752232168,"current_range_meters":18800,"station_id":"","pricing_plan_id":"cebpf4jnsgd1na2vs0mg"},{"bike_id":"a581eef9-f0fb-4e5d-8be0-84b96bfd2d41","system_id":"levelo_inurba_marseille","lat":43.29363,"lon":5.3785,"is_reserved":false,"is_disabled":true,"rental_uris":{"android":"levelo://app?vid=a581eef9-f0fb-4e5d-8be0-84b96bfd2d41","ios":"levelo://app?vid=a581eef9-f0fb-4e5d-8be0-84b96bfd2d41"},"vehicle_type_id":"4","last_reported":1752232168,"current_range_meters":18800,"station_id":"ce4bgjh2rcd13ifvqbf0","pricing_plan_id":"cebpf4jnsgd1na2vs0mg"},{"bike_id":"6872c3fa-74d9-4e37-8895-ea8a2e53e73b","system_id":"levelo_inurba_marseille","lat":43.30093,"lon":5.3907,"is_reserved":false,"is_disabled":false,"rental_uris":{"android":"levelo://app?vid=6872c3fa-74d9-4e37-8895-ea8a2e53e73b","ios":"levelo://app?vid=6872c3fa-74d9-4e37-8895-ea8a2e53e73b"},"vehicle_type_id":"4","last_reported":1752232168,"current_range_meters":18000,"station_id":"ce4bh192rcd13ifvqdb0","pricing_plan_id":"cebpf4jnsgd1na2vs0mg"},{"bike_id":"d1320dee-0b04-41ba-a1aa-9d06cbcae5ee","system_id":"levelo_inurba_marseille","lat":43.28258,"lon":5.35065,"is_reserved":false,"is_disabled":false,"rental_uris":{"android":"levelo://app?vid=d1320dee-0b04-41ba-a1aa-9d06cbcae5ee","ios":"levelo://app?vid=d1320dee-0b04-41ba-a1aa-9d06cbcae5ee"},"vehicle_type_id":"4","last_reported":1752232168,"current_range_meters":18800,"station_id":"ce4bhbp2rcd13ifvqerg","pricing_plan_id":"cebpf4jnsgd1na2vs0mg"},{"bike_id":"20680127-388b-4c3d-826d-da1f8ee9afa9","system_id":"levelo_inurba_marseille","lat":43.30142,"lon":5.38087,"is_reserved":false,"is_disabled":false,"rental_uris":{"android":"levelo://app?vid=20680127-388b-4c3d-826d-da1f8ee9afa9","ios":"levelo://app?vid=20680127-388b-4c3d-826d-da1f8ee9afa9"},"vehicle_type_id":"4","last_reported":1752232168,"current_range_meters":18800,"station_id":"ce4bgjp2rcd13ifvqbh0","pricing_plan_id":"cebpf4jnsgd1na2vs0mg"},{"bike_id":"9849ba00-38d4-4777-b3da-3291108e7455","system_id":"levelo_inurba_marseille","lat":43.30613,"lon":5.37236,"is_reserved":false,"is_disabled":false,"rental_uris":{"android":"levelo://app?vid=9849ba00-38d4-4777-b3da-3291108e7455","ios":"levelo://app?vid=9849ba00-38d4-4777-b3da-3291108e7455"},"vehicle_type_id":"4","last_reported":1752232168,"current_range_meters":19200,"station_id":"ce4bgqh2rcd13ifvqc4g","pricing_plan_id":"cebpf4jnsgd1na2vs0mg"},{"bike_id":"5bd1c63e-aacb-4c0a-b1ef-76bd7aa28f78","system_id":"levelo_inurba_marseille","lat":43.305875,"lon":5.365921,"is_reserved":false,"is_disabled":false,"rental_uris":{"android":"levelo://app?vid=5bd1c63e-aacb-4c0a-b1ef-76bd7aa28f78","ios":"levelo://app?vid=5bd1c63e-aacb-4c0a-b1ef-76bd7aa28f78"},"vehicle_type_id":"4","last_reported":1752232168,"current_range_meters":19200,"station_id":"ce4bh392rcd13ifvqdl0","pricing_plan_id":"cebpf4jnsgd1na2vs0mg"},{"bike_id":"6fd9b755-ff89-4eb1-89e4-a0f6b7e20a37","system_id":"levelo_inurba_marseille","lat":43.30557,"lon":5.36556,"is_reserved":false,"is_disabled":false,"rental_uris":{"android":"levelo://app?vid=6fd9b755-ff89-4eb1-89e4-a0f6b7e20a37","ios":"levelo://app?vid=6fd9b755-ff89-4eb1-89e4-a0f6b7e20a37"},"vehicle_type_id":"4","last_reported":1752232168,"current_range_meters":19200,"station_id":"ce4bgs12rcd13ifvqcag","pricing_plan_id":"cebpf4jnsgd1na2vs0mg"},{"bike_id":"23e25a08-0b41-4740-a2a4-a064ce7bc4eb","system_id":"levelo_inurba_marseille","lat":43.30933,"lon":5.40159,"is_reserved":false,"is_disabled":false,"rental_uris":{"android":"levelo://app?vid=23e25a08-0b41-4740-a2a4-a064ce7bc4eb","ios":"levelo://app?vid=23e25a08-0b41-4740-a2a4-a064ce7bc4eb"},"vehicle_type_id":"4","last_reported":1752232168,"current_range_meters":19200,"station_id":"ce4bgvp2rcd13ifvqct0","pricing_plan_id":"cebpf4jnsgd1na2vs0mg"},{"bike_id":"602d0666-ff20-416c-a27c-b7d143dca28d","system_id":"levelo_inurba_marseille","lat":43.30547,"lon":5.36529,"is_reserved":false,"is_disabled":false,"rental_uris":{"android":"levelo://app?vid=602d0666-ff20-416c-a27c-b7d143dca28d","ios":"levelo://app?vid=602d0666-ff20-416c-a27c-b7d143dca28d"},"vehicle_type_id":"4","last_reported":1752232168,"current_range_meters":19200,"station_id":"ce4bgs12rcd13ifvqcag","pricing_plan_id":"cebpf4jnsgd1na2vs0mg"},{"bike_id":"96027133-38cf-42ab-a1e9-dcd19a0756f2","system_id":"levelo_inurba_marseille","lat":43.29005,"lon":5.35616,"is_reserved":false,"is_disabled":false,"rental_uris":{"android":"levelo://app?vid=96027133-38cf-42ab-a1e9-dcd19a0756f2","ios":"levelo://app?vid=96027133-38cf-42ab-a1e9-dcd19a0756f2"},"vehicle_type_id":"4","last_reported":1752232168,"current_range_meters":19200,"station_id":"ce4bhb92rcd13ifvqen0","pricing_plan_id":"cebpf4jnsgd1na2vs0mg"},{"bike_id":"e25447b2-eabb-48f4-9a77-5bdc64539a98","system_id":"levelo_inurba_marseille","lat":43.31335,"lon":5.39706,"is_reserved":false,"is_disabled":false,"rental_uris":{"android":"levelo://app?vid=e25447b2-eabb-48f4-9a77-5bdc64539a98","ios":"levelo://app?vid=e25447b2-eabb-48f4-9a77-5bdc64539a98"},"vehicle_type_id":"4","last_reported":1752232168,"current_range_meters":19200,"station_id":"ce4bgvp2rcd13ifvqcu0","pricing_plan_id":"cebpf4jnsgd1na2vs0mg"},{"bike_id":"00550b7d-b654-4af5-81b3-f33fcfb3bc68","system_id":"levelo_inurba_marseille","lat":43.29837,"lon":5.36272,"is_reserved":false,"is_disabled":false,"rental_uris":{"android":"levelo://app?vid=00550b7d-b654-4af5-81b3-f33fcfb3bc68","ios":"levelo://app?vid=00550b7d-b654-4af5-81b3-f33fcfb3bc68"},"vehicle_type_id":"4","last_reported":1752232168,"current_range_meters":19600,"station_id":"ce4bgpp2rcd13ifvqc3g","pricing_plan_id":"cebpf4jnsgd1na2vs0mg"},{"bike_id":"ad023729-3d33-44a6-99ca-a047715b7f88","system_id":"levelo_inurba_marseille","lat":43.21176,"lon":5.35083,"is_reserved":false,"is_disabled":false,"rental_uris":{"android":"levelo://app?vid=ad023729-3d33-44a6-99ca-a047715b7f88","ios":"levelo://app?vid=ad023729-3d33-44a6-99ca-a047715b7f88"},"vehicle_type_id":"4","last_reported":1752232168,"current_range_meters":19600,"station_id":"st_cvj6sg6p6f1abm77japg","pricing_plan_id":"cebpf4jnsgd1na2vs0mg"},{"bike_id":"9afaabbe-0683-404e-aee2-9b7c5171cfc9","system_id":"levelo_inurba_marseille","lat":43.28265,"lon":5.35062,"is_reserved":false,"is_disabled":false,"rental_uris":{"android":"levelo://app?vid=9afaabbe-0683-404e-aee2-9b7c5171cfc9","ios":"levelo://app?vid=9afaabbe-0683-404e-aee2-9b7c5171cfc9"},"vehicle_type_id":"4","last_reported":1752232168,"current_range_meters":19600,"station_id":"ce4bhbp2rcd13ifvqerg","pricing_plan_id":"cebpf4jnsgd1na2vs0mg"},{"bike_id":"e72cfbf3-f00e-4474-a978-8976cecd3110","system_id":"levelo_inurba_marseille","lat":43.30153,"lon":5.3809,"is_reserved":false,"is_disabled":false,"rental_uris":{"android":"levelo://app?vid=e72cfbf3-f00e-4474-a978-8976cecd3110","ios":"levelo://app?vid=e72cfbf3-f00e-4474-a978-8976cecd3110"},"vehicle_type_id":"4","last_reported":1752232168,"current_range_meters":19600,"station_id":"ce4bgjp2rcd13ifvqbh0","pricing_plan_id":"cebpf4jnsgd1na2vs0mg"},{"bike_id":"cacd713b-2ff6-4643-91f0-3b909791350c","system_id":"levelo_inurba_marseille","lat":43.294556,"lon":5.394043,"is_reserved":false,"is_disabled":false,"rental_uris":{"android":"levelo://app?vid=cacd713b-2ff6-4643-91f0-3b909791350c","ios":"levelo://app?vid=cacd713b-2ff6-4643-91f0-3b909791350c"},"vehicle_type_id":"4","last_reported":1752232168,"current_range_meters":20000,"station_id":"ce4bh292rcd13ifvqdf0","pricing_plan_id":"cebpf4jnsgd1na2vs0mg"},{"bike_id":"b6f061b6-88dc-4233-9010-7470f1f96743","system_id":"levelo_inurba_marseille","lat":43.29701,"lon":5.36612,"is_reserved":false,"is_disabled":false,"rental_uris":{"android":"levelo://app?vid=b6f061b6-88dc-4233-9010-7470f1f96743","ios":"levelo://app?vid=b6f061b6-88dc-4233-9010-7470f1f96743"},"vehicle_type_id":"4","last_reported":1752232168,"current_range_meters":20000,"station_id":"ce4bgn12rcd13ifvqbt0","pricing_plan_id":"cebpf4jnsgd1na2vs0mg"},{"bike_id":"790c377f-77f7-4730-a831-b0f708a46319","system_id":"levelo_inurba_marseille","lat":43.33611,"lon":5.41017,"is_reserved":false,"is_disabled":false,"rental_uris":{"android":"levelo://app?vid=790c377f-77f7-4730-a831-b0f708a46319","ios":"levelo://app?vid=790c377f-77f7-4730-a831-b0f708a46319"},"vehicle_type_id":"4","last_reported":1752232168,"current_range_meters":20000,"station_id":"ce4bhqh2rcd13ifvqhmg","pricing_plan_id":"cebpf4jnsgd1na2vs0mg"},{"bike_id":"0c286db9-c2a1-4d7c-96ca-fa72c2b1fbb1","system_id":"levelo_inurba_marseille","lat":43.28421,"lon":5.34995,"is_reserved":false,"is_disabled":false,"rental_uris":{"android":"levelo://app?vid=0c286db9-c2a1-4d7c-96ca-fa72c2b1fbb1","ios":"levelo://app?vid=0c286db9-c2a1-4d7c-96ca-fa72c2b1fbb1"},"vehicle_type_id":"4","last_reported":1752232168,"current_range_meters":20000,"station_id":"ce4bhbh2rcd13ifvqepg","pricing_plan_id":"cebpf4jnsgd1na2vs0mg"},{"bike_id":"ba3b7e41-84eb-4ca6-9257-4bdd3a87cc15","system_id":"levelo_inurba_marseille","lat":43.27939,"lon":5.41051,"is_reserved":false,"is_disabled":false,"rental_uris":{"android":"levelo://app?vid=ba3b7e41-84eb-4ca6-9257-4bdd3a87cc15","ios":"levelo://app?vid=ba3b7e41-84eb-4ca6-9257-4bdd3a87cc15"},"vehicle_type_id":"4","last_reported":1752232168,"current_range_meters":20400,"station_id":"ce4bhnp2rcd13ifvqh0g","pricing_plan_id":"cebpf4jnsgd1na2vs0mg"},{"bike_id":"00bc0b3b-e317-4a17-a011-a3a9a29d816a","system_id":"levelo_inurba_marseille","lat":43.21196,"lon":5.35076,"is_reserved":false,"is_disabled":false,"rental_uris":{"android":"levelo://app?vid=00bc0b3b-e317-4a17-a011-a3a9a29d816a","ios":"levelo://app?vid=00bc0b3b-e317-4a17-a011-a3a9a29d816a"},"vehicle_type_id":"4","last_reported":1752232168,"current_range_meters":20400,"station_id":"st_cvj6sg6p6f1abm77japg","pricing_plan_id":"cebpf4jnsgd1na2vs0mg"},{"bike_id":"a32fff8f-fe3f-4268-a515-369106b6ec45","system_id":"levelo_inurba_marseille","lat":43.282768,"lon":5.350746,"is_reserved":false,"is_disabled":false,"rental_uris":{"android":"levelo://app?vid=a32fff8f-fe3f-4268-a515-369106b6ec45","ios":"levelo://app?vid=a32fff8f-fe3f-4268-a515-369106b6ec45"},"vehicle_type_id":"4","last_reported":1752232168,"current_range_meters":20400,"station_id":"ce4bhbp2rcd13ifvqerg","pricing_plan_id":"cebpf4jnsgd1na2vs0mg"},{"bike_id":"ed181f85-e34e-4f11-b260-3960b4c826ad","system_id":"levelo_inurba_marseille","lat":43.3015,"lon":5.38076,"is_reserved":false,"is_disabled":false,"rental_uris":{"android":"levelo://app?vid=ed181f85-e34e-4f11-b260-3960b4c826ad","ios":"levelo://app?vid=ed181f85-e34e-4f11-b260-3960b4c826ad"},"vehicle_type_id":"4","last_reported":1752232168,"current_range_meters":20400,"station_id":"ce4bgjp2rcd13ifvqbh0","pricing_plan_id":"cebpf4jnsgd1na2vs0mg"},{"bike_id":"2c660449-ac16-44e8-84fe-c2ea4f8155e6","system_id":"levelo_inurba_marseille","lat":43.251254,"lon":5.403144,"is_reserved":false,"is_disabled":false,"rental_uris":{"android":"levelo://app?vid=2c660449-ac16-44e8-84fe-c2ea4f8155e6","ios":"levelo://app?vid=2c660449-ac16-44e8-84fe-c2ea4f8155e6"},"vehicle_type_id":"4","last_reported":1752232168,"current_range_meters":20400,"station_id":"ce4bhlh2rcd13ifvqgig","pricing_plan_id":"cebpf4jnsgd1na2vs0mg"},{"bike_id":"e9b98eaa-3c1a-4228-ae78-34ced07d0353","system_id":"levelo_inurba_marseille","lat":43.28845,"lon":5.39314,"is_reserved":false,"is_disabled":false,"rental_uris":{"android":"levelo://app?vid=e9b98eaa-3c1a-4228-ae78-34ced07d0353","ios":"levelo://app?vid=e9b98eaa-3c1a-4228-ae78-34ced07d0353"},"vehicle_type_id":"4","last_reported":1752232168,"current_range_meters":20800,"station_id":"ce4bh2p2rcd13ifvqdi0","pricing_plan_id":"cebpf4jnsgd1na2vs0mg"},{"bike_id":"77c69929-90de-4a9b-88a5-bca83fe68c5e","system_id":"levelo_inurba_marseille","lat":43.28264,"lon":5.35059,"is_reserved":false,"is_disabled":false,"rental_uris":{"android":"levelo://app?vid=77c69929-90de-4a9b-88a5-bca83fe68c5e","ios":"levelo://app?vid=77c69929-90de-4a9b-88a5-bca83fe68c5e"},"vehicle_type_id":"4","last_reported":1752232168,"current_range_meters":20800,"station_id":"ce4bhbp2rcd13ifvqerg","pricing_plan_id":"cebpf4jnsgd1na2vs0mg"},{"bike_id":"51890362-46b0-4ee7-9f02-afbf036d064e","system_id":"levelo_inurba_marseille","lat":43.21197,"lon":5.35082,"is_reserved":false,"is_disabled":false,"rental_uris":{"android":"levelo://app?vid=51890362-46b0-4ee7-9f02-afbf036d064e","ios":"levelo://app?vid=51890362-46b0-4ee7-9f02-afbf036d064e"},"vehicle_type_id":"4","last_reported":1752232168,"current_range_meters":20800,"station_id":"st_cvj6sg6p6f1abm77japg","pricing_plan_id":"cebpf4jnsgd1na2vs0mg"},{"bike_id":"7616fb5c-5d8c-4a23-b93e-07f088c32e20","system_id":"levelo_inurba_marseille","lat":43.28416,"lon":5.34988,"is_reserved":false,"is_disabled":false,"rental_uris":{"android":"levelo://app?vid=7616fb5c-5d8c-4a23-b93e-07f088c32e20","ios":"levelo://app?vid=7616fb5c-5d8c-4a23-b93e-07f088c32e20"},"vehicle_type_id":"4","last_reported":1752232168,"current_range_meters":20800,"station_id":"ce4bhbh2rcd13ifvqepg","pricing_plan_id":"cebpf4jnsgd1na2vs0mg"},{"bike_id":"8f36ed24-46ce-476e-abea-128d934b1052","system_id":"levelo_inurba_marseille","lat":43.25913,"lon":5.40874,"is_reserved":false,"is_disabled":false,"rental_uris":{"android":"levelo://app?vid=8f36ed24-46ce-476e-abea-128d934b1052","ios":"levelo://app?vid=8f36ed24-46ce-476e-abea-128d934b1052"},"vehicle_type_id":"4","last_reported":1752232168,"current_range_meters":20800,"station_id":"ce4bhm92rcd13ifvqglg","pricing_plan_id":"cebpf4jnsgd1na2vs0mg"},{"bike_id":"85d2aee3-4fe4-4c9f-9f31-cc4fe835c04e","system_id":"levelo_inurba_marseille","lat":43.21193,"lon":5.35055,"is_reserved":false,"is_disabled":false,"rental_uris":{"android":"levelo://app?vid=85d2aee3-4fe4-4c9f-9f31-cc4fe835c04e","ios":"levelo://app?vid=85d2aee3-4fe4-4c9f-9f31-cc4fe835c04e"},"vehicle_type_id":"4","last_reported":1752232168,"current_range_meters":20800,"station_id":"st_cvj6sg6p6f1abm77japg","pricing_plan_id":"cebpf4jnsgd1na2vs0mg"},{"bike_id":"078fab8e-0d4a-4bfc-867e-c4adfc2ac53b","system_id":"levelo_inurba_marseille","lat":43.2721,"lon":5.391574,"is_reserved":false,"is_disabled":true,"rental_uris":{"android":"levelo://app?vid=078fab8e-0d4a-4bfc-867e-c4adfc2ac53b","ios":"levelo://app?vid=078fab8e-0d4a-4bfc-867e-c4adfc2ac53b"},"vehicle_type_id":"4","last_reported":1752232168,"current_range_meters":20800,"station_id":"ce4bhhp2rcd13ifvqfm0","pricing_plan_id":"cebpf4jnsgd1na2vs0mg"},{"bike_id":"585f9369-26e8-41cf-8c7c-b6fbbe183ab8","system_id":"levelo_inurba_marseille","lat":43.28406,"lon":5.3498,"is_reserved":false,"is_disabled":false,"rental_uris":{"android":"levelo://app?vid=585f9369-26e8-41cf-8c7c-b6fbbe183ab8","ios":"levelo://app?vid=585f9369-26e8-41cf-8c7c-b6fbbe183ab8"},"vehicle_type_id":"4","last_reported":1752232168,"current_range_meters":21600,"station_id":"ce4bhbh2rcd13ifvqepg","pricing_plan_id":"cebpf4jnsgd1na2vs0mg"},{"bike_id":"10eefd02-8707-48e3-9618-a9841669e995","system_id":"levelo_inurba_marseille","lat":43.27805,"lon":5.40722,"is_reserved":false,"is_disabled":false,"rental_uris":{"android":"levelo://app?vid=10eefd02-8707-48e3-9618-a9841669e995","ios":"levelo://app?vid=10eefd02-8707-48e3-9618-a9841669e995"},"vehicle_type_id":"4","last_reported":1752232168,"current_range_meters":21600,"station_id":"ce4bhnh2rcd13ifvqgtg","pricing_plan_id":"cebpf4jnsgd1na2vs0mg"},{"bike_id":"49205cac-ba69-4781-a704-8d132dbb2621","system_id":"levelo_inurba_marseille","lat":43.23194,"lon":5.35557,"is_reserved":false,"is_disabled":false,"rental_uris":{"android":"levelo://app?vid=49205cac-ba69-4781-a704-8d132dbb2621","ios":"levelo://app?vid=49205cac-ba69-4781-a704-8d132dbb2621"},"vehicle_type_id":"4","last_reported":1752232168,"current_range_meters":21600,"station_id":"ce4bhu92rcd13ifvqi70","pricing_plan_id":"cebpf4jnsgd1na2vs0mg"},{"bike_id":"61311c34-8ad3-46f2-97a6-24b285751e2f","system_id":"levelo_inurba_marseille","lat":43.32341,"lon":5.40619,"is_reserved":false,"is_disabled":false,"rental_uris":{"android":"levelo://app?vid=61311c34-8ad3-46f2-97a6-24b285751e2f","ios":"levelo://app?vid=61311c34-8ad3-46f2-97a6-24b285751e2f"},"vehicle_type_id":"4","last_reported":1752232168,"current_range_meters":21600,"station_id":"ce4bhq92rcd13ifvqhjg","pricing_plan_id":"cebpf4jnsgd1na2vs0mg"},{"bike_id":"1550d62c-ac23-4182-a92a-927896c39981","system_id":"levelo_inurba_marseille","lat":43.33046,"lon":5.3807,"is_reserved":false,"is_disabled":false,"rental_uris":{"android":"levelo://app?vid=1550d62c-ac23-4182-a92a-927896c39981","ios":"levelo://app?vid=1550d62c-ac23-4182-a92a-927896c39981"},"vehicle_type_id":"4","last_reported":1752232168,"current_range_meters":21600,"station_id":"","pricing_plan_id":"cebpf4jnsgd1na2vs0mg"},{"bike_id":"d802db08-ab94-4998-93bd-248897782258","system_id":"levelo_inurba_marseille","lat":43.27811,"lon":5.4071,"is_reserved":false,"is_disabled":false,"rental_uris":{"android":"levelo://app?vid=d802db08-ab94-4998-93bd-248897782258","ios":"levelo://app?vid=d802db08-ab94-4998-93bd-248897782258"},"vehicle_type_id":"4","last_reported":1752232168,"current_range_meters":21600,"station_id":"ce4bhnh2rcd13ifvqgtg","pricing_plan_id":"cebpf4jnsgd1na2vs0mg"},{"bike_id":"1c625470-46e6-487c-9607-e6c8b6203f5d","system_id":"levelo_inurba_marseille","lat":43.21189,"lon":5.35072,"is_reserved":false,"is_disabled":false,"rental_uris":{"android":"levelo://app?vid=1c625470-46e6-487c-9607-e6c8b6203f5d","ios":"levelo://app?vid=1c625470-46e6-487c-9607-e6c8b6203f5d"},"vehicle_type_id":"4","last_reported":1752232168,"current_range_meters":21600,"station_id":"st_cvj6sg6p6f1abm77japg","pricing_plan_id":"cebpf4jnsgd1na2vs0mg"},{"bike_id":"d799b321-3a7d-4201-b46e-ffe2ad124f19","system_id":"levelo_inurba_marseille","lat":43.328822,"lon":5.383908,"is_reserved":false,"is_disabled":false,"rental_uris":{"android":"levelo://app?vid=d799b321-3a7d-4201-b46e-ffe2ad124f19","ios":"levelo://app?vid=d799b321-3a7d-4201-b46e-ffe2ad124f19"},"vehicle_type_id":"4","last_reported":1752232168,"current_range_meters":21600,"station_id":"","pricing_plan_id":"cebpf4jnsgd1na2vs0mg"},{"bike_id":"34fc69af-7b92-4fea-aeaa-a85c9fc5dbb4","system_id":"levelo_inurba_marseille","lat":43.30601,"lon":5.37231,"is_reserved":false,"is_disabled":false,"rental_uris":{"android":"levelo://app?vid=34fc69af-7b92-4fea-aeaa-a85c9fc5dbb4","ios":"levelo://app?vid=34fc69af-7b92-4fea-aeaa-a85c9fc5dbb4"},"vehicle_type_id":"4","last_reported":1752232168,"current_range_meters":20800,"station_id":"ce4bgqh2rcd13ifvqc4g","pricing_plan_id":"cebpf4jnsgd1na2vs0mg"},{"bike_id":"e7628d59-1f53-4a3e-bac9-cc30ae8a4212","system_id":"levelo_inurba_marseille","lat":43.312019,"lon":5.368635,"is_reserved":false,"is_disabled":false,"rental_uris":{"android":"levelo://app?vid=e7628d59-1f53-4a3e-bac9-cc30ae8a4212","ios":"levelo://app?vid=e7628d59-1f53-4a3e-bac9-cc30ae8a4212"},"vehicle_type_id":"4","last_reported":1752232168,"current_range_meters":22000,"station_id":"ce4bgl92rcd13ifvqbq0","pricing_plan_id":"cebpf4jnsgd1na2vs0mg"},{"bike_id":"9c306d2c-4c4a-458b-8440-eb87e2f8e252","system_id":"levelo_inurba_marseille","lat":43.2984,"lon":5.36264,"is_reserved":false,"is_disabled":false,"rental_uris":{"android":"levelo://app?vid=9c306d2c-4c4a-458b-8440-eb87e2f8e252","ios":"levelo://app?vid=9c306d2c-4c4a-458b-8440-eb87e2f8e252"},"vehicle_type_id":"4","last_reported":1752232168,"current_range_meters":22000,"station_id":"ce4bgpp2rcd13ifvqc3g","pricing_plan_id":"cebpf4jnsgd1na2vs0mg"},{"bike_id":"00bb04d2-087b-4ba0-958b-5c83f2321f0a","system_id":"levelo_inurba_marseille","lat":43.29532,"lon":5.42297,"is_reserved":false,"is_disabled":false,"rental_uris":{"android":"levelo://app?vid=00bb04d2-087b-4ba0-958b-5c83f2321f0a","ios":"levelo://app?vid=00bb04d2-087b-4ba0-958b-5c83f2321f0a"},"vehicle_type_id":"4","last_reported":1752232168,"current_range_meters":22000,"station_id":"ce4bhph2rcd13ifvqhdg","pricing_plan_id":"cebpf4jnsgd1na2vs0mg"},{"bike_id":"028c8301-8e99-4f6b-983c-d8b1eaa0aa1d","system_id":"levelo_inurba_marseille","lat":43.30008,"lon":5.38602,"is_reserved":false,"is_disabled":false,"rental_uris":{"android":"levelo://app?vid=028c8301-8e99-4f6b-983c-d8b1eaa0aa1d","ios":"levelo://app?vid=028c8301-8e99-4f6b-983c-d8b1eaa0aa1d"},"vehicle_type_id":"4","last_reported":1752232168,"current_range_meters":22000,"station_id":"","pricing_plan_id":"cebpf4jnsgd1na2vs0mg"},{"bike_id":"dbd02065-4a82-42f3-891e-705afb15b634","system_id":"levelo_inurba_marseille","lat":43.292025,"lon":5.358181,"is_reserved":false,"is_disabled":false,"rental_uris":{"android":"levelo://app?vid=dbd02065-4a82-42f3-891e-705afb15b634","ios":"levelo://app?vid=dbd02065-4a82-42f3-891e-705afb15b634"},"vehicle_type_id":"4","last_reported":1752232168,"current_range_meters":21600,"station_id":"ce4bhb12rcd13ifvqel0","pricing_plan_id":"cebpf4jnsgd1na2vs0mg"},{"bike_id":"0b5568ad-5cb1-43dd-96ea-ac921d768809","system_id":"levelo_inurba_marseille","lat":43.30447,"lon":5.37919,"is_reserved":false,"is_disabled":false,"rental_uris":{"android":"levelo://app?vid=0b5568ad-5cb1-43dd-96ea-ac921d768809","ios":"levelo://app?vid=0b5568ad-5cb1-43dd-96ea-ac921d768809"},"vehicle_type_id":"4","last_reported":1752232168,"current_range_meters":22000,"station_id":"ce4bgup2rcd13ifvqcn0","pricing_plan_id":"cebpf4jnsgd1na2vs0mg"},{"bike_id":"8b37f03f-f226-4bbc-8648-b109da7ba145","system_id":"levelo_inurba_marseille","lat":43.30536,"lon":5.366999,"is_reserved":false,"is_disabled":false,"rental_uris":{"android":"levelo://app?vid=8b37f03f-f226-4bbc-8648-b109da7ba145","ios":"levelo://app?vid=8b37f03f-f226-4bbc-8648-b109da7ba145"},"vehicle_type_id":"4","last_reported":1752232168,"current_range_meters":22000,"station_id":"","pricing_plan_id":"cebpf4jnsgd1na2vs0mg"},{"bike_id":"9d0d85e3-ee19-452d-93c5-fbfc98a09acf","system_id":"levelo_inurba_marseille","lat":43.29506,"lon":5.43849,"is_reserved":false,"is_disabled":false,"rental_uris":{"android":"levelo://app?vid=9d0d85e3-ee19-452d-93c5-fbfc98a09acf","ios":"levelo://app?vid=9d0d85e3-ee19-452d-93c5-fbfc98a09acf"},"vehicle_type_id":"4","last_reported":1752232168,"current_range_meters":22000,"station_id":"","pricing_plan_id":"cebpf4jnsgd1na2vs0mg"},{"bike_id":"42abc01b-608e-4eb8-85e4-f45caa02d7fa","system_id":"levelo_inurba_marseille","lat":43.23147,"lon":5.43709,"is_reserved":false,"is_disabled":false,"rental_uris":{"android":"levelo://app?vid=42abc01b-608e-4eb8-85e4-f45caa02d7fa","ios":"levelo://app?vid=42abc01b-608e-4eb8-85e4-f45caa02d7fa"},"vehicle_type_id":"4","last_reported":1752232168,"current_range_meters":22000,"station_id":"ce4bhmp2rcd13ifvqgog","pricing_plan_id":"cebpf4jnsgd1na2vs0mg"},{"bike_id":"ec4a91b9-69d0-4b7a-98e0-89e1873eb426","system_id":"levelo_inurba_marseille","lat":43.29791,"lon":5.38104,"is_reserved":false,"is_disabled":false,"rental_uris":{"android":"levelo://app?vid=ec4a91b9-69d0-4b7a-98e0-89e1873eb426","ios":"levelo://app?vid=ec4a91b9-69d0-4b7a-98e0-89e1873eb426"},"vehicle_type_id":"4","last_reported":1752232168,"current_range_meters":22000,"station_id":"ce4bgip2rcd13ifvqbb0","pricing_plan_id":"cebpf4jnsgd1na2vs0mg"},{"bike_id":"a0137104-c9f4-434a-a5e3-80725cd5a2b4","system_id":"levelo_inurba_marseille","lat":43.2119,"lon":5.35126,"is_reserved":false,"is_disabled":false,"rental_uris":{"android":"levelo://app?vid=a0137104-c9f4-434a-a5e3-80725cd5a2b4","ios":"levelo://app?vid=a0137104-c9f4-434a-a5e3-80725cd5a2b4"},"vehicle_type_id":"4","last_reported":1752232168,"current_range_meters":22000,"station_id":"st_cvj6sg6p6f1abm77japg","pricing_plan_id":"cebpf4jnsgd1na2vs0mg"},{"bike_id":"d4178834-9e9c-462e-b201-c557ff82315f","system_id":"levelo_inurba_marseille","lat":43.321015,"lon":5.3677,"is_reserved":false,"is_disabled":false,"rental_uris":{"android":"levelo://app?vid=d4178834-9e9c-462e-b201-c557ff82315f","ios":"levelo://app?vid=d4178834-9e9c-462e-b201-c557ff82315f"},"vehicle_type_id":"4","last_reported":1752232168,"current_range_meters":22000,"station_id":"ce4bhrh2rcd13ifvqhug","pricing_plan_id":"cebpf4jnsgd1na2vs0mg"},{"bike_id":"f13872ab-8eaa-44e3-b5c1-b3018fdd74ad","system_id":"levelo_inurba_marseille","lat":43.32458,"lon":5.36586,"is_reserved":false,"is_disabled":false,"rental_uris":{"android":"levelo://app?vid=f13872ab-8eaa-44e3-b5c1-b3018fdd74ad","ios":"levelo://app?vid=f13872ab-8eaa-44e3-b5c1-b3018fdd74ad"},"vehicle_type_id":"4","last_reported":1752232168,"current_range_meters":22000,"station_id":"ce4bhs12rcd13ifvqhvg","pricing_plan_id":"cebpf4jnsgd1na2vs0mg"},{"bike_id":"c17fb869-45ba-474b-bd12-2184c7448248","system_id":"levelo_inurba_marseille","lat":43.22941,"lon":5.35364,"is_reserved":false,"is_disabled":false,"rental_uris":{"android":"levelo://app?vid=c17fb869-45ba-474b-bd12-2184c7448248","ios":"levelo://app?vid=c17fb869-45ba-474b-bd12-2184c7448248"},"vehicle_type_id":"4","last_reported":1752232168,"current_range_meters":22000,"station_id":"cpo3532slgdg3j2ikp40","pricing_plan_id":"cebpf4jnsgd1na2vs0mg"},{"bike_id":"72b39aad-c91e-4545-8fe5-aa395b7d62ba","system_id":"levelo_inurba_marseille","lat":43.31946,"lon":5.37611,"is_reserved":false,"is_disabled":false,"rental_uris":{"android":"levelo://app?vid=72b39aad-c91e-4545-8fe5-aa395b7d62ba","ios":"levelo://app?vid=72b39aad-c91e-4545-8fe5-aa395b7d62ba"},"vehicle_type_id":"4","last_reported":1752232168,"current_range_meters":22400,"station_id":"","pricing_plan_id":"cebpf4jnsgd1na2vs0mg"},{"bike_id":"64b5aef6-e300-41a9-a308-e78c5106a024","system_id":"levelo_inurba_marseille","lat":43.314453,"lon":5.380012,"is_reserved":false,"is_disabled":false,"rental_uris":{"android":"levelo://app?vid=64b5aef6-e300-41a9-a308-e78c5106a024","ios":"levelo://app?vid=64b5aef6-e300-41a9-a308-e78c5106a024"},"vehicle_type_id":"4","last_reported":1752232168,"current_range_meters":22400,"station_id":"ce4bhsp2rcd13ifvqi50","pricing_plan_id":"cebpf4jnsgd1na2vs0mg"},{"bike_id":"7ba51164-661b-4a54-8aec-3ad8b971f390","system_id":"levelo_inurba_marseille","lat":43.24996,"lon":5.38929,"is_reserved":false,"is_disabled":false,"rental_uris":{"android":"levelo://app?vid=7ba51164-661b-4a54-8aec-3ad8b971f390","ios":"levelo://app?vid=7ba51164-661b-4a54-8aec-3ad8b971f390"},"vehicle_type_id":"4","last_reported":1752232168,"current_range_meters":22400,"station_id":"ce4bhgp2rcd13ifvqfd0","pricing_plan_id":"cebpf4jnsgd1na2vs0mg"},{"bike_id":"ee5338dd-18a1-4b48-a5b0-f8c72f7b1319","system_id":"levelo_inurba_marseille","lat":43.31784,"lon":5.36843,"is_reserved":false,"is_disabled":false,"rental_uris":{"android":"levelo://app?vid=ee5338dd-18a1-4b48-a5b0-f8c72f7b1319","ios":"levelo://app?vid=ee5338dd-18a1-4b48-a5b0-f8c72f7b1319"},"vehicle_type_id":"4","last_reported":1752232168,"current_range_meters":22400,"station_id":"","pricing_plan_id":"cebpf4jnsgd1na2vs0mg"},