{"last_updated":1703228811,"ttl":30,"version":"2.2","data":{"bikes":[{"bike_id":"61ea5a5d-9237-4652-afe7-eef3dd69c4f1","system_id":"levelo_inurba_marseille","lat":43.31341,"lon":5.367098,"is_reserved":false,"is_disabled":false,"rental_uris":{"android":"levelo://app?vid=61ea5a5d-9237-4652-afe7-eef3dd69c4f1","ios":"levelo://app?vid=61ea5a5d-9237-4652-afe7-eef3dd69c4f1"},"vehicle_type_id":"4","last_reported":1703228811,"current_range_meters":26000,"station_id":"ce4bgr92rcd13ifvqc6g","pricing_plan_id":"free"},{"bike_id":"3942b8ef-f020-4ccd-9695-8cb185580f20","system_id":"levelo_inurba_marseille","lat":43.313391,"lon":5.36706,"is_reserved":false,"is_disabled":false,"rental_uris":{"android":"levelo://app?vid=3942b8ef-f020-4ccd-9695-8cb185580f20","ios":"levelo://app?vid=3942b8ef-f020-4ccd-9695-8cb185580f20"},"vehicle_type_id":"4","last_reported":1703228811,"current_range_meters":20800,"station_id":"ce4bgr92rcd13ifvqc6g","pricing_plan_id":"free"},{"bike_id":"50c1e13c-6a42-417a-b613-00b4f7a4584e","system_id":"levelo_inurba_marseille","lat":43.312239,"lon":5.368562,"is_reserved":false,"is_disabled":false,"rental_uris":{"android":"levelo://app?vid=50c1e13c-6a42-417a-b613-00b4f7a4584e","ios":"levelo://app?vid=50c1e13c-6a42-417a-b613-00b4f7a4584e"},"vehicle_type_id":"4","last_reported":1703228811,"current_range_meters":30400,"station_id":"ce4bgl92rcd13ifvqbq0","pricing_plan_id":"free"},{"bike_id":"23f2b5e9-59ff-4d88-9575-9d0c699455fa","system_id":"levelo_inurba_marseille","lat":43.309076,"lon":5.368465,"is_reserved":false,"is_disabled":false,"rental_uris":{"android":"levelo://app?vid=23f2b5e9-59ff-4d88-9575-9d0c699455fa","ios":"levelo://app?vid=23f2b5e9-59ff-4d88-9575-9d0c699455fa"},"vehicle_type_id":"4","last_reported":1703228811,"current_range_meters":24000,"station_id":"ce4bgn92rcd13ifvqbvg","pricing_plan_id":"free"},{"bike_id":"44621cb8-1aac-4f52-b3f0-e845b04c92d8","system_id":"levelo_inurba_marseille","lat":43.314811,"lon":5.373103,"is_reserved":false,"is_disabled":false,"rental_uris":{"android":"levelo://app?vid=44621cb8-1aac-4f52-b3f0-e845b04c92d8","ios":"levelo://app?vid=44621cb8-1aac-4f52-b3f0-e845b04c92d8"},"vehicle_type_id":"4","last_reported":1703228811,"current_range_meters":28000,"station_id":"ce4bgt12rcd13ifvqcd0","pricing_plan_id":"free"},{"bike_id":"caeb5248-baf7-4660-8432-237527e01b7a","system_id":"levelo_inurba_marseille","lat":43.314811,"lon":5.373103,"is_reserved":false,"is_disabled":false,"rental_uris":{"android":"levelo://app?vid=caeb5248-baf7-4660-8432-237527e01b7a","ios":"levelo://app?vid=caeb5248-baf7-4660-8432-237527e01b7a"},"vehicle_type_id":"4","last_reported":1703228811,"current_range_meters":23600,"station_id":"ce4bgt12rcd13ifvqcd0","pricing_plan_id":"free"},{"bike_id":"cddc333e-e0c2-4b8f-8826-5c3b135c0290","system_id":"levelo_inurba_marseille","lat":43.309039,"lon":5.371797,"is_reserved":false,"is_disabled":false,"rental_uris":{"android":"levelo://app?vid=cddc333e-e0c2-4b8f-8826-5c3b135c0290","ios":"levelo://app?vid=cddc333e-e0c2-4b8f-8826-5c3b135c0290"},"vehicle_type_id":"4","last_reported":1703228811,"current_range_meters":30400,"station_id":"ce4bguh2rcd13ifvqckg","pricing_plan_id":"free"},{"bike_id":"2e372dd9-500e-4fa7-8acc-e965d580678f","system_id":"levelo_inurba_marseille","lat":43.309039,"lon":5.371797,"is_reserved":false,"is_disabled":false,"rental_uris":{"android":"levelo://app?vid=2e372dd9-500e-4fa7-8acc-e965d580678f","ios":"levelo://app?vid=2e372dd9-500e-4fa7-8acc-e965d580678f"},"vehicle_type_id":"4","last_reported":1703228811,"current_range_meters":28400,"station_id":"ce4bguh2rcd13ifvqckg","pricing_plan_id":"free"},{"bike_id":"8a89dd87-ffaf-4180-ae33-2f1f54600b3c","system_id":"levelo_inurba_marseille","lat":43.305368,"lon":5.367343,"is_reserved":false,"is_disabled":false,"rental_uris":{"android":"levelo://app?vid=8a89dd87-ffaf-4180-ae33-2f1f54600b3c","ios":"levelo://app?vid=8a89dd87-ffaf-4180-ae33-2f1f54600b3c"},"vehicle_type_id":"4","last_reported":1703228811,"current_range_meters":25600,"station_id":"ce4bgrp2rcd13ifvqc9g","pricing_plan_id":"free"},{"bike_id":"e152f5bf-ceb4-4e4e-9118-045b413bd363","system_id":"levelo_inurba_marseille","lat":43.305368,"lon":5.367343,"is_reserved":false,"is_disabled":false,"rental_uris":{"android":"levelo://app?vid=e152f5bf-ceb4-4e4e-9118-045b413bd363","ios":"levelo://app?vid=e152f5bf-ceb4-4e4e-9118-045b413bd363"},"vehicle_type_id":"4","last_reported":1703228811,"current_range_meters":12000,"station_id":"ce4bgrp2rcd13ifvqc9g","pricing_plan_id":"free"},{"bike_id":"df59f819-6f00-45da-b9ed-b14ffcfdb59f","system_id":"levelo_inurba_marseille","lat":43.30789,"lon":5.376485,"is_reserved":false,"is_disabled":false,"rental_uris":{"android":"levelo://app?vid=df59f819-6f00-45da-b9ed-b14ffcfdb59f","ios":"levelo://app?vid=df59f819-6f00-45da-b9ed-b14ffcfdb59f"},"vehicle_type_id":"4","last_reported":1703228811,"current_range_meters":18400,"station_id":"ce4bgv92rcd13ifvqcq0","pricing_plan_id":"free"},{"bike_id":"d735b789-2c72-4755-af41-1a8298915b83","system_id":"levelo_inurba_marseille","lat":43.307945,"lon":5.376487,"is_reserved":false,"is_disabled":false,"rental_uris":{"android":"levelo://app?vid=d735b789-2c72-4755-af41-1a8298915b83","ios":"levelo://app?vid=d735b789-2c72-4755-af41-1a8298915b83"},"vehicle_type_id":"4","last_reported":1703228811,"current_range_meters":30400,"station_id":"ce4bgv92rcd13ifvqcq0","pricing_plan_id":"free"},{"bike_id":"5096e4c6-f9a0-45fa-8669-4e275df70f30","system_id":"levelo_inurba_marseille","lat":43.307945,"lon":5.376487,"is_reserved":false,"is_disabled":false,"rental_uris":{"android":"levelo://app?vid=5096e4c6-f9a0-45fa-8669-4e275df70f30","ios":"levelo://app?vid=5096e4c6-f9a0-45fa-8669-4e275df70f30"},"vehicle_type_id":"4","last_reported":1703228811,"current_range_meters":31200,"station_id":"ce4bgv92rcd13ifvqcq0","pricing_plan_id":"free"},{"bike_id":"e6eaf46b-40b4-41de-86a0-71ebf7c3108a","system_id":"levelo_inurba_marseille","lat":43.303046,"lon":5.368981,"is_reserved":false,"is_disabled":false,"rental_uris":{"android":"levelo://app?vid=e6eaf46b-40b4-41de-86a0-71ebf7c3108a","ios":"levelo://app?vid=e6eaf46b-40b4-41de-86a0-71ebf7c3108a"},"vehicle_type_id":"4","last_reported":1703228811,"current_range_meters":8800,"station_id":"ce4bgqh2rcd13ifvqc5g","pricing_plan_id":"free"},{"bike_id":"17fea177-b46a-478d-a025-b8fd09096e16","system_id":"levelo_inurba_marseille","lat":43.30304,"lon":5.368987,"is_reserved":false,"is_disabled":false,"rental_uris":{"android":"levelo://app?vid=17fea177-b46a-478d-a025-b8fd09096e16","ios":"levelo://app?vid=17fea177-b46a-478d-a025-b8fd09096e16"},"vehicle_type_id":"4","last_reported":1703228811,"current_range_meters":4000,"station_id":"ce4bgqh2rcd13ifvqc5g","pricing_plan_id":"free"},{"bike_id":"cf47fc48-45c6-4a32-b83f-14b7673b9faf","system_id":"levelo_inurba_marseille","lat":43.301939,"lon":5.366286,"is_reserved":false,"is_disabled":false,"rental_uris":{"android":"levelo://app?vid=cf47fc48-45c6-4a32-b83f-14b7673b9faf","ios":"levelo://app?vid=cf47fc48-45c6-4a32-b83f-14b7673b9faf"},"vehicle_type_id":"4","last_reported":1703228811,"current_range_meters":18000,"station_id":"ce4bgrh2rcd13ifvqc8g","pricing_plan_id":"free"},{"bike_id":"26e4b55d-4243-4287-9e88-fbeda384b486","system_id":"levelo_inurba_marseille","lat":43.310893,"lon":5.381911,"is_reserved":false,"is_disabled":false,"rental_uris":{"android":"levelo://app?vid=26e4b55d-4243-4287-9e88-fbeda384b486","ios":"levelo://app?vid=26e4b55d-4243-4287-9e88-fbeda384b486"},"vehicle_type_id":"4","last_reported":1703228811,"current_range_meters":10800,"station_id":"","pricing_plan_id":"free"},{"bike_id":"93a187a2-e76f-43e3-a7c9-e9600da9e92f","system_id":"levelo_inurba_marseille","lat":43.304606,"lon":5.379026,"is_reserved":false,"is_disabled":false,"rental_uris":{"android":"levelo://app?vid=93a187a2-e76f-43e3-a7c9-e9600da9e92f","ios":"levelo://app?vid=93a187a2-e76f-43e3-a7c9-e9600da9e92f"},"vehicle_type_id":"4","last_reported":1703228811,"current_range_meters":400,"station_id":"ce4bgup2rcd13ifvqcn0","pricing_plan_id":"free"},{"bike_id":"b626d074-7348-48d8-857a-fe1ff040597e","system_id":"levelo_inurba_marseille","lat":43.304606,"lon":5.379026,"is_reserved":false,"is_disabled":false,"rental_uris":{"android":"levelo://app?vid=b626d074-7348-48d8-857a-fe1ff040597e","ios":"levelo://app?vid=b626d074-7348-48d8-857a-fe1ff040597e"},"vehicle_type_id":"4","last_reported":1703228811,"current_range_meters":8800,"station_id":"ce4bgup2rcd13ifvqcn0","pricing_plan_id":"free"},{"bike_id":"2b6f03bd-6644-4a23-a4d3-02a8cec96079","system_id":"levelo_inurba_marseille","lat":43.304606,"lon":5.379026,"is_reserved":false,"is_disabled":false,"rental_uris":{"android":"levelo://app?vid=2b6f03bd-6644-4a23-a4d3-02a8cec96079","ios":"levelo://app?vid=2b6f03bd-6644-4a23-a4d3-02a8cec96079"},"vehicle_type_id":"4","last_reported":1703228811,"current_range_meters":6000,"station_id":"ce4bgup2rcd13ifvqcn0","pricing_plan_id":"free"},{"bike_id":"1b28b270-f043-47c6-9336-01cf2352d471","system_id":"levelo_inurba_marseille","lat":43.304606,"lon":5.379026,"is_reserved":false,"is_disabled":false,"rental_uris":{"android":"levelo://app?vid=1b28b270-f043-47c6-9336-01cf2352d471","ios":"levelo://app?vid=1b28b270-f043-47c6-9336-01cf2352d471"},"vehicle_type_id":"4","last_reported":1703228811,"current_range_meters":27200,"station_id":"ce4bgup2rcd13ifvqcn0","pricing_plan_id":"free"},{"bike_id":"2b3f90a9-eb5d-4ff1-a69d-c4366b720f6f","system_id":"levelo_inurba_marseille","lat":43.304606,"lon":5.379026,"is_reserved":false,"is_disabled":false,"rental_uris":{"android":"levelo://app?vid=2b3f90a9-eb5d-4ff1-a69d-c4366b720f6f","ios":"levelo://app?vid=2b3f90a9-eb5d-4ff1-a69d-c4366b720f6f"},"vehicle_type_id":"4","last_reported":1703228811,"current_range_meters":27200,"station_id":"ce4bgup2rcd13ifvqcn0","pricing_plan_id":"free"},{"bike_id":"862318fe-d0c6-4667-9467-12580c91ab50","system_id":"levelo_inurba_marseille","lat":43.304606,"lon":5.379026,"is_reserved":false,"is_disabled":false,"rental_uris":{"android":"levelo://app?vid=862318fe-d0c6-4667-9467-12580c91ab50","ios":"levelo://app?vid=862318fe-d0c6-4667-9467-12580c91ab50"},"vehicle_type_id":"4","last_reported":1703228811,"current_range_meters":24400,"station_id":"ce4bgup2rcd13ifvqcn0","pricing_plan_id":"free"},{"bike_id":"10d4d093-740f-44d3-b829-37f0f5d43be0","system_id":"levelo_inurba_marseille","lat":43.304606,"lon":5.379026,"is_reserved":false,"is_disabled":false,"rental_uris":{"android":"levelo://app?vid=10d4d093-740f-44d3-b829-37f0f5d43be0","ios":"levelo://app?vid=10d4d093-740f-44d3-b829-37f0f5d43be0"},"vehicle_type_id":"4","last_reported":1703228811,"current_range_meters":23200,"station_id":"ce4bgup2rcd13ifvqcn0","pricing_plan_id":"free"},{"bike_id":"63dca49e-e7c5-4060-abde-fcd040fc8a8a","system_id":"levelo_inurba_marseille","lat":43.304606,"lon":5.379026,"is_reserved":false,"is_disabled":false,"rental_uris":{"android":"levelo://app?vid=63dca49e-e7c5-4060-abde-fcd040fc8a8a","ios":"levelo://app?vid=63dca49e-e7c5-4060-abde-fcd040fc8a8a"},"vehicle_type_id":"4","last_reported":1703228811,"current_range_meters":30000,"station_id":"ce4bgup2rcd13ifvqcn0","pricing_plan_id":"free"},{"bike_id":"406cc0eb-2e12-42bf-a01b-24ac205660ff","system_id":"levelo_inurba_marseille","lat":43.304606,"lon":5.379026,"is_reserved":false,"is_disabled":false,"rental_uris":{"android":"levelo://app?vid=406cc0eb-2e12-42bf-a01b-24ac205660ff","ios":"levelo://app?vid=406cc0eb-2e12-42bf-a01b-24ac205660ff"},"vehicle_type_id":"4","last_reported":1703228811,"current_range_meters":22400,"station_id":"ce4bgup2rcd13ifvqcn0","pricing_plan_id":"free"},{"bike_id":"ea63f5ff-ed2a-4a1c-a64b-fef4232b63de","system_id":"levelo_inurba_marseille","lat":43.324771,"lon":5.36557,"is_reserved":false,"is_disabled":false,"rental_uris":{"android":"levelo://app?vid=ea63f5ff-ed2a-4a1c-a64b-fef4232b63de","ios":"levelo://app?vid=ea63f5ff-ed2a-4a1c-a64b-fef4232b63de"},"vehicle_type_id":"4","last_reported":1703228811,"current_range_meters":31200,"station_id":"ce4bhs12rcd13ifvqhvg","pricing_plan_id":"free"},{"bike_id":"f7a73b3c-8ebe-495b-9eef-6e6905a55b1a","system_id":"levelo_inurba_marseille","lat":43.301429,"lon":5.37413,"is_reserved":false,"is_disabled":false,"rental_uris":{"android":"levelo://app?vid=f7a73b3c-8ebe-495b-9eef-6e6905a55b1a","ios":"levelo://app?vid=f7a73b3c-8ebe-495b-9eef-6e6905a55b1a"},"vehicle_type_id":"4","last_reported":1703228811,"current_range_meters":27200,"station_id":"ce4bgs92rcd13ifvqcc0","pricing_plan_id":"free"},{"bike_id":"51360f23-00df-4b8c-b369-faeb35be788d","system_id":"levelo_inurba_marseille","lat":43.3199,"lon":5.38147,"is_reserved":false,"is_disabled":false,"rental_uris":{"android":"levelo://app?vid=51360f23-00df-4b8c-b369-faeb35be788d","ios":"levelo://app?vid=51360f23-00df-4b8c-b369-faeb35be788d"},"vehicle_type_id":"4","last_reported":1703228811,"current_range_meters":28000,"station_id":"ce4bhr12rcd13ifvqhpg","pricing_plan_id":"free"},{"bike_id":"0effb7f6-23e5-4f02-a1eb-80bdf14a191a","system_id":"levelo_inurba_marseille","lat":43.31998,"lon":5.38153,"is_reserved":false,"is_disabled":false,"rental_uris":{"android":"levelo://app?vid=0effb7f6-23e5-4f02-a1eb-80bdf14a191a","ios":"levelo://app?vid=0effb7f6-23e5-4f02-a1eb-80bdf14a191a"},"vehicle_type_id":"4","last_reported":1703228811,"current_range_meters":30000,"station_id":"ce4bhr12rcd13ifvqhpg","pricing_plan_id":"free"},{"bike_id":"dc0f6af5-c02c-4610-baea-e5c6ca16f530","system_id":"levelo_inurba_marseille","lat":43.32,"lon":5.38154,"is_reserved":false,"is_disabled":false,"rental_uris":{"android":"levelo://app?vid=dc0f6af5-c02c-4610-baea-e5c6ca16f530","ios":"levelo://app?vid=dc0f6af5-c02c-4610-baea-e5c6ca16f530"},"vehicle_type_id":"4","last_reported":1703228811,"current_range_meters":30000,"station_id":"ce4bhr12rcd13ifvqhpg","pricing_plan_id":"free"},{"bike_id":"af0ab532-e26f-41d4-b9ce-17ae08ae4cee","system_id":"levelo_inurba_marseille","lat":43.320005,"lon":5.381601,"is_reserved":false,"is_disabled":false,"rental_uris":{"android":"levelo://app?vid=af0ab532-e26f-41d4-b9ce-17ae08ae4cee","ios":"levelo://app?vid=af0ab532-e26f-41d4-b9ce-17ae08ae4cee"},"vehicle_type_id":"4","last_reported":1703228811,"current_range_meters":7600,"station_id":"ce4bhr12rcd13ifvqhpg","pricing_plan_id":"free"},{"bike_id":"c5cae810-39cc-4218-86e0-83a8342df03b","system_id":"levelo_inurba_marseille","lat":43.325796,"lon":5.366228,"is_reserved":false,"is_disabled":false,"rental_uris":{"android":"levelo://app?vid=c5cae810-39cc-4218-86e0-83a8342df03b","ios":"levelo://app?vid=c5cae810-39cc-4218-86e0-83a8342df03b"},"vehicle_type_id":"4","last_reported":1703228811,"current_range_meters":10800,"station_id":"","pricing_plan_id":"free"},{"bike_id":"a8d6ede0-595d-4479-a925-005f87258f9e","system_id":"levelo_inurba_marseille","lat":43.29938,"lon":5.36551,"is_reserved":false,"is_disabled":false,"rental_uris":{"android":"levelo://app?vid=a8d6ede0-595d-4479-a925-005f87258f9e","ios":"levelo://app?vid=a8d6ede0-595d-4479-a925-005f87258f9e"},"vehicle_type_id":"4","last_reported":1703228811,"current_range_meters":16400,"station_id":"ce4bgm92rcd13ifvqbr0","pricing_plan_id":"free"},{"bike_id":"72235deb-f77c-4a44-b837-edca33e2ef1d","system_id":"levelo_inurba_marseille","lat":43.305364,"lon":5.384119,"is_reserved":false,"is_disabled":false,"rental_uris":{"android":"levelo://app?vid=72235deb-f77c-4a44-b837-edca33e2ef1d","ios":"levelo://app?vid=72235deb-f77c-4a44-b837-edca33e2ef1d"},"vehicle_type_id":"4","last_reported":1703228811,"current_range_meters":6000,"station_id":"ce4bgg92rcd13ifvqb30","pricing_plan_id":"free"},{"bike_id":"ccf9d183-ee8e-4db6-a020-086b1c1badcc","system_id":"levelo_inurba_marseille","lat":43.299243,"lon":5.37481,"is_reserved":false,"is_disabled":false,"rental_uris":{"android":"levelo://app?vid=ccf9d183-ee8e-4db6-a020-086b1c1badcc","ios":"levelo://app?vid=ccf9d183-ee8e-4db6-a020-086b1c1badcc"},"vehicle_type_id":"4","last_reported":1703228811,"current_range_meters":23200,"station_id":"ce4bgjh2rcd13ifvqbg0","pricing_plan_id":"free"},{"bike_id":"b54e9533-a613-4c6a-9ae0-58240de46bfd","system_id":"levelo_inurba_marseille","lat":43.299243,"lon":5.374807,"is_reserved":false,"is_disabled":false,"rental_uris":{"android":"levelo://app?vid=b54e9533-a613-4c6a-9ae0-58240de46bfd","ios":"levelo://app?vid=b54e9533-a613-4c6a-9ae0-58240de46bfd"},"vehicle_type_id":"4","last_reported":1703228811,"current_range_meters":31200,"station_id":"ce4bgjh2rcd13ifvqbg0","pricing_plan_id":"free"},{"bike_id":"7a506112-0d06-4661-96c5-7498b4f17d3d","system_id":"levelo_inurba_marseille","lat":43.311722,"lon":5.387247,"is_reserved":false,"is_disabled":false,"rental_uris":{"android":"levelo://app?vid=7a506112-0d06-4661-96c5-7498b4f17d3d","ios":"levelo://app?vid=7a506112-0d06-4661-96c5-7498b4f17d3d"},"vehicle_type_id":"4","last_reported":1703228811,"current_range_meters":28000,"station_id":"ce4bgv12rcd13ifvqcp0","pricing_plan_id":"free"},{"bike_id":"76f32eff-77ff-43ae-a091-dc6f022bbd1d","system_id":"levelo_inurba_marseille","lat":43.311722,"lon":5.387247,"is_reserved":false,"is_disabled":false,"rental_uris":{"android":"levelo://app?vid=76f32eff-77ff-43ae-a091-dc6f022bbd1d","ios":"levelo://app?vid=76f32eff-77ff-43ae-a091-dc6f022bbd1d"},"vehicle_type_id":"4","last_reported":1703228811,"current_range_meters":28000,"station_id":"ce4bgv12rcd13ifvqcp0","pricing_plan_id":"free"},{"bike_id":"f508f070-016e-40b2-a648-7943914095e0","system_id":"levelo_inurba_marseille","lat":43.311722,"lon":5.387247,"is_reserved":false,"is_disabled":false,"rental_uris":{"android":"levelo://app?vid=f508f070-016e-40b2-a648-7943914095e0","ios":"levelo://app?vid=f508f070-016e-40b2-a648-7943914095e0"},"vehicle_type_id":"4","last_reported":1703228811,"current_range_meters":14400,"station_id":"ce4bgv12rcd13ifvqcp0","pricing_plan_id":"free"},{"bike_id":"c22e90bd-bd4d-41c1-bbe6-08c0fb107a4e","system_id":"levelo_inurba_marseille","lat":43.311722,"lon":5.387247,"is_reserved":false,"is_disabled":false,"rental_uris":{"android":"levelo://app?vid=c22e90bd-bd4d-41c1-bbe6-08c0fb107a4e","ios":"levelo://app?vid=c22e90bd-bd4d-41c1-bbe6-08c0fb107a4e"},"vehicle_type_id":"4","last_reported":1703228811,"current_range_meters":31200,"station_id":"ce4bgv12rcd13ifvqcp0","pricing_plan_id":"free"},{"bike_id":"aa26c708-c384-40e3-b40c-f93f26be9d99","system_id":"levelo_inurba_marseille","lat":43.311695,"lon":5.387154,"is_reserved":false,"is_disabled":false,"rental_uris":{"android":"levelo://app?vid=aa26c708-c384-40e3-b40c-f93f26be9d99","ios":"levelo://app?vid=aa26c708-c384-40e3-b40c-f93f26be9d99"},"vehicle_type_id":"4","last_reported":1703228811,"current_range_meters":22800,"station_id":"ce4bgv12rcd13ifvqcp0","pricing_plan_id":"free"},{"bike_id":"251fb61a-5899-4439-9cb9-e7a898709b7a","system_id":"levelo_inurba_marseille","lat":43.297794,"lon":5.370888,"is_reserved":false,"is_disabled":false,"rental_uris":{"android":"levelo://app?vid=251fb61a-5899-4439-9cb9-e7a898709b7a","ios":"levelo://app?vid=251fb61a-5899-4439-9cb9-e7a898709b7a"},"vehicle_type_id":"4","last_reported":1703228811,"current_range_meters":30800,"station_id":"ce4bgop2rcd13ifvqc1g","pricing_plan_id":"free"},{"bike_id":"b58c4005-ed15-40ec-b249-38d0c39e7d3b","system_id":"levelo_inurba_marseille","lat":43.322872,"lon":5.382756,"is_reserved":false,"is_disabled":false,"rental_uris":{"android":"levelo://app?vid=b58c4005-ed15-40ec-b249-38d0c39e7d3b","ios":"levelo://app?vid=b58c4005-ed15-40ec-b249-38d0c39e7d3b"},"vehicle_type_id":"4","last_reported":1703228811,"current_range_meters":16800,"station_id":"ce4bhr12rcd13ifvqhqg","pricing_plan_id":"free"},{"bike_id":"2d0ccb8c-a8f7-4ee9-8463-316526ef0ad5","system_id":"levelo_inurba_marseille","lat":43.322872,"lon":5.382756,"is_reserved":false,"is_disabled":false,"rental_uris":{"android":"levelo://app?vid=2d0ccb8c-a8f7-4ee9-8463-316526ef0ad5","ios":"levelo://app?vid=2d0ccb8c-a8f7-4ee9-8463-316526ef0ad5"},"vehicle_type_id":"4","last_reported":1703228811,"current_range_meters":32000,"station_id":"ce4bhr12rcd13ifvqhqg","pricing_plan_id":"free"},{"bike_id":"2e3d3b77-c397-4299-b623-ce7c8c6e517b","system_id":"levelo_inurba_marseille","lat":43.297774,"lon":5.370875,"is_reserved":false,"is_disabled":false,"rental_uris":{"android":"levelo://app?vid=2e3d3b77-c397-4299-b623-ce7c8c6e517b","ios":"levelo://app?vid=2e3d3b77-c397-4299-b623-ce7c8c6e517b"},"vehicle_type_id":"4","last_reported":1703228811,"current_range_meters":11200,"station_id":"ce4bgop2rcd13ifvqc1g","pricing_plan_id":"free"},{"bike_id":"0e18aacc-a0a4-43f4-b14e-a9e7be78440e","system_id":"levelo_inurba_marseille","lat":43.328371,"lon":5.366909,"is_reserved":false,"is_disabled":false,"rental_uris":{"android":"levelo://app?vid=0e18aacc-a0a4-43f4-b14e-a9e7be78440e","ios":"levelo://app?vid=0e18aacc-a0a4-43f4-b14e-a9e7be78440e"},"vehicle_type_id":"4","last_reported":1703228811,"current_range_meters":30000,"station_id":"ce4bhs92rcd13ifvqi0g","pricing_plan_id":"free"},{"bike_id":"e299beb3-acc1-46fa-9fec-22d2fe5e6b13","system_id":"levelo_inurba_marseille","lat":43.328371,"lon":5.366909,"is_reserved":false,"is_disabled":false,"rental_uris":{"android":"levelo://app?vid=e299beb3-acc1-46fa-9fec-22d2fe5e6b13","ios":"levelo://app?vid=e299beb3-acc1-46fa-9fec-22d2fe5e6b13"},"vehicle_type_id":"4","last_reported":1703228811,"current_range_meters":19200,"station_id":"ce4bhs92rcd13ifvqi0g","pricing_plan_id":"free"},{"bike_id":"8bf0395d-c27d-407d-bf00-1fe14b7d1f01","system_id":"levelo_inurba_marseille","lat":43.328371,"lon":5.366909,"is_reserved":false,"is_disabled":false,"rental_uris":{"android":"levelo://app?vid=8bf0395d-c27d-407d-bf00-1fe14b7d1f01","ios":"levelo://app?vid=8bf0395d-c27d-407d-bf00-1fe14b7d1f01"},"vehicle_type_id":"4","last_reported":1703228811,"current_range_meters":6400,"station_id":"ce4bhs92rcd13ifvqi0g","pricing_plan_id":"free"},{"bike_id":"fd993600-015b-4a57-8e11-1499ff8a6b71","system_id":"levelo_inurba_marseille","lat":43.328371,"lon":5.366909,"is_reserved":false,"is_disabled":false,"rental_uris":{"android":"levelo://app?vid=fd993600-015b-4a57-8e11-1499ff8a6b71","ios":"levelo://app?vid=fd993600-015b-4a57-8e11-1499ff8a6b71"},"vehicle_type_id":"4","last_reported":1703228811,"current_range_meters":18000,"station_id":"ce4bhs92rcd13ifvqi0g","pricing_plan_id":"free"},{"bike_id":"525f6ec1-c089-48ad-8216-d8e073aa768d","system_id":"levelo_inurba_marseille","lat":43.328371,"lon":5.366909,"is_reserved":false,"is_disabled":false,"rental_uris":{"android":"levelo://app?vid=525f6ec1-c089-48ad-8216-d8e073aa768d","ios":"levelo://app?vid=525f6ec1-c089-48ad-8216-d8e073aa768d"},"vehicle_type_id":"4","last_reported":1703228811,"current_range_meters":8800,"station_id":"ce4bhs92rcd13ifvqi0g","pricing_plan_id":"free"},{"bike_id":"cf156061-8a07-4939-9f84-6cb0ace3544d","system_id":"levelo_inurba_marseille","lat":43.297163,"lon":5.365866,"is_reserved":false,"is_disabled":false,"rental_uris":{"android":"levelo://app?vid=cf156061-8a07-4939-9f84-6cb0ace3544d","ios":"levelo://app?vid=cf156061-8a07-4939-9f84-6cb0ace3544d"},"vehicle_type_id":"4","last_reported":1703228811,"current_range_meters":24000,"station_id":"ce4bgn12rcd13ifvqbt0","pricing_plan_id":"free"},{"bike_id":"e59074bb-49fe-49a4-9b5c-50c0e3847ad9","system_id":"levelo_inurba_marseille","lat":43.29573,"lon":5.367355,"is_reserved":false,"is_disabled":false,"rental_uris":{"android":"levelo://app?vid=e59074bb-49fe-49a4-9b5c-50c0e3847ad9","ios":"levelo://app?vid=e59074bb-49fe-49a4-9b5c-50c0e3847ad9"},"vehicle_type_id":"4","last_reported":1703228811,"current_range_meters":31600,"station_id":"ce4bgph2rcd13ifvqc2g","pricing_plan_id":"free"},{"bike_id":"4e5514ff-d45f-4a43-8ba5-f0a7341c5f71","system_id":"levelo_inurba_marseille","lat":43.29573,"lon":5.367355,"is_reserved":false,"is_disabled":false,"rental_uris":{"android":"levelo://app?vid=4e5514ff-d45f-4a43-8ba5-f0a7341c5f71","ios":"levelo://app?vid=4e5514ff-d45f-4a43-8ba5-f0a7341c5f71"},"vehicle_type_id":"4","last_reported":1703228811,"current_range_meters":27200,"station_id":"ce4bgph2rcd13ifvqc2g","pricing_plan_id":"free"},{"bike_id":"f6827ac0-daff-4eed-b9d1-7abe916060f6","system_id":"levelo_inurba_marseille","lat":43.299028,"lon":5.381509,"is_reserved":false,"is_disabled":false,"rental_uris":{"android":"levelo://app?vid=f6827ac0-daff-4eed-b9d1-7abe916060f6","ios":"levelo://app?vid=f6827ac0-daff-4eed-b9d1-7abe916060f6"},"vehicle_type_id":"4","last_reported":1703228811,"current_range_meters":9600,"station_id":"ce4bgj12rcd13ifvqbc0","pricing_plan_id":"free"},{"bike_id":"bb7653ba-7e97-4c93-8977-792a7e03bafa","system_id":"levelo_inurba_marseille","lat":43.309589,"lon":5.390258,"is_reserved":false,"is_disabled":false,"rental_uris":{"android":"levelo://app?vid=bb7653ba-7e97-4c93-8977-792a7e03bafa","ios":"levelo://app?vid=bb7653ba-7e97-4c93-8977-792a7e03bafa"},"vehicle_type_id":"4","last_reported":1703228811,"current_range_meters":26800,"station_id":"ce4bgup2rcd13ifvqco0","pricing_plan_id":"free"},{"bike_id":"3f625c5e-4f77-4f30-a12f-b65ed4ed1f63","system_id":"levelo_inurba_marseille","lat":43.309589,"lon":5.390258,"is_reserved":false,"is_disabled":false,"rental_uris":{"android":"levelo://app?vid=3f625c5e-4f77-4f30-a12f-b65ed4ed1f63","ios":"levelo://app?vid=3f625c5e-4f77-4f30-a12f-b65ed4ed1f63"},"vehicle_type_id":"4","last_reported":1703228811,"current_range_meters":19600,"station_id":"ce4bgup2rcd13ifvqco0","pricing_plan_id":"free"},{"bike_id":"834b9782-39e8-4602-8b8d-ea95026281ec","system_id":"levelo_inurba_marseille","lat":43.31753,"lon":5.39015,"is_reserved":false,"is_disabled":false,"rental_uris":{"android":"levelo://app?vid=834b9782-39e8-4602-8b8d-ea95026281ec","ios":"levelo://app?vid=834b9782-39e8-4602-8b8d-ea95026281ec"},"vehicle_type_id":"4","last_reported":1703228811,"current_range_meters":1200,"station_id":"ce4bhqp2rcd13ifvqhng","pricing_plan_id":"free"},{"bike_id":"53d02047-2fc2-4d30-88b2-583fd58923ab","system_id":"levelo_inurba_marseille","lat":43.317557,"lon":5.390173,"is_reserved":false,"is_disabled":false,"rental_uris":{"android":"levelo://app?vid=53d02047-2fc2-4d30-88b2-583fd58923ab","ios":"levelo://app?vid=53d02047-2fc2-4d30-88b2-583fd58923ab"},"vehicle_type_id":"4","last_reported":1703228811,"current_range_meters":30800,"station_id":"ce4bhqp2rcd13ifvqhng","pricing_plan_id":"free"},{"bike_id":"0028bdec-740f-4dc4-9f90-b52d77a3212c","system_id":"levelo_inurba_marseille","lat":43.317557,"lon":5.390173,"is_reserved":false,"is_disabled":false,"rental_uris":{"android":"levelo://app?vid=0028bdec-740f-4dc4-9f90-b52d77a3212c","ios":"levelo://app?vid=0028bdec-740f-4dc4-9f90-b52d77a3212c"},"vehicle_type_id":"4","last_reported":1703228811,"current_range_meters":12000,"station_id":"ce4bhqp2rcd13ifvqhng","pricing_plan_id":"free"},{"bike_id":"7fdcdfeb-5524-460a-b213-163c34dbe5e3","system_id":"levelo_inurba_marseille","lat":43.298037,"lon":5.381066,"is_reserved":false,"is_disabled":false,"rental_uris":{"android":"levelo://app?vid=7fdcdfeb-5524-460a-b213-163c34dbe5e3","ios":"levelo://app?vid=7fdcdfeb-5524-460a-b213-163c34dbe5e3"},"vehicle_type_id":"4","last_reported":1703228811,"current_range_meters":29600,"station_id":"ce4bgip2rcd13ifvqbb0","pricing_plan_id":"free"},{"bike_id":"a347e9d8-e7e6-4d0c-b417-c54e9f22b023","system_id":"levelo_inurba_marseille","lat":43.298037,"lon":5.381066,"is_reserved":false,"is_disabled":false,"rental_uris":{"android":"levelo://app?vid=a347e9d8-e7e6-4d0c-b417-c54e9f22b023","ios":"levelo://app?vid=a347e9d8-e7e6-4d0c-b417-c54e9f22b023"},"vehicle_type_id":"4","last_reported":1703228811,"current_range_meters":23600,"station_id":"ce4bgip2rcd13ifvqbb0","pricing_plan_id":"free"},{"bike_id":"ac5383fb-e364-4424-803d-10ad3347f27e","system_id":"levelo_inurba_marseille","lat":43.295748,"lon":5.37522,"is_reserved":false,"is_disabled":false,"rental_uris":{"android":"levelo://app?vid=ac5383fb-e364-4424-803d-10ad3347f27e","ios":"levelo://app?vid=ac5383fb-e364-4424-803d-10ad3347f27e"},"vehicle_type_id":"4","last_reported":1703228811,"current_range_meters":25600,"station_id":"ce4bgh92rcd13ifvqb50","pricing_plan_id":"free"},{"bike_id":"aa6de150-83be-4da8-bef7-e7621d2c6e66","system_id":"levelo_inurba_marseille","lat":43.298037,"lon":5.381066,"is_reserved":false,"is_disabled":false,"rental_uris":{"android":"levelo://app?vid=aa6de150-83be-4da8-bef7-e7621d2c6e66","ios":"levelo://app?vid=aa6de150-83be-4da8-bef7-e7621d2c6e66"},"vehicle_type_id":"4","last_reported":1703228811,"current_range_meters":17200,"station_id":"ce4bgip2rcd13ifvqbb0","pricing_plan_id":"free"},{"bike_id":"e59306fe-ba6f-4f3d-9c81-46279bfbe202","system_id":"levelo_inurba_marseille","lat":43.298037,"lon":5.381066,"is_reserved":false,"is_disabled":false,"rental_uris":{"android":"levelo://app?vid=e59306fe-ba6f-4f3d-9c81-46279bfbe202","ios":"levelo://app?vid=e59306fe-ba6f-4f3d-9c81-46279bfbe202"},"vehicle_type_id":"4","last_reported":1703228811,"current_range_meters":6000,"station_id":"ce4bgip2rcd13ifvqbb0","pricing_plan_id":"free"},{"bike_id":"c71404a1-004e-43ef-9f53-381f7aeb98c0","system_id":"levelo_inurba_marseille","lat":43.298037,"lon":5.381066,"is_reserved":false,"is_disabled":false,"rental_uris":{"android":"levelo://app?vid=c71404a1-004e-43ef-9f53-381f7aeb98c0","ios":"levelo://app?vid=c71404a1-004e-43ef-9f53-381f7aeb98c0"},"vehicle_type_id":"4","last_reported":1703228811,"current_range_meters":27600,"station_id":"ce4bgip2rcd13ifvqbb0","pricing_plan_id":"free"},{"bike_id":"a64e91c7-36f9-499d-913e-564164c7cea0","system_id":"levelo_inurba_marseille","lat":43.296277,"lon":5.377108,"is_reserved":false,"is_disabled":false,"rental_uris":{"android":"levelo://app?vid=a64e91c7-36f9-499d-913e-564164c7cea0","ios":"levelo://app?vid=a64e91c7-36f9-499d-913e-564164c7cea0"},"vehicle_type_id":"4","last_reported":1703228811,"current_range_meters":30000,"station_id":"ce4bgi92rcd13ifvqb90","pricing_plan_id":"free"},{"bike_id":"1a9d6639-9f41-4b90-a58a-4a17af0abffe","system_id":"levelo_inurba_marseille","lat":43.29608,"lon":5.37714,"is_reserved":false,"is_disabled":false,"rental_uris":{"android":"levelo://app?vid=1a9d6639-9f41-4b90-a58a-4a17af0abffe","ios":"levelo://app?vid=1a9d6639-9f41-4b90-a58a-4a17af0abffe"},"vehicle_type_id":"4","last_reported":1703228811,"current_range_meters":6400,"station_id":"ce4bgi92rcd13ifvqb90","pricing_plan_id":"free"},{"bike_id":"1378810b-812d-44e5-847a-1b7aeb90e4c4","system_id":"levelo_inurba_marseille","lat":43.299,"lon":5.38357,"is_reserved":false,"is_disabled":false,"rental_uris":{"android":"levelo://app?vid=1378810b-812d-44e5-847a-1b7aeb90e4c4","ios":"levelo://app?vid=1378810b-812d-44e5-847a-1b7aeb90e4c4"},"vehicle_type_id":"4","last_reported":1703228811,"current_range_meters":8000,"station_id":"","pricing_plan_id":"free"},{"bike_id":"7919eadd-c520-4cda-9196-5dc5695e55f6","system_id":"levelo_inurba_marseille","lat":43.298404,"lon":5.382779,"is_reserved":false,"is_disabled":false,"rental_uris":{"android":"levelo://app?vid=7919eadd-c520-4cda-9196-5dc5695e55f6","ios":"levelo://app?vid=7919eadd-c520-4cda-9196-5dc5695e55f6"},"vehicle_type_id":"4","last_reported":1703228811,"current_range_meters":6800,"station_id":"","pricing_plan_id":"free"},{"bike_id":"a7d77ead-acdb-47d8-8e78-4cbe5399eead","system_id":"levelo_inurba_marseille","lat":43.295279,"lon":5.375048,"is_reserved":false,"is_disabled":false,"rental_uris":{"android":"levelo://app?vid=a7d77ead-acdb-47d8-8e78-4cbe5399eead","ios":"levelo://app?vid=a7d77ead-acdb-47d8-8e78-4cbe5399eead"},"vehicle_type_id":"4","last_reported":1703228811,"current_range_meters":11200,"station_id":"ce4bgkp2rcd13ifvqbmg","pricing_plan_id":"free"},{"bike_id":"4ec7f9ee-3059-4281-9f08-dc41f2a9f5d0","system_id":"levelo_inurba_marseille","lat":43.323618,"lon":5.38883,"is_reserved":false,"is_disabled":false,"rental_uris":{"android":"levelo://app?vid=4ec7f9ee-3059-4281-9f08-dc41f2a9f5d0","ios":"levelo://app?vid=4ec7f9ee-3059-4281-9f08-dc41f2a9f5d0"},"vehicle_type_id":"4","last_reported":1703228811,"current_range_meters":7200,"station_id":"ce4bhqp2rcd13ifvqhog","pricing_plan_id":"free"},{"bike_id":"6bc005d8-6c9e-4ae1-b98d-409c3cb65d81","system_id":"levelo_inurba_marseille","lat":43.32367,"lon":5.388836,"is_reserved":false,"is_disabled":false,"rental_uris":{"android":"levelo://app?vid=6bc005d8-6c9e-4ae1-b98d-409c3cb65d81","ios":"levelo://app?vid=6bc005d8-6c9e-4ae1-b98d-409c3cb65d81"},"vehicle_type_id":"4","last_reported":1703228811,"current_range_meters":13200,"station_id":"ce4bhqp2rcd13ifvqhog","pricing_plan_id":"free"},{"bike_id":"7825f2e2-5dc0-48bf-9610-bf0be308ff43","system_id":"levelo_inurba_marseille","lat":43.323655,"lon":5.38889,"is_reserved":false,"is_disabled":false,"rental_uris":{"android":"levelo://app?vid=7825f2e2-5dc0-48bf-9610-bf0be308ff43","ios":"levelo://app?vid=7825f2e2-5dc0-48bf-9610-bf0be308ff43"},"vehicle_type_id":"4","last_reported":1703228811,"current_range_meters":0,"station_id":"ce4bhqp2rcd13ifvqhog","pricing_plan_id":"free"},{"bike_id":"cfc9f336-43a9-4bbe-8bec-bbe998e94f74","system_id":"levelo_inurba_marseille","lat":43.29602,"lon":5.381084,"is_reserved":false,"is_disabled":false,"rental_uris":{"android":"levelo://app?vid=cfc9f336-43a9-4bbe-8bec-bbe998e94f74","ios":"levelo://app?vid=cfc9f336-43a9-4bbe-8bec-bbe998e94f74"},"vehicle_type_id":"4","last_reported":1703228811,"current_range_meters":13600,"station_id":"ce4bgl12rcd13ifvqbo0","pricing_plan_id":"free"},{"bike_id":"d29c19db-732d-44f3-9f64-cb8299fc3542","system_id":"levelo_inurba_marseille","lat":43.29601,"lon":5.381084,"is_reserved":false,"is_disabled":false,"rental_uris":{"android":"levelo://app?vid=d29c19db-732d-44f3-9f64-cb8299fc3542","ios":"levelo://app?vid=d29c19db-732d-44f3-9f64-cb8299fc3542"},"vehicle_type_id":"4","last_reported":1703228811,"current_range_meters":23200,"station_id":"ce4bgl12rcd13ifvqbo0","pricing_plan_id":"free"},{"bike_id":"77d20b26-1732-4fe1-9730-6f0ec5f2797e","system_id":"levelo_inurba_marseille","lat":43.29602,"lon":5.381084,"is_reserved":false,"is_disabled":false,"rental_uris":{"android":"levelo://app?vid=77d20b26-1732-4fe1-9730-6f0ec5f2797e","ios":"levelo://app?vid=77d20b26-1732-4fe1-9730-6f0ec5f2797e"},"vehicle_type_id":"4","last_reported":1703228811,"current_range_meters":24800,"station_id":"ce4bgl12rcd13ifvqbo0","pricing_plan_id":"free"},{"bike_id":"685d68ea-ccf0-44c8-ac1a-f3b2f631ec74","system_id":"levelo_inurba_marseille","lat":43.29602,"lon":5.381084,"is_reserved":false,"is_disabled":false,"rental_uris":{"android":"levelo://app?vid=685d68ea-ccf0-44c8-ac1a-f3b2f631ec74","ios":"levelo://app?vid=685d68ea-ccf0-44c8-ac1a-f3b2f631ec74"},"vehicle_type_id":"4","last_reported":1703228811,"current_range_meters":31200,"station_id":"ce4bgl12rcd13ifvqbo0","pricing_plan_id":"free"},{"bike_id":"43325e32-9ed5-4c1e-ae00-71f7b44be0db","system_id":"levelo_inurba_marseille","lat":43.292749,"lon":5.368402,"is_reserved":false,"is_disabled":false,"rental_uris":{"android":"levelo://app?vid=43325e32-9ed5-4c1e-ae00-71f7b44be0db","ios":"levelo://app?vid=43325e32-9ed5-4c1e-ae00-71f7b44be0db"},"vehicle_type_id":"4","last_reported":1703228811,"current_range_meters":8000,"station_id":"ce4bhbp2rcd13ifvqesg","pricing_plan_id":"free"},{"bike_id":"0e8f9f40-ea05-4492-8c32-3f4ff64e8dc6","system_id":"levelo_inurba_marseille","lat":43.305994,"lon":5.393687,"is_reserved":false,"is_disabled":false,"rental_uris":{"android":"levelo://app?vid=0e8f9f40-ea05-4492-8c32-3f4ff64e8dc6","ios":"levelo://app?vid=0e8f9f40-ea05-4492-8c32-3f4ff64e8dc6"},"vehicle_type_id":"4","last_reported":1703228811,"current_range_meters":27600,"station_id":"ce4bh0p2rcd13ifvqd80","pricing_plan_id":"free"},{"bike_id":"a7ea7fef-2f98-4cec-820e-7b2344918da6","system_id":"levelo_inurba_marseille","lat":43.305994,"lon":5.393687,"is_reserved":false,"is_disabled":false,"rental_uris":{"android":"levelo://app?vid=a7ea7fef-2f98-4cec-820e-7b2344918da6","ios":"levelo://app?vid=a7ea7fef-2f98-4cec-820e-7b2344918da6"},"vehicle_type_id":"4","last_reported":1703228811,"current_range_meters":14400,"station_id":"ce4bh0p2rcd13ifvqd80","pricing_plan_id":"free"},{"bike_id":"3c7ce536-f867-41b2-aa57-79a8e539ed70","system_id":"levelo_inurba_marseille","lat":43.305994,"lon":5.393687,"is_reserved":false,"is_disabled":false,"rental_uris":{"android":"levelo://app?vid=3c7ce536-f867-41b2-aa57-79a8e539ed70","ios":"levelo://app?vid=3c7ce536-f867-41b2-aa57-79a8e539ed70"},"vehicle_type_id":"4","last_reported":1703228811,"current_range_meters":21600,"station_id":"ce4bh0p2rcd13ifvqd80","pricing_plan_id":"free"},{"bike_id":"7e834012-b862-44d4-8394-3d1ee953b374","system_id":"levelo_inurba_marseille","lat":43.30597,"lon":5.39355,"is_reserved":false,"is_disabled":false,"rental_uris":{"android":"levelo://app?vid=7e834012-b862-44d4-8394-3d1ee953b374","ios":"levelo://app?vid=7e834012-b862-44d4-8394-3d1ee953b374"},"vehicle_type_id":"4","last_reported":1703228811,"current_range_meters":30400,"station_id":"ce4bh0p2rcd13ifvqd80","pricing_plan_id":"free"},{"bike_id":"892f6653-bba9-4110-8cf1-a620789c4921","system_id":"levelo_inurba_marseille","lat":43.305953,"lon":5.393547,"is_reserved":false,"is_disabled":false,"rental_uris":{"android":"levelo://app?vid=892f6653-bba9-4110-8cf1-a620789c4921","ios":"levelo://app?vid=892f6653-bba9-4110-8cf1-a620789c4921"},"vehicle_type_id":"4","last_reported":1703228811,"current_range_meters":12000,"station_id":"ce4bh0p2rcd13ifvqd80","pricing_plan_id":"free"},{"bike_id":"73bc4254-091e-4208-bb7a-e7e78d066eaf","system_id":"levelo_inurba_marseille","lat":43.30598,"lon":5.39358,"is_reserved":false,"is_disabled":false,"rental_uris":{"android":"levelo://app?vid=73bc4254-091e-4208-bb7a-e7e78d066eaf","ios":"levelo://app?vid=73bc4254-091e-4208-bb7a-e7e78d066eaf"},"vehicle_type_id":"4","last_reported":1703228811,"current_range_meters":28000,"station_id":"ce4bh0p2rcd13ifvqd80","pricing_plan_id":"free"},{"bike_id":"d73ecf94-bb87-4ea5-820b-05a2eec430df","system_id":"levelo_inurba_marseille","lat":43.305994,"lon":5.393687,"is_reserved":false,"is_disabled":false,"rental_uris":{"android":"levelo://app?vid=d73ecf94-bb87-4ea5-820b-05a2eec430df","ios":"levelo://app?vid=d73ecf94-bb87-4ea5-820b-05a2eec430df"},"vehicle_type_id":"4","last_reported":1703228811,"current_range_meters":24000,"station_id":"ce4bh0p2rcd13ifvqd80","pricing_plan_id":"free"},{"bike_id":"1c8a11d6-fe82-4a6b-b49f-f94791007e26","system_id":"levelo_inurba_marseille","lat":43.30594,"lon":5.39359,"is_reserved":false,"is_disabled":false,"rental_uris":{"android":"levelo://app?vid=1c8a11d6-fe82-4a6b-b49f-f94791007e26","ios":"levelo://app?vid=1c8a11d6-fe82-4a6b-b49f-f94791007e26"},"vehicle_type_id":"4","last_reported":1703228811,"current_range_meters":6800,"station_id":"ce4bh0p2rcd13ifvqd80","pricing_plan_id":"free"},{"bike_id":"3a7d8a1a-a433-43a8-b770-3122aaa5e24e","system_id":"levelo_inurba_marseille","lat":43.30594,"lon":5.39359,"is_reserved":false,"is_disabled":false,"rental_uris":{"android":"levelo://app?vid=3a7d8a1a-a433-43a8-b770-3122aaa5e24e","ios":"levelo://app?vid=3a7d8a1a-a433-43a8-b770-3122aaa5e24e"},"vehicle_type_id":"4","last_reported":1703228811,"current_range_meters":22000,"station_id":"ce4bh0p2rcd13ifvqd80","pricing_plan_id":"free"},{"bike_id":"383f9b2c-8f05-405f-947e-65b83f864811","system_id":"levelo_inurba_marseille","lat":43.305994,"lon":5.393687,"is_reserved":false,"is_disabled":false,"rental_uris":{"android":"levelo://app?vid=383f9b2c-8f05-405f-947e-65b83f864811","ios":"levelo://app?vid=383f9b2c-8f05-405f-947e-65b83f864811"},"vehicle_type_id":"4","last_reported":1703228811,"current_range_meters":28800,"station_id":"ce4bh0p2rcd13ifvqd80","pricing_plan_id":"free"},{"bike_id":"efb45052-36d3-44e6-9fc2-e78b07ef73ae","system_id":"levelo_inurba_marseille","lat":43.292311,"lon":5.360731,"is_reserved":false,"is_disabled":false,"rental_uris":{"android":"levelo://app?vid=efb45052-36d3-44e6-9fc2-e78b07ef73ae","ios":"levelo://app?vid=efb45052-36d3-44e6-9fc2-e78b07ef73ae"},"vehicle_type_id":"4","last_reported":1703228811,"current_range_meters":26000,"station_id":"ce4bhbh2rcd13ifvqeqg","pricing_plan_id":"free"},{"bike_id":"8a89cdb0-0f8b-4df1-a721-5d28b925e577","system_id":"levelo_inurba_marseille","lat":43.292311,"lon":5.360731,"is_reserved":false,"is_disabled":false,"rental_uris":{"android":"levelo://app?vid=8a89cdb0-0f8b-4df1-a721-5d28b925e577","ios":"levelo://app?vid=8a89cdb0-0f8b-4df1-a721-5d28b925e577"},"vehicle_type_id":"4","last_reported":1703228811,"current_range_meters":2000,"station_id":"ce4bhbh2rcd13ifvqeqg","pricing_plan_id":"free"},{"bike_id":"195fbedb-95f3-4ef0-aaa7-a4dd9ad582d0","system_id":"levelo_inurba_marseille","lat":43.291675,"lon":5.371583,"is_reserved":false,"is_disabled":false,"rental_uris":{"android":"levelo://app?vid=195fbedb-95f3-4ef0-aaa7-a4dd9ad582d0","ios":"levelo://app?vid=195fbedb-95f3-4ef0-aaa7-a4dd9ad582d0"},"vehicle_type_id":"4","last_reported":1703228811,"current_range_meters":12000,"station_id":"ce4bha92rcd13ifvqeh0","pricing_plan_id":"free"},{"bike_id":"963bd940-4f92-4375-bb27-90d8f74a2346","system_id":"levelo_inurba_marseille","lat":43.291994,"lon":5.357886,"is_reserved":false,"is_disabled":false,"rental_uris":{"android":"levelo://app?vid=963bd940-4f92-4375-bb27-90d8f74a2346","ios":"levelo://app?vid=963bd940-4f92-4375-bb27-90d8f74a2346"},"vehicle_type_id":"4","last_reported":1703228811,"current_range_meters":30000,"station_id":"ce4bhb12rcd13ifvqel0","pricing_plan_id":"free"},{"bike_id":"429d051d-e7af-4a1d-81db-ac4f095bf4cd","system_id":"levelo_inurba_marseille","lat":43.309038,"lon":5.396546,"is_reserved":false,"is_disabled":false,"rental_uris":{"android":"levelo://app?vid=429d051d-e7af-4a1d-81db-ac4f095bf4cd","ios":"levelo://app?vid=429d051d-e7af-4a1d-81db-ac4f095bf4cd"},"vehicle_type_id":"4","last_reported":1703228811,"current_range_meters":7200,"station_id":"ce4bh012rcd13ifvqcv0","pricing_plan_id":"free"},{"bike_id":"16349042-18f1-4e7d-97f4-7178285831ac","system_id":"levelo_inurba_marseille","lat":43.309038,"lon":5.396546,"is_reserved":false,"is_disabled":false,"rental_uris":{"android":"levelo://app?vid=16349042-18f1-4e7d-97f4-7178285831ac","ios":"levelo://app?vid=16349042-18f1-4e7d-97f4-7178285831ac"},"vehicle_type_id":"4","last_reported":1703228811,"current_range_meters":28800,"station_id":"ce4bh012rcd13ifvqcv0","pricing_plan_id":"free"},{"bike_id":"9d58efe2-96e6-4766-9ebc-c407ffa9d805","system_id":"levelo_inurba_marseille","lat":43.309038,"lon":5.396546,"is_reserved":false,"is_disabled":false,"rental_uris":{"android":"levelo://app?vid=9d58efe2-96e6-4766-9ebc-c407ffa9d805","ios":"levelo://app?vid=9d58efe2-96e6-4766-9ebc-c407ffa9d805"},"vehicle_type_id":"4","last_reported":1703228811,"current_range_meters":16800,"station_id":"ce4bh012rcd13ifvqcv0","pricing_plan_id":"free"},{"bike_id":"2b006d69-4f76-4ed4-abec-b77aa64c31cb","system_id":"levelo_inurba_marseille","lat":43.309047,"lon":5.396551,"is_reserved":false,"is_disabled":false,"rental_uris":{"android":"levelo://app?vid=2b006d69-4f76-4ed4-abec-b77aa64c31cb","ios":"levelo://app?vid=2b006d69-4f76-4ed4-abec-b77aa64c31cb"},"vehicle_type_id":"4","last_reported":1703228811,"current_range_meters":30400,"station_id":"ce4bh012rcd13ifvqcv0","pricing_plan_id":"free"},{"bike_id":"7600b465-ae55-430f-a74a-3301103ebfcf","system_id":"levelo_inurba_marseille","lat":43.313291,"lon":5.396838,"is_reserved":false,"is_disabled":false,"rental_uris":{"android":"levelo://app?vid=7600b465-ae55-430f-a74a-3301103ebfcf","ios":"levelo://app?vid=7600b465-ae55-430f-a74a-3301103ebfcf"},"vehicle_type_id":"4","last_reported":1703228811,"current_range_meters":31600,"station_id":"ce4bgvp2rcd13ifvqcu0","pricing_plan_id":"free"},{"bike_id":"569df881-44aa-4fb0-bd43-e2c14ad0998e","system_id":"levelo_inurba_marseille","lat":43.309038,"lon":5.396546,"is_reserved":false,"is_disabled":false,"rental_uris":{"android":"levelo://app?vid=569df881-44aa-4fb0-bd43-e2c14ad0998e","ios":"levelo://app?vid=569df881-44aa-4fb0-bd43-e2c14ad0998e"},"vehicle_type_id":"4","last_reported":1703228811,"current_range_meters":31600,"station_id":"ce4bh012rcd13ifvqcv0","pricing_plan_id":"free"},{"bike_id":"98d32d63-4e61-4cb1-8956-26130116eb84","system_id":"levelo_inurba_marseille","lat":43.313291,"lon":5.396838,"is_reserved":false,"is_disabled":false,"rental_uris":{"android":"levelo://app?vid=98d32d63-4e61-4cb1-8956-26130116eb84","ios":"levelo://app?vid=98d32d63-4e61-4cb1-8956-26130116eb84"},"vehicle_type_id":"4","last_reported":1703228811,"current_range_meters":6000,"station_id":"ce4bgvp2rcd13ifvqcu0","pricing_plan_id":"free"},{"bike_id":"e15180be-0f1e-4dc8-acdb-8d6edc541f43","system_id":"levelo_inurba_marseille","lat":43.313291,"lon":5.396838,"is_reserved":false,"is_disabled":false,"rental_uris":{"android":"levelo://app?vid=e15180be-0f1e-4dc8-acdb-8d6edc541f43","ios":"levelo://app?vid=e15180be-0f1e-4dc8-acdb-8d6edc541f43"},"vehicle_type_id":"4","last_reported":1703228811,"current_range_meters":16800,"station_id":"ce4bgvp2rcd13ifvqcu0","pricing_plan_id":"free"},{"bike_id":"95a3e35a-3104-4144-8d27-87d5a86d65e6","system_id":"levelo_inurba_marseille","lat":43.313291,"lon":5.396838,"is_reserved":false,"is_disabled":false,"rental_uris":{"android":"levelo://app?vid=95a3e35a-3104-4144-8d27-87d5a86d65e6","ios":"levelo://app?vid=95a3e35a-3104-4144-8d27-87d5a86d65e6"},"vehicle_type_id":"4","last_reported":1703228811,"current_range_meters":21200,"station_id":"ce4bgvp2rcd13ifvqcu0","pricing_plan_id":"free"},{"bike_id":"45f99cda-befa-42ee-a2ee-ea05b8e79130","system_id":"levelo_inurba_marseille","lat":43.313291,"lon":5.396838,"is_reserved":false,"is_disabled":false,"rental_uris":{"android":"levelo://app?vid=45f99cda-befa-42ee-a2ee-ea05b8e79130","ios":"levelo://app?vid=45f99cda-befa-42ee-a2ee-ea05b8e79130"},"vehicle_type_id":"4","last_reported":1703228811,"current_range_meters":31600,"station_id":"ce4bgvp2rcd13ifvqcu0","pricing_plan_id":"free"},{"bike_id":"fb3b3692-fce6-46df-ac41-48660e92b343","system_id":"levelo_inurba_marseille","lat":43.29529,"lon":5.385581,"is_reserved":false,"is_disabled":false,"rental_uris":{"android":"levelo://app?vid=fb3b3692-fce6-46df-ac41-48660e92b343","ios":"levelo://app?vid=fb3b3692-fce6-46df-ac41-48660e92b343"},"vehicle_type_id":"4","last_reported":1703228811,"current_range_meters":21200,"station_id":"ce4bgih2rcd13ifvqba0","pricing_plan_id":"free"},{"bike_id":"7ced20c2-b99c-49f5-a62b-4ab37bc0794d","system_id":"levelo_inurba_marseille","lat":43.289184,"lon":5.366408,"is_reserved":false,"is_disabled":false,"rental_uris":{"android":"levelo://app?vid=7ced20c2-b99c-49f5-a62b-4ab37bc0794d","ios":"levelo://app?vid=7ced20c2-b99c-49f5-a62b-4ab37bc0794d"},"vehicle_type_id":"4","last_reported":1703228811,"current_range_meters":15200,"station_id":"ce4bhap2rcd13ifvqek0","pricing_plan_id":"free"},{"bike_id":"4eb6241e-88e5-488c-ba1c-023dd51f6370","system_id":"levelo_inurba_marseille","lat":43.28856,"lon":5.358371,"is_reserved":false,"is_disabled":false,"rental_uris":{"android":"levelo://app?vid=4eb6241e-88e5-488c-ba1c-023dd51f6370","ios":"levelo://app?vid=4eb6241e-88e5-488c-ba1c-023dd51f6370"},"vehicle_type_id":"4","last_reported":1703228811,"current_range_meters":18800,"station_id":"ce4bhb12rcd13ifvqem0","pricing_plan_id":"free"},{"bike_id":"a7498a80-75e6-4538-be61-98c5a1d1b69f","system_id":"levelo_inurba_marseille","lat":43.304253,"lon":5.397527,"is_reserved":false,"is_disabled":false,"rental_uris":{"android":"levelo://app?vid=a7498a80-75e6-4538-be61-98c5a1d1b69f","ios":"levelo://app?vid=a7498a80-75e6-4538-be61-98c5a1d1b69f"},"vehicle_type_id":"4","last_reported":1703228811,"current_range_meters":2000,"station_id":"ce4bh092rcd13ifvqd20","pricing_plan_id":"free"},{"bike_id":"172aa6bc-4bb0-4030-9da2-5dc735cbc145","system_id":"levelo_inurba_marseille","lat":43.304296,"lon":5.397513,"is_reserved":false,"is_disabled":false,"rental_uris":{"android":"levelo://app?vid=172aa6bc-4bb0-4030-9da2-5dc735cbc145","ios":"levelo://app?vid=172aa6bc-4bb0-4030-9da2-5dc735cbc145"},"vehicle_type_id":"4","last_reported":1703228811,"current_range_meters":30000,"station_id":"ce4bh092rcd13ifvqd20","pricing_plan_id":"free"},{"bike_id":"4eb255d5-3dcd-4eaf-b86c-a5f726c59d86","system_id":"levelo_inurba_marseille","lat":43.304274,"lon":5.397513,"is_reserved":false,"is_disabled":false,"rental_uris":{"android":"levelo://app?vid=4eb255d5-3dcd-4eaf-b86c-a5f726c59d86","ios":"levelo://app?vid=4eb255d5-3dcd-4eaf-b86c-a5f726c59d86"},"vehicle_type_id":"4","last_reported":1703228811,"current_range_meters":29200,"station_id":"ce4bh092rcd13ifvqd20","pricing_plan_id":"free"},{"bike_id":"fe04619a-837f-4215-99fb-c7797369a2b1","system_id":"levelo_inurba_marseille","lat":43.330442,"lon":5.389148,"is_reserved":false,"is_disabled":false,"rental_uris":{"android":"levelo://app?vid=fe04619a-837f-4215-99fb-c7797369a2b1","ios":"levelo://app?vid=fe04619a-837f-4215-99fb-c7797369a2b1"},"vehicle_type_id":"4","last_reported":1703228811,"current_range_meters":18400,"station_id":"ce4bhr92rcd13ifvqhrg","pricing_plan_id":"free"},{"bike_id":"c1200e08-6f60-4fd4-b9d9-35b90a467a28","system_id":"levelo_inurba_marseille","lat":43.33043,"lon":5.38919,"is_reserved":false,"is_disabled":false,"rental_uris":{"android":"levelo://app?vid=c1200e08-6f60-4fd4-b9d9-35b90a467a28","ios":"levelo://app?vid=c1200e08-6f60-4fd4-b9d9-35b90a467a28"},"vehicle_type_id":"4","last_reported":1703228811,"current_range_meters":6400,"station_id":"ce4bhr92rcd13ifvqhrg","pricing_plan_id":"free"},{"bike_id":"88ad1c52-d5fe-4a94-8086-04778998d0e9","system_id":"levelo_inurba_marseille","lat":43.290104,"lon":5.356111,"is_reserved":false,"is_disabled":false,"rental_uris":{"android":"levelo://app?vid=88ad1c52-d5fe-4a94-8086-04778998d0e9","ios":"levelo://app?vid=88ad1c52-d5fe-4a94-8086-04778998d0e9"},"vehicle_type_id":"4","last_reported":1703228811,"current_range_meters":27200,"station_id":"ce4bhb92rcd13ifvqen0","pricing_plan_id":"free"},{"bike_id":"3a0e29f9-1377-4906-85be-cadf3e9324b4","system_id":"levelo_inurba_marseille","lat":43.290103,"lon":5.356114,"is_reserved":false,"is_disabled":false,"rental_uris":{"android":"levelo://app?vid=3a0e29f9-1377-4906-85be-cadf3e9324b4","ios":"levelo://app?vid=3a0e29f9-1377-4906-85be-cadf3e9324b4"},"vehicle_type_id":"4","last_reported":1703228811,"current_range_meters":29600,"station_id":"ce4bhb92rcd13ifvqen0","pricing_plan_id":"free"},{"bike_id":"97e0b46c-655a-4544-9f9c-b2ce547f1322","system_id":"levelo_inurba_marseille","lat":43.289743,"lon":5.378304,"is_reserved":false,"is_disabled":false,"rental_uris":{"android":"levelo://app?vid=97e0b46c-655a-4544-9f9c-b2ce547f1322","ios":"levelo://app?vid=97e0b46c-655a-4544-9f9c-b2ce547f1322"},"vehicle_type_id":"4","last_reported":1703228811,"current_range_meters":17200,"station_id":"ce4bh9p2rcd13ifvqed0","pricing_plan_id":"free"},{"bike_id":"9cba03e2-506e-4b53-90f5-03f2f36c6d6b","system_id":"levelo_inurba_marseille","lat":43.289743,"lon":5.378304,"is_reserved":false,"is_disabled":false,"rental_uris":{"android":"levelo://app?vid=9cba03e2-506e-4b53-90f5-03f2f36c6d6b","ios":"levelo://app?vid=9cba03e2-506e-4b53-90f5-03f2f36c6d6b"},"vehicle_type_id":"4","last_reported":1703228811,"current_range_meters":18400,"station_id":"ce4bh9p2rcd13ifvqed0","pricing_plan_id":"free"},{"bike_id":"1ff962cd-11c2-4e6a-8d96-489da42a6d1d","system_id":"levelo_inurba_marseille","lat":43.28856,"lon":5.358371,"is_reserved":false,"is_disabled":false,"rental_uris":{"android":"levelo://app?vid=1ff962cd-11c2-4e6a-8d96-489da42a6d1d","ios":"levelo://app?vid=1ff962cd-11c2-4e6a-8d96-489da42a6d1d"},"vehicle_type_id":"4","last_reported":1703228811,"current_range_meters":24400,"station_id":"ce4bhb12rcd13ifvqem0","pricing_plan_id":"free"},{"bike_id":"7814a10e-fd14-45ce-80c3-42b455f68062","system_id":"levelo_inurba_marseille","lat":43.309371,"lon":5.401449,"is_reserved":false,"is_disabled":false,"rental_uris":{"android":"levelo://app?vid=7814a10e-fd14-45ce-80c3-42b455f68062","ios":"levelo://app?vid=7814a10e-fd14-45ce-80c3-42b455f68062"},"vehicle_type_id":"4","last_reported":1703228811,"current_range_meters":31200,"station_id":"ce4bgvp2rcd13ifvqct0","pricing_plan_id":"free"},{"bike_id":"284f9061-f39d-4a8d-b72d-d997729b14de","system_id":"levelo_inurba_marseille","lat":43.312609,"lon":5.401662,"is_reserved":false,"is_disabled":false,"rental_uris":{"android":"levelo://app?vid=284f9061-f39d-4a8d-b72d-d997729b14de","ios":"levelo://app?vid=284f9061-f39d-4a8d-b72d-d997729b14de"},"vehicle_type_id":"4","last_reported":1703228811,"current_range_meters":800,"station_id":"ce4bh092rcd13ifvqd30","pricing_plan_id":"free"},{"bike_id":"41cf56c2-064a-488c-8678-1cb6b2316c86","system_id":"levelo_inurba_marseille","lat":43.312609,"lon":5.401662,"is_reserved":false,"is_disabled":false,"rental_uris":{"android":"levelo://app?vid=41cf56c2-064a-488c-8678-1cb6b2316c86","ios":"levelo://app?vid=41cf56c2-064a-488c-8678-1cb6b2316c86"},"vehicle_type_id":"4","last_reported":1703228811,"current_range_meters":16000,"station_id":"ce4bh092rcd13ifvqd30","pricing_plan_id":"free"},{"bike_id":"0758ba9b-eec1-4a13-8fa3-d200e4b83daf","system_id":"levelo_inurba_marseille","lat":43.312609,"lon":5.401662,"is_reserved":false,"is_disabled":false,"rental_uris":{"android":"levelo://app?vid=0758ba9b-eec1-4a13-8fa3-d200e4b83daf","ios":"levelo://app?vid=0758ba9b-eec1-4a13-8fa3-d200e4b83daf"},"vehicle_type_id":"4","last_reported":1703228811,"current_range_meters":14400,"station_id":"ce4bh092rcd13ifvqd30","pricing_plan_id":"free"},{"bike_id":"1a59bbe6-4ce8-4bd7-8490-51717c6c735e","system_id":"levelo_inurba_marseille","lat":43.312609,"lon":5.401662,"is_reserved":false,"is_disabled":false,"rental_uris":{"android":"levelo://app?vid=1a59bbe6-4ce8-4bd7-8490-51717c6c735e","ios":"levelo://app?vid=1a59bbe6-4ce8-4bd7-8490-51717c6c735e"},"vehicle_type_id":"4","last_reported":1703228811,"current_range_meters":4000,"station_id":"ce4bh092rcd13ifvqd30","pricing_plan_id":"free"},{"bike_id":"43a4b314-91b9-4c25-99d3-5ebf9d2f7128","system_id":"levelo_inurba_marseille","lat":43.290345,"lon":5.38646,"is_reserved":false,"is_disabled":false,"rental_uris":{"android":"levelo://app?vid=43a4b314-91b9-4c25-99d3-5ebf9d2f7128","ios":"levelo://app?vid=43a4b314-91b9-4c25-99d3-5ebf9d2f7128"},"vehicle_type_id":"4","last_reported":1703228811,"current_range_meters":26400,"station_id":"ce4bh4p2rcd13ifvqe0g","pricing_plan_id":"free"},{"bike_id":"60a0566f-5643-41ce-a06f-ebe3a1175256","system_id":"levelo_inurba_marseille","lat":43.290336,"lon":5.386425,"is_reserved":false,"is_disabled":false,"rental_uris":{"android":"levelo://app?vid=60a0566f-5643-41ce-a06f-ebe3a1175256","ios":"levelo://app?vid=60a0566f-5643-41ce-a06f-ebe3a1175256"},"vehicle_type_id":"4","last_reported":1703228811,"current_range_meters":30000,"station_id":"ce4bh4p2rcd13ifvqe0g","pricing_plan_id":"free"},{"bike_id":"95d316b8-ae9d-4341-9b2e-42ecf80fd33b","system_id":"levelo_inurba_marseille","lat":43.290345,"lon":5.38646,"is_reserved":false,"is_disabled":false,"rental_uris":{"android":"levelo://app?vid=95d316b8-ae9d-4341-9b2e-42ecf80fd33b","ios":"levelo://app?vid=95d316b8-ae9d-4341-9b2e-42ecf80fd33b"},"vehicle_type_id":"4","last_reported":1703228811,"current_range_meters":21200,"station_id":"ce4bh4p2rcd13ifvqe0g","pricing_plan_id":"free"},{"bike_id":"657b4d30-11c4-4174-ae70-5f17e3ee8719","system_id":"levelo_inurba_marseille","lat":43.286039,"lon":5.370679,"is_reserved":false,"is_disabled":false,"rental_uris":{"android":"levelo://app?vid=657b4d30-11c4-4174-ae70-5f17e3ee8719","ios":"levelo://app?vid=657b4d30-11c4-4174-ae70-5f17e3ee8719"},"vehicle_type_id":"4","last_reported":1703228811,"current_range_meters":31200,"station_id":"ce4bht12rcd13ifvqi60","pricing_plan_id":"free"},{"bike_id":"4d882ab1-2188-4a1b-93c0-ea8a8c1f82e2","system_id":"levelo_inurba_marseille","lat":43.286039,"lon":5.370679,"is_reserved":false,"is_disabled":false,"rental_uris":{"android":"levelo://app?vid=4d882ab1-2188-4a1b-93c0-ea8a8c1f82e2","ios":"levelo://app?vid=4d882ab1-2188-4a1b-93c0-ea8a8c1f82e2"},"vehicle_type_id":"4","last_reported":1703228811,"current_range_meters":30800,"station_id":"ce4bht12rcd13ifvqi60","pricing_plan_id":"free"},{"bike_id":"b5ba4e31-c8a5-4cda-8e3b-5ca032e9d193","system_id":"levelo_inurba_marseille","lat":43.316821,"lon":5.404737,"is_reserved":false,"is_disabled":false,"rental_uris":{"android":"levelo://app?vid=b5ba4e31-c8a5-4cda-8e3b-5ca032e9d193","ios":"levelo://app?vid=b5ba4e31-c8a5-4cda-8e3b-5ca032e9d193"},"vehicle_type_id":"4","last_reported":1703228811,"current_range_meters":13600,"station_id":"ce4bh012rcd13ifvqd00","pricing_plan_id":"free"},{"bike_id":"73dd07e2-1833-49fc-b8a5-c09e188bd218","system_id":"levelo_inurba_marseille","lat":43.316821,"lon":5.404737,"is_reserved":false,"is_disabled":false,"rental_uris":{"android":"levelo://app?vid=73dd07e2-1833-49fc-b8a5-c09e188bd218","ios":"levelo://app?vid=73dd07e2-1833-49fc-b8a5-c09e188bd218"},"vehicle_type_id":"4","last_reported":1703228811,"current_range_meters":30000,"station_id":"ce4bh012rcd13ifvqd00","pricing_plan_id":"free"},{"bike_id":"6681f091-8cae-40db-82be-2afedc79afec","system_id":"levelo_inurba_marseille","lat":43.297904,"lon":5.400889,"is_reserved":false,"is_disabled":false,"rental_uris":{"android":"levelo://app?vid=6681f091-8cae-40db-82be-2afedc79afec","ios":"levelo://app?vid=6681f091-8cae-40db-82be-2afedc79afec"},"vehicle_type_id":"4","last_reported":1703228811,"current_range_meters":7200,"station_id":"","pricing_plan_id":"free"},{"bike_id":"a54ab5ff-4775-4ddc-8af1-693daa8891c4","system_id":"levelo_inurba_marseille","lat":43.283998,"lon":5.375062,"is_reserved":false,"is_disabled":false,"rental_uris":{"android":"levelo://app?vid=a54ab5ff-4775-4ddc-8af1-693daa8891c4","ios":"levelo://app?vid=a54ab5ff-4775-4ddc-8af1-693daa8891c4"},"vehicle_type_id":"4","last_reported":1703228811,"current_range_meters":28400,"station_id":"ce4bh412rcd13ifvqds0","pricing_plan_id":"free"},{"bike_id":"0b69a519-bdda-4b9b-8c0d-12a11a8d71b4","system_id":"levelo_inurba_marseille","lat":43.316828,"lon":5.404723,"is_reserved":false,"is_disabled":false,"rental_uris":{"android":"levelo://app?vid=0b69a519-bdda-4b9b-8c0d-12a11a8d71b4","ios":"levelo://app?vid=0b69a519-bdda-4b9b-8c0d-12a11a8d71b4"},"vehicle_type_id":"4","last_reported":1703228811,"current_range_meters":29200,"station_id":"ce4bh012rcd13ifvqd00","pricing_plan_id":"free"},{"bike_id":"0ea5faaf-63e2-4ebf-a84f-434bc0bc98c1","system_id":"levelo_inurba_marseille","lat":43.318826,"lon":5.407316,"is_reserved":false,"is_disabled":false,"rental_uris":{"android":"levelo://app?vid=0ea5faaf-63e2-4ebf-a84f-434bc0bc98c1","ios":"levelo://app?vid=0ea5faaf-63e2-4ebf-a84f-434bc0bc98c1"},"vehicle_type_id":"4","last_reported":1703228811,"current_range_meters":28400,"station_id":"ce4bhq12rcd13ifvqhig","pricing_plan_id":"free"},{"bike_id":"9d6893e2-7192-4a6d-82e0-69c0a3078e44","system_id":"levelo_inurba_marseille","lat":43.319179,"lon":5.407725,"is_reserved":false,"is_disabled":false,"rental_uris":{"android":"levelo://app?vid=9d6893e2-7192-4a6d-82e0-69c0a3078e44","ios":"levelo://app?vid=9d6893e2-7192-4a6d-82e0-69c0a3078e44"},"vehicle_type_id":"4","last_reported":1703228811,"current_range_meters":31200,"station_id":"ce4bhq12rcd13ifvqhig","pricing_plan_id":"free"},{"bike_id":"361799b8-0ade-4629-b104-c461534604f1","system_id":"levelo_inurba_marseille","lat":43.323464,"lon":5.406297,"is_reserved":false,"is_disabled":false,"rental_uris":{"android":"levelo://app?vid=361799b8-0ade-4629-b104-c461534604f1","ios":"levelo://app?vid=361799b8-0ade-4629-b104-c461534604f1"},"vehicle_type_id":"4","last_reported":1703228811,"current_range_meters":4000,"station_id":"ce4bhq92rcd13ifvqhjg","pricing_plan_id":"free"},{"bike_id":"687269d2-e082-4930-b7b6-db76459f0cad","system_id":"levelo_inurba_marseille","lat":43.323464,"lon":5.406297,"is_reserved":false,"is_disabled":false,"rental_uris":{"android":"levelo://app?vid=687269d2-e082-4930-b7b6-db76459f0cad","ios":"levelo://app?vid=687269d2-e082-4930-b7b6-db76459f0cad"},"vehicle_type_id":"4","last_reported":1703228811,"current_range_meters":7200,"station_id":"ce4bhq92rcd13ifvqhjg","pricing_plan_id":"free"},{"bike_id":"aa1bea3e-ff5f-4c49-a630-426ec3e7598d","system_id":"levelo_inurba_marseille","lat":43.323464,"lon":5.406297,"is_reserved":false,"is_disabled":false,"rental_uris":{"android":"levelo://app?vid=aa1bea3e-ff5f-4c49-a630-426ec3e7598d","ios":"levelo://app?vid=aa1bea3e-ff5f-4c49-a630-426ec3e7598d"},"vehicle_type_id":"4","last_reported":1703228811,"current_range_meters":31600,"station_id":"ce4bhq92rcd13ifvqhjg","pricing_plan_id":"free"},{"bike_id":"dfdadb00-295f-4147-bb7b-992e830130a9","system_id":"levelo_inurba_marseille","lat":43.323464,"lon":5.406297,"is_reserved":false,"is_disabled":false,"rental_uris":{"android":"levelo://app?vid=dfdadb00-295f-4147-bb7b-992e830130a9","ios":"levelo://app?vid=dfdadb00-295f-4147-bb7b-992e830130a9"},"vehicle_type_id":"4","last_reported":1703228811,"current_range_meters":31200,"station_id":"ce4bhq92rcd13ifvqhjg","pricing_plan_id":"free"},{"bike_id":"991989a9-3eeb-4ae2-b69e-9e722f90bf42","system_id":"levelo_inurba_marseille","lat":43.283494,"lon":5.380945,"is_reserved":false,"is_disabled":false,"rental_uris":{"android":"levelo://app?vid=991989a9-3eeb-4ae2-b69e-9e722f90bf42","ios":"levelo://app?vid=991989a9-3eeb-4ae2-b69e-9e722f90bf42"},"vehicle_type_id":"4","last_reported":1703228811,"current_range_meters":25200,"station_id":"ce4bh412rcd13ifvqdr0","pricing_plan_id":"free"},{"bike_id":"5b753af7-130d-4043-a562-3ad9e1f5e617","system_id":"levelo_inurba_marseille","lat":43.283494,"lon":5.380945,"is_reserved":false,"is_disabled":false,"rental_uris":{"android":"levelo://app?vid=5b753af7-130d-4043-a562-3ad9e1f5e617","ios":"levelo://app?vid=5b753af7-130d-4043-a562-3ad9e1f5e617"},"vehicle_type_id":"4","last_reported":1703228811,"current_range_meters":27200,"station_id":"ce4bh412rcd13ifvqdr0","pricing_plan_id":"free"},{"bike_id":"f4ba4dd6-623e-4d6d-84a4-5aac82a70d31","system_id":"levelo_inurba_marseille","lat":43.283494,"lon":5.380945,"is_reserved":false,"is_disabled":false,"rental_uris":{"android":"levelo://app?vid=f4ba4dd6-623e-4d6d-84a4-5aac82a70d31","ios":"levelo://app?vid=f4ba4dd6-623e-4d6d-84a4-5aac82a70d31"},"vehicle_type_id":"4","last_reported":1703228811,"current_range_meters":21600,"station_id":"ce4bh412rcd13ifvqdr0","pricing_plan_id":"free"},{"bike_id":"8df9289c-cb26-4962-8602-ba5dcb6f6372","system_id":"levelo_inurba_marseille","lat":43.283494,"lon":5.380945,"is_reserved":false,"is_disabled":false,"rental_uris":{"android":"levelo://app?vid=8df9289c-cb26-4962-8602-ba5dcb6f6372","ios":"levelo://app?vid=8df9289c-cb26-4962-8602-ba5dcb6f6372"},"vehicle_type_id":"4","last_reported":1703228811,"current_range_meters":23600,"station_id":"ce4bh412rcd13ifvqdr0","pricing_plan_id":"free"},{"bike_id":"7b380250-c375-44a7-a545-9a5fba74840f","system_id":"levelo_inurba_marseille","lat":43.283494,"lon":5.380945,"is_reserved":false,"is_disabled":false,"rental_uris":{"android":"levelo://app?vid=7b380250-c375-44a7-a545-9a5fba74840f","ios":"levelo://app?vid=7b380250-c375-44a7-a545-9a5fba74840f"},"vehicle_type_id":"4","last_reported":1703228811,"current_range_meters":0,"station_id":"ce4bh412rcd13ifvqdr0","pricing_plan_id":"free"},{"bike_id":"ec6d5b78-fc49-451c-92d1-92c8667ad5be","system_id":"levelo_inurba_marseille","lat":43.283498,"lon":5.380948,"is_reserved":false,"is_disabled":false,"rental_uris":{"android":"levelo://app?vid=ec6d5b78-fc49-451c-92d1-92c8667ad5be","ios":"levelo://app?vid=ec6d5b78-fc49-451c-92d1-92c8667ad5be"},"vehicle_type_id":"4","last_reported":1703228811,"current_range_meters":28400,"station_id":"ce4bh412rcd13ifvqdr0","pricing_plan_id":"free"},{"bike_id":"f1457aac-23b5-4ab9-8730-6a458321e73f","system_id":"levelo_inurba_marseille","lat":43.283498,"lon":5.380948,"is_reserved":false,"is_disabled":false,"rental_uris":{"android":"levelo://app?vid=f1457aac-23b5-4ab9-8730-6a458321e73f","ios":"levelo://app?vid=f1457aac-23b5-4ab9-8730-6a458321e73f"},"vehicle_type_id":"4","last_reported":1703228811,"current_range_meters":26000,"station_id":"ce4bh412rcd13ifvqdr0","pricing_plan_id":"free"},{"bike_id":"a57861c5-aaaa-4aec-a6d0-4bd0a8b47ecf","system_id":"levelo_inurba_marseille","lat":43.289363,"lon":5.396322,"is_reserved":false,"is_disabled":false,"rental_uris":{"android":"levelo://app?vid=a57861c5-aaaa-4aec-a6d0-4bd0a8b47ecf","ios":"levelo://app?vid=a57861c5-aaaa-4aec-a6d0-4bd0a8b47ecf"},"vehicle_type_id":"4","last_reported":1703228811,"current_range_meters":26400,"station_id":"ce4bh3h2rcd13ifvqdn0","pricing_plan_id":"free"},{"bike_id":"fbe4f583-7279-4835-a62d-5239167ba49c","system_id":"levelo_inurba_marseille","lat":43.289363,"lon":5.396322,"is_reserved":false,"is_disabled":false,"rental_uris":{"android":"levelo://app?vid=fbe4f583-7279-4835-a62d-5239167ba49c","ios":"levelo://app?vid=fbe4f583-7279-4835-a62d-5239167ba49c"},"vehicle_type_id":"4","last_reported":1703228811,"current_range_meters":24800,"station_id":"ce4bh3h2rcd13ifvqdn0","pricing_plan_id":"free"},{"bike_id":"aea7d89e-b300-486a-9af7-780d012f90df","system_id":"levelo_inurba_marseille","lat":43.292724,"lon":5.401131,"is_reserved":false,"is_disabled":false,"rental_uris":{"android":"levelo://app?vid=aea7d89e-b300-486a-9af7-780d012f90df","ios":"levelo://app?vid=aea7d89e-b300-486a-9af7-780d012f90df"},"vehicle_type_id":"4","last_reported":1703228811,"current_range_meters":27200,"station_id":"ce4bh312rcd13ifvqdk0","pricing_plan_id":"free"},{"bike_id":"864b23f1-8b33-4359-baa5-eca1cda9f768","system_id":"levelo_inurba_marseille","lat":43.283502,"lon":5.386471,"is_reserved":false,"is_disabled":false,"rental_uris":{"android":"levelo://app?vid=864b23f1-8b33-4359-baa5-eca1cda9f768","ios":"levelo://app?vid=864b23f1-8b33-4359-baa5-eca1cda9f768"},"vehicle_type_id":"4","last_reported":1703228811,"current_range_meters":9200,"station_id":"ce4bh492rcd13ifvqdvg","pricing_plan_id":"free"},{"bike_id":"1035d818-fdf3-449a-9258-0bce173637c6","system_id":"levelo_inurba_marseille","lat":43.29145,"lon":5.40052,"is_reserved":false,"is_disabled":false,"rental_uris":{"android":"levelo://app?vid=1035d818-fdf3-449a-9258-0bce173637c6","ios":"levelo://app?vid=1035d818-fdf3-449a-9258-0bce173637c6"},"vehicle_type_id":"4","last_reported":1703228811,"current_range_meters":19600,"station_id":"","pricing_plan_id":"free"},{"bike_id":"d455de63-4ee9-4350-af98-c8f411895641","system_id":"levelo_inurba_marseille","lat":43.28039,"lon":5.369297,"is_reserved":false,"is_disabled":false,"rental_uris":{"android":"levelo://app?vid=d455de63-4ee9-4350-af98-c8f411895641","ios":"levelo://app?vid=d455de63-4ee9-4350-af98-c8f411895641"},"vehicle_type_id":"4","last_reported":1703228811,"current_range_meters":31200,"station_id":"ce4bha12rcd13ifvqef0","pricing_plan_id":"free"},{"bike_id":"81b5e6d1-8acb-4a8a-b329-0b30df024934","system_id":"levelo_inurba_marseille","lat":43.29034,"lon":5.39964,"is_reserved":false,"is_disabled":false,"rental_uris":{"android":"levelo://app?vid=81b5e6d1-8acb-4a8a-b329-0b30df024934","ios":"levelo://app?vid=81b5e6d1-8acb-4a8a-b329-0b30df024934"},"vehicle_type_id":"4","last_reported":1703228811,"current_range_meters":25200,"station_id":"ce4bh392rcd13ifvqdm0","pricing_plan_id":"free"},{"bike_id":"866f6751-aca8-40b9-a4ee-2e45668c8189","system_id":"levelo_inurba_marseille","lat":43.29037,"lon":5.39973,"is_reserved":false,"is_disabled":false,"rental_uris":{"android":"levelo://app?vid=866f6751-aca8-40b9-a4ee-2e45668c8189","ios":"levelo://app?vid=866f6751-aca8-40b9-a4ee-2e45668c8189"},"vehicle_type_id":"4","last_reported":1703228811,"current_range_meters":26800,"station_id":"ce4bh392rcd13ifvqdm0","pricing_plan_id":"free"},{"bike_id":"4a77be51-8f93-4f39-9c01-7c5925bff5fc","system_id":"levelo_inurba_marseille","lat":43.281044,"lon":5.378308,"is_reserved":false,"is_disabled":false,"rental_uris":{"android":"levelo://app?vid=4a77be51-8f93-4f39-9c01-7c5925bff5fc","ios":"levelo://app?vid=4a77be51-8f93-4f39-9c01-7c5925bff5fc"},"vehicle_type_id":"4","last_reported":1703228811,"current_range_meters":2000,"station_id":"ce4bha12rcd13ifvqee0","pricing_plan_id":"free"},{"bike_id":"a30705de-d6ba-47c3-830b-c32bd6ed473a","system_id":"levelo_inurba_marseille","lat":43.281182,"lon":5.382003,"is_reserved":false,"is_disabled":false,"rental_uris":{"android":"levelo://app?vid=a30705de-d6ba-47c3-830b-c32bd6ed473a","ios":"levelo://app?vid=a30705de-d6ba-47c3-830b-c32bd6ed473a"},"vehicle_type_id":"4","last_reported":1703228811,"current_range_meters":17600,"station_id":"","pricing_plan_id":"free"},{"bike_id":"0378ab09-ff6f-44c4-ad8b-817ba18f2fbd","system_id":"levelo_inurba_marseille","lat":43.30411,"lon":5.41281,"is_reserved":false,"is_disabled":false,"rental_uris":{"android":"levelo://app?vid=0378ab09-ff6f-44c4-ad8b-817ba18f2fbd","ios":"levelo://app?vid=0378ab09-ff6f-44c4-ad8b-817ba18f2fbd"},"vehicle_type_id":"4","last_reported":1703228811,"current_range_meters":30000,"station_id":"ce4bhop2rcd13ifvqh8g","pricing_plan_id":"free"},{"bike_id":"51b476fb-84ac-4b50-9df3-addadec8e8e7","system_id":"levelo_inurba_marseille","lat":43.287154,"lon":5.399979,"is_reserved":false,"is_disabled":false,"rental_uris":{"android":"levelo://app?vid=51b476fb-84ac-4b50-9df3-addadec8e8e7","ios":"levelo://app?vid=51b476fb-84ac-4b50-9df3-addadec8e8e7"},"vehicle_type_id":"4","last_reported":1703228811,"current_range_meters":31200,"station_id":"ce4bho92rcd13ifvqh3g","pricing_plan_id":"free"},{"bike_id":"a8b042bc-e039-4100-8b4b-c360dfe4140d","system_id":"levelo_inurba_marseille","lat":43.287154,"lon":5.399979,"is_reserved":false,"is_disabled":false,"rental_uris":{"android":"levelo://app?vid=a8b042bc-e039-4100-8b4b-c360dfe4140d","ios":"levelo://app?vid=a8b042bc-e039-4100-8b4b-c360dfe4140d"},"vehicle_type_id":"4","last_reported":1703228811,"current_range_meters":31200,"station_id":"ce4bho92rcd13ifvqh3g","pricing_plan_id":"free"},{"bike_id":"170ab2bf-d29f-4d5f-982a-a6ad40f685fd","system_id":"levelo_inurba_marseille","lat":43.286061,"lon":5.399961,"is_reserved":false,"is_disabled":false,"rental_uris":{"android":"levelo://app?vid=170ab2bf-d29f-4d5f-982a-a6ad40f685fd","ios":"levelo://app?vid=170ab2bf-d29f-4d5f-982a-a6ad40f685fd"},"vehicle_type_id":"4","last_reported":1703228811,"current_range_meters":14000,"station_id":"","pricing_plan_id":"free"},{"bike_id":"f094da94-3351-4805-aa89-f1a9cc3a3c3b","system_id":"levelo_inurba_marseille","lat":43.279742,"lon":5.38744,"is_reserved":false,"is_disabled":false,"rental_uris":{"android":"levelo://app?vid=f094da94-3351-4805-aa89-f1a9cc3a3c3b","ios":"levelo://app?vid=f094da94-3351-4805-aa89-f1a9cc3a3c3b"},"vehicle_type_id":"4","last_reported":1703228811,"current_range_meters":24000,"station_id":"ce4bhg12rcd13ifvqf80","pricing_plan_id":"free"},{"bike_id":"d421cad1-6533-4885-9cde-5b8f0aa16d67","system_id":"levelo_inurba_marseille","lat":43.299577,"lon":5.413277,"is_reserved":false,"is_disabled":false,"rental_uris":{"android":"levelo://app?vid=d421cad1-6533-4885-9cde-5b8f0aa16d67","ios":"levelo://app?vid=d421cad1-6533-4885-9cde-5b8f0aa16d67"},"vehicle_type_id":"4","last_reported":1703228811,"current_range_meters":6800,"station_id":"ce4bhp12rcd13ifvqh9g","pricing_plan_id":"free"},{"bike_id":"a824faea-61b6-4e83-b4dd-cc7468c15600","system_id":"levelo_inurba_marseille","lat":43.279742,"lon":5.38744,"is_reserved":false,"is_disabled":false,"rental_uris":{"android":"levelo://app?vid=a824faea-61b6-4e83-b4dd-cc7468c15600","ios":"levelo://app?vid=a824faea-61b6-4e83-b4dd-cc7468c15600"},"vehicle_type_id":"4","last_reported":1703228811,"current_range_meters":26800,"station_id":"ce4bhg12rcd13ifvqf80","pricing_plan_id":"free"},{"bike_id":"78fa177f-2241-4440-9efb-11f5a115ae30","system_id":"levelo_inurba_marseille","lat":43.279742,"lon":5.38744,"is_reserved":false,"is_disabled":false,"rental_uris":{"android":"levelo://app?vid=78fa177f-2241-4440-9efb-11f5a115ae30","ios":"levelo://app?vid=78fa177f-2241-4440-9efb-11f5a115ae30"},"vehicle_type_id":"4","last_reported":1703228811,"current_range_meters":26000,"station_id":"ce4bhg12rcd13ifvqf80","pricing_plan_id":"free"},{"bike_id":"9c5ad8b9-a33c-4feb-91bd-64ce3b0d8c02","system_id":"levelo_inurba_marseille","lat":43.325233,"lon":5.414318,"is_reserved":false,"is_disabled":false,"rental_uris":{"android":"levelo://app?vid=9c5ad8b9-a33c-4feb-91bd-64ce3b0d8c02","ios":"levelo://app?vid=9c5ad8b9-a33c-4feb-91bd-64ce3b0d8c02"},"vehicle_type_id":"4","last_reported":1703228811,"current_range_meters":8400,"station_id":"ce4bhq12rcd13ifvqhhg","pricing_plan_id":"free"},{"bike_id":"21f01083-e6a0-46eb-b58f-8e39e640143f","system_id":"levelo_inurba_marseille","lat":43.325233,"lon":5.414318,"is_reserved":false,"is_disabled":false,"rental_uris":{"android":"levelo://app?vid=21f01083-e6a0-46eb-b58f-8e39e640143f","ios":"levelo://app?vid=21f01083-e6a0-46eb-b58f-8e39e640143f"},"vehicle_type_id":"4","last_reported":1703228811,"current_range_meters":26800,"station_id":"ce4bhq12rcd13ifvqhhg","pricing_plan_id":"free"},{"bike_id":"ccf08482-4944-4717-985c-c41efcbf1de2","system_id":"levelo_inurba_marseille","lat":43.325233,"lon":5.414318,"is_reserved":false,"is_disabled":false,"rental_uris":{"android":"levelo://app?vid=ccf08482-4944-4717-985c-c41efcbf1de2","ios":"levelo://app?vid=ccf08482-4944-4717-985c-c41efcbf1de2"},"vehicle_type_id":"4","last_reported":1703228811,"current_range_meters":29600,"station_id":"ce4bhq12rcd13ifvqhhg","pricing_plan_id":"free"},{"bike_id":"09a21094-8e68-4ed9-9f1b-f64de89ddab8","system_id":"levelo_inurba_marseille","lat":43.325243,"lon":5.414326,"is_reserved":false,"is_disabled":false,"rental_uris":{"android":"levelo://app?vid=09a21094-8e68-4ed9-9f1b-f64de89ddab8","ios":"levelo://app?vid=09a21094-8e68-4ed9-9f1b-f64de89ddab8"},"vehicle_type_id":"4","last_reported":1703228811,"current_range_meters":23600,"station_id":"ce4bhq12rcd13ifvqhhg","pricing_plan_id":"free"},{"bike_id":"9cef12ab-b4b5-4181-96ad-1f5b5ea92799","system_id":"levelo_inurba_marseille","lat":43.278401,"lon":5.392152,"is_reserved":false,"is_disabled":false,"rental_uris":{"android":"levelo://app?vid=9cef12ab-b4b5-4181-96ad-1f5b5ea92799","ios":"levelo://app?vid=9cef12ab-b4b5-4181-96ad-1f5b5ea92799"},"vehicle_type_id":"4","last_reported":1703228811,"current_range_meters":28400,"station_id":"ce4bhjp2rcd13ifvqga0","pricing_plan_id":"free"},{"bike_id":"6c607f93-57a3-4800-9dec-6ed5ed85df32","system_id":"levelo_inurba_marseille","lat":43.278399,"lon":5.392139,"is_reserved":false,"is_disabled":false,"rental_uris":{"android":"levelo://app?vid=6c607f93-57a3-4800-9dec-6ed5ed85df32","ios":"levelo://app?vid=6c607f93-57a3-4800-9dec-6ed5ed85df32"},"vehicle_type_id":"4","last_reported":1703228811,"current_range_meters":30400,"station_id":"ce4bhjp2rcd13ifvqga0","pricing_plan_id":"free"},{"bike_id":"e10cc150-4041-48d5-aaa1-023406c60c29","system_id":"levelo_inurba_marseille","lat":43.273613,"lon":5.362705,"is_reserved":false,"is_disabled":false,"rental_uris":{"android":"levelo://app?vid=e10cc150-4041-48d5-aaa1-023406c60c29","ios":"levelo://app?vid=e10cc150-4041-48d5-aaa1-023406c60c29"},"vehicle_type_id":"4","last_reported":1703228811,"current_range_meters":12400,"station_id":"ce4bhbh2rcd13ifvqeo0","pricing_plan_id":"free"},{"bike_id":"f1edc802-0ccc-4821-9ca7-279093c88d45","system_id":"levelo_inurba_marseille","lat":43.336134,"lon":5.410341,"is_reserved":false,"is_disabled":false,"rental_uris":{"android":"levelo://app?vid=f1edc802-0ccc-4821-9ca7-279093c88d45","ios":"levelo://app?vid=f1edc802-0ccc-4821-9ca7-279093c88d45"},"vehicle_type_id":"4","last_reported":1703228811,"current_range_meters":31200,"station_id":"ce4bhqh2rcd13ifvqhmg","pricing_plan_id":"free"},{"bike_id":"c12de7e8-a347-40e6-8797-e98d6d1cb1b5","system_id":"levelo_inurba_marseille","lat":43.336148,"lon":5.410349,"is_reserved":false,"is_disabled":false,"rental_uris":{"android":"levelo://app?vid=c12de7e8-a347-40e6-8797-e98d6d1cb1b5","ios":"levelo://app?vid=c12de7e8-a347-40e6-8797-e98d6d1cb1b5"},"vehicle_type_id":"4","last_reported":1703228811,"current_range_meters":28400,"station_id":"ce4bhqh2rcd13ifvqhmg","pricing_plan_id":"free"},{"bike_id":"3a1ebf0f-c579-45ad-ab89-953ea01137e2","system_id":"levelo_inurba_marseille","lat":43.336134,"lon":5.410341,"is_reserved":false,"is_disabled":false,"rental_uris":{"android":"levelo://app?vid=3a1ebf0f-c579-45ad-ab89-953ea01137e2","ios":"levelo://app?vid=3a1ebf0f-c579-45ad-ab89-953ea01137e2"},"vehicle_type_id":"4","last_reported":1703228811,"current_range_meters":28800,"station_id":"ce4bhqh2rcd13ifvqhmg","pricing_plan_id":"free"},{"bike_id":"aaa4aece-d338-4373-a067-338cb3091466","system_id":"levelo_inurba_marseille","lat":43.336148,"lon":5.410349,"is_reserved":false,"is_disabled":false,"rental_uris":{"android":"levelo://app?vid=aaa4aece-d338-4373-a067-338cb3091466","ios":"levelo://app?vid=aaa4aece-d338-4373-a067-338cb3091466"},"vehicle_type_id":"4","last_reported":1703228811,"current_range_meters":20000,"station_id":"ce4bhqh2rcd13ifvqhmg","pricing_plan_id":"free"},{"bike_id":"d1ffa2af-b131-4acb-a682-f6e00aecb2ef","system_id":"levelo_inurba_marseille","lat":43.336134,"lon":5.410341,"is_reserved":false,"is_disabled":false,"rental_uris":{"android":"levelo://app?vid=d1ffa2af-b131-4acb-a682-f6e00aecb2ef","ios":"levelo://app?vid=d1ffa2af-b131-4acb-a682-f6e00aecb2ef"},"vehicle_type_id":"4","last_reported":1703228811,"current_range_meters":22000,"station_id":"ce4bhqh2rcd13ifvqhmg","pricing_plan_id":"free"},{"bike_id":"96ea526a-2486-4ef8-b7ca-f24d2c04fc62","system_id":"levelo_inurba_marseille","lat":43.276771,"lon":5.388799,"is_reserved":false,"is_disabled":false,"rental_uris":{"android":"levelo://app?vid=96ea526a-2486-4ef8-b7ca-f24d2c04fc62","ios":"levelo://app?vid=96ea526a-2486-4ef8-b7ca-f24d2c04fc62"},"vehicle_type_id":"4","last_reported":1703228811,"current_range_meters":26800,"station_id":"ce4bhi12rcd13ifvqfo0","pricing_plan_id":"free"},{"bike_id":"da3af396-c056-4f78-b227-5e36212b6072","system_id":"levelo_inurba_marseille","lat":43.276769,"lon":5.388787,"is_reserved":false,"is_disabled":false,"rental_uris":{"android":"levelo://app?vid=da3af396-c056-4f78-b227-5e36212b6072","ios":"levelo://app?vid=da3af396-c056-4f78-b227-5e36212b6072"},"vehicle_type_id":"4","last_reported":1703228811,"current_range_meters":28000,"station_id":"ce4bhi12rcd13ifvqfo0","pricing_plan_id":"free"},{"bike_id":"0977aaba-47ca-49df-a05c-7255a2176bee","system_id":"levelo_inurba_marseille","lat":43.317121,"lon":5.423936,"is_reserved":false,"is_disabled":false,"rental_uris":{"android":"levelo://app?vid=0977aaba-47ca-49df-a05c-7255a2176bee","ios":"levelo://app?vid=0977aaba-47ca-49df-a05c-7255a2176bee"},"vehicle_type_id":"4","last_reported":1703228811,"current_range_meters":17600,"station_id":"ce4bhp92rcd13ifvqhbg","pricing_plan_id":"free"},{"bike_id":"9dc533da-9815-4811-adf2-9fdd3dab3c79","system_id":"levelo_inurba_marseille","lat":43.310785,"lon":5.424305,"is_reserved":false,"is_disabled":false,"rental_uris":{"android":"levelo://app?vid=9dc533da-9815-4811-adf2-9fdd3dab3c79","ios":"levelo://app?vid=9dc533da-9815-4811-adf2-9fdd3dab3c79"},"vehicle_type_id":"4","last_reported":1703228811,"current_range_meters":27200,"station_id":"ce4bhp92rcd13ifvqhag","pricing_plan_id":"free"},{"bike_id":"67c95ba1-3b1b-4724-b685-672be7a82fce","system_id":"levelo_inurba_marseille","lat":43.31719,"lon":5.42404,"is_reserved":false,"is_disabled":false,"rental_uris":{"android":"levelo://app?vid=67c95ba1-3b1b-4724-b685-672be7a82fce","ios":"levelo://app?vid=67c95ba1-3b1b-4724-b685-672be7a82fce"},"vehicle_type_id":"4","last_reported":1703228811,"current_range_meters":2800,"station_id":"ce4bhp92rcd13ifvqhbg","pricing_plan_id":"free"},{"bike_id":"8254fd32-b9d4-49df-ab7e-cfea12d046d7","system_id":"levelo_inurba_marseille","lat":43.304096,"lon":5.425385,"is_reserved":false,"is_disabled":false,"rental_uris":{"android":"levelo://app?vid=8254fd32-b9d4-49df-ab7e-cfea12d046d7","ios":"levelo://app?vid=8254fd32-b9d4-49df-ab7e-cfea12d046d7"},"vehicle_type_id":"4","last_reported":1703228811,"current_range_meters":31200,"station_id":"ce4bhoh2rcd13ifvqh6g","pricing_plan_id":"free"},{"bike_id":"96777740-b7f1-4409-bcdb-20a8be6b2105","system_id":"levelo_inurba_marseille","lat":43.304096,"lon":5.425385,"is_reserved":false,"is_disabled":false,"rental_uris":{"android":"levelo://app?vid=96777740-b7f1-4409-bcdb-20a8be6b2105","ios":"levelo://app?vid=96777740-b7f1-4409-bcdb-20a8be6b2105"},"vehicle_type_id":"4","last_reported":1703228811,"current_range_meters":16400,"station_id":"ce4bhoh2rcd13ifvqh6g","pricing_plan_id":"free"},{"bike_id":"0e4cc326-10fa-4e7e-9ba9-ad4f832bb35e","system_id":"levelo_inurba_marseille","lat":43.304096,"lon":5.425385,"is_reserved":false,"is_disabled":false,"rental_uris":{"android":"levelo://app?vid=0e4cc326-10fa-4e7e-9ba9-ad4f832bb35e","ios":"levelo://app?vid=0e4cc326-10fa-4e7e-9ba9-ad4f832bb35e"},"vehicle_type_id":"4","last_reported":1703228811,"current_range_meters":26000,"station_id":"ce4bhoh2rcd13ifvqh6g","pricing_plan_id":"free"},{"bike_id":"a80c78b0-54bd-4c06-a456-7ff9cb5fb92c","system_id":"levelo_inurba_marseille","lat":43.29565,"lon":5.422738,"is_reserved":false,"is_disabled":false,"rental_uris":{"android":"levelo://app?vid=a80c78b0-54bd-4c06-a456-7ff9cb5fb92c","ios":"levelo://app?vid=a80c78b0-54bd-4c06-a456-7ff9cb5fb92c"},"vehicle_type_id":"4","last_reported":1703228811,"current_range_meters":9200,"station_id":"ce4bhph2rcd13ifvqhdg","pricing_plan_id":"free"},{"bike_id":"9449eb80-d18a-481d-bf00-b32c1d52c065","system_id":"levelo_inurba_marseille","lat":43.295523,"lon":5.422926,"is_reserved":false,"is_disabled":false,"rental_uris":{"android":"levelo://app?vid=9449eb80-d18a-481d-bf00-b32c1d52c065","ios":"levelo://app?vid=9449eb80-d18a-481d-bf00-b32c1d52c065"},"vehicle_type_id":"4","last_reported":1703228811,"current_range_meters":4400,"station_id":"ce4bhph2rcd13ifvqhdg","pricing_plan_id":"free"},{"bike_id":"96484c65-8dd7-4167-a438-a7d837c6b7a7","system_id":"levelo_inurba_marseille","lat":43.295523,"lon":5.422926,"is_reserved":false,"is_disabled":false,"rental_uris":{"android":"levelo://app?vid=96484c65-8dd7-4167-a438-a7d837c6b7a7","ios":"levelo://app?vid=96484c65-8dd7-4167-a438-a7d837c6b7a7"},"vehicle_type_id":"4","last_reported":1703228811,"current_range_meters":31600,"station_id":"ce4bhph2rcd13ifvqhdg","pricing_plan_id":"free"},{"bike_id":"391fbd8c-16f4-46e5-93e2-ec57a1dffc49","system_id":"levelo_inurba_marseille","lat":43.295523,"lon":5.422926,"is_reserved":false,"is_disabled":false,"rental_uris":{"android":"levelo://app?vid=391fbd8c-16f4-46e5-93e2-ec57a1dffc49","ios":"levelo://app?vid=391fbd8c-16f4-46e5-93e2-ec57a1dffc49"},"vehicle_type_id":"4","last_reported":1703228811,"current_range_meters":19200,"station_id":"ce4bhph2rcd13ifvqhdg","pricing_plan_id":"free"},{"bike_id":"218ca4ab-a316-43a6-87cd-acfc23cd8e62","system_id":"levelo_inurba_marseille","lat":43.295523,"lon":5.422926,"is_reserved":false,"is_disabled":false,"rental_uris":{"android":"levelo://app?vid=218ca4ab-a316-43a6-87cd-acfc23cd8e62","ios":"levelo://app?vid=218ca4ab-a316-43a6-87cd-acfc23cd8e62"},"vehicle_type_id":"4","last_reported":1703228811,"current_range_meters":19600,"station_id":"ce4bhph2rcd13ifvqhdg","pricing_plan_id":"free"},{"bike_id":"7d800ac1-1b26-47dd-97c6-49cd89d9ab11","system_id":"levelo_inurba_marseille","lat":43.295511,"lon":5.422926,"is_reserved":false,"is_disabled":false,"rental_uris":{"android":"levelo://app?vid=7d800ac1-1b26-47dd-97c6-49cd89d9ab11","ios":"levelo://app?vid=7d800ac1-1b26-47dd-97c6-49cd89d9ab11"},"vehicle_type_id":"4","last_reported":1703228811,"current_range_meters":12800,"station_id":"ce4bhph2rcd13ifvqhdg","pricing_plan_id":"free"},{"bike_id":"23d13786-8601-4dce-a424-5d4a35dea444","system_id":"levelo_inurba_marseille","lat":43.295511,"lon":5.422926,"is_reserved":false,"is_disabled":false,"rental_uris":{"android":"levelo://app?vid=23d13786-8601-4dce-a424-5d4a35dea444","ios":"levelo://app?vid=23d13786-8601-4dce-a424-5d4a35dea444"},"vehicle_type_id":"4","last_reported":1703228811,"current_range_meters":16400,"station_id":"ce4bhph2rcd13ifvqhdg","pricing_plan_id":"free"},{"bike_id":"b55db1a0-b820-479b-9929-7610c21584c5","system_id":"levelo_inurba_marseille","lat":43.295511,"lon":5.422926,"is_reserved":false,"is_disabled":false,"rental_uris":{"android":"levelo://app?vid=b55db1a0-b820-479b-9929-7610c21584c5","ios":"levelo://app?vid=b55db1a0-b820-479b-9929-7610c21584c5"},"vehicle_type_id":"4","last_reported":1703228811,"current_range_meters":25600,"station_id":"ce4bhph2rcd13ifvqhdg","pricing_plan_id":"free"},{"bike_id":"3a5f4923-7682-4f88-9a55-697169f9e9a5","system_id":"levelo_inurba_marseille","lat":43.278128,"lon":5.407195,"is_reserved":false,"is_disabled":false,"rental_uris":{"android":"levelo://app?vid=3a5f4923-7682-4f88-9a55-697169f9e9a5","ios":"levelo://app?vid=3a5f4923-7682-4f88-9a55-697169f9e9a5"},"vehicle_type_id":"4","last_reported":1703228811,"current_range_meters":22400,"station_id":"ce4bhnh2rcd13ifvqgtg","pricing_plan_id":"free"},{"bike_id":"b979e0ac-564d-4365-807b-d6390958382e","system_id":"levelo_inurba_marseille","lat":43.278128,"lon":5.407195,"is_reserved":false,"is_disabled":false,"rental_uris":{"android":"levelo://app?vid=b979e0ac-564d-4365-807b-d6390958382e","ios":"levelo://app?vid=b979e0ac-564d-4365-807b-d6390958382e"},"vehicle_type_id":"4","last_reported":1703228811,"current_range_meters":27200,"station_id":"ce4bhnh2rcd13ifvqgtg","pricing_plan_id":"free"},{"bike_id":"199d6611-9c4f-4815-877f-00c49477778f","system_id":"levelo_inurba_marseille","lat":43.278128,"lon":5.407195,"is_reserved":false,"is_disabled":false,"rental_uris":{"android":"levelo://app?vid=199d6611-9c4f-4815-877f-00c49477778f","ios":"levelo://app?vid=199d6611-9c4f-4815-877f-00c49477778f"},"vehicle_type_id":"4","last_reported":1703228811,"current_range_meters":7600,"station_id":"ce4bhnh2rcd13ifvqgtg","pricing_plan_id":"free"},{"bike_id":"2385a3dc-ecc5-4c8e-b554-c8e4b25ef268","system_id":"levelo_inurba_marseille","lat":43.278128,"lon":5.407195,"is_reserved":false,"is_disabled":false,"rental_uris":{"android":"levelo://app?vid=2385a3dc-ecc5-4c8e-b554-c8e4b25ef268","ios":"levelo://app?vid=2385a3dc-ecc5-4c8e-b554-c8e4b25ef268"},"vehicle_type_id":"4","last_reported":1703228811,"current_range_meters":22800,"station_id":"ce4bhnh2rcd13ifvqgtg","pricing_plan_id":"free"},{"bike_id":"0bb2e958-648d-4557-b135-387c9c9e4bc8","system_id":"levelo_inurba_marseille","lat":43.278128,"lon":5.407195,"is_reserved":false,"is_disabled":false,"rental_uris":{"android":"levelo://app?vid=0bb2e958-648d-4557-b135-387c9c9e4bc8","ios":"levelo://app?vid=0bb2e958-648d-4557-b135-387c9c9e4bc8"},"vehicle_type_id":"4","last_reported":1703228811,"current_range_meters":27200,"station_id":"ce4bhnh2rcd13ifvqgtg","pricing_plan_id":"free"},{"bike_id":"59d66a0a-b392-45cf-9cfd-32926820ebdd","system_id":"levelo_inurba_marseille","lat":43.278128,"lon":5.407195,"is_reserved":false,"is_disabled":false,"rental_uris":{"android":"levelo://app?vid=59d66a0a-b392-45cf-9cfd-32926820ebdd","ios":"levelo://app?vid=59d66a0a-b392-45cf-9cfd-32926820ebdd"},"vehicle_type_id":"4","last_reported":1703228811,"current_range_meters":25200,"station_id":"ce4bhnh2rcd13ifvqgtg","pricing_plan_id":"free"},{"bike_id":"4c5533f9-37d0-4c34-9e51-5d21edfb20ad","system_id":"levelo_inurba_marseille","lat":43.278128,"lon":5.407195,"is_reserved":false,"is_disabled":false,"rental_uris":{"android":"levelo://app?vid=4c5533f9-37d0-4c34-9e51-5d21edfb20ad","ios":"levelo://app?vid=4c5533f9-37d0-4c34-9e51-5d21edfb20ad"},"vehicle_type_id":"4","last_reported":1703228811,"current_range_meters":20800,"station_id":"ce4bhnh2rcd13ifvqgtg","pricing_plan_id":"free"},{"bike_id":"a39aa9bc-9cb1-453b-ba34-c7f4c7e971f5","system_id":"levelo_inurba_marseille","lat":43.269467,"lon":5.386439,"is_reserved":false,"is_disabled":false,"rental_uris":{"android":"levelo://app?vid=a39aa9bc-9cb1-453b-ba34-c7f4c7e971f5","ios":"levelo://app?vid=a39aa9bc-9cb1-453b-ba34-c7f4c7e971f5"},"vehicle_type_id":"4","last_reported":1703228811,"current_range_meters":4800,"station_id":"ce4bhh92rcd13ifvqfh0","pricing_plan_id":"free"},{"bike_id":"41831c5f-472a-49bd-9031-3c416b5d8efa","system_id":"levelo_inurba_marseille","lat":43.26957,"lon":5.38638,"is_reserved":false,"is_disabled":false,"rental_uris":{"android":"levelo://app?vid=41831c5f-472a-49bd-9031-3c416b5d8efa","ios":"levelo://app?vid=41831c5f-472a-49bd-9031-3c416b5d8efa"},"vehicle_type_id":"4","last_reported":1703228811,"current_range_meters":28800,"station_id":"ce4bhh92rcd13ifvqfh0","pricing_plan_id":"free"},{"bike_id":"99929b7c-b898-4289-9024-3272efa70931","system_id":"levelo_inurba_marseille","lat":43.269467,"lon":5.386439,"is_reserved":false,"is_disabled":false,"rental_uris":{"android":"levelo://app?vid=99929b7c-b898-4289-9024-3272efa70931","ios":"levelo://app?vid=99929b7c-b898-4289-9024-3272efa70931"},"vehicle_type_id":"4","last_reported":1703228811,"current_range_meters":27200,"station_id":"ce4bhh92rcd13ifvqfh0","pricing_plan_id":"free"},{"bike_id":"f824c036-71d3-4390-bdc9-b0d9debb38fe","system_id":"levelo_inurba_marseille","lat":43.269467,"lon":5.386439,"is_reserved":false,"is_disabled":false,"rental_uris":{"android":"levelo://app?vid=f824c036-71d3-4390-bdc9-b0d9debb38fe","ios":"levelo://app?vid=f824c036-71d3-4390-bdc9-b0d9debb38fe"},"vehicle_type_id":"4","last_reported":1703228811,"current_range_meters":28800,"station_id":"ce4bhh92rcd13ifvqfh0","pricing_plan_id":"free"},{"bike_id":"e1b4de73-06a1-4ee1-804b-b565558b4183","system_id":"levelo_inurba_marseille","lat":43.269467,"lon":5.386439,"is_reserved":false,"is_disabled":false,"rental_uris":{"android":"levelo://app?vid=e1b4de73-06a1-4ee1-804b-b565558b4183","ios":"levelo://app?vid=e1b4de73-06a1-4ee1-804b-b565558b4183"},"vehicle_type_id":"4","last_reported":1703228811,"current_range_meters":17200,"station_id":"ce4bhh92rcd13ifvqfh0","pricing_plan_id":"free"},{"bike_id":"6b3fe9ee-f6e2-452d-9d89-057b2cb3f257","system_id":"levelo_inurba_marseille","lat":43.26955,"lon":5.38638,"is_reserved":false,"is_disabled":false,"rental_uris":{"android":"levelo://app?vid=6b3fe9ee-f6e2-452d-9d89-057b2cb3f257","ios":"levelo://app?vid=6b3fe9ee-f6e2-452d-9d89-057b2cb3f257"},"vehicle_type_id":"4","last_reported":1703228811,"current_range_meters":14400,"station_id":"ce4bhh92rcd13ifvqfh0","pricing_plan_id":"free"},{"bike_id":"f94c4cc7-cd90-422c-820c-cd1fd1c6c707","system_id":"levelo_inurba_marseille","lat":43.26954,"lon":5.38635,"is_reserved":false,"is_disabled":false,"rental_uris":{"android":"levelo://app?vid=f94c4cc7-cd90-422c-820c-cd1fd1c6c707","ios":"levelo://app?vid=f94c4cc7-cd90-422c-820c-cd1fd1c6c707"},"vehicle_type_id":"4","last_reported":1703228811,"current_range_meters":10400,"station_id":"ce4bhh92rcd13ifvqfh0","pricing_plan_id":"free"},{"bike_id":"b7a3dde3-61c0-4b41-a17a-8a6927bc420c","system_id":"levelo_inurba_marseille","lat":43.269467,"lon":5.386439,"is_reserved":false,"is_disabled":false,"rental_uris":{"android":"levelo://app?vid=b7a3dde3-61c0-4b41-a17a-8a6927bc420c","ios":"levelo://app?vid=b7a3dde3-61c0-4b41-a17a-8a6927bc420c"},"vehicle_type_id":"4","last_reported":1703228811,"current_range_meters":25600,"station_id":"ce4bhh92rcd13ifvqfh0","pricing_plan_id":"free"},{"bike_id":"61550aad-2bdf-4d69-a4fa-2735b97e3ff1","system_id":"levelo_inurba_marseille","lat":43.269467,"lon":5.386439,"is_reserved":false,"is_disabled":false,"rental_uris":{"android":"levelo://app?vid=61550aad-2bdf-4d69-a4fa-2735b97e3ff1","ios":"levelo://app?vid=61550aad-2bdf-4d69-a4fa-2735b97e3ff1"},"vehicle_type_id":"4","last_reported":1703228811,"current_range_meters":22800,"station_id":"ce4bhh92rcd13ifvqfh0","pricing_plan_id":"free"},{"bike_id":"a369d7f5-8571-4039-953c-2f7a8e311993","system_id":"levelo_inurba_marseille","lat":43.269467,"lon":5.386439,"is_reserved":false,"is_disabled":false,"rental_uris":{"android":"levelo://app?vid=a369d7f5-8571-4039-953c-2f7a8e311993","ios":"levelo://app?vid=a369d7f5-8571-4039-953c-2f7a8e311993"},"vehicle_type_id":"4","last_reported":1703228811,"current_range_meters":17600,"station_id":"ce4bhh92rcd13ifvqfh0","pricing_plan_id":"free"},{"bike_id":"017014cf-56d4-4de7-8952-68a5738436e6","system_id":"levelo_inurba_marseille","lat":43.26949,"lon":5.3864,"is_reserved":false,"is_disabled":false,"rental_uris":{"android":"levelo://app?vid=017014cf-56d4-4de7-8952-68a5738436e6","ios":"levelo://app?vid=017014cf-56d4-4de7-8952-68a5738436e6"},"vehicle_type_id":"4","last_reported":1703228811,"current_range_meters":27600,"station_id":"ce4bhh92rcd13ifvqfh0","pricing_plan_id":"free"},{"bike_id":"b0429db1-f73a-481c-ae6d-d7ba0124d7dd","system_id":"levelo_inurba_marseille","lat":43.27948,"lon":5.410439,"is_reserved":false,"is_disabled":false,"rental_uris":{"android":"levelo://app?vid=b0429db1-f73a-481c-ae6d-d7ba0124d7dd","ios":"levelo://app?vid=b0429db1-f73a-481c-ae6d-d7ba0124d7dd"},"vehicle_type_id":"4","last_reported":1703228811,"current_range_meters":30000,"station_id":"ce4bhnp2rcd13ifvqh0g","pricing_plan_id":"free"},{"bike_id":"67adabfb-7d96-4f3c-8e0d-9ac8fa75a2bb","system_id":"levelo_inurba_marseille","lat":43.269319,"lon":5.389397,"is_reserved":false,"is_disabled":false,"rental_uris":{"android":"levelo://app?vid=67adabfb-7d96-4f3c-8e0d-9ac8fa75a2bb","ios":"levelo://app?vid=67adabfb-7d96-4f3c-8e0d-9ac8fa75a2bb"},"vehicle_type_id":"4","last_reported":1703228811,"current_range_meters":25600,"station_id":"ce4bhhh2rcd13ifvqfl0","pricing_plan_id":"free"},{"bike_id":"b56c2681-3ac1-44cd-a20a-157ea1784d5b","system_id":"levelo_inurba_marseille","lat":43.27997,"lon":5.41664,"is_reserved":false,"is_disabled":false,"rental_uris":{"android":"levelo://app?vid=b56c2681-3ac1-44cd-a20a-157ea1784d5b","ios":"levelo://app?vid=b56c2681-3ac1-44cd-a20a-157ea1784d5b"},"vehicle_type_id":"4","last_reported":1703228811,"current_range_meters":24800,"station_id":"ce4bho12rcd13ifvqh1g","pricing_plan_id":"free"},{"bike_id":"ce0c4d09-c919-48d9-92ee-b40420eed1b4","system_id":"levelo_inurba_marseille","lat":43.279925,"lon":5.416649,"is_reserved":false,"is_disabled":false,"rental_uris":{"android":"levelo://app?vid=ce0c4d09-c919-48d9-92ee-b40420eed1b4","ios":"levelo://app?vid=ce0c4d09-c919-48d9-92ee-b40420eed1b4"},"vehicle_type_id":"4","last_reported":1703228811,"current_range_meters":31200,"station_id":"ce4bho12rcd13ifvqh1g","pricing_plan_id":"free"},{"bike_id":"73c210fb-a655-4271-85b4-334effb9941b","system_id":"levelo_inurba_marseille","lat":43.279881,"lon":5.416648,"is_reserved":false,"is_disabled":false,"rental_uris":{"android":"levelo://app?vid=73c210fb-a655-4271-85b4-334effb9941b","ios":"levelo://app?vid=73c210fb-a655-4271-85b4-334effb9941b"},"vehicle_type_id":"4","last_reported":1703228811,"current_range_meters":31200,"station_id":"ce4bho12rcd13ifvqh1g","pricing_plan_id":"free"},{"bike_id":"57a7d671-dfda-4301-b34c-9843199a6119","system_id":"levelo_inurba_marseille","lat":43.27985,"lon":5.41665,"is_reserved":false,"is_disabled":false,"rental_uris":{"android":"levelo://app?vid=57a7d671-dfda-4301-b34c-9843199a6119","ios":"levelo://app?vid=57a7d671-dfda-4301-b34c-9843199a6119"},"vehicle_type_id":"4","last_reported":1703228811,"current_range_meters":31200,"station_id":"ce4bho12rcd13ifvqh1g","pricing_plan_id":"free"},{"bike_id":"e14c23fe-b510-428c-a416-d139e084f2ae","system_id":"levelo_inurba_marseille","lat":43.30795,"lon":5.4352,"is_reserved":false,"is_disabled":false,"rental_uris":{"android":"levelo://app?vid=e14c23fe-b510-428c-a416-d139e084f2ae","ios":"levelo://app?vid=e14c23fe-b510-428c-a416-d139e084f2ae"},"vehicle_type_id":"4","last_reported":1703228811,"current_range_meters":31200,"station_id":"ce4bhph2rcd13ifvqheg","pricing_plan_id":"free"},{"bike_id":"e167f95a-9ba5-4e50-a62f-6573b84ae041","system_id":"levelo_inurba_marseille","lat":43.265569,"lon":5.390047,"is_reserved":false,"is_disabled":false,"rental_uris":{"android":"levelo://app?vid=e167f95a-9ba5-4e50-a62f-6573b84ae041","ios":"levelo://app?vid=e167f95a-9ba5-4e50-a62f-6573b84ae041"},"vehicle_type_id":"4","last_reported":1703228811,"current_range_meters":16800,"station_id":"ce4bhe12rcd13ifvqf30","pricing_plan_id":"free"},{"bike_id":"4a2f84db-c39c-4159-9d8d-6ba6c65c6b85","system_id":"levelo_inurba_marseille","lat":43.307974,"lon":5.435281,"is_reserved":false,"is_disabled":false,"rental_uris":{"android":"levelo://app?vid=4a2f84db-c39c-4159-9d8d-6ba6c65c6b85","ios":"levelo://app?vid=4a2f84db-c39c-4159-9d8d-6ba6c65c6b85"},"vehicle_type_id":"4","last_reported":1703228811,"current_range_meters":29600,"station_id":"ce4bhph2rcd13ifvqheg","pricing_plan_id":"free"},{"bike_id":"01ed4bd8-6343-4293-b23d-0927207a2b71","system_id":"levelo_inurba_marseille","lat":43.265569,"lon":5.390047,"is_reserved":false,"is_disabled":false,"rental_uris":{"android":"levelo://app?vid=01ed4bd8-6343-4293-b23d-0927207a2b71","ios":"levelo://app?vid=01ed4bd8-6343-4293-b23d-0927207a2b71"},"vehicle_type_id":"4","last_reported":1703228811,"current_range_meters":29200,"station_id":"ce4bhe12rcd13ifvqf30","pricing_plan_id":"free"},{"bike_id":"0ff68392-c64d-4909-8d17-168ac07e4b83","system_id":"levelo_inurba_marseille","lat":43.265569,"lon":5.390047,"is_reserved":false,"is_disabled":false,"rental_uris":{"android":"levelo://app?vid=0ff68392-c64d-4909-8d17-168ac07e4b83","ios":"levelo://app?vid=0ff68392-c64d-4909-8d17-168ac07e4b83"},"vehicle_type_id":"4","last_reported":1703228811,"current_range_meters":11600,"station_id":"ce4bhe12rcd13ifvqf30","pricing_plan_id":"free"},{"bike_id":"2ed14e54-5093-4ed6-8e1f-6346443c6768","system_id":"levelo_inurba_marseille","lat":43.26949,"lon":5.40262,"is_reserved":false,"is_disabled":false,"rental_uris":{"android":"levelo://app?vid=2ed14e54-5093-4ed6-8e1f-6346443c6768","ios":"levelo://app?vid=2ed14e54-5093-4ed6-8e1f-6346443c6768"},"vehicle_type_id":"4","last_reported":1703228811,"current_range_meters":27200,"station_id":"cjm6bp8fraef2m0cb0m0","pricing_plan_id":"free"},{"bike_id":"f9bd8812-361b-4cf8-a08f-c5df49e9a80a","system_id":"levelo_inurba_marseille","lat":43.3171,"lon":5.43701,"is_reserved":false,"is_disabled":false,"rental_uris":{"android":"levelo://app?vid=f9bd8812-361b-4cf8-a08f-c5df49e9a80a","ios":"levelo://app?vid=f9bd8812-361b-4cf8-a08f-c5df49e9a80a"},"vehicle_type_id":"4","last_reported":1703228811,"current_range_meters":16800,"station_id":"ce4bhp92rcd13ifvqhcg","pricing_plan_id":"free"},{"bike_id":"0b0c5e19-ce78-44c0-a9b5-3a785bc8569f","system_id":"levelo_inurba_marseille","lat":43.261782,"lon":5.374515,"is_reserved":false,"is_disabled":false,"rental_uris":{"android":"levelo://app?vid=0b0c5e19-ce78-44c0-a9b5-3a785bc8569f","ios":"levelo://app?vid=0b0c5e19-ce78-44c0-a9b5-3a785bc8569f"},"vehicle_type_id":"4","last_reported":1703228811,"current_range_meters":30800,"station_id":"ce4bhgp2rcd13ifvqfc0","pricing_plan_id":"free"},{"bike_id":"2e62984b-8771-47f8-8e36-d6a6f38059c0","system_id":"levelo_inurba_marseille","lat":43.317104,"lon":5.436818,"is_reserved":false,"is_disabled":false,"rental_uris":{"android":"levelo://app?vid=2e62984b-8771-47f8-8e36-d6a6f38059c0","ios":"levelo://app?vid=2e62984b-8771-47f8-8e36-d6a6f38059c0"},"vehicle_type_id":"4","last_reported":1703228811,"current_range_meters":28800,"station_id":"ce4bhp92rcd13ifvqhcg","pricing_plan_id":"free"},{"bike_id":"2d6427c7-a10a-4b24-b0a5-95d867c65295","system_id":"levelo_inurba_marseille","lat":43.317104,"lon":5.436818,"is_reserved":false,"is_disabled":false,"rental_uris":{"android":"levelo://app?vid=2d6427c7-a10a-4b24-b0a5-95d867c65295","ios":"levelo://app?vid=2d6427c7-a10a-4b24-b0a5-95d867c65295"},"vehicle_type_id":"4","last_reported":1703228811,"current_range_meters":22400,"station_id":"ce4bhp92rcd13ifvqhcg","pricing_plan_id":"free"},{"bike_id":"fea80754-0ed8-4101-9df0-e35e99a4821b","system_id":"levelo_inurba_marseille","lat":43.271833,"lon":5.409995,"is_reserved":false,"is_disabled":false,"rental_uris":{"android":"levelo://app?vid=fea80754-0ed8-4101-9df0-e35e99a4821b","ios":"levelo://app?vid=fea80754-0ed8-4101-9df0-e35e99a4821b"},"vehicle_type_id":"4","last_reported":1703228811,"current_range_meters":26800,"station_id":"ce4bhl12rcd13ifvqgf0","pricing_plan_id":"free"},{"bike_id":"b2902b78-67e3-446b-b19e-efaf3baa33fc","system_id":"levelo_inurba_marseille","lat":43.2651,"lon":5.39469,"is_reserved":false,"is_disabled":false,"rental_uris":{"android":"levelo://app?vid=b2902b78-67e3-446b-b19e-efaf3baa33fc","ios":"levelo://app?vid=b2902b78-67e3-446b-b19e-efaf3baa33fc"},"vehicle_type_id":"4","last_reported":1703228811,"current_range_meters":6000,"station_id":"ce4bhi12rcd13ifvqfq0","pricing_plan_id":"free"},