{"last_updated":1738580874,"ttl":60,"version":"2.2","data":{"bikes":[{"bike_id":"0731d36f-35c9-460b-967c-3fbdf2d55c05","system_id":"levelo_inurba_marseille","lat":43.2512,"lon":5.40378,"is_reserved":false,"is_disabled":false,"rental_uris":{"android":"levelo://app?vid=0731d36f-35c9-460b-967c-3fbdf2d55c05","ios":"levelo://app?vid=0731d36f-35c9-460b-967c-3fbdf2d55c05"},"vehicle_type_id":"4","last_reported":1738580874,"current_range_meters":38800,"station_id":"","pricing_plan_id":"cebpf4jnsgd1na2vs0mg"},{"bike_id":"0776d431-dd99-4160-8220-11561dca2bf3","system_id":"levelo_inurba_marseille","lat":43.27314,"lon":5.39112,"is_reserved":false,"is_disabled":false,"rental_uris":{"android":"levelo://app?vid=0776d431-dd99-4160-8220-11561dca2bf3","ios":"levelo://app?vid=0776d431-dd99-4160-8220-11561dca2bf3"},"vehicle_type_id":"4","last_reported":1738580874,"current_range_meters":23200,"station_id":"ce4bhgp2rcd13ifvqfe0","pricing_plan_id":"cebpf4jnsgd1na2vs0mg"},{"bike_id":"7c4f7cad-f807-480b-b434-5273c8de2bec","system_id":"levelo_inurba_marseille","lat":43.29899,"lon":5.38148,"is_reserved":false,"is_disabled":false,"rental_uris":{"android":"levelo://app?vid=7c4f7cad-f807-480b-b434-5273c8de2bec","ios":"levelo://app?vid=7c4f7cad-f807-480b-b434-5273c8de2bec"},"vehicle_type_id":"4","last_reported":1738580874,"current_range_meters":17600,"station_id":"ce4bgj12rcd13ifvqbc0","pricing_plan_id":"cebpf4jnsgd1na2vs0mg"},{"bike_id":"80dc2f71-f702-4d53-ba2b-bf89f26c9d76","system_id":"levelo_inurba_marseille","lat":43.240697,"lon":5.377753,"is_reserved":false,"is_disabled":false,"rental_uris":{"android":"levelo://app?vid=80dc2f71-f702-4d53-ba2b-bf89f26c9d76","ios":"levelo://app?vid=80dc2f71-f702-4d53-ba2b-bf89f26c9d76"},"vehicle_type_id":"4","last_reported":1738580874,"current_range_meters":39200,"station_id":"ce4bhnp2rcd13ifvqgvg","pricing_plan_id":"cebpf4jnsgd1na2vs0mg"},{"bike_id":"2545f272-4a4f-43c4-a48d-5ffac601222d","system_id":"levelo_inurba_marseille","lat":43.30181,"lon":5.38075,"is_reserved":false,"is_disabled":false,"rental_uris":{"android":"levelo://app?vid=2545f272-4a4f-43c4-a48d-5ffac601222d","ios":"levelo://app?vid=2545f272-4a4f-43c4-a48d-5ffac601222d"},"vehicle_type_id":"4","last_reported":1738580874,"current_range_meters":39200,"station_id":"ce4bgjp2rcd13ifvqbh0","pricing_plan_id":"cebpf4jnsgd1na2vs0mg"},{"bike_id":"9fefa39c-f4d4-473f-bb13-eb2c3d5947be","system_id":"levelo_inurba_marseille","lat":43.29615,"lon":5.37718,"is_reserved":false,"is_disabled":false,"rental_uris":{"android":"levelo://app?vid=9fefa39c-f4d4-473f-bb13-eb2c3d5947be","ios":"levelo://app?vid=9fefa39c-f4d4-473f-bb13-eb2c3d5947be"},"vehicle_type_id":"4","last_reported":1738580874,"current_range_meters":36000,"station_id":"ce4bgi92rcd13ifvqb90","pricing_plan_id":"cebpf4jnsgd1na2vs0mg"},{"bike_id":"50825f5a-b4f5-4ec2-ad3d-5c94d8d08151","system_id":"levelo_inurba_marseille","lat":43.25821,"lon":5.394613,"is_reserved":false,"is_disabled":false,"rental_uris":{"android":"levelo://app?vid=50825f5a-b4f5-4ec2-ad3d-5c94d8d08151","ios":"levelo://app?vid=50825f5a-b4f5-4ec2-ad3d-5c94d8d08151"},"vehicle_type_id":"4","last_reported":1738580874,"current_range_meters":14000,"station_id":"ce4bhip2rcd13ifvqft0","pricing_plan_id":"cebpf4jnsgd1na2vs0mg"},{"bike_id":"114d2e66-b8f5-4eb6-817b-e442a7ef8567","system_id":"levelo_inurba_marseille","lat":43.27325,"lon":5.39071,"is_reserved":false,"is_disabled":true,"rental_uris":{"android":"levelo://app?vid=114d2e66-b8f5-4eb6-817b-e442a7ef8567","ios":"levelo://app?vid=114d2e66-b8f5-4eb6-817b-e442a7ef8567"},"vehicle_type_id":"4","last_reported":1738580874,"current_range_meters":2000,"station_id":"ce4bhgp2rcd13ifvqfe0","pricing_plan_id":"cebpf4jnsgd1na2vs0mg"},{"bike_id":"90a58dc2-16ab-4b31-af00-5ef5ff74bbf8","system_id":"levelo_inurba_marseille","lat":43.24079,"lon":5.37749,"is_reserved":false,"is_disabled":false,"rental_uris":{"android":"levelo://app?vid=90a58dc2-16ab-4b31-af00-5ef5ff74bbf8","ios":"levelo://app?vid=90a58dc2-16ab-4b31-af00-5ef5ff74bbf8"},"vehicle_type_id":"4","last_reported":1738580874,"current_range_meters":27200,"station_id":"ce4bhah2rcd13ifvqei0","pricing_plan_id":"cebpf4jnsgd1na2vs0mg"},{"bike_id":"2a83dd27-ca69-4a99-8ce1-cf50822c47ca","system_id":"levelo_inurba_marseille","lat":43.31192,"lon":5.36871,"is_reserved":false,"is_disabled":false,"rental_uris":{"android":"levelo://app?vid=2a83dd27-ca69-4a99-8ce1-cf50822c47ca","ios":"levelo://app?vid=2a83dd27-ca69-4a99-8ce1-cf50822c47ca"},"vehicle_type_id":"4","last_reported":1738580874,"current_range_meters":39200,"station_id":"ce4bgl92rcd13ifvqbq0","pricing_plan_id":"cebpf4jnsgd1na2vs0mg"},{"bike_id":"493b93cd-78a0-499c-aada-254cf6e0b2ae","system_id":"levelo_inurba_marseille","lat":43.26569,"lon":5.39018,"is_reserved":false,"is_disabled":false,"rental_uris":{"android":"levelo://app?vid=493b93cd-78a0-499c-aada-254cf6e0b2ae","ios":"levelo://app?vid=493b93cd-78a0-499c-aada-254cf6e0b2ae"},"vehicle_type_id":"4","last_reported":1738580874,"current_range_meters":26800,"station_id":"ce4bhe12rcd13ifvqf30","pricing_plan_id":"cebpf4jnsgd1na2vs0mg"},{"bike_id":"ca266a08-b1c5-4fbb-a2ee-3148f6d194c9","system_id":"levelo_inurba_marseille","lat":43.29246,"lon":5.36594,"is_reserved":false,"is_disabled":false,"rental_uris":{"android":"levelo://app?vid=ca266a08-b1c5-4fbb-a2ee-3148f6d194c9","ios":"levelo://app?vid=ca266a08-b1c5-4fbb-a2ee-3148f6d194c9"},"vehicle_type_id":"4","last_reported":1738580874,"current_range_meters":30800,"station_id":"","pricing_plan_id":"cebpf4jnsgd1na2vs0mg"},{"bike_id":"e028bef9-de68-41b8-97d0-a5d118a020b1","system_id":"levelo_inurba_marseille","lat":43.27062,"lon":5.4026,"is_reserved":false,"is_disabled":false,"rental_uris":{"android":"levelo://app?vid=e028bef9-de68-41b8-97d0-a5d118a020b1","ios":"levelo://app?vid=e028bef9-de68-41b8-97d0-a5d118a020b1"},"vehicle_type_id":"4","last_reported":1738580874,"current_range_meters":8800,"station_id":"ce4bhk92rcd13ifvqgc0","pricing_plan_id":"cebpf4jnsgd1na2vs0mg"},{"bike_id":"a9701041-4785-45b6-94b9-7e78b2a3068e","system_id":"levelo_inurba_marseille","lat":43.25078,"lon":5.40333,"is_reserved":false,"is_disabled":false,"rental_uris":{"android":"levelo://app?vid=a9701041-4785-45b6-94b9-7e78b2a3068e","ios":"levelo://app?vid=a9701041-4785-45b6-94b9-7e78b2a3068e"},"vehicle_type_id":"4","last_reported":1738580874,"current_range_meters":28000,"station_id":"ce4bhlh2rcd13ifvqgig","pricing_plan_id":"cebpf4jnsgd1na2vs0mg"},{"bike_id":"39fe4d38-0e6b-4ea1-b4af-c92b785fbb3f","system_id":"levelo_inurba_marseille","lat":43.30544,"lon":5.36553,"is_reserved":false,"is_disabled":false,"rental_uris":{"android":"levelo://app?vid=39fe4d38-0e6b-4ea1-b4af-c92b785fbb3f","ios":"levelo://app?vid=39fe4d38-0e6b-4ea1-b4af-c92b785fbb3f"},"vehicle_type_id":"4","last_reported":1738580874,"current_range_meters":38800,"station_id":"ce4bgs12rcd13ifvqcag","pricing_plan_id":"cebpf4jnsgd1na2vs0mg"},{"bike_id":"1abd4c10-fb00-4948-9735-5c7e538916f7","system_id":"levelo_inurba_marseille","lat":43.33002,"lon":5.3797,"is_reserved":false,"is_disabled":false,"rental_uris":{"android":"levelo://app?vid=1abd4c10-fb00-4948-9735-5c7e538916f7","ios":"levelo://app?vid=1abd4c10-fb00-4948-9735-5c7e538916f7"},"vehicle_type_id":"4","last_reported":1738580874,"current_range_meters":38800,"station_id":"","pricing_plan_id":"cebpf4jnsgd1na2vs0mg"},{"bike_id":"e5112971-9a58-4249-a0ec-46eb63b46e3d","system_id":"levelo_inurba_marseille","lat":43.30914,"lon":5.36859,"is_reserved":false,"is_disabled":false,"rental_uris":{"android":"levelo://app?vid=e5112971-9a58-4249-a0ec-46eb63b46e3d","ios":"levelo://app?vid=e5112971-9a58-4249-a0ec-46eb63b46e3d"},"vehicle_type_id":"4","last_reported":1738580874,"current_range_meters":19600,"station_id":"ce4bgn92rcd13ifvqbvg","pricing_plan_id":"cebpf4jnsgd1na2vs0mg"},{"bike_id":"46d57953-5a8b-4a73-a05f-e65f22d873c6","system_id":"levelo_inurba_marseille","lat":43.27066,"lon":5.40256,"is_reserved":false,"is_disabled":false,"rental_uris":{"android":"levelo://app?vid=46d57953-5a8b-4a73-a05f-e65f22d873c6","ios":"levelo://app?vid=46d57953-5a8b-4a73-a05f-e65f22d873c6"},"vehicle_type_id":"4","last_reported":1738580874,"current_range_meters":36800,"station_id":"ce4bhk92rcd13ifvqgc0","pricing_plan_id":"cebpf4jnsgd1na2vs0mg"},{"bike_id":"13f21abd-1018-4d5c-9836-de1f7aefa927","system_id":"levelo_inurba_marseille","lat":43.29702,"lon":5.37695,"is_reserved":false,"is_disabled":false,"rental_uris":{"android":"levelo://app?vid=13f21abd-1018-4d5c-9836-de1f7aefa927","ios":"levelo://app?vid=13f21abd-1018-4d5c-9836-de1f7aefa927"},"vehicle_type_id":"4","last_reported":1738580874,"current_range_meters":37600,"station_id":"ce4bgkh2rcd13ifvqbl0","pricing_plan_id":"cebpf4jnsgd1na2vs0mg"},{"bike_id":"fc2c2534-6b38-404c-91a0-095506c82e66","system_id":"levelo_inurba_marseille","lat":43.269448,"lon":5.402505,"is_reserved":false,"is_disabled":false,"rental_uris":{"android":"levelo://app?vid=fc2c2534-6b38-404c-91a0-095506c82e66","ios":"levelo://app?vid=fc2c2534-6b38-404c-91a0-095506c82e66"},"vehicle_type_id":"4","last_reported":1738580874,"current_range_meters":38000,"station_id":"cjm6bp8fraef2m0cb0m0","pricing_plan_id":"cebpf4jnsgd1na2vs0mg"},{"bike_id":"e251818a-7272-49e4-8fd8-978fec9fd5e4","system_id":"levelo_inurba_marseille","lat":43.30802,"lon":5.38146,"is_reserved":false,"is_disabled":false,"rental_uris":{"android":"levelo://app?vid=e251818a-7272-49e4-8fd8-978fec9fd5e4","ios":"levelo://app?vid=e251818a-7272-49e4-8fd8-978fec9fd5e4"},"vehicle_type_id":"4","last_reported":1738580874,"current_range_meters":19600,"station_id":"ce4bgt12rcd13ifvqce0","pricing_plan_id":"cebpf4jnsgd1na2vs0mg"},{"bike_id":"4255d86f-6cd2-4c78-b044-c18b3a57a600","system_id":"levelo_inurba_marseille","lat":43.26921,"lon":5.40244,"is_reserved":false,"is_disabled":false,"rental_uris":{"android":"levelo://app?vid=4255d86f-6cd2-4c78-b044-c18b3a57a600","ios":"levelo://app?vid=4255d86f-6cd2-4c78-b044-c18b3a57a600"},"vehicle_type_id":"4","last_reported":1738580874,"current_range_meters":37600,"station_id":"cjm6bp8fraef2m0cb0m0","pricing_plan_id":"cebpf4jnsgd1na2vs0mg"},{"bike_id":"49d702a3-2f94-4939-8d0c-bbe18c7c2959","system_id":"levelo_inurba_marseille","lat":43.30295,"lon":5.37711,"is_reserved":false,"is_disabled":false,"rental_uris":{"android":"levelo://app?vid=49d702a3-2f94-4939-8d0c-bbe18c7c2959","ios":"levelo://app?vid=49d702a3-2f94-4939-8d0c-bbe18c7c2959"},"vehicle_type_id":"4","last_reported":1738580874,"current_range_meters":38800,"station_id":"ce4bguh2rcd13ifvqcj0","pricing_plan_id":"cebpf4jnsgd1na2vs0mg"},{"bike_id":"2299b9ff-7498-486b-959b-1032bbdd6a20","system_id":"levelo_inurba_marseille","lat":43.32476,"lon":5.36566,"is_reserved":false,"is_disabled":false,"rental_uris":{"android":"levelo://app?vid=2299b9ff-7498-486b-959b-1032bbdd6a20","ios":"levelo://app?vid=2299b9ff-7498-486b-959b-1032bbdd6a20"},"vehicle_type_id":"4","last_reported":1738580874,"current_range_meters":22000,"station_id":"ce4bhs12rcd13ifvqhvg","pricing_plan_id":"cebpf4jnsgd1na2vs0mg"},{"bike_id":"3e574816-3754-460d-8072-f6ebe3757ea0","system_id":"levelo_inurba_marseille","lat":43.32366,"lon":5.36771,"is_reserved":false,"is_disabled":false,"rental_uris":{"android":"levelo://app?vid=3e574816-3754-460d-8072-f6ebe3757ea0","ios":"levelo://app?vid=3e574816-3754-460d-8072-f6ebe3757ea0"},"vehicle_type_id":"4","last_reported":1738580874,"current_range_meters":23200,"station_id":"ce4bhsh2rcd13ifvqi2g","pricing_plan_id":"cebpf4jnsgd1na2vs0mg"},{"bike_id":"73c5adb8-0998-4854-bb2c-683f7adc0ad5","system_id":"levelo_inurba_marseille","lat":43.32459,"lon":5.36603,"is_reserved":false,"is_disabled":false,"rental_uris":{"android":"levelo://app?vid=73c5adb8-0998-4854-bb2c-683f7adc0ad5","ios":"levelo://app?vid=73c5adb8-0998-4854-bb2c-683f7adc0ad5"},"vehicle_type_id":"4","last_reported":1738580874,"current_range_meters":27600,"station_id":"ce4bhs12rcd13ifvqhvg","pricing_plan_id":"cebpf4jnsgd1na2vs0mg"},{"bike_id":"572ac798-e882-4a8e-9dad-53cc794f05ee","system_id":"levelo_inurba_marseille","lat":43.25117,"lon":5.40321,"is_reserved":false,"is_disabled":false,"rental_uris":{"android":"levelo://app?vid=572ac798-e882-4a8e-9dad-53cc794f05ee","ios":"levelo://app?vid=572ac798-e882-4a8e-9dad-53cc794f05ee"},"vehicle_type_id":"4","last_reported":1738580874,"current_range_meters":26800,"station_id":"ce4bhlh2rcd13ifvqgig","pricing_plan_id":"cebpf4jnsgd1na2vs0mg"},{"bike_id":"a1a7079b-68b5-45ca-9af8-b6bc9f7cd559","system_id":"levelo_inurba_marseille","lat":43.229323,"lon":5.353728,"is_reserved":false,"is_disabled":false,"rental_uris":{"android":"levelo://app?vid=a1a7079b-68b5-45ca-9af8-b6bc9f7cd559","ios":"levelo://app?vid=a1a7079b-68b5-45ca-9af8-b6bc9f7cd559"},"vehicle_type_id":"4","last_reported":1738580874,"current_range_meters":38800,"station_id":"cpo3532slgdg3j2ikp40","pricing_plan_id":"cebpf4jnsgd1na2vs0mg"},{"bike_id":"a56d8de7-eb82-4109-89b5-fd252b2b3b9d","system_id":"levelo_inurba_marseille","lat":43.27518,"lon":5.38418,"is_reserved":false,"is_disabled":false,"rental_uris":{"android":"levelo://app?vid=a56d8de7-eb82-4109-89b5-fd252b2b3b9d","ios":"levelo://app?vid=a56d8de7-eb82-4109-89b5-fd252b2b3b9d"},"vehicle_type_id":"4","last_reported":1738580874,"current_range_meters":37600,"station_id":"ce4bhh92rcd13ifvqfi0","pricing_plan_id":"cebpf4jnsgd1na2vs0mg"},{"bike_id":"056e141c-7dba-4b79-94dd-280cafc47f05","system_id":"levelo_inurba_marseille","lat":43.3096,"lon":5.39042,"is_reserved":false,"is_disabled":false,"rental_uris":{"android":"levelo://app?vid=056e141c-7dba-4b79-94dd-280cafc47f05","ios":"levelo://app?vid=056e141c-7dba-4b79-94dd-280cafc47f05"},"vehicle_type_id":"4","last_reported":1738580874,"current_range_meters":38800,"station_id":"ce4bgup2rcd13ifvqco0","pricing_plan_id":"cebpf4jnsgd1na2vs0mg"},{"bike_id":"5d02fff2-5ddc-4e52-9b7b-a9fa516519c0","system_id":"levelo_inurba_marseille","lat":43.30329,"lon":5.39457,"is_reserved":false,"is_disabled":false,"rental_uris":{"android":"levelo://app?vid=5d02fff2-5ddc-4e52-9b7b-a9fa516519c0","ios":"levelo://app?vid=5d02fff2-5ddc-4e52-9b7b-a9fa516519c0"},"vehicle_type_id":"4","last_reported":1738580874,"current_range_meters":16000,"station_id":"ce4bh0p2rcd13ifvqd70","pricing_plan_id":"cebpf4jnsgd1na2vs0mg"},{"bike_id":"91a36b23-3920-4ab3-a9bb-486f6c925024","system_id":"levelo_inurba_marseille","lat":43.2846,"lon":5.359,"is_reserved":false,"is_disabled":false,"rental_uris":{"android":"levelo://app?vid=91a36b23-3920-4ab3-a9bb-486f6c925024","ios":"levelo://app?vid=91a36b23-3920-4ab3-a9bb-486f6c925024"},"vehicle_type_id":"4","last_reported":1738580874,"current_range_meters":14800,"station_id":"ce4bhah2rcd13ifvqei0","pricing_plan_id":"cebpf4jnsgd1na2vs0mg"},{"bike_id":"1e80229c-3730-4f6a-ad92-db35f7d75e3d","system_id":"levelo_inurba_marseille","lat":43.25028,"lon":5.38937,"is_reserved":false,"is_disabled":false,"rental_uris":{"android":"levelo://app?vid=1e80229c-3730-4f6a-ad92-db35f7d75e3d","ios":"levelo://app?vid=1e80229c-3730-4f6a-ad92-db35f7d75e3d"},"vehicle_type_id":"4","last_reported":1738580874,"current_range_meters":38000,"station_id":"ce4bhgp2rcd13ifvqfd0","pricing_plan_id":"cebpf4jnsgd1na2vs0mg"},{"bike_id":"db5d6073-32f1-4abf-9979-022d62fe0a59","system_id":"levelo_inurba_marseille","lat":43.29929,"lon":5.36544,"is_reserved":false,"is_disabled":false,"rental_uris":{"android":"levelo://app?vid=db5d6073-32f1-4abf-9979-022d62fe0a59","ios":"levelo://app?vid=db5d6073-32f1-4abf-9979-022d62fe0a59"},"vehicle_type_id":"4","last_reported":1738580874,"current_range_meters":37600,"station_id":"ce4bgm92rcd13ifvqbr0","pricing_plan_id":"cebpf4jnsgd1na2vs0mg"},{"bike_id":"b2a6436f-4c95-46dd-a3bd-6af91e9591d2","system_id":"levelo_inurba_marseille","lat":43.25599,"lon":5.3824,"is_reserved":false,"is_disabled":false,"rental_uris":{"android":"levelo://app?vid=b2a6436f-4c95-46dd-a3bd-6af91e9591d2","ios":"levelo://app?vid=b2a6436f-4c95-46dd-a3bd-6af91e9591d2"},"vehicle_type_id":"4","last_reported":1738580874,"current_range_meters":24800,"station_id":"ce4bhih2rcd13ifvqfs0","pricing_plan_id":"cebpf4jnsgd1na2vs0mg"},{"bike_id":"c5f983df-532f-41d0-9fae-6e40c9dc53ba","system_id":"levelo_inurba_marseille","lat":43.27995,"lon":5.41661,"is_reserved":false,"is_disabled":true,"rental_uris":{"android":"levelo://app?vid=c5f983df-532f-41d0-9fae-6e40c9dc53ba","ios":"levelo://app?vid=c5f983df-532f-41d0-9fae-6e40c9dc53ba"},"vehicle_type_id":"4","last_reported":1738580874,"current_range_meters":0,"station_id":"ce4bho12rcd13ifvqh1g","pricing_plan_id":"cebpf4jnsgd1na2vs0mg"},{"bike_id":"7758342d-6ad1-4394-abb2-929ac23ea185","system_id":"levelo_inurba_marseille","lat":43.23192,"lon":5.3999,"is_reserved":false,"is_disabled":false,"rental_uris":{"android":"levelo://app?vid=7758342d-6ad1-4394-abb2-929ac23ea185","ios":"levelo://app?vid=7758342d-6ad1-4394-abb2-929ac23ea185"},"vehicle_type_id":"4","last_reported":1738580874,"current_range_meters":25200,"station_id":"ce4bhn12rcd13ifvqgqg","pricing_plan_id":"cebpf4jnsgd1na2vs0mg"},{"bike_id":"e3cfeb5a-9d21-412c-be20-0ee979654d92","system_id":"levelo_inurba_marseille","lat":43.25119,"lon":5.4032,"is_reserved":false,"is_disabled":false,"rental_uris":{"android":"levelo://app?vid=e3cfeb5a-9d21-412c-be20-0ee979654d92","ios":"levelo://app?vid=e3cfeb5a-9d21-412c-be20-0ee979654d92"},"vehicle_type_id":"4","last_reported":1738580874,"current_range_meters":17600,"station_id":"ce4bhlh2rcd13ifvqgig","pricing_plan_id":"cebpf4jnsgd1na2vs0mg"},{"bike_id":"5d51435c-d23e-42e7-a4c0-6e969e5d0e0c","system_id":"levelo_inurba_marseille","lat":43.23158,"lon":5.43714,"is_reserved":false,"is_disabled":false,"rental_uris":{"android":"levelo://app?vid=5d51435c-d23e-42e7-a4c0-6e969e5d0e0c","ios":"levelo://app?vid=5d51435c-d23e-42e7-a4c0-6e969e5d0e0c"},"vehicle_type_id":"4","last_reported":1738580874,"current_range_meters":27600,"station_id":"ce4bhmp2rcd13ifvqgog","pricing_plan_id":"cebpf4jnsgd1na2vs0mg"},{"bike_id":"1a794636-1de8-48ff-a1bf-f41557cb147d","system_id":"levelo_inurba_marseille","lat":43.34613,"lon":5.38077,"is_reserved":false,"is_disabled":false,"rental_uris":{"android":"levelo://app?vid=1a794636-1de8-48ff-a1bf-f41557cb147d","ios":"levelo://app?vid=1a794636-1de8-48ff-a1bf-f41557cb147d"},"vehicle_type_id":"4","last_reported":1738580874,"current_range_meters":18800,"station_id":"","pricing_plan_id":"cebpf4jnsgd1na2vs0mg"},{"bike_id":"949312ea-8b02-467b-869d-262aeb11ad9b","system_id":"levelo_inurba_marseille","lat":43.27966,"lon":5.38725,"is_reserved":false,"is_disabled":false,"rental_uris":{"android":"levelo://app?vid=949312ea-8b02-467b-869d-262aeb11ad9b","ios":"levelo://app?vid=949312ea-8b02-467b-869d-262aeb11ad9b"},"vehicle_type_id":"4","last_reported":1738580874,"current_range_meters":33200,"station_id":"ce4bhg12rcd13ifvqf80","pricing_plan_id":"cebpf4jnsgd1na2vs0mg"},{"bike_id":"e91e478a-47ec-487d-bb91-df4ffea5e274","system_id":"levelo_inurba_marseille","lat":43.29723,"lon":5.37703,"is_reserved":false,"is_disabled":false,"rental_uris":{"android":"levelo://app?vid=e91e478a-47ec-487d-bb91-df4ffea5e274","ios":"levelo://app?vid=e91e478a-47ec-487d-bb91-df4ffea5e274"},"vehicle_type_id":"4","last_reported":1738580874,"current_range_meters":39200,"station_id":"ce4bgkh2rcd13ifvqbl0","pricing_plan_id":"cebpf4jnsgd1na2vs0mg"},{"bike_id":"8724a024-536e-4aa1-99c7-97f6e2d43823","system_id":"levelo_inurba_marseille","lat":43.297294,"lon":5.377015,"is_reserved":false,"is_disabled":false,"rental_uris":{"android":"levelo://app?vid=8724a024-536e-4aa1-99c7-97f6e2d43823","ios":"levelo://app?vid=8724a024-536e-4aa1-99c7-97f6e2d43823"},"vehicle_type_id":"4","last_reported":1738580874,"current_range_meters":22400,"station_id":"ce4bgkh2rcd13ifvqbl0","pricing_plan_id":"cebpf4jnsgd1na2vs0mg"},{"bike_id":"07e8078e-6ef2-4eda-ab79-ff78fca89654","system_id":"levelo_inurba_marseille","lat":43.30946,"lon":5.39028,"is_reserved":false,"is_disabled":false,"rental_uris":{"android":"levelo://app?vid=07e8078e-6ef2-4eda-ab79-ff78fca89654","ios":"levelo://app?vid=07e8078e-6ef2-4eda-ab79-ff78fca89654"},"vehicle_type_id":"4","last_reported":1738580874,"current_range_meters":33200,"station_id":"ce4bgup2rcd13ifvqco0","pricing_plan_id":"cebpf4jnsgd1na2vs0mg"},{"bike_id":"146cd1d7-428c-4691-bafc-a60fb397cefd","system_id":"levelo_inurba_marseille","lat":43.30284,"lon":5.37711,"is_reserved":false,"is_disabled":false,"rental_uris":{"android":"levelo://app?vid=146cd1d7-428c-4691-bafc-a60fb397cefd","ios":"levelo://app?vid=146cd1d7-428c-4691-bafc-a60fb397cefd"},"vehicle_type_id":"4","last_reported":1738580874,"current_range_meters":19200,"station_id":"ce4bguh2rcd13ifvqcj0","pricing_plan_id":"cebpf4jnsgd1na2vs0mg"},{"bike_id":"0df62ab4-7a82-4bdd-bb55-9793b6fbc878","system_id":"levelo_inurba_marseille","lat":43.28154,"lon":5.42649,"is_reserved":false,"is_disabled":false,"rental_uris":{"android":"levelo://app?vid=0df62ab4-7a82-4bdd-bb55-9793b6fbc878","ios":"levelo://app?vid=0df62ab4-7a82-4bdd-bb55-9793b6fbc878"},"vehicle_type_id":"4","last_reported":1738580874,"current_range_meters":9200,"station_id":"ce4bhnh2rcd13ifvqgug","pricing_plan_id":"cebpf4jnsgd1na2vs0mg"},{"bike_id":"9dc65d03-0a47-4f38-9046-abdeedf1079b","system_id":"levelo_inurba_marseille","lat":43.29745,"lon":5.37688,"is_reserved":false,"is_disabled":false,"rental_uris":{"android":"levelo://app?vid=9dc65d03-0a47-4f38-9046-abdeedf1079b","ios":"levelo://app?vid=9dc65d03-0a47-4f38-9046-abdeedf1079b"},"vehicle_type_id":"4","last_reported":1738580874,"current_range_meters":16800,"station_id":"ce4bgkh2rcd13ifvqbl0","pricing_plan_id":"cebpf4jnsgd1na2vs0mg"},{"bike_id":"70db77fa-5101-4cc3-b5ef-7ecd27e20697","system_id":"levelo_inurba_marseille","lat":43.23068,"lon":5.35493,"is_reserved":false,"is_disabled":false,"rental_uris":{"android":"levelo://app?vid=70db77fa-5101-4cc3-b5ef-7ecd27e20697","ios":"levelo://app?vid=70db77fa-5101-4cc3-b5ef-7ecd27e20697"},"vehicle_type_id":"4","last_reported":1738580874,"current_range_meters":28000,"station_id":"cpo3342slgdg3j2ifvpg","pricing_plan_id":"cebpf4jnsgd1na2vs0mg"},{"bike_id":"e33c097b-83d0-40ec-9fbf-364e5b0a9ef8","system_id":"levelo_inurba_marseille","lat":43.23195,"lon":5.35548,"is_reserved":false,"is_disabled":false,"rental_uris":{"android":"levelo://app?vid=e33c097b-83d0-40ec-9fbf-364e5b0a9ef8","ios":"levelo://app?vid=e33c097b-83d0-40ec-9fbf-364e5b0a9ef8"},"vehicle_type_id":"4","last_reported":1738580874,"current_range_meters":39200,"station_id":"ce4bhu92rcd13ifvqi70","pricing_plan_id":"cebpf4jnsgd1na2vs0mg"},{"bike_id":"77581886-2b48-4244-8619-46e5ddf98f45","system_id":"levelo_inurba_marseille","lat":43.27955,"lon":5.41055,"is_reserved":false,"is_disabled":false,"rental_uris":{"android":"levelo://app?vid=77581886-2b48-4244-8619-46e5ddf98f45","ios":"levelo://app?vid=77581886-2b48-4244-8619-46e5ddf98f45"},"vehicle_type_id":"4","last_reported":1738580874,"current_range_meters":28400,"station_id":"ce4bhnp2rcd13ifvqh0g","pricing_plan_id":"cebpf4jnsgd1na2vs0mg"},{"bike_id":"30ce9219-49f6-4265-8c61-5ad770803c8b","system_id":"levelo_inurba_marseille","lat":43.30471,"lon":5.37904,"is_reserved":false,"is_disabled":false,"rental_uris":{"android":"levelo://app?vid=30ce9219-49f6-4265-8c61-5ad770803c8b","ios":"levelo://app?vid=30ce9219-49f6-4265-8c61-5ad770803c8b"},"vehicle_type_id":"4","last_reported":1738580874,"current_range_meters":16800,"station_id":"ce4bgup2rcd13ifvqcn0","pricing_plan_id":"cebpf4jnsgd1na2vs0mg"},{"bike_id":"a9fdbc95-fd29-4085-a072-97811a20d42b","system_id":"levelo_inurba_marseille","lat":43.30965,"lon":5.39072,"is_reserved":false,"is_disabled":false,"rental_uris":{"android":"levelo://app?vid=a9fdbc95-fd29-4085-a072-97811a20d42b","ios":"levelo://app?vid=a9fdbc95-fd29-4085-a072-97811a20d42b"},"vehicle_type_id":"4","last_reported":1738580874,"current_range_meters":38800,"station_id":"ce4bgup2rcd13ifvqco0","pricing_plan_id":"cebpf4jnsgd1na2vs0mg"},{"bike_id":"f916c3cd-9f23-4737-b19c-9c4b6bf16160","system_id":"levelo_inurba_marseille","lat":43.30171,"lon":5.3809,"is_reserved":false,"is_disabled":false,"rental_uris":{"android":"levelo://app?vid=f916c3cd-9f23-4737-b19c-9c4b6bf16160","ios":"levelo://app?vid=f916c3cd-9f23-4737-b19c-9c4b6bf16160"},"vehicle_type_id":"4","last_reported":1738580874,"current_range_meters":36000,"station_id":"ce4bgjp2rcd13ifvqbh0","pricing_plan_id":"cebpf4jnsgd1na2vs0mg"},{"bike_id":"88a9606f-57eb-4ada-bcd9-9d189bfeae6e","system_id":"levelo_inurba_marseille","lat":43.31351,"lon":5.36714,"is_reserved":false,"is_disabled":false,"rental_uris":{"android":"levelo://app?vid=88a9606f-57eb-4ada-bcd9-9d189bfeae6e","ios":"levelo://app?vid=88a9606f-57eb-4ada-bcd9-9d189bfeae6e"},"vehicle_type_id":"4","last_reported":1738580874,"current_range_meters":16000,"station_id":"ce4bgr92rcd13ifvqc6g","pricing_plan_id":"cebpf4jnsgd1na2vs0mg"},{"bike_id":"79350486-42a5-4412-ad61-1c973067a717","system_id":"levelo_inurba_marseille","lat":43.25713,"lon":5.41093,"is_reserved":false,"is_disabled":false,"rental_uris":{"android":"levelo://app?vid=79350486-42a5-4412-ad61-1c973067a717","ios":"levelo://app?vid=79350486-42a5-4412-ad61-1c973067a717"},"vehicle_type_id":"4","last_reported":1738580874,"current_range_meters":14800,"station_id":"ce4bhkp2rcd13ifvqgd0","pricing_plan_id":"cebpf4jnsgd1na2vs0mg"},{"bike_id":"ab44448e-d593-46f8-8440-995166ebe40e","system_id":"levelo_inurba_marseille","lat":43.23187,"lon":5.39983,"is_reserved":false,"is_disabled":false,"rental_uris":{"android":"levelo://app?vid=ab44448e-d593-46f8-8440-995166ebe40e","ios":"levelo://app?vid=ab44448e-d593-46f8-8440-995166ebe40e"},"vehicle_type_id":"4","last_reported":1738580874,"current_range_meters":38000,"station_id":"ce4bhn12rcd13ifvqgqg","pricing_plan_id":"cebpf4jnsgd1na2vs0mg"},{"bike_id":"965eadaa-c150-4624-b3c2-7d3c174bc6b8","system_id":"levelo_inurba_marseille","lat":43.29228,"lon":5.36095,"is_reserved":false,"is_disabled":false,"rental_uris":{"android":"levelo://app?vid=965eadaa-c150-4624-b3c2-7d3c174bc6b8","ios":"levelo://app?vid=965eadaa-c150-4624-b3c2-7d3c174bc6b8"},"vehicle_type_id":"4","last_reported":1738580874,"current_range_meters":5600,"station_id":"ce4bhbh2rcd13ifvqeqg","pricing_plan_id":"cebpf4jnsgd1na2vs0mg"},{"bike_id":"de27dfc9-f2fb-4778-8226-69a993c0eb2e","system_id":"levelo_inurba_marseille","lat":43.24541,"lon":5.3954,"is_reserved":false,"is_disabled":false,"rental_uris":{"android":"levelo://app?vid=de27dfc9-f2fb-4778-8226-69a993c0eb2e","ios":"levelo://app?vid=de27dfc9-f2fb-4778-8226-69a993c0eb2e"},"vehicle_type_id":"4","last_reported":1738580874,"current_range_meters":38800,"station_id":"ce4bhlp2rcd13ifvqgjg","pricing_plan_id":"cebpf4jnsgd1na2vs0mg"},{"bike_id":"308a12cc-fd89-42c6-baa4-476a6d456962","system_id":"levelo_inurba_marseille","lat":43.34124,"lon":5.40924,"is_reserved":false,"is_disabled":false,"rental_uris":{"android":"levelo://app?vid=308a12cc-fd89-42c6-baa4-476a6d456962","ios":"levelo://app?vid=308a12cc-fd89-42c6-baa4-476a6d456962"},"vehicle_type_id":"4","last_reported":1738580874,"current_range_meters":38800,"station_id":"ce4bhqh2rcd13ifvqhlg","pricing_plan_id":"cebpf4jnsgd1na2vs0mg"},{"bike_id":"053b7c86-8fa2-42a0-8ea3-d5126e8cd464","system_id":"levelo_inurba_marseille","lat":43.28142,"lon":5.42641,"is_reserved":false,"is_disabled":false,"rental_uris":{"android":"levelo://app?vid=053b7c86-8fa2-42a0-8ea3-d5126e8cd464","ios":"levelo://app?vid=053b7c86-8fa2-42a0-8ea3-d5126e8cd464"},"vehicle_type_id":"4","last_reported":1738580874,"current_range_meters":30000,"station_id":"ce4bhnh2rcd13ifvqgug","pricing_plan_id":"cebpf4jnsgd1na2vs0mg"},{"bike_id":"7478391c-ffa7-4c75-8e13-17ae0b7d94b8","system_id":"levelo_inurba_marseille","lat":43.31159,"lon":5.38734,"is_reserved":false,"is_disabled":false,"rental_uris":{"android":"levelo://app?vid=7478391c-ffa7-4c75-8e13-17ae0b7d94b8","ios":"levelo://app?vid=7478391c-ffa7-4c75-8e13-17ae0b7d94b8"},"vehicle_type_id":"4","last_reported":1738580874,"current_range_meters":6800,"station_id":"ce4bgv12rcd13ifvqcp0","pricing_plan_id":"cebpf4jnsgd1na2vs0mg"},{"bike_id":"2852fe06-4fd0-4b90-b60b-75ab02359f10","system_id":"levelo_inurba_marseille","lat":43.3362,"lon":5.41046,"is_reserved":false,"is_disabled":false,"rental_uris":{"android":"levelo://app?vid=2852fe06-4fd0-4b90-b60b-75ab02359f10","ios":"levelo://app?vid=2852fe06-4fd0-4b90-b60b-75ab02359f10"},"vehicle_type_id":"4","last_reported":1738580874,"current_range_meters":17600,"station_id":"ce4bhqh2rcd13ifvqhmg","pricing_plan_id":"cebpf4jnsgd1na2vs0mg"},{"bike_id":"89887b4f-d13d-48c5-baf0-23a3ebf8279c","system_id":"levelo_inurba_marseille","lat":43.24079,"lon":5.37755,"is_reserved":false,"is_disabled":false,"rental_uris":{"android":"levelo://app?vid=89887b4f-d13d-48c5-baf0-23a3ebf8279c","ios":"levelo://app?vid=89887b4f-d13d-48c5-baf0-23a3ebf8279c"},"vehicle_type_id":"4","last_reported":1738580874,"current_range_meters":38000,"station_id":"ce4bhnp2rcd13ifvqgvg","pricing_plan_id":"cebpf4jnsgd1na2vs0mg"},{"bike_id":"e5ca3338-c1c9-4609-8e95-b66c9645fbe3","system_id":"levelo_inurba_marseille","lat":43.29379,"lon":5.37852,"is_reserved":false,"is_disabled":false,"rental_uris":{"android":"levelo://app?vid=e5ca3338-c1c9-4609-8e95-b66c9645fbe3","ios":"levelo://app?vid=e5ca3338-c1c9-4609-8e95-b66c9645fbe3"},"vehicle_type_id":"4","last_reported":1738580874,"current_range_meters":24800,"station_id":"ce4bgjh2rcd13ifvqbf0","pricing_plan_id":"cebpf4jnsgd1na2vs0mg"},{"bike_id":"f11526db-3742-4791-8179-84fbf726055d","system_id":"levelo_inurba_marseille","lat":43.29009,"lon":5.35603,"is_reserved":false,"is_disabled":false,"rental_uris":{"android":"levelo://app?vid=f11526db-3742-4791-8179-84fbf726055d","ios":"levelo://app?vid=f11526db-3742-4791-8179-84fbf726055d"},"vehicle_type_id":"4","last_reported":1738580874,"current_range_meters":37600,"station_id":"ce4bhb92rcd13ifvqen0","pricing_plan_id":"cebpf4jnsgd1na2vs0mg"},{"bike_id":"08bf2318-f905-4e83-9fcd-190d94f54ce1","system_id":"levelo_inurba_marseille","lat":43.30882,"lon":5.39659,"is_reserved":false,"is_disabled":false,"rental_uris":{"android":"levelo://app?vid=08bf2318-f905-4e83-9fcd-190d94f54ce1","ios":"levelo://app?vid=08bf2318-f905-4e83-9fcd-190d94f54ce1"},"vehicle_type_id":"4","last_reported":1738580874,"current_range_meters":36800,"station_id":"ce4bh012rcd13ifvqcv0","pricing_plan_id":"cebpf4jnsgd1na2vs0mg"},{"bike_id":"bf30ae23-6ab7-46f8-9c2c-05837f9d09d5","system_id":"levelo_inurba_marseille","lat":43.30128,"lon":5.39854,"is_reserved":false,"is_disabled":false,"rental_uris":{"android":"levelo://app?vid=bf30ae23-6ab7-46f8-9c2c-05837f9d09d5","ios":"levelo://app?vid=bf30ae23-6ab7-46f8-9c2c-05837f9d09d5"},"vehicle_type_id":"4","last_reported":1738580874,"current_range_meters":28800,"station_id":"ce4bh0h2rcd13ifvqd40","pricing_plan_id":"cebpf4jnsgd1na2vs0mg"},{"bike_id":"7026ebfa-7f40-4e89-8b01-97c05f12b82e","system_id":"levelo_inurba_marseille","lat":43.3064,"lon":5.39653,"is_reserved":false,"is_disabled":false,"rental_uris":{"android":"levelo://app?vid=7026ebfa-7f40-4e89-8b01-97c05f12b82e","ios":"levelo://app?vid=7026ebfa-7f40-4e89-8b01-97c05f12b82e"},"vehicle_type_id":"4","last_reported":1738580874,"current_range_meters":30400,"station_id":"","pricing_plan_id":"cebpf4jnsgd1na2vs0mg"},{"bike_id":"336ba170-f212-47ec-a8a9-236ae819b98c","system_id":"levelo_inurba_marseille","lat":43.30884,"lon":5.37184,"is_reserved":false,"is_disabled":false,"rental_uris":{"android":"levelo://app?vid=336ba170-f212-47ec-a8a9-236ae819b98c","ios":"levelo://app?vid=336ba170-f212-47ec-a8a9-236ae819b98c"},"vehicle_type_id":"4","last_reported":1738580874,"current_range_meters":28800,"station_id":"ce4bguh2rcd13ifvqckg","pricing_plan_id":"cebpf4jnsgd1na2vs0mg"},{"bike_id":"41d30d10-c454-494c-8bd4-c394fad5211c","system_id":"levelo_inurba_marseille","lat":43.32465,"lon":5.36579,"is_reserved":false,"is_disabled":false,"rental_uris":{"android":"levelo://app?vid=41d30d10-c454-494c-8bd4-c394fad5211c","ios":"levelo://app?vid=41d30d10-c454-494c-8bd4-c394fad5211c"},"vehicle_type_id":"4","last_reported":1738580874,"current_range_meters":13600,"station_id":"ce4bhs12rcd13ifvqhvg","pricing_plan_id":"cebpf4jnsgd1na2vs0mg"},{"bike_id":"8261f0c6-5745-419b-97b0-ff859095417b","system_id":"levelo_inurba_marseille","lat":43.26694,"lon":5.38276,"is_reserved":false,"is_disabled":false,"rental_uris":{"android":"levelo://app?vid=8261f0c6-5745-419b-97b0-ff859095417b","ios":"levelo://app?vid=8261f0c6-5745-419b-97b0-ff859095417b"},"vehicle_type_id":"4","last_reported":1738580874,"current_range_meters":10000,"station_id":"ce4bhg92rcd13ifvqf90","pricing_plan_id":"cebpf4jnsgd1na2vs0mg"},{"bike_id":"30a60464-4154-4294-86ad-099421500ae0","system_id":"levelo_inurba_marseille","lat":43.31256,"lon":5.36857,"is_reserved":false,"is_disabled":false,"rental_uris":{"android":"levelo://app?vid=30a60464-4154-4294-86ad-099421500ae0","ios":"levelo://app?vid=30a60464-4154-4294-86ad-099421500ae0"},"vehicle_type_id":"4","last_reported":1738580874,"current_range_meters":38800,"station_id":"ce4bgl92rcd13ifvqbq0","pricing_plan_id":"cebpf4jnsgd1na2vs0mg"},{"bike_id":"d84fcdca-c91f-4b90-96af-b490fd4b3889","system_id":"levelo_inurba_marseille","lat":43.26544,"lon":5.39042,"is_reserved":false,"is_disabled":true,"rental_uris":{"android":"levelo://app?vid=d84fcdca-c91f-4b90-96af-b490fd4b3889","ios":"levelo://app?vid=d84fcdca-c91f-4b90-96af-b490fd4b3889"},"vehicle_type_id":"4","last_reported":1738580874,"current_range_meters":38800,"station_id":"ce4bhe12rcd13ifvqf30","pricing_plan_id":"cebpf4jnsgd1na2vs0mg"},{"bike_id":"546ef634-21a8-44f1-ae81-d62b7f9894ff","system_id":"levelo_inurba_marseille","lat":43.27504,"lon":5.42438,"is_reserved":false,"is_disabled":false,"rental_uris":{"android":"levelo://app?vid=546ef634-21a8-44f1-ae81-d62b7f9894ff","ios":"levelo://app?vid=546ef634-21a8-44f1-ae81-d62b7f9894ff"},"vehicle_type_id":"4","last_reported":1738580874,"current_range_meters":32400,"station_id":"ce4bhn92rcd13ifvqgrg","pricing_plan_id":"cebpf4jnsgd1na2vs0mg"},{"bike_id":"352f6f96-c126-463b-9a98-d0b9aac09f89","system_id":"levelo_inurba_marseille","lat":43.29558,"lon":5.36741,"is_reserved":false,"is_disabled":false,"rental_uris":{"android":"levelo://app?vid=352f6f96-c126-463b-9a98-d0b9aac09f89","ios":"levelo://app?vid=352f6f96-c126-463b-9a98-d0b9aac09f89"},"vehicle_type_id":"4","last_reported":1738580874,"current_range_meters":38800,"station_id":"ce4bgph2rcd13ifvqc2g","pricing_plan_id":"cebpf4jnsgd1na2vs0mg"},{"bike_id":"bd14d7a3-d69d-4467-bd8f-811ba9f68a22","system_id":"levelo_inurba_marseille","lat":43.30959,"lon":5.39035,"is_reserved":false,"is_disabled":false,"rental_uris":{"android":"levelo://app?vid=bd14d7a3-d69d-4467-bd8f-811ba9f68a22","ios":"levelo://app?vid=bd14d7a3-d69d-4467-bd8f-811ba9f68a22"},"vehicle_type_id":"4","last_reported":1738580874,"current_range_meters":24400,"station_id":"ce4bgup2rcd13ifvqco0","pricing_plan_id":"cebpf4jnsgd1na2vs0mg"},{"bike_id":"52a2dbfa-515a-467b-9a45-e0a9b91119a3","system_id":"levelo_inurba_marseille","lat":43.29892,"lon":5.4367,"is_reserved":false,"is_disabled":false,"rental_uris":{"android":"levelo://app?vid=52a2dbfa-515a-467b-9a45-e0a9b91119a3","ios":"levelo://app?vid=52a2dbfa-515a-467b-9a45-e0a9b91119a3"},"vehicle_type_id":"4","last_reported":1738580874,"current_range_meters":15200,"station_id":"ce4bhpp2rcd13ifvqhfg","pricing_plan_id":"cebpf4jnsgd1na2vs0mg"},{"bike_id":"ebd54e97-9be8-4143-840e-77c8786e8ad7","system_id":"levelo_inurba_marseille","lat":43.2827,"lon":5.35075,"is_reserved":false,"is_disabled":true,"rental_uris":{"android":"levelo://app?vid=ebd54e97-9be8-4143-840e-77c8786e8ad7","ios":"levelo://app?vid=ebd54e97-9be8-4143-840e-77c8786e8ad7"},"vehicle_type_id":"4","last_reported":1738580874,"current_range_meters":37600,"station_id":"ce4bhbp2rcd13ifvqerg","pricing_plan_id":"cebpf4jnsgd1na2vs0mg"},{"bike_id":"16f483f3-a5cb-443d-8cf3-db6284568599","system_id":"levelo_inurba_marseille","lat":43.29763,"lon":5.36567,"is_reserved":false,"is_disabled":false,"rental_uris":{"android":"levelo://app?vid=16f483f3-a5cb-443d-8cf3-db6284568599","ios":"levelo://app?vid=16f483f3-a5cb-443d-8cf3-db6284568599"},"vehicle_type_id":"4","last_reported":1738580874,"current_range_meters":36800,"station_id":"ce4bgn12rcd13ifvqbt0","pricing_plan_id":"cebpf4jnsgd1na2vs0mg"},{"bike_id":"e01bb7e9-7835-434e-a72d-03f42461a4af","system_id":"levelo_inurba_marseille","lat":43.29812,"lon":5.38092,"is_reserved":false,"is_disabled":false,"rental_uris":{"android":"levelo://app?vid=e01bb7e9-7835-434e-a72d-03f42461a4af","ios":"levelo://app?vid=e01bb7e9-7835-434e-a72d-03f42461a4af"},"vehicle_type_id":"4","last_reported":1738580874,"current_range_meters":27600,"station_id":"ce4bgip2rcd13ifvqbb0","pricing_plan_id":"cebpf4jnsgd1na2vs0mg"},{"bike_id":"bc67551a-b72e-457e-97be-315288e8d718","system_id":"levelo_inurba_marseille","lat":43.30958,"lon":5.39041,"is_reserved":false,"is_disabled":false,"rental_uris":{"android":"levelo://app?vid=bc67551a-b72e-457e-97be-315288e8d718","ios":"levelo://app?vid=bc67551a-b72e-457e-97be-315288e8d718"},"vehicle_type_id":"4","last_reported":1738580874,"current_range_meters":17600,"station_id":"ce4bgup2rcd13ifvqco0","pricing_plan_id":"cebpf4jnsgd1na2vs0mg"},{"bike_id":"d956c0fa-8e81-4a5c-a819-66560ebeacd2","system_id":"levelo_inurba_marseille","lat":43.28175,"lon":5.42645,"is_reserved":false,"is_disabled":false,"rental_uris":{"android":"levelo://app?vid=d956c0fa-8e81-4a5c-a819-66560ebeacd2","ios":"levelo://app?vid=d956c0fa-8e81-4a5c-a819-66560ebeacd2"},"vehicle_type_id":"4","last_reported":1738580874,"current_range_meters":10000,"station_id":"ce4bhnh2rcd13ifvqgug","pricing_plan_id":"cebpf4jnsgd1na2vs0mg"},{"bike_id":"1fe8819b-7ab4-4e22-a0d2-b24e3e952e5d","system_id":"levelo_inurba_marseille","lat":43.32458,"lon":5.36566,"is_reserved":false,"is_disabled":false,"rental_uris":{"android":"levelo://app?vid=1fe8819b-7ab4-4e22-a0d2-b24e3e952e5d","ios":"levelo://app?vid=1fe8819b-7ab4-4e22-a0d2-b24e3e952e5d"},"vehicle_type_id":"4","last_reported":1738580874,"current_range_meters":38800,"station_id":"ce4bhs12rcd13ifvqhvg","pricing_plan_id":"cebpf4jnsgd1na2vs0mg"},{"bike_id":"2aa0e513-d6ea-4559-bfd6-c465864d429e","system_id":"levelo_inurba_marseille","lat":43.289382,"lon":5.366318,"is_reserved":false,"is_disabled":true,"rental_uris":{"android":"levelo://app?vid=2aa0e513-d6ea-4559-bfd6-c465864d429e","ios":"levelo://app?vid=2aa0e513-d6ea-4559-bfd6-c465864d429e"},"vehicle_type_id":"4","last_reported":1738580874,"current_range_meters":25600,"station_id":"ce4bhap2rcd13ifvqek0","pricing_plan_id":"cebpf4jnsgd1na2vs0mg"},{"bike_id":"120ab0c5-4a0e-4964-b46c-ea0a87d62b1f","system_id":"levelo_inurba_marseille","lat":43.28472,"lon":5.35881,"is_reserved":false,"is_disabled":false,"rental_uris":{"android":"levelo://app?vid=120ab0c5-4a0e-4964-b46c-ea0a87d62b1f","ios":"levelo://app?vid=120ab0c5-4a0e-4964-b46c-ea0a87d62b1f"},"vehicle_type_id":"4","last_reported":1738580874,"current_range_meters":38800,"station_id":"ce4bhah2rcd13ifvqei0","pricing_plan_id":"cebpf4jnsgd1na2vs0mg"},{"bike_id":"3ab2fb0f-6417-4cc5-aa9f-8efd535b1198","system_id":"levelo_inurba_marseille","lat":43.29783,"lon":5.39341,"is_reserved":false,"is_disabled":false,"rental_uris":{"android":"levelo://app?vid=3ab2fb0f-6417-4cc5-aa9f-8efd535b1198","ios":"levelo://app?vid=3ab2fb0f-6417-4cc5-aa9f-8efd535b1198"},"vehicle_type_id":"4","last_reported":1738580874,"current_range_meters":36000,"station_id":"chh1huq6cuj3fo74tm60","pricing_plan_id":"cebpf4jnsgd1na2vs0mg"},{"bike_id":"9852d283-9027-465c-82cf-12dda472aabb","system_id":"levelo_inurba_marseille","lat":43.305351,"lon":5.367122,"is_reserved":false,"is_disabled":false,"rental_uris":{"android":"levelo://app?vid=9852d283-9027-465c-82cf-12dda472aabb","ios":"levelo://app?vid=9852d283-9027-465c-82cf-12dda472aabb"},"vehicle_type_id":"4","last_reported":1738580874,"current_range_meters":34800,"station_id":"ce4bgrp2rcd13ifvqc9g","pricing_plan_id":"cebpf4jnsgd1na2vs0mg"},{"bike_id":"6f99bdd8-0664-4844-8e13-433c83a27ef2","system_id":"levelo_inurba_marseille","lat":43.26693,"lon":5.38257,"is_reserved":false,"is_disabled":false,"rental_uris":{"android":"levelo://app?vid=6f99bdd8-0664-4844-8e13-433c83a27ef2","ios":"levelo://app?vid=6f99bdd8-0664-4844-8e13-433c83a27ef2"},"vehicle_type_id":"4","last_reported":1738580874,"current_range_meters":38800,"station_id":"ce4bhg92rcd13ifvqf90","pricing_plan_id":"cebpf4jnsgd1na2vs0mg"},{"bike_id":"69cc5106-cb4d-404e-843a-57f7ef46eb3b","system_id":"levelo_inurba_marseille","lat":43.25859,"lon":5.39899,"is_reserved":false,"is_disabled":false,"rental_uris":{"android":"levelo://app?vid=69cc5106-cb4d-404e-843a-57f7ef46eb3b","ios":"levelo://app?vid=69cc5106-cb4d-404e-843a-57f7ef46eb3b"},"vehicle_type_id":"4","last_reported":1738580874,"current_range_meters":27600,"station_id":"ce4bhl92rcd13ifvqghg","pricing_plan_id":"cebpf4jnsgd1na2vs0mg"},{"bike_id":"b8a10bf8-9efc-40f9-befa-1c1b083e6e8f","system_id":"levelo_inurba_marseille","lat":43.30135,"lon":5.37411,"is_reserved":false,"is_disabled":false,"rental_uris":{"android":"levelo://app?vid=b8a10bf8-9efc-40f9-befa-1c1b083e6e8f","ios":"levelo://app?vid=b8a10bf8-9efc-40f9-befa-1c1b083e6e8f"},"vehicle_type_id":"4","last_reported":1738580874,"current_range_meters":19600,"station_id":"ce4bgs92rcd13ifvqcc0","pricing_plan_id":"cebpf4jnsgd1na2vs0mg"},{"bike_id":"4922d910-738e-4c32-b977-abc56876919c","system_id":"levelo_inurba_marseille","lat":43.32447,"lon":5.36567,"is_reserved":false,"is_disabled":false,"rental_uris":{"android":"levelo://app?vid=4922d910-738e-4c32-b977-abc56876919c","ios":"levelo://app?vid=4922d910-738e-4c32-b977-abc56876919c"},"vehicle_type_id":"4","last_reported":1738580874,"current_range_meters":32400,"station_id":"ce4bhs12rcd13ifvqhvg","pricing_plan_id":"cebpf4jnsgd1na2vs0mg"},{"bike_id":"88f6ec14-1047-428a-bfc8-ed7564b679d3","system_id":"levelo_inurba_marseille","lat":43.24418,"lon":5.37086,"is_reserved":false,"is_disabled":false,"rental_uris":{"android":"levelo://app?vid=88f6ec14-1047-428a-bfc8-ed7564b679d3","ios":"levelo://app?vid=88f6ec14-1047-428a-bfc8-ed7564b679d3"},"vehicle_type_id":"4","last_reported":1738580874,"current_range_meters":8400,"station_id":"ce4bhhh2rcd13ifvqfk0","pricing_plan_id":"cebpf4jnsgd1na2vs0mg"},{"bike_id":"2c2a9490-2674-4529-baa0-aae73696b085","system_id":"levelo_inurba_marseille","lat":43.29285,"lon":5.36899,"is_reserved":false,"is_disabled":true,"rental_uris":{"android":"levelo://app?vid=2c2a9490-2674-4529-baa0-aae73696b085","ios":"levelo://app?vid=2c2a9490-2674-4529-baa0-aae73696b085"},"vehicle_type_id":"4","last_reported":1738580874,"current_range_meters":36800,"station_id":"ce4bhbp2rcd13ifvqesg","pricing_plan_id":"cebpf4jnsgd1na2vs0mg"},{"bike_id":"b560ae5e-e88a-4149-8f67-873e8d60c348","system_id":"levelo_inurba_marseille","lat":43.33738,"lon":5.39178,"is_reserved":false,"is_disabled":false,"rental_uris":{"android":"levelo://app?vid=b560ae5e-e88a-4149-8f67-873e8d60c348","ios":"levelo://app?vid=b560ae5e-e88a-4149-8f67-873e8d60c348"},"vehicle_type_id":"4","last_reported":1738580874,"current_range_meters":38800,"station_id":"ce4bhr92rcd13ifvqhsg","pricing_plan_id":"cebpf4jnsgd1na2vs0mg"},{"bike_id":"fad26299-4859-48d9-af16-461be31a4018","system_id":"levelo_inurba_marseille","lat":43.2319,"lon":5.39999,"is_reserved":false,"is_disabled":true,"rental_uris":{"android":"levelo://app?vid=fad26299-4859-48d9-af16-461be31a4018","ios":"levelo://app?vid=fad26299-4859-48d9-af16-461be31a4018"},"vehicle_type_id":"4","last_reported":1738580874,"current_range_meters":1600,"station_id":"ce4bhn12rcd13ifvqgqg","pricing_plan_id":"cebpf4jnsgd1na2vs0mg"},{"bike_id":"737292e1-4a7b-4742-800d-578ccd528124","system_id":"levelo_inurba_marseille","lat":43.24058,"lon":5.37741,"is_reserved":false,"is_disabled":false,"rental_uris":{"android":"levelo://app?vid=737292e1-4a7b-4742-800d-578ccd528124","ios":"levelo://app?vid=737292e1-4a7b-4742-800d-578ccd528124"},"vehicle_type_id":"4","last_reported":1738580874,"current_range_meters":27600,"station_id":"ce4bhnp2rcd13ifvqgvg","pricing_plan_id":"cebpf4jnsgd1na2vs0mg"},{"bike_id":"330b3d2d-d2cc-48ed-812f-2962ec3cf786","system_id":"levelo_inurba_marseille","lat":43.26567,"lon":5.39004,"is_reserved":false,"is_disabled":true,"rental_uris":{"android":"levelo://app?vid=330b3d2d-d2cc-48ed-812f-2962ec3cf786","ios":"levelo://app?vid=330b3d2d-d2cc-48ed-812f-2962ec3cf786"},"vehicle_type_id":"4","last_reported":1738580874,"current_range_meters":30000,"station_id":"ce4bhe12rcd13ifvqf30","pricing_plan_id":"cebpf4jnsgd1na2vs0mg"},{"bike_id":"303e4d28-92a5-40f0-84ab-0b370010d297","system_id":"levelo_inurba_marseille","lat":43.28161,"lon":5.42638,"is_reserved":false,"is_disabled":false,"rental_uris":{"android":"levelo://app?vid=303e4d28-92a5-40f0-84ab-0b370010d297","ios":"levelo://app?vid=303e4d28-92a5-40f0-84ab-0b370010d297"},"vehicle_type_id":"4","last_reported":1738580874,"current_range_meters":27200,"station_id":"ce4bhnh2rcd13ifvqgug","pricing_plan_id":"cebpf4jnsgd1na2vs0mg"},{"bike_id":"1fb30077-06c1-443f-ae4b-592c22714fbd","system_id":"levelo_inurba_marseille","lat":43.29626,"lon":5.37158,"is_reserved":false,"is_disabled":false,"rental_uris":{"android":"levelo://app?vid=1fb30077-06c1-443f-ae4b-592c22714fbd","ios":"levelo://app?vid=1fb30077-06c1-443f-ae4b-592c22714fbd"},"vehicle_type_id":"4","last_reported":1738580874,"current_range_meters":32800,"station_id":"ce4bgnh2rcd13ifvqc0g","pricing_plan_id":"cebpf4jnsgd1na2vs0mg"},{"bike_id":"720f0f33-675f-47f3-a106-032007d1c003","system_id":"levelo_inurba_marseille","lat":43.3118,"lon":5.38722,"is_reserved":false,"is_disabled":false,"rental_uris":{"android":"levelo://app?vid=720f0f33-675f-47f3-a106-032007d1c003","ios":"levelo://app?vid=720f0f33-675f-47f3-a106-032007d1c003"},"vehicle_type_id":"4","last_reported":1738580874,"current_range_meters":38000,"station_id":"ce4bgv12rcd13ifvqcp0","pricing_plan_id":"cebpf4jnsgd1na2vs0mg"},{"bike_id":"a1cecde7-649f-4649-b593-274521c6fb10","system_id":"levelo_inurba_marseille","lat":43.32514,"lon":5.36544,"is_reserved":false,"is_disabled":false,"rental_uris":{"android":"levelo://app?vid=a1cecde7-649f-4649-b593-274521c6fb10","ios":"levelo://app?vid=a1cecde7-649f-4649-b593-274521c6fb10"},"vehicle_type_id":"4","last_reported":1738580874,"current_range_meters":36400,"station_id":"ce4bhs12rcd13ifvqhvg","pricing_plan_id":"cebpf4jnsgd1na2vs0mg"},{"bike_id":"17411b9d-c8cc-49af-9228-d74032c57246","system_id":"levelo_inurba_marseille","lat":43.25935,"lon":5.40953,"is_reserved":false,"is_disabled":false,"rental_uris":{"android":"levelo://app?vid=17411b9d-c8cc-49af-9228-d74032c57246","ios":"levelo://app?vid=17411b9d-c8cc-49af-9228-d74032c57246"},"vehicle_type_id":"4","last_reported":1738580874,"current_range_meters":18800,"station_id":"ce4bhm92rcd13ifvqglg","pricing_plan_id":"cebpf4jnsgd1na2vs0mg"},{"bike_id":"649532be-fa76-4383-be23-503598f86cf3","system_id":"levelo_inurba_marseille","lat":43.25001,"lon":5.3894,"is_reserved":false,"is_disabled":false,"rental_uris":{"android":"levelo://app?vid=649532be-fa76-4383-be23-503598f86cf3","ios":"levelo://app?vid=649532be-fa76-4383-be23-503598f86cf3"},"vehicle_type_id":"4","last_reported":1738580874,"current_range_meters":28400,"station_id":"ce4bhgp2rcd13ifvqfd0","pricing_plan_id":"cebpf4jnsgd1na2vs0mg"},{"bike_id":"312e110c-19b4-4759-85d4-a5388156de01","system_id":"levelo_inurba_marseille","lat":43.30804,"lon":5.43531,"is_reserved":false,"is_disabled":false,"rental_uris":{"android":"levelo://app?vid=312e110c-19b4-4759-85d4-a5388156de01","ios":"levelo://app?vid=312e110c-19b4-4759-85d4-a5388156de01"},"vehicle_type_id":"4","last_reported":1738580874,"current_range_meters":24800,"station_id":"ce4bhph2rcd13ifvqheg","pricing_plan_id":"cebpf4jnsgd1na2vs0mg"},{"bike_id":"77e5a620-bcf9-42e3-96a4-97ed8269dbf0","system_id":"levelo_inurba_marseille","lat":43.30437,"lon":5.38888,"is_reserved":false,"is_disabled":false,"rental_uris":{"android":"levelo://app?vid=77e5a620-bcf9-42e3-96a4-97ed8269dbf0","ios":"levelo://app?vid=77e5a620-bcf9-42e3-96a4-97ed8269dbf0"},"vehicle_type_id":"4","last_reported":1738580874,"current_range_meters":38800,"station_id":"ce4bgk12rcd13ifvqbi0","pricing_plan_id":"cebpf4jnsgd1na2vs0mg"},{"bike_id":"43a7f4e1-4bdb-4c85-b96c-d7e2dbc90838","system_id":"levelo_inurba_marseille","lat":43.32107,"lon":5.36756,"is_reserved":false,"is_disabled":false,"rental_uris":{"android":"levelo://app?vid=43a7f4e1-4bdb-4c85-b96c-d7e2dbc90838","ios":"levelo://app?vid=43a7f4e1-4bdb-4c85-b96c-d7e2dbc90838"},"vehicle_type_id":"4","last_reported":1738580874,"current_range_meters":38800,"station_id":"ce4bhrh2rcd13ifvqhug","pricing_plan_id":"cebpf4jnsgd1na2vs0mg"},{"bike_id":"b9241505-b1ff-43b5-8515-c467c61b022e","system_id":"levelo_inurba_marseille","lat":43.30894,"lon":5.36853,"is_reserved":false,"is_disabled":false,"rental_uris":{"android":"levelo://app?vid=b9241505-b1ff-43b5-8515-c467c61b022e","ios":"levelo://app?vid=b9241505-b1ff-43b5-8515-c467c61b022e"},"vehicle_type_id":"4","last_reported":1738580874,"current_range_meters":38400,"station_id":"ce4bgn92rcd13ifvqbvg","pricing_plan_id":"cebpf4jnsgd1na2vs0mg"},{"bike_id":"d88c47ab-9304-4160-8509-2cd8bedeb1d7","system_id":"levelo_inurba_marseille","lat":43.30326,"lon":5.37707,"is_reserved":false,"is_disabled":false,"rental_uris":{"android":"levelo://app?vid=d88c47ab-9304-4160-8509-2cd8bedeb1d7","ios":"levelo://app?vid=d88c47ab-9304-4160-8509-2cd8bedeb1d7"},"vehicle_type_id":"4","last_reported":1738580874,"current_range_meters":30400,"station_id":"ce4bguh2rcd13ifvqcj0","pricing_plan_id":"cebpf4jnsgd1na2vs0mg"},{"bike_id":"d08ca28b-23df-4eba-b7b5-7910c4aa69d2","system_id":"levelo_inurba_marseille","lat":43.324755,"lon":5.365675,"is_reserved":false,"is_disabled":false,"rental_uris":{"android":"levelo://app?vid=d08ca28b-23df-4eba-b7b5-7910c4aa69d2","ios":"levelo://app?vid=d08ca28b-23df-4eba-b7b5-7910c4aa69d2"},"vehicle_type_id":"4","last_reported":1738580874,"current_range_meters":38400,"station_id":"ce4bhs12rcd13ifvqhvg","pricing_plan_id":"cebpf4jnsgd1na2vs0mg"},{"bike_id":"73806a4b-4b29-4d4f-a453-ba70febe5e5c","system_id":"levelo_inurba_marseille","lat":43.29021,"lon":5.3814,"is_reserved":false,"is_disabled":false,"rental_uris":{"android":"levelo://app?vid=73806a4b-4b29-4d4f-a453-ba70febe5e5c","ios":"levelo://app?vid=73806a4b-4b29-4d4f-a453-ba70febe5e5c"},"vehicle_type_id":"4","last_reported":1738580874,"current_range_meters":38800,"station_id":"ce4bh4p2rcd13ifvqe1g","pricing_plan_id":"cebpf4jnsgd1na2vs0mg"},{"bike_id":"15ef06a7-5052-435f-bab0-6c1a8820daa0","system_id":"levelo_inurba_marseille","lat":43.25005,"lon":5.38952,"is_reserved":false,"is_disabled":false,"rental_uris":{"android":"levelo://app?vid=15ef06a7-5052-435f-bab0-6c1a8820daa0","ios":"levelo://app?vid=15ef06a7-5052-435f-bab0-6c1a8820daa0"},"vehicle_type_id":"4","last_reported":1738580874,"current_range_meters":22800,"station_id":"ce4bhgp2rcd13ifvqfd0","pricing_plan_id":"cebpf4jnsgd1na2vs0mg"},{"bike_id":"0743b2ad-1d8d-4c13-8b00-57c9d01b1228","system_id":"levelo_inurba_marseille","lat":43.24178,"lon":5.3641,"is_reserved":false,"is_disabled":false,"rental_uris":{"android":"levelo://app?vid=0743b2ad-1d8d-4c13-8b00-57c9d01b1228","ios":"levelo://app?vid=0743b2ad-1d8d-4c13-8b00-57c9d01b1228"},"vehicle_type_id":"4","last_reported":1738580874,"current_range_meters":25600,"station_id":"cpo36qri1sfpv3e86is0","pricing_plan_id":"cebpf4jnsgd1na2vs0mg"},{"bike_id":"2cbd5193-ddde-4715-a2bf-e1cb8bb201c9","system_id":"levelo_inurba_marseille","lat":43.28462,"lon":5.38486,"is_reserved":false,"is_disabled":true,"rental_uris":{"android":"levelo://app?vid=2cbd5193-ddde-4715-a2bf-e1cb8bb201c9","ios":"levelo://app?vid=2cbd5193-ddde-4715-a2bf-e1cb8bb201c9"},"vehicle_type_id":"4","last_reported":1738580874,"current_range_meters":0,"station_id":"","pricing_plan_id":"cebpf4jnsgd1na2vs0mg"},{"bike_id":"a2213b67-b297-40c3-a66b-0d8046e08fe8","system_id":"levelo_inurba_marseille","lat":43.2315,"lon":5.43721,"is_reserved":false,"is_disabled":false,"rental_uris":{"android":"levelo://app?vid=a2213b67-b297-40c3-a66b-0d8046e08fe8","ios":"levelo://app?vid=a2213b67-b297-40c3-a66b-0d8046e08fe8"},"vehicle_type_id":"4","last_reported":1738580874,"current_range_meters":29600,"station_id":"ce4bhmp2rcd13ifvqgog","pricing_plan_id":"cebpf4jnsgd1na2vs0mg"},{"bike_id":"4a18fa25-a72b-4cad-ab40-77dc9d93d71e","system_id":"levelo_inurba_marseille","lat":43.28419,"lon":5.37499,"is_reserved":false,"is_disabled":true,"rental_uris":{"android":"levelo://app?vid=4a18fa25-a72b-4cad-ab40-77dc9d93d71e","ios":"levelo://app?vid=4a18fa25-a72b-4cad-ab40-77dc9d93d71e"},"vehicle_type_id":"4","last_reported":1738580874,"current_range_meters":0,"station_id":"ce4bh412rcd13ifvqds0","pricing_plan_id":"cebpf4jnsgd1na2vs0mg"},{"bike_id":"251226e2-99db-4210-b952-a5d2d99318f1","system_id":"levelo_inurba_marseille","lat":43.27507,"lon":5.42475,"is_reserved":false,"is_disabled":false,"rental_uris":{"android":"levelo://app?vid=251226e2-99db-4210-b952-a5d2d99318f1","ios":"levelo://app?vid=251226e2-99db-4210-b952-a5d2d99318f1"},"vehicle_type_id":"4","last_reported":1738580874,"current_range_meters":38800,"station_id":"ce4bhn92rcd13ifvqgrg","pricing_plan_id":"cebpf4jnsgd1na2vs0mg"},{"bike_id":"dc3db39a-4c32-4eab-96a7-1d6ec0e2b3ba","system_id":"levelo_inurba_marseille","lat":43.26933,"lon":5.38914,"is_reserved":false,"is_disabled":false,"rental_uris":{"android":"levelo://app?vid=dc3db39a-4c32-4eab-96a7-1d6ec0e2b3ba","ios":"levelo://app?vid=dc3db39a-4c32-4eab-96a7-1d6ec0e2b3ba"},"vehicle_type_id":"4","last_reported":1738580874,"current_range_meters":38800,"station_id":"ce4bhhh2rcd13ifvqfl0","pricing_plan_id":"cebpf4jnsgd1na2vs0mg"},{"bike_id":"a1e34ca1-b4fa-4f42-b314-fbe1a0f63190","system_id":"levelo_inurba_marseille","lat":43.28004,"lon":5.36929,"is_reserved":false,"is_disabled":false,"rental_uris":{"android":"levelo://app?vid=a1e34ca1-b4fa-4f42-b314-fbe1a0f63190","ios":"levelo://app?vid=a1e34ca1-b4fa-4f42-b314-fbe1a0f63190"},"vehicle_type_id":"4","last_reported":1738580874,"current_range_meters":24000,"station_id":"ce4bha12rcd13ifvqef0","pricing_plan_id":"cebpf4jnsgd1na2vs0mg"},{"bike_id":"5609a2f8-2fc6-4e4a-88fe-721e3e98729a","system_id":"levelo_inurba_marseille","lat":43.2862,"lon":5.35138,"is_reserved":false,"is_disabled":false,"rental_uris":{"android":"levelo://app?vid=5609a2f8-2fc6-4e4a-88fe-721e3e98729a","ios":"levelo://app?vid=5609a2f8-2fc6-4e4a-88fe-721e3e98729a"},"vehicle_type_id":"4","last_reported":1738580874,"current_range_meters":30000,"station_id":"ce4bhch2rcd13ifvqeug","pricing_plan_id":"cebpf4jnsgd1na2vs0mg"},{"bike_id":"230aa0c6-dda7-4cb7-8ed8-7a9c26418c73","system_id":"levelo_inurba_marseille","lat":43.30554,"lon":5.36551,"is_reserved":false,"is_disabled":false,"rental_uris":{"android":"levelo://app?vid=230aa0c6-dda7-4cb7-8ed8-7a9c26418c73","ios":"levelo://app?vid=230aa0c6-dda7-4cb7-8ed8-7a9c26418c73"},"vehicle_type_id":"4","last_reported":1738580874,"current_range_meters":35600,"station_id":"ce4bgs12rcd13ifvqcag","pricing_plan_id":"cebpf4jnsgd1na2vs0mg"},{"bike_id":"85fd11a6-f5f3-4c0b-be9a-32833f63ea51","system_id":"levelo_inurba_marseille","lat":43.290053,"lon":5.356104,"is_reserved":false,"is_disabled":false,"rental_uris":{"android":"levelo://app?vid=85fd11a6-f5f3-4c0b-be9a-32833f63ea51","ios":"levelo://app?vid=85fd11a6-f5f3-4c0b-be9a-32833f63ea51"},"vehicle_type_id":"4","last_reported":1738580874,"current_range_meters":22400,"station_id":"ce4bhb92rcd13ifvqen0","pricing_plan_id":"cebpf4jnsgd1na2vs0mg"},{"bike_id":"895b886d-f041-450f-bbc7-c95d89abf42f","system_id":"levelo_inurba_marseille","lat":43.31137,"lon":5.38067,"is_reserved":false,"is_disabled":false,"rental_uris":{"android":"levelo://app?vid=895b886d-f041-450f-bbc7-c95d89abf42f","ios":"levelo://app?vid=895b886d-f041-450f-bbc7-c95d89abf42f"},"vehicle_type_id":"4","last_reported":1738580874,"current_range_meters":30400,"station_id":"","pricing_plan_id":"cebpf4jnsgd1na2vs0mg"},{"bike_id":"c7f8d94b-a23d-4de4-8037-26124578be3a","system_id":"levelo_inurba_marseille","lat":43.30139,"lon":5.37424,"is_reserved":false,"is_disabled":true,"rental_uris":{"android":"levelo://app?vid=c7f8d94b-a23d-4de4-8037-26124578be3a","ios":"levelo://app?vid=c7f8d94b-a23d-4de4-8037-26124578be3a"},"vehicle_type_id":"4","last_reported":1738580874,"current_range_meters":36800,"station_id":"ce4bgs92rcd13ifvqcc0","pricing_plan_id":"cebpf4jnsgd1na2vs0mg"},{"bike_id":"72f041c0-9dd1-4889-acb7-a6df29397ade","system_id":"levelo_inurba_marseille","lat":43.28151,"lon":5.42651,"is_reserved":false,"is_disabled":false,"rental_uris":{"android":"levelo://app?vid=72f041c0-9dd1-4889-acb7-a6df29397ade","ios":"levelo://app?vid=72f041c0-9dd1-4889-acb7-a6df29397ade"},"vehicle_type_id":"4","last_reported":1738580874,"current_range_meters":32000,"station_id":"ce4bhnh2rcd13ifvqgug","pricing_plan_id":"cebpf4jnsgd1na2vs0mg"},{"bike_id":"428d75e2-39d8-469c-999e-be5c80142ac1","system_id":"levelo_inurba_marseille","lat":43.30163,"lon":5.38062,"is_reserved":false,"is_disabled":false,"rental_uris":{"android":"levelo://app?vid=428d75e2-39d8-469c-999e-be5c80142ac1","ios":"levelo://app?vid=428d75e2-39d8-469c-999e-be5c80142ac1"},"vehicle_type_id":"4","last_reported":1738580874,"current_range_meters":38800,"station_id":"ce4bgjp2rcd13ifvqbh0","pricing_plan_id":"cebpf4jnsgd1na2vs0mg"},{"bike_id":"99630b4f-d397-4cd1-b643-a51d074b76bb","system_id":"levelo_inurba_marseille","lat":43.28461,"lon":5.35891,"is_reserved":false,"is_disabled":false,"rental_uris":{"android":"levelo://app?vid=99630b4f-d397-4cd1-b643-a51d074b76bb","ios":"levelo://app?vid=99630b4f-d397-4cd1-b643-a51d074b76bb"},"vehicle_type_id":"4","last_reported":1738580874,"current_range_meters":38400,"station_id":"ce4bhah2rcd13ifvqei0","pricing_plan_id":"cebpf4jnsgd1na2vs0mg"},{"bike_id":"dfca75c2-55e3-4e13-8b26-4b6ce664ebef","system_id":"levelo_inurba_marseille","lat":43.2842,"lon":5.34986,"is_reserved":false,"is_disabled":false,"rental_uris":{"android":"levelo://app?vid=dfca75c2-55e3-4e13-8b26-4b6ce664ebef","ios":"levelo://app?vid=dfca75c2-55e3-4e13-8b26-4b6ce664ebef"},"vehicle_type_id":"4","last_reported":1738580874,"current_range_meters":9600,"station_id":"ce4bhbh2rcd13ifvqepg","pricing_plan_id":"cebpf4jnsgd1na2vs0mg"},{"bike_id":"fa93e64e-1c03-4fca-b4dd-d80824f49ad3","system_id":"levelo_inurba_marseille","lat":43.31363,"lon":5.36687,"is_reserved":false,"is_disabled":false,"rental_uris":{"android":"levelo://app?vid=fa93e64e-1c03-4fca-b4dd-d80824f49ad3","ios":"levelo://app?vid=fa93e64e-1c03-4fca-b4dd-d80824f49ad3"},"vehicle_type_id":"4","last_reported":1738580874,"current_range_meters":22000,"station_id":"ce4bgr92rcd13ifvqc6g","pricing_plan_id":"cebpf4jnsgd1na2vs0mg"},{"bike_id":"339024e8-3d81-4c07-84dd-594593317646","system_id":"levelo_inurba_marseille","lat":43.30489,"lon":5.36703,"is_reserved":false,"is_disabled":false,"rental_uris":{"android":"levelo://app?vid=339024e8-3d81-4c07-84dd-594593317646","ios":"levelo://app?vid=339024e8-3d81-4c07-84dd-594593317646"},"vehicle_type_id":"4","last_reported":1738580874,"current_range_meters":18800,"station_id":"ce4bgrp2rcd13ifvqc9g","pricing_plan_id":"cebpf4jnsgd1na2vs0mg"},{"bike_id":"31eab966-deca-4b8d-8aa1-0cd7925ce34e","system_id":"levelo_inurba_marseille","lat":43.23183,"lon":5.39982,"is_reserved":false,"is_disabled":false,"rental_uris":{"android":"levelo://app?vid=31eab966-deca-4b8d-8aa1-0cd7925ce34e","ios":"levelo://app?vid=31eab966-deca-4b8d-8aa1-0cd7925ce34e"},"vehicle_type_id":"4","last_reported":1738580874,"current_range_meters":16400,"station_id":"ce4bhn12rcd13ifvqgqg","pricing_plan_id":"cebpf4jnsgd1na2vs0mg"},{"bike_id":"69ab4131-8e27-4dc2-a773-cc2c675545c9","system_id":"levelo_inurba_marseille","lat":43.309038,"lon":5.368516,"is_reserved":false,"is_disabled":false,"rental_uris":{"android":"levelo://app?vid=69ab4131-8e27-4dc2-a773-cc2c675545c9","ios":"levelo://app?vid=69ab4131-8e27-4dc2-a773-cc2c675545c9"},"vehicle_type_id":"4","last_reported":1738580874,"current_range_meters":30000,"station_id":"ce4bgn92rcd13ifvqbvg","pricing_plan_id":"cebpf4jnsgd1na2vs0mg"},{"bike_id":"5e2abc16-7e2c-4e53-b39c-1f5d76655f30","system_id":"levelo_inurba_marseille","lat":43.27827,"lon":5.40719,"is_reserved":false,"is_disabled":false,"rental_uris":{"android":"levelo://app?vid=5e2abc16-7e2c-4e53-b39c-1f5d76655f30","ios":"levelo://app?vid=5e2abc16-7e2c-4e53-b39c-1f5d76655f30"},"vehicle_type_id":"4","last_reported":1738580874,"current_range_meters":38800,"station_id":"ce4bhnh2rcd13ifvqgtg","pricing_plan_id":"cebpf4jnsgd1na2vs0mg"},{"bike_id":"905522ef-d4d4-4a33-8994-defbf52775ca","system_id":"levelo_inurba_marseille","lat":43.26229,"lon":5.40451,"is_reserved":false,"is_disabled":true,"rental_uris":{"android":"levelo://app?vid=905522ef-d4d4-4a33-8994-defbf52775ca","ios":"levelo://app?vid=905522ef-d4d4-4a33-8994-defbf52775ca"},"vehicle_type_id":"4","last_reported":1738580874,"current_range_meters":0,"station_id":"ce4bhmh2rcd13ifvqgmg","pricing_plan_id":"cebpf4jnsgd1na2vs0mg"},{"bike_id":"4ff34418-e81c-4749-96bd-7e431d005742","system_id":"levelo_inurba_marseille","lat":43.26045,"lon":5.37551,"is_reserved":false,"is_disabled":false,"rental_uris":{"android":"levelo://app?vid=4ff34418-e81c-4749-96bd-7e431d005742","ios":"levelo://app?vid=4ff34418-e81c-4749-96bd-7e431d005742"},"vehicle_type_id":"4","last_reported":1738580874,"current_range_meters":17600,"station_id":"ce4bhgh2rcd13ifvqfa0","pricing_plan_id":"cebpf4jnsgd1na2vs0mg"},{"bike_id":"50a54295-ed45-4819-b687-34e17fe28f7c","system_id":"levelo_inurba_marseille","lat":43.24079,"lon":5.37768,"is_reserved":false,"is_disabled":false,"rental_uris":{"android":"levelo://app?vid=50a54295-ed45-4819-b687-34e17fe28f7c","ios":"levelo://app?vid=50a54295-ed45-4819-b687-34e17fe28f7c"},"vehicle_type_id":"4","last_reported":1738580874,"current_range_meters":24400,"station_id":"ce4bhnp2rcd13ifvqgvg","pricing_plan_id":"cebpf4jnsgd1na2vs0mg"},{"bike_id":"3034d64e-f78e-468c-b4d6-2520a053438f","system_id":"levelo_inurba_marseille","lat":43.231876,"lon":5.399906,"is_reserved":false,"is_disabled":true,"rental_uris":{"android":"levelo://app?vid=3034d64e-f78e-468c-b4d6-2520a053438f","ios":"levelo://app?vid=3034d64e-f78e-468c-b4d6-2520a053438f"},"vehicle_type_id":"4","last_reported":1738580874,"current_range_meters":16800,"station_id":"ce4bhn12rcd13ifvqgqg","pricing_plan_id":"cebpf4jnsgd1na2vs0mg"},{"bike_id":"d90e136c-19fb-4606-b68d-750f0f50132a","system_id":"levelo_inurba_marseille","lat":43.23148,"lon":5.43705,"is_reserved":false,"is_disabled":true,"rental_uris":{"android":"levelo://app?vid=d90e136c-19fb-4606-b68d-750f0f50132a","ios":"levelo://app?vid=d90e136c-19fb-4606-b68d-750f0f50132a"},"vehicle_type_id":"4","last_reported":1738580874,"current_range_meters":0,"station_id":"ce4bhmp2rcd13ifvqgog","pricing_plan_id":"cebpf4jnsgd1na2vs0mg"},{"bike_id":"0870a580-c64e-46ea-b3db-3585a2fcd40d","system_id":"levelo_inurba_marseille","lat":43.29016,"lon":5.35611,"is_reserved":false,"is_disabled":false,"rental_uris":{"android":"levelo://app?vid=0870a580-c64e-46ea-b3db-3585a2fcd40d","ios":"levelo://app?vid=0870a580-c64e-46ea-b3db-3585a2fcd40d"},"vehicle_type_id":"4","last_reported":1738580874,"current_range_meters":27600,"station_id":"ce4bhb92rcd13ifvqen0","pricing_plan_id":"cebpf4jnsgd1na2vs0mg"},{"bike_id":"451c5b81-bb70-420d-969f-f64a8bb875bb","system_id":"levelo_inurba_marseille","lat":43.25122,"lon":5.40315,"is_reserved":false,"is_disabled":false,"rental_uris":{"android":"levelo://app?vid=451c5b81-bb70-420d-969f-f64a8bb875bb","ios":"levelo://app?vid=451c5b81-bb70-420d-969f-f64a8bb875bb"},"vehicle_type_id":"4","last_reported":1738580874,"current_range_meters":19200,"station_id":"ce4bhlh2rcd13ifvqgig","pricing_plan_id":"cebpf4jnsgd1na2vs0mg"},{"bike_id":"9e768907-2758-4663-849c-1bfedc158f31","system_id":"levelo_inurba_marseille","lat":43.279114,"lon":5.395864,"is_reserved":false,"is_disabled":true,"rental_uris":{"android":"levelo://app?vid=9e768907-2758-4663-849c-1bfedc158f31","ios":"levelo://app?vid=9e768907-2758-4663-849c-1bfedc158f31"},"vehicle_type_id":"4","last_reported":1738580874,"current_range_meters":0,"station_id":"ce4bhf92rcd13ifvqf40","pricing_plan_id":"cebpf4jnsgd1na2vs0mg"},{"bike_id":"aa9462c4-d8ab-474f-9e59-bd021459ce10","system_id":"levelo_inurba_marseille","lat":43.26062,"lon":5.39401,"is_reserved":false,"is_disabled":false,"rental_uris":{"android":"levelo://app?vid=aa9462c4-d8ab-474f-9e59-bd021459ce10","ios":"levelo://app?vid=aa9462c4-d8ab-474f-9e59-bd021459ce10"},"vehicle_type_id":"4","last_reported":1738580874,"current_range_meters":39200,"station_id":"ce4bhh92rcd13ifvqfj0","pricing_plan_id":"cebpf4jnsgd1na2vs0mg"},{"bike_id":"cd9a2976-2f88-4ae0-8b31-782005b03ce4","system_id":"levelo_inurba_marseille","lat":43.29592,"lon":5.36783,"is_reserved":false,"is_disabled":false,"rental_uris":{"android":"levelo://app?vid=cd9a2976-2f88-4ae0-8b31-782005b03ce4","ios":"levelo://app?vid=cd9a2976-2f88-4ae0-8b31-782005b03ce4"},"vehicle_type_id":"4","last_reported":1738580874,"current_range_meters":38400,"station_id":"ce4bgph2rcd13ifvqc2g","pricing_plan_id":"cebpf4jnsgd1na2vs0mg"},{"bike_id":"942ee348-f601-4816-a32c-40a8d55d3f6b","system_id":"levelo_inurba_marseille","lat":43.337444,"lon":5.374475,"is_reserved":false,"is_disabled":true,"rental_uris":{"android":"levelo://app?vid=942ee348-f601-4816-a32c-40a8d55d3f6b","ios":"levelo://app?vid=942ee348-f601-4816-a32c-40a8d55d3f6b"},"vehicle_type_id":"4","last_reported":1738580874,"current_range_meters":0,"station_id":"","pricing_plan_id":"cebpf4jnsgd1na2vs0mg"},{"bike_id":"7b92b0f8-0d64-4953-ae51-eb052fd045f7","system_id":"levelo_inurba_marseille","lat":43.301507,"lon":5.380784,"is_reserved":false,"is_disabled":false,"rental_uris":{"android":"levelo://app?vid=7b92b0f8-0d64-4953-ae51-eb052fd045f7","ios":"levelo://app?vid=7b92b0f8-0d64-4953-ae51-eb052fd045f7"},"vehicle_type_id":"4","last_reported":1738580874,"current_range_meters":26800,"station_id":"ce4bgjp2rcd13ifvqbh0","pricing_plan_id":"cebpf4jnsgd1na2vs0mg"},{"bike_id":"34281a28-ec24-4122-b5c0-f65d7607fdaf","system_id":"levelo_inurba_marseille","lat":43.25508,"lon":5.37657,"is_reserved":false,"is_disabled":false,"rental_uris":{"android":"levelo://app?vid=34281a28-ec24-4122-b5c0-f65d7607fdaf","ios":"levelo://app?vid=34281a28-ec24-4122-b5c0-f65d7607fdaf"},"vehicle_type_id":"4","last_reported":1738580874,"current_range_meters":38800,"station_id":"ce4bhh12rcd13ifvqff0","pricing_plan_id":"cebpf4jnsgd1na2vs0mg"},{"bike_id":"6b05ced6-7828-4c66-a791-e0d45f419c96","system_id":"levelo_inurba_marseille","lat":43.25875,"lon":5.39892,"is_reserved":false,"is_disabled":false,"rental_uris":{"android":"levelo://app?vid=6b05ced6-7828-4c66-a791-e0d45f419c96","ios":"levelo://app?vid=6b05ced6-7828-4c66-a791-e0d45f419c96"},"vehicle_type_id":"4","last_reported":1738580874,"current_range_meters":33200,"station_id":"ce4bhl92rcd13ifvqghg","pricing_plan_id":"cebpf4jnsgd1na2vs0mg"},{"bike_id":"c8bd1d84-2291-473f-ab82-361f165fe1db","system_id":"levelo_inurba_marseille","lat":43.24165,"lon":5.36404,"is_reserved":false,"is_disabled":false,"rental_uris":{"android":"levelo://app?vid=c8bd1d84-2291-473f-ab82-361f165fe1db","ios":"levelo://app?vid=c8bd1d84-2291-473f-ab82-361f165fe1db"},"vehicle_type_id":"4","last_reported":1738580874,"current_range_meters":27200,"station_id":"cpo36qri1sfpv3e86is0","pricing_plan_id":"cebpf4jnsgd1na2vs0mg"},{"bike_id":"7f4168b7-18d2-4ab2-9190-9cf07ccd465b","system_id":"levelo_inurba_marseille","lat":43.279644,"lon":5.38755,"is_reserved":false,"is_disabled":false,"rental_uris":{"android":"levelo://app?vid=7f4168b7-18d2-4ab2-9190-9cf07ccd465b","ios":"levelo://app?vid=7f4168b7-18d2-4ab2-9190-9cf07ccd465b"},"vehicle_type_id":"4","last_reported":1738580874,"current_range_meters":26800,"station_id":"ce4bhg12rcd13ifvqf80","pricing_plan_id":"cebpf4jnsgd1na2vs0mg"},{"bike_id":"bb846df9-2969-480a-aed6-edbcf9c326fb","system_id":"levelo_inurba_marseille","lat":43.248163,"lon":5.3746,"is_reserved":false,"is_disabled":false,"rental_uris":{"android":"levelo://app?vid=bb846df9-2969-480a-aed6-edbcf9c326fb","ios":"levelo://app?vid=bb846df9-2969-480a-aed6-edbcf9c326fb"},"vehicle_type_id":"4","last_reported":1738580874,"current_range_meters":29600,"station_id":"ce4bhgh2rcd13ifvqfb0","pricing_plan_id":"cebpf4jnsgd1na2vs0mg"},{"bike_id":"93505586-73d7-43cf-af8c-6b7d734f8a4a","system_id":"levelo_inurba_marseille","lat":43.30548,"lon":5.36538,"is_reserved":false,"is_disabled":false,"rental_uris":{"android":"levelo://app?vid=93505586-73d7-43cf-af8c-6b7d734f8a4a","ios":"levelo://app?vid=93505586-73d7-43cf-af8c-6b7d734f8a4a"},"vehicle_type_id":"4","last_reported":1738580874,"current_range_meters":30400,"station_id":"ce4bgs12rcd13ifvqcag","pricing_plan_id":"cebpf4jnsgd1na2vs0mg"},{"bike_id":"85e0a930-26fd-4edc-a536-795827c6b8db","system_id":"levelo_inurba_marseille","lat":43.28703,"lon":5.37391,"is_reserved":false,"is_disabled":false,"rental_uris":{"android":"levelo://app?vid=85e0a930-26fd-4edc-a536-795827c6b8db","ios":"levelo://app?vid=85e0a930-26fd-4edc-a536-795827c6b8db"},"vehicle_type_id":"4","last_reported":1738580874,"current_range_meters":18800,"station_id":"ce4bh3p2rcd13ifvqdq0","pricing_plan_id":"cebpf4jnsgd1na2vs0mg"},{"bike_id":"ef522ec1-733b-4526-883e-365a20f2baa8","system_id":"levelo_inurba_marseille","lat":43.307986,"lon":5.368051,"is_reserved":false,"is_disabled":false,"rental_uris":{"android":"levelo://app?vid=ef522ec1-733b-4526-883e-365a20f2baa8","ios":"levelo://app?vid=ef522ec1-733b-4526-883e-365a20f2baa8"},"vehicle_type_id":"4","last_reported":1738580874,"current_range_meters":38800,"station_id":"","pricing_plan_id":"cebpf4jnsgd1na2vs0mg"},{"bike_id":"3a2543e8-dbe2-48ef-a831-9eae03092f63","system_id":"levelo_inurba_marseille","lat":43.2782,"lon":5.40716,"is_reserved":false,"is_disabled":false,"rental_uris":{"android":"levelo://app?vid=3a2543e8-dbe2-48ef-a831-9eae03092f63","ios":"levelo://app?vid=3a2543e8-dbe2-48ef-a831-9eae03092f63"},"vehicle_type_id":"4","last_reported":1738580874,"current_range_meters":37600,"station_id":"ce4bhnh2rcd13ifvqgtg","pricing_plan_id":"cebpf4jnsgd1na2vs0mg"},{"bike_id":"52a58f27-af6d-48c6-a4a9-f9cc573dabc5","system_id":"levelo_inurba_marseille","lat":43.309064,"lon":5.368586,"is_reserved":false,"is_disabled":false,"rental_uris":{"android":"levelo://app?vid=52a58f27-af6d-48c6-a4a9-f9cc573dabc5","ios":"levelo://app?vid=52a58f27-af6d-48c6-a4a9-f9cc573dabc5"},"vehicle_type_id":"4","last_reported":1738580874,"current_range_meters":38000,"station_id":"ce4bgn92rcd13ifvqbvg","pricing_plan_id":"cebpf4jnsgd1na2vs0mg"},{"bike_id":"63d379f8-ce0b-40dc-abaa-4207a2074d04","system_id":"levelo_inurba_marseille","lat":43.27494,"lon":5.42453,"is_reserved":false,"is_disabled":false,"rental_uris":{"android":"levelo://app?vid=63d379f8-ce0b-40dc-abaa-4207a2074d04","ios":"levelo://app?vid=63d379f8-ce0b-40dc-abaa-4207a2074d04"},"vehicle_type_id":"4","last_reported":1738580874,"current_range_meters":18000,"station_id":"ce4bhn92rcd13ifvqgrg","pricing_plan_id":"cebpf4jnsgd1na2vs0mg"},{"bike_id":"df12aafd-7ad8-4984-b1b3-b743b66b768d","system_id":"levelo_inurba_marseille","lat":43.32465,"lon":5.3659,"is_reserved":false,"is_disabled":false,"rental_uris":{"android":"levelo://app?vid=df12aafd-7ad8-4984-b1b3-b743b66b768d","ios":"levelo://app?vid=df12aafd-7ad8-4984-b1b3-b743b66b768d"},"vehicle_type_id":"4","last_reported":1738580874,"current_range_meters":38800,"station_id":"ce4bhs12rcd13ifvqhvg","pricing_plan_id":"cebpf4jnsgd1na2vs0mg"},{"bike_id":"99e09d33-f84a-4930-968e-f3052669a02c","system_id":"levelo_inurba_marseille","lat":43.27809,"lon":5.40703,"is_reserved":false,"is_disabled":false,"rental_uris":{"android":"levelo://app?vid=99e09d33-f84a-4930-968e-f3052669a02c","ios":"levelo://app?vid=99e09d33-f84a-4930-968e-f3052669a02c"},"vehicle_type_id":"4","last_reported":1738580874,"current_range_meters":28400,"station_id":"ce4bhnh2rcd13ifvqgtg","pricing_plan_id":"cebpf4jnsgd1na2vs0mg"},{"bike_id":"19f6eb4d-24b8-4e84-9d40-0d007af72867","system_id":"levelo_inurba_marseille","lat":43.25867,"lon":5.399,"is_reserved":false,"is_disabled":false,"rental_uris":{"android":"levelo://app?vid=19f6eb4d-24b8-4e84-9d40-0d007af72867","ios":"levelo://app?vid=19f6eb4d-24b8-4e84-9d40-0d007af72867"},"vehicle_type_id":"4","last_reported":1738580874,"current_range_meters":27600,"station_id":"ce4bhl92rcd13ifvqghg","pricing_plan_id":"cebpf4jnsgd1na2vs0mg"},{"bike_id":"4b8f445e-d4a3-436e-af35-fee03661f846","system_id":"levelo_inurba_marseille","lat":43.31362,"lon":5.3679,"is_reserved":false,"is_disabled":false,"rental_uris":{"android":"levelo://app?vid=4b8f445e-d4a3-436e-af35-fee03661f846","ios":"levelo://app?vid=4b8f445e-d4a3-436e-af35-fee03661f846"},"vehicle_type_id":"4","last_reported":1738580874,"current_range_meters":38800,"station_id":"","pricing_plan_id":"cebpf4jnsgd1na2vs0mg"},{"bike_id":"6680bef6-29dc-411f-98bd-c0592fd24b70","system_id":"levelo_inurba_marseille","lat":43.27056,"lon":5.40268,"is_reserved":false,"is_disabled":false,"rental_uris":{"android":"levelo://app?vid=6680bef6-29dc-411f-98bd-c0592fd24b70","ios":"levelo://app?vid=6680bef6-29dc-411f-98bd-c0592fd24b70"},"vehicle_type_id":"4","last_reported":1738580874,"current_range_meters":24800,"station_id":"ce4bhk92rcd13ifvqgc0","pricing_plan_id":"cebpf4jnsgd1na2vs0mg"},{"bike_id":"6545e90f-33de-4693-85a6-cc1fe9f868a0","system_id":"levelo_inurba_marseille","lat":43.2733,"lon":5.39115,"is_reserved":false,"is_disabled":false,"rental_uris":{"android":"levelo://app?vid=6545e90f-33de-4693-85a6-cc1fe9f868a0","ios":"levelo://app?vid=6545e90f-33de-4693-85a6-cc1fe9f868a0"},"vehicle_type_id":"4","last_reported":1738580874,"current_range_meters":36800,"station_id":"ce4bhgp2rcd13ifvqfe0","pricing_plan_id":"cebpf4jnsgd1na2vs0mg"},{"bike_id":"710d575f-a84c-401c-a910-f04b3610e224","system_id":"levelo_inurba_marseille","lat":43.30133,"lon":5.37424,"is_reserved":false,"is_disabled":false,"rental_uris":{"android":"levelo://app?vid=710d575f-a84c-401c-a910-f04b3610e224","ios":"levelo://app?vid=710d575f-a84c-401c-a910-f04b3610e224"},"vehicle_type_id":"4","last_reported":1738580874,"current_range_meters":39200,"station_id":"ce4bgs92rcd13ifvqcc0","pricing_plan_id":"cebpf4jnsgd1na2vs0mg"},{"bike_id":"2edd9305-848f-45a7-989d-f83d93e513ea","system_id":"levelo_inurba_marseille","lat":43.24178,"lon":5.39732,"is_reserved":false,"is_disabled":false,"rental_uris":{"android":"levelo://app?vid=2edd9305-848f-45a7-989d-f83d93e513ea","ios":"levelo://app?vid=2edd9305-848f-45a7-989d-f83d93e513ea"},"vehicle_type_id":"4","last_reported":1738580874,"current_range_meters":16000,"station_id":"ce4bhn12rcd13ifvqgpg","pricing_plan_id":"cebpf4jnsgd1na2vs0mg"},{"bike_id":"e0cc689a-9a8b-447d-90d7-bf345c81c23e","system_id":"levelo_inurba_marseille","lat":43.29388,"lon":5.37863,"is_reserved":false,"is_disabled":false,"rental_uris":{"android":"levelo://app?vid=e0cc689a-9a8b-447d-90d7-bf345c81c23e","ios":"levelo://app?vid=e0cc689a-9a8b-447d-90d7-bf345c81c23e"},"vehicle_type_id":"4","last_reported":1738580874,"current_range_meters":38800,"station_id":"ce4bgjh2rcd13ifvqbf0","pricing_plan_id":"cebpf4jnsgd1na2vs0mg"},{"bike_id":"987389a2-714b-4702-bea8-dab01f59e0c6","system_id":"levelo_inurba_marseille","lat":43.31363,"lon":5.36697,"is_reserved":false,"is_disabled":false,"rental_uris":{"android":"levelo://app?vid=987389a2-714b-4702-bea8-dab01f59e0c6","ios":"levelo://app?vid=987389a2-714b-4702-bea8-dab01f59e0c6"},"vehicle_type_id":"4","last_reported":1738580874,"current_range_meters":35600,"station_id":"ce4bgr92rcd13ifvqc6g","pricing_plan_id":"cebpf4jnsgd1na2vs0mg"},{"bike_id":"f5cee390-f714-414d-a343-4c04052a7d92","system_id":"levelo_inurba_marseille","lat":43.30165,"lon":5.38089,"is_reserved":false,"is_disabled":false,"rental_uris":{"android":"levelo://app?vid=f5cee390-f714-414d-a343-4c04052a7d92","ios":"levelo://app?vid=f5cee390-f714-414d-a343-4c04052a7d92"},"vehicle_type_id":"4","last_reported":1738580874,"current_range_meters":38800,"station_id":"ce4bgjp2rcd13ifvqbh0","pricing_plan_id":"cebpf4jnsgd1na2vs0mg"},{"bike_id":"58bba160-735c-4663-b51c-07e3b2a10c76","system_id":"levelo_inurba_marseille","lat":43.337444,"lon":5.374475,"is_reserved":false,"is_disabled":false,"rental_uris":{"android":"levelo://app?vid=58bba160-735c-4663-b51c-07e3b2a10c76","ios":"levelo://app?vid=58bba160-735c-4663-b51c-07e3b2a10c76"},"vehicle_type_id":"4","last_reported":1738580874,"current_range_meters":38000,"station_id":"ce4bh0h2rcd13ifvqd40","pricing_plan_id":"cebpf4jnsgd1na2vs0mg"},{"bike_id":"d7f4aa5e-40ed-4777-b516-f5779ff35ff8","system_id":"levelo_inurba_marseille","lat":43.26503,"lon":5.39548,"is_reserved":false,"is_disabled":false,"rental_uris":{"android":"levelo://app?vid=d7f4aa5e-40ed-4777-b516-f5779ff35ff8","ios":"levelo://app?vid=d7f4aa5e-40ed-4777-b516-f5779ff35ff8"},"vehicle_type_id":"4","last_reported":1738580874,"current_range_meters":38800,"station_id":"ce4bhi12rcd13ifvqfq0","pricing_plan_id":"cebpf4jnsgd1na2vs0mg"},{"bike_id":"343a38d7-041e-4d5a-9e03-02c9e3090980","system_id":"levelo_inurba_marseille","lat":43.26539,"lon":5.39037,"is_reserved":false,"is_disabled":false,"rental_uris":{"android":"levelo://app?vid=343a38d7-041e-4d5a-9e03-02c9e3090980","ios":"levelo://app?vid=343a38d7-041e-4d5a-9e03-02c9e3090980"},"vehicle_type_id":"4","last_reported":1738580874,"current_range_meters":34000,"station_id":"ce4bhe12rcd13ifvqf30","pricing_plan_id":"cebpf4jnsgd1na2vs0mg"},{"bike_id":"e0cbf8f2-4a92-439e-b08d-e0ad98caa80c","system_id":"levelo_inurba_marseille","lat":43.2962,"lon":5.37172,"is_reserved":false,"is_disabled":false,"rental_uris":{"android":"levelo://app?vid=e0cbf8f2-4a92-439e-b08d-e0ad98caa80c","ios":"levelo://app?vid=e0cbf8f2-4a92-439e-b08d-e0ad98caa80c"},"vehicle_type_id":"4","last_reported":1738580874,"current_range_meters":27600,"station_id":"ce4bgnh2rcd13ifvqc0g","pricing_plan_id":"cebpf4jnsgd1na2vs0mg"},{"bike_id":"dbdfa809-53c1-4aa6-8539-88b7e02d360b","system_id":"levelo_inurba_marseille","lat":43.30157,"lon":5.3809,"is_reserved":false,"is_disabled":false,"rental_uris":{"android":"levelo://app?vid=dbdfa809-53c1-4aa6-8539-88b7e02d360b","ios":"levelo://app?vid=dbdfa809-53c1-4aa6-8539-88b7e02d360b"},"vehicle_type_id":"4","last_reported":1738580874,"current_range_meters":39200,"station_id":"ce4bgjp2rcd13ifvqbh0","pricing_plan_id":"cebpf4jnsgd1na2vs0mg"},{"bike_id":"7bbd1ca9-5cb4-4750-a3f0-60560373cbff","system_id":"levelo_inurba_marseille","lat":43.25494,"lon":5.37649,"is_reserved":false,"is_disabled":false,"rental_uris":{"android":"levelo://app?vid=7bbd1ca9-5cb4-4750-a3f0-60560373cbff","ios":"levelo://app?vid=7bbd1ca9-5cb4-4750-a3f0-60560373cbff"},"vehicle_type_id":"4","last_reported":1738580874,"current_range_meters":17600,"station_id":"ce4bhh12rcd13ifvqff0","pricing_plan_id":"cebpf4jnsgd1na2vs0mg"},{"bike_id":"644feac1-246b-487e-9fe8-e8f93b5e1b9e","system_id":"levelo_inurba_marseille","lat":43.336052,"lon":5.409869,"is_reserved":false,"is_disabled":false,"rental_uris":{"android":"levelo://app?vid=644feac1-246b-487e-9fe8-e8f93b5e1b9e","ios":"levelo://app?vid=644feac1-246b-487e-9fe8-e8f93b5e1b9e"},"vehicle_type_id":"4","last_reported":1738580874,"current_range_meters":17200,"station_id":"ce4bhqh2rcd13ifvqhmg","pricing_plan_id":"cebpf4jnsgd1na2vs0mg"},{"bike_id":"20d78091-b743-478b-a12c-d5c9f2c24bc2","system_id":"levelo_inurba_marseille","lat":43.26947,"lon":5.38636,"is_reserved":false,"is_disabled":false,"rental_uris":{"android":"levelo://app?vid=20d78091-b743-478b-a12c-d5c9f2c24bc2","ios":"levelo://app?vid=20d78091-b743-478b-a12c-d5c9f2c24bc2"},"vehicle_type_id":"4","last_reported":1738580874,"current_range_meters":38800,"station_id":"ce4bhh92rcd13ifvqfh0","pricing_plan_id":"cebpf4jnsgd1na2vs0mg"},{"bike_id":"bb7a1f95-e3f3-4b54-b5c9-cc2bfd7f2801","system_id":"levelo_inurba_marseille","lat":43.28435,"lon":5.39185,"is_reserved":false,"is_disabled":false,"rental_uris":{"android":"levelo://app?vid=bb7a1f95-e3f3-4b54-b5c9-cc2bfd7f2801","ios":"levelo://app?vid=bb7a1f95-e3f3-4b54-b5c9-cc2bfd7f2801"},"vehicle_type_id":"4","last_reported":1738580874,"current_range_meters":33200,"station_id":"ce4bhoh2rcd13ifvqh5g","pricing_plan_id":"cebpf4jnsgd1na2vs0mg"},{"bike_id":"577383b2-bf58-4b25-8224-bf0cdd1be01d","system_id":"levelo_inurba_marseille","lat":43.241763,"lon":5.397363,"is_reserved":false,"is_disabled":false,"rental_uris":{"android":"levelo://app?vid=577383b2-bf58-4b25-8224-bf0cdd1be01d","ios":"levelo://app?vid=577383b2-bf58-4b25-8224-bf0cdd1be01d"},"vehicle_type_id":"4","last_reported":1738580874,"current_range_meters":25200,"station_id":"ce4bhn12rcd13ifvqgpg","pricing_plan_id":"cebpf4jnsgd1na2vs0mg"},{"bike_id":"5feaebc8-b031-46e2-a790-68f12f813006","system_id":"levelo_inurba_marseille","lat":43.31362,"lon":5.36722,"is_reserved":false,"is_disabled":false,"rental_uris":{"android":"levelo://app?vid=5feaebc8-b031-46e2-a790-68f12f813006","ios":"levelo://app?vid=5feaebc8-b031-46e2-a790-68f12f813006"},"vehicle_type_id":"4","last_reported":1738580874,"current_range_meters":34000,"station_id":"ce4bgr92rcd13ifvqc6g","pricing_plan_id":"cebpf4jnsgd1na2vs0mg"},{"bike_id":"7676f3f2-ab84-437d-9802-e18ce239cd81","system_id":"levelo_inurba_marseille","lat":43.33601,"lon":5.410352,"is_reserved":false,"is_disabled":false,"rental_uris":{"android":"levelo://app?vid=7676f3f2-ab84-437d-9802-e18ce239cd81","ios":"levelo://app?vid=7676f3f2-ab84-437d-9802-e18ce239cd81"},"vehicle_type_id":"4","last_reported":1738580874,"current_range_meters":39200,"station_id":"ce4bhqh2rcd13ifvqhmg","pricing_plan_id":"cebpf4jnsgd1na2vs0mg"},{"bike_id":"6bb18b6b-35db-4080-8375-2a2e83c6fc4b","system_id":"levelo_inurba_marseille","lat":43.23149,"lon":5.43714,"is_reserved":false,"is_disabled":true,"rental_uris":{"android":"levelo://app?vid=6bb18b6b-35db-4080-8375-2a2e83c6fc4b","ios":"levelo://app?vid=6bb18b6b-35db-4080-8375-2a2e83c6fc4b"},"vehicle_type_id":"4","last_reported":1738580874,"current_range_meters":39200,"station_id":"ce4bhmp2rcd13ifvqgog","pricing_plan_id":"cebpf4jnsgd1na2vs0mg"},{"bike_id":"899ea6e0-60c2-4034-8546-b37f7572b554","system_id":"levelo_inurba_marseille","lat":43.28423,"lon":5.34987,"is_reserved":false,"is_disabled":false,"rental_uris":{"android":"levelo://app?vid=899ea6e0-60c2-4034-8546-b37f7572b554","ios":"levelo://app?vid=899ea6e0-60c2-4034-8546-b37f7572b554"},"vehicle_type_id":"4","last_reported":1738580874,"current_range_meters":37600,"station_id":"ce4bhbh2rcd13ifvqepg","pricing_plan_id":"cebpf4jnsgd1na2vs0mg"},{"bike_id":"ee02ba39-6dd1-464e-a055-c5b504c55947","system_id":"levelo_inurba_marseille","lat":43.31318,"lon":5.36745,"is_reserved":false,"is_disabled":false,"rental_uris":{"android":"levelo://app?vid=ee02ba39-6dd1-464e-a055-c5b504c55947","ios":"levelo://app?vid=ee02ba39-6dd1-464e-a055-c5b504c55947"},"vehicle_type_id":"4","last_reported":1738580874,"current_range_meters":22800,"station_id":"ce4bgr92rcd13ifvqc6g","pricing_plan_id":"cebpf4jnsgd1na2vs0mg"},{"bike_id":"43607b92-ddf1-4d22-a11f-9744a9fd84d4","system_id":"levelo_inurba_marseille","lat":43.24076,"lon":5.37778,"is_reserved":false,"is_disabled":false,"rental_uris":{"android":"levelo://app?vid=43607b92-ddf1-4d22-a11f-9744a9fd84d4","ios":"levelo://app?vid=43607b92-ddf1-4d22-a11f-9744a9fd84d4"},"vehicle_type_id":"4","last_reported":1738580874,"current_range_meters":25600,"station_id":"ce4bhnp2rcd13ifvqgvg","pricing_plan_id":"cebpf4jnsgd1na2vs0mg"},{"bike_id":"f8f66db3-7d5d-4422-a4e8-ba4ee03dd68c","system_id":"levelo_inurba_marseille","lat":43.30553,"lon":5.36527,"is_reserved":false,"is_disabled":false,"rental_uris":{"android":"levelo://app?vid=f8f66db3-7d5d-4422-a4e8-ba4ee03dd68c","ios":"levelo://app?vid=f8f66db3-7d5d-4422-a4e8-ba4ee03dd68c"},"vehicle_type_id":"4","last_reported":1738580874,"current_range_meters":38400,"station_id":"ce4bgs12rcd13ifvqcag","pricing_plan_id":"cebpf4jnsgd1na2vs0mg"},{"bike_id":"6594b6c1-7c6f-4d84-8dc2-9ea6d3bda34a","system_id":"levelo_inurba_marseille","lat":43.248049,"lon":5.374518,"is_reserved":false,"is_disabled":true,"rental_uris":{"android":"levelo://app?vid=6594b6c1-7c6f-4d84-8dc2-9ea6d3bda34a","ios":"levelo://app?vid=6594b6c1-7c6f-4d84-8dc2-9ea6d3bda34a"},"vehicle_type_id":"4","last_reported":1738580874,"current_range_meters":39200,"station_id":"ce4bhgh2rcd13ifvqfb0","pricing_plan_id":"cebpf4jnsgd1na2vs0mg"},{"bike_id":"27a1618b-ec0c-4b1b-9df1-d6544781bbc9","system_id":"levelo_inurba_marseille","lat":43.2558,"lon":5.38223,"is_reserved":false,"is_disabled":false,"rental_uris":{"android":"levelo://app?vid=27a1618b-ec0c-4b1b-9df1-d6544781bbc9","ios":"levelo://app?vid=27a1618b-ec0c-4b1b-9df1-d6544781bbc9"},"vehicle_type_id":"4","last_reported":1738580874,"current_range_meters":12000,"station_id":"ce4bhih2rcd13ifvqfs0","pricing_plan_id":"cebpf4jnsgd1na2vs0mg"},{"bike_id":"1835d11e-5aeb-49c5-8332-a7f20203500d","system_id":"levelo_inurba_marseille","lat":43.31353,"lon":5.36706,"is_reserved":false,"is_disabled":false,"rental_uris":{"android":"levelo://app?vid=1835d11e-5aeb-49c5-8332-a7f20203500d","ios":"levelo://app?vid=1835d11e-5aeb-49c5-8332-a7f20203500d"},"vehicle_type_id":"4","last_reported":1738580874,"current_range_meters":39200,"station_id":"ce4bgr92rcd13ifvqc6g","pricing_plan_id":"cebpf4jnsgd1na2vs0mg"},{"bike_id":"6fa29cff-d8fa-4fb1-b5d9-4a419f3f6115","system_id":"levelo_inurba_marseille","lat":43.25912,"lon":5.40884,"is_reserved":false,"is_disabled":false,"rental_uris":{"android":"levelo://app?vid=6fa29cff-d8fa-4fb1-b5d9-4a419f3f6115","ios":"levelo://app?vid=6fa29cff-d8fa-4fb1-b5d9-4a419f3f6115"},"vehicle_type_id":"4","last_reported":1738580874,"current_range_meters":15200,"station_id":"ce4bhm92rcd13ifvqglg","pricing_plan_id":"cebpf4jnsgd1na2vs0mg"},{"bike_id":"443a4f24-1f44-44b3-92e2-5d344bf02aa7","system_id":"levelo_inurba_marseille","lat":43.29884,"lon":5.37093,"is_reserved":false,"is_disabled":false,"rental_uris":{"android":"levelo://app?vid=443a4f24-1f44-44b3-92e2-5d344bf02aa7","ios":"levelo://app?vid=443a4f24-1f44-44b3-92e2-5d344bf02aa7"},"vehicle_type_id":"4","last_reported":1738580874,"current_range_meters":38800,"station_id":"ce4bgr92rcd13ifvqc7g","pricing_plan_id":"cebpf4jnsgd1na2vs0mg"},{"bike_id":"4b856b48-9010-4a44-abee-c2b574e6da0d","system_id":"levelo_inurba_marseille","lat":43.27947,"lon":5.41047,"is_reserved":false,"is_disabled":false,"rental_uris":{"android":"levelo://app?vid=4b856b48-9010-4a44-abee-c2b574e6da0d","ios":"levelo://app?vid=4b856b48-9010-4a44-abee-c2b574e6da0d"},"vehicle_type_id":"4","last_reported":1738580874,"current_range_meters":26800,"station_id":"ce4bhnp2rcd13ifvqh0g","pricing_plan_id":"cebpf4jnsgd1na2vs0mg"},{"bike_id":"5e6b8352-9c92-4f9c-8e95-6d0437cf2ab8","system_id":"levelo_inurba_marseille","lat":43.27974,"lon":5.38737,"is_reserved":false,"is_disabled":false,"rental_uris":{"android":"levelo://app?vid=5e6b8352-9c92-4f9c-8e95-6d0437cf2ab8","ios":"levelo://app?vid=5e6b8352-9c92-4f9c-8e95-6d0437cf2ab8"},"vehicle_type_id":"4","last_reported":1738580874,"current_range_meters":15200,"station_id":"ce4bhg12rcd13ifvqf80","pricing_plan_id":"cebpf4jnsgd1na2vs0mg"},{"bike_id":"6f8f3da1-b43c-4562-963c-af82ae52e40d","system_id":"levelo_inurba_marseille","lat":43.31212,"lon":5.36857,"is_reserved":false,"is_disabled":false,"rental_uris":{"android":"levelo://app?vid=6f8f3da1-b43c-4562-963c-af82ae52e40d","ios":"levelo://app?vid=6f8f3da1-b43c-4562-963c-af82ae52e40d"},"vehicle_type_id":"4","last_reported":1738580874,"current_range_meters":23200,"station_id":"ce4bgl92rcd13ifvqbq0","pricing_plan_id":"cebpf4jnsgd1na2vs0mg"},{"bike_id":"6e96992e-e0e6-4329-a80c-6528444b4b6f","system_id":"levelo_inurba_marseille","lat":43.28161,"lon":5.42649,"is_reserved":false,"is_disabled":true,"rental_uris":{"android":"levelo://app?vid=6e96992e-e0e6-4329-a80c-6528444b4b6f","ios":"levelo://app?vid=6e96992e-e0e6-4329-a80c-6528444b4b6f"},"vehicle_type_id":"4","last_reported":1738580874,"current_range_meters":1600,"station_id":"ce4bhnh2rcd13ifvqgug","pricing_plan_id":"cebpf4jnsgd1na2vs0mg"},{"bike_id":"ea290fa1-cbe9-4669-91c0-c2799c62840f","system_id":"levelo_inurba_marseille","lat":43.29029,"lon":5.38125,"is_reserved":false,"is_disabled":false,"rental_uris":{"android":"levelo://app?vid=ea290fa1-cbe9-4669-91c0-c2799c62840f","ios":"levelo://app?vid=ea290fa1-cbe9-4669-91c0-c2799c62840f"},"vehicle_type_id":"4","last_reported":1738580874,"current_range_meters":39200,"station_id":"ce4bh4p2rcd13ifvqe1g","pricing_plan_id":"cebpf4jnsgd1na2vs0mg"},{"bike_id":"eb9c859e-ef39-446e-afa7-9063d5540a2c","system_id":"levelo_inurba_marseille","lat":43.32927,"lon":5.36716,"is_reserved":false,"is_disabled":false,"rental_uris":{"android":"levelo://app?vid=eb9c859e-ef39-446e-afa7-9063d5540a2c","ios":"levelo://app?vid=eb9c859e-ef39-446e-afa7-9063d5540a2c"},"vehicle_type_id":"4","last_reported":1738580874,"current_range_meters":33200,"station_id":"","pricing_plan_id":"cebpf4jnsgd1na2vs0mg"},{"bike_id":"30ee17e3-d6b7-44ae-8100-6a928666b898","system_id":"levelo_inurba_marseille","lat":43.28617,"lon":5.37078,"is_reserved":false,"is_disabled":false,"rental_uris":{"android":"levelo://app?vid=30ee17e3-d6b7-44ae-8100-6a928666b898","ios":"levelo://app?vid=30ee17e3-d6b7-44ae-8100-6a928666b898"},"vehicle_type_id":"4","last_reported":1738580874,"current_range_meters":38800,"station_id":"ce4bht12rcd13ifvqi60","pricing_plan_id":"cebpf4jnsgd1na2vs0mg"},{"bike_id":"3c12d71f-fdf6-47c7-8762-9a25ac4bcc24","system_id":"levelo_inurba_marseille","lat":43.26208,"lon":5.37916,"is_reserved":false,"is_disabled":true,"rental_uris":{"android":"levelo://app?vid=3c12d71f-fdf6-47c7-8762-9a25ac4bcc24","ios":"levelo://app?vid=3c12d71f-fdf6-47c7-8762-9a25ac4bcc24"},"vehicle_type_id":"4","last_reported":1738580874,"current_range_meters":25200,"station_id":"ce4bhjp2rcd13ifvqg90","pricing_plan_id":"cebpf4jnsgd1na2vs0mg"},{"bike_id":"42c5a1c4-fa81-451e-9aca-6c434ec39c24","system_id":"levelo_inurba_marseille","lat":43.31322,"lon":5.37072,"is_reserved":false,"is_disabled":false,"rental_uris":{"android":"levelo://app?vid=42c5a1c4-fa81-451e-9aca-6c434ec39c24","ios":"levelo://app?vid=42c5a1c4-fa81-451e-9aca-6c434ec39c24"},"vehicle_type_id":"4","last_reported":1738580874,"current_range_meters":39200,"station_id":"ce4bgl92rcd13ifvqbq0","pricing_plan_id":"cebpf4jnsgd1na2vs0mg"},{"bike_id":"d5c61d2a-878c-479e-af9a-89b9842d64aa","system_id":"levelo_inurba_marseille","lat":43.28613,"lon":5.37059,"is_reserved":false,"is_disabled":false,"rental_uris":{"android":"levelo://app?vid=d5c61d2a-878c-479e-af9a-89b9842d64aa","ios":"levelo://app?vid=d5c61d2a-878c-479e-af9a-89b9842d64aa"},"vehicle_type_id":"4","last_reported":1738580874,"current_range_meters":8800,"station_id":"ce4bht12rcd13ifvqi60","pricing_plan_id":"cebpf4jnsgd1na2vs0mg"},{"bike_id":"1e236cf6-3708-4a2d-adc9-455adfdd2440","system_id":"levelo_inurba_marseille","lat":43.30207,"lon":5.3947,"is_reserved":false,"is_disabled":false,"rental_uris":{"android":"levelo://app?vid=1e236cf6-3708-4a2d-adc9-455adfdd2440","ios":"levelo://app?vid=1e236cf6-3708-4a2d-adc9-455adfdd2440"},"vehicle_type_id":"4","last_reported":1738580874,"current_range_meters":29600,"station_id":"ce4bh0p2rcd13ifvqd70","pricing_plan_id":"cebpf4jnsgd1na2vs0mg"},{"bike_id":"bd8fce10-db60-4637-88ad-07a5a938f039","system_id":"levelo_inurba_marseille","lat":43.28622,"lon":5.37064,"is_reserved":false,"is_disabled":true,"rental_uris":{"android":"levelo://app?vid=bd8fce10-db60-4637-88ad-07a5a938f039","ios":"levelo://app?vid=bd8fce10-db60-4637-88ad-07a5a938f039"},"vehicle_type_id":"4","last_reported":1738580874,"current_range_meters":3200,"station_id":"","pricing_plan_id":"cebpf4jnsgd1na2vs0mg"},{"bike_id":"aca7f856-95b0-4e97-8a0a-cf9d567272bd","system_id":"levelo_inurba_marseille","lat":43.2305,"lon":5.35516,"is_reserved":false,"is_disabled":false,"rental_uris":{"android":"levelo://app?vid=aca7f856-95b0-4e97-8a0a-cf9d567272bd","ios":"levelo://app?vid=aca7f856-95b0-4e97-8a0a-cf9d567272bd"},"vehicle_type_id":"4","last_reported":1738580874,"current_range_meters":36800,"station_id":"cpo3342slgdg3j2ifvpg","pricing_plan_id":"cebpf4jnsgd1na2vs0mg"},{"bike_id":"3a29443a-a040-438d-869b-5653ca007777","system_id":"levelo_inurba_marseille","lat":43.3054,"lon":5.36755,"is_reserved":false,"is_disabled":false,"rental_uris":{"android":"levelo://app?vid=3a29443a-a040-438d-869b-5653ca007777","ios":"levelo://app?vid=3a29443a-a040-438d-869b-5653ca007777"},"vehicle_type_id":"4","last_reported":1738580874,"current_range_meters":14400,"station_id":"ce4bgrp2rcd13ifvqc9g","pricing_plan_id":"cebpf4jnsgd1na2vs0mg"},{"bike_id":"9d9e6714-036c-4151-8a5d-515ad00cd54b","system_id":"levelo_inurba_marseille","lat":43.23172,"lon":5.35556,"is_reserved":false,"is_disabled":false,"rental_uris":{"android":"levelo://app?vid=9d9e6714-036c-4151-8a5d-515ad00cd54b","ios":"levelo://app?vid=9d9e6714-036c-4151-8a5d-515ad00cd54b"},"vehicle_type_id":"4","last_reported":1738580874,"current_range_meters":22400,"station_id":"ce4bhu92rcd13ifvqi70","pricing_plan_id":"cebpf4jnsgd1na2vs0mg"},{"bike_id":"a0a9ff7c-65bc-459c-b1ae-c94d1bfe3e15","system_id":"levelo_inurba_marseille","lat":43.32476,"lon":5.36554,"is_reserved":false,"is_disabled":false,"rental_uris":{"android":"levelo://app?vid=a0a9ff7c-65bc-459c-b1ae-c94d1bfe3e15","ios":"levelo://app?vid=a0a9ff7c-65bc-459c-b1ae-c94d1bfe3e15"},"vehicle_type_id":"4","last_reported":1738580874,"current_range_meters":38800,"station_id":"ce4bhs12rcd13ifvqhvg","pricing_plan_id":"cebpf4jnsgd1na2vs0mg"},{"bike_id":"294650ee-a3ea-44f5-95b1-9fb9c62a4f32","system_id":"levelo_inurba_marseille","lat":43.31069,"lon":5.38364,"is_reserved":false,"is_disabled":false,"rental_uris":{"android":"levelo://app?vid=294650ee-a3ea-44f5-95b1-9fb9c62a4f32","ios":"levelo://app?vid=294650ee-a3ea-44f5-95b1-9fb9c62a4f32"},"vehicle_type_id":"4","last_reported":1738580874,"current_range_meters":20400,"station_id":"ce4bgv92rcd13ifvqcr0","pricing_plan_id":"cebpf4jnsgd1na2vs0mg"},{"bike_id":"cd9ebcbe-c9cd-40f5-b752-571e623e861b","system_id":"levelo_inurba_marseille","lat":43.30977,"lon":5.39066,"is_reserved":false,"is_disabled":true,"rental_uris":{"android":"levelo://app?vid=cd9ebcbe-c9cd-40f5-b752-571e623e861b","ios":"levelo://app?vid=cd9ebcbe-c9cd-40f5-b752-571e623e861b"},"vehicle_type_id":"4","last_reported":1738580874,"current_range_meters":31200,"station_id":"ce4bgup2rcd13ifvqco0","pricing_plan_id":"cebpf4jnsgd1na2vs0mg"},{"bike_id":"58c4da42-936e-47b9-a525-55bc65de19a0","system_id":"levelo_inurba_marseille","lat":43.29688,"lon":5.37295,"is_reserved":false,"is_disabled":false,"rental_uris":{"android":"levelo://app?vid=58c4da42-936e-47b9-a525-55bc65de19a0","ios":"levelo://app?vid=58c4da42-936e-47b9-a525-55bc65de19a0"},"vehicle_type_id":"4","last_reported":1738580874,"current_range_meters":37600,"station_id":"ce4bgk12rcd13ifvqbj0","pricing_plan_id":"cebpf4jnsgd1na2vs0mg"},{"bike_id":"350a0b7a-f9b3-418a-b14a-c77ca59aba8c","system_id":"levelo_inurba_marseille","lat":43.29568,"lon":5.3997,"is_reserved":false,"is_disabled":false,"rental_uris":{"android":"levelo://app?vid=350a0b7a-f9b3-418a-b14a-c77ca59aba8c","ios":"levelo://app?vid=350a0b7a-f9b3-418a-b14a-c77ca59aba8c"},"vehicle_type_id":"4","last_reported":1738580874,"current_range_meters":30400,"station_id":"ce4bh312rcd13ifvqdj0","pricing_plan_id":"cebpf4jnsgd1na2vs0mg"},{"bike_id":"fa86509c-c01b-48ea-b21a-3e978d1c54d5","system_id":"levelo_inurba_marseille","lat":43.303526,"lon":5.419004,"is_reserved":false,"is_disabled":true,"rental_uris":{"android":"levelo://app?vid=fa86509c-c01b-48ea-b21a-3e978d1c54d5","ios":"levelo://app?vid=fa86509c-c01b-48ea-b21a-3e978d1c54d5"},"vehicle_type_id":"4","last_reported":1738580874,"current_range_meters":37600,"station_id":"ce4bhop2rcd13ifvqh7g","pricing_plan_id":"cebpf4jnsgd1na2vs0mg"},{"bike_id":"f8245ac1-055c-4956-9505-c34c84a2fb02","system_id":"levelo_inurba_marseille","lat":43.31275,"lon":5.37172,"is_reserved":false,"is_disabled":true,"rental_uris":{"android":"levelo://app?vid=f8245ac1-055c-4956-9505-c34c84a2fb02","ios":"levelo://app?vid=f8245ac1-055c-4956-9505-c34c84a2fb02"},"vehicle_type_id":"4","last_reported":1738580874,"current_range_meters":34800,"station_id":"","pricing_plan_id":"cebpf4jnsgd1na2vs0mg"},{"bike_id":"69031904-28de-4fb5-89cb-e2203a303110","system_id":"levelo_inurba_marseille","lat":43.30904,"lon":5.36847,"is_reserved":false,"is_disabled":false,"rental_uris":{"android":"levelo://app?vid=69031904-28de-4fb5-89cb-e2203a303110","ios":"levelo://app?vid=69031904-28de-4fb5-89cb-e2203a303110"},"vehicle_type_id":"4","last_reported":1738580874,"current_range_meters":11600,"station_id":"ce4bgn92rcd13ifvqbvg","pricing_plan_id":"cebpf4jnsgd1na2vs0mg"},{"bike_id":"964835b1-cce3-4e5b-9e07-12a51ed09f1d","system_id":"levelo_inurba_marseille","lat":43.29882,"lon":5.38913,"is_reserved":false,"is_disabled":false,"rental_uris":{"android":"levelo://app?vid=964835b1-cce3-4e5b-9e07-12a51ed09f1d","ios":"levelo://app?vid=964835b1-cce3-4e5b-9e07-12a51ed09f1d"},"vehicle_type_id":"4","last_reported":1738580874,"current_range_meters":38400,"station_id":"ce4bh392rcd13ifvqdl0","pricing_plan_id":"cebpf4jnsgd1na2vs0mg"},{"bike_id":"7b39ed00-86df-4303-bda1-bfc0fee1e7e2","system_id":"levelo_inurba_marseille","lat":43.32449,"lon":5.45536,"is_reserved":false,"is_disabled":false,"rental_uris":{"android":"levelo://app?vid=7b39ed00-86df-4303-bda1-bfc0fee1e7e2","ios":"levelo://app?vid=7b39ed00-86df-4303-bda1-bfc0fee1e7e2"},"vehicle_type_id":"4","last_reported":1738580874,"current_range_meters":28400,"station_id":"","pricing_plan_id":"cebpf4jnsgd1na2vs0mg"},{"bike_id":"27965b13-db93-44ae-be4a-77a8d97c3b7e","system_id":"levelo_inurba_marseille","lat":43.26934,"lon":5.40259,"is_reserved":false,"is_disabled":false,"rental_uris":{"android":"levelo://app?vid=27965b13-db93-44ae-be4a-77a8d97c3b7e","ios":"levelo://app?vid=27965b13-db93-44ae-be4a-77a8d97c3b7e"},"vehicle_type_id":"4","last_reported":1738580874,"current_range_meters":39200,"station_id":"cjm6bp8fraef2m0cb0m0","pricing_plan_id":"cebpf4jnsgd1na2vs0mg"},{"bike_id":"4f2a21bc-4547-416d-9906-d9f0e88be66e","system_id":"levelo_inurba_marseille","lat":43.30195,"lon":5.38095,"is_reserved":false,"is_disabled":false,"rental_uris":{"android":"levelo://app?vid=4f2a21bc-4547-416d-9906-d9f0e88be66e","ios":"levelo://app?vid=4f2a21bc-4547-416d-9906-d9f0e88be66e"},"vehicle_type_id":"4","last_reported":1738580874,"current_range_meters":36800,"station_id":"","pricing_plan_id":"cebpf4jnsgd1na2vs0mg"},{"bike_id":"78c6ad5f-ce80-4a37-86a4-a3d9ef223112","system_id":"levelo_inurba_marseille","lat":43.25584,"lon":5.38243,"is_reserved":false,"is_disabled":false,"rental_uris":{"android":"levelo://app?vid=78c6ad5f-ce80-4a37-86a4-a3d9ef223112","ios":"levelo://app?vid=78c6ad5f-ce80-4a37-86a4-a3d9ef223112"},"vehicle_type_id":"4","last_reported":1738580874,"current_range_meters":28000,"station_id":"ce4bhih2rcd13ifvqfs0","pricing_plan_id":"cebpf4jnsgd1na2vs0mg"},{"bike_id":"9baf002a-51e8-4d48-8fc3-946cc72fcdd7","system_id":"levelo_inurba_marseille","lat":43.27373,"lon":5.36255,"is_reserved":false,"is_disabled":false,"rental_uris":{"android":"levelo://app?vid=9baf002a-51e8-4d48-8fc3-946cc72fcdd7","ios":"levelo://app?vid=9baf002a-51e8-4d48-8fc3-946cc72fcdd7"},"vehicle_type_id":"4","last_reported":1738580874,"current_range_meters":38800,"station_id":"ce4bhbh2rcd13ifvqeo0","pricing_plan_id":"cebpf4jnsgd1na2vs0mg"},{"bike_id":"51672ad5-0ed2-403a-94a2-babb0493ab8d","system_id":"levelo_inurba_marseille","lat":43.31363,"lon":5.3671,"is_reserved":false,"is_disabled":false,"rental_uris":{"android":"levelo://app?vid=51672ad5-0ed2-403a-94a2-babb0493ab8d","ios":"levelo://app?vid=51672ad5-0ed2-403a-94a2-babb0493ab8d"},"vehicle_type_id":"4","last_reported":1738580874,"current_range_meters":28000,"station_id":"ce4bgr92rcd13ifvqc6g","pricing_plan_id":"cebpf4jnsgd1na2vs0mg"},{"bike_id":"324c2be5-1d25-4100-9086-8cdc99db60dc","system_id":"levelo_inurba_marseille","lat":43.259287,"lon":5.409023,"is_reserved":false,"is_disabled":true,"rental_uris":{"android":"levelo://app?vid=324c2be5-1d25-4100-9086-8cdc99db60dc","ios":"levelo://app?vid=324c2be5-1d25-4100-9086-8cdc99db60dc"},"vehicle_type_id":"4","last_reported":1738580874,"current_range_meters":2000,"station_id":"ce4bhm92rcd13ifvqglg","pricing_plan_id":"cebpf4jnsgd1na2vs0mg"},