{"last_updated":1734070483,"ttl":60,"version":"2.2","data":{"bikes":[{"bike_id":"2fbe8e9a-d054-43f7-a514-7a4743e90500","system_id":"levelo_inurba_marseille","lat":43.24812,"lon":5.3746,"is_reserved":false,"is_disabled":false,"rental_uris":{"android":"levelo://app?vid=2fbe8e9a-d054-43f7-a514-7a4743e90500","ios":"levelo://app?vid=2fbe8e9a-d054-43f7-a514-7a4743e90500"},"vehicle_type_id":"4","last_reported":1734070484,"current_range_meters":38800,"station_id":"ce4bhgh2rcd13ifvqfb0","pricing_plan_id":"cebpf4jnsgd1na2vs0mg"},{"bike_id":"3e5d99b9-1aaf-48b9-b5fb-fb7a0b5b1ba5","system_id":"levelo_inurba_marseille","lat":43.29043,"lon":5.39249,"is_reserved":false,"is_disabled":true,"rental_uris":{"android":"levelo://app?vid=3e5d99b9-1aaf-48b9-b5fb-fb7a0b5b1ba5","ios":"levelo://app?vid=3e5d99b9-1aaf-48b9-b5fb-fb7a0b5b1ba5"},"vehicle_type_id":"4","last_reported":1734070484,"current_range_meters":400,"station_id":"","pricing_plan_id":"cebpf4jnsgd1na2vs0mg"},{"bike_id":"907fec12-a848-4864-ae30-c2b590a6dd5f","system_id":"levelo_inurba_marseille","lat":43.26232,"lon":5.37424,"is_reserved":false,"is_disabled":true,"rental_uris":{"android":"levelo://app?vid=907fec12-a848-4864-ae30-c2b590a6dd5f","ios":"levelo://app?vid=907fec12-a848-4864-ae30-c2b590a6dd5f"},"vehicle_type_id":"4","last_reported":1734070484,"current_range_meters":0,"station_id":"","pricing_plan_id":"cebpf4jnsgd1na2vs0mg"},{"bike_id":"60e9ed68-c2d5-4fcc-b1fe-df98992a2ea5","system_id":"levelo_inurba_marseille","lat":43.30764,"lon":5.36837,"is_reserved":false,"is_disabled":true,"rental_uris":{"android":"levelo://app?vid=60e9ed68-c2d5-4fcc-b1fe-df98992a2ea5","ios":"levelo://app?vid=60e9ed68-c2d5-4fcc-b1fe-df98992a2ea5"},"vehicle_type_id":"4","last_reported":1734070484,"current_range_meters":0,"station_id":"","pricing_plan_id":"cebpf4jnsgd1na2vs0mg"},{"bike_id":"bc04aebb-7b5e-4107-acf4-072d1fb0aaa3","system_id":"levelo_inurba_marseille","lat":43.24836,"lon":5.38944,"is_reserved":false,"is_disabled":false,"rental_uris":{"android":"levelo://app?vid=bc04aebb-7b5e-4107-acf4-072d1fb0aaa3","ios":"levelo://app?vid=bc04aebb-7b5e-4107-acf4-072d1fb0aaa3"},"vehicle_type_id":"4","last_reported":1734070484,"current_range_meters":9600,"station_id":"","pricing_plan_id":"cebpf4jnsgd1na2vs0mg"},{"bike_id":"b9147903-fe2d-4d97-a95f-309f5c06e674","system_id":"levelo_inurba_marseille","lat":43.31899,"lon":5.40733,"is_reserved":false,"is_disabled":false,"rental_uris":{"android":"levelo://app?vid=b9147903-fe2d-4d97-a95f-309f5c06e674","ios":"levelo://app?vid=b9147903-fe2d-4d97-a95f-309f5c06e674"},"vehicle_type_id":"4","last_reported":1734070484,"current_range_meters":38800,"station_id":"ce4bhq12rcd13ifvqhig","pricing_plan_id":"cebpf4jnsgd1na2vs0mg"},{"bike_id":"32fade33-734c-4cbf-b948-5cef477a8f70","system_id":"levelo_inurba_marseille","lat":43.29518,"lon":5.39021,"is_reserved":false,"is_disabled":true,"rental_uris":{"android":"levelo://app?vid=32fade33-734c-4cbf-b948-5cef477a8f70","ios":"levelo://app?vid=32fade33-734c-4cbf-b948-5cef477a8f70"},"vehicle_type_id":"4","last_reported":1734070484,"current_range_meters":28000,"station_id":"ce4bh3p2rcd13ifvqdp0","pricing_plan_id":"cebpf4jnsgd1na2vs0mg"},{"bike_id":"508efb86-56c5-4f49-9957-ebb36dff7a2a","system_id":"levelo_inurba_marseille","lat":43.279035,"lon":5.380084,"is_reserved":false,"is_disabled":false,"rental_uris":{"android":"levelo://app?vid=508efb86-56c5-4f49-9957-ebb36dff7a2a","ios":"levelo://app?vid=508efb86-56c5-4f49-9957-ebb36dff7a2a"},"vehicle_type_id":"4","last_reported":1734070484,"current_range_meters":25600,"station_id":"ce4bhf92rcd13ifvqf50","pricing_plan_id":"cebpf4jnsgd1na2vs0mg"},{"bike_id":"6cc9ee40-0003-4998-902f-d0f20e8fd36f","system_id":"levelo_inurba_marseille","lat":43.307797,"lon":5.376531,"is_reserved":false,"is_disabled":false,"rental_uris":{"android":"levelo://app?vid=6cc9ee40-0003-4998-902f-d0f20e8fd36f","ios":"levelo://app?vid=6cc9ee40-0003-4998-902f-d0f20e8fd36f"},"vehicle_type_id":"4","last_reported":1734070484,"current_range_meters":33200,"station_id":"ce4bgv92rcd13ifvqcq0","pricing_plan_id":"cebpf4jnsgd1na2vs0mg"},{"bike_id":"fdc7f69f-0262-4094-a948-3b247c5ce866","system_id":"levelo_inurba_marseille","lat":43.28098,"lon":5.37844,"is_reserved":false,"is_disabled":false,"rental_uris":{"android":"levelo://app?vid=fdc7f69f-0262-4094-a948-3b247c5ce866","ios":"levelo://app?vid=fdc7f69f-0262-4094-a948-3b247c5ce866"},"vehicle_type_id":"4","last_reported":1734070484,"current_range_meters":39200,"station_id":"ce4bha12rcd13ifvqee0","pricing_plan_id":"cebpf4jnsgd1na2vs0mg"},{"bike_id":"9ae439b8-a36b-4c5c-a089-b19fbba0b397","system_id":"levelo_inurba_marseille","lat":43.29797,"lon":5.39352,"is_reserved":false,"is_disabled":false,"rental_uris":{"android":"levelo://app?vid=9ae439b8-a36b-4c5c-a089-b19fbba0b397","ios":"levelo://app?vid=9ae439b8-a36b-4c5c-a089-b19fbba0b397"},"vehicle_type_id":"4","last_reported":1734070484,"current_range_meters":38800,"station_id":"chh1huq6cuj3fo74tm60","pricing_plan_id":"cebpf4jnsgd1na2vs0mg"},{"bike_id":"f53a51f1-6db0-4716-9c45-7ac4c7fcd208","system_id":"levelo_inurba_marseille","lat":43.32289,"lon":5.38277,"is_reserved":false,"is_disabled":false,"rental_uris":{"android":"levelo://app?vid=f53a51f1-6db0-4716-9c45-7ac4c7fcd208","ios":"levelo://app?vid=f53a51f1-6db0-4716-9c45-7ac4c7fcd208"},"vehicle_type_id":"4","last_reported":1734070484,"current_range_meters":36800,"station_id":"ce4bhr12rcd13ifvqhqg","pricing_plan_id":"cebpf4jnsgd1na2vs0mg"},{"bike_id":"980f96eb-32c9-4906-98f6-c44dbf4c84a1","system_id":"levelo_inurba_marseille","lat":43.27455,"lon":5.40073,"is_reserved":false,"is_disabled":true,"rental_uris":{"android":"levelo://app?vid=980f96eb-32c9-4906-98f6-c44dbf4c84a1","ios":"levelo://app?vid=980f96eb-32c9-4906-98f6-c44dbf4c84a1"},"vehicle_type_id":"4","last_reported":1734070484,"current_range_meters":0,"station_id":"","pricing_plan_id":"cebpf4jnsgd1na2vs0mg"},{"bike_id":"3251f99c-e665-4291-b0e2-559a41949c11","system_id":"levelo_inurba_marseille","lat":43.27678,"lon":5.38882,"is_reserved":false,"is_disabled":false,"rental_uris":{"android":"levelo://app?vid=3251f99c-e665-4291-b0e2-559a41949c11","ios":"levelo://app?vid=3251f99c-e665-4291-b0e2-559a41949c11"},"vehicle_type_id":"4","last_reported":1734070484,"current_range_meters":38000,"station_id":"ce4bhi12rcd13ifvqfo0","pricing_plan_id":"cebpf4jnsgd1na2vs0mg"},{"bike_id":"8eb40f25-fc14-4288-9dd7-aae13b0a9b04","system_id":"levelo_inurba_marseille","lat":43.26946,"lon":5.40232,"is_reserved":false,"is_disabled":true,"rental_uris":{"android":"levelo://app?vid=8eb40f25-fc14-4288-9dd7-aae13b0a9b04","ios":"levelo://app?vid=8eb40f25-fc14-4288-9dd7-aae13b0a9b04"},"vehicle_type_id":"4","last_reported":1734070484,"current_range_meters":30800,"station_id":"cjm6bp8fraef2m0cb0m0","pricing_plan_id":"cebpf4jnsgd1na2vs0mg"},{"bike_id":"3dc24237-bb6f-4a54-8c14-0b414c84a589","system_id":"levelo_inurba_marseille","lat":43.29803,"lon":5.40408,"is_reserved":false,"is_disabled":false,"rental_uris":{"android":"levelo://app?vid=3dc24237-bb6f-4a54-8c14-0b414c84a589","ios":"levelo://app?vid=3dc24237-bb6f-4a54-8c14-0b414c84a589"},"vehicle_type_id":"4","last_reported":1734070484,"current_range_meters":38000,"station_id":"ce4bh112rcd13ifvqd90","pricing_plan_id":"cebpf4jnsgd1na2vs0mg"},{"bike_id":"24d1dd30-e6fd-4cf7-8825-633bcd92df8c","system_id":"levelo_inurba_marseille","lat":43.2656,"lon":5.39,"is_reserved":false,"is_disabled":false,"rental_uris":{"android":"levelo://app?vid=24d1dd30-e6fd-4cf7-8825-633bcd92df8c","ios":"levelo://app?vid=24d1dd30-e6fd-4cf7-8825-633bcd92df8c"},"vehicle_type_id":"4","last_reported":1734070484,"current_range_meters":30800,"station_id":"ce4bhe12rcd13ifvqf30","pricing_plan_id":"cebpf4jnsgd1na2vs0mg"},{"bike_id":"f3a40a5d-cef7-4614-9a73-c675fabca9fa","system_id":"levelo_inurba_marseille","lat":43.24807,"lon":5.37456,"is_reserved":false,"is_disabled":false,"rental_uris":{"android":"levelo://app?vid=f3a40a5d-cef7-4614-9a73-c675fabca9fa","ios":"levelo://app?vid=f3a40a5d-cef7-4614-9a73-c675fabca9fa"},"vehicle_type_id":"4","last_reported":1734070484,"current_range_meters":38800,"station_id":"ce4bhgh2rcd13ifvqfb0","pricing_plan_id":"cebpf4jnsgd1na2vs0mg"},{"bike_id":"ce4c7390-3de8-4776-bab7-8b30799fdcc8","system_id":"levelo_inurba_marseille","lat":43.29191,"lon":5.35786,"is_reserved":false,"is_disabled":true,"rental_uris":{"android":"levelo://app?vid=ce4c7390-3de8-4776-bab7-8b30799fdcc8","ios":"levelo://app?vid=ce4c7390-3de8-4776-bab7-8b30799fdcc8"},"vehicle_type_id":"4","last_reported":1734070484,"current_range_meters":31200,"station_id":"ce4bhb12rcd13ifvqel0","pricing_plan_id":"cebpf4jnsgd1na2vs0mg"},{"bike_id":"3ea519a2-0222-4789-9083-f336ca2193bf","system_id":"levelo_inurba_marseille","lat":43.31696,"lon":5.40472,"is_reserved":false,"is_disabled":false,"rental_uris":{"android":"levelo://app?vid=3ea519a2-0222-4789-9083-f336ca2193bf","ios":"levelo://app?vid=3ea519a2-0222-4789-9083-f336ca2193bf"},"vehicle_type_id":"4","last_reported":1734070484,"current_range_meters":38000,"station_id":"ce4bh012rcd13ifvqd00","pricing_plan_id":"cebpf4jnsgd1na2vs0mg"},{"bike_id":"976e1536-7249-425f-8cfa-22b5b9a9e0e3","system_id":"levelo_inurba_marseille","lat":43.28076,"lon":5.39656,"is_reserved":false,"is_disabled":false,"rental_uris":{"android":"levelo://app?vid=976e1536-7249-425f-8cfa-22b5b9a9e0e3","ios":"levelo://app?vid=976e1536-7249-425f-8cfa-22b5b9a9e0e3"},"vehicle_type_id":"4","last_reported":1734070484,"current_range_meters":38000,"station_id":"ce4bho12rcd13ifvqh2g","pricing_plan_id":"cebpf4jnsgd1na2vs0mg"},{"bike_id":"fe87f8f2-6e97-4611-93da-1318a830eb3c","system_id":"levelo_inurba_marseille","lat":43.27991,"lon":5.41658,"is_reserved":false,"is_disabled":true,"rental_uris":{"android":"levelo://app?vid=fe87f8f2-6e97-4611-93da-1318a830eb3c","ios":"levelo://app?vid=fe87f8f2-6e97-4611-93da-1318a830eb3c"},"vehicle_type_id":"4","last_reported":1734070484,"current_range_meters":38400,"station_id":"ce4bho12rcd13ifvqh1g","pricing_plan_id":"cebpf4jnsgd1na2vs0mg"},{"bike_id":"e1f5d7e5-8692-4d54-b84b-dbc74d8b22c7","system_id":"levelo_inurba_marseille","lat":43.31701,"lon":5.40464,"is_reserved":false,"is_disabled":false,"rental_uris":{"android":"levelo://app?vid=e1f5d7e5-8692-4d54-b84b-dbc74d8b22c7","ios":"levelo://app?vid=e1f5d7e5-8692-4d54-b84b-dbc74d8b22c7"},"vehicle_type_id":"4","last_reported":1734070484,"current_range_meters":28800,"station_id":"ce4bh012rcd13ifvqd00","pricing_plan_id":"cebpf4jnsgd1na2vs0mg"},{"bike_id":"d85c7280-47fa-443b-b32c-9feaf3f4a62c","system_id":"levelo_inurba_marseille","lat":43.28737,"lon":5.36099,"is_reserved":false,"is_disabled":false,"rental_uris":{"android":"levelo://app?vid=d85c7280-47fa-443b-b32c-9feaf3f4a62c","ios":"levelo://app?vid=d85c7280-47fa-443b-b32c-9feaf3f4a62c"},"vehicle_type_id":"4","last_reported":1734070484,"current_range_meters":21600,"station_id":"cki0cbj6b192h4jlfktg","pricing_plan_id":"cebpf4jnsgd1na2vs0mg"},{"bike_id":"eaf4fa88-93af-42c4-ac71-6681b6449c9d","system_id":"levelo_inurba_marseille","lat":43.27176,"lon":5.40978,"is_reserved":false,"is_disabled":false,"rental_uris":{"android":"levelo://app?vid=eaf4fa88-93af-42c4-ac71-6681b6449c9d","ios":"levelo://app?vid=eaf4fa88-93af-42c4-ac71-6681b6449c9d"},"vehicle_type_id":"4","last_reported":1734070484,"current_range_meters":38800,"station_id":"ce4bhl12rcd13ifvqgf0","pricing_plan_id":"cebpf4jnsgd1na2vs0mg"},{"bike_id":"ae0493d2-fc14-4b2b-ad47-ce5682f1e916","system_id":"levelo_inurba_marseille","lat":43.29557,"lon":5.4228,"is_reserved":false,"is_disabled":true,"rental_uris":{"android":"levelo://app?vid=ae0493d2-fc14-4b2b-ad47-ce5682f1e916","ios":"levelo://app?vid=ae0493d2-fc14-4b2b-ad47-ce5682f1e916"},"vehicle_type_id":"4","last_reported":1734070484,"current_range_meters":4800,"station_id":"ce4bhph2rcd13ifvqhdg","pricing_plan_id":"cebpf4jnsgd1na2vs0mg"},{"bike_id":"199f7d63-3a72-40c5-8716-507ac0e9e64b","system_id":"levelo_inurba_marseille","lat":43.315291,"lon":5.380364,"is_reserved":false,"is_disabled":false,"rental_uris":{"android":"levelo://app?vid=199f7d63-3a72-40c5-8716-507ac0e9e64b","ios":"levelo://app?vid=199f7d63-3a72-40c5-8716-507ac0e9e64b"},"vehicle_type_id":"4","last_reported":1734070484,"current_range_meters":38800,"station_id":"ce4bhsp2rcd13ifvqi50","pricing_plan_id":"cebpf4jnsgd1na2vs0mg"},{"bike_id":"d5c89c1f-3bad-4af2-9449-e04c277a4696","system_id":"levelo_inurba_marseille","lat":43.299668,"lon":5.413299,"is_reserved":false,"is_disabled":false,"rental_uris":{"android":"levelo://app?vid=d5c89c1f-3bad-4af2-9449-e04c277a4696","ios":"levelo://app?vid=d5c89c1f-3bad-4af2-9449-e04c277a4696"},"vehicle_type_id":"4","last_reported":1734070484,"current_range_meters":36000,"station_id":"ce4bhp12rcd13ifvqh9g","pricing_plan_id":"cebpf4jnsgd1na2vs0mg"},{"bike_id":"7728fdce-b39b-492a-b76d-af2e495b1f87","system_id":"levelo_inurba_marseille","lat":43.2846,"lon":5.35905,"is_reserved":false,"is_disabled":false,"rental_uris":{"android":"levelo://app?vid=7728fdce-b39b-492a-b76d-af2e495b1f87","ios":"levelo://app?vid=7728fdce-b39b-492a-b76d-af2e495b1f87"},"vehicle_type_id":"4","last_reported":1734070484,"current_range_meters":10000,"station_id":"ce4bhah2rcd13ifvqei0","pricing_plan_id":"cebpf4jnsgd1na2vs0mg"},{"bike_id":"0c3dd50b-c3e5-4af5-9cb3-0d200d12a110","system_id":"levelo_inurba_marseille","lat":43.23199,"lon":5.39986,"is_reserved":false,"is_disabled":false,"rental_uris":{"android":"levelo://app?vid=0c3dd50b-c3e5-4af5-9cb3-0d200d12a110","ios":"levelo://app?vid=0c3dd50b-c3e5-4af5-9cb3-0d200d12a110"},"vehicle_type_id":"4","last_reported":1734070484,"current_range_meters":17600,"station_id":"ce4bhn12rcd13ifvqgqg","pricing_plan_id":"cebpf4jnsgd1na2vs0mg"},{"bike_id":"8a4d7f78-d49b-4e09-bd84-6b0edf92f97f","system_id":"levelo_inurba_marseille","lat":43.28717,"lon":5.36094,"is_reserved":false,"is_disabled":false,"rental_uris":{"android":"levelo://app?vid=8a4d7f78-d49b-4e09-bd84-6b0edf92f97f","ios":"levelo://app?vid=8a4d7f78-d49b-4e09-bd84-6b0edf92f97f"},"vehicle_type_id":"4","last_reported":1734070484,"current_range_meters":38800,"station_id":"cki0cbj6b192h4jlfktg","pricing_plan_id":"cebpf4jnsgd1na2vs0mg"},{"bike_id":"38eb172d-a077-4ca7-9a48-d1565bc55b20","system_id":"levelo_inurba_marseille","lat":43.32276,"lon":5.38265,"is_reserved":false,"is_disabled":false,"rental_uris":{"android":"levelo://app?vid=38eb172d-a077-4ca7-9a48-d1565bc55b20","ios":"levelo://app?vid=38eb172d-a077-4ca7-9a48-d1565bc55b20"},"vehicle_type_id":"4","last_reported":1734070484,"current_range_meters":38400,"station_id":"ce4bhr12rcd13ifvqhqg","pricing_plan_id":"cebpf4jnsgd1na2vs0mg"},{"bike_id":"23b203e2-b068-4fc8-9a12-e11cba490e91","system_id":"levelo_inurba_marseille","lat":43.25615,"lon":5.38245,"is_reserved":false,"is_disabled":false,"rental_uris":{"android":"levelo://app?vid=23b203e2-b068-4fc8-9a12-e11cba490e91","ios":"levelo://app?vid=23b203e2-b068-4fc8-9a12-e11cba490e91"},"vehicle_type_id":"4","last_reported":1734070484,"current_range_meters":38000,"station_id":"ce4bhih2rcd13ifvqfs0","pricing_plan_id":"cebpf4jnsgd1na2vs0mg"},{"bike_id":"516bcbce-8b75-4610-9ee5-df08b7034853","system_id":"levelo_inurba_marseille","lat":43.26792,"lon":5.3943,"is_reserved":false,"is_disabled":false,"rental_uris":{"android":"levelo://app?vid=516bcbce-8b75-4610-9ee5-df08b7034853","ios":"levelo://app?vid=516bcbce-8b75-4610-9ee5-df08b7034853"},"vehicle_type_id":"4","last_reported":1734070484,"current_range_meters":37600,"station_id":"ce4bhh12rcd13ifvqfg0","pricing_plan_id":"cebpf4jnsgd1na2vs0mg"},{"bike_id":"08bd48cb-ffe2-4001-bcae-3f4f6ea76c9f","system_id":"levelo_inurba_marseille","lat":43.30805,"lon":5.43528,"is_reserved":false,"is_disabled":false,"rental_uris":{"android":"levelo://app?vid=08bd48cb-ffe2-4001-bcae-3f4f6ea76c9f","ios":"levelo://app?vid=08bd48cb-ffe2-4001-bcae-3f4f6ea76c9f"},"vehicle_type_id":"4","last_reported":1734070484,"current_range_meters":9200,"station_id":"ce4bhph2rcd13ifvqheg","pricing_plan_id":"cebpf4jnsgd1na2vs0mg"},{"bike_id":"80f66b82-54aa-4843-b64e-91d3afce4948","system_id":"levelo_inurba_marseille","lat":43.30798,"lon":5.37325,"is_reserved":false,"is_disabled":true,"rental_uris":{"android":"levelo://app?vid=80f66b82-54aa-4843-b64e-91d3afce4948","ios":"levelo://app?vid=80f66b82-54aa-4843-b64e-91d3afce4948"},"vehicle_type_id":"4","last_reported":1734070484,"current_range_meters":24000,"station_id":"","pricing_plan_id":"cebpf4jnsgd1na2vs0mg"},{"bike_id":"a63958b5-e1f7-4b1a-9554-85840167b0f7","system_id":"levelo_inurba_marseille","lat":43.23209,"lon":5.39992,"is_reserved":false,"is_disabled":false,"rental_uris":{"android":"levelo://app?vid=a63958b5-e1f7-4b1a-9554-85840167b0f7","ios":"levelo://app?vid=a63958b5-e1f7-4b1a-9554-85840167b0f7"},"vehicle_type_id":"4","last_reported":1734070484,"current_range_meters":38400,"station_id":"ce4bhn12rcd13ifvqgqg","pricing_plan_id":"cebpf4jnsgd1na2vs0mg"},{"bike_id":"87fce182-3296-4aa0-bc7c-a2decdf4c36c","system_id":"levelo_inurba_marseille","lat":43.28412,"lon":5.37502,"is_reserved":false,"is_disabled":false,"rental_uris":{"android":"levelo://app?vid=87fce182-3296-4aa0-bc7c-a2decdf4c36c","ios":"levelo://app?vid=87fce182-3296-4aa0-bc7c-a2decdf4c36c"},"vehicle_type_id":"4","last_reported":1734070484,"current_range_meters":14400,"station_id":"ce4bh412rcd13ifvqds0","pricing_plan_id":"cebpf4jnsgd1na2vs0mg"},{"bike_id":"3a56946e-b571-4f0a-89c3-228266a44430","system_id":"levelo_inurba_marseille","lat":43.26597,"lon":5.38971,"is_reserved":false,"is_disabled":true,"rental_uris":{"android":"levelo://app?vid=3a56946e-b571-4f0a-89c3-228266a44430","ios":"levelo://app?vid=3a56946e-b571-4f0a-89c3-228266a44430"},"vehicle_type_id":"4","last_reported":1734070484,"current_range_meters":400,"station_id":"","pricing_plan_id":"cebpf4jnsgd1na2vs0mg"},{"bike_id":"05825c92-f0d6-456c-bae7-11f44a9e1090","system_id":"levelo_inurba_marseille","lat":43.30648,"lon":5.40081,"is_reserved":false,"is_disabled":false,"rental_uris":{"android":"levelo://app?vid=05825c92-f0d6-456c-bae7-11f44a9e1090","ios":"levelo://app?vid=05825c92-f0d6-456c-bae7-11f44a9e1090"},"vehicle_type_id":"4","last_reported":1734070484,"current_range_meters":9200,"station_id":"ce4bh112rcd13ifvqda0","pricing_plan_id":"cebpf4jnsgd1na2vs0mg"},{"bike_id":"5da35048-365f-4c26-b899-7414eb3a70fd","system_id":"levelo_inurba_marseille","lat":43.30931,"lon":5.4014,"is_reserved":false,"is_disabled":true,"rental_uris":{"android":"levelo://app?vid=5da35048-365f-4c26-b899-7414eb3a70fd","ios":"levelo://app?vid=5da35048-365f-4c26-b899-7414eb3a70fd"},"vehicle_type_id":"4","last_reported":1734070484,"current_range_meters":0,"station_id":"ce4bgvp2rcd13ifvqct0","pricing_plan_id":"cebpf4jnsgd1na2vs0mg"},{"bike_id":"3ea1724b-cceb-4cf7-893e-08ded22dd304","system_id":"levelo_inurba_marseille","lat":43.2781,"lon":5.40703,"is_reserved":false,"is_disabled":false,"rental_uris":{"android":"levelo://app?vid=3ea1724b-cceb-4cf7-893e-08ded22dd304","ios":"levelo://app?vid=3ea1724b-cceb-4cf7-893e-08ded22dd304"},"vehicle_type_id":"4","last_reported":1734070484,"current_range_meters":38800,"station_id":"ce4bhnh2rcd13ifvqgtg","pricing_plan_id":"cebpf4jnsgd1na2vs0mg"},{"bike_id":"cab3a2fe-75af-44c5-95f5-688e58d48275","system_id":"levelo_inurba_marseille","lat":43.25922,"lon":5.40891,"is_reserved":false,"is_disabled":false,"rental_uris":{"android":"levelo://app?vid=cab3a2fe-75af-44c5-95f5-688e58d48275","ios":"levelo://app?vid=cab3a2fe-75af-44c5-95f5-688e58d48275"},"vehicle_type_id":"4","last_reported":1734070484,"current_range_meters":25200,"station_id":"ce4bhm92rcd13ifvqglg","pricing_plan_id":"cebpf4jnsgd1na2vs0mg"},{"bike_id":"80fab31f-5a7f-4066-a73a-38bcb14e9247","system_id":"levelo_inurba_marseille","lat":43.28102,"lon":5.37855,"is_reserved":false,"is_disabled":false,"rental_uris":{"android":"levelo://app?vid=80fab31f-5a7f-4066-a73a-38bcb14e9247","ios":"levelo://app?vid=80fab31f-5a7f-4066-a73a-38bcb14e9247"},"vehicle_type_id":"4","last_reported":1734070484,"current_range_meters":38800,"station_id":"ce4bha12rcd13ifvqee0","pricing_plan_id":"cebpf4jnsgd1na2vs0mg"},{"bike_id":"48f89538-caef-48c0-b76c-a236ac0f81eb","system_id":"levelo_inurba_marseille","lat":43.29528,"lon":5.38541,"is_reserved":false,"is_disabled":true,"rental_uris":{"android":"levelo://app?vid=48f89538-caef-48c0-b76c-a236ac0f81eb","ios":"levelo://app?vid=48f89538-caef-48c0-b76c-a236ac0f81eb"},"vehicle_type_id":"4","last_reported":1734070484,"current_range_meters":22400,"station_id":"ce4bgih2rcd13ifvqba0","pricing_plan_id":"cebpf4jnsgd1na2vs0mg"},{"bike_id":"edaea664-24e0-4d6c-aa7a-497f5c5f88f6","system_id":"levelo_inurba_marseille","lat":43.27009,"lon":5.39147,"is_reserved":false,"is_disabled":true,"rental_uris":{"android":"levelo://app?vid=edaea664-24e0-4d6c-aa7a-497f5c5f88f6","ios":"levelo://app?vid=edaea664-24e0-4d6c-aa7a-497f5c5f88f6"},"vehicle_type_id":"4","last_reported":1734070484,"current_range_meters":0,"station_id":"","pricing_plan_id":"cebpf4jnsgd1na2vs0mg"},{"bike_id":"aa225125-9ecb-411e-aaee-54d1e963e65f","system_id":"levelo_inurba_marseille","lat":43.32351,"lon":5.40622,"is_reserved":false,"is_disabled":false,"rental_uris":{"android":"levelo://app?vid=aa225125-9ecb-411e-aaee-54d1e963e65f","ios":"levelo://app?vid=aa225125-9ecb-411e-aaee-54d1e963e65f"},"vehicle_type_id":"4","last_reported":1734070484,"current_range_meters":11600,"station_id":"ce4bhq92rcd13ifvqhjg","pricing_plan_id":"cebpf4jnsgd1na2vs0mg"},{"bike_id":"b13f7988-892d-489e-89d4-b900be8b8ffb","system_id":"levelo_inurba_marseille","lat":43.29682,"lon":5.37286,"is_reserved":false,"is_disabled":true,"rental_uris":{"android":"levelo://app?vid=b13f7988-892d-489e-89d4-b900be8b8ffb","ios":"levelo://app?vid=b13f7988-892d-489e-89d4-b900be8b8ffb"},"vehicle_type_id":"4","last_reported":1734070484,"current_range_meters":37600,"station_id":"ce4bgk12rcd13ifvqbj0","pricing_plan_id":"cebpf4jnsgd1na2vs0mg"},{"bike_id":"b3fd471e-6915-4ad0-ad9b-ca522a364dae","system_id":"levelo_inurba_marseille","lat":43.28655,"lon":5.36357,"is_reserved":false,"is_disabled":false,"rental_uris":{"android":"levelo://app?vid=b3fd471e-6915-4ad0-ad9b-ca522a364dae","ios":"levelo://app?vid=b3fd471e-6915-4ad0-ad9b-ca522a364dae"},"vehicle_type_id":"4","last_reported":1734070484,"current_range_meters":8800,"station_id":"ce4bhah2rcd13ifvqej0","pricing_plan_id":"cebpf4jnsgd1na2vs0mg"},{"bike_id":"9ee39f3c-8653-40da-a847-afc5fdd9a535","system_id":"levelo_inurba_marseille","lat":43.28689,"lon":5.4,"is_reserved":false,"is_disabled":false,"rental_uris":{"android":"levelo://app?vid=9ee39f3c-8653-40da-a847-afc5fdd9a535","ios":"levelo://app?vid=9ee39f3c-8653-40da-a847-afc5fdd9a535"},"vehicle_type_id":"4","last_reported":1734070484,"current_range_meters":30400,"station_id":"ce4bho92rcd13ifvqh3g","pricing_plan_id":"cebpf4jnsgd1na2vs0mg"},{"bike_id":"980dd8dd-fa30-4992-9be5-f2c5514b65f6","system_id":"levelo_inurba_marseille","lat":43.287023,"lon":5.399836,"is_reserved":false,"is_disabled":false,"rental_uris":{"android":"levelo://app?vid=980dd8dd-fa30-4992-9be5-f2c5514b65f6","ios":"levelo://app?vid=980dd8dd-fa30-4992-9be5-f2c5514b65f6"},"vehicle_type_id":"4","last_reported":1734070484,"current_range_meters":36000,"station_id":"ce4bho92rcd13ifvqh3g","pricing_plan_id":"cebpf4jnsgd1na2vs0mg"},{"bike_id":"6f05e6c1-67fd-4336-9360-d30190bb72bf","system_id":"levelo_inurba_marseille","lat":43.28366,"lon":5.38617,"is_reserved":false,"is_disabled":false,"rental_uris":{"android":"levelo://app?vid=6f05e6c1-67fd-4336-9360-d30190bb72bf","ios":"levelo://app?vid=6f05e6c1-67fd-4336-9360-d30190bb72bf"},"vehicle_type_id":"4","last_reported":1734070484,"current_range_meters":38800,"station_id":"ce4bh492rcd13ifvqdvg","pricing_plan_id":"cebpf4jnsgd1na2vs0mg"},{"bike_id":"11933e04-d81a-4d25-aa83-cc295172b3a1","system_id":"levelo_inurba_marseille","lat":43.25419,"lon":5.38274,"is_reserved":false,"is_disabled":true,"rental_uris":{"android":"levelo://app?vid=11933e04-d81a-4d25-aa83-cc295172b3a1","ios":"levelo://app?vid=11933e04-d81a-4d25-aa83-cc295172b3a1"},"vehicle_type_id":"4","last_reported":1734070484,"current_range_meters":26800,"station_id":"","pricing_plan_id":"cebpf4jnsgd1na2vs0mg"},{"bike_id":"6501d5cd-4dd5-4a19-afdb-ab2df9095f1a","system_id":"levelo_inurba_marseille","lat":43.29274,"lon":5.40122,"is_reserved":false,"is_disabled":false,"rental_uris":{"android":"levelo://app?vid=6501d5cd-4dd5-4a19-afdb-ab2df9095f1a","ios":"levelo://app?vid=6501d5cd-4dd5-4a19-afdb-ab2df9095f1a"},"vehicle_type_id":"4","last_reported":1734070484,"current_range_meters":38800,"station_id":"ce4bh312rcd13ifvqdk0","pricing_plan_id":"cebpf4jnsgd1na2vs0mg"},{"bike_id":"af421752-864f-47fc-8e61-6d0e3cbe0087","system_id":"levelo_inurba_marseille","lat":43.2801,"lon":5.40025,"is_reserved":false,"is_disabled":false,"rental_uris":{"android":"levelo://app?vid=af421752-864f-47fc-8e61-6d0e3cbe0087","ios":"levelo://app?vid=af421752-864f-47fc-8e61-6d0e3cbe0087"},"vehicle_type_id":"4","last_reported":1734070484,"current_range_meters":38800,"station_id":"ce4bho92rcd13ifvqh4g","pricing_plan_id":"cebpf4jnsgd1na2vs0mg"},{"bike_id":"d256483c-f1ba-4eec-b427-5b2aeb560d85","system_id":"levelo_inurba_marseille","lat":43.309271,"lon":5.401644,"is_reserved":false,"is_disabled":false,"rental_uris":{"android":"levelo://app?vid=d256483c-f1ba-4eec-b427-5b2aeb560d85","ios":"levelo://app?vid=d256483c-f1ba-4eec-b427-5b2aeb560d85"},"vehicle_type_id":"4","last_reported":1734070484,"current_range_meters":38800,"station_id":"ce4bgvp2rcd13ifvqct0","pricing_plan_id":"cebpf4jnsgd1na2vs0mg"},{"bike_id":"8d26e072-b17e-4dde-a77e-86174f3cd99a","system_id":"levelo_inurba_marseille","lat":43.24994,"lon":5.38934,"is_reserved":false,"is_disabled":false,"rental_uris":{"android":"levelo://app?vid=8d26e072-b17e-4dde-a77e-86174f3cd99a","ios":"levelo://app?vid=8d26e072-b17e-4dde-a77e-86174f3cd99a"},"vehicle_type_id":"4","last_reported":1734070484,"current_range_meters":30800,"station_id":"ce4bhgp2rcd13ifvqfd0","pricing_plan_id":"cebpf4jnsgd1na2vs0mg"},{"bike_id":"6ba8c1c0-1d75-4338-b0d3-5001b27d6595","system_id":"levelo_inurba_marseille","lat":43.28714,"lon":5.39975,"is_reserved":false,"is_disabled":false,"rental_uris":{"android":"levelo://app?vid=6ba8c1c0-1d75-4338-b0d3-5001b27d6595","ios":"levelo://app?vid=6ba8c1c0-1d75-4338-b0d3-5001b27d6595"},"vehicle_type_id":"4","last_reported":1734070484,"current_range_meters":11200,"station_id":"ce4bho92rcd13ifvqh3g","pricing_plan_id":"cebpf4jnsgd1na2vs0mg"},{"bike_id":"30b7f7b0-cffb-44e8-9e23-86428fe1183d","system_id":"levelo_inurba_marseille","lat":43.23052,"lon":5.35487,"is_reserved":false,"is_disabled":false,"rental_uris":{"android":"levelo://app?vid=30b7f7b0-cffb-44e8-9e23-86428fe1183d","ios":"levelo://app?vid=30b7f7b0-cffb-44e8-9e23-86428fe1183d"},"vehicle_type_id":"4","last_reported":1734070484,"current_range_meters":6000,"station_id":"cpo3342slgdg3j2ifvpg","pricing_plan_id":"cebpf4jnsgd1na2vs0mg"},{"bike_id":"cdee45cd-2c85-49c5-ad4f-3d1f26b7f88f","system_id":"levelo_inurba_marseille","lat":43.31323,"lon":5.39704,"is_reserved":false,"is_disabled":false,"rental_uris":{"android":"levelo://app?vid=cdee45cd-2c85-49c5-ad4f-3d1f26b7f88f","ios":"levelo://app?vid=cdee45cd-2c85-49c5-ad4f-3d1f26b7f88f"},"vehicle_type_id":"4","last_reported":1734070484,"current_range_meters":22400,"station_id":"ce4bgvp2rcd13ifvqcu0","pricing_plan_id":"cebpf4jnsgd1na2vs0mg"},{"bike_id":"6f6d1104-7a7d-4855-bd0a-2d1f2d0c4331","system_id":"levelo_inurba_marseille","lat":43.30947,"lon":5.4014,"is_reserved":false,"is_disabled":false,"rental_uris":{"android":"levelo://app?vid=6f6d1104-7a7d-4855-bd0a-2d1f2d0c4331","ios":"levelo://app?vid=6f6d1104-7a7d-4855-bd0a-2d1f2d0c4331"},"vehicle_type_id":"4","last_reported":1734070484,"current_range_meters":37600,"station_id":"ce4bgvp2rcd13ifvqct0","pricing_plan_id":"cebpf4jnsgd1na2vs0mg"},{"bike_id":"c962957d-ec10-4997-96e1-a869343f922e","system_id":"levelo_inurba_marseille","lat":43.32688,"lon":5.36081,"is_reserved":false,"is_disabled":false,"rental_uris":{"android":"levelo://app?vid=c962957d-ec10-4997-96e1-a869343f922e","ios":"levelo://app?vid=c962957d-ec10-4997-96e1-a869343f922e"},"vehicle_type_id":"4","last_reported":1734070484,"current_range_meters":7200,"station_id":"","pricing_plan_id":"cebpf4jnsgd1na2vs0mg"},{"bike_id":"32a767c5-f0ae-4b08-b2a9-56fb3e20cf9b","system_id":"levelo_inurba_marseille","lat":43.29548,"lon":5.42287,"is_reserved":false,"is_disabled":false,"rental_uris":{"android":"levelo://app?vid=32a767c5-f0ae-4b08-b2a9-56fb3e20cf9b","ios":"levelo://app?vid=32a767c5-f0ae-4b08-b2a9-56fb3e20cf9b"},"vehicle_type_id":"4","last_reported":1734070484,"current_range_meters":18000,"station_id":"ce4bhph2rcd13ifvqhdg","pricing_plan_id":"cebpf4jnsgd1na2vs0mg"},{"bike_id":"f52dd91a-3f79-4826-93d7-41c14e2ef67c","system_id":"levelo_inurba_marseille","lat":43.2783,"lon":5.39198,"is_reserved":false,"is_disabled":true,"rental_uris":{"android":"levelo://app?vid=f52dd91a-3f79-4826-93d7-41c14e2ef67c","ios":"levelo://app?vid=f52dd91a-3f79-4826-93d7-41c14e2ef67c"},"vehicle_type_id":"4","last_reported":1734070484,"current_range_meters":33600,"station_id":"ce4bhjp2rcd13ifvqga0","pricing_plan_id":"cebpf4jnsgd1na2vs0mg"},{"bike_id":"b1af10ff-75b1-4806-b316-925cc99a5bc8","system_id":"levelo_inurba_marseille","lat":43.26587,"lon":5.39019,"is_reserved":false,"is_disabled":false,"rental_uris":{"android":"levelo://app?vid=b1af10ff-75b1-4806-b316-925cc99a5bc8","ios":"levelo://app?vid=b1af10ff-75b1-4806-b316-925cc99a5bc8"},"vehicle_type_id":"4","last_reported":1734070484,"current_range_meters":8800,"station_id":"ce4bhe12rcd13ifvqf30","pricing_plan_id":"cebpf4jnsgd1na2vs0mg"},{"bike_id":"80e7d90a-8050-4fc6-8802-63867dac5ff2","system_id":"levelo_inurba_marseille","lat":43.28697,"lon":5.37403,"is_reserved":false,"is_disabled":true,"rental_uris":{"android":"levelo://app?vid=80e7d90a-8050-4fc6-8802-63867dac5ff2","ios":"levelo://app?vid=80e7d90a-8050-4fc6-8802-63867dac5ff2"},"vehicle_type_id":"4","last_reported":1734070484,"current_range_meters":35200,"station_id":"ce4bh3p2rcd13ifvqdq0","pricing_plan_id":"cebpf4jnsgd1na2vs0mg"},{"bike_id":"089f9ec9-a1f3-4d1e-a526-91033663c250","system_id":"levelo_inurba_marseille","lat":43.30987,"lon":5.41732,"is_reserved":false,"is_disabled":false,"rental_uris":{"android":"levelo://app?vid=089f9ec9-a1f3-4d1e-a526-91033663c250","ios":"levelo://app?vid=089f9ec9-a1f3-4d1e-a526-91033663c250"},"vehicle_type_id":"4","last_reported":1734070484,"current_range_meters":26800,"station_id":"","pricing_plan_id":"cebpf4jnsgd1na2vs0mg"},{"bike_id":"8fba4877-2b0f-496e-8baf-7d6a9a2670f0","system_id":"levelo_inurba_marseille","lat":43.26057,"lon":5.3939,"is_reserved":false,"is_disabled":false,"rental_uris":{"android":"levelo://app?vid=8fba4877-2b0f-496e-8baf-7d6a9a2670f0","ios":"levelo://app?vid=8fba4877-2b0f-496e-8baf-7d6a9a2670f0"},"vehicle_type_id":"4","last_reported":1734070484,"current_range_meters":38800,"station_id":"ce4bhh92rcd13ifvqfj0","pricing_plan_id":"cebpf4jnsgd1na2vs0mg"},{"bike_id":"5766f064-b4c1-48e2-b1f3-156d167a6835","system_id":"levelo_inurba_marseille","lat":43.27918,"lon":5.39581,"is_reserved":false,"is_disabled":false,"rental_uris":{"android":"levelo://app?vid=5766f064-b4c1-48e2-b1f3-156d167a6835","ios":"levelo://app?vid=5766f064-b4c1-48e2-b1f3-156d167a6835"},"vehicle_type_id":"4","last_reported":1734070484,"current_range_meters":30000,"station_id":"ce4bhf92rcd13ifvqf40","pricing_plan_id":"cebpf4jnsgd1na2vs0mg"},{"bike_id":"3cc49aec-0146-4bd6-8ced-13dc2b354f47","system_id":"levelo_inurba_marseille","lat":43.23195,"lon":5.39982,"is_reserved":false,"is_disabled":false,"rental_uris":{"android":"levelo://app?vid=3cc49aec-0146-4bd6-8ced-13dc2b354f47","ios":"levelo://app?vid=3cc49aec-0146-4bd6-8ced-13dc2b354f47"},"vehicle_type_id":"4","last_reported":1734070484,"current_range_meters":38400,"station_id":"ce4bhn12rcd13ifvqgqg","pricing_plan_id":"cebpf4jnsgd1na2vs0mg"},{"bike_id":"da345435-a4ab-4142-96e2-d4c3515056c7","system_id":"levelo_inurba_marseille","lat":43.30137,"lon":5.38783,"is_reserved":false,"is_disabled":true,"rental_uris":{"android":"levelo://app?vid=da345435-a4ab-4142-96e2-d4c3515056c7","ios":"levelo://app?vid=da345435-a4ab-4142-96e2-d4c3515056c7"},"vehicle_type_id":"4","last_reported":1734070484,"current_range_meters":38400,"station_id":"ce4bghh2rcd13ifvqb60","pricing_plan_id":"cebpf4jnsgd1na2vs0mg"},{"bike_id":"e79247d7-f349-4d85-b8cc-75ca92971f51","system_id":"levelo_inurba_marseille","lat":43.33029,"lon":5.39032,"is_reserved":false,"is_disabled":false,"rental_uris":{"android":"levelo://app?vid=e79247d7-f349-4d85-b8cc-75ca92971f51","ios":"levelo://app?vid=e79247d7-f349-4d85-b8cc-75ca92971f51"},"vehicle_type_id":"4","last_reported":1734070484,"current_range_meters":38400,"station_id":"ce4bhr92rcd13ifvqhrg","pricing_plan_id":"cebpf4jnsgd1na2vs0mg"},{"bike_id":"b773f0c7-24dd-42e5-8c06-4f4f47ee5974","system_id":"levelo_inurba_marseille","lat":43.25872,"lon":5.39899,"is_reserved":false,"is_disabled":false,"rental_uris":{"android":"levelo://app?vid=b773f0c7-24dd-42e5-8c06-4f4f47ee5974","ios":"levelo://app?vid=b773f0c7-24dd-42e5-8c06-4f4f47ee5974"},"vehicle_type_id":"4","last_reported":1734070484,"current_range_meters":38800,"station_id":"ce4bhl92rcd13ifvqghg","pricing_plan_id":"cebpf4jnsgd1na2vs0mg"},{"bike_id":"4cc774ee-ae5a-4146-919f-2e8715c09683","system_id":"levelo_inurba_marseille","lat":43.33613,"lon":5.41026,"is_reserved":false,"is_disabled":false,"rental_uris":{"android":"levelo://app?vid=4cc774ee-ae5a-4146-919f-2e8715c09683","ios":"levelo://app?vid=4cc774ee-ae5a-4146-919f-2e8715c09683"},"vehicle_type_id":"4","last_reported":1734070484,"current_range_meters":30000,"station_id":"ce4bhqh2rcd13ifvqhmg","pricing_plan_id":"cebpf4jnsgd1na2vs0mg"},{"bike_id":"2ea29fc9-e634-44f7-98ab-3e530021a09d","system_id":"levelo_inurba_marseille","lat":43.309245,"lon":5.401393,"is_reserved":false,"is_disabled":false,"rental_uris":{"android":"levelo://app?vid=2ea29fc9-e634-44f7-98ab-3e530021a09d","ios":"levelo://app?vid=2ea29fc9-e634-44f7-98ab-3e530021a09d"},"vehicle_type_id":"4","last_reported":1734070484,"current_range_meters":19600,"station_id":"ce4bgvp2rcd13ifvqct0","pricing_plan_id":"cebpf4jnsgd1na2vs0mg"},{"bike_id":"f91bb54e-f76e-41a3-bf58-f348c9a6d945","system_id":"levelo_inurba_marseille","lat":43.26561,"lon":5.39007,"is_reserved":false,"is_disabled":false,"rental_uris":{"android":"levelo://app?vid=f91bb54e-f76e-41a3-bf58-f348c9a6d945","ios":"levelo://app?vid=f91bb54e-f76e-41a3-bf58-f348c9a6d945"},"vehicle_type_id":"4","last_reported":1734070484,"current_range_meters":22400,"station_id":"ce4bhe12rcd13ifvqf30","pricing_plan_id":"cebpf4jnsgd1na2vs0mg"},{"bike_id":"e6a36072-a399-485e-a1d6-06b393c73379","system_id":"levelo_inurba_marseille","lat":43.29556,"lon":5.42278,"is_reserved":false,"is_disabled":false,"rental_uris":{"android":"levelo://app?vid=e6a36072-a399-485e-a1d6-06b393c73379","ios":"levelo://app?vid=e6a36072-a399-485e-a1d6-06b393c73379"},"vehicle_type_id":"4","last_reported":1734070484,"current_range_meters":32800,"station_id":"ce4bhph2rcd13ifvqhdg","pricing_plan_id":"cebpf4jnsgd1na2vs0mg"},{"bike_id":"e43eb1f6-3ba6-4ad6-96a6-9bab6d7b3199","system_id":"levelo_inurba_marseille","lat":43.27061,"lon":5.40266,"is_reserved":false,"is_disabled":true,"rental_uris":{"android":"levelo://app?vid=e43eb1f6-3ba6-4ad6-96a6-9bab6d7b3199","ios":"levelo://app?vid=e43eb1f6-3ba6-4ad6-96a6-9bab6d7b3199"},"vehicle_type_id":"4","last_reported":1734070484,"current_range_meters":34000,"station_id":"ce4bhk92rcd13ifvqgc0","pricing_plan_id":"cebpf4jnsgd1na2vs0mg"},{"bike_id":"d2a98a1f-64a2-40e5-aa0b-ffab91cc3d62","system_id":"levelo_inurba_marseille","lat":43.290219,"lon":5.381319,"is_reserved":false,"is_disabled":true,"rental_uris":{"android":"levelo://app?vid=d2a98a1f-64a2-40e5-aa0b-ffab91cc3d62","ios":"levelo://app?vid=d2a98a1f-64a2-40e5-aa0b-ffab91cc3d62"},"vehicle_type_id":"4","last_reported":1734070484,"current_range_meters":22800,"station_id":"ce4bh4p2rcd13ifvqe1g","pricing_plan_id":"cebpf4jnsgd1na2vs0mg"},{"bike_id":"65958426-57e3-40aa-a16a-cd3fda870fea","system_id":"levelo_inurba_marseille","lat":43.31332,"lon":5.39692,"is_reserved":false,"is_disabled":false,"rental_uris":{"android":"levelo://app?vid=65958426-57e3-40aa-a16a-cd3fda870fea","ios":"levelo://app?vid=65958426-57e3-40aa-a16a-cd3fda870fea"},"vehicle_type_id":"4","last_reported":1734070484,"current_range_meters":6400,"station_id":"ce4bgvp2rcd13ifvqcu0","pricing_plan_id":"cebpf4jnsgd1na2vs0mg"},{"bike_id":"af67ac53-ba21-4ff0-8334-95679e9ff2cc","system_id":"levelo_inurba_marseille","lat":43.278805,"lon":5.388003,"is_reserved":false,"is_disabled":true,"rental_uris":{"android":"levelo://app?vid=af67ac53-ba21-4ff0-8334-95679e9ff2cc","ios":"levelo://app?vid=af67ac53-ba21-4ff0-8334-95679e9ff2cc"},"vehicle_type_id":"4","last_reported":1734070484,"current_range_meters":8000,"station_id":"","pricing_plan_id":"cebpf4jnsgd1na2vs0mg"},{"bike_id":"ade66eb7-5111-4a1a-adb9-998c08093abb","system_id":"levelo_inurba_marseille","lat":43.31751,"lon":5.3902,"is_reserved":false,"is_disabled":false,"rental_uris":{"android":"levelo://app?vid=ade66eb7-5111-4a1a-adb9-998c08093abb","ios":"levelo://app?vid=ade66eb7-5111-4a1a-adb9-998c08093abb"},"vehicle_type_id":"4","last_reported":1734070484,"current_range_meters":8800,"station_id":"ce4bhqp2rcd13ifvqhng","pricing_plan_id":"cebpf4jnsgd1na2vs0mg"},{"bike_id":"443c3fda-66fb-4fc5-bd44-fbe7457ff99f","system_id":"levelo_inurba_marseille","lat":43.28095,"lon":5.37843,"is_reserved":false,"is_disabled":false,"rental_uris":{"android":"levelo://app?vid=443c3fda-66fb-4fc5-bd44-fbe7457ff99f","ios":"levelo://app?vid=443c3fda-66fb-4fc5-bd44-fbe7457ff99f"},"vehicle_type_id":"4","last_reported":1734070484,"current_range_meters":8000,"station_id":"ce4bha12rcd13ifvqee0","pricing_plan_id":"cebpf4jnsgd1na2vs0mg"},{"bike_id":"f77c0910-6be8-437c-9b37-31678d5bf201","system_id":"levelo_inurba_marseille","lat":43.30887,"lon":5.39634,"is_reserved":false,"is_disabled":false,"rental_uris":{"android":"levelo://app?vid=f77c0910-6be8-437c-9b37-31678d5bf201","ios":"levelo://app?vid=f77c0910-6be8-437c-9b37-31678d5bf201"},"vehicle_type_id":"4","last_reported":1734070484,"current_range_meters":38400,"station_id":"ce4bh012rcd13ifvqcv0","pricing_plan_id":"cebpf4jnsgd1na2vs0mg"},{"bike_id":"a8952a43-ed45-4b45-98c8-1bb60ae3ae5a","system_id":"levelo_inurba_marseille","lat":43.30785,"lon":5.37657,"is_reserved":false,"is_disabled":true,"rental_uris":{"android":"levelo://app?vid=a8952a43-ed45-4b45-98c8-1bb60ae3ae5a","ios":"levelo://app?vid=a8952a43-ed45-4b45-98c8-1bb60ae3ae5a"},"vehicle_type_id":"4","last_reported":1734070484,"current_range_meters":0,"station_id":"ce4bgv92rcd13ifvqcq0","pricing_plan_id":"cebpf4jnsgd1na2vs0mg"},{"bike_id":"1863e5bb-1339-4a2a-a04e-e9e9d05a787a","system_id":"levelo_inurba_marseille","lat":43.2905,"lon":5.37162,"is_reserved":false,"is_disabled":true,"rental_uris":{"android":"levelo://app?vid=1863e5bb-1339-4a2a-a04e-e9e9d05a787a","ios":"levelo://app?vid=1863e5bb-1339-4a2a-a04e-e9e9d05a787a"},"vehicle_type_id":"4","last_reported":1734070484,"current_range_meters":38800,"station_id":"ce4bh5p2rcd13ifvqe4g","pricing_plan_id":"cebpf4jnsgd1na2vs0mg"},{"bike_id":"d8d7ffef-ae54-446a-a28c-8265164b47ce","system_id":"levelo_inurba_marseille","lat":43.2916,"lon":5.43921,"is_reserved":false,"is_disabled":false,"rental_uris":{"android":"levelo://app?vid=d8d7ffef-ae54-446a-a28c-8265164b47ce","ios":"levelo://app?vid=d8d7ffef-ae54-446a-a28c-8265164b47ce"},"vehicle_type_id":"4","last_reported":1734070484,"current_range_meters":32400,"station_id":"","pricing_plan_id":"cebpf4jnsgd1na2vs0mg"},{"bike_id":"33400e60-39b9-42c2-89ef-b84fdae2a31c","system_id":"levelo_inurba_marseille","lat":43.281016,"lon":5.378392,"is_reserved":false,"is_disabled":false,"rental_uris":{"android":"levelo://app?vid=33400e60-39b9-42c2-89ef-b84fdae2a31c","ios":"levelo://app?vid=33400e60-39b9-42c2-89ef-b84fdae2a31c"},"vehicle_type_id":"4","last_reported":1734070484,"current_range_meters":38800,"station_id":"ce4bha12rcd13ifvqee0","pricing_plan_id":"cebpf4jnsgd1na2vs0mg"},{"bike_id":"2fee6a8b-d5ac-4d4b-8420-0ef8c2493628","system_id":"levelo_inurba_marseille","lat":43.27834,"lon":5.39204,"is_reserved":false,"is_disabled":false,"rental_uris":{"android":"levelo://app?vid=2fee6a8b-d5ac-4d4b-8420-0ef8c2493628","ios":"levelo://app?vid=2fee6a8b-d5ac-4d4b-8420-0ef8c2493628"},"vehicle_type_id":"4","last_reported":1734070484,"current_range_meters":10800,"station_id":"ce4bhjp2rcd13ifvqga0","pricing_plan_id":"cebpf4jnsgd1na2vs0mg"},{"bike_id":"d65fcea9-51ba-41f0-86fd-e798dfdd6f09","system_id":"levelo_inurba_marseille","lat":43.28675,"lon":5.38325,"is_reserved":false,"is_disabled":true,"rental_uris":{"android":"levelo://app?vid=d65fcea9-51ba-41f0-86fd-e798dfdd6f09","ios":"levelo://app?vid=d65fcea9-51ba-41f0-86fd-e798dfdd6f09"},"vehicle_type_id":"4","last_reported":1734070484,"current_range_meters":0,"station_id":"","pricing_plan_id":"cebpf4jnsgd1na2vs0mg"},{"bike_id":"9f90c432-ac23-4439-a028-afaf147c7c4b","system_id":"levelo_inurba_marseille","lat":43.27493,"lon":5.42452,"is_reserved":false,"is_disabled":false,"rental_uris":{"android":"levelo://app?vid=9f90c432-ac23-4439-a028-afaf147c7c4b","ios":"levelo://app?vid=9f90c432-ac23-4439-a028-afaf147c7c4b"},"vehicle_type_id":"4","last_reported":1734070484,"current_range_meters":8000,"station_id":"ce4bhn92rcd13ifvqgrg","pricing_plan_id":"cebpf4jnsgd1na2vs0mg"},{"bike_id":"3cffa040-7e8b-4d9e-a1bd-b8a78d782447","system_id":"levelo_inurba_marseille","lat":43.314905,"lon":5.373088,"is_reserved":false,"is_disabled":false,"rental_uris":{"android":"levelo://app?vid=3cffa040-7e8b-4d9e-a1bd-b8a78d782447","ios":"levelo://app?vid=3cffa040-7e8b-4d9e-a1bd-b8a78d782447"},"vehicle_type_id":"4","last_reported":1734070484,"current_range_meters":4800,"station_id":"","pricing_plan_id":"cebpf4jnsgd1na2vs0mg"},{"bike_id":"812146ef-5497-4746-b4ff-5d5d828fb6ac","system_id":"levelo_inurba_marseille","lat":43.31718,"lon":5.42415,"is_reserved":false,"is_disabled":false,"rental_uris":{"android":"levelo://app?vid=812146ef-5497-4746-b4ff-5d5d828fb6ac","ios":"levelo://app?vid=812146ef-5497-4746-b4ff-5d5d828fb6ac"},"vehicle_type_id":"4","last_reported":1734070484,"current_range_meters":38800,"station_id":"ce4bhp92rcd13ifvqhbg","pricing_plan_id":"cebpf4jnsgd1na2vs0mg"},{"bike_id":"e4f1b7b0-5d7b-41b5-b994-b33b77329499","system_id":"levelo_inurba_marseille","lat":43.26496,"lon":5.39548,"is_reserved":false,"is_disabled":false,"rental_uris":{"android":"levelo://app?vid=e4f1b7b0-5d7b-41b5-b994-b33b77329499","ios":"levelo://app?vid=e4f1b7b0-5d7b-41b5-b994-b33b77329499"},"vehicle_type_id":"4","last_reported":1734070484,"current_range_meters":36800,"station_id":"ce4bhi12rcd13ifvqfq0","pricing_plan_id":"cebpf4jnsgd1na2vs0mg"},{"bike_id":"e7cfd852-9909-436d-bad5-f8e28209031c","system_id":"levelo_inurba_marseille","lat":43.26967,"lon":5.40269,"is_reserved":false,"is_disabled":false,"rental_uris":{"android":"levelo://app?vid=e7cfd852-9909-436d-bad5-f8e28209031c","ios":"levelo://app?vid=e7cfd852-9909-436d-bad5-f8e28209031c"},"vehicle_type_id":"4","last_reported":1734070484,"current_range_meters":38800,"station_id":"cjm6bp8fraef2m0cb0m0","pricing_plan_id":"cebpf4jnsgd1na2vs0mg"},{"bike_id":"4873c46e-cb28-4a7f-a38b-62bd40ae6e70","system_id":"levelo_inurba_marseille","lat":43.27914,"lon":5.39574,"is_reserved":false,"is_disabled":true,"rental_uris":{"android":"levelo://app?vid=4873c46e-cb28-4a7f-a38b-62bd40ae6e70","ios":"levelo://app?vid=4873c46e-cb28-4a7f-a38b-62bd40ae6e70"},"vehicle_type_id":"4","last_reported":1734070484,"current_range_meters":28800,"station_id":"ce4bhf92rcd13ifvqf40","pricing_plan_id":"cebpf4jnsgd1na2vs0mg"},{"bike_id":"5fd2d230-b800-4b85-b8f9-d759ea94e1ca","system_id":"levelo_inurba_marseille","lat":43.281427,"lon":5.426472,"is_reserved":false,"is_disabled":false,"rental_uris":{"android":"levelo://app?vid=5fd2d230-b800-4b85-b8f9-d759ea94e1ca","ios":"levelo://app?vid=5fd2d230-b800-4b85-b8f9-d759ea94e1ca"},"vehicle_type_id":"4","last_reported":1734070484,"current_range_meters":23200,"station_id":"ce4bhnh2rcd13ifvqgug","pricing_plan_id":"cebpf4jnsgd1na2vs0mg"},{"bike_id":"64203de9-e72b-4d66-9a84-7a315c7ed37f","system_id":"levelo_inurba_marseille","lat":43.29443,"lon":5.37444,"is_reserved":false,"is_disabled":true,"rental_uris":{"android":"levelo://app?vid=64203de9-e72b-4d66-9a84-7a315c7ed37f","ios":"levelo://app?vid=64203de9-e72b-4d66-9a84-7a315c7ed37f"},"vehicle_type_id":"4","last_reported":1734070484,"current_range_meters":0,"station_id":"","pricing_plan_id":"cebpf4jnsgd1na2vs0mg"},{"bike_id":"11fb57b8-61ba-44a3-89f7-4fef2b0e30bd","system_id":"levelo_inurba_marseille","lat":43.24803,"lon":5.37455,"is_reserved":false,"is_disabled":false,"rental_uris":{"android":"levelo://app?vid=11fb57b8-61ba-44a3-89f7-4fef2b0e30bd","ios":"levelo://app?vid=11fb57b8-61ba-44a3-89f7-4fef2b0e30bd"},"vehicle_type_id":"4","last_reported":1734070484,"current_range_meters":33600,"station_id":"ce4bhgh2rcd13ifvqfb0","pricing_plan_id":"cebpf4jnsgd1na2vs0mg"},{"bike_id":"e6949821-3f25-4dae-8a9a-c8d38c5e2db8","system_id":"levelo_inurba_marseille","lat":43.30141,"lon":5.38052,"is_reserved":false,"is_disabled":false,"rental_uris":{"android":"levelo://app?vid=e6949821-3f25-4dae-8a9a-c8d38c5e2db8","ios":"levelo://app?vid=e6949821-3f25-4dae-8a9a-c8d38c5e2db8"},"vehicle_type_id":"4","last_reported":1734070484,"current_range_meters":28000,"station_id":"ce4bgjp2rcd13ifvqbh0","pricing_plan_id":"cebpf4jnsgd1na2vs0mg"},{"bike_id":"9832a810-4dc2-4d31-87d5-a9c642155d38","system_id":"levelo_inurba_marseille","lat":43.31083,"lon":5.42446,"is_reserved":false,"is_disabled":false,"rental_uris":{"android":"levelo://app?vid=9832a810-4dc2-4d31-87d5-a9c642155d38","ios":"levelo://app?vid=9832a810-4dc2-4d31-87d5-a9c642155d38"},"vehicle_type_id":"4","last_reported":1734070484,"current_range_meters":37600,"station_id":"ce4bhp92rcd13ifvqhag","pricing_plan_id":"cebpf4jnsgd1na2vs0mg"},{"bike_id":"32579469-9811-426b-86de-5bb5bacbf715","system_id":"levelo_inurba_marseille","lat":43.27667,"lon":5.38931,"is_reserved":false,"is_disabled":false,"rental_uris":{"android":"levelo://app?vid=32579469-9811-426b-86de-5bb5bacbf715","ios":"levelo://app?vid=32579469-9811-426b-86de-5bb5bacbf715"},"vehicle_type_id":"4","last_reported":1734070484,"current_range_meters":38000,"station_id":"ce4bhi12rcd13ifvqfo0","pricing_plan_id":"cebpf4jnsgd1na2vs0mg"},{"bike_id":"a2f1eb37-6b7e-4f58-9d0e-f18a0d751cb9","system_id":"levelo_inurba_marseille","lat":43.30633,"lon":5.40088,"is_reserved":false,"is_disabled":false,"rental_uris":{"android":"levelo://app?vid=a2f1eb37-6b7e-4f58-9d0e-f18a0d751cb9","ios":"levelo://app?vid=a2f1eb37-6b7e-4f58-9d0e-f18a0d751cb9"},"vehicle_type_id":"4","last_reported":1734070484,"current_range_meters":32400,"station_id":"ce4bh112rcd13ifvqda0","pricing_plan_id":"cebpf4jnsgd1na2vs0mg"},{"bike_id":"b724111f-9a5b-4581-a521-d844a221b4cc","system_id":"levelo_inurba_marseille","lat":43.28466,"lon":5.39479,"is_reserved":false,"is_disabled":false,"rental_uris":{"android":"levelo://app?vid=b724111f-9a5b-4581-a521-d844a221b4cc","ios":"levelo://app?vid=b724111f-9a5b-4581-a521-d844a221b4cc"},"vehicle_type_id":"4","last_reported":1734070484,"current_range_meters":36800,"station_id":"","pricing_plan_id":"cebpf4jnsgd1na2vs0mg"},{"bike_id":"05cccde2-6fc9-46eb-9e62-f12f14b5d5c1","system_id":"levelo_inurba_marseille","lat":43.25728,"lon":5.41104,"is_reserved":false,"is_disabled":false,"rental_uris":{"android":"levelo://app?vid=05cccde2-6fc9-46eb-9e62-f12f14b5d5c1","ios":"levelo://app?vid=05cccde2-6fc9-46eb-9e62-f12f14b5d5c1"},"vehicle_type_id":"4","last_reported":1734070484,"current_range_meters":36800,"station_id":"ce4bhkp2rcd13ifvqgd0","pricing_plan_id":"cebpf4jnsgd1na2vs0mg"},{"bike_id":"f5627c5a-80b3-4132-a5af-c2352634e36b","system_id":"levelo_inurba_marseille","lat":43.31498,"lon":5.37313,"is_reserved":false,"is_disabled":false,"rental_uris":{"android":"levelo://app?vid=f5627c5a-80b3-4132-a5af-c2352634e36b","ios":"levelo://app?vid=f5627c5a-80b3-4132-a5af-c2352634e36b"},"vehicle_type_id":"4","last_reported":1734070484,"current_range_meters":36400,"station_id":"ce4bgt12rcd13ifvqcd0","pricing_plan_id":"cebpf4jnsgd1na2vs0mg"},{"bike_id":"57a832a1-6b9f-4903-afaa-5d9f7c9ece4e","system_id":"levelo_inurba_marseille","lat":43.261871,"lon":5.374558,"is_reserved":false,"is_disabled":false,"rental_uris":{"android":"levelo://app?vid=57a832a1-6b9f-4903-afaa-5d9f7c9ece4e","ios":"levelo://app?vid=57a832a1-6b9f-4903-afaa-5d9f7c9ece4e"},"vehicle_type_id":"4","last_reported":1734070484,"current_range_meters":15200,"station_id":"ce4bhgp2rcd13ifvqfc0","pricing_plan_id":"cebpf4jnsgd1na2vs0mg"},{"bike_id":"0cee50ea-ba41-48e7-a854-45751f21460a","system_id":"levelo_inurba_marseille","lat":43.30881,"lon":5.3721,"is_reserved":false,"is_disabled":false,"rental_uris":{"android":"levelo://app?vid=0cee50ea-ba41-48e7-a854-45751f21460a","ios":"levelo://app?vid=0cee50ea-ba41-48e7-a854-45751f21460a"},"vehicle_type_id":"4","last_reported":1734070484,"current_range_meters":21600,"station_id":"ce4bguh2rcd13ifvqckg","pricing_plan_id":"cebpf4jnsgd1na2vs0mg"},{"bike_id":"8c056a41-8949-4e15-9692-55aaf89d5dd5","system_id":"levelo_inurba_marseille","lat":43.29254,"lon":5.40912,"is_reserved":false,"is_disabled":false,"rental_uris":{"android":"levelo://app?vid=8c056a41-8949-4e15-9692-55aaf89d5dd5","ios":"levelo://app?vid=8c056a41-8949-4e15-9692-55aaf89d5dd5"},"vehicle_type_id":"4","last_reported":1734070484,"current_range_meters":17600,"station_id":"ce4bh192rcd13ifvqdc0","pricing_plan_id":"cebpf4jnsgd1na2vs0mg"},{"bike_id":"84caa79f-36c6-4cb9-9bda-fb605f30181c","system_id":"levelo_inurba_marseille","lat":43.255812,"lon":5.382309,"is_reserved":false,"is_disabled":false,"rental_uris":{"android":"levelo://app?vid=84caa79f-36c6-4cb9-9bda-fb605f30181c","ios":"levelo://app?vid=84caa79f-36c6-4cb9-9bda-fb605f30181c"},"vehicle_type_id":"4","last_reported":1734070484,"current_range_meters":26000,"station_id":"ce4bhih2rcd13ifvqfs0","pricing_plan_id":"cebpf4jnsgd1na2vs0mg"},{"bike_id":"18449eca-7cd4-4637-aad8-d740a9109818","system_id":"levelo_inurba_marseille","lat":43.268024,"lon":5.402668,"is_reserved":false,"is_disabled":false,"rental_uris":{"android":"levelo://app?vid=18449eca-7cd4-4637-aad8-d740a9109818","ios":"levelo://app?vid=18449eca-7cd4-4637-aad8-d740a9109818"},"vehicle_type_id":"4","last_reported":1734070484,"current_range_meters":38400,"station_id":"","pricing_plan_id":"cebpf4jnsgd1na2vs0mg"},{"bike_id":"875e1e70-a4d6-4de2-a9b5-49d5f2778c60","system_id":"levelo_inurba_marseille","lat":43.24806,"lon":5.37456,"is_reserved":false,"is_disabled":false,"rental_uris":{"android":"levelo://app?vid=875e1e70-a4d6-4de2-a9b5-49d5f2778c60","ios":"levelo://app?vid=875e1e70-a4d6-4de2-a9b5-49d5f2778c60"},"vehicle_type_id":"4","last_reported":1734070484,"current_range_meters":17600,"station_id":"ce4bhgh2rcd13ifvqfb0","pricing_plan_id":"cebpf4jnsgd1na2vs0mg"},{"bike_id":"3888a69b-a227-446c-9ee0-0e069b6a22ce","system_id":"levelo_inurba_marseille","lat":43.28106,"lon":5.37858,"is_reserved":false,"is_disabled":false,"rental_uris":{"android":"levelo://app?vid=3888a69b-a227-446c-9ee0-0e069b6a22ce","ios":"levelo://app?vid=3888a69b-a227-446c-9ee0-0e069b6a22ce"},"vehicle_type_id":"4","last_reported":1734070484,"current_range_meters":38800,"station_id":"ce4bha12rcd13ifvqee0","pricing_plan_id":"cebpf4jnsgd1na2vs0mg"},{"bike_id":"3d91e3c5-7cef-4a6b-b72c-1f72f9823e2d","system_id":"levelo_inurba_marseille","lat":43.29756,"lon":5.36148,"is_reserved":false,"is_disabled":true,"rental_uris":{"android":"levelo://app?vid=3d91e3c5-7cef-4a6b-b72c-1f72f9823e2d","ios":"levelo://app?vid=3d91e3c5-7cef-4a6b-b72c-1f72f9823e2d"},"vehicle_type_id":"4","last_reported":1734070484,"current_range_meters":0,"station_id":"","pricing_plan_id":"cebpf4jnsgd1na2vs0mg"},{"bike_id":"ae5fddba-1ab2-4a81-808d-73346865dc41","system_id":"levelo_inurba_marseille","lat":43.2928,"lon":5.40115,"is_reserved":false,"is_disabled":false,"rental_uris":{"android":"levelo://app?vid=ae5fddba-1ab2-4a81-808d-73346865dc41","ios":"levelo://app?vid=ae5fddba-1ab2-4a81-808d-73346865dc41"},"vehicle_type_id":"4","last_reported":1734070484,"current_range_meters":32400,"station_id":"ce4bh312rcd13ifvqdk0","pricing_plan_id":"cebpf4jnsgd1na2vs0mg"},{"bike_id":"e0cf0ce2-2ce5-426f-aaa5-b505a966528d","system_id":"levelo_inurba_marseille","lat":43.24074,"lon":5.37762,"is_reserved":false,"is_disabled":false,"rental_uris":{"android":"levelo://app?vid=e0cf0ce2-2ce5-426f-aaa5-b505a966528d","ios":"levelo://app?vid=e0cf0ce2-2ce5-426f-aaa5-b505a966528d"},"vehicle_type_id":"4","last_reported":1734070484,"current_range_meters":34800,"station_id":"ce4bhnp2rcd13ifvqgvg","pricing_plan_id":"cebpf4jnsgd1na2vs0mg"},{"bike_id":"e939de06-d909-4758-b8f3-8d43330311ae","system_id":"levelo_inurba_marseille","lat":43.25592,"lon":5.38249,"is_reserved":false,"is_disabled":false,"rental_uris":{"android":"levelo://app?vid=e939de06-d909-4758-b8f3-8d43330311ae","ios":"levelo://app?vid=e939de06-d909-4758-b8f3-8d43330311ae"},"vehicle_type_id":"4","last_reported":1734070484,"current_range_meters":38000,"station_id":"ce4bhih2rcd13ifvqfs0","pricing_plan_id":"cebpf4jnsgd1na2vs0mg"},{"bike_id":"731c0488-8ce0-493a-be35-732635fba08b","system_id":"levelo_inurba_marseille","lat":43.27235,"lon":5.39176,"is_reserved":false,"is_disabled":false,"rental_uris":{"android":"levelo://app?vid=731c0488-8ce0-493a-be35-732635fba08b","ios":"levelo://app?vid=731c0488-8ce0-493a-be35-732635fba08b"},"vehicle_type_id":"4","last_reported":1734070484,"current_range_meters":38800,"station_id":"ce4bhhp2rcd13ifvqfm0","pricing_plan_id":"cebpf4jnsgd1na2vs0mg"},{"bike_id":"49b8ce55-6ea6-43d2-bb4d-a3be63615a4c","system_id":"levelo_inurba_marseille","lat":43.308894,"lon":5.396491,"is_reserved":false,"is_disabled":false,"rental_uris":{"android":"levelo://app?vid=49b8ce55-6ea6-43d2-bb4d-a3be63615a4c","ios":"levelo://app?vid=49b8ce55-6ea6-43d2-bb4d-a3be63615a4c"},"vehicle_type_id":"4","last_reported":1734070484,"current_range_meters":38800,"station_id":"ce4bh012rcd13ifvqcv0","pricing_plan_id":"cebpf4jnsgd1na2vs0mg"},{"bike_id":"efb655cb-2785-4efc-abaf-ae9549ebe3e6","system_id":"levelo_inurba_marseille","lat":43.240751,"lon":5.377244,"is_reserved":false,"is_disabled":false,"rental_uris":{"android":"levelo://app?vid=efb655cb-2785-4efc-abaf-ae9549ebe3e6","ios":"levelo://app?vid=efb655cb-2785-4efc-abaf-ae9549ebe3e6"},"vehicle_type_id":"4","last_reported":1734070484,"current_range_meters":36400,"station_id":"ce4bhnp2rcd13ifvqgvg","pricing_plan_id":"cebpf4jnsgd1na2vs0mg"},{"bike_id":"8c8bad0e-eec2-4927-9599-8cfdaf514754","system_id":"levelo_inurba_marseille","lat":43.29985,"lon":5.38492,"is_reserved":false,"is_disabled":true,"rental_uris":{"android":"levelo://app?vid=8c8bad0e-eec2-4927-9599-8cfdaf514754","ios":"levelo://app?vid=8c8bad0e-eec2-4927-9599-8cfdaf514754"},"vehicle_type_id":"4","last_reported":1734070484,"current_range_meters":20400,"station_id":"ce4bgj92rcd13ifvqbd0","pricing_plan_id":"cebpf4jnsgd1na2vs0mg"},{"bike_id":"32024ab4-c07d-4aab-9d5e-1b4a86ac8681","system_id":"levelo_inurba_marseille","lat":43.26197,"lon":5.3745,"is_reserved":false,"is_disabled":true,"rental_uris":{"android":"levelo://app?vid=32024ab4-c07d-4aab-9d5e-1b4a86ac8681","ios":"levelo://app?vid=32024ab4-c07d-4aab-9d5e-1b4a86ac8681"},"vehicle_type_id":"4","last_reported":1734070484,"current_range_meters":38000,"station_id":"ce4bhgp2rcd13ifvqfc0","pricing_plan_id":"cebpf4jnsgd1na2vs0mg"},{"bike_id":"6bcae189-bfbf-4d49-b342-470958698813","system_id":"levelo_inurba_marseille","lat":43.28095,"lon":5.37833,"is_reserved":false,"is_disabled":false,"rental_uris":{"android":"levelo://app?vid=6bcae189-bfbf-4d49-b342-470958698813","ios":"levelo://app?vid=6bcae189-bfbf-4d49-b342-470958698813"},"vehicle_type_id":"4","last_reported":1734070484,"current_range_meters":35600,"station_id":"ce4bha12rcd13ifvqee0","pricing_plan_id":"cebpf4jnsgd1na2vs0mg"},{"bike_id":"e88f72be-0ed4-4a2d-9927-0de228a41be5","system_id":"levelo_inurba_marseille","lat":43.31082,"lon":5.42423,"is_reserved":false,"is_disabled":false,"rental_uris":{"android":"levelo://app?vid=e88f72be-0ed4-4a2d-9927-0de228a41be5","ios":"levelo://app?vid=e88f72be-0ed4-4a2d-9927-0de228a41be5"},"vehicle_type_id":"4","last_reported":1734070484,"current_range_meters":38800,"station_id":"ce4bhp92rcd13ifvqhag","pricing_plan_id":"cebpf4jnsgd1na2vs0mg"},{"bike_id":"c062f5c8-a5aa-4eb7-a50d-e3d60a0b3854","system_id":"levelo_inurba_marseille","lat":43.28412,"lon":5.37521,"is_reserved":false,"is_disabled":false,"rental_uris":{"android":"levelo://app?vid=c062f5c8-a5aa-4eb7-a50d-e3d60a0b3854","ios":"levelo://app?vid=c062f5c8-a5aa-4eb7-a50d-e3d60a0b3854"},"vehicle_type_id":"4","last_reported":1734070484,"current_range_meters":13600,"station_id":"ce4bh412rcd13ifvqds0","pricing_plan_id":"cebpf4jnsgd1na2vs0mg"},{"bike_id":"f0f21383-8591-42b0-820c-046731a4a6e4","system_id":"levelo_inurba_marseille","lat":43.309335,"lon":5.40153,"is_reserved":false,"is_disabled":false,"rental_uris":{"android":"levelo://app?vid=f0f21383-8591-42b0-820c-046731a4a6e4","ios":"levelo://app?vid=f0f21383-8591-42b0-820c-046731a4a6e4"},"vehicle_type_id":"4","last_reported":1734070484,"current_range_meters":38800,"station_id":"ce4bgvp2rcd13ifvqct0","pricing_plan_id":"cebpf4jnsgd1na2vs0mg"},{"bike_id":"85fc7ebc-e1ee-4e0e-81f6-502ecea0cb12","system_id":"levelo_inurba_marseille","lat":43.33024,"lon":5.39031,"is_reserved":false,"is_disabled":false,"rental_uris":{"android":"levelo://app?vid=85fc7ebc-e1ee-4e0e-81f6-502ecea0cb12","ios":"levelo://app?vid=85fc7ebc-e1ee-4e0e-81f6-502ecea0cb12"},"vehicle_type_id":"4","last_reported":1734070484,"current_range_meters":38400,"station_id":"ce4bhr92rcd13ifvqhrg","pricing_plan_id":"cebpf4jnsgd1na2vs0mg"},{"bike_id":"59233356-1163-4331-bac7-d0b062a429be","system_id":"levelo_inurba_marseille","lat":43.28009,"lon":5.40004,"is_reserved":false,"is_disabled":false,"rental_uris":{"android":"levelo://app?vid=59233356-1163-4331-bac7-d0b062a429be","ios":"levelo://app?vid=59233356-1163-4331-bac7-d0b062a429be"},"vehicle_type_id":"4","last_reported":1734070484,"current_range_meters":38800,"station_id":"ce4bho92rcd13ifvqh4g","pricing_plan_id":"cebpf4jnsgd1na2vs0mg"},{"bike_id":"2979497b-78e3-4a72-9256-3bb1a4f8f177","system_id":"levelo_inurba_marseille","lat":43.26565,"lon":5.37321,"is_reserved":false,"is_disabled":false,"rental_uris":{"android":"levelo://app?vid=2979497b-78e3-4a72-9256-3bb1a4f8f177","ios":"levelo://app?vid=2979497b-78e3-4a72-9256-3bb1a4f8f177"},"vehicle_type_id":"4","last_reported":1734070484,"current_range_meters":25200,"station_id":"ce4bhg12rcd13ifvqf70","pricing_plan_id":"cebpf4jnsgd1na2vs0mg"},{"bike_id":"6bc7401a-ad66-4e4d-bfd6-a954bc5b40c0","system_id":"levelo_inurba_marseille","lat":43.337527,"lon":5.37441,"is_reserved":false,"is_disabled":false,"rental_uris":{"android":"levelo://app?vid=6bc7401a-ad66-4e4d-bfd6-a954bc5b40c0","ios":"levelo://app?vid=6bc7401a-ad66-4e4d-bfd6-a954bc5b40c0"},"vehicle_type_id":"4","last_reported":1734070484,"current_range_meters":31200,"station_id":"","pricing_plan_id":"cebpf4jnsgd1na2vs0mg"},{"bike_id":"a5be6c6e-6632-45c5-a5c1-34ef67f28fec","system_id":"levelo_inurba_marseille","lat":43.288499,"lon":5.358497,"is_reserved":false,"is_disabled":false,"rental_uris":{"android":"levelo://app?vid=a5be6c6e-6632-45c5-a5c1-34ef67f28fec","ios":"levelo://app?vid=a5be6c6e-6632-45c5-a5c1-34ef67f28fec"},"vehicle_type_id":"4","last_reported":1734070484,"current_range_meters":31200,"station_id":"ce4bhb12rcd13ifvqem0","pricing_plan_id":"cebpf4jnsgd1na2vs0mg"},{"bike_id":"f0a4f587-2333-4a7a-8819-09121e495e1b","system_id":"levelo_inurba_marseille","lat":43.22935,"lon":5.3538,"is_reserved":false,"is_disabled":false,"rental_uris":{"android":"levelo://app?vid=f0a4f587-2333-4a7a-8819-09121e495e1b","ios":"levelo://app?vid=f0a4f587-2333-4a7a-8819-09121e495e1b"},"vehicle_type_id":"4","last_reported":1734070484,"current_range_meters":6000,"station_id":"cpo3532slgdg3j2ikp40","pricing_plan_id":"cebpf4jnsgd1na2vs0mg"},{"bike_id":"2bfbefe1-2355-4d23-9902-67fe1871d777","system_id":"levelo_inurba_marseille","lat":43.28846,"lon":5.3588,"is_reserved":false,"is_disabled":false,"rental_uris":{"android":"levelo://app?vid=2bfbefe1-2355-4d23-9902-67fe1871d777","ios":"levelo://app?vid=2bfbefe1-2355-4d23-9902-67fe1871d777"},"vehicle_type_id":"4","last_reported":1734070484,"current_range_meters":38800,"station_id":"ce4bhb12rcd13ifvqem0","pricing_plan_id":"cebpf4jnsgd1na2vs0mg"},{"bike_id":"da70db01-6823-4c17-8a7b-f57c76f38170","system_id":"levelo_inurba_marseille","lat":43.308009,"lon":5.3816,"is_reserved":false,"is_disabled":false,"rental_uris":{"android":"levelo://app?vid=da70db01-6823-4c17-8a7b-f57c76f38170","ios":"levelo://app?vid=da70db01-6823-4c17-8a7b-f57c76f38170"},"vehicle_type_id":"4","last_reported":1734070484,"current_range_meters":27200,"station_id":"ce4bgt12rcd13ifvqce0","pricing_plan_id":"cebpf4jnsgd1na2vs0mg"},{"bike_id":"5f7350aa-6be0-4012-bc16-bb17a1538b4c","system_id":"levelo_inurba_marseille","lat":43.30951,"lon":5.39039,"is_reserved":false,"is_disabled":true,"rental_uris":{"android":"levelo://app?vid=5f7350aa-6be0-4012-bc16-bb17a1538b4c","ios":"levelo://app?vid=5f7350aa-6be0-4012-bc16-bb17a1538b4c"},"vehicle_type_id":"4","last_reported":1734070484,"current_range_meters":38800,"station_id":"ce4bgup2rcd13ifvqco0","pricing_plan_id":"cebpf4jnsgd1na2vs0mg"},{"bike_id":"e2b090ff-7c7f-4d4a-8f5b-c317e750043e","system_id":"levelo_inurba_marseille","lat":43.270727,"lon":5.422823,"is_reserved":false,"is_disabled":true,"rental_uris":{"android":"levelo://app?vid=e2b090ff-7c7f-4d4a-8f5b-c317e750043e","ios":"levelo://app?vid=e2b090ff-7c7f-4d4a-8f5b-c317e750043e"},"vehicle_type_id":"4","last_reported":1734070484,"current_range_meters":0,"station_id":"ce4bhk92rcd13ifvqgb0","pricing_plan_id":"cebpf4jnsgd1na2vs0mg"},{"bike_id":"1be4dfd7-b95c-4558-b62a-debc1f52eb94","system_id":"levelo_inurba_marseille","lat":43.27058,"lon":5.4228,"is_reserved":false,"is_disabled":false,"rental_uris":{"android":"levelo://app?vid=1be4dfd7-b95c-4558-b62a-debc1f52eb94","ios":"levelo://app?vid=1be4dfd7-b95c-4558-b62a-debc1f52eb94"},"vehicle_type_id":"4","last_reported":1734070484,"current_range_meters":38800,"station_id":"ce4bhk92rcd13ifvqgb0","pricing_plan_id":"cebpf4jnsgd1na2vs0mg"},{"bike_id":"eb1496f4-67ed-47fd-8660-60023378367f","system_id":"levelo_inurba_marseille","lat":43.294212,"lon":5.374322,"is_reserved":false,"is_disabled":true,"rental_uris":{"android":"levelo://app?vid=eb1496f4-67ed-47fd-8660-60023378367f","ios":"levelo://app?vid=eb1496f4-67ed-47fd-8660-60023378367f"},"vehicle_type_id":"4","last_reported":1734070484,"current_range_meters":0,"station_id":"","pricing_plan_id":"cebpf4jnsgd1na2vs0mg"},{"bike_id":"a7392688-0981-4582-8d4e-49728b61c1fd","system_id":"levelo_inurba_marseille","lat":43.3153,"lon":5.37298,"is_reserved":false,"is_disabled":false,"rental_uris":{"android":"levelo://app?vid=a7392688-0981-4582-8d4e-49728b61c1fd","ios":"levelo://app?vid=a7392688-0981-4582-8d4e-49728b61c1fd"},"vehicle_type_id":"4","last_reported":1734070484,"current_range_meters":24000,"station_id":"ce4bgt12rcd13ifvqcd0","pricing_plan_id":"cebpf4jnsgd1na2vs0mg"},{"bike_id":"21f9ec22-c921-4886-91dd-a6e302eb5e31","system_id":"levelo_inurba_marseille","lat":43.2809,"lon":5.39653,"is_reserved":false,"is_disabled":false,"rental_uris":{"android":"levelo://app?vid=21f9ec22-c921-4886-91dd-a6e302eb5e31","ios":"levelo://app?vid=21f9ec22-c921-4886-91dd-a6e302eb5e31"},"vehicle_type_id":"4","last_reported":1734070484,"current_range_meters":8800,"station_id":"ce4bho12rcd13ifvqh2g","pricing_plan_id":"cebpf4jnsgd1na2vs0mg"},{"bike_id":"a2e3bf37-f1e5-4b35-adeb-0da3e0fe69d3","system_id":"levelo_inurba_marseille","lat":43.28633,"lon":5.38601,"is_reserved":false,"is_disabled":true,"rental_uris":{"android":"levelo://app?vid=a2e3bf37-f1e5-4b35-adeb-0da3e0fe69d3","ios":"levelo://app?vid=a2e3bf37-f1e5-4b35-adeb-0da3e0fe69d3"},"vehicle_type_id":"4","last_reported":1734070484,"current_range_meters":0,"station_id":"","pricing_plan_id":"cebpf4jnsgd1na2vs0mg"},{"bike_id":"a29ec15a-0267-4de8-b687-0d568e0a6a18","system_id":"levelo_inurba_marseille","lat":43.309863,"lon":5.379449,"is_reserved":false,"is_disabled":true,"rental_uris":{"android":"levelo://app?vid=a29ec15a-0267-4de8-b687-0d568e0a6a18","ios":"levelo://app?vid=a29ec15a-0267-4de8-b687-0d568e0a6a18"},"vehicle_type_id":"4","last_reported":1734070484,"current_range_meters":400,"station_id":"","pricing_plan_id":"cebpf4jnsgd1na2vs0mg"},{"bike_id":"05877c7d-1db0-4268-93bc-bd6e6fb7172d","system_id":"levelo_inurba_marseille","lat":43.280831,"lon":5.396579,"is_reserved":false,"is_disabled":false,"rental_uris":{"android":"levelo://app?vid=05877c7d-1db0-4268-93bc-bd6e6fb7172d","ios":"levelo://app?vid=05877c7d-1db0-4268-93bc-bd6e6fb7172d"},"vehicle_type_id":"4","last_reported":1734070484,"current_range_meters":25600,"station_id":"ce4bho12rcd13ifvqh2g","pricing_plan_id":"cebpf4jnsgd1na2vs0mg"},{"bike_id":"62093206-4e3d-405a-b762-87c233065bd4","system_id":"levelo_inurba_marseille","lat":43.278151,"lon":5.407222,"is_reserved":false,"is_disabled":false,"rental_uris":{"android":"levelo://app?vid=62093206-4e3d-405a-b762-87c233065bd4","ios":"levelo://app?vid=62093206-4e3d-405a-b762-87c233065bd4"},"vehicle_type_id":"4","last_reported":1734070484,"current_range_meters":9200,"station_id":"ce4bhnh2rcd13ifvqgtg","pricing_plan_id":"cebpf4jnsgd1na2vs0mg"},{"bike_id":"769d39d1-4d8b-4897-b247-3ca24a894642","system_id":"levelo_inurba_marseille","lat":43.31487,"lon":5.37301,"is_reserved":false,"is_disabled":false,"rental_uris":{"android":"levelo://app?vid=769d39d1-4d8b-4897-b247-3ca24a894642","ios":"levelo://app?vid=769d39d1-4d8b-4897-b247-3ca24a894642"},"vehicle_type_id":"4","last_reported":1734070484,"current_range_meters":38400,"station_id":"ce4bgt12rcd13ifvqcd0","pricing_plan_id":"cebpf4jnsgd1na2vs0mg"},{"bike_id":"55fe47d7-06dc-49f8-a9ef-6c457dfc7c31","system_id":"levelo_inurba_marseille","lat":43.28941,"lon":5.36399,"is_reserved":false,"is_disabled":false,"rental_uris":{"android":"levelo://app?vid=55fe47d7-06dc-49f8-a9ef-6c457dfc7c31","ios":"levelo://app?vid=55fe47d7-06dc-49f8-a9ef-6c457dfc7c31"},"vehicle_type_id":"4","last_reported":1734070484,"current_range_meters":37600,"station_id":"ce4bhc92rcd13ifvqetg","pricing_plan_id":"cebpf4jnsgd1na2vs0mg"},{"bike_id":"097a41bf-6635-41a6-b7a7-1173cae29ada","system_id":"levelo_inurba_marseille","lat":43.22931,"lon":5.35369,"is_reserved":false,"is_disabled":false,"rental_uris":{"android":"levelo://app?vid=097a41bf-6635-41a6-b7a7-1173cae29ada","ios":"levelo://app?vid=097a41bf-6635-41a6-b7a7-1173cae29ada"},"vehicle_type_id":"4","last_reported":1734070484,"current_range_meters":38800,"station_id":"cpo3532slgdg3j2ikp40","pricing_plan_id":"cebpf4jnsgd1na2vs0mg"},{"bike_id":"4d5881bc-1b66-4424-9cca-37b7d62f3c7f","system_id":"levelo_inurba_marseille","lat":43.29939,"lon":5.38502,"is_reserved":false,"is_disabled":false,"rental_uris":{"android":"levelo://app?vid=4d5881bc-1b66-4424-9cca-37b7d62f3c7f","ios":"levelo://app?vid=4d5881bc-1b66-4424-9cca-37b7d62f3c7f"},"vehicle_type_id":"4","last_reported":1734070484,"current_range_meters":35600,"station_id":"ce4bgj92rcd13ifvqbd0","pricing_plan_id":"cebpf4jnsgd1na2vs0mg"},{"bike_id":"f1ac6ac3-50c4-45a3-807d-dc2a982c9232","system_id":"levelo_inurba_marseille","lat":43.248024,"lon":5.374548,"is_reserved":false,"is_disabled":false,"rental_uris":{"android":"levelo://app?vid=f1ac6ac3-50c4-45a3-807d-dc2a982c9232","ios":"levelo://app?vid=f1ac6ac3-50c4-45a3-807d-dc2a982c9232"},"vehicle_type_id":"4","last_reported":1734070484,"current_range_meters":35600,"station_id":"ce4bhgh2rcd13ifvqfb0","pricing_plan_id":"cebpf4jnsgd1na2vs0mg"},{"bike_id":"1245d69a-20d2-4dad-b6ff-b79e938f1eee","system_id":"levelo_inurba_marseille","lat":43.286184,"lon":5.350992,"is_reserved":false,"is_disabled":false,"rental_uris":{"android":"levelo://app?vid=1245d69a-20d2-4dad-b6ff-b79e938f1eee","ios":"levelo://app?vid=1245d69a-20d2-4dad-b6ff-b79e938f1eee"},"vehicle_type_id":"4","last_reported":1734070484,"current_range_meters":23200,"station_id":"ce4bhch2rcd13ifvqeug","pricing_plan_id":"cebpf4jnsgd1na2vs0mg"},{"bike_id":"73c649f1-573c-4ef2-b7fd-0a6363ea8204","system_id":"levelo_inurba_marseille","lat":43.250836,"lon":5.395132,"is_reserved":false,"is_disabled":false,"rental_uris":{"android":"levelo://app?vid=73c649f1-573c-4ef2-b7fd-0a6363ea8204","ios":"levelo://app?vid=73c649f1-573c-4ef2-b7fd-0a6363ea8204"},"vehicle_type_id":"4","last_reported":1734070484,"current_range_meters":33200,"station_id":"ce4bhm12rcd13ifvqgkg","pricing_plan_id":"cebpf4jnsgd1na2vs0mg"},{"bike_id":"c105de93-e3e8-40fe-bca3-ba5aeed4e7af","system_id":"levelo_inurba_marseille","lat":43.31712,"lon":5.37741,"is_reserved":false,"is_disabled":false,"rental_uris":{"android":"levelo://app?vid=c105de93-e3e8-40fe-bca3-ba5aeed4e7af","ios":"levelo://app?vid=c105de93-e3e8-40fe-bca3-ba5aeed4e7af"},"vehicle_type_id":"4","last_reported":1734070484,"current_range_meters":38800,"station_id":"ce4bgth2rcd13ifvqch0","pricing_plan_id":"cebpf4jnsgd1na2vs0mg"},{"bike_id":"e74372ac-2a6c-47ae-afc7-e1b4e1c3d13f","system_id":"levelo_inurba_marseille","lat":43.23052,"lon":5.35487,"is_reserved":false,"is_disabled":false,"rental_uris":{"android":"levelo://app?vid=e74372ac-2a6c-47ae-afc7-e1b4e1c3d13f","ios":"levelo://app?vid=e74372ac-2a6c-47ae-afc7-e1b4e1c3d13f"},"vehicle_type_id":"4","last_reported":1734070484,"current_range_meters":10000,"station_id":"cpo3342slgdg3j2ifvpg","pricing_plan_id":"cebpf4jnsgd1na2vs0mg"},{"bike_id":"a6cd13c4-dd07-4fbb-8b9d-bb839caf7dbf","system_id":"levelo_inurba_marseille","lat":43.2812,"lon":5.37849,"is_reserved":false,"is_disabled":false,"rental_uris":{"android":"levelo://app?vid=a6cd13c4-dd07-4fbb-8b9d-bb839caf7dbf","ios":"levelo://app?vid=a6cd13c4-dd07-4fbb-8b9d-bb839caf7dbf"},"vehicle_type_id":"4","last_reported":1734070484,"current_range_meters":38800,"station_id":"ce4bha12rcd13ifvqee0","pricing_plan_id":"cebpf4jnsgd1na2vs0mg"},{"bike_id":"e193ef0e-e328-415a-a8ad-7b8f709bf396","system_id":"levelo_inurba_marseille","lat":43.28491,"lon":5.37904,"is_reserved":false,"is_disabled":false,"rental_uris":{"android":"levelo://app?vid=e193ef0e-e328-415a-a8ad-7b8f709bf396","ios":"levelo://app?vid=e193ef0e-e328-415a-a8ad-7b8f709bf396"},"vehicle_type_id":"4","last_reported":1734070484,"current_range_meters":25600,"station_id":"","pricing_plan_id":"cebpf4jnsgd1na2vs0mg"},{"bike_id":"508d8895-80b3-4346-bd20-21a11e86e1f0","system_id":"levelo_inurba_marseille","lat":43.29629,"lon":5.40588,"is_reserved":false,"is_disabled":false,"rental_uris":{"android":"levelo://app?vid=508d8895-80b3-4346-bd20-21a11e86e1f0","ios":"levelo://app?vid=508d8895-80b3-4346-bd20-21a11e86e1f0"},"vehicle_type_id":"4","last_reported":1734070484,"current_range_meters":30400,"station_id":"ce4bh0h2rcd13ifvqd60","pricing_plan_id":"cebpf4jnsgd1na2vs0mg"},{"bike_id":"ded981fc-11de-4a0e-8eb8-282cf89198d5","system_id":"levelo_inurba_marseille","lat":43.33744,"lon":5.37474,"is_reserved":false,"is_disabled":false,"rental_uris":{"android":"levelo://app?vid=ded981fc-11de-4a0e-8eb8-282cf89198d5","ios":"levelo://app?vid=ded981fc-11de-4a0e-8eb8-282cf89198d5"},"vehicle_type_id":"4","last_reported":1734070484,"current_range_meters":28000,"station_id":"","pricing_plan_id":"cebpf4jnsgd1na2vs0mg"},{"bike_id":"9bc633d9-60b9-4ade-9e3b-b8e3f7915f8e","system_id":"levelo_inurba_marseille","lat":43.24668,"lon":5.3816,"is_reserved":false,"is_disabled":false,"rental_uris":{"android":"levelo://app?vid=9bc633d9-60b9-4ade-9e3b-b8e3f7915f8e","ios":"levelo://app?vid=9bc633d9-60b9-4ade-9e3b-b8e3f7915f8e"},"vehicle_type_id":"4","last_reported":1734070484,"current_range_meters":24000,"station_id":"ce4bhih2rcd13ifvqfr0","pricing_plan_id":"cebpf4jnsgd1na2vs0mg"},{"bike_id":"e1f25a3f-a8ec-4485-a288-99a788cad599","system_id":"levelo_inurba_marseille","lat":43.23159,"lon":5.43716,"is_reserved":false,"is_disabled":false,"rental_uris":{"android":"levelo://app?vid=e1f25a3f-a8ec-4485-a288-99a788cad599","ios":"levelo://app?vid=e1f25a3f-a8ec-4485-a288-99a788cad599"},"vehicle_type_id":"4","last_reported":1734070484,"current_range_meters":38000,"station_id":"ce4bhmp2rcd13ifvqgog","pricing_plan_id":"cebpf4jnsgd1na2vs0mg"},{"bike_id":"fe218123-8a4a-42eb-883f-f2564a296efb","system_id":"levelo_inurba_marseille","lat":43.28021,"lon":5.36934,"is_reserved":false,"is_disabled":false,"rental_uris":{"android":"levelo://app?vid=fe218123-8a4a-42eb-883f-f2564a296efb","ios":"levelo://app?vid=fe218123-8a4a-42eb-883f-f2564a296efb"},"vehicle_type_id":"4","last_reported":1734070484,"current_range_meters":38400,"station_id":"ce4bha12rcd13ifvqef0","pricing_plan_id":"cebpf4jnsgd1na2vs0mg"},{"bike_id":"7fb39d98-1f21-4dbe-bd45-34546b5e8c6a","system_id":"levelo_inurba_marseille","lat":43.28432,"lon":5.39181,"is_reserved":false,"is_disabled":false,"rental_uris":{"android":"levelo://app?vid=7fb39d98-1f21-4dbe-bd45-34546b5e8c6a","ios":"levelo://app?vid=7fb39d98-1f21-4dbe-bd45-34546b5e8c6a"},"vehicle_type_id":"4","last_reported":1734070484,"current_range_meters":39200,"station_id":"ce4bhoh2rcd13ifvqh5g","pricing_plan_id":"cebpf4jnsgd1na2vs0mg"},{"bike_id":"f503f8b0-bd40-45b9-ae5e-f7e19487a17d","system_id":"levelo_inurba_marseille","lat":43.29899,"lon":5.43668,"is_reserved":false,"is_disabled":false,"rental_uris":{"android":"levelo://app?vid=f503f8b0-bd40-45b9-ae5e-f7e19487a17d","ios":"levelo://app?vid=f503f8b0-bd40-45b9-ae5e-f7e19487a17d"},"vehicle_type_id":"4","last_reported":1734070484,"current_range_meters":38800,"station_id":"ce4bhpp2rcd13ifvqhfg","pricing_plan_id":"cebpf4jnsgd1na2vs0mg"},{"bike_id":"03aeeecc-cbab-4cea-8ceb-a991f4b46532","system_id":"levelo_inurba_marseille","lat":43.243966,"lon":5.370476,"is_reserved":false,"is_disabled":false,"rental_uris":{"android":"levelo://app?vid=03aeeecc-cbab-4cea-8ceb-a991f4b46532","ios":"levelo://app?vid=03aeeecc-cbab-4cea-8ceb-a991f4b46532"},"vehicle_type_id":"4","last_reported":1734070484,"current_range_meters":36000,"station_id":"ce4bhhh2rcd13ifvqfk0","pricing_plan_id":"cebpf4jnsgd1na2vs0mg"},{"bike_id":"3916bf59-9b31-4993-9367-7dfdd11e604f","system_id":"levelo_inurba_marseille","lat":43.26498,"lon":5.39549,"is_reserved":false,"is_disabled":false,"rental_uris":{"android":"levelo://app?vid=3916bf59-9b31-4993-9367-7dfdd11e604f","ios":"levelo://app?vid=3916bf59-9b31-4993-9367-7dfdd11e604f"},"vehicle_type_id":"4","last_reported":1734070484,"current_range_meters":20400,"station_id":"ce4bhi12rcd13ifvqfq0","pricing_plan_id":"cebpf4jnsgd1na2vs0mg"},{"bike_id":"909fa209-8d1b-4f5b-940c-b791686b1efb","system_id":"levelo_inurba_marseille","lat":43.28669,"lon":5.36367,"is_reserved":false,"is_disabled":false,"rental_uris":{"android":"levelo://app?vid=909fa209-8d1b-4f5b-940c-b791686b1efb","ios":"levelo://app?vid=909fa209-8d1b-4f5b-940c-b791686b1efb"},"vehicle_type_id":"4","last_reported":1734070484,"current_range_meters":30400,"station_id":"ce4bhah2rcd13ifvqej0","pricing_plan_id":"cebpf4jnsgd1na2vs0mg"},{"bike_id":"3082828b-b6d5-44ca-9cf1-ff9db9bfc5d3","system_id":"levelo_inurba_marseille","lat":43.30454,"lon":5.38888,"is_reserved":false,"is_disabled":false,"rental_uris":{"android":"levelo://app?vid=3082828b-b6d5-44ca-9cf1-ff9db9bfc5d3","ios":"levelo://app?vid=3082828b-b6d5-44ca-9cf1-ff9db9bfc5d3"},"vehicle_type_id":"4","last_reported":1734070484,"current_range_meters":38800,"station_id":"ce4bgk12rcd13ifvqbi0","pricing_plan_id":"cebpf4jnsgd1na2vs0mg"},{"bike_id":"f0db4351-dd4b-4682-bd98-fb4be82177dc","system_id":"levelo_inurba_marseille","lat":43.23187,"lon":5.39981,"is_reserved":false,"is_disabled":false,"rental_uris":{"android":"levelo://app?vid=f0db4351-dd4b-4682-bd98-fb4be82177dc","ios":"levelo://app?vid=f0db4351-dd4b-4682-bd98-fb4be82177dc"},"vehicle_type_id":"4","last_reported":1734070484,"current_range_meters":38800,"station_id":"ce4bhn12rcd13ifvqgqg","pricing_plan_id":"cebpf4jnsgd1na2vs0mg"},{"bike_id":"f5435877-2350-4163-a287-5422a21a158f","system_id":"levelo_inurba_marseille","lat":43.31386,"lon":5.38516,"is_reserved":false,"is_disabled":false,"rental_uris":{"android":"levelo://app?vid=f5435877-2350-4163-a287-5422a21a158f","ios":"levelo://app?vid=f5435877-2350-4163-a287-5422a21a158f"},"vehicle_type_id":"4","last_reported":1734070484,"current_range_meters":38800,"station_id":"ce4bgt92rcd13ifvqcf0","pricing_plan_id":"cebpf4jnsgd1na2vs0mg"},{"bike_id":"a66c4b95-337e-4b9a-950c-e8c8d8e7a3a1","system_id":"levelo_inurba_marseille","lat":43.324799,"lon":5.365716,"is_reserved":false,"is_disabled":true,"rental_uris":{"android":"levelo://app?vid=a66c4b95-337e-4b9a-950c-e8c8d8e7a3a1","ios":"levelo://app?vid=a66c4b95-337e-4b9a-950c-e8c8d8e7a3a1"},"vehicle_type_id":"4","last_reported":1734070484,"current_range_meters":0,"station_id":"","pricing_plan_id":"cebpf4jnsgd1na2vs0mg"},{"bike_id":"021da959-8b05-44e2-9e52-905b2428e174","system_id":"levelo_inurba_marseille","lat":43.23193,"lon":5.39986,"is_reserved":false,"is_disabled":false,"rental_uris":{"android":"levelo://app?vid=021da959-8b05-44e2-9e52-905b2428e174","ios":"levelo://app?vid=021da959-8b05-44e2-9e52-905b2428e174"},"vehicle_type_id":"4","last_reported":1734070484,"current_range_meters":38800,"station_id":"ce4bhn12rcd13ifvqgqg","pricing_plan_id":"cebpf4jnsgd1na2vs0mg"},{"bike_id":"701f7953-26ac-419c-86c0-378dbc90d072","system_id":"levelo_inurba_marseille","lat":43.28103,"lon":5.3784,"is_reserved":false,"is_disabled":false,"rental_uris":{"android":"levelo://app?vid=701f7953-26ac-419c-86c0-378dbc90d072","ios":"levelo://app?vid=701f7953-26ac-419c-86c0-378dbc90d072"},"vehicle_type_id":"4","last_reported":1734070484,"current_range_meters":38800,"station_id":"ce4bha12rcd13ifvqee0","pricing_plan_id":"cebpf4jnsgd1na2vs0mg"},{"bike_id":"002069da-d74c-4e41-ae54-1da711c0eed6","system_id":"levelo_inurba_marseille","lat":43.285966,"lon":5.412976,"is_reserved":false,"is_disabled":true,"rental_uris":{"android":"levelo://app?vid=002069da-d74c-4e41-ae54-1da711c0eed6","ios":"levelo://app?vid=002069da-d74c-4e41-ae54-1da711c0eed6"},"vehicle_type_id":"4","last_reported":1734070484,"current_range_meters":0,"station_id":"","pricing_plan_id":"cebpf4jnsgd1na2vs0mg"},{"bike_id":"67ea53be-ec72-4668-a452-027f706dcb22","system_id":"levelo_inurba_marseille","lat":43.25522,"lon":5.37694,"is_reserved":false,"is_disabled":false,"rental_uris":{"android":"levelo://app?vid=67ea53be-ec72-4668-a452-027f706dcb22","ios":"levelo://app?vid=67ea53be-ec72-4668-a452-027f706dcb22"},"vehicle_type_id":"4","last_reported":1734070484,"current_range_meters":38000,"station_id":"ce4bhh12rcd13ifvqff0","pricing_plan_id":"cebpf4jnsgd1na2vs0mg"},{"bike_id":"003fcc20-75cd-4e78-9b9a-bd60ee138a76","system_id":"levelo_inurba_marseille","lat":43.255783,"lon":5.382415,"is_reserved":false,"is_disabled":false,"rental_uris":{"android":"levelo://app?vid=003fcc20-75cd-4e78-9b9a-bd60ee138a76","ios":"levelo://app?vid=003fcc20-75cd-4e78-9b9a-bd60ee138a76"},"vehicle_type_id":"4","last_reported":1734070484,"current_range_meters":38400,"station_id":"ce4bhih2rcd13ifvqfs0","pricing_plan_id":"cebpf4jnsgd1na2vs0mg"},{"bike_id":"0f4ef943-a326-4dfe-adc8-5ccfd365b83a","system_id":"levelo_inurba_marseille","lat":43.30648,"lon":5.40087,"is_reserved":false,"is_disabled":false,"rental_uris":{"android":"levelo://app?vid=0f4ef943-a326-4dfe-adc8-5ccfd365b83a","ios":"levelo://app?vid=0f4ef943-a326-4dfe-adc8-5ccfd365b83a"},"vehicle_type_id":"4","last_reported":1734070484,"current_range_meters":29600,"station_id":"ce4bh112rcd13ifvqda0","pricing_plan_id":"cebpf4jnsgd1na2vs0mg"},{"bike_id":"0dc53ed0-703c-41c7-a7ba-e5fe121ea6cc","system_id":"levelo_inurba_marseille","lat":43.27837,"lon":5.39213,"is_reserved":false,"is_disabled":true,"rental_uris":{"android":"levelo://app?vid=0dc53ed0-703c-41c7-a7ba-e5fe121ea6cc","ios":"levelo://app?vid=0dc53ed0-703c-41c7-a7ba-e5fe121ea6cc"},"vehicle_type_id":"4","last_reported":1734070484,"current_range_meters":33600,"station_id":"ce4bhjp2rcd13ifvqga0","pricing_plan_id":"cebpf4jnsgd1na2vs0mg"},{"bike_id":"a1b3e7ef-122c-4c3b-8be9-c3cc1fd01590","system_id":"levelo_inurba_marseille","lat":43.24553,"lon":5.39531,"is_reserved":false,"is_disabled":false,"rental_uris":{"android":"levelo://app?vid=a1b3e7ef-122c-4c3b-8be9-c3cc1fd01590","ios":"levelo://app?vid=a1b3e7ef-122c-4c3b-8be9-c3cc1fd01590"},"vehicle_type_id":"4","last_reported":1734070484,"current_range_meters":6000,"station_id":"ce4bhlp2rcd13ifvqgjg","pricing_plan_id":"cebpf4jnsgd1na2vs0mg"},{"bike_id":"1e09aea1-6592-4606-838e-01c5295332d1","system_id":"levelo_inurba_marseille","lat":43.326626,"lon":5.40982,"is_reserved":false,"is_disabled":true,"rental_uris":{"android":"levelo://app?vid=1e09aea1-6592-4606-838e-01c5295332d1","ios":"levelo://app?vid=1e09aea1-6592-4606-838e-01c5295332d1"},"vehicle_type_id":"4","last_reported":1734070484,"current_range_meters":33600,"station_id":"ce4bhpp2rcd13ifvqhgg","pricing_plan_id":"cebpf4jnsgd1na2vs0mg"},{"bike_id":"e5d9e91f-3013-4e14-9127-2183f4aa89fd","system_id":"levelo_inurba_marseille","lat":43.29286,"lon":5.40111,"is_reserved":false,"is_disabled":false,"rental_uris":{"android":"levelo://app?vid=e5d9e91f-3013-4e14-9127-2183f4aa89fd","ios":"levelo://app?vid=e5d9e91f-3013-4e14-9127-2183f4aa89fd"},"vehicle_type_id":"4","last_reported":1734070484,"current_range_meters":38800,"station_id":"ce4bh312rcd13ifvqdk0","pricing_plan_id":"cebpf4jnsgd1na2vs0mg"},{"bike_id":"cc66f151-2460-4bd1-9c55-81df03cdad0d","system_id":"levelo_inurba_marseille","lat":43.30509,"lon":5.36894,"is_reserved":false,"is_disabled":true,"rental_uris":{"android":"levelo://app?vid=cc66f151-2460-4bd1-9c55-81df03cdad0d","ios":"levelo://app?vid=cc66f151-2460-4bd1-9c55-81df03cdad0d"},"vehicle_type_id":"4","last_reported":1734070484,"current_range_meters":0,"station_id":"","pricing_plan_id":"cebpf4jnsgd1na2vs0mg"},{"bike_id":"d3148480-0118-4460-90b5-07f095843da8","system_id":"levelo_inurba_marseille","lat":43.24665,"lon":5.38162,"is_reserved":false,"is_disabled":false,"rental_uris":{"android":"levelo://app?vid=d3148480-0118-4460-90b5-07f095843da8","ios":"levelo://app?vid=d3148480-0118-4460-90b5-07f095843da8"},"vehicle_type_id":"4","last_reported":1734070484,"current_range_meters":38800,"station_id":"ce4bhih2rcd13ifvqfr0","pricing_plan_id":"cebpf4jnsgd1na2vs0mg"},{"bike_id":"2a6f9534-4577-4efe-b86a-ed6df687e83d","system_id":"levelo_inurba_marseille","lat":43.30457,"lon":5.37927,"is_reserved":false,"is_disabled":false,"rental_uris":{"android":"levelo://app?vid=2a6f9534-4577-4efe-b86a-ed6df687e83d","ios":"levelo://app?vid=2a6f9534-4577-4efe-b86a-ed6df687e83d"},"vehicle_type_id":"4","last_reported":1734070484,"current_range_meters":30400,"station_id":"ce4bgup2rcd13ifvqcn0","pricing_plan_id":"cebpf4jnsgd1na2vs0mg"},{"bike_id":"7d33a6c9-40e7-4b00-bffe-15443744dff9","system_id":"levelo_inurba_marseille","lat":43.24655,"lon":5.3817,"is_reserved":false,"is_disabled":false,"rental_uris":{"android":"levelo://app?vid=7d33a6c9-40e7-4b00-bffe-15443744dff9","ios":"levelo://app?vid=7d33a6c9-40e7-4b00-bffe-15443744dff9"},"vehicle_type_id":"4","last_reported":1734070484,"current_range_meters":30000,"station_id":"ce4bhih2rcd13ifvqfr0","pricing_plan_id":"cebpf4jnsgd1na2vs0mg"},{"bike_id":"1a6191e2-ac99-485d-8e32-fe2f8071e4a9","system_id":"levelo_inurba_marseille","lat":43.29426,"lon":5.3859,"is_reserved":false,"is_disabled":true,"rental_uris":{"android":"levelo://app?vid=1a6191e2-ac99-485d-8e32-fe2f8071e4a9","ios":"levelo://app?vid=1a6191e2-ac99-485d-8e32-fe2f8071e4a9"},"vehicle_type_id":"4","last_reported":1734070484,"current_range_meters":0,"station_id":"ce4bh2h2rcd13ifvqdh0","pricing_plan_id":"cebpf4jnsgd1na2vs0mg"},{"bike_id":"04f5a329-543b-40ca-ac96-b27eaba28927","system_id":"levelo_inurba_marseille","lat":43.28957,"lon":5.36414,"is_reserved":false,"is_disabled":false,"rental_uris":{"android":"levelo://app?vid=04f5a329-543b-40ca-ac96-b27eaba28927","ios":"levelo://app?vid=04f5a329-543b-40ca-ac96-b27eaba28927"},"vehicle_type_id":"4","last_reported":1734070484,"current_range_meters":38000,"station_id":"ce4bhc92rcd13ifvqetg","pricing_plan_id":"cebpf4jnsgd1na2vs0mg"},{"bike_id":"0d6b3dca-2dd5-4a24-884e-86c0fd1f8f5c","system_id":"levelo_inurba_marseille","lat":43.29283,"lon":5.40124,"is_reserved":false,"is_disabled":false,"rental_uris":{"android":"levelo://app?vid=0d6b3dca-2dd5-4a24-884e-86c0fd1f8f5c","ios":"levelo://app?vid=0d6b3dca-2dd5-4a24-884e-86c0fd1f8f5c"},"vehicle_type_id":"4","last_reported":1734070484,"current_range_meters":36800,"station_id":"ce4bh312rcd13ifvqdk0","pricing_plan_id":"cebpf4jnsgd1na2vs0mg"},{"bike_id":"bced2216-fe81-4039-bef5-7e9843b329f3","system_id":"levelo_inurba_marseille","lat":43.28148,"lon":5.42669,"is_reserved":false,"is_disabled":false,"rental_uris":{"android":"levelo://app?vid=bced2216-fe81-4039-bef5-7e9843b329f3","ios":"levelo://app?vid=bced2216-fe81-4039-bef5-7e9843b329f3"},"vehicle_type_id":"4","last_reported":1734070484,"current_range_meters":38400,"station_id":"ce4bhnh2rcd13ifvqgug","pricing_plan_id":"cebpf4jnsgd1na2vs0mg"},{"bike_id":"20c3dc17-effd-4423-b025-dc7a6b601ac6","system_id":"levelo_inurba_marseille","lat":43.31482,"lon":5.3731,"is_reserved":false,"is_disabled":false,"rental_uris":{"android":"levelo://app?vid=20c3dc17-effd-4423-b025-dc7a6b601ac6","ios":"levelo://app?vid=20c3dc17-effd-4423-b025-dc7a6b601ac6"},"vehicle_type_id":"4","last_reported":1734070484,"current_range_meters":9600,"station_id":"ce4bgt12rcd13ifvqcd0","pricing_plan_id":"cebpf4jnsgd1na2vs0mg"},{"bike_id":"9332f19c-96e3-47ac-8807-c5c2384614c0","system_id":"levelo_inurba_marseille","lat":43.23069,"lon":5.35495,"is_reserved":false,"is_disabled":false,"rental_uris":{"android":"levelo://app?vid=9332f19c-96e3-47ac-8807-c5c2384614c0","ios":"levelo://app?vid=9332f19c-96e3-47ac-8807-c5c2384614c0"},"vehicle_type_id":"4","last_reported":1734070484,"current_range_meters":8400,"station_id":"cpo3342slgdg3j2ifvpg","pricing_plan_id":"cebpf4jnsgd1na2vs0mg"},{"bike_id":"507a9668-9123-4b65-b9a1-3df80fdee677","system_id":"levelo_inurba_marseille","lat":43.30605,"lon":5.39359,"is_reserved":false,"is_disabled":true,"rental_uris":{"android":"levelo://app?vid=507a9668-9123-4b65-b9a1-3df80fdee677","ios":"levelo://app?vid=507a9668-9123-4b65-b9a1-3df80fdee677"},"vehicle_type_id":"4","last_reported":1734070484,"current_range_meters":32800,"station_id":"ce4bh0p2rcd13ifvqd80","pricing_plan_id":"cebpf4jnsgd1na2vs0mg"},{"bike_id":"63a28b2c-7dd2-4e0c-a9b4-f28a1ca574a5","system_id":"levelo_inurba_marseille","lat":43.30955,"lon":5.39045,"is_reserved":false,"is_disabled":false,"rental_uris":{"android":"levelo://app?vid=63a28b2c-7dd2-4e0c-a9b4-f28a1ca574a5","ios":"levelo://app?vid=63a28b2c-7dd2-4e0c-a9b4-f28a1ca574a5"},"vehicle_type_id":"4","last_reported":1734070484,"current_range_meters":5600,"station_id":"ce4bgup2rcd13ifvqco0","pricing_plan_id":"cebpf4jnsgd1na2vs0mg"},{"bike_id":"1e5b3424-92e2-4d6e-a8c1-3ffc43434050","system_id":"levelo_inurba_marseille","lat":43.28166,"lon":5.42665,"is_reserved":false,"is_disabled":false,"rental_uris":{"android":"levelo://app?vid=1e5b3424-92e2-4d6e-a8c1-3ffc43434050","ios":"levelo://app?vid=1e5b3424-92e2-4d6e-a8c1-3ffc43434050"},"vehicle_type_id":"4","last_reported":1734070484,"current_range_meters":22000,"station_id":"ce4bhnh2rcd13ifvqgug","pricing_plan_id":"cebpf4jnsgd1na2vs0mg"},{"bike_id":"a8942e43-f3d6-46fd-8576-2cc6b2787f3e","system_id":"levelo_inurba_marseille","lat":43.33032,"lon":5.39059,"is_reserved":false,"is_disabled":false,"rental_uris":{"android":"levelo://app?vid=a8942e43-f3d6-46fd-8576-2cc6b2787f3e","ios":"levelo://app?vid=a8942e43-f3d6-46fd-8576-2cc6b2787f3e"},"vehicle_type_id":"4","last_reported":1734070484,"current_range_meters":22000,"station_id":"ce4bhr92rcd13ifvqhrg","pricing_plan_id":"cebpf4jnsgd1na2vs0mg"},{"bike_id":"ebab67b4-141a-4dd9-afd9-505143cd1336","system_id":"levelo_inurba_marseille","lat":43.31496,"lon":5.37305,"is_reserved":false,"is_disabled":false,"rental_uris":{"android":"levelo://app?vid=ebab67b4-141a-4dd9-afd9-505143cd1336","ios":"levelo://app?vid=ebab67b4-141a-4dd9-afd9-505143cd1336"},"vehicle_type_id":"4","last_reported":1734070484,"current_range_meters":37600,"station_id":"ce4bgt12rcd13ifvqcd0","pricing_plan_id":"cebpf4jnsgd1na2vs0mg"},{"bike_id":"54ec87d8-7c07-4834-ab1c-c67442ef6144","system_id":"levelo_inurba_marseille","lat":43.28658,"lon":5.36371,"is_reserved":false,"is_disabled":false,"rental_uris":{"android":"levelo://app?vid=54ec87d8-7c07-4834-ab1c-c67442ef6144","ios":"levelo://app?vid=54ec87d8-7c07-4834-ab1c-c67442ef6144"},"vehicle_type_id":"4","last_reported":1734070484,"current_range_meters":37600,"station_id":"ce4bhah2rcd13ifvqej0","pricing_plan_id":"cebpf4jnsgd1na2vs0mg"},{"bike_id":"1863d900-cecd-4d48-8184-4237d374aa19","system_id":"levelo_inurba_marseille","lat":43.30411,"lon":5.39758,"is_reserved":false,"is_disabled":false,"rental_uris":{"android":"levelo://app?vid=1863d900-cecd-4d48-8184-4237d374aa19","ios":"levelo://app?vid=1863d900-cecd-4d48-8184-4237d374aa19"},"vehicle_type_id":"4","last_reported":1734070484,"current_range_meters":16000,"station_id":"ce4bh092rcd13ifvqd20","pricing_plan_id":"cebpf4jnsgd1na2vs0mg"},{"bike_id":"e2a6a7fa-9d4f-462d-a150-268e5d7605b4","system_id":"levelo_inurba_marseille","lat":43.27921,"lon":5.39572,"is_reserved":false,"is_disabled":false,"rental_uris":{"android":"levelo://app?vid=e2a6a7fa-9d4f-462d-a150-268e5d7605b4","ios":"levelo://app?vid=e2a6a7fa-9d4f-462d-a150-268e5d7605b4"},"vehicle_type_id":"4","last_reported":1734070484,"current_range_meters":24000,"station_id":"ce4bhf92rcd13ifvqf40","pricing_plan_id":"cebpf4jnsgd1na2vs0mg"},{"bike_id":"208886c0-de2e-43ca-abbf-3e8665653f84","system_id":"levelo_inurba_marseille","lat":43.30404,"lon":5.37714,"is_reserved":false,"is_disabled":true,"rental_uris":{"android":"levelo://app?vid=208886c0-de2e-43ca-abbf-3e8665653f84","ios":"levelo://app?vid=208886c0-de2e-43ca-abbf-3e8665653f84"},"vehicle_type_id":"4","last_reported":1734070484,"current_range_meters":0,"station_id":"","pricing_plan_id":"cebpf4jnsgd1na2vs0mg"},{"bike_id":"05255c81-275e-4363-861a-0bdd4b950463","system_id":"levelo_inurba_marseille","lat":43.3016,"lon":5.38082,"is_reserved":false,"is_disabled":false,"rental_uris":{"android":"levelo://app?vid=05255c81-275e-4363-861a-0bdd4b950463","ios":"levelo://app?vid=05255c81-275e-4363-861a-0bdd4b950463"},"vehicle_type_id":"4","last_reported":1734070484,"current_range_meters":18800,"station_id":"ce4bgjp2rcd13ifvqbh0","pricing_plan_id":"cebpf4jnsgd1na2vs0mg"},{"bike_id":"ab9d750b-26c8-4060-8d0d-04c73ce2b6ab","system_id":"levelo_inurba_marseille","lat":43.30811,"lon":5.38184,"is_reserved":false,"is_disabled":false,"rental_uris":{"android":"levelo://app?vid=ab9d750b-26c8-4060-8d0d-04c73ce2b6ab","ios":"levelo://app?vid=ab9d750b-26c8-4060-8d0d-04c73ce2b6ab"},"vehicle_type_id":"4","last_reported":1734070484,"current_range_meters":32000,"station_id":"ce4bgt12rcd13ifvqce0","pricing_plan_id":"cebpf4jnsgd1na2vs0mg"},{"bike_id":"36a6aaf7-7942-4cf8-a178-14100534e00e","system_id":"levelo_inurba_marseille","lat":43.28442,"lon":5.39189,"is_reserved":false,"is_disabled":true,"rental_uris":{"android":"levelo://app?vid=36a6aaf7-7942-4cf8-a178-14100534e00e","ios":"levelo://app?vid=36a6aaf7-7942-4cf8-a178-14100534e00e"},"vehicle_type_id":"4","last_reported":1734070484,"current_range_meters":28800,"station_id":"ce4bhoh2rcd13ifvqh5g","pricing_plan_id":"cebpf4jnsgd1na2vs0mg"},{"bike_id":"a6faa916-a00d-4038-aec1-1bff7122c51d","system_id":"levelo_inurba_marseille","lat":43.25112,"lon":5.4032,"is_reserved":false,"is_disabled":false,"rental_uris":{"android":"levelo://app?vid=a6faa916-a00d-4038-aec1-1bff7122c51d","ios":"levelo://app?vid=a6faa916-a00d-4038-aec1-1bff7122c51d"},"vehicle_type_id":"4","last_reported":1734070484,"current_range_meters":38800,"station_id":"ce4bhlh2rcd13ifvqgig","pricing_plan_id":"cebpf4jnsgd1na2vs0mg"},{"bike_id":"06f66dfc-67e3-46bb-8e23-90ef22aa2f49","system_id":"levelo_inurba_marseille","lat":43.330131,"lon":5.390447,"is_reserved":false,"is_disabled":false,"rental_uris":{"android":"levelo://app?vid=06f66dfc-67e3-46bb-8e23-90ef22aa2f49","ios":"levelo://app?vid=06f66dfc-67e3-46bb-8e23-90ef22aa2f49"},"vehicle_type_id":"4","last_reported":1734070484,"current_range_meters":25600,"station_id":"ce4bhr92rcd13ifvqhrg","pricing_plan_id":"cebpf4jnsgd1na2vs0mg"},{"bike_id":"5d3c681d-f286-4f02-8f83-78ddf36f2ff0","system_id":"levelo_inurba_marseille","lat":43.24194,"lon":5.39733,"is_reserved":false,"is_disabled":false,"rental_uris":{"android":"levelo://app?vid=5d3c681d-f286-4f02-8f83-78ddf36f2ff0","ios":"levelo://app?vid=5d3c681d-f286-4f02-8f83-78ddf36f2ff0"},"vehicle_type_id":"4","last_reported":1734070484,"current_range_meters":38800,"station_id":"ce4bhn12rcd13ifvqgpg","pricing_plan_id":"cebpf4jnsgd1na2vs0mg"},{"bike_id":"6e6a004b-462d-4b03-aeaa-2611256f0d89","system_id":"levelo_inurba_marseille","lat":43.28113,"lon":5.38932,"is_reserved":false,"is_disabled":true,"rental_uris":{"android":"levelo://app?vid=6e6a004b-462d-4b03-aeaa-2611256f0d89","ios":"levelo://app?vid=6e6a004b-462d-4b03-aeaa-2611256f0d89"},"vehicle_type_id":"4","last_reported":1734070484,"current_range_meters":0,"station_id":"","pricing_plan_id":"cebpf4jnsgd1na2vs0mg"},{"bike_id":"2abe67bf-be60-499e-b4b1-c345c7551a15","system_id":"levelo_inurba_marseille","lat":43.2856,"lon":5.39497,"is_reserved":false,"is_disabled":false,"rental_uris":{"android":"levelo://app?vid=2abe67bf-be60-499e-b4b1-c345c7551a15","ios":"levelo://app?vid=2abe67bf-be60-499e-b4b1-c345c7551a15"},"vehicle_type_id":"4","last_reported":1734070484,"current_range_meters":38400,"station_id":"ce4bh292rcd13ifvqdg0","pricing_plan_id":"cebpf4jnsgd1na2vs0mg"},{"bike_id":"14845a8f-c0c8-4311-843d-ef820014914a","system_id":"levelo_inurba_marseille","lat":43.26826,"lon":5.40257,"is_reserved":false,"is_disabled":false,"rental_uris":{"android":"levelo://app?vid=14845a8f-c0c8-4311-843d-ef820014914a","ios":"levelo://app?vid=14845a8f-c0c8-4311-843d-ef820014914a"},"vehicle_type_id":"4","last_reported":1734070484,"current_range_meters":38400,"station_id":"ce501612rcd8frsf0b60","pricing_plan_id":"cebpf4jnsgd1na2vs0mg"},{"bike_id":"83eb3ce6-2959-4c06-ad27-23015fd4dfa8","system_id":"levelo_inurba_marseille","lat":43.31321,"lon":5.39699,"is_reserved":false,"is_disabled":true,"rental_uris":{"android":"levelo://app?vid=83eb3ce6-2959-4c06-ad27-23015fd4dfa8","ios":"levelo://app?vid=83eb3ce6-2959-4c06-ad27-23015fd4dfa8"},"vehicle_type_id":"4","last_reported":1734070484,"current_range_meters":4800,"station_id":"ce4bgvp2rcd13ifvqcu0","pricing_plan_id":"cebpf4jnsgd1na2vs0mg"},{"bike_id":"dd643bc6-5b37-42ec-9cd1-25f6f7772e52","system_id":"levelo_inurba_marseille","lat":43.31755,"lon":5.39024,"is_reserved":false,"is_disabled":true,"rental_uris":{"android":"levelo://app?vid=dd643bc6-5b37-42ec-9cd1-25f6f7772e52","ios":"levelo://app?vid=dd643bc6-5b37-42ec-9cd1-25f6f7772e52"},"vehicle_type_id":"4","last_reported":1734070484,"current_range_meters":33600,"station_id":"ce4bhqp2rcd13ifvqhng","pricing_plan_id":"cebpf4jnsgd1na2vs0mg"},{"bike_id":"cab7b05a-4a2f-46f0-bf47-699cc231b7fd","system_id":"levelo_inurba_marseille","lat":43.31169,"lon":5.38722,"is_reserved":false,"is_disabled":false,"rental_uris":{"android":"levelo://app?vid=cab7b05a-4a2f-46f0-bf47-699cc231b7fd","ios":"levelo://app?vid=cab7b05a-4a2f-46f0-bf47-699cc231b7fd"},"vehicle_type_id":"4","last_reported":1734070484,"current_range_meters":28000,"station_id":"ce4bgv12rcd13ifvqcp0","pricing_plan_id":"cebpf4jnsgd1na2vs0mg"},{"bike_id":"bf91c614-d49a-46f7-a2b1-f29ed05bf956","system_id":"levelo_inurba_marseille","lat":43.30878,"lon":5.39633,"is_reserved":false,"is_disabled":false,"rental_uris":{"android":"levelo://app?vid=bf91c614-d49a-46f7-a2b1-f29ed05bf956","ios":"levelo://app?vid=bf91c614-d49a-46f7-a2b1-f29ed05bf956"},"vehicle_type_id":"4","last_reported":1734070484,"current_range_meters":38800,"station_id":"ce4bh012rcd13ifvqcv0","pricing_plan_id":"cebpf4jnsgd1na2vs0mg"},{"bike_id":"065259c9-a811-4848-9879-2c397f5afe18","system_id":"levelo_inurba_marseille","lat":43.26548,"lon":5.39015,"is_reserved":false,"is_disabled":false,"rental_uris":{"android":"levelo://app?vid=065259c9-a811-4848-9879-2c397f5afe18","ios":"levelo://app?vid=065259c9-a811-4848-9879-2c397f5afe18"},"vehicle_type_id":"4","last_reported":1734070484,"current_range_meters":26000,"station_id":"ce4bhe12rcd13ifvqf30","pricing_plan_id":"cebpf4jnsgd1na2vs0mg"},{"bike_id":"e738fcc8-c725-46f1-b7fe-8f522bd56ad4","system_id":"levelo_inurba_marseille","lat":43.22932,"lon":5.35393,"is_reserved":false,"is_disabled":false,"rental_uris":{"android":"levelo://app?vid=e738fcc8-c725-46f1-b7fe-8f522bd56ad4","ios":"levelo://app?vid=e738fcc8-c725-46f1-b7fe-8f522bd56ad4"},"vehicle_type_id":"4","last_reported":1734070484,"current_range_meters":7200,"station_id":"cpo3532slgdg3j2ikp40","pricing_plan_id":"cebpf4jnsgd1na2vs0mg"},{"bike_id":"3998f27a-069b-4270-87a8-7463755f30b7","system_id":"levelo_inurba_marseille","lat":43.31691,"lon":5.40461,"is_reserved":false,"is_disabled":false,"rental_uris":{"android":"levelo://app?vid=3998f27a-069b-4270-87a8-7463755f30b7","ios":"levelo://app?vid=3998f27a-069b-4270-87a8-7463755f30b7"},"vehicle_type_id":"4","last_reported":1734070484,"current_range_meters":20000,"station_id":"ce4bh012rcd13ifvqd00","pricing_plan_id":"cebpf4jnsgd1na2vs0mg"},{"bike_id":"1ec7b3ae-0590-4507-9a06-b1b4e139ae23","system_id":"levelo_inurba_marseille","lat":43.33015,"lon":5.39059,"is_reserved":false,"is_disabled":false,"rental_uris":{"android":"levelo://app?vid=1ec7b3ae-0590-4507-9a06-b1b4e139ae23","ios":"levelo://app?vid=1ec7b3ae-0590-4507-9a06-b1b4e139ae23"},"vehicle_type_id":"4","last_reported":1734070484,"current_range_meters":38000,"station_id":"ce4bhr92rcd13ifvqhrg","pricing_plan_id":"cebpf4jnsgd1na2vs0mg"},{"bike_id":"7965bd8b-65b9-4460-9e65-36f253ebc53b","system_id":"levelo_inurba_marseille","lat":43.32045,"lon":5.41513,"is_reserved":false,"is_disabled":false,"rental_uris":{"android":"levelo://app?vid=7965bd8b-65b9-4460-9e65-36f253ebc53b","ios":"levelo://app?vid=7965bd8b-65b9-4460-9e65-36f253ebc53b"},"vehicle_type_id":"4","last_reported":1734070484,"current_range_meters":24800,"station_id":"ce4bhq92rcd13ifvqhkg","pricing_plan_id":"cebpf4jnsgd1na2vs0mg"},{"bike_id":"8c67bc6c-5915-4184-87df-88dc75bc574d","system_id":"levelo_inurba_marseille","lat":43.2903,"lon":5.38646,"is_reserved":false,"is_disabled":true,"rental_uris":{"android":"levelo://app?vid=8c67bc6c-5915-4184-87df-88dc75bc574d","ios":"levelo://app?vid=8c67bc6c-5915-4184-87df-88dc75bc574d"},"vehicle_type_id":"4","last_reported":1734070484,"current_range_meters":24000,"station_id":"ce4bh4p2rcd13ifvqe0g","pricing_plan_id":"cebpf4jnsgd1na2vs0mg"},{"bike_id":"467a8ed9-8f9d-4f9c-a7a2-b2a4bc21bd4a","system_id":"levelo_inurba_marseille","lat":43.24651,"lon":5.38891,"is_reserved":false,"is_disabled":false,"rental_uris":{"android":"levelo://app?vid=467a8ed9-8f9d-4f9c-a7a2-b2a4bc21bd4a","ios":"levelo://app?vid=467a8ed9-8f9d-4f9c-a7a2-b2a4bc21bd4a"},"vehicle_type_id":"4","last_reported":1734070484,"current_range_meters":32000,"station_id":"ce4bhg12rcd13ifvqf60","pricing_plan_id":"cebpf4jnsgd1na2vs0mg"},{"bike_id":"3f376398-b9b7-4419-aed9-9595c8c18ff6","system_id":"levelo_inurba_marseille","lat":43.29554,"lon":5.42287,"is_reserved":false,"is_disabled":false,"rental_uris":{"android":"levelo://app?vid=3f376398-b9b7-4419-aed9-9595c8c18ff6","ios":"levelo://app?vid=3f376398-b9b7-4419-aed9-9595c8c18ff6"},"vehicle_type_id":"4","last_reported":1734070484,"current_range_meters":36400,"station_id":"ce4bhph2rcd13ifvqhdg","pricing_plan_id":"cebpf4jnsgd1na2vs0mg"},{"bike_id":"512bba07-c0d9-48d8-8c46-31b3ecfbf0e4","system_id":"levelo_inurba_marseille","lat":43.2396,"lon":5.36639,"is_reserved":false,"is_disabled":false,"rental_uris":{"android":"levelo://app?vid=512bba07-c0d9-48d8-8c46-31b3ecfbf0e4","ios":"levelo://app?vid=512bba07-c0d9-48d8-8c46-31b3ecfbf0e4"},"vehicle_type_id":"4","last_reported":1734070484,"current_range_meters":38800,"station_id":"ce4bhi12rcd13ifvqfp0","pricing_plan_id":"cebpf4jnsgd1na2vs0mg"},