{"last_updated":1743397837,"ttl":60,"version":"2.2","data":{"bikes":[{"bike_id":"6b630bab-586d-4918-9387-11a7f141fc2e","system_id":"levelo_inurba_marseille","lat":43.30608,"lon":5.39378,"is_reserved":false,"is_disabled":false,"rental_uris":{"android":"levelo://app?vid=6b630bab-586d-4918-9387-11a7f141fc2e","ios":"levelo://app?vid=6b630bab-586d-4918-9387-11a7f141fc2e"},"vehicle_type_id":"4","last_reported":1743397837,"current_range_meters":2800,"station_id":"ce4bh0p2rcd13ifvqd80","pricing_plan_id":"cebpf4jnsgd1na2vs0mg"},{"bike_id":"085a361f-7074-488c-ad0a-3b0a850a01fb","system_id":"levelo_inurba_marseille","lat":43.273798,"lon":5.362511,"is_reserved":false,"is_disabled":true,"rental_uris":{"android":"levelo://app?vid=085a361f-7074-488c-ad0a-3b0a850a01fb","ios":"levelo://app?vid=085a361f-7074-488c-ad0a-3b0a850a01fb"},"vehicle_type_id":"4","last_reported":1743397837,"current_range_meters":2800,"station_id":"ce4bhbh2rcd13ifvqeo0","pricing_plan_id":"cebpf4jnsgd1na2vs0mg"},{"bike_id":"99864047-3ac3-45c4-a913-53ee9cea7446","system_id":"levelo_inurba_marseille","lat":43.28707,"lon":5.37418,"is_reserved":false,"is_disabled":true,"rental_uris":{"android":"levelo://app?vid=99864047-3ac3-45c4-a913-53ee9cea7446","ios":"levelo://app?vid=99864047-3ac3-45c4-a913-53ee9cea7446"},"vehicle_type_id":"4","last_reported":1743397837,"current_range_meters":2800,"station_id":"ce4bh3p2rcd13ifvqdq0","pricing_plan_id":"cebpf4jnsgd1na2vs0mg"},{"bike_id":"90e43240-5fbb-4984-89b9-4fe361656612","system_id":"levelo_inurba_marseille","lat":43.28671,"lon":5.37407,"is_reserved":false,"is_disabled":false,"rental_uris":{"android":"levelo://app?vid=90e43240-5fbb-4984-89b9-4fe361656612","ios":"levelo://app?vid=90e43240-5fbb-4984-89b9-4fe361656612"},"vehicle_type_id":"4","last_reported":1743397837,"current_range_meters":2800,"station_id":"ce4bh3p2rcd13ifvqdq0","pricing_plan_id":"cebpf4jnsgd1na2vs0mg"},{"bike_id":"7c07071e-68ba-48b9-b431-26cb6c62ac42","system_id":"levelo_inurba_marseille","lat":43.30954,"lon":5.40469,"is_reserved":false,"is_disabled":false,"rental_uris":{"android":"levelo://app?vid=7c07071e-68ba-48b9-b431-26cb6c62ac42","ios":"levelo://app?vid=7c07071e-68ba-48b9-b431-26cb6c62ac42"},"vehicle_type_id":"4","last_reported":1743397837,"current_range_meters":2800,"station_id":"","pricing_plan_id":"cebpf4jnsgd1na2vs0mg"},{"bike_id":"761ced5a-5c25-496f-a9cb-7bf4a609bd79","system_id":"levelo_inurba_marseille","lat":43.290891,"lon":5.381569,"is_reserved":false,"is_disabled":false,"rental_uris":{"android":"levelo://app?vid=761ced5a-5c25-496f-a9cb-7bf4a609bd79","ios":"levelo://app?vid=761ced5a-5c25-496f-a9cb-7bf4a609bd79"},"vehicle_type_id":"4","last_reported":1743397837,"current_range_meters":2800,"station_id":"ce4bh512rcd13ifvqe2g","pricing_plan_id":"cebpf4jnsgd1na2vs0mg"},{"bike_id":"62811a8c-a5ee-4b0e-992d-ff97db10838b","system_id":"levelo_inurba_marseille","lat":43.30158,"lon":5.38076,"is_reserved":false,"is_disabled":false,"rental_uris":{"android":"levelo://app?vid=62811a8c-a5ee-4b0e-992d-ff97db10838b","ios":"levelo://app?vid=62811a8c-a5ee-4b0e-992d-ff97db10838b"},"vehicle_type_id":"4","last_reported":1743397837,"current_range_meters":2800,"station_id":"ce4bgjp2rcd13ifvqbh0","pricing_plan_id":"cebpf4jnsgd1na2vs0mg"},{"bike_id":"7a16227c-8b85-46e8-a87c-8349c4711248","system_id":"levelo_inurba_marseille","lat":43.28089,"lon":5.44611,"is_reserved":false,"is_disabled":false,"rental_uris":{"android":"levelo://app?vid=7a16227c-8b85-46e8-a87c-8349c4711248","ios":"levelo://app?vid=7a16227c-8b85-46e8-a87c-8349c4711248"},"vehicle_type_id":"4","last_reported":1743397837,"current_range_meters":3200,"station_id":"","pricing_plan_id":"cebpf4jnsgd1na2vs0mg"},{"bike_id":"360d9955-ff3f-47af-ab0b-5ac80505515c","system_id":"levelo_inurba_marseille","lat":43.24658,"lon":5.38164,"is_reserved":false,"is_disabled":false,"rental_uris":{"android":"levelo://app?vid=360d9955-ff3f-47af-ab0b-5ac80505515c","ios":"levelo://app?vid=360d9955-ff3f-47af-ab0b-5ac80505515c"},"vehicle_type_id":"4","last_reported":1743397837,"current_range_meters":3200,"station_id":"ce4bhih2rcd13ifvqfr0","pricing_plan_id":"cebpf4jnsgd1na2vs0mg"},{"bike_id":"e4023b76-3b3e-4e0a-83d8-f1f2c86a9a1a","system_id":"levelo_inurba_marseille","lat":43.2508,"lon":5.39526,"is_reserved":false,"is_disabled":false,"rental_uris":{"android":"levelo://app?vid=e4023b76-3b3e-4e0a-83d8-f1f2c86a9a1a","ios":"levelo://app?vid=e4023b76-3b3e-4e0a-83d8-f1f2c86a9a1a"},"vehicle_type_id":"4","last_reported":1743397837,"current_range_meters":3200,"station_id":"ce4bhm12rcd13ifvqgkg","pricing_plan_id":"cebpf4jnsgd1na2vs0mg"},{"bike_id":"4ac85f9e-5b07-4e93-b0ae-477825bffb27","system_id":"levelo_inurba_marseille","lat":43.23185,"lon":5.35574,"is_reserved":false,"is_disabled":false,"rental_uris":{"android":"levelo://app?vid=4ac85f9e-5b07-4e93-b0ae-477825bffb27","ios":"levelo://app?vid=4ac85f9e-5b07-4e93-b0ae-477825bffb27"},"vehicle_type_id":"4","last_reported":1743397837,"current_range_meters":3200,"station_id":"ce4bhu92rcd13ifvqi70","pricing_plan_id":"cebpf4jnsgd1na2vs0mg"},{"bike_id":"2c9578af-b0d9-47f5-ad7f-24de6a285c12","system_id":"levelo_inurba_marseille","lat":43.2908,"lon":5.38174,"is_reserved":false,"is_disabled":false,"rental_uris":{"android":"levelo://app?vid=2c9578af-b0d9-47f5-ad7f-24de6a285c12","ios":"levelo://app?vid=2c9578af-b0d9-47f5-ad7f-24de6a285c12"},"vehicle_type_id":"4","last_reported":1743397837,"current_range_meters":3600,"station_id":"ce4bh512rcd13ifvqe2g","pricing_plan_id":"cebpf4jnsgd1na2vs0mg"},{"bike_id":"5a3307a6-54ca-44bc-a5fd-ab80751e6464","system_id":"levelo_inurba_marseille","lat":43.23191,"lon":5.3999,"is_reserved":false,"is_disabled":true,"rental_uris":{"android":"levelo://app?vid=5a3307a6-54ca-44bc-a5fd-ab80751e6464","ios":"levelo://app?vid=5a3307a6-54ca-44bc-a5fd-ab80751e6464"},"vehicle_type_id":"4","last_reported":1743397837,"current_range_meters":3600,"station_id":"ce4bhn12rcd13ifvqgqg","pricing_plan_id":"cebpf4jnsgd1na2vs0mg"},{"bike_id":"f4514236-06e3-48aa-92bb-49d186118376","system_id":"levelo_inurba_marseille","lat":43.241666,"lon":5.364065,"is_reserved":false,"is_disabled":false,"rental_uris":{"android":"levelo://app?vid=f4514236-06e3-48aa-92bb-49d186118376","ios":"levelo://app?vid=f4514236-06e3-48aa-92bb-49d186118376"},"vehicle_type_id":"4","last_reported":1743397837,"current_range_meters":3600,"station_id":"cpo36qri1sfpv3e86is0","pricing_plan_id":"cebpf4jnsgd1na2vs0mg"},{"bike_id":"fe6d6f07-05ac-424a-b90b-cbc12e60b19c","system_id":"levelo_inurba_marseille","lat":43.28345,"lon":5.38117,"is_reserved":false,"is_disabled":false,"rental_uris":{"android":"levelo://app?vid=fe6d6f07-05ac-424a-b90b-cbc12e60b19c","ios":"levelo://app?vid=fe6d6f07-05ac-424a-b90b-cbc12e60b19c"},"vehicle_type_id":"4","last_reported":1743397837,"current_range_meters":4000,"station_id":"ce4bh412rcd13ifvqdr0","pricing_plan_id":"cebpf4jnsgd1na2vs0mg"},{"bike_id":"861fba4a-9c12-463c-8a39-b4a694ea5d40","system_id":"levelo_inurba_marseille","lat":43.23958,"lon":5.366265,"is_reserved":false,"is_disabled":true,"rental_uris":{"android":"levelo://app?vid=861fba4a-9c12-463c-8a39-b4a694ea5d40","ios":"levelo://app?vid=861fba4a-9c12-463c-8a39-b4a694ea5d40"},"vehicle_type_id":"4","last_reported":1743397837,"current_range_meters":4400,"station_id":"ce4bhi12rcd13ifvqfp0","pricing_plan_id":"cebpf4jnsgd1na2vs0mg"},{"bike_id":"67d6fc48-472c-44c1-85e1-a2145f2244ca","system_id":"levelo_inurba_marseille","lat":43.30902,"lon":5.36878,"is_reserved":false,"is_disabled":false,"rental_uris":{"android":"levelo://app?vid=67d6fc48-472c-44c1-85e1-a2145f2244ca","ios":"levelo://app?vid=67d6fc48-472c-44c1-85e1-a2145f2244ca"},"vehicle_type_id":"4","last_reported":1743397837,"current_range_meters":4400,"station_id":"ce4bgn92rcd13ifvqbvg","pricing_plan_id":"cebpf4jnsgd1na2vs0mg"},{"bike_id":"3fa6784c-3d26-47f7-990e-cea03ca851d0","system_id":"levelo_inurba_marseille","lat":43.286606,"lon":5.363546,"is_reserved":false,"is_disabled":false,"rental_uris":{"android":"levelo://app?vid=3fa6784c-3d26-47f7-990e-cea03ca851d0","ios":"levelo://app?vid=3fa6784c-3d26-47f7-990e-cea03ca851d0"},"vehicle_type_id":"4","last_reported":1743397837,"current_range_meters":4800,"station_id":"ce4bhah2rcd13ifvqej0","pricing_plan_id":"cebpf4jnsgd1na2vs0mg"},{"bike_id":"96ac20e8-5840-4579-b371-184ec6253952","system_id":"levelo_inurba_marseille","lat":43.27497,"lon":5.411475,"is_reserved":false,"is_disabled":false,"rental_uris":{"android":"levelo://app?vid=96ac20e8-5840-4579-b371-184ec6253952","ios":"levelo://app?vid=96ac20e8-5840-4579-b371-184ec6253952"},"vehicle_type_id":"4","last_reported":1743397837,"current_range_meters":4800,"station_id":"","pricing_plan_id":"cebpf4jnsgd1na2vs0mg"},{"bike_id":"064349f4-5dde-481f-90c2-7d9b03faa2ee","system_id":"levelo_inurba_marseille","lat":43.3014,"lon":5.3743,"is_reserved":false,"is_disabled":false,"rental_uris":{"android":"levelo://app?vid=064349f4-5dde-481f-90c2-7d9b03faa2ee","ios":"levelo://app?vid=064349f4-5dde-481f-90c2-7d9b03faa2ee"},"vehicle_type_id":"4","last_reported":1743397837,"current_range_meters":4800,"station_id":"ce4bgs92rcd13ifvqcc0","pricing_plan_id":"cebpf4jnsgd1na2vs0mg"},{"bike_id":"37f41d5f-3983-4db2-8781-c345307ed7b9","system_id":"levelo_inurba_marseille","lat":43.2749,"lon":5.4245,"is_reserved":false,"is_disabled":false,"rental_uris":{"android":"levelo://app?vid=37f41d5f-3983-4db2-8781-c345307ed7b9","ios":"levelo://app?vid=37f41d5f-3983-4db2-8781-c345307ed7b9"},"vehicle_type_id":"4","last_reported":1743397837,"current_range_meters":4800,"station_id":"ce4bhn92rcd13ifvqgrg","pricing_plan_id":"cebpf4jnsgd1na2vs0mg"},{"bike_id":"f6a81433-b908-475e-9e5d-bd451287b5f6","system_id":"levelo_inurba_marseille","lat":43.27836,"lon":5.39221,"is_reserved":false,"is_disabled":false,"rental_uris":{"android":"levelo://app?vid=f6a81433-b908-475e-9e5d-bd451287b5f6","ios":"levelo://app?vid=f6a81433-b908-475e-9e5d-bd451287b5f6"},"vehicle_type_id":"4","last_reported":1743397837,"current_range_meters":5600,"station_id":"ce4bhjp2rcd13ifvqga0","pricing_plan_id":"cebpf4jnsgd1na2vs0mg"},{"bike_id":"42bc7b23-0e2f-4d72-b583-40bcdabb28c7","system_id":"levelo_inurba_marseille","lat":43.29543,"lon":5.3738,"is_reserved":false,"is_disabled":false,"rental_uris":{"android":"levelo://app?vid=42bc7b23-0e2f-4d72-b583-40bcdabb28c7","ios":"levelo://app?vid=42bc7b23-0e2f-4d72-b583-40bcdabb28c7"},"vehicle_type_id":"4","last_reported":1743397837,"current_range_meters":5600,"station_id":"","pricing_plan_id":"cebpf4jnsgd1na2vs0mg"},{"bike_id":"4243a2b0-ae2b-4413-86a0-dc166b8594bc","system_id":"levelo_inurba_marseille","lat":43.24671,"lon":5.38153,"is_reserved":false,"is_disabled":false,"rental_uris":{"android":"levelo://app?vid=4243a2b0-ae2b-4413-86a0-dc166b8594bc","ios":"levelo://app?vid=4243a2b0-ae2b-4413-86a0-dc166b8594bc"},"vehicle_type_id":"4","last_reported":1743397837,"current_range_meters":5600,"station_id":"ce4bhih2rcd13ifvqfr0","pricing_plan_id":"cebpf4jnsgd1na2vs0mg"},{"bike_id":"747d2bc2-6706-42d9-8381-8fcc8fac62bd","system_id":"levelo_inurba_marseille","lat":43.29004,"lon":5.37155,"is_reserved":false,"is_disabled":true,"rental_uris":{"android":"levelo://app?vid=747d2bc2-6706-42d9-8381-8fcc8fac62bd","ios":"levelo://app?vid=747d2bc2-6706-42d9-8381-8fcc8fac62bd"},"vehicle_type_id":"4","last_reported":1743397837,"current_range_meters":5600,"station_id":"","pricing_plan_id":"cebpf4jnsgd1na2vs0mg"},{"bike_id":"f62f38bb-09ed-4e08-88a8-f6f114fabcfa","system_id":"levelo_inurba_marseille","lat":43.30455,"lon":5.37911,"is_reserved":false,"is_disabled":false,"rental_uris":{"android":"levelo://app?vid=f62f38bb-09ed-4e08-88a8-f6f114fabcfa","ios":"levelo://app?vid=f62f38bb-09ed-4e08-88a8-f6f114fabcfa"},"vehicle_type_id":"4","last_reported":1743397837,"current_range_meters":5600,"station_id":"ce4bgup2rcd13ifvqcn0","pricing_plan_id":"cebpf4jnsgd1na2vs0mg"},{"bike_id":"95680750-2ec7-438d-ae6c-2a63efb22917","system_id":"levelo_inurba_marseille","lat":43.270671,"lon":5.422754,"is_reserved":false,"is_disabled":false,"rental_uris":{"android":"levelo://app?vid=95680750-2ec7-438d-ae6c-2a63efb22917","ios":"levelo://app?vid=95680750-2ec7-438d-ae6c-2a63efb22917"},"vehicle_type_id":"4","last_reported":1743397837,"current_range_meters":5600,"station_id":"ce4bhk92rcd13ifvqgb0","pricing_plan_id":"cebpf4jnsgd1na2vs0mg"},{"bike_id":"25bb5fbc-8229-4010-b703-31f5ee6ac141","system_id":"levelo_inurba_marseille","lat":43.30639,"lon":5.36595,"is_reserved":false,"is_disabled":false,"rental_uris":{"android":"levelo://app?vid=25bb5fbc-8229-4010-b703-31f5ee6ac141","ios":"levelo://app?vid=25bb5fbc-8229-4010-b703-31f5ee6ac141"},"vehicle_type_id":"4","last_reported":1743397837,"current_range_meters":6000,"station_id":"","pricing_plan_id":"cebpf4jnsgd1na2vs0mg"},{"bike_id":"488767ae-a52a-41d7-8f9a-e947164469f3","system_id":"levelo_inurba_marseille","lat":43.31624,"lon":5.41652,"is_reserved":false,"is_disabled":true,"rental_uris":{"android":"levelo://app?vid=488767ae-a52a-41d7-8f9a-e947164469f3","ios":"levelo://app?vid=488767ae-a52a-41d7-8f9a-e947164469f3"},"vehicle_type_id":"4","last_reported":1743397837,"current_range_meters":6000,"station_id":"","pricing_plan_id":"cebpf4jnsgd1na2vs0mg"},{"bike_id":"18ffd8b5-b58f-4ff4-99c4-d0284b97d3ff","system_id":"levelo_inurba_marseille","lat":43.28929,"lon":5.36651,"is_reserved":false,"is_disabled":false,"rental_uris":{"android":"levelo://app?vid=18ffd8b5-b58f-4ff4-99c4-d0284b97d3ff","ios":"levelo://app?vid=18ffd8b5-b58f-4ff4-99c4-d0284b97d3ff"},"vehicle_type_id":"4","last_reported":1743397837,"current_range_meters":6000,"station_id":"ce4bhap2rcd13ifvqek0","pricing_plan_id":"cebpf4jnsgd1na2vs0mg"},{"bike_id":"e0f87887-bbac-4396-92a7-794638fba6b7","system_id":"levelo_inurba_marseille","lat":43.29518,"lon":5.39405,"is_reserved":false,"is_disabled":false,"rental_uris":{"android":"levelo://app?vid=e0f87887-bbac-4396-92a7-794638fba6b7","ios":"levelo://app?vid=e0f87887-bbac-4396-92a7-794638fba6b7"},"vehicle_type_id":"4","last_reported":1743397837,"current_range_meters":6000,"station_id":"ce4bh292rcd13ifvqdf0","pricing_plan_id":"cebpf4jnsgd1na2vs0mg"},{"bike_id":"56d29448-d7b6-4e90-a159-3b8ae5c1099a","system_id":"levelo_inurba_marseille","lat":43.28327,"lon":5.38118,"is_reserved":false,"is_disabled":false,"rental_uris":{"android":"levelo://app?vid=56d29448-d7b6-4e90-a159-3b8ae5c1099a","ios":"levelo://app?vid=56d29448-d7b6-4e90-a159-3b8ae5c1099a"},"vehicle_type_id":"4","last_reported":1743397837,"current_range_meters":6000,"station_id":"ce4bh412rcd13ifvqdr0","pricing_plan_id":"cebpf4jnsgd1na2vs0mg"},{"bike_id":"bdbdce4c-5fff-4c79-8b19-028954e4b665","system_id":"levelo_inurba_marseille","lat":43.28408,"lon":5.37522,"is_reserved":false,"is_disabled":false,"rental_uris":{"android":"levelo://app?vid=bdbdce4c-5fff-4c79-8b19-028954e4b665","ios":"levelo://app?vid=bdbdce4c-5fff-4c79-8b19-028954e4b665"},"vehicle_type_id":"4","last_reported":1743397837,"current_range_meters":6000,"station_id":"ce4bh412rcd13ifvqds0","pricing_plan_id":"cebpf4jnsgd1na2vs0mg"},{"bike_id":"f247edf8-4742-4130-aaed-c423703f6865","system_id":"levelo_inurba_marseille","lat":43.289428,"lon":5.366346,"is_reserved":false,"is_disabled":false,"rental_uris":{"android":"levelo://app?vid=f247edf8-4742-4130-aaed-c423703f6865","ios":"levelo://app?vid=f247edf8-4742-4130-aaed-c423703f6865"},"vehicle_type_id":"4","last_reported":1743397837,"current_range_meters":6000,"station_id":"ce4bhap2rcd13ifvqek0","pricing_plan_id":"cebpf4jnsgd1na2vs0mg"},{"bike_id":"e0743fb3-3f95-41cc-baee-399e42fa0d56","system_id":"levelo_inurba_marseille","lat":43.2572,"lon":5.41115,"is_reserved":false,"is_disabled":false,"rental_uris":{"android":"levelo://app?vid=e0743fb3-3f95-41cc-baee-399e42fa0d56","ios":"levelo://app?vid=e0743fb3-3f95-41cc-baee-399e42fa0d56"},"vehicle_type_id":"4","last_reported":1743397837,"current_range_meters":6400,"station_id":"ce4bhkp2rcd13ifvqgd0","pricing_plan_id":"cebpf4jnsgd1na2vs0mg"},{"bike_id":"ea0f0861-9d06-4d26-8986-d926f68481ed","system_id":"levelo_inurba_marseille","lat":43.279196,"lon":5.395796,"is_reserved":false,"is_disabled":false,"rental_uris":{"android":"levelo://app?vid=ea0f0861-9d06-4d26-8986-d926f68481ed","ios":"levelo://app?vid=ea0f0861-9d06-4d26-8986-d926f68481ed"},"vehicle_type_id":"4","last_reported":1743397837,"current_range_meters":6400,"station_id":"ce4bhf92rcd13ifvqf40","pricing_plan_id":"cebpf4jnsgd1na2vs0mg"},{"bike_id":"c0bfecbc-96be-4cde-8bdd-07fcf1658ea7","system_id":"levelo_inurba_marseille","lat":43.24659,"lon":5.38179,"is_reserved":false,"is_disabled":false,"rental_uris":{"android":"levelo://app?vid=c0bfecbc-96be-4cde-8bdd-07fcf1658ea7","ios":"levelo://app?vid=c0bfecbc-96be-4cde-8bdd-07fcf1658ea7"},"vehicle_type_id":"4","last_reported":1743397837,"current_range_meters":6400,"station_id":"ce4bhih2rcd13ifvqfr0","pricing_plan_id":"cebpf4jnsgd1na2vs0mg"},{"bike_id":"d0ed36b4-3c5a-4da6-8fb4-955c321dd03a","system_id":"levelo_inurba_marseille","lat":43.27515,"lon":5.41029,"is_reserved":false,"is_disabled":false,"rental_uris":{"android":"levelo://app?vid=d0ed36b4-3c5a-4da6-8fb4-955c321dd03a","ios":"levelo://app?vid=d0ed36b4-3c5a-4da6-8fb4-955c321dd03a"},"vehicle_type_id":"4","last_reported":1743397837,"current_range_meters":6400,"station_id":"","pricing_plan_id":"cebpf4jnsgd1na2vs0mg"},{"bike_id":"0bd05e5a-21c4-4c5d-8e58-f818e6cbd2b3","system_id":"levelo_inurba_marseille","lat":43.30889,"lon":5.39645,"is_reserved":false,"is_disabled":false,"rental_uris":{"android":"levelo://app?vid=0bd05e5a-21c4-4c5d-8e58-f818e6cbd2b3","ios":"levelo://app?vid=0bd05e5a-21c4-4c5d-8e58-f818e6cbd2b3"},"vehicle_type_id":"4","last_reported":1743397837,"current_range_meters":6400,"station_id":"ce4bh012rcd13ifvqcv0","pricing_plan_id":"cebpf4jnsgd1na2vs0mg"},{"bike_id":"d30569fb-0935-4b72-9c30-dd645a8607ea","system_id":"levelo_inurba_marseille","lat":43.284198,"lon":5.349848,"is_reserved":false,"is_disabled":true,"rental_uris":{"android":"levelo://app?vid=d30569fb-0935-4b72-9c30-dd645a8607ea","ios":"levelo://app?vid=d30569fb-0935-4b72-9c30-dd645a8607ea"},"vehicle_type_id":"4","last_reported":1743397837,"current_range_meters":6400,"station_id":"ce4bhbh2rcd13ifvqepg","pricing_plan_id":"cebpf4jnsgd1na2vs0mg"},{"bike_id":"bd941b2d-2cb5-472c-998b-f4462c0a8cac","system_id":"levelo_inurba_marseille","lat":43.27945,"lon":5.41047,"is_reserved":false,"is_disabled":false,"rental_uris":{"android":"levelo://app?vid=bd941b2d-2cb5-472c-998b-f4462c0a8cac","ios":"levelo://app?vid=bd941b2d-2cb5-472c-998b-f4462c0a8cac"},"vehicle_type_id":"4","last_reported":1743397837,"current_range_meters":6400,"station_id":"ce4bhnp2rcd13ifvqh0g","pricing_plan_id":"cebpf4jnsgd1na2vs0mg"},{"bike_id":"f1f937ef-3e56-40c0-91fd-d5a532c01480","system_id":"levelo_inurba_marseille","lat":43.24664,"lon":5.38183,"is_reserved":false,"is_disabled":true,"rental_uris":{"android":"levelo://app?vid=f1f937ef-3e56-40c0-91fd-d5a532c01480","ios":"levelo://app?vid=f1f937ef-3e56-40c0-91fd-d5a532c01480"},"vehicle_type_id":"4","last_reported":1743397837,"current_range_meters":6400,"station_id":"ce4bhih2rcd13ifvqfr0","pricing_plan_id":"cebpf4jnsgd1na2vs0mg"},{"bike_id":"6a19d630-bf6c-4c8a-be64-a4b6492e3489","system_id":"levelo_inurba_marseille","lat":43.31114,"lon":5.37785,"is_reserved":false,"is_disabled":false,"rental_uris":{"android":"levelo://app?vid=6a19d630-bf6c-4c8a-be64-a4b6492e3489","ios":"levelo://app?vid=6a19d630-bf6c-4c8a-be64-a4b6492e3489"},"vehicle_type_id":"4","last_reported":1743397837,"current_range_meters":6400,"station_id":"ce4bgt92rcd13ifvqcg0","pricing_plan_id":"cebpf4jnsgd1na2vs0mg"},{"bike_id":"2d16f48d-83a2-470b-9e5a-cd82df0f597b","system_id":"levelo_inurba_marseille","lat":43.25112,"lon":5.40342,"is_reserved":false,"is_disabled":false,"rental_uris":{"android":"levelo://app?vid=2d16f48d-83a2-470b-9e5a-cd82df0f597b","ios":"levelo://app?vid=2d16f48d-83a2-470b-9e5a-cd82df0f597b"},"vehicle_type_id":"4","last_reported":1743397837,"current_range_meters":6400,"station_id":"ce4bhlh2rcd13ifvqgig","pricing_plan_id":"cebpf4jnsgd1na2vs0mg"},{"bike_id":"da185b1e-3750-4bc9-953b-9336e5b7987b","system_id":"levelo_inurba_marseille","lat":43.30619,"lon":5.39354,"is_reserved":false,"is_disabled":false,"rental_uris":{"android":"levelo://app?vid=da185b1e-3750-4bc9-953b-9336e5b7987b","ios":"levelo://app?vid=da185b1e-3750-4bc9-953b-9336e5b7987b"},"vehicle_type_id":"4","last_reported":1743397837,"current_range_meters":6800,"station_id":"ce4bh0p2rcd13ifvqd80","pricing_plan_id":"cebpf4jnsgd1na2vs0mg"},{"bike_id":"6c649787-1fb1-48d1-a8fc-6081cbc7958a","system_id":"levelo_inurba_marseille","lat":43.31114,"lon":5.37786,"is_reserved":false,"is_disabled":false,"rental_uris":{"android":"levelo://app?vid=6c649787-1fb1-48d1-a8fc-6081cbc7958a","ios":"levelo://app?vid=6c649787-1fb1-48d1-a8fc-6081cbc7958a"},"vehicle_type_id":"4","last_reported":1743397837,"current_range_meters":6800,"station_id":"ce4bgt92rcd13ifvqcg0","pricing_plan_id":"cebpf4jnsgd1na2vs0mg"},{"bike_id":"f43cccf4-7cd2-4fa6-9fbb-fb74d7164516","system_id":"levelo_inurba_marseille","lat":43.24061,"lon":5.37784,"is_reserved":false,"is_disabled":false,"rental_uris":{"android":"levelo://app?vid=f43cccf4-7cd2-4fa6-9fbb-fb74d7164516","ios":"levelo://app?vid=f43cccf4-7cd2-4fa6-9fbb-fb74d7164516"},"vehicle_type_id":"4","last_reported":1743397837,"current_range_meters":6800,"station_id":"ce4bhnp2rcd13ifvqgvg","pricing_plan_id":"cebpf4jnsgd1na2vs0mg"},{"bike_id":"5e71dd55-0f7d-421a-9d46-87de1612b0c6","system_id":"levelo_inurba_marseille","lat":43.28505,"lon":5.38522,"is_reserved":false,"is_disabled":false,"rental_uris":{"android":"levelo://app?vid=5e71dd55-0f7d-421a-9d46-87de1612b0c6","ios":"levelo://app?vid=5e71dd55-0f7d-421a-9d46-87de1612b0c6"},"vehicle_type_id":"4","last_reported":1743397837,"current_range_meters":6800,"station_id":"ce4bh8p2rcd13ifvqeb0","pricing_plan_id":"cebpf4jnsgd1na2vs0mg"},{"bike_id":"eb4db687-25ee-443f-a35c-1047fbf585b5","system_id":"levelo_inurba_marseille","lat":43.28412,"lon":5.37521,"is_reserved":false,"is_disabled":false,"rental_uris":{"android":"levelo://app?vid=eb4db687-25ee-443f-a35c-1047fbf585b5","ios":"levelo://app?vid=eb4db687-25ee-443f-a35c-1047fbf585b5"},"vehicle_type_id":"4","last_reported":1743397837,"current_range_meters":6800,"station_id":"ce4bh412rcd13ifvqds0","pricing_plan_id":"cebpf4jnsgd1na2vs0mg"},{"bike_id":"73484ef5-38ac-45ee-8637-95752d42965e","system_id":"levelo_inurba_marseille","lat":43.31009,"lon":5.37998,"is_reserved":false,"is_disabled":true,"rental_uris":{"android":"levelo://app?vid=73484ef5-38ac-45ee-8637-95752d42965e","ios":"levelo://app?vid=73484ef5-38ac-45ee-8637-95752d42965e"},"vehicle_type_id":"4","last_reported":1743397837,"current_range_meters":6800,"station_id":"","pricing_plan_id":"cebpf4jnsgd1na2vs0mg"},{"bike_id":"d2464740-db85-4794-a0dc-559f8c565e31","system_id":"levelo_inurba_marseille","lat":43.303235,"lon":5.368981,"is_reserved":false,"is_disabled":false,"rental_uris":{"android":"levelo://app?vid=d2464740-db85-4794-a0dc-559f8c565e31","ios":"levelo://app?vid=d2464740-db85-4794-a0dc-559f8c565e31"},"vehicle_type_id":"4","last_reported":1743397837,"current_range_meters":6800,"station_id":"ce4bgqh2rcd13ifvqc5g","pricing_plan_id":"cebpf4jnsgd1na2vs0mg"},{"bike_id":"81ca7ad4-111c-41a1-8523-4f9c68c95487","system_id":"levelo_inurba_marseille","lat":43.27936,"lon":5.41057,"is_reserved":false,"is_disabled":false,"rental_uris":{"android":"levelo://app?vid=81ca7ad4-111c-41a1-8523-4f9c68c95487","ios":"levelo://app?vid=81ca7ad4-111c-41a1-8523-4f9c68c95487"},"vehicle_type_id":"4","last_reported":1743397837,"current_range_meters":6800,"station_id":"ce4bhnp2rcd13ifvqh0g","pricing_plan_id":"cebpf4jnsgd1na2vs0mg"},{"bike_id":"d3439c95-a7ce-46d9-8363-a111c027ec07","system_id":"levelo_inurba_marseille","lat":43.31102,"lon":5.37785,"is_reserved":false,"is_disabled":false,"rental_uris":{"android":"levelo://app?vid=d3439c95-a7ce-46d9-8363-a111c027ec07","ios":"levelo://app?vid=d3439c95-a7ce-46d9-8363-a111c027ec07"},"vehicle_type_id":"4","last_reported":1743397837,"current_range_meters":6800,"station_id":"ce4bgt92rcd13ifvqcg0","pricing_plan_id":"cebpf4jnsgd1na2vs0mg"},{"bike_id":"1a19be2c-4d6f-4c17-93ea-16abc221547c","system_id":"levelo_inurba_marseille","lat":43.28705,"lon":5.37944,"is_reserved":false,"is_disabled":false,"rental_uris":{"android":"levelo://app?vid=1a19be2c-4d6f-4c17-93ea-16abc221547c","ios":"levelo://app?vid=1a19be2c-4d6f-4c17-93ea-16abc221547c"},"vehicle_type_id":"4","last_reported":1743397837,"current_range_meters":6800,"station_id":"ce4bh9p2rcd13ifvqec0","pricing_plan_id":"cebpf4jnsgd1na2vs0mg"},{"bike_id":"7325f9cd-e964-451a-9d25-93e7785861e7","system_id":"levelo_inurba_marseille","lat":43.27558,"lon":5.38465,"is_reserved":false,"is_disabled":false,"rental_uris":{"android":"levelo://app?vid=7325f9cd-e964-451a-9d25-93e7785861e7","ios":"levelo://app?vid=7325f9cd-e964-451a-9d25-93e7785861e7"},"vehicle_type_id":"4","last_reported":1743397837,"current_range_meters":6800,"station_id":"ce4bhh92rcd13ifvqfi0","pricing_plan_id":"cebpf4jnsgd1na2vs0mg"},{"bike_id":"b1a1d008-a51b-4530-81c0-a11010b0e67b","system_id":"levelo_inurba_marseille","lat":43.28152,"lon":5.42654,"is_reserved":false,"is_disabled":false,"rental_uris":{"android":"levelo://app?vid=b1a1d008-a51b-4530-81c0-a11010b0e67b","ios":"levelo://app?vid=b1a1d008-a51b-4530-81c0-a11010b0e67b"},"vehicle_type_id":"4","last_reported":1743397837,"current_range_meters":6800,"station_id":"ce4bhnh2rcd13ifvqgug","pricing_plan_id":"cebpf4jnsgd1na2vs0mg"},{"bike_id":"bc1ef0c2-17d8-427e-a10c-9b9658a85853","system_id":"levelo_inurba_marseille","lat":43.24156,"lon":5.39713,"is_reserved":false,"is_disabled":true,"rental_uris":{"android":"levelo://app?vid=bc1ef0c2-17d8-427e-a10c-9b9658a85853","ios":"levelo://app?vid=bc1ef0c2-17d8-427e-a10c-9b9658a85853"},"vehicle_type_id":"4","last_reported":1743397837,"current_range_meters":6800,"station_id":"ce4bhn12rcd13ifvqgpg","pricing_plan_id":"cebpf4jnsgd1na2vs0mg"},{"bike_id":"bf3ebb22-2253-4d9b-931c-88f35b807720","system_id":"levelo_inurba_marseille","lat":43.28699,"lon":5.40018,"is_reserved":false,"is_disabled":false,"rental_uris":{"android":"levelo://app?vid=bf3ebb22-2253-4d9b-931c-88f35b807720","ios":"levelo://app?vid=bf3ebb22-2253-4d9b-931c-88f35b807720"},"vehicle_type_id":"4","last_reported":1743397837,"current_range_meters":6800,"station_id":"ce4bho92rcd13ifvqh3g","pricing_plan_id":"cebpf4jnsgd1na2vs0mg"},{"bike_id":"1b17f50c-9f8e-4b44-a931-69e661a1b05b","system_id":"levelo_inurba_marseille","lat":43.24676,"lon":5.38149,"is_reserved":false,"is_disabled":false,"rental_uris":{"android":"levelo://app?vid=1b17f50c-9f8e-4b44-a931-69e661a1b05b","ios":"levelo://app?vid=1b17f50c-9f8e-4b44-a931-69e661a1b05b"},"vehicle_type_id":"4","last_reported":1743397837,"current_range_meters":6800,"station_id":"ce4bhih2rcd13ifvqfr0","pricing_plan_id":"cebpf4jnsgd1na2vs0mg"},{"bike_id":"9f3a15ee-95f3-43a3-bd47-3e56b9e4eb34","system_id":"levelo_inurba_marseille","lat":43.262232,"lon":5.404564,"is_reserved":false,"is_disabled":false,"rental_uris":{"android":"levelo://app?vid=9f3a15ee-95f3-43a3-bd47-3e56b9e4eb34","ios":"levelo://app?vid=9f3a15ee-95f3-43a3-bd47-3e56b9e4eb34"},"vehicle_type_id":"4","last_reported":1743397837,"current_range_meters":6800,"station_id":"ce4bhmh2rcd13ifvqgmg","pricing_plan_id":"cebpf4jnsgd1na2vs0mg"},{"bike_id":"93b55f3d-b1dd-4f3f-b1f6-f78029e736da","system_id":"levelo_inurba_marseille","lat":43.23138,"lon":5.43716,"is_reserved":false,"is_disabled":false,"rental_uris":{"android":"levelo://app?vid=93b55f3d-b1dd-4f3f-b1f6-f78029e736da","ios":"levelo://app?vid=93b55f3d-b1dd-4f3f-b1f6-f78029e736da"},"vehicle_type_id":"4","last_reported":1743397837,"current_range_meters":7200,"station_id":"ce4bhmp2rcd13ifvqgog","pricing_plan_id":"cebpf4jnsgd1na2vs0mg"},{"bike_id":"76d4ed16-8625-4a14-a5f1-d28ac2574c13","system_id":"levelo_inurba_marseille","lat":43.24543,"lon":5.39557,"is_reserved":false,"is_disabled":false,"rental_uris":{"android":"levelo://app?vid=76d4ed16-8625-4a14-a5f1-d28ac2574c13","ios":"levelo://app?vid=76d4ed16-8625-4a14-a5f1-d28ac2574c13"},"vehicle_type_id":"4","last_reported":1743397837,"current_range_meters":7200,"station_id":"ce4bhlp2rcd13ifvqgjg","pricing_plan_id":"cebpf4jnsgd1na2vs0mg"},{"bike_id":"4245a5f9-fbfb-4937-b306-9b967993a243","system_id":"levelo_inurba_marseille","lat":43.27208,"lon":5.39201,"is_reserved":false,"is_disabled":false,"rental_uris":{"android":"levelo://app?vid=4245a5f9-fbfb-4937-b306-9b967993a243","ios":"levelo://app?vid=4245a5f9-fbfb-4937-b306-9b967993a243"},"vehicle_type_id":"4","last_reported":1743397837,"current_range_meters":6800,"station_id":"ce4bhhp2rcd13ifvqfm0","pricing_plan_id":"cebpf4jnsgd1na2vs0mg"},{"bike_id":"cb950b1c-8de5-416f-ab3d-1f60f60b3d8d","system_id":"levelo_inurba_marseille","lat":43.28673,"lon":5.36358,"is_reserved":false,"is_disabled":false,"rental_uris":{"android":"levelo://app?vid=cb950b1c-8de5-416f-ab3d-1f60f60b3d8d","ios":"levelo://app?vid=cb950b1c-8de5-416f-ab3d-1f60f60b3d8d"},"vehicle_type_id":"4","last_reported":1743397837,"current_range_meters":7200,"station_id":"ce4bhah2rcd13ifvqej0","pricing_plan_id":"cebpf4jnsgd1na2vs0mg"},{"bike_id":"6abfcf76-b46b-48ec-9741-222295465860","system_id":"levelo_inurba_marseille","lat":43.28629,"lon":5.37039,"is_reserved":false,"is_disabled":false,"rental_uris":{"android":"levelo://app?vid=6abfcf76-b46b-48ec-9741-222295465860","ios":"levelo://app?vid=6abfcf76-b46b-48ec-9741-222295465860"},"vehicle_type_id":"4","last_reported":1743397837,"current_range_meters":7200,"station_id":"ce4bh312rcd13ifvqdj0","pricing_plan_id":"cebpf4jnsgd1na2vs0mg"},{"bike_id":"ec214d59-e307-435e-82f5-8a58499dbb5f","system_id":"levelo_inurba_marseille","lat":43.275669,"lon":5.38413,"is_reserved":false,"is_disabled":false,"rental_uris":{"android":"levelo://app?vid=ec214d59-e307-435e-82f5-8a58499dbb5f","ios":"levelo://app?vid=ec214d59-e307-435e-82f5-8a58499dbb5f"},"vehicle_type_id":"4","last_reported":1743397837,"current_range_meters":7200,"station_id":"ce4bhh92rcd13ifvqfi0","pricing_plan_id":"cebpf4jnsgd1na2vs0mg"},{"bike_id":"bc42f48d-0edb-4b81-a823-274e5dc8d60a","system_id":"levelo_inurba_marseille","lat":43.303,"lon":5.36919,"is_reserved":false,"is_disabled":false,"rental_uris":{"android":"levelo://app?vid=bc42f48d-0edb-4b81-a823-274e5dc8d60a","ios":"levelo://app?vid=bc42f48d-0edb-4b81-a823-274e5dc8d60a"},"vehicle_type_id":"4","last_reported":1743397837,"current_range_meters":7200,"station_id":"ce4bgqh2rcd13ifvqc5g","pricing_plan_id":"cebpf4jnsgd1na2vs0mg"},{"bike_id":"d9099e9a-b19d-4175-a73e-dd7958ed92e0","system_id":"levelo_inurba_marseille","lat":43.230619,"lon":5.354951,"is_reserved":false,"is_disabled":true,"rental_uris":{"android":"levelo://app?vid=d9099e9a-b19d-4175-a73e-dd7958ed92e0","ios":"levelo://app?vid=d9099e9a-b19d-4175-a73e-dd7958ed92e0"},"vehicle_type_id":"4","last_reported":1743397837,"current_range_meters":7200,"station_id":"cpo3342slgdg3j2ifvpg","pricing_plan_id":"cebpf4jnsgd1na2vs0mg"},{"bike_id":"1492b712-dbf8-42ad-b283-96bac92ceb20","system_id":"levelo_inurba_marseille","lat":43.31321,"lon":5.39721,"is_reserved":false,"is_disabled":false,"rental_uris":{"android":"levelo://app?vid=1492b712-dbf8-42ad-b283-96bac92ceb20","ios":"levelo://app?vid=1492b712-dbf8-42ad-b283-96bac92ceb20"},"vehicle_type_id":"4","last_reported":1743397837,"current_range_meters":7200,"station_id":"ce4bgvp2rcd13ifvqcu0","pricing_plan_id":"cebpf4jnsgd1na2vs0mg"},{"bike_id":"fb5a3640-c2bd-4d5a-a532-631ac7449c3d","system_id":"levelo_inurba_marseille","lat":43.27994,"lon":5.4097,"is_reserved":false,"is_disabled":false,"rental_uris":{"android":"levelo://app?vid=fb5a3640-c2bd-4d5a-a532-631ac7449c3d","ios":"levelo://app?vid=fb5a3640-c2bd-4d5a-a532-631ac7449c3d"},"vehicle_type_id":"4","last_reported":1743397837,"current_range_meters":7200,"station_id":"","pricing_plan_id":"cebpf4jnsgd1na2vs0mg"},{"bike_id":"9ed69624-3b57-4436-ba9e-f6097ca1a4d2","system_id":"levelo_inurba_marseille","lat":43.2793,"lon":5.41064,"is_reserved":false,"is_disabled":false,"rental_uris":{"android":"levelo://app?vid=9ed69624-3b57-4436-ba9e-f6097ca1a4d2","ios":"levelo://app?vid=9ed69624-3b57-4436-ba9e-f6097ca1a4d2"},"vehicle_type_id":"4","last_reported":1743397837,"current_range_meters":7200,"station_id":"ce4bhnp2rcd13ifvqh0g","pricing_plan_id":"cebpf4jnsgd1na2vs0mg"},{"bike_id":"6995bcd1-b1cc-4780-80c3-df67787fe1d4","system_id":"levelo_inurba_marseille","lat":43.2847,"lon":5.35882,"is_reserved":false,"is_disabled":false,"rental_uris":{"android":"levelo://app?vid=6995bcd1-b1cc-4780-80c3-df67787fe1d4","ios":"levelo://app?vid=6995bcd1-b1cc-4780-80c3-df67787fe1d4"},"vehicle_type_id":"4","last_reported":1743397837,"current_range_meters":7200,"station_id":"ce4bhah2rcd13ifvqei0","pricing_plan_id":"cebpf4jnsgd1na2vs0mg"},{"bike_id":"82d8e203-da64-466b-9b1d-e9f0a9bfebfe","system_id":"levelo_inurba_marseille","lat":43.32534,"lon":5.4148,"is_reserved":false,"is_disabled":true,"rental_uris":{"android":"levelo://app?vid=82d8e203-da64-466b-9b1d-e9f0a9bfebfe","ios":"levelo://app?vid=82d8e203-da64-466b-9b1d-e9f0a9bfebfe"},"vehicle_type_id":"4","last_reported":1743397837,"current_range_meters":8000,"station_id":"ce4bhq12rcd13ifvqhhg","pricing_plan_id":"cebpf4jnsgd1na2vs0mg"},{"bike_id":"a61e929a-8f51-4802-a48f-59a3600cc8f3","system_id":"levelo_inurba_marseille","lat":43.24667,"lon":5.38155,"is_reserved":false,"is_disabled":false,"rental_uris":{"android":"levelo://app?vid=a61e929a-8f51-4802-a48f-59a3600cc8f3","ios":"levelo://app?vid=a61e929a-8f51-4802-a48f-59a3600cc8f3"},"vehicle_type_id":"4","last_reported":1743397837,"current_range_meters":8000,"station_id":"ce4bhih2rcd13ifvqfr0","pricing_plan_id":"cebpf4jnsgd1na2vs0mg"},{"bike_id":"b8418a84-494a-4bca-ba32-2eb7d4d1ee25","system_id":"levelo_inurba_marseille","lat":43.28146,"lon":5.42665,"is_reserved":false,"is_disabled":false,"rental_uris":{"android":"levelo://app?vid=b8418a84-494a-4bca-ba32-2eb7d4d1ee25","ios":"levelo://app?vid=b8418a84-494a-4bca-ba32-2eb7d4d1ee25"},"vehicle_type_id":"4","last_reported":1743397837,"current_range_meters":8000,"station_id":"ce4bhnh2rcd13ifvqgug","pricing_plan_id":"cebpf4jnsgd1na2vs0mg"},{"bike_id":"b6efc305-df1b-4d74-adbd-3d6638f82769","system_id":"levelo_inurba_marseille","lat":43.23187,"lon":5.39978,"is_reserved":false,"is_disabled":false,"rental_uris":{"android":"levelo://app?vid=b6efc305-df1b-4d74-adbd-3d6638f82769","ios":"levelo://app?vid=b6efc305-df1b-4d74-adbd-3d6638f82769"},"vehicle_type_id":"4","last_reported":1743397837,"current_range_meters":8000,"station_id":"ce4bhn12rcd13ifvqgqg","pricing_plan_id":"cebpf4jnsgd1na2vs0mg"},{"bike_id":"86f139b9-ffd3-4a79-86e8-d22d017328ee","system_id":"levelo_inurba_marseille","lat":43.347241,"lon":5.381584,"is_reserved":false,"is_disabled":false,"rental_uris":{"android":"levelo://app?vid=86f139b9-ffd3-4a79-86e8-d22d017328ee","ios":"levelo://app?vid=86f139b9-ffd3-4a79-86e8-d22d017328ee"},"vehicle_type_id":"4","last_reported":1743397837,"current_range_meters":8000,"station_id":"","pricing_plan_id":"cebpf4jnsgd1na2vs0mg"},{"bike_id":"9aa6810b-65af-4ff6-8258-b51d22e3c411","system_id":"levelo_inurba_marseille","lat":43.2648,"lon":5.39573,"is_reserved":false,"is_disabled":false,"rental_uris":{"android":"levelo://app?vid=9aa6810b-65af-4ff6-8258-b51d22e3c411","ios":"levelo://app?vid=9aa6810b-65af-4ff6-8258-b51d22e3c411"},"vehicle_type_id":"4","last_reported":1743397837,"current_range_meters":7200,"station_id":"ce4bhi12rcd13ifvqfq0","pricing_plan_id":"cebpf4jnsgd1na2vs0mg"},{"bike_id":"0d48df8e-25d3-4bea-9b13-4e7c28d30250","system_id":"levelo_inurba_marseille","lat":43.27567,"lon":5.38439,"is_reserved":false,"is_disabled":false,"rental_uris":{"android":"levelo://app?vid=0d48df8e-25d3-4bea-9b13-4e7c28d30250","ios":"levelo://app?vid=0d48df8e-25d3-4bea-9b13-4e7c28d30250"},"vehicle_type_id":"4","last_reported":1743397837,"current_range_meters":8000,"station_id":"ce4bhh92rcd13ifvqfi0","pricing_plan_id":"cebpf4jnsgd1na2vs0mg"},{"bike_id":"5c49fc8b-b573-44cd-9da2-767f8f7a765b","system_id":"levelo_inurba_marseille","lat":43.317594,"lon":5.390162,"is_reserved":false,"is_disabled":false,"rental_uris":{"android":"levelo://app?vid=5c49fc8b-b573-44cd-9da2-767f8f7a765b","ios":"levelo://app?vid=5c49fc8b-b573-44cd-9da2-767f8f7a765b"},"vehicle_type_id":"4","last_reported":1743397837,"current_range_meters":8400,"station_id":"ce4bhqp2rcd13ifvqhng","pricing_plan_id":"cebpf4jnsgd1na2vs0mg"},{"bike_id":"7025ca5c-9a1a-40f3-b82a-9bbb564e91d8","system_id":"levelo_inurba_marseille","lat":43.2717,"lon":5.40995,"is_reserved":false,"is_disabled":false,"rental_uris":{"android":"levelo://app?vid=7025ca5c-9a1a-40f3-b82a-9bbb564e91d8","ios":"levelo://app?vid=7025ca5c-9a1a-40f3-b82a-9bbb564e91d8"},"vehicle_type_id":"4","last_reported":1743397837,"current_range_meters":8400,"station_id":"ce4bhl12rcd13ifvqgf0","pricing_plan_id":"cebpf4jnsgd1na2vs0mg"},{"bike_id":"9e41fa41-0b95-4c96-8a49-e8b8589958b5","system_id":"levelo_inurba_marseille","lat":43.27496,"lon":5.424509,"is_reserved":false,"is_disabled":false,"rental_uris":{"android":"levelo://app?vid=9e41fa41-0b95-4c96-8a49-e8b8589958b5","ios":"levelo://app?vid=9e41fa41-0b95-4c96-8a49-e8b8589958b5"},"vehicle_type_id":"4","last_reported":1743397837,"current_range_meters":8400,"station_id":"ce4bhn92rcd13ifvqgrg","pricing_plan_id":"cebpf4jnsgd1na2vs0mg"},{"bike_id":"bfcad82b-6acc-493c-b418-93ec0bae17e4","system_id":"levelo_inurba_marseille","lat":43.32082,"lon":5.36805,"is_reserved":false,"is_disabled":false,"rental_uris":{"android":"levelo://app?vid=bfcad82b-6acc-493c-b418-93ec0bae17e4","ios":"levelo://app?vid=bfcad82b-6acc-493c-b418-93ec0bae17e4"},"vehicle_type_id":"4","last_reported":1743397837,"current_range_meters":8400,"station_id":"ce4bhrh2rcd13ifvqhug","pricing_plan_id":"cebpf4jnsgd1na2vs0mg"},{"bike_id":"5fc8b285-2871-4c39-b555-a8b102f78865","system_id":"levelo_inurba_marseille","lat":43.229355,"lon":5.353849,"is_reserved":false,"is_disabled":false,"rental_uris":{"android":"levelo://app?vid=5fc8b285-2871-4c39-b555-a8b102f78865","ios":"levelo://app?vid=5fc8b285-2871-4c39-b555-a8b102f78865"},"vehicle_type_id":"4","last_reported":1743397837,"current_range_meters":8400,"station_id":"cpo3532slgdg3j2ikp40","pricing_plan_id":"cebpf4jnsgd1na2vs0mg"},{"bike_id":"8f5fdcfb-4565-4d08-8d54-d199e32ad589","system_id":"levelo_inurba_marseille","lat":43.31318,"lon":5.39692,"is_reserved":false,"is_disabled":false,"rental_uris":{"android":"levelo://app?vid=8f5fdcfb-4565-4d08-8d54-d199e32ad589","ios":"levelo://app?vid=8f5fdcfb-4565-4d08-8d54-d199e32ad589"},"vehicle_type_id":"4","last_reported":1743397837,"current_range_meters":8400,"station_id":"ce4bgvp2rcd13ifvqcu0","pricing_plan_id":"cebpf4jnsgd1na2vs0mg"},{"bike_id":"f64d1c4d-59d5-4617-b016-6ef3e2f938db","system_id":"levelo_inurba_marseille","lat":43.28404,"lon":5.37526,"is_reserved":false,"is_disabled":false,"rental_uris":{"android":"levelo://app?vid=f64d1c4d-59d5-4617-b016-6ef3e2f938db","ios":"levelo://app?vid=f64d1c4d-59d5-4617-b016-6ef3e2f938db"},"vehicle_type_id":"4","last_reported":1743397837,"current_range_meters":8400,"station_id":"ce4bh412rcd13ifvqds0","pricing_plan_id":"cebpf4jnsgd1na2vs0mg"},{"bike_id":"cb8c9ca5-9083-4e86-9e9f-2bc245af5095","system_id":"levelo_inurba_marseille","lat":43.28403,"lon":5.37524,"is_reserved":false,"is_disabled":true,"rental_uris":{"android":"levelo://app?vid=cb8c9ca5-9083-4e86-9e9f-2bc245af5095","ios":"levelo://app?vid=cb8c9ca5-9083-4e86-9e9f-2bc245af5095"},"vehicle_type_id":"4","last_reported":1743397837,"current_range_meters":8400,"station_id":"ce4bh412rcd13ifvqds0","pricing_plan_id":"cebpf4jnsgd1na2vs0mg"},{"bike_id":"ad60912c-6000-4325-92cb-03d07db25537","system_id":"levelo_inurba_marseille","lat":43.28702,"lon":5.39997,"is_reserved":false,"is_disabled":false,"rental_uris":{"android":"levelo://app?vid=ad60912c-6000-4325-92cb-03d07db25537","ios":"levelo://app?vid=ad60912c-6000-4325-92cb-03d07db25537"},"vehicle_type_id":"4","last_reported":1743397837,"current_range_meters":8400,"station_id":"ce4bho92rcd13ifvqh3g","pricing_plan_id":"cebpf4jnsgd1na2vs0mg"},{"bike_id":"b6723e1a-d2ea-4c3e-a3cf-69a7a179e49c","system_id":"levelo_inurba_marseille","lat":43.311769,"lon":5.38711,"is_reserved":false,"is_disabled":false,"rental_uris":{"android":"levelo://app?vid=b6723e1a-d2ea-4c3e-a3cf-69a7a179e49c","ios":"levelo://app?vid=b6723e1a-d2ea-4c3e-a3cf-69a7a179e49c"},"vehicle_type_id":"4","last_reported":1743397837,"current_range_meters":8400,"station_id":"ce4bgv12rcd13ifvqcp0","pricing_plan_id":"cebpf4jnsgd1na2vs0mg"},{"bike_id":"1a7fca37-621b-4460-bb47-4eb103935246","system_id":"levelo_inurba_marseille","lat":43.25076,"lon":5.3951,"is_reserved":false,"is_disabled":false,"rental_uris":{"android":"levelo://app?vid=1a7fca37-621b-4460-bb47-4eb103935246","ios":"levelo://app?vid=1a7fca37-621b-4460-bb47-4eb103935246"},"vehicle_type_id":"4","last_reported":1743397837,"current_range_meters":8800,"station_id":"ce4bhm12rcd13ifvqgkg","pricing_plan_id":"cebpf4jnsgd1na2vs0mg"},{"bike_id":"633b9fbd-2037-4f55-b84c-d4823d4c9f5d","system_id":"levelo_inurba_marseille","lat":43.28405,"lon":5.37526,"is_reserved":false,"is_disabled":false,"rental_uris":{"android":"levelo://app?vid=633b9fbd-2037-4f55-b84c-d4823d4c9f5d","ios":"levelo://app?vid=633b9fbd-2037-4f55-b84c-d4823d4c9f5d"},"vehicle_type_id":"4","last_reported":1743397837,"current_range_meters":8400,"station_id":"ce4bh412rcd13ifvqds0","pricing_plan_id":"cebpf4jnsgd1na2vs0mg"},{"bike_id":"2403089b-07d2-4817-842f-5393e534470e","system_id":"levelo_inurba_marseille","lat":43.27993,"lon":5.41657,"is_reserved":false,"is_disabled":false,"rental_uris":{"android":"levelo://app?vid=2403089b-07d2-4817-842f-5393e534470e","ios":"levelo://app?vid=2403089b-07d2-4817-842f-5393e534470e"},"vehicle_type_id":"4","last_reported":1743397837,"current_range_meters":8800,"station_id":"ce4bho12rcd13ifvqh1g","pricing_plan_id":"cebpf4jnsgd1na2vs0mg"},{"bike_id":"7e46e322-27d9-4f9d-b1ce-11741eb7c78f","system_id":"levelo_inurba_marseille","lat":43.31756,"lon":5.39024,"is_reserved":false,"is_disabled":false,"rental_uris":{"android":"levelo://app?vid=7e46e322-27d9-4f9d-b1ce-11741eb7c78f","ios":"levelo://app?vid=7e46e322-27d9-4f9d-b1ce-11741eb7c78f"},"vehicle_type_id":"4","last_reported":1743397837,"current_range_meters":8800,"station_id":"ce4bhqp2rcd13ifvqhng","pricing_plan_id":"cebpf4jnsgd1na2vs0mg"},{"bike_id":"1db49edd-6de7-48f9-b18a-23a07e8ebd2c","system_id":"levelo_inurba_marseille","lat":43.23197,"lon":5.35551,"is_reserved":false,"is_disabled":false,"rental_uris":{"android":"levelo://app?vid=1db49edd-6de7-48f9-b18a-23a07e8ebd2c","ios":"levelo://app?vid=1db49edd-6de7-48f9-b18a-23a07e8ebd2c"},"vehicle_type_id":"4","last_reported":1743397837,"current_range_meters":8800,"station_id":"ce4bhu92rcd13ifvqi70","pricing_plan_id":"cebpf4jnsgd1na2vs0mg"},{"bike_id":"533dde56-3c6f-4b30-a6d4-69433b869256","system_id":"levelo_inurba_marseille","lat":43.28678,"lon":5.40038,"is_reserved":false,"is_disabled":false,"rental_uris":{"android":"levelo://app?vid=533dde56-3c6f-4b30-a6d4-69433b869256","ios":"levelo://app?vid=533dde56-3c6f-4b30-a6d4-69433b869256"},"vehicle_type_id":"4","last_reported":1743397837,"current_range_meters":8800,"station_id":"","pricing_plan_id":"cebpf4jnsgd1na2vs0mg"},{"bike_id":"452ee7ed-aed5-4f3a-80c1-b63ab3953967","system_id":"levelo_inurba_marseille","lat":43.27945,"lon":5.41023,"is_reserved":false,"is_disabled":false,"rental_uris":{"android":"levelo://app?vid=452ee7ed-aed5-4f3a-80c1-b63ab3953967","ios":"levelo://app?vid=452ee7ed-aed5-4f3a-80c1-b63ab3953967"},"vehicle_type_id":"4","last_reported":1743397837,"current_range_meters":8800,"station_id":"ce4bhnp2rcd13ifvqh0g","pricing_plan_id":"cebpf4jnsgd1na2vs0mg"},{"bike_id":"6d476741-3045-4964-a8ca-5a43b8573cfd","system_id":"levelo_inurba_marseille","lat":43.27815,"lon":5.39223,"is_reserved":false,"is_disabled":false,"rental_uris":{"android":"levelo://app?vid=6d476741-3045-4964-a8ca-5a43b8573cfd","ios":"levelo://app?vid=6d476741-3045-4964-a8ca-5a43b8573cfd"},"vehicle_type_id":"4","last_reported":1743397837,"current_range_meters":8800,"station_id":"ce4bhjp2rcd13ifvqga0","pricing_plan_id":"cebpf4jnsgd1na2vs0mg"},{"bike_id":"13d8a1cd-4488-455e-9abe-ae0ef23dd73c","system_id":"levelo_inurba_marseille","lat":43.24649,"lon":5.3818,"is_reserved":false,"is_disabled":false,"rental_uris":{"android":"levelo://app?vid=13d8a1cd-4488-455e-9abe-ae0ef23dd73c","ios":"levelo://app?vid=13d8a1cd-4488-455e-9abe-ae0ef23dd73c"},"vehicle_type_id":"4","last_reported":1743397837,"current_range_meters":8800,"station_id":"ce4bhih2rcd13ifvqfr0","pricing_plan_id":"cebpf4jnsgd1na2vs0mg"},{"bike_id":"0473c2df-6a5c-4f03-8055-0ddeb5fdd9d1","system_id":"levelo_inurba_marseille","lat":43.30597,"lon":5.39358,"is_reserved":false,"is_disabled":false,"rental_uris":{"android":"levelo://app?vid=0473c2df-6a5c-4f03-8055-0ddeb5fdd9d1","ios":"levelo://app?vid=0473c2df-6a5c-4f03-8055-0ddeb5fdd9d1"},"vehicle_type_id":"4","last_reported":1743397837,"current_range_meters":8800,"station_id":"ce4bh0p2rcd13ifvqd80","pricing_plan_id":"cebpf4jnsgd1na2vs0mg"},{"bike_id":"ef84aac2-a580-4950-b18d-fa23c2b2b3a0","system_id":"levelo_inurba_marseille","lat":43.31069,"lon":5.38352,"is_reserved":false,"is_disabled":false,"rental_uris":{"android":"levelo://app?vid=ef84aac2-a580-4950-b18d-fa23c2b2b3a0","ios":"levelo://app?vid=ef84aac2-a580-4950-b18d-fa23c2b2b3a0"},"vehicle_type_id":"4","last_reported":1743397837,"current_range_meters":8800,"station_id":"ce4bgv92rcd13ifvqcr0","pricing_plan_id":"cebpf4jnsgd1na2vs0mg"},{"bike_id":"073a06d3-fa40-40dc-8bc4-1de4da3bda03","system_id":"levelo_inurba_marseille","lat":43.283429,"lon":5.381157,"is_reserved":false,"is_disabled":false,"rental_uris":{"android":"levelo://app?vid=073a06d3-fa40-40dc-8bc4-1de4da3bda03","ios":"levelo://app?vid=073a06d3-fa40-40dc-8bc4-1de4da3bda03"},"vehicle_type_id":"4","last_reported":1743397837,"current_range_meters":8800,"station_id":"ce4bh412rcd13ifvqdr0","pricing_plan_id":"cebpf4jnsgd1na2vs0mg"},{"bike_id":"07742a93-8c33-4b3f-91a0-8165edbd7762","system_id":"levelo_inurba_marseille","lat":43.29037,"lon":5.3999,"is_reserved":false,"is_disabled":false,"rental_uris":{"android":"levelo://app?vid=07742a93-8c33-4b3f-91a0-8165edbd7762","ios":"levelo://app?vid=07742a93-8c33-4b3f-91a0-8165edbd7762"},"vehicle_type_id":"4","last_reported":1743397837,"current_range_meters":9200,"station_id":"ce4bh392rcd13ifvqdm0","pricing_plan_id":"cebpf4jnsgd1na2vs0mg"},{"bike_id":"24649183-82c4-4a27-a0d0-a5af48f2cbe6","system_id":"levelo_inurba_marseille","lat":43.30079,"lon":5.38813,"is_reserved":false,"is_disabled":false,"rental_uris":{"android":"levelo://app?vid=24649183-82c4-4a27-a0d0-a5af48f2cbe6","ios":"levelo://app?vid=24649183-82c4-4a27-a0d0-a5af48f2cbe6"},"vehicle_type_id":"4","last_reported":1743397837,"current_range_meters":9200,"station_id":"","pricing_plan_id":"cebpf4jnsgd1na2vs0mg"},{"bike_id":"871f3035-10bb-4a28-afa0-18619600e1a6","system_id":"levelo_inurba_marseille","lat":43.29947,"lon":5.36534,"is_reserved":false,"is_disabled":true,"rental_uris":{"android":"levelo://app?vid=871f3035-10bb-4a28-afa0-18619600e1a6","ios":"levelo://app?vid=871f3035-10bb-4a28-afa0-18619600e1a6"},"vehicle_type_id":"4","last_reported":1743397837,"current_range_meters":9200,"station_id":"ce4bgm92rcd13ifvqbr0","pricing_plan_id":"cebpf4jnsgd1na2vs0mg"},{"bike_id":"5a4bd2b9-e138-4602-b86d-0de180b82c69","system_id":"levelo_inurba_marseille","lat":43.2793,"lon":5.41051,"is_reserved":false,"is_disabled":false,"rental_uris":{"android":"levelo://app?vid=5a4bd2b9-e138-4602-b86d-0de180b82c69","ios":"levelo://app?vid=5a4bd2b9-e138-4602-b86d-0de180b82c69"},"vehicle_type_id":"4","last_reported":1743397837,"current_range_meters":9200,"station_id":"ce4bhnp2rcd13ifvqh0g","pricing_plan_id":"cebpf4jnsgd1na2vs0mg"},{"bike_id":"6165c5e1-15f4-4779-ba2f-91df8ba3f8c0","system_id":"levelo_inurba_marseille","lat":43.28922,"lon":5.42993,"is_reserved":false,"is_disabled":false,"rental_uris":{"android":"levelo://app?vid=6165c5e1-15f4-4779-ba2f-91df8ba3f8c0","ios":"levelo://app?vid=6165c5e1-15f4-4779-ba2f-91df8ba3f8c0"},"vehicle_type_id":"4","last_reported":1743397837,"current_range_meters":9200,"station_id":"","pricing_plan_id":"cebpf4jnsgd1na2vs0mg"},{"bike_id":"fc91984a-ca60-482c-8b4c-39732d1fd181","system_id":"levelo_inurba_marseille","lat":43.28395,"lon":5.37517,"is_reserved":false,"is_disabled":false,"rental_uris":{"android":"levelo://app?vid=fc91984a-ca60-482c-8b4c-39732d1fd181","ios":"levelo://app?vid=fc91984a-ca60-482c-8b4c-39732d1fd181"},"vehicle_type_id":"4","last_reported":1743397837,"current_range_meters":9200,"station_id":"ce4bh412rcd13ifvqds0","pricing_plan_id":"cebpf4jnsgd1na2vs0mg"},{"bike_id":"3a99ce02-631d-4ff6-bde1-68d6f80dff2c","system_id":"levelo_inurba_marseille","lat":43.31997,"lon":5.38146,"is_reserved":false,"is_disabled":false,"rental_uris":{"android":"levelo://app?vid=3a99ce02-631d-4ff6-bde1-68d6f80dff2c","ios":"levelo://app?vid=3a99ce02-631d-4ff6-bde1-68d6f80dff2c"},"vehicle_type_id":"4","last_reported":1743397837,"current_range_meters":9200,"station_id":"ce4bhr12rcd13ifvqhpg","pricing_plan_id":"cebpf4jnsgd1na2vs0mg"},{"bike_id":"afc0496c-3654-4466-a115-0046c6575f1c","system_id":"levelo_inurba_marseille","lat":43.27933,"lon":5.41062,"is_reserved":false,"is_disabled":false,"rental_uris":{"android":"levelo://app?vid=afc0496c-3654-4466-a115-0046c6575f1c","ios":"levelo://app?vid=afc0496c-3654-4466-a115-0046c6575f1c"},"vehicle_type_id":"4","last_reported":1743397837,"current_range_meters":9200,"station_id":"ce4bhnp2rcd13ifvqh0g","pricing_plan_id":"cebpf4jnsgd1na2vs0mg"},{"bike_id":"0b60b6cc-65bb-4e73-8958-1b351c6fdd96","system_id":"levelo_inurba_marseille","lat":43.32106,"lon":5.3677,"is_reserved":false,"is_disabled":false,"rental_uris":{"android":"levelo://app?vid=0b60b6cc-65bb-4e73-8958-1b351c6fdd96","ios":"levelo://app?vid=0b60b6cc-65bb-4e73-8958-1b351c6fdd96"},"vehicle_type_id":"4","last_reported":1743397837,"current_range_meters":9200,"station_id":"ce4bhrh2rcd13ifvqhug","pricing_plan_id":"cebpf4jnsgd1na2vs0mg"},{"bike_id":"c66f05df-05d2-49a8-b429-2c169290d1d8","system_id":"levelo_inurba_marseille","lat":43.299062,"lon":5.381517,"is_reserved":false,"is_disabled":false,"rental_uris":{"android":"levelo://app?vid=c66f05df-05d2-49a8-b429-2c169290d1d8","ios":"levelo://app?vid=c66f05df-05d2-49a8-b429-2c169290d1d8"},"vehicle_type_id":"4","last_reported":1743397837,"current_range_meters":9200,"station_id":"ce4bgj12rcd13ifvqbc0","pricing_plan_id":"cebpf4jnsgd1na2vs0mg"},{"bike_id":"3d370df4-c787-4eff-9ed9-eeb4ac5d36a0","system_id":"levelo_inurba_marseille","lat":43.28939,"lon":5.3662,"is_reserved":false,"is_disabled":false,"rental_uris":{"android":"levelo://app?vid=3d370df4-c787-4eff-9ed9-eeb4ac5d36a0","ios":"levelo://app?vid=3d370df4-c787-4eff-9ed9-eeb4ac5d36a0"},"vehicle_type_id":"4","last_reported":1743397837,"current_range_meters":9600,"station_id":"ce4bhap2rcd13ifvqek0","pricing_plan_id":"cebpf4jnsgd1na2vs0mg"},{"bike_id":"5ce12385-4574-4211-b1aa-28ef17dce743","system_id":"levelo_inurba_marseille","lat":43.24607,"lon":5.38184,"is_reserved":false,"is_disabled":false,"rental_uris":{"android":"levelo://app?vid=5ce12385-4574-4211-b1aa-28ef17dce743","ios":"levelo://app?vid=5ce12385-4574-4211-b1aa-28ef17dce743"},"vehicle_type_id":"4","last_reported":1743397837,"current_range_meters":9600,"station_id":"ce4bhih2rcd13ifvqfr0","pricing_plan_id":"cebpf4jnsgd1na2vs0mg"},{"bike_id":"7ca6f145-aad1-46a9-862f-db9fe95e22ed","system_id":"levelo_inurba_marseille","lat":43.321066,"lon":5.367765,"is_reserved":false,"is_disabled":false,"rental_uris":{"android":"levelo://app?vid=7ca6f145-aad1-46a9-862f-db9fe95e22ed","ios":"levelo://app?vid=7ca6f145-aad1-46a9-862f-db9fe95e22ed"},"vehicle_type_id":"4","last_reported":1743397837,"current_range_meters":9600,"station_id":"ce4bhrh2rcd13ifvqhug","pricing_plan_id":"cebpf4jnsgd1na2vs0mg"},{"bike_id":"193acf2f-e136-4b99-a43c-dedc682ef97c","system_id":"levelo_inurba_marseille","lat":43.28933,"lon":5.3664,"is_reserved":false,"is_disabled":false,"rental_uris":{"android":"levelo://app?vid=193acf2f-e136-4b99-a43c-dedc682ef97c","ios":"levelo://app?vid=193acf2f-e136-4b99-a43c-dedc682ef97c"},"vehicle_type_id":"4","last_reported":1743397837,"current_range_meters":9600,"station_id":"ce4bhap2rcd13ifvqek0","pricing_plan_id":"cebpf4jnsgd1na2vs0mg"},{"bike_id":"12cd2614-5759-4501-9c23-d3351a7cc7df","system_id":"levelo_inurba_marseille","lat":43.30545,"lon":5.384327,"is_reserved":false,"is_disabled":true,"rental_uris":{"android":"levelo://app?vid=12cd2614-5759-4501-9c23-d3351a7cc7df","ios":"levelo://app?vid=12cd2614-5759-4501-9c23-d3351a7cc7df"},"vehicle_type_id":"4","last_reported":1743397837,"current_range_meters":9600,"station_id":"ce4bgg92rcd13ifvqb30","pricing_plan_id":"cebpf4jnsgd1na2vs0mg"},{"bike_id":"c1a01883-6c1d-4e89-ba9e-0dbae1b4948f","system_id":"levelo_inurba_marseille","lat":43.25002,"lon":5.38931,"is_reserved":false,"is_disabled":false,"rental_uris":{"android":"levelo://app?vid=c1a01883-6c1d-4e89-ba9e-0dbae1b4948f","ios":"levelo://app?vid=c1a01883-6c1d-4e89-ba9e-0dbae1b4948f"},"vehicle_type_id":"4","last_reported":1743397837,"current_range_meters":9600,"station_id":"ce4bhgp2rcd13ifvqfd0","pricing_plan_id":"cebpf4jnsgd1na2vs0mg"},{"bike_id":"feae1bc9-79f9-4ea6-a617-860834b223f0","system_id":"levelo_inurba_marseille","lat":43.31321,"lon":5.39707,"is_reserved":false,"is_disabled":false,"rental_uris":{"android":"levelo://app?vid=feae1bc9-79f9-4ea6-a617-860834b223f0","ios":"levelo://app?vid=feae1bc9-79f9-4ea6-a617-860834b223f0"},"vehicle_type_id":"4","last_reported":1743397837,"current_range_meters":9600,"station_id":"ce4bgvp2rcd13ifvqcu0","pricing_plan_id":"cebpf4jnsgd1na2vs0mg"},{"bike_id":"fb0e2782-64d8-47c2-8a78-bad86b5dcc20","system_id":"levelo_inurba_marseille","lat":43.3211,"lon":5.36794,"is_reserved":false,"is_disabled":false,"rental_uris":{"android":"levelo://app?vid=fb0e2782-64d8-47c2-8a78-bad86b5dcc20","ios":"levelo://app?vid=fb0e2782-64d8-47c2-8a78-bad86b5dcc20"},"vehicle_type_id":"4","last_reported":1743397837,"current_range_meters":9600,"station_id":"","pricing_plan_id":"cebpf4jnsgd1na2vs0mg"},{"bike_id":"3f7a0957-674f-4dc8-9c1c-d9c9b0c2fdf5","system_id":"levelo_inurba_marseille","lat":43.258265,"lon":5.394449,"is_reserved":false,"is_disabled":false,"rental_uris":{"android":"levelo://app?vid=3f7a0957-674f-4dc8-9c1c-d9c9b0c2fdf5","ios":"levelo://app?vid=3f7a0957-674f-4dc8-9c1c-d9c9b0c2fdf5"},"vehicle_type_id":"4","last_reported":1743397837,"current_range_meters":9600,"station_id":"ce4bhip2rcd13ifvqft0","pricing_plan_id":"cebpf4jnsgd1na2vs0mg"},{"bike_id":"aceba683-3bd7-4730-bff8-387b05a23a57","system_id":"levelo_inurba_marseille","lat":43.32108,"lon":5.36789,"is_reserved":false,"is_disabled":false,"rental_uris":{"android":"levelo://app?vid=aceba683-3bd7-4730-bff8-387b05a23a57","ios":"levelo://app?vid=aceba683-3bd7-4730-bff8-387b05a23a57"},"vehicle_type_id":"4","last_reported":1743397837,"current_range_meters":10800,"station_id":"ce4bhrh2rcd13ifvqhug","pricing_plan_id":"cebpf4jnsgd1na2vs0mg"},{"bike_id":"204ecd7d-d79a-4494-8305-7c83c69add7d","system_id":"levelo_inurba_marseille","lat":43.256686,"lon":5.419996,"is_reserved":false,"is_disabled":false,"rental_uris":{"android":"levelo://app?vid=204ecd7d-d79a-4494-8305-7c83c69add7d","ios":"levelo://app?vid=204ecd7d-d79a-4494-8305-7c83c69add7d"},"vehicle_type_id":"4","last_reported":1743397837,"current_range_meters":9600,"station_id":"","pricing_plan_id":"cebpf4jnsgd1na2vs0mg"},{"bike_id":"556f7c0c-b1b4-4388-8d23-cf4afee4de97","system_id":"levelo_inurba_marseille","lat":43.303059,"lon":5.392097,"is_reserved":false,"is_disabled":false,"rental_uris":{"android":"levelo://app?vid=556f7c0c-b1b4-4388-8d23-cf4afee4de97","ios":"levelo://app?vid=556f7c0c-b1b4-4388-8d23-cf4afee4de97"},"vehicle_type_id":"4","last_reported":1743397837,"current_range_meters":9600,"station_id":"ce4bgkh2rcd13ifvqbk0","pricing_plan_id":"cebpf4jnsgd1na2vs0mg"},{"bike_id":"07ec0419-41dd-4756-91b5-f9e4802c50a1","system_id":"levelo_inurba_marseille","lat":43.29517,"lon":5.39403,"is_reserved":false,"is_disabled":false,"rental_uris":{"android":"levelo://app?vid=07ec0419-41dd-4756-91b5-f9e4802c50a1","ios":"levelo://app?vid=07ec0419-41dd-4756-91b5-f9e4802c50a1"},"vehicle_type_id":"4","last_reported":1743397837,"current_range_meters":9600,"station_id":"ce4bh292rcd13ifvqdf0","pricing_plan_id":"cebpf4jnsgd1na2vs0mg"},{"bike_id":"b03ddc25-8561-4144-bc05-fa463b274d27","system_id":"levelo_inurba_marseille","lat":43.28938,"lon":5.3663,"is_reserved":false,"is_disabled":false,"rental_uris":{"android":"levelo://app?vid=b03ddc25-8561-4144-bc05-fa463b274d27","ios":"levelo://app?vid=b03ddc25-8561-4144-bc05-fa463b274d27"},"vehicle_type_id":"4","last_reported":1743397837,"current_range_meters":10000,"station_id":"ce4bhap2rcd13ifvqek0","pricing_plan_id":"cebpf4jnsgd1na2vs0mg"},{"bike_id":"9714bbb0-c64a-4296-8639-4dd0fd6cf3b3","system_id":"levelo_inurba_marseille","lat":43.320027,"lon":5.38165,"is_reserved":false,"is_disabled":false,"rental_uris":{"android":"levelo://app?vid=9714bbb0-c64a-4296-8639-4dd0fd6cf3b3","ios":"levelo://app?vid=9714bbb0-c64a-4296-8639-4dd0fd6cf3b3"},"vehicle_type_id":"4","last_reported":1743397837,"current_range_meters":10000,"station_id":"ce4bhr12rcd13ifvqhpg","pricing_plan_id":"cebpf4jnsgd1na2vs0mg"},{"bike_id":"a90d84a3-2957-4e71-993e-8c9421c0fd02","system_id":"levelo_inurba_marseille","lat":43.30167,"lon":5.38081,"is_reserved":false,"is_disabled":false,"rental_uris":{"android":"levelo://app?vid=a90d84a3-2957-4e71-993e-8c9421c0fd02","ios":"levelo://app?vid=a90d84a3-2957-4e71-993e-8c9421c0fd02"},"vehicle_type_id":"4","last_reported":1743397837,"current_range_meters":10000,"station_id":"ce4bgjp2rcd13ifvqbh0","pricing_plan_id":"cebpf4jnsgd1na2vs0mg"},{"bike_id":"b3e97410-c1b2-4369-b878-0aa5bbd817bc","system_id":"levelo_inurba_marseille","lat":43.28452,"lon":5.35906,"is_reserved":false,"is_disabled":true,"rental_uris":{"android":"levelo://app?vid=b3e97410-c1b2-4369-b878-0aa5bbd817bc","ios":"levelo://app?vid=b3e97410-c1b2-4369-b878-0aa5bbd817bc"},"vehicle_type_id":"4","last_reported":1743397837,"current_range_meters":10000,"station_id":"ce4bhah2rcd13ifvqei0","pricing_plan_id":"cebpf4jnsgd1na2vs0mg"},{"bike_id":"99e7d147-e2b6-4982-8a11-f600737d5497","system_id":"levelo_inurba_marseille","lat":43.31787,"lon":5.36761,"is_reserved":false,"is_disabled":false,"rental_uris":{"android":"levelo://app?vid=99e7d147-e2b6-4982-8a11-f600737d5497","ios":"levelo://app?vid=99e7d147-e2b6-4982-8a11-f600737d5497"},"vehicle_type_id":"4","last_reported":1743397837,"current_range_meters":10000,"station_id":"","pricing_plan_id":"cebpf4jnsgd1na2vs0mg"},{"bike_id":"2efd9749-431e-4243-8d34-d82366dcd636","system_id":"levelo_inurba_marseille","lat":43.24651,"lon":5.38192,"is_reserved":false,"is_disabled":false,"rental_uris":{"android":"levelo://app?vid=2efd9749-431e-4243-8d34-d82366dcd636","ios":"levelo://app?vid=2efd9749-431e-4243-8d34-d82366dcd636"},"vehicle_type_id":"4","last_reported":1743397837,"current_range_meters":10000,"station_id":"ce4bhih2rcd13ifvqfr0","pricing_plan_id":"cebpf4jnsgd1na2vs0mg"},{"bike_id":"fd077727-cac9-4da1-be78-e3859541690a","system_id":"levelo_inurba_marseille","lat":43.30521,"lon":5.38452,"is_reserved":false,"is_disabled":true,"rental_uris":{"android":"levelo://app?vid=fd077727-cac9-4da1-be78-e3859541690a","ios":"levelo://app?vid=fd077727-cac9-4da1-be78-e3859541690a"},"vehicle_type_id":"4","last_reported":1743397837,"current_range_meters":10000,"station_id":"ce4bgg92rcd13ifvqb30","pricing_plan_id":"cebpf4jnsgd1na2vs0mg"},{"bike_id":"8800990b-0588-4701-9f9b-d00ff201f1bf","system_id":"levelo_inurba_marseille","lat":43.31766,"lon":5.39054,"is_reserved":false,"is_disabled":false,"rental_uris":{"android":"levelo://app?vid=8800990b-0588-4701-9f9b-d00ff201f1bf","ios":"levelo://app?vid=8800990b-0588-4701-9f9b-d00ff201f1bf"},"vehicle_type_id":"4","last_reported":1743397837,"current_range_meters":10000,"station_id":"ce4bhqp2rcd13ifvqhng","pricing_plan_id":"cebpf4jnsgd1na2vs0mg"},{"bike_id":"e0f71501-acc1-4a88-b79d-a8dc35fb0e64","system_id":"levelo_inurba_marseille","lat":43.286165,"lon":5.350985,"is_reserved":false,"is_disabled":false,"rental_uris":{"android":"levelo://app?vid=e0f71501-acc1-4a88-b79d-a8dc35fb0e64","ios":"levelo://app?vid=e0f71501-acc1-4a88-b79d-a8dc35fb0e64"},"vehicle_type_id":"4","last_reported":1743397837,"current_range_meters":10000,"station_id":"ce4bhch2rcd13ifvqeug","pricing_plan_id":"cebpf4jnsgd1na2vs0mg"},{"bike_id":"a30cc534-cb73-4565-b725-62493a679569","system_id":"levelo_inurba_marseille","lat":43.28706,"lon":5.40037,"is_reserved":false,"is_disabled":false,"rental_uris":{"android":"levelo://app?vid=a30cc534-cb73-4565-b725-62493a679569","ios":"levelo://app?vid=a30cc534-cb73-4565-b725-62493a679569"},"vehicle_type_id":"4","last_reported":1743397837,"current_range_meters":10000,"station_id":"ce4bho92rcd13ifvqh3g","pricing_plan_id":"cebpf4jnsgd1na2vs0mg"},{"bike_id":"5b518cd2-cb7a-4205-b95b-372c3e8b076a","system_id":"levelo_inurba_marseille","lat":43.30134,"lon":5.39875,"is_reserved":false,"is_disabled":false,"rental_uris":{"android":"levelo://app?vid=5b518cd2-cb7a-4205-b95b-372c3e8b076a","ios":"levelo://app?vid=5b518cd2-cb7a-4205-b95b-372c3e8b076a"},"vehicle_type_id":"4","last_reported":1743397837,"current_range_meters":10000,"station_id":"ce4bh0h2rcd13ifvqd40","pricing_plan_id":"cebpf4jnsgd1na2vs0mg"},{"bike_id":"a0eb0cb7-cfd0-4c44-a801-cca8496833e5","system_id":"levelo_inurba_marseille","lat":43.231841,"lon":5.399798,"is_reserved":false,"is_disabled":false,"rental_uris":{"android":"levelo://app?vid=a0eb0cb7-cfd0-4c44-a801-cca8496833e5","ios":"levelo://app?vid=a0eb0cb7-cfd0-4c44-a801-cca8496833e5"},"vehicle_type_id":"4","last_reported":1743397837,"current_range_meters":10000,"station_id":"ce4bhn12rcd13ifvqgqg","pricing_plan_id":"cebpf4jnsgd1na2vs0mg"},{"bike_id":"0aa5d244-d05c-4693-b730-cb7287eaecdf","system_id":"levelo_inurba_marseille","lat":43.286149,"lon":5.351084,"is_reserved":false,"is_disabled":true,"rental_uris":{"android":"levelo://app?vid=0aa5d244-d05c-4693-b730-cb7287eaecdf","ios":"levelo://app?vid=0aa5d244-d05c-4693-b730-cb7287eaecdf"},"vehicle_type_id":"4","last_reported":1743397837,"current_range_meters":10000,"station_id":"ce4bhch2rcd13ifvqeug","pricing_plan_id":"cebpf4jnsgd1na2vs0mg"},{"bike_id":"1ca654ae-dc4d-4362-acdb-676b4062b92d","system_id":"levelo_inurba_marseille","lat":43.30277,"lon":5.36929,"is_reserved":false,"is_disabled":false,"rental_uris":{"android":"levelo://app?vid=1ca654ae-dc4d-4362-acdb-676b4062b92d","ios":"levelo://app?vid=1ca654ae-dc4d-4362-acdb-676b4062b92d"},"vehicle_type_id":"4","last_reported":1743397837,"current_range_meters":10000,"station_id":"ce4bgqh2rcd13ifvqc5g","pricing_plan_id":"cebpf4jnsgd1na2vs0mg"},{"bike_id":"dd903802-fbfa-44f7-b9a9-3b3d8d7b3138","system_id":"levelo_inurba_marseille","lat":43.30515,"lon":5.36589,"is_reserved":false,"is_disabled":false,"rental_uris":{"android":"levelo://app?vid=dd903802-fbfa-44f7-b9a9-3b3d8d7b3138","ios":"levelo://app?vid=dd903802-fbfa-44f7-b9a9-3b3d8d7b3138"},"vehicle_type_id":"4","last_reported":1743397837,"current_range_meters":10000,"station_id":"","pricing_plan_id":"cebpf4jnsgd1na2vs0mg"},{"bike_id":"8d32980f-fa1d-487c-9ee4-e21d4298ab4e","system_id":"levelo_inurba_marseille","lat":43.29633,"lon":5.40625,"is_reserved":false,"is_disabled":false,"rental_uris":{"android":"levelo://app?vid=8d32980f-fa1d-487c-9ee4-e21d4298ab4e","ios":"levelo://app?vid=8d32980f-fa1d-487c-9ee4-e21d4298ab4e"},"vehicle_type_id":"4","last_reported":1743397837,"current_range_meters":10000,"station_id":"ce4bh0h2rcd13ifvqd60","pricing_plan_id":"cebpf4jnsgd1na2vs0mg"},{"bike_id":"78edf300-7db3-4c93-9631-38797c9b1771","system_id":"levelo_inurba_marseille","lat":43.29045,"lon":5.37167,"is_reserved":false,"is_disabled":true,"rental_uris":{"android":"levelo://app?vid=78edf300-7db3-4c93-9631-38797c9b1771","ios":"levelo://app?vid=78edf300-7db3-4c93-9631-38797c9b1771"},"vehicle_type_id":"4","last_reported":1743397837,"current_range_meters":10000,"station_id":"ce4bh5p2rcd13ifvqe4g","pricing_plan_id":"cebpf4jnsgd1na2vs0mg"},{"bike_id":"ba1107aa-9b1f-4710-bb75-05314e757fc6","system_id":"levelo_inurba_marseille","lat":43.31669,"lon":5.37253,"is_reserved":false,"is_disabled":false,"rental_uris":{"android":"levelo://app?vid=ba1107aa-9b1f-4710-bb75-05314e757fc6","ios":"levelo://app?vid=ba1107aa-9b1f-4710-bb75-05314e757fc6"},"vehicle_type_id":"4","last_reported":1743397837,"current_range_meters":10000,"station_id":"","pricing_plan_id":"cebpf4jnsgd1na2vs0mg"},{"bike_id":"970d4a28-2e4b-453e-912d-59e6f284b811","system_id":"levelo_inurba_marseille","lat":43.32371,"lon":5.38914,"is_reserved":false,"is_disabled":true,"rental_uris":{"android":"levelo://app?vid=970d4a28-2e4b-453e-912d-59e6f284b811","ios":"levelo://app?vid=970d4a28-2e4b-453e-912d-59e6f284b811"},"vehicle_type_id":"4","last_reported":1743397837,"current_range_meters":10800,"station_id":"ce4bhqp2rcd13ifvqhog","pricing_plan_id":"cebpf4jnsgd1na2vs0mg"},{"bike_id":"121010d1-d0ea-475b-97a6-f9054736109c","system_id":"levelo_inurba_marseille","lat":43.23184,"lon":5.39979,"is_reserved":false,"is_disabled":false,"rental_uris":{"android":"levelo://app?vid=121010d1-d0ea-475b-97a6-f9054736109c","ios":"levelo://app?vid=121010d1-d0ea-475b-97a6-f9054736109c"},"vehicle_type_id":"4","last_reported":1743397837,"current_range_meters":10800,"station_id":"ce4bhn12rcd13ifvqgqg","pricing_plan_id":"cebpf4jnsgd1na2vs0mg"},{"bike_id":"902a4ac5-3bdf-42ff-b489-1dda1c0aeae1","system_id":"levelo_inurba_marseille","lat":43.27947,"lon":5.4105,"is_reserved":false,"is_disabled":false,"rental_uris":{"android":"levelo://app?vid=902a4ac5-3bdf-42ff-b489-1dda1c0aeae1","ios":"levelo://app?vid=902a4ac5-3bdf-42ff-b489-1dda1c0aeae1"},"vehicle_type_id":"4","last_reported":1743397837,"current_range_meters":10800,"station_id":"ce4bhnp2rcd13ifvqh0g","pricing_plan_id":"cebpf4jnsgd1na2vs0mg"},{"bike_id":"dd108344-997f-4dd5-a561-1447f9dd83ab","system_id":"levelo_inurba_marseille","lat":43.310727,"lon":5.383693,"is_reserved":false,"is_disabled":false,"rental_uris":{"android":"levelo://app?vid=dd108344-997f-4dd5-a561-1447f9dd83ab","ios":"levelo://app?vid=dd108344-997f-4dd5-a561-1447f9dd83ab"},"vehicle_type_id":"4","last_reported":1743397837,"current_range_meters":10800,"station_id":"ce4bgv92rcd13ifvqcr0","pricing_plan_id":"cebpf4jnsgd1na2vs0mg"},{"bike_id":"89eadc9c-18ed-4155-859a-b5986c479ace","system_id":"levelo_inurba_marseille","lat":43.29525,"lon":5.38537,"is_reserved":false,"is_disabled":false,"rental_uris":{"android":"levelo://app?vid=89eadc9c-18ed-4155-859a-b5986c479ace","ios":"levelo://app?vid=89eadc9c-18ed-4155-859a-b5986c479ace"},"vehicle_type_id":"4","last_reported":1743397837,"current_range_meters":10800,"station_id":"ce4bgih2rcd13ifvqba0","pricing_plan_id":"cebpf4jnsgd1na2vs0mg"},{"bike_id":"77ae0fd8-548a-49ab-a8f7-cca075701042","system_id":"levelo_inurba_marseille","lat":43.28915,"lon":5.36343,"is_reserved":false,"is_disabled":false,"rental_uris":{"android":"levelo://app?vid=77ae0fd8-548a-49ab-a8f7-cca075701042","ios":"levelo://app?vid=77ae0fd8-548a-49ab-a8f7-cca075701042"},"vehicle_type_id":"4","last_reported":1743397837,"current_range_meters":10800,"station_id":"ce4bhc92rcd13ifvqetg","pricing_plan_id":"cebpf4jnsgd1na2vs0mg"},{"bike_id":"4db2abe8-ddc9-429c-adec-3c515a3e8b3c","system_id":"levelo_inurba_marseille","lat":43.24055,"lon":5.37776,"is_reserved":false,"is_disabled":false,"rental_uris":{"android":"levelo://app?vid=4db2abe8-ddc9-429c-adec-3c515a3e8b3c","ios":"levelo://app?vid=4db2abe8-ddc9-429c-adec-3c515a3e8b3c"},"vehicle_type_id":"4","last_reported":1743397837,"current_range_meters":10800,"station_id":"ce4bhnp2rcd13ifvqgvg","pricing_plan_id":"cebpf4jnsgd1na2vs0mg"},{"bike_id":"67f6ad16-73d8-49e4-8119-f6692e87ac6e","system_id":"levelo_inurba_marseille","lat":43.27055,"lon":5.42289,"is_reserved":false,"is_disabled":false,"rental_uris":{"android":"levelo://app?vid=67f6ad16-73d8-49e4-8119-f6692e87ac6e","ios":"levelo://app?vid=67f6ad16-73d8-49e4-8119-f6692e87ac6e"},"vehicle_type_id":"4","last_reported":1743397837,"current_range_meters":10800,"station_id":"ce4bhk92rcd13ifvqgb0","pricing_plan_id":"cebpf4jnsgd1na2vs0mg"},{"bike_id":"3550a36d-3c45-4392-b638-e4bfcd519444","system_id":"levelo_inurba_marseille","lat":43.29893,"lon":5.38143,"is_reserved":false,"is_disabled":true,"rental_uris":{"android":"levelo://app?vid=3550a36d-3c45-4392-b638-e4bfcd519444","ios":"levelo://app?vid=3550a36d-3c45-4392-b638-e4bfcd519444"},"vehicle_type_id":"4","last_reported":1743397837,"current_range_meters":10800,"station_id":"ce4bgj12rcd13ifvqbc0","pricing_plan_id":"cebpf4jnsgd1na2vs0mg"},{"bike_id":"5f4b6dec-c8cd-4fba-a769-4892a6dbdf94","system_id":"levelo_inurba_marseille","lat":43.28108,"lon":5.39866,"is_reserved":false,"is_disabled":false,"rental_uris":{"android":"levelo://app?vid=5f4b6dec-c8cd-4fba-a769-4892a6dbdf94","ios":"levelo://app?vid=5f4b6dec-c8cd-4fba-a769-4892a6dbdf94"},"vehicle_type_id":"4","last_reported":1743397837,"current_range_meters":10800,"station_id":"","pricing_plan_id":"cebpf4jnsgd1na2vs0mg"},{"bike_id":"ed91d402-6c3a-42de-88b7-ad14c7ccba5d","system_id":"levelo_inurba_marseille","lat":43.296038,"lon":5.380897,"is_reserved":false,"is_disabled":false,"rental_uris":{"android":"levelo://app?vid=ed91d402-6c3a-42de-88b7-ad14c7ccba5d","ios":"levelo://app?vid=ed91d402-6c3a-42de-88b7-ad14c7ccba5d"},"vehicle_type_id":"4","last_reported":1743397837,"current_range_meters":11200,"station_id":"ce4bgl12rcd13ifvqbo0","pricing_plan_id":"cebpf4jnsgd1na2vs0mg"},{"bike_id":"b08025aa-45f8-4b5b-b067-224136d7061c","system_id":"levelo_inurba_marseille","lat":43.27822,"lon":5.39203,"is_reserved":false,"is_disabled":false,"rental_uris":{"android":"levelo://app?vid=b08025aa-45f8-4b5b-b067-224136d7061c","ios":"levelo://app?vid=b08025aa-45f8-4b5b-b067-224136d7061c"},"vehicle_type_id":"4","last_reported":1743397837,"current_range_meters":11200,"station_id":"ce4bhjp2rcd13ifvqga0","pricing_plan_id":"cebpf4jnsgd1na2vs0mg"},{"bike_id":"935d9231-d440-4d35-a880-9f92171a87f4","system_id":"levelo_inurba_marseille","lat":43.30303,"lon":5.39209,"is_reserved":false,"is_disabled":false,"rental_uris":{"android":"levelo://app?vid=935d9231-d440-4d35-a880-9f92171a87f4","ios":"levelo://app?vid=935d9231-d440-4d35-a880-9f92171a87f4"},"vehicle_type_id":"4","last_reported":1743397837,"current_range_meters":11200,"station_id":"ce4bgkh2rcd13ifvqbk0","pricing_plan_id":"cebpf4jnsgd1na2vs0mg"},{"bike_id":"b72d1ec1-9181-4a92-b5f4-0cf9ff9f577e","system_id":"levelo_inurba_marseille","lat":43.28321,"lon":5.38097,"is_reserved":false,"is_disabled":false,"rental_uris":{"android":"levelo://app?vid=b72d1ec1-9181-4a92-b5f4-0cf9ff9f577e","ios":"levelo://app?vid=b72d1ec1-9181-4a92-b5f4-0cf9ff9f577e"},"vehicle_type_id":"4","last_reported":1743397837,"current_range_meters":11600,"station_id":"ce4bh412rcd13ifvqdr0","pricing_plan_id":"cebpf4jnsgd1na2vs0mg"},{"bike_id":"946ae56e-0d57-462b-a678-0463084b459a","system_id":"levelo_inurba_marseille","lat":43.25018,"lon":5.40363,"is_reserved":false,"is_disabled":false,"rental_uris":{"android":"levelo://app?vid=946ae56e-0d57-462b-a678-0463084b459a","ios":"levelo://app?vid=946ae56e-0d57-462b-a678-0463084b459a"},"vehicle_type_id":"4","last_reported":1743397837,"current_range_meters":11600,"station_id":"ce4bhlh2rcd13ifvqgig","pricing_plan_id":"cebpf4jnsgd1na2vs0mg"},{"bike_id":"8cc38eb4-5e4a-49b8-bafe-d82bfd78dbed","system_id":"levelo_inurba_marseille","lat":43.31703,"lon":5.43699,"is_reserved":false,"is_disabled":false,"rental_uris":{"android":"levelo://app?vid=8cc38eb4-5e4a-49b8-bafe-d82bfd78dbed","ios":"levelo://app?vid=8cc38eb4-5e4a-49b8-bafe-d82bfd78dbed"},"vehicle_type_id":"4","last_reported":1743397837,"current_range_meters":11600,"station_id":"ce4bhp92rcd13ifvqhcg","pricing_plan_id":"cebpf4jnsgd1na2vs0mg"},{"bike_id":"a9caf971-8a8c-4bcd-bfc0-7c7b783406ce","system_id":"levelo_inurba_marseille","lat":43.28416,"lon":5.37516,"is_reserved":false,"is_disabled":false,"rental_uris":{"android":"levelo://app?vid=a9caf971-8a8c-4bcd-bfc0-7c7b783406ce","ios":"levelo://app?vid=a9caf971-8a8c-4bcd-bfc0-7c7b783406ce"},"vehicle_type_id":"4","last_reported":1743397837,"current_range_meters":11600,"station_id":"ce4bh412rcd13ifvqds0","pricing_plan_id":"cebpf4jnsgd1na2vs0mg"},{"bike_id":"cfdacfc2-21e9-46a9-ac2b-1460b21fbb13","system_id":"levelo_inurba_marseille","lat":43.25725,"lon":5.41112,"is_reserved":false,"is_disabled":false,"rental_uris":{"android":"levelo://app?vid=cfdacfc2-21e9-46a9-ac2b-1460b21fbb13","ios":"levelo://app?vid=cfdacfc2-21e9-46a9-ac2b-1460b21fbb13"},"vehicle_type_id":"4","last_reported":1743397837,"current_range_meters":11600,"station_id":"ce4bhkp2rcd13ifvqgd0","pricing_plan_id":"cebpf4jnsgd1na2vs0mg"},{"bike_id":"b91184c2-0fca-4a97-bd03-058f3f161a0c","system_id":"levelo_inurba_marseille","lat":43.28146,"lon":5.42664,"is_reserved":false,"is_disabled":false,"rental_uris":{"android":"levelo://app?vid=b91184c2-0fca-4a97-bd03-058f3f161a0c","ios":"levelo://app?vid=b91184c2-0fca-4a97-bd03-058f3f161a0c"},"vehicle_type_id":"4","last_reported":1743397837,"current_range_meters":11600,"station_id":"ce4bhnh2rcd13ifvqgug","pricing_plan_id":"cebpf4jnsgd1na2vs0mg"},{"bike_id":"8487bf1b-17f2-4f8c-8d61-5aff47a55955","system_id":"levelo_inurba_marseille","lat":43.281499,"lon":5.426587,"is_reserved":false,"is_disabled":false,"rental_uris":{"android":"levelo://app?vid=8487bf1b-17f2-4f8c-8d61-5aff47a55955","ios":"levelo://app?vid=8487bf1b-17f2-4f8c-8d61-5aff47a55955"},"vehicle_type_id":"4","last_reported":1743397837,"current_range_meters":11600,"station_id":"ce4bhnh2rcd13ifvqgug","pricing_plan_id":"cebpf4jnsgd1na2vs0mg"},{"bike_id":"bf52878d-50c0-460b-8b6d-8720c81fc09b","system_id":"levelo_inurba_marseille","lat":43.29511,"lon":5.39462,"is_reserved":false,"is_disabled":false,"rental_uris":{"android":"levelo://app?vid=bf52878d-50c0-460b-8b6d-8720c81fc09b","ios":"levelo://app?vid=bf52878d-50c0-460b-8b6d-8720c81fc09b"},"vehicle_type_id":"4","last_reported":1743397837,"current_range_meters":12000,"station_id":"ce4bh292rcd13ifvqdf0","pricing_plan_id":"cebpf4jnsgd1na2vs0mg"},{"bike_id":"4130319f-a865-46a0-96b7-74233ff6bceb","system_id":"levelo_inurba_marseille","lat":43.301852,"lon":5.3661,"is_reserved":false,"is_disabled":false,"rental_uris":{"android":"levelo://app?vid=4130319f-a865-46a0-96b7-74233ff6bceb","ios":"levelo://app?vid=4130319f-a865-46a0-96b7-74233ff6bceb"},"vehicle_type_id":"4","last_reported":1743397837,"current_range_meters":11600,"station_id":"ce4bgrh2rcd13ifvqc8g","pricing_plan_id":"cebpf4jnsgd1na2vs0mg"},{"bike_id":"8c0baf83-fe6e-4887-8907-067a84dce884","system_id":"levelo_inurba_marseille","lat":43.28418,"lon":5.34987,"is_reserved":false,"is_disabled":true,"rental_uris":{"android":"levelo://app?vid=8c0baf83-fe6e-4887-8907-067a84dce884","ios":"levelo://app?vid=8c0baf83-fe6e-4887-8907-067a84dce884"},"vehicle_type_id":"4","last_reported":1743397837,"current_range_meters":12000,"station_id":"ce4bhbh2rcd13ifvqepg","pricing_plan_id":"cebpf4jnsgd1na2vs0mg"},{"bike_id":"4833ed40-4ec5-41ab-9522-eb4906b09b62","system_id":"levelo_inurba_marseille","lat":43.2959,"lon":5.37494,"is_reserved":false,"is_disabled":true,"rental_uris":{"android":"levelo://app?vid=4833ed40-4ec5-41ab-9522-eb4906b09b62","ios":"levelo://app?vid=4833ed40-4ec5-41ab-9522-eb4906b09b62"},"vehicle_type_id":"4","last_reported":1743397837,"current_range_meters":12000,"station_id":"ce4bgh92rcd13ifvqb50","pricing_plan_id":"cebpf4jnsgd1na2vs0mg"},{"bike_id":"b3dddbdf-a6bc-4eb2-8b8b-05654b1a2ef4","system_id":"levelo_inurba_marseille","lat":43.289378,"lon":5.366309,"is_reserved":false,"is_disabled":false,"rental_uris":{"android":"levelo://app?vid=b3dddbdf-a6bc-4eb2-8b8b-05654b1a2ef4","ios":"levelo://app?vid=b3dddbdf-a6bc-4eb2-8b8b-05654b1a2ef4"},"vehicle_type_id":"4","last_reported":1743397837,"current_range_meters":12000,"station_id":"ce4bhap2rcd13ifvqek0","pricing_plan_id":"cebpf4jnsgd1na2vs0mg"},{"bike_id":"f23a406c-22a2-4c3c-bab0-128877abf12d","system_id":"levelo_inurba_marseille","lat":43.29528,"lon":5.38543,"is_reserved":false,"is_disabled":false,"rental_uris":{"android":"levelo://app?vid=f23a406c-22a2-4c3c-bab0-128877abf12d","ios":"levelo://app?vid=f23a406c-22a2-4c3c-bab0-128877abf12d"},"vehicle_type_id":"4","last_reported":1743397837,"current_range_meters":12000,"station_id":"ce4bgih2rcd13ifvqba0","pricing_plan_id":"cebpf4jnsgd1na2vs0mg"},{"bike_id":"0f8f638f-6c59-4dfb-ab4f-882d40e453aa","system_id":"levelo_inurba_marseille","lat":43.29283,"lon":5.42804,"is_reserved":false,"is_disabled":false,"rental_uris":{"android":"levelo://app?vid=0f8f638f-6c59-4dfb-ab4f-882d40e453aa","ios":"levelo://app?vid=0f8f638f-6c59-4dfb-ab4f-882d40e453aa"},"vehicle_type_id":"4","last_reported":1743397837,"current_range_meters":12000,"station_id":"","pricing_plan_id":"cebpf4jnsgd1na2vs0mg"},{"bike_id":"2bf31f9f-c5c0-434c-ab3b-b017d7dc966d","system_id":"levelo_inurba_marseille","lat":43.23043,"lon":5.35511,"is_reserved":false,"is_disabled":false,"rental_uris":{"android":"levelo://app?vid=2bf31f9f-c5c0-434c-ab3b-b017d7dc966d","ios":"levelo://app?vid=2bf31f9f-c5c0-434c-ab3b-b017d7dc966d"},"vehicle_type_id":"4","last_reported":1743397837,"current_range_meters":12000,"station_id":"cpo3342slgdg3j2ifvpg","pricing_plan_id":"cebpf4jnsgd1na2vs0mg"},{"bike_id":"d7671a11-d2a9-4c19-b8ab-5839a05a2057","system_id":"levelo_inurba_marseille","lat":43.28155,"lon":5.42626,"is_reserved":false,"is_disabled":false,"rental_uris":{"android":"levelo://app?vid=d7671a11-d2a9-4c19-b8ab-5839a05a2057","ios":"levelo://app?vid=d7671a11-d2a9-4c19-b8ab-5839a05a2057"},"vehicle_type_id":"4","last_reported":1743397837,"current_range_meters":12000,"station_id":"ce4bhnh2rcd13ifvqgug","pricing_plan_id":"cebpf4jnsgd1na2vs0mg"},{"bike_id":"6d724032-fb9c-4e6e-bd90-452fee067c69","system_id":"levelo_inurba_marseille","lat":43.323393,"lon":5.406189,"is_reserved":false,"is_disabled":false,"rental_uris":{"android":"levelo://app?vid=6d724032-fb9c-4e6e-bd90-452fee067c69","ios":"levelo://app?vid=6d724032-fb9c-4e6e-bd90-452fee067c69"},"vehicle_type_id":"4","last_reported":1743397837,"current_range_meters":12000,"station_id":"ce4bhq92rcd13ifvqhjg","pricing_plan_id":"cebpf4jnsgd1na2vs0mg"},{"bike_id":"8fa5fb11-10c8-4bed-b75c-83f4c72259ad","system_id":"levelo_inurba_marseille","lat":43.32358,"lon":5.36758,"is_reserved":false,"is_disabled":false,"rental_uris":{"android":"levelo://app?vid=8fa5fb11-10c8-4bed-b75c-83f4c72259ad","ios":"levelo://app?vid=8fa5fb11-10c8-4bed-b75c-83f4c72259ad"},"vehicle_type_id":"4","last_reported":1743397837,"current_range_meters":12000,"station_id":"ce4bhsh2rcd13ifvqi2g","pricing_plan_id":"cebpf4jnsgd1na2vs0mg"},{"bike_id":"7965483e-feb5-4e25-ad18-9d1bbfde19fb","system_id":"levelo_inurba_marseille","lat":43.311219,"lon":5.377649,"is_reserved":false,"is_disabled":false,"rental_uris":{"android":"levelo://app?vid=7965483e-feb5-4e25-ad18-9d1bbfde19fb","ios":"levelo://app?vid=7965483e-feb5-4e25-ad18-9d1bbfde19fb"},"vehicle_type_id":"4","last_reported":1743397837,"current_range_meters":12400,"station_id":"ce4bgt92rcd13ifvqcg0","pricing_plan_id":"cebpf4jnsgd1na2vs0mg"},{"bike_id":"13714d50-ff84-4fb9-af69-91d18874acc5","system_id":"levelo_inurba_marseille","lat":43.28537,"lon":5.3949,"is_reserved":false,"is_disabled":false,"rental_uris":{"android":"levelo://app?vid=13714d50-ff84-4fb9-af69-91d18874acc5","ios":"levelo://app?vid=13714d50-ff84-4fb9-af69-91d18874acc5"},"vehicle_type_id":"4","last_reported":1743397837,"current_range_meters":12400,"station_id":"ce4bh292rcd13ifvqdg0","pricing_plan_id":"cebpf4jnsgd1na2vs0mg"},{"bike_id":"cb488461-922b-4378-a925-3277508f321d","system_id":"levelo_inurba_marseille","lat":43.307783,"lon":5.376481,"is_reserved":false,"is_disabled":false,"rental_uris":{"android":"levelo://app?vid=cb488461-922b-4378-a925-3277508f321d","ios":"levelo://app?vid=cb488461-922b-4378-a925-3277508f321d"},"vehicle_type_id":"4","last_reported":1743397837,"current_range_meters":12400,"station_id":"","pricing_plan_id":"cebpf4jnsgd1na2vs0mg"},{"bike_id":"9938de39-9b44-42c0-8aa2-b4011fe2a576","system_id":"levelo_inurba_marseille","lat":43.300957,"lon":5.390718,"is_reserved":false,"is_disabled":false,"rental_uris":{"android":"levelo://app?vid=9938de39-9b44-42c0-8aa2-b4011fe2a576","ios":"levelo://app?vid=9938de39-9b44-42c0-8aa2-b4011fe2a576"},"vehicle_type_id":"4","last_reported":1743397837,"current_range_meters":12400,"station_id":"ce4bh192rcd13ifvqdb0","pricing_plan_id":"cebpf4jnsgd1na2vs0mg"},{"bike_id":"986e705b-322e-4d5b-845a-77349bec28db","system_id":"levelo_inurba_marseille","lat":43.292743,"lon":5.401648,"is_reserved":false,"is_disabled":false,"rental_uris":{"android":"levelo://app?vid=986e705b-322e-4d5b-845a-77349bec28db","ios":"levelo://app?vid=986e705b-322e-4d5b-845a-77349bec28db"},"vehicle_type_id":"4","last_reported":1743397837,"current_range_meters":12400,"station_id":"ce4bh312rcd13ifvqdk0","pricing_plan_id":"cebpf4jnsgd1na2vs0mg"},{"bike_id":"67a3cd10-00f8-45c4-972d-51e59607a3e3","system_id":"levelo_inurba_marseille","lat":43.28497,"lon":5.38582,"is_reserved":false,"is_disabled":false,"rental_uris":{"android":"levelo://app?vid=67a3cd10-00f8-45c4-972d-51e59607a3e3","ios":"levelo://app?vid=67a3cd10-00f8-45c4-972d-51e59607a3e3"},"vehicle_type_id":"4","last_reported":1743397837,"current_range_meters":12400,"station_id":"ce4bh8p2rcd13ifvqeb0","pricing_plan_id":"cebpf4jnsgd1na2vs0mg"},{"bike_id":"3e536dc8-f946-48e3-b1e7-2b9c2149b17d","system_id":"levelo_inurba_marseille","lat":43.284288,"lon":5.391979,"is_reserved":false,"is_disabled":false,"rental_uris":{"android":"levelo://app?vid=3e536dc8-f946-48e3-b1e7-2b9c2149b17d","ios":"levelo://app?vid=3e536dc8-f946-48e3-b1e7-2b9c2149b17d"},"vehicle_type_id":"4","last_reported":1743397837,"current_range_meters":12400,"station_id":"ce4bhoh2rcd13ifvqh5g","pricing_plan_id":"cebpf4jnsgd1na2vs0mg"},{"bike_id":"f207853b-de04-4096-9983-e31c1e3e698c","system_id":"levelo_inurba_marseille","lat":43.32097,"lon":5.36782,"is_reserved":false,"is_disabled":false,"rental_uris":{"android":"levelo://app?vid=f207853b-de04-4096-9983-e31c1e3e698c","ios":"levelo://app?vid=f207853b-de04-4096-9983-e31c1e3e698c"},"vehicle_type_id":"4","last_reported":1743397837,"current_range_meters":12400,"station_id":"ce4bhrh2rcd13ifvqhug","pricing_plan_id":"cebpf4jnsgd1na2vs0mg"},{"bike_id":"668c01cb-7bea-48c9-8f15-6bcc0c19c832","system_id":"levelo_inurba_marseille","lat":43.262073,"lon":5.379256,"is_reserved":false,"is_disabled":true,"rental_uris":{"android":"levelo://app?vid=668c01cb-7bea-48c9-8f15-6bcc0c19c832","ios":"levelo://app?vid=668c01cb-7bea-48c9-8f15-6bcc0c19c832"},"vehicle_type_id":"4","last_reported":1743397837,"current_range_meters":12800,"station_id":"ce4bhjp2rcd13ifvqg90","pricing_plan_id":"cebpf4jnsgd1na2vs0mg"},{"bike_id":"51978973-8141-43c4-9a6c-b50852994e60","system_id":"levelo_inurba_marseille","lat":43.3236,"lon":5.38902,"is_reserved":false,"is_disabled":false,"rental_uris":{"android":"levelo://app?vid=51978973-8141-43c4-9a6c-b50852994e60","ios":"levelo://app?vid=51978973-8141-43c4-9a6c-b50852994e60"},"vehicle_type_id":"4","last_reported":1743397837,"current_range_meters":12800,"station_id":"ce4bhqp2rcd13ifvqhog","pricing_plan_id":"cebpf4jnsgd1na2vs0mg"},{"bike_id":"fb4b7257-a329-4750-8899-5218c646dc6a","system_id":"levelo_inurba_marseille","lat":43.30516,"lon":5.36577,"is_reserved":false,"is_disabled":true,"rental_uris":{"android":"levelo://app?vid=fb4b7257-a329-4750-8899-5218c646dc6a","ios":"levelo://app?vid=fb4b7257-a329-4750-8899-5218c646dc6a"},"vehicle_type_id":"4","last_reported":1743397837,"current_range_meters":12800,"station_id":"ce4bgs12rcd13ifvqcag","pricing_plan_id":"cebpf4jnsgd1na2vs0mg"},{"bike_id":"f0d1a177-272b-4b40-9047-5d442acb245c","system_id":"levelo_inurba_marseille","lat":43.28409,"lon":5.37518,"is_reserved":false,"is_disabled":false,"rental_uris":{"android":"levelo://app?vid=f0d1a177-272b-4b40-9047-5d442acb245c","ios":"levelo://app?vid=f0d1a177-272b-4b40-9047-5d442acb245c"},"vehicle_type_id":"4","last_reported":1743397837,"current_range_meters":13600,"station_id":"ce4bh412rcd13ifvqds0","pricing_plan_id":"cebpf4jnsgd1na2vs0mg"},{"bike_id":"1835770b-4131-4416-b16e-a4cbb6a1c60d","system_id":"levelo_inurba_marseille","lat":43.25111,"lon":5.4038,"is_reserved":false,"is_disabled":false,"rental_uris":{"android":"levelo://app?vid=1835770b-4131-4416-b16e-a4cbb6a1c60d","ios":"levelo://app?vid=1835770b-4131-4416-b16e-a4cbb6a1c60d"},"vehicle_type_id":"4","last_reported":1743397837,"current_range_meters":13600,"station_id":"ce4bhlh2rcd13ifvqgig","pricing_plan_id":"cebpf4jnsgd1na2vs0mg"},{"bike_id":"9a821de1-077e-4171-a99b-e15f03f0ce6a","system_id":"levelo_inurba_marseille","lat":43.292604,"lon":5.384345,"is_reserved":false,"is_disabled":true,"rental_uris":{"android":"levelo://app?vid=9a821de1-077e-4171-a99b-e15f03f0ce6a","ios":"levelo://app?vid=9a821de1-077e-4171-a99b-e15f03f0ce6a"},"vehicle_type_id":"4","last_reported":1743397837,"current_range_meters":13600,"station_id":"ce4bh692rcd13ifvqea0","pricing_plan_id":"cebpf4jnsgd1na2vs0mg"},{"bike_id":"47c01928-ec7e-4e92-8da3-f78178d39771","system_id":"levelo_inurba_marseille","lat":43.301291,"lon":5.398777,"is_reserved":false,"is_disabled":true,"rental_uris":{"android":"levelo://app?vid=47c01928-ec7e-4e92-8da3-f78178d39771","ios":"levelo://app?vid=47c01928-ec7e-4e92-8da3-f78178d39771"},"vehicle_type_id":"4","last_reported":1743397837,"current_range_meters":13600,"station_id":"ce4bh0h2rcd13ifvqd40","pricing_plan_id":"cebpf4jnsgd1na2vs0mg"},{"bike_id":"a51eba65-0816-47d5-847e-11e62950c240","system_id":"levelo_inurba_marseille","lat":43.29593,"lon":5.38612,"is_reserved":false,"is_disabled":false,"rental_uris":{"android":"levelo://app?vid=a51eba65-0816-47d5-847e-11e62950c240","ios":"levelo://app?vid=a51eba65-0816-47d5-847e-11e62950c240"},"vehicle_type_id":"4","last_reported":1743397837,"current_range_meters":13600,"station_id":"","pricing_plan_id":"cebpf4jnsgd1na2vs0mg"},{"bike_id":"f5d6a402-5ce8-4bba-abe7-49a5f1cdc714","system_id":"levelo_inurba_marseille","lat":43.27487,"lon":5.42455,"is_reserved":false,"is_disabled":false,"rental_uris":{"android":"levelo://app?vid=f5d6a402-5ce8-4bba-abe7-49a5f1cdc714","ios":"levelo://app?vid=f5d6a402-5ce8-4bba-abe7-49a5f1cdc714"},"vehicle_type_id":"4","last_reported":1743397837,"current_range_meters":13600,"station_id":"ce4bhn92rcd13ifvqgrg","pricing_plan_id":"cebpf4jnsgd1na2vs0mg"},{"bike_id":"2e3ba237-ad50-4578-9b03-9e23198baac9","system_id":"levelo_inurba_marseille","lat":43.32342,"lon":5.40633,"is_reserved":false,"is_disabled":false,"rental_uris":{"android":"levelo://app?vid=2e3ba237-ad50-4578-9b03-9e23198baac9","ios":"levelo://app?vid=2e3ba237-ad50-4578-9b03-9e23198baac9"},"vehicle_type_id":"4","last_reported":1743397837,"current_range_meters":13600,"station_id":"ce4bhq92rcd13ifvqhjg","pricing_plan_id":"cebpf4jnsgd1na2vs0mg"},{"bike_id":"6ca46f01-4a9c-4585-9e5d-dfa3f99bd816","system_id":"levelo_inurba_marseille","lat":43.24154,"lon":5.36398,"is_reserved":false,"is_disabled":false,"rental_uris":{"android":"levelo://app?vid=6ca46f01-4a9c-4585-9e5d-dfa3f99bd816","ios":"levelo://app?vid=6ca46f01-4a9c-4585-9e5d-dfa3f99bd816"},"vehicle_type_id":"4","last_reported":1743397837,"current_range_meters":14000,"station_id":"cpo36qri1sfpv3e86is0","pricing_plan_id":"cebpf4jnsgd1na2vs0mg"},{"bike_id":"19c4d38c-721f-4a6d-8de0-ad162aee3dc3","system_id":"levelo_inurba_marseille","lat":43.29866,"lon":5.38921,"is_reserved":false,"is_disabled":true,"rental_uris":{"android":"levelo://app?vid=19c4d38c-721f-4a6d-8de0-ad162aee3dc3","ios":"levelo://app?vid=19c4d38c-721f-4a6d-8de0-ad162aee3dc3"},"vehicle_type_id":"4","last_reported":1743397837,"current_range_meters":14000,"station_id":"ce4bh392rcd13ifvqdl0","pricing_plan_id":"cebpf4jnsgd1na2vs0mg"},{"bike_id":"03419bd0-4a7a-4d8d-bf5d-89192f6be5b7","system_id":"levelo_inurba_marseille","lat":43.23181,"lon":5.39983,"is_reserved":false,"is_disabled":false,"rental_uris":{"android":"levelo://app?vid=03419bd0-4a7a-4d8d-bf5d-89192f6be5b7","ios":"levelo://app?vid=03419bd0-4a7a-4d8d-bf5d-89192f6be5b7"},"vehicle_type_id":"4","last_reported":1743397837,"current_range_meters":14000,"station_id":"ce4bhn12rcd13ifvqgqg","pricing_plan_id":"cebpf4jnsgd1na2vs0mg"},{"bike_id":"3897bf96-03e2-406c-8886-331235583a77","system_id":"levelo_inurba_marseille","lat":43.27942,"lon":5.410369,"is_reserved":false,"is_disabled":false,"rental_uris":{"android":"levelo://app?vid=3897bf96-03e2-406c-8886-331235583a77","ios":"levelo://app?vid=3897bf96-03e2-406c-8886-331235583a77"},"vehicle_type_id":"4","last_reported":1743397837,"current_range_meters":14000,"station_id":"ce4bhnp2rcd13ifvqh0g","pricing_plan_id":"cebpf4jnsgd1na2vs0mg"},{"bike_id":"08e023cc-498c-4cff-acdd-8edb1143f6d8","system_id":"levelo_inurba_marseille","lat":43.300949,"lon":5.390819,"is_reserved":false,"is_disabled":false,"rental_uris":{"android":"levelo://app?vid=08e023cc-498c-4cff-acdd-8edb1143f6d8","ios":"levelo://app?vid=08e023cc-498c-4cff-acdd-8edb1143f6d8"},"vehicle_type_id":"4","last_reported":1743397837,"current_range_meters":14000,"station_id":"ce4bh192rcd13ifvqdb0","pricing_plan_id":"cebpf4jnsgd1na2vs0mg"},{"bike_id":"e3ed6a7b-116d-4bce-98f8-0c4519635233","system_id":"levelo_inurba_marseille","lat":43.319429,"lon":5.374455,"is_reserved":false,"is_disabled":false,"rental_uris":{"android":"levelo://app?vid=e3ed6a7b-116d-4bce-98f8-0c4519635233","ios":"levelo://app?vid=e3ed6a7b-116d-4bce-98f8-0c4519635233"},"vehicle_type_id":"4","last_reported":1743397837,"current_range_meters":14000,"station_id":"","pricing_plan_id":"cebpf4jnsgd1na2vs0mg"},{"bike_id":"dede021e-493e-46c9-81d0-7da8c8ec9c30","system_id":"levelo_inurba_marseille","lat":43.29512,"lon":5.39397,"is_reserved":false,"is_disabled":false,"rental_uris":{"android":"levelo://app?vid=dede021e-493e-46c9-81d0-7da8c8ec9c30","ios":"levelo://app?vid=dede021e-493e-46c9-81d0-7da8c8ec9c30"},"vehicle_type_id":"4","last_reported":1743397837,"current_range_meters":14400,"station_id":"ce4bh292rcd13ifvqdf0","pricing_plan_id":"cebpf4jnsgd1na2vs0mg"},{"bike_id":"ce4f4ad1-6719-4215-ac68-a5ffabb618e5","system_id":"levelo_inurba_marseille","lat":43.303,"lon":5.39213,"is_reserved":false,"is_disabled":false,"rental_uris":{"android":"levelo://app?vid=ce4f4ad1-6719-4215-ac68-a5ffabb618e5","ios":"levelo://app?vid=ce4f4ad1-6719-4215-ac68-a5ffabb618e5"},"vehicle_type_id":"4","last_reported":1743397837,"current_range_meters":14400,"station_id":"ce4bgkh2rcd13ifvqbk0","pricing_plan_id":"cebpf4jnsgd1na2vs0mg"},{"bike_id":"d4ffd79f-156c-4f1d-89c7-58df85fed546","system_id":"levelo_inurba_marseille","lat":43.2918,"lon":5.39358,"is_reserved":false,"is_disabled":false,"rental_uris":{"android":"levelo://app?vid=d4ffd79f-156c-4f1d-89c7-58df85fed546","ios":"levelo://app?vid=d4ffd79f-156c-4f1d-89c7-58df85fed546"},"vehicle_type_id":"4","last_reported":1743397837,"current_range_meters":14400,"station_id":"","pricing_plan_id":"cebpf4jnsgd1na2vs0mg"},{"bike_id":"c3689a63-1d58-4137-a12d-d7cbc439865c","system_id":"levelo_inurba_marseille","lat":43.27896,"lon":5.3833,"is_reserved":false,"is_disabled":false,"rental_uris":{"android":"levelo://app?vid=c3689a63-1d58-4137-a12d-d7cbc439865c","ios":"levelo://app?vid=c3689a63-1d58-4137-a12d-d7cbc439865c"},"vehicle_type_id":"4","last_reported":1743397837,"current_range_meters":14400,"station_id":"","pricing_plan_id":"cebpf4jnsgd1na2vs0mg"},{"bike_id":"fd63be84-051e-408d-b006-77fc7d83d3c7","system_id":"levelo_inurba_marseille","lat":43.32218,"lon":5.39431,"is_reserved":false,"is_disabled":false,"rental_uris":{"android":"levelo://app?vid=fd63be84-051e-408d-b006-77fc7d83d3c7","ios":"levelo://app?vid=fd63be84-051e-408d-b006-77fc7d83d3c7"},"vehicle_type_id":"4","last_reported":1743397837,"current_range_meters":14400,"station_id":"","pricing_plan_id":"cebpf4jnsgd1na2vs0mg"},{"bike_id":"38410917-924d-4083-a5d2-ae5fafbf82f6","system_id":"levelo_inurba_marseille","lat":43.311132,"lon":5.377684,"is_reserved":false,"is_disabled":false,"rental_uris":{"android":"levelo://app?vid=38410917-924d-4083-a5d2-ae5fafbf82f6","ios":"levelo://app?vid=38410917-924d-4083-a5d2-ae5fafbf82f6"},"vehicle_type_id":"4","last_reported":1743397837,"current_range_meters":14400,"station_id":"ce4bgt92rcd13ifvqcg0","pricing_plan_id":"cebpf4jnsgd1na2vs0mg"},{"bike_id":"074a55ca-2130-4385-9cac-62c681ada6cb","system_id":"levelo_inurba_marseille","lat":43.29246,"lon":5.40926,"is_reserved":false,"is_disabled":false,"rental_uris":{"android":"levelo://app?vid=074a55ca-2130-4385-9cac-62c681ada6cb","ios":"levelo://app?vid=074a55ca-2130-4385-9cac-62c681ada6cb"},"vehicle_type_id":"4","last_reported":1743397837,"current_range_meters":14800,"station_id":"ce4bh192rcd13ifvqdc0","pricing_plan_id":"cebpf4jnsgd1na2vs0mg"},{"bike_id":"1a7ed21e-191c-448c-8944-dd9614bf6fc5","system_id":"levelo_inurba_marseille","lat":43.29909,"lon":5.3816,"is_reserved":false,"is_disabled":false,"rental_uris":{"android":"levelo://app?vid=1a7ed21e-191c-448c-8944-dd9614bf6fc5","ios":"levelo://app?vid=1a7ed21e-191c-448c-8944-dd9614bf6fc5"},"vehicle_type_id":"4","last_reported":1743397837,"current_range_meters":14800,"station_id":"ce4bgj12rcd13ifvqbc0","pricing_plan_id":"cebpf4jnsgd1na2vs0mg"},{"bike_id":"416375c9-12fc-487b-8d4a-c326504cd20f","system_id":"levelo_inurba_marseille","lat":43.30141,"lon":5.38091,"is_reserved":false,"is_disabled":false,"rental_uris":{"android":"levelo://app?vid=416375c9-12fc-487b-8d4a-c326504cd20f","ios":"levelo://app?vid=416375c9-12fc-487b-8d4a-c326504cd20f"},"vehicle_type_id":"4","last_reported":1743397837,"current_range_meters":14800,"station_id":"ce4bgjp2rcd13ifvqbh0","pricing_plan_id":"cebpf4jnsgd1na2vs0mg"},{"bike_id":"27d3c47e-bf7b-497a-a92b-fd39c85c24b8","system_id":"levelo_inurba_marseille","lat":43.25069,"lon":5.39518,"is_reserved":false,"is_disabled":false,"rental_uris":{"android":"levelo://app?vid=27d3c47e-bf7b-497a-a92b-fd39c85c24b8","ios":"levelo://app?vid=27d3c47e-bf7b-497a-a92b-fd39c85c24b8"},"vehicle_type_id":"4","last_reported":1743397837,"current_range_meters":14800,"station_id":"ce4bhm12rcd13ifvqgkg","pricing_plan_id":"cebpf4jnsgd1na2vs0mg"},{"bike_id":"6f1fed30-9c31-4c68-b950-5141725762c1","system_id":"levelo_inurba_marseille","lat":43.30467,"lon":5.37902,"is_reserved":false,"is_disabled":false,"rental_uris":{"android":"levelo://app?vid=6f1fed30-9c31-4c68-b950-5141725762c1","ios":"levelo://app?vid=6f1fed30-9c31-4c68-b950-5141725762c1"},"vehicle_type_id":"4","last_reported":1743397837,"current_range_meters":14800,"station_id":"ce4bgup2rcd13ifvqcn0","pricing_plan_id":"cebpf4jnsgd1na2vs0mg"},{"bike_id":"8f4145c4-1bd6-401b-a227-c2c77bf7d7af","system_id":"levelo_inurba_marseille","lat":43.30244,"lon":5.4007,"is_reserved":false,"is_disabled":true,"rental_uris":{"android":"levelo://app?vid=8f4145c4-1bd6-401b-a227-c2c77bf7d7af","ios":"levelo://app?vid=8f4145c4-1bd6-401b-a227-c2c77bf7d7af"},"vehicle_type_id":"4","last_reported":1743397837,"current_range_meters":14800,"station_id":"ce4bgvh2rcd13ifvqcs0","pricing_plan_id":"cebpf4jnsgd1na2vs0mg"},{"bike_id":"af06e0f6-b887-4346-8513-cf12aa385522","system_id":"levelo_inurba_marseille","lat":43.32338,"lon":5.40613,"is_reserved":false,"is_disabled":false,"rental_uris":{"android":"levelo://app?vid=af06e0f6-b887-4346-8513-cf12aa385522","ios":"levelo://app?vid=af06e0f6-b887-4346-8513-cf12aa385522"},"vehicle_type_id":"4","last_reported":1743397837,"current_range_meters":14800,"station_id":"ce4bhq92rcd13ifvqhjg","pricing_plan_id":"cebpf4jnsgd1na2vs0mg"},{"bike_id":"8c6b4744-e975-413e-bae4-dacc55fe526d","system_id":"levelo_inurba_marseille","lat":43.273741,"lon":5.430912,"is_reserved":false,"is_disabled":false,"rental_uris":{"android":"levelo://app?vid=8c6b4744-e975-413e-bae4-dacc55fe526d","ios":"levelo://app?vid=8c6b4744-e975-413e-bae4-dacc55fe526d"},"vehicle_type_id":"4","last_reported":1743397837,"current_range_meters":15200,"station_id":"","pricing_plan_id":"cebpf4jnsgd1na2vs0mg"},{"bike_id":"4577e463-f5f6-4db7-99ee-f5c5a8c49270","system_id":"levelo_inurba_marseille","lat":43.30639,"lon":5.40091,"is_reserved":false,"is_disabled":false,"rental_uris":{"android":"levelo://app?vid=4577e463-f5f6-4db7-99ee-f5c5a8c49270","ios":"levelo://app?vid=4577e463-f5f6-4db7-99ee-f5c5a8c49270"},"vehicle_type_id":"4","last_reported":1743397837,"current_range_meters":15200,"station_id":"ce4bh112rcd13ifvqda0","pricing_plan_id":"cebpf4jnsgd1na2vs0mg"},{"bike_id":"bfc76d25-58bd-4986-a689-6dbf8c0463c7","system_id":"levelo_inurba_marseille","lat":43.278353,"lon":5.39202,"is_reserved":false,"is_disabled":false,"rental_uris":{"android":"levelo://app?vid=bfc76d25-58bd-4986-a689-6dbf8c0463c7","ios":"levelo://app?vid=bfc76d25-58bd-4986-a689-6dbf8c0463c7"},"vehicle_type_id":"4","last_reported":1743397837,"current_range_meters":15200,"station_id":"ce4bhjp2rcd13ifvqga0","pricing_plan_id":"cebpf4jnsgd1na2vs0mg"},{"bike_id":"78876535-0f85-4bef-8ed2-88246bfb4a9b","system_id":"levelo_inurba_marseille","lat":43.24175,"lon":5.397331,"is_reserved":false,"is_disabled":false,"rental_uris":{"android":"levelo://app?vid=78876535-0f85-4bef-8ed2-88246bfb4a9b","ios":"levelo://app?vid=78876535-0f85-4bef-8ed2-88246bfb4a9b"},"vehicle_type_id":"4","last_reported":1743397837,"current_range_meters":15200,"station_id":"ce4bhn12rcd13ifvqgpg","pricing_plan_id":"cebpf4jnsgd1na2vs0mg"},{"bike_id":"3afac0dc-70f0-48d3-8972-f956628b6f44","system_id":"levelo_inurba_marseille","lat":43.323383,"lon":5.406191,"is_reserved":false,"is_disabled":false,"rental_uris":{"android":"levelo://app?vid=3afac0dc-70f0-48d3-8972-f956628b6f44","ios":"levelo://app?vid=3afac0dc-70f0-48d3-8972-f956628b6f44"},"vehicle_type_id":"4","last_reported":1743397837,"current_range_meters":15200,"station_id":"ce4bhq92rcd13ifvqhjg","pricing_plan_id":"cebpf4jnsgd1na2vs0mg"},{"bike_id":"b75a9530-1f85-4099-8a48-416b003d811c","system_id":"levelo_inurba_marseille","lat":43.305618,"lon":5.365365,"is_reserved":false,"is_disabled":false,"rental_uris":{"android":"levelo://app?vid=b75a9530-1f85-4099-8a48-416b003d811c","ios":"levelo://app?vid=b75a9530-1f85-4099-8a48-416b003d811c"},"vehicle_type_id":"4","last_reported":1743397837,"current_range_meters":15200,"station_id":"ce4bgs12rcd13ifvqcag","pricing_plan_id":"cebpf4jnsgd1na2vs0mg"},{"bike_id":"cf98f9e0-97c5-411b-9c0d-6a6bcb8c1c0a","system_id":"levelo_inurba_marseille","lat":43.31481,"lon":5.37322,"is_reserved":false,"is_disabled":false,"rental_uris":{"android":"levelo://app?vid=cf98f9e0-97c5-411b-9c0d-6a6bcb8c1c0a","ios":"levelo://app?vid=cf98f9e0-97c5-411b-9c0d-6a6bcb8c1c0a"},"vehicle_type_id":"4","last_reported":1743397837,"current_range_meters":15200,"station_id":"ce4bgt12rcd13ifvqcd0","pricing_plan_id":"cebpf4jnsgd1na2vs0mg"},{"bike_id":"e5a729e0-47a3-440e-85bc-677f41563abb","system_id":"levelo_inurba_marseille","lat":43.23959,"lon":5.36625,"is_reserved":false,"is_disabled":true,"rental_uris":{"android":"levelo://app?vid=e5a729e0-47a3-440e-85bc-677f41563abb","ios":"levelo://app?vid=e5a729e0-47a3-440e-85bc-677f41563abb"},"vehicle_type_id":"4","last_reported":1743397837,"current_range_meters":16000,"station_id":"ce4bhi12rcd13ifvqfp0","pricing_plan_id":"cebpf4jnsgd1na2vs0mg"},{"bike_id":"a09e0627-8a78-4ff1-b4b5-8a1a83b86ab9","system_id":"levelo_inurba_marseille","lat":43.29513,"lon":5.39421,"is_reserved":false,"is_disabled":false,"rental_uris":{"android":"levelo://app?vid=a09e0627-8a78-4ff1-b4b5-8a1a83b86ab9","ios":"levelo://app?vid=a09e0627-8a78-4ff1-b4b5-8a1a83b86ab9"},"vehicle_type_id":"4","last_reported":1743397837,"current_range_meters":16000,"station_id":"ce4bh292rcd13ifvqdf0","pricing_plan_id":"cebpf4jnsgd1na2vs0mg"},{"bike_id":"8c9580a8-2b1f-49a2-b6e8-7d59513045b2","system_id":"levelo_inurba_marseille","lat":43.28399,"lon":5.37523,"is_reserved":false,"is_disabled":false,"rental_uris":{"android":"levelo://app?vid=8c9580a8-2b1f-49a2-b6e8-7d59513045b2","ios":"levelo://app?vid=8c9580a8-2b1f-49a2-b6e8-7d59513045b2"},"vehicle_type_id":"4","last_reported":1743397837,"current_range_meters":16000,"station_id":"ce4bh412rcd13ifvqds0","pricing_plan_id":"cebpf4jnsgd1na2vs0mg"},