{"last_updated":1778283898,"ttl":60,"version":"2.2","data":{"bikes":[{"bike_id":"abf7ac8f-7bde-48a6-ac65-f746d6d3287d","system_id":"levelo_inurba_marseille","lat":43.27074,"lon":5.38752,"is_reserved":false,"is_disabled":false,"rental_uris":{"android":"levelo://app?vid=abf7ac8f-7bde-48a6-ac65-f746d6d3287d","ios":"levelo://app?vid=abf7ac8f-7bde-48a6-ac65-f746d6d3287d"},"vehicle_type_id":"4","last_reported":1778283899,"current_range_meters":2800,"station_id":"","pricing_plan_id":"cebpf4jnsgd1na2vs0mg"},{"bike_id":"8d410676-d39c-4ad0-80a6-19831c64da18","system_id":"levelo_inurba_marseille","lat":43.2621,"lon":5.3787,"is_reserved":false,"is_disabled":false,"rental_uris":{"android":"levelo://app?vid=8d410676-d39c-4ad0-80a6-19831c64da18","ios":"levelo://app?vid=8d410676-d39c-4ad0-80a6-19831c64da18"},"vehicle_type_id":"4","last_reported":1778283899,"current_range_meters":2800,"station_id":"ce4bhjp2rcd13ifvqg90","pricing_plan_id":"cebpf4jnsgd1na2vs0mg"},{"bike_id":"9c98ee12-bcf5-4849-9f6e-2d72d58f327b","system_id":"levelo_inurba_marseille","lat":43.23045,"lon":5.35495,"is_reserved":false,"is_disabled":true,"rental_uris":{"android":"levelo://app?vid=9c98ee12-bcf5-4849-9f6e-2d72d58f327b","ios":"levelo://app?vid=9c98ee12-bcf5-4849-9f6e-2d72d58f327b"},"vehicle_type_id":"4","last_reported":1778283899,"current_range_meters":2800,"station_id":"cpo3342slgdg3j2ifvpg","pricing_plan_id":"cebpf4jnsgd1na2vs0mg"},{"bike_id":"da0359eb-771b-4da3-8076-d03c95d36ca9","system_id":"levelo_inurba_marseille","lat":43.26891,"lon":5.36877,"is_reserved":false,"is_disabled":false,"rental_uris":{"android":"levelo://app?vid=da0359eb-771b-4da3-8076-d03c95d36ca9","ios":"levelo://app?vid=da0359eb-771b-4da3-8076-d03c95d36ca9"},"vehicle_type_id":"4","last_reported":1778283899,"current_range_meters":2800,"station_id":"","pricing_plan_id":"cebpf4jnsgd1na2vs0mg"},{"bike_id":"37b6444d-1fbd-4838-80f3-25df8d15731a","system_id":"levelo_inurba_marseille","lat":43.29191,"lon":5.39315,"is_reserved":false,"is_disabled":false,"rental_uris":{"android":"levelo://app?vid=37b6444d-1fbd-4838-80f3-25df8d15731a","ios":"levelo://app?vid=37b6444d-1fbd-4838-80f3-25df8d15731a"},"vehicle_type_id":"4","last_reported":1778283899,"current_range_meters":2800,"station_id":"ce4bh192rcd13ifvqdd0","pricing_plan_id":"cebpf4jnsgd1na2vs0mg"},{"bike_id":"68042ed3-2899-44e5-be96-db2ed15455e6","system_id":"levelo_inurba_marseille","lat":43.27917,"lon":5.41034,"is_reserved":false,"is_disabled":false,"rental_uris":{"android":"levelo://app?vid=68042ed3-2899-44e5-be96-db2ed15455e6","ios":"levelo://app?vid=68042ed3-2899-44e5-be96-db2ed15455e6"},"vehicle_type_id":"4","last_reported":1778283899,"current_range_meters":3200,"station_id":"ce4bhnp2rcd13ifvqh0g","pricing_plan_id":"cebpf4jnsgd1na2vs0mg"},{"bike_id":"d1965583-dcb5-4292-81a2-e52d5f84ef92","system_id":"levelo_inurba_marseille","lat":43.27373,"lon":5.36245,"is_reserved":false,"is_disabled":true,"rental_uris":{"android":"levelo://app?vid=d1965583-dcb5-4292-81a2-e52d5f84ef92","ios":"levelo://app?vid=d1965583-dcb5-4292-81a2-e52d5f84ef92"},"vehicle_type_id":"4","last_reported":1778283899,"current_range_meters":3200,"station_id":"ce4bhbh2rcd13ifvqeo0","pricing_plan_id":"cebpf4jnsgd1na2vs0mg"},{"bike_id":"b5668d4b-3344-4040-8830-5fbdb8dd1859","system_id":"levelo_inurba_marseille","lat":43.27206,"lon":5.39095,"is_reserved":false,"is_disabled":false,"rental_uris":{"android":"levelo://app?vid=b5668d4b-3344-4040-8830-5fbdb8dd1859","ios":"levelo://app?vid=b5668d4b-3344-4040-8830-5fbdb8dd1859"},"vehicle_type_id":"4","last_reported":1778283899,"current_range_meters":3200,"station_id":"","pricing_plan_id":"cebpf4jnsgd1na2vs0mg"},{"bike_id":"dd7e2a16-55c8-4796-8974-0afa585e1160","system_id":"levelo_inurba_marseille","lat":43.25495,"lon":5.37649,"is_reserved":false,"is_disabled":true,"rental_uris":{"android":"levelo://app?vid=dd7e2a16-55c8-4796-8974-0afa585e1160","ios":"levelo://app?vid=dd7e2a16-55c8-4796-8974-0afa585e1160"},"vehicle_type_id":"4","last_reported":1778283899,"current_range_meters":3200,"station_id":"ce4bhh12rcd13ifvqff0","pricing_plan_id":"cebpf4jnsgd1na2vs0mg"},{"bike_id":"b7747a29-4ab9-4600-99c2-c1555eceffb1","system_id":"levelo_inurba_marseille","lat":43.30905,"lon":5.38281,"is_reserved":false,"is_disabled":false,"rental_uris":{"android":"levelo://app?vid=b7747a29-4ab9-4600-99c2-c1555eceffb1","ios":"levelo://app?vid=b7747a29-4ab9-4600-99c2-c1555eceffb1"},"vehicle_type_id":"4","last_reported":1778283899,"current_range_meters":3200,"station_id":"","pricing_plan_id":"cebpf4jnsgd1na2vs0mg"},{"bike_id":"177be99c-05ba-463e-91f6-7bffbded8276","system_id":"levelo_inurba_marseille","lat":43.29587,"lon":5.36741,"is_reserved":false,"is_disabled":true,"rental_uris":{"android":"levelo://app?vid=177be99c-05ba-463e-91f6-7bffbded8276","ios":"levelo://app?vid=177be99c-05ba-463e-91f6-7bffbded8276"},"vehicle_type_id":"4","last_reported":1778283899,"current_range_meters":3200,"station_id":"ce4bgph2rcd13ifvqc2g","pricing_plan_id":"cebpf4jnsgd1na2vs0mg"},{"bike_id":"c21715f7-94af-4eec-9ebd-466e92890cb6","system_id":"levelo_inurba_marseille","lat":43.26558,"lon":5.390463,"is_reserved":false,"is_disabled":false,"rental_uris":{"android":"levelo://app?vid=c21715f7-94af-4eec-9ebd-466e92890cb6","ios":"levelo://app?vid=c21715f7-94af-4eec-9ebd-466e92890cb6"},"vehicle_type_id":"4","last_reported":1778283899,"current_range_meters":3200,"station_id":"ce4bhe12rcd13ifvqf30","pricing_plan_id":"cebpf4jnsgd1na2vs0mg"},{"bike_id":"4d003ca2-ee32-44af-8b15-13be247eeb27","system_id":"levelo_inurba_marseille","lat":43.29705,"lon":5.36639,"is_reserved":false,"is_disabled":false,"rental_uris":{"android":"levelo://app?vid=4d003ca2-ee32-44af-8b15-13be247eeb27","ios":"levelo://app?vid=4d003ca2-ee32-44af-8b15-13be247eeb27"},"vehicle_type_id":"4","last_reported":1778283899,"current_range_meters":3200,"station_id":"ce4bgn12rcd13ifvqbt0","pricing_plan_id":"cebpf4jnsgd1na2vs0mg"},{"bike_id":"f8430446-7d85-46a8-8125-34f5eb0c4b59","system_id":"levelo_inurba_marseille","lat":43.24812,"lon":5.37472,"is_reserved":false,"is_disabled":false,"rental_uris":{"android":"levelo://app?vid=f8430446-7d85-46a8-8125-34f5eb0c4b59","ios":"levelo://app?vid=f8430446-7d85-46a8-8125-34f5eb0c4b59"},"vehicle_type_id":"4","last_reported":1778283899,"current_range_meters":3600,"station_id":"ce4bhgh2rcd13ifvqfb0","pricing_plan_id":"cebpf4jnsgd1na2vs0mg"},{"bike_id":"78df139b-7ece-40c9-97a8-bcf0eed69b17","system_id":"levelo_inurba_marseille","lat":43.29867,"lon":5.43647,"is_reserved":false,"is_disabled":false,"rental_uris":{"android":"levelo://app?vid=78df139b-7ece-40c9-97a8-bcf0eed69b17","ios":"levelo://app?vid=78df139b-7ece-40c9-97a8-bcf0eed69b17"},"vehicle_type_id":"4","last_reported":1778283899,"current_range_meters":3600,"station_id":"ce4bhpp2rcd13ifvqhfg","pricing_plan_id":"cebpf4jnsgd1na2vs0mg"},{"bike_id":"eb2d00c4-5eee-4f74-8af9-14e5029fda21","system_id":"levelo_inurba_marseille","lat":43.30227,"lon":5.38059,"is_reserved":false,"is_disabled":true,"rental_uris":{"android":"levelo://app?vid=eb2d00c4-5eee-4f74-8af9-14e5029fda21","ios":"levelo://app?vid=eb2d00c4-5eee-4f74-8af9-14e5029fda21"},"vehicle_type_id":"4","last_reported":1778283899,"current_range_meters":3600,"station_id":"","pricing_plan_id":"cebpf4jnsgd1na2vs0mg"},{"bike_id":"ab41857e-5e1d-4ef6-93ba-57193093c0da","system_id":"levelo_inurba_marseille","lat":43.30857,"lon":5.39661,"is_reserved":false,"is_disabled":false,"rental_uris":{"android":"levelo://app?vid=ab41857e-5e1d-4ef6-93ba-57193093c0da","ios":"levelo://app?vid=ab41857e-5e1d-4ef6-93ba-57193093c0da"},"vehicle_type_id":"4","last_reported":1778283899,"current_range_meters":3600,"station_id":"","pricing_plan_id":"cebpf4jnsgd1na2vs0mg"},{"bike_id":"e093bcf4-7d3a-476a-b7fe-359f010e6ee0","system_id":"levelo_inurba_marseille","lat":43.29545,"lon":5.39945,"is_reserved":false,"is_disabled":false,"rental_uris":{"android":"levelo://app?vid=e093bcf4-7d3a-476a-b7fe-359f010e6ee0","ios":"levelo://app?vid=e093bcf4-7d3a-476a-b7fe-359f010e6ee0"},"vehicle_type_id":"4","last_reported":1778283899,"current_range_meters":3600,"station_id":"ce4bh312rcd13ifvqdj0","pricing_plan_id":"cebpf4jnsgd1na2vs0mg"},{"bike_id":"34be596a-bf82-477b-a07e-6719d261a47e","system_id":"levelo_inurba_marseille","lat":43.25064,"lon":5.39508,"is_reserved":false,"is_disabled":false,"rental_uris":{"android":"levelo://app?vid=34be596a-bf82-477b-a07e-6719d261a47e","ios":"levelo://app?vid=34be596a-bf82-477b-a07e-6719d261a47e"},"vehicle_type_id":"4","last_reported":1778283899,"current_range_meters":3600,"station_id":"ce4bhm12rcd13ifvqgkg","pricing_plan_id":"cebpf4jnsgd1na2vs0mg"},{"bike_id":"b800ad74-3b4b-45c8-ae12-e10270cb2914","system_id":"levelo_inurba_marseille","lat":43.27891,"lon":5.38748,"is_reserved":false,"is_disabled":false,"rental_uris":{"android":"levelo://app?vid=b800ad74-3b4b-45c8-ae12-e10270cb2914","ios":"levelo://app?vid=b800ad74-3b4b-45c8-ae12-e10270cb2914"},"vehicle_type_id":"4","last_reported":1778283899,"current_range_meters":3600,"station_id":"","pricing_plan_id":"cebpf4jnsgd1na2vs0mg"},{"bike_id":"6246a765-b778-462f-b922-b84d59bc552c","system_id":"levelo_inurba_marseille","lat":43.24416,"lon":5.37037,"is_reserved":false,"is_disabled":false,"rental_uris":{"android":"levelo://app?vid=6246a765-b778-462f-b922-b84d59bc552c","ios":"levelo://app?vid=6246a765-b778-462f-b922-b84d59bc552c"},"vehicle_type_id":"4","last_reported":1778283899,"current_range_meters":3600,"station_id":"ce4bhhh2rcd13ifvqfk0","pricing_plan_id":"cebpf4jnsgd1na2vs0mg"},{"bike_id":"d44cc199-235c-403d-ae58-3d4a17f3de38","system_id":"levelo_inurba_marseille","lat":43.27687,"lon":5.3892,"is_reserved":false,"is_disabled":false,"rental_uris":{"android":"levelo://app?vid=d44cc199-235c-403d-ae58-3d4a17f3de38","ios":"levelo://app?vid=d44cc199-235c-403d-ae58-3d4a17f3de38"},"vehicle_type_id":"4","last_reported":1778283899,"current_range_meters":3600,"station_id":"ce4bhi12rcd13ifvqfo0","pricing_plan_id":"cebpf4jnsgd1na2vs0mg"},{"bike_id":"b9da57a1-fd2a-49e5-8ce1-daf7e8132834","system_id":"levelo_inurba_marseille","lat":43.28337,"lon":5.38096,"is_reserved":false,"is_disabled":false,"rental_uris":{"android":"levelo://app?vid=b9da57a1-fd2a-49e5-8ce1-daf7e8132834","ios":"levelo://app?vid=b9da57a1-fd2a-49e5-8ce1-daf7e8132834"},"vehicle_type_id":"4","last_reported":1778283899,"current_range_meters":3600,"station_id":"ce4bh412rcd13ifvqdr0","pricing_plan_id":"cebpf4jnsgd1na2vs0mg"},{"bike_id":"75dddf4b-8367-46bc-a9a7-0eb67ee811a7","system_id":"levelo_inurba_marseille","lat":43.23173,"lon":5.3657,"is_reserved":false,"is_disabled":false,"rental_uris":{"android":"levelo://app?vid=75dddf4b-8367-46bc-a9a7-0eb67ee811a7","ios":"levelo://app?vid=75dddf4b-8367-46bc-a9a7-0eb67ee811a7"},"vehicle_type_id":"4","last_reported":1778283899,"current_range_meters":4000,"station_id":"","pricing_plan_id":"cebpf4jnsgd1na2vs0mg"},{"bike_id":"78603c2e-11b9-4397-9e69-0d2887e5cdd7","system_id":"levelo_inurba_marseille","lat":43.33154,"lon":5.37693,"is_reserved":false,"is_disabled":false,"rental_uris":{"android":"levelo://app?vid=78603c2e-11b9-4397-9e69-0d2887e5cdd7","ios":"levelo://app?vid=78603c2e-11b9-4397-9e69-0d2887e5cdd7"},"vehicle_type_id":"4","last_reported":1778283899,"current_range_meters":4000,"station_id":"st_d46cu089ee8s73dldbu0","pricing_plan_id":"cebpf4jnsgd1na2vs0mg"},{"bike_id":"7ebded6a-b44e-4b27-9624-d27cf666a3c2","system_id":"levelo_inurba_marseille","lat":43.26178,"lon":5.37044,"is_reserved":false,"is_disabled":false,"rental_uris":{"android":"levelo://app?vid=7ebded6a-b44e-4b27-9624-d27cf666a3c2","ios":"levelo://app?vid=7ebded6a-b44e-4b27-9624-d27cf666a3c2"},"vehicle_type_id":"4","last_reported":1778283899,"current_range_meters":4000,"station_id":"","pricing_plan_id":"cebpf4jnsgd1na2vs0mg"},{"bike_id":"3576c2a2-2c20-40e0-8316-6d5558e51c8a","system_id":"levelo_inurba_marseille","lat":43.24166,"lon":5.39695,"is_reserved":false,"is_disabled":false,"rental_uris":{"android":"levelo://app?vid=3576c2a2-2c20-40e0-8316-6d5558e51c8a","ios":"levelo://app?vid=3576c2a2-2c20-40e0-8316-6d5558e51c8a"},"vehicle_type_id":"4","last_reported":1778283899,"current_range_meters":4000,"station_id":"ce4bhn12rcd13ifvqgpg","pricing_plan_id":"cebpf4jnsgd1na2vs0mg"},{"bike_id":"acda420d-c0c2-4021-b9df-ca6acbade99f","system_id":"levelo_inurba_marseille","lat":43.28959,"lon":5.39648,"is_reserved":false,"is_disabled":true,"rental_uris":{"android":"levelo://app?vid=acda420d-c0c2-4021-b9df-ca6acbade99f","ios":"levelo://app?vid=acda420d-c0c2-4021-b9df-ca6acbade99f"},"vehicle_type_id":"4","last_reported":1778283899,"current_range_meters":4000,"station_id":"ce4bh3h2rcd13ifvqdn0","pricing_plan_id":"cebpf4jnsgd1na2vs0mg"},{"bike_id":"26808864-edd9-48ef-b4f9-6a35d8d7c7ef","system_id":"levelo_inurba_marseille","lat":43.23965,"lon":5.36631,"is_reserved":false,"is_disabled":true,"rental_uris":{"android":"levelo://app?vid=26808864-edd9-48ef-b4f9-6a35d8d7c7ef","ios":"levelo://app?vid=26808864-edd9-48ef-b4f9-6a35d8d7c7ef"},"vehicle_type_id":"4","last_reported":1778283899,"current_range_meters":4000,"station_id":"ce4bhi12rcd13ifvqfp0","pricing_plan_id":"cebpf4jnsgd1na2vs0mg"},{"bike_id":"22540de7-8630-43e4-a5f4-94906185db58","system_id":"levelo_inurba_marseille","lat":43.28613,"lon":5.35141,"is_reserved":false,"is_disabled":true,"rental_uris":{"android":"levelo://app?vid=22540de7-8630-43e4-a5f4-94906185db58","ios":"levelo://app?vid=22540de7-8630-43e4-a5f4-94906185db58"},"vehicle_type_id":"4","last_reported":1778283899,"current_range_meters":4000,"station_id":"ce4bhch2rcd13ifvqeug","pricing_plan_id":"cebpf4jnsgd1na2vs0mg"},{"bike_id":"4292e8ce-e1a6-4a8f-a403-35f7f77e0e07","system_id":"levelo_inurba_marseille","lat":43.28402,"lon":5.37527,"is_reserved":false,"is_disabled":false,"rental_uris":{"android":"levelo://app?vid=4292e8ce-e1a6-4a8f-a403-35f7f77e0e07","ios":"levelo://app?vid=4292e8ce-e1a6-4a8f-a403-35f7f77e0e07"},"vehicle_type_id":"4","last_reported":1778283899,"current_range_meters":4000,"station_id":"ce4bh412rcd13ifvqds0","pricing_plan_id":"cebpf4jnsgd1na2vs0mg"},{"bike_id":"7dc457ac-e794-4633-8f74-77b984f5d64f","system_id":"levelo_inurba_marseille","lat":43.29875,"lon":5.42094,"is_reserved":false,"is_disabled":false,"rental_uris":{"android":"levelo://app?vid=7dc457ac-e794-4633-8f74-77b984f5d64f","ios":"levelo://app?vid=7dc457ac-e794-4633-8f74-77b984f5d64f"},"vehicle_type_id":"4","last_reported":1778283899,"current_range_meters":4000,"station_id":"st_d6tc004otcvc738tfe70","pricing_plan_id":"cebpf4jnsgd1na2vs0mg"},{"bike_id":"ae15c2d1-b79c-472a-aa23-dbd2b063bdad","system_id":"levelo_inurba_marseille","lat":43.25256,"lon":5.39256,"is_reserved":false,"is_disabled":false,"rental_uris":{"android":"levelo://app?vid=ae15c2d1-b79c-472a-aa23-dbd2b063bdad","ios":"levelo://app?vid=ae15c2d1-b79c-472a-aa23-dbd2b063bdad"},"vehicle_type_id":"4","last_reported":1778283899,"current_range_meters":4000,"station_id":"","pricing_plan_id":"cebpf4jnsgd1na2vs0mg"},{"bike_id":"7ac272f1-93d7-437e-a7ad-9515e3c575bb","system_id":"levelo_inurba_marseille","lat":43.29247,"lon":5.35752,"is_reserved":false,"is_disabled":false,"rental_uris":{"android":"levelo://app?vid=7ac272f1-93d7-437e-a7ad-9515e3c575bb","ios":"levelo://app?vid=7ac272f1-93d7-437e-a7ad-9515e3c575bb"},"vehicle_type_id":"4","last_reported":1778283899,"current_range_meters":4000,"station_id":"","pricing_plan_id":"cebpf4jnsgd1na2vs0mg"},{"bike_id":"b8033fcc-dc55-40bf-a115-206a22e96996","system_id":"levelo_inurba_marseille","lat":43.24136,"lon":5.3975,"is_reserved":false,"is_disabled":false,"rental_uris":{"android":"levelo://app?vid=b8033fcc-dc55-40bf-a115-206a22e96996","ios":"levelo://app?vid=b8033fcc-dc55-40bf-a115-206a22e96996"},"vehicle_type_id":"4","last_reported":1778283899,"current_range_meters":4000,"station_id":"ce4bhn12rcd13ifvqgpg","pricing_plan_id":"cebpf4jnsgd1na2vs0mg"},{"bike_id":"839dd660-f7f5-4436-a4be-05214ace9f90","system_id":"levelo_inurba_marseille","lat":43.25855,"lon":5.39904,"is_reserved":false,"is_disabled":false,"rental_uris":{"android":"levelo://app?vid=839dd660-f7f5-4436-a4be-05214ace9f90","ios":"levelo://app?vid=839dd660-f7f5-4436-a4be-05214ace9f90"},"vehicle_type_id":"4","last_reported":1778283899,"current_range_meters":4000,"station_id":"ce4bhl92rcd13ifvqghg","pricing_plan_id":"cebpf4jnsgd1na2vs0mg"},{"bike_id":"c8cfc10f-ea34-4155-ac7f-9b531f0b9b22","system_id":"levelo_inurba_marseille","lat":43.26379,"lon":5.42293,"is_reserved":false,"is_disabled":false,"rental_uris":{"android":"levelo://app?vid=c8cfc10f-ea34-4155-ac7f-9b531f0b9b22","ios":"levelo://app?vid=c8cfc10f-ea34-4155-ac7f-9b531f0b9b22"},"vehicle_type_id":"4","last_reported":1778283899,"current_range_meters":4000,"station_id":"","pricing_plan_id":"cebpf4jnsgd1na2vs0mg"},{"bike_id":"139fafbd-1b7e-43be-b9c7-de867d9ec84e","system_id":"levelo_inurba_marseille","lat":43.23183,"lon":5.39985,"is_reserved":false,"is_disabled":false,"rental_uris":{"android":"levelo://app?vid=139fafbd-1b7e-43be-b9c7-de867d9ec84e","ios":"levelo://app?vid=139fafbd-1b7e-43be-b9c7-de867d9ec84e"},"vehicle_type_id":"4","last_reported":1778283899,"current_range_meters":4000,"station_id":"ce4bhn12rcd13ifvqgqg","pricing_plan_id":"cebpf4jnsgd1na2vs0mg"},{"bike_id":"79528d5b-05a7-48e7-9ccf-eb3dcf2a91b1","system_id":"levelo_inurba_marseille","lat":43.26176,"lon":5.37459,"is_reserved":false,"is_disabled":true,"rental_uris":{"android":"levelo://app?vid=79528d5b-05a7-48e7-9ccf-eb3dcf2a91b1","ios":"levelo://app?vid=79528d5b-05a7-48e7-9ccf-eb3dcf2a91b1"},"vehicle_type_id":"4","last_reported":1778283899,"current_range_meters":4400,"station_id":"ce4bhgp2rcd13ifvqfc0","pricing_plan_id":"cebpf4jnsgd1na2vs0mg"},{"bike_id":"a46bc289-ee30-43b9-a582-f84154664881","system_id":"levelo_inurba_marseille","lat":43.29965,"lon":5.38492,"is_reserved":false,"is_disabled":false,"rental_uris":{"android":"levelo://app?vid=a46bc289-ee30-43b9-a582-f84154664881","ios":"levelo://app?vid=a46bc289-ee30-43b9-a582-f84154664881"},"vehicle_type_id":"4","last_reported":1778283899,"current_range_meters":4400,"station_id":"ce4bgj92rcd13ifvqbd0","pricing_plan_id":"cebpf4jnsgd1na2vs0mg"},{"bike_id":"74554dcd-7251-4ce2-ab05-9023df6c8413","system_id":"levelo_inurba_marseille","lat":43.28828,"lon":5.42502,"is_reserved":false,"is_disabled":false,"rental_uris":{"android":"levelo://app?vid=74554dcd-7251-4ce2-ab05-9023df6c8413","ios":"levelo://app?vid=74554dcd-7251-4ce2-ab05-9023df6c8413"},"vehicle_type_id":"4","last_reported":1778283899,"current_range_meters":4400,"station_id":"st_d3b462108ojc7389ooeg","pricing_plan_id":"cebpf4jnsgd1na2vs0mg"},{"bike_id":"e028b17e-094a-4eac-adf4-cd5de2ec26e1","system_id":"levelo_inurba_marseille","lat":43.2856,"lon":5.3948,"is_reserved":false,"is_disabled":false,"rental_uris":{"android":"levelo://app?vid=e028b17e-094a-4eac-adf4-cd5de2ec26e1","ios":"levelo://app?vid=e028b17e-094a-4eac-adf4-cd5de2ec26e1"},"vehicle_type_id":"4","last_reported":1778283899,"current_range_meters":4400,"station_id":"ce4bh292rcd13ifvqdg0","pricing_plan_id":"cebpf4jnsgd1na2vs0mg"},{"bike_id":"be4270c6-aac0-474c-8ec5-e008fdfb68dd","system_id":"levelo_inurba_marseille","lat":43.26542,"lon":5.37296,"is_reserved":false,"is_disabled":false,"rental_uris":{"android":"levelo://app?vid=be4270c6-aac0-474c-8ec5-e008fdfb68dd","ios":"levelo://app?vid=be4270c6-aac0-474c-8ec5-e008fdfb68dd"},"vehicle_type_id":"4","last_reported":1778283899,"current_range_meters":4400,"station_id":"ce4bhg12rcd13ifvqf70","pricing_plan_id":"cebpf4jnsgd1na2vs0mg"},{"bike_id":"aea1a9e6-2a9b-4cba-bf25-1488f9d8a686","system_id":"levelo_inurba_marseille","lat":43.32494,"lon":5.38298,"is_reserved":false,"is_disabled":false,"rental_uris":{"android":"levelo://app?vid=aea1a9e6-2a9b-4cba-bf25-1488f9d8a686","ios":"levelo://app?vid=aea1a9e6-2a9b-4cba-bf25-1488f9d8a686"},"vehicle_type_id":"4","last_reported":1778283899,"current_range_meters":4400,"station_id":"st_d4asgbiv49dc73anf9m0","pricing_plan_id":"cebpf4jnsgd1na2vs0mg"},{"bike_id":"54bdac41-dc50-4afe-87cf-607065949d9b","system_id":"levelo_inurba_marseille","lat":43.29866,"lon":5.38877,"is_reserved":false,"is_disabled":true,"rental_uris":{"android":"levelo://app?vid=54bdac41-dc50-4afe-87cf-607065949d9b","ios":"levelo://app?vid=54bdac41-dc50-4afe-87cf-607065949d9b"},"vehicle_type_id":"4","last_reported":1778283899,"current_range_meters":4400,"station_id":"ce4bh392rcd13ifvqdl0","pricing_plan_id":"cebpf4jnsgd1na2vs0mg"},{"bike_id":"e73f306c-3987-4d65-a998-6b5f6ae120f9","system_id":"levelo_inurba_marseille","lat":43.31159,"lon":5.38719,"is_reserved":false,"is_disabled":false,"rental_uris":{"android":"levelo://app?vid=e73f306c-3987-4d65-a998-6b5f6ae120f9","ios":"levelo://app?vid=e73f306c-3987-4d65-a998-6b5f6ae120f9"},"vehicle_type_id":"4","last_reported":1778283899,"current_range_meters":4400,"station_id":"ce4bgv12rcd13ifvqcp0","pricing_plan_id":"cebpf4jnsgd1na2vs0mg"},{"bike_id":"29c47587-f18b-42f0-8cfc-38dfdf722184","system_id":"levelo_inurba_marseille","lat":43.29924,"lon":5.38248,"is_reserved":false,"is_disabled":false,"rental_uris":{"android":"levelo://app?vid=29c47587-f18b-42f0-8cfc-38dfdf722184","ios":"levelo://app?vid=29c47587-f18b-42f0-8cfc-38dfdf722184"},"vehicle_type_id":"4","last_reported":1778283899,"current_range_meters":4400,"station_id":"","pricing_plan_id":"cebpf4jnsgd1na2vs0mg"},{"bike_id":"78bfcf6a-8002-47c3-bd0a-fd7693c617bf","system_id":"levelo_inurba_marseille","lat":43.26533,"lon":5.39047,"is_reserved":false,"is_disabled":false,"rental_uris":{"android":"levelo://app?vid=78bfcf6a-8002-47c3-bd0a-fd7693c617bf","ios":"levelo://app?vid=78bfcf6a-8002-47c3-bd0a-fd7693c617bf"},"vehicle_type_id":"4","last_reported":1778283899,"current_range_meters":4400,"station_id":"ce4bhe12rcd13ifvqf30","pricing_plan_id":"cebpf4jnsgd1na2vs0mg"},{"bike_id":"d29fcc99-ea09-486d-9541-3278f80f2d05","system_id":"levelo_inurba_marseille","lat":43.28824,"lon":5.42505,"is_reserved":false,"is_disabled":false,"rental_uris":{"android":"levelo://app?vid=d29fcc99-ea09-486d-9541-3278f80f2d05","ios":"levelo://app?vid=d29fcc99-ea09-486d-9541-3278f80f2d05"},"vehicle_type_id":"4","last_reported":1778283899,"current_range_meters":4400,"station_id":"st_d3b462108ojc7389ooeg","pricing_plan_id":"cebpf4jnsgd1na2vs0mg"},{"bike_id":"89513982-8e0f-49a9-85aa-89f0a8805cf8","system_id":"levelo_inurba_marseille","lat":43.27353,"lon":5.39079,"is_reserved":false,"is_disabled":false,"rental_uris":{"android":"levelo://app?vid=89513982-8e0f-49a9-85aa-89f0a8805cf8","ios":"levelo://app?vid=89513982-8e0f-49a9-85aa-89f0a8805cf8"},"vehicle_type_id":"4","last_reported":1778283899,"current_range_meters":4800,"station_id":"ce4bhgp2rcd13ifvqfe0","pricing_plan_id":"cebpf4jnsgd1na2vs0mg"},{"bike_id":"bc7689e6-08ad-4ce6-b101-ffff1b93ca0c","system_id":"levelo_inurba_marseille","lat":43.29229,"lon":5.37151,"is_reserved":false,"is_disabled":false,"rental_uris":{"android":"levelo://app?vid=bc7689e6-08ad-4ce6-b101-ffff1b93ca0c","ios":"levelo://app?vid=bc7689e6-08ad-4ce6-b101-ffff1b93ca0c"},"vehicle_type_id":"4","last_reported":1778283899,"current_range_meters":4800,"station_id":"","pricing_plan_id":"cebpf4jnsgd1na2vs0mg"},{"bike_id":"66adbe4b-0003-4013-9210-7b62817bc7b4","system_id":"levelo_inurba_marseille","lat":43.29871,"lon":5.38887,"is_reserved":false,"is_disabled":false,"rental_uris":{"android":"levelo://app?vid=66adbe4b-0003-4013-9210-7b62817bc7b4","ios":"levelo://app?vid=66adbe4b-0003-4013-9210-7b62817bc7b4"},"vehicle_type_id":"4","last_reported":1778283899,"current_range_meters":4800,"station_id":"ce4bh392rcd13ifvqdl0","pricing_plan_id":"cebpf4jnsgd1na2vs0mg"},{"bike_id":"43b9c369-eec7-4801-b65c-0c3b3c87bd4f","system_id":"levelo_inurba_marseille","lat":43.33529,"lon":5.37455,"is_reserved":false,"is_disabled":false,"rental_uris":{"android":"levelo://app?vid=43b9c369-eec7-4801-b65c-0c3b3c87bd4f","ios":"levelo://app?vid=43b9c369-eec7-4801-b65c-0c3b3c87bd4f"},"vehicle_type_id":"4","last_reported":1778283899,"current_range_meters":4800,"station_id":"st_d46tts09ee8s73dlu43g","pricing_plan_id":"cebpf4jnsgd1na2vs0mg"},{"bike_id":"3c448e94-09fa-4e14-bfed-9eae4cc96d57","system_id":"levelo_inurba_marseille","lat":43.31434,"lon":5.37389,"is_reserved":false,"is_disabled":false,"rental_uris":{"android":"levelo://app?vid=3c448e94-09fa-4e14-bfed-9eae4cc96d57","ios":"levelo://app?vid=3c448e94-09fa-4e14-bfed-9eae4cc96d57"},"vehicle_type_id":"4","last_reported":1778283899,"current_range_meters":4800,"station_id":"","pricing_plan_id":"cebpf4jnsgd1na2vs0mg"},{"bike_id":"eac85fba-3bd6-44fa-b71b-ac5d2b4b25de","system_id":"levelo_inurba_marseille","lat":43.29252,"lon":5.40897,"is_reserved":false,"is_disabled":false,"rental_uris":{"android":"levelo://app?vid=eac85fba-3bd6-44fa-b71b-ac5d2b4b25de","ios":"levelo://app?vid=eac85fba-3bd6-44fa-b71b-ac5d2b4b25de"},"vehicle_type_id":"4","last_reported":1778283899,"current_range_meters":4800,"station_id":"ce4bh192rcd13ifvqdc0","pricing_plan_id":"cebpf4jnsgd1na2vs0mg"},{"bike_id":"c59e1bd6-ece3-4e94-9308-3c08876ef280","system_id":"levelo_inurba_marseille","lat":43.26494,"lon":5.38939,"is_reserved":false,"is_disabled":false,"rental_uris":{"android":"levelo://app?vid=c59e1bd6-ece3-4e94-9308-3c08876ef280","ios":"levelo://app?vid=c59e1bd6-ece3-4e94-9308-3c08876ef280"},"vehicle_type_id":"4","last_reported":1778283899,"current_range_meters":4800,"station_id":"","pricing_plan_id":"cebpf4jnsgd1na2vs0mg"},{"bike_id":"0da4e297-632d-4596-b2f8-61beaff0fbb5","system_id":"levelo_inurba_marseille","lat":43.29576,"lon":5.3811,"is_reserved":false,"is_disabled":false,"rental_uris":{"android":"levelo://app?vid=0da4e297-632d-4596-b2f8-61beaff0fbb5","ios":"levelo://app?vid=0da4e297-632d-4596-b2f8-61beaff0fbb5"},"vehicle_type_id":"4","last_reported":1778283899,"current_range_meters":4800,"station_id":"ce4bgl12rcd13ifvqbo0","pricing_plan_id":"cebpf4jnsgd1na2vs0mg"},{"bike_id":"3cfd89cb-8f0d-40db-b8a0-6ce6f8ee63f5","system_id":"levelo_inurba_marseille","lat":43.28077,"lon":5.39651,"is_reserved":false,"is_disabled":false,"rental_uris":{"android":"levelo://app?vid=3cfd89cb-8f0d-40db-b8a0-6ce6f8ee63f5","ios":"levelo://app?vid=3cfd89cb-8f0d-40db-b8a0-6ce6f8ee63f5"},"vehicle_type_id":"4","last_reported":1778283899,"current_range_meters":4800,"station_id":"ce4bho12rcd13ifvqh2g","pricing_plan_id":"cebpf4jnsgd1na2vs0mg"},{"bike_id":"3122ba5c-241c-4b18-a8de-67da515b61a7","system_id":"levelo_inurba_marseille","lat":43.25572,"lon":5.38218,"is_reserved":false,"is_disabled":true,"rental_uris":{"android":"levelo://app?vid=3122ba5c-241c-4b18-a8de-67da515b61a7","ios":"levelo://app?vid=3122ba5c-241c-4b18-a8de-67da515b61a7"},"vehicle_type_id":"4","last_reported":1778283899,"current_range_meters":4800,"station_id":"ce4bhih2rcd13ifvqfs0","pricing_plan_id":"cebpf4jnsgd1na2vs0mg"},{"bike_id":"c115c8b6-b19e-449b-95a6-e5e87fcc567f","system_id":"levelo_inurba_marseille","lat":43.28156,"lon":5.42611,"is_reserved":false,"is_disabled":false,"rental_uris":{"android":"levelo://app?vid=c115c8b6-b19e-449b-95a6-e5e87fcc567f","ios":"levelo://app?vid=c115c8b6-b19e-449b-95a6-e5e87fcc567f"},"vehicle_type_id":"4","last_reported":1778283899,"current_range_meters":4800,"station_id":"ce4bhnh2rcd13ifvqgug","pricing_plan_id":"cebpf4jnsgd1na2vs0mg"},{"bike_id":"ff54a2e0-ff77-467c-9af1-ef595ab26714","system_id":"levelo_inurba_marseille","lat":43.24056,"lon":5.37778,"is_reserved":false,"is_disabled":false,"rental_uris":{"android":"levelo://app?vid=ff54a2e0-ff77-467c-9af1-ef595ab26714","ios":"levelo://app?vid=ff54a2e0-ff77-467c-9af1-ef595ab26714"},"vehicle_type_id":"4","last_reported":1778283899,"current_range_meters":4800,"station_id":"ce4bhnp2rcd13ifvqgvg","pricing_plan_id":"cebpf4jnsgd1na2vs0mg"},{"bike_id":"8cd38efa-d08a-454a-b907-b2a17c95ddcb","system_id":"levelo_inurba_marseille","lat":43.3018,"lon":5.36612,"is_reserved":false,"is_disabled":false,"rental_uris":{"android":"levelo://app?vid=8cd38efa-d08a-454a-b907-b2a17c95ddcb","ios":"levelo://app?vid=8cd38efa-d08a-454a-b907-b2a17c95ddcb"},"vehicle_type_id":"4","last_reported":1778283899,"current_range_meters":5600,"station_id":"ce4bgrh2rcd13ifvqc8g","pricing_plan_id":"cebpf4jnsgd1na2vs0mg"},{"bike_id":"1709f6c4-df38-4392-a22b-79877bea9f71","system_id":"levelo_inurba_marseille","lat":43.26249,"lon":5.39117,"is_reserved":false,"is_disabled":false,"rental_uris":{"android":"levelo://app?vid=1709f6c4-df38-4392-a22b-79877bea9f71","ios":"levelo://app?vid=1709f6c4-df38-4392-a22b-79877bea9f71"},"vehicle_type_id":"4","last_reported":1778283899,"current_range_meters":5600,"station_id":"","pricing_plan_id":"cebpf4jnsgd1na2vs0mg"},{"bike_id":"ac5248c1-4fa9-4b63-9686-5ac601b0f9b1","system_id":"levelo_inurba_marseille","lat":43.29909,"lon":5.37818,"is_reserved":false,"is_disabled":false,"rental_uris":{"android":"levelo://app?vid=ac5248c1-4fa9-4b63-9686-5ac601b0f9b1","ios":"levelo://app?vid=ac5248c1-4fa9-4b63-9686-5ac601b0f9b1"},"vehicle_type_id":"4","last_reported":1778283899,"current_range_meters":5600,"station_id":"","pricing_plan_id":"cebpf4jnsgd1na2vs0mg"},{"bike_id":"f9765471-797c-4251-b388-a11b5bbe30f0","system_id":"levelo_inurba_marseille","lat":43.33534,"lon":5.3746,"is_reserved":false,"is_disabled":false,"rental_uris":{"android":"levelo://app?vid=f9765471-797c-4251-b388-a11b5bbe30f0","ios":"levelo://app?vid=f9765471-797c-4251-b388-a11b5bbe30f0"},"vehicle_type_id":"4","last_reported":1778283899,"current_range_meters":5600,"station_id":"st_d46tts09ee8s73dlu43g","pricing_plan_id":"cebpf4jnsgd1na2vs0mg"},{"bike_id":"ff4d1d92-3c09-4393-bd19-a95497791c85","system_id":"levelo_inurba_marseille","lat":43.26582,"lon":5.38976,"is_reserved":false,"is_disabled":false,"rental_uris":{"android":"levelo://app?vid=ff4d1d92-3c09-4393-bd19-a95497791c85","ios":"levelo://app?vid=ff4d1d92-3c09-4393-bd19-a95497791c85"},"vehicle_type_id":"4","last_reported":1778283899,"current_range_meters":5600,"station_id":"ce4bhe12rcd13ifvqf30","pricing_plan_id":"cebpf4jnsgd1na2vs0mg"},{"bike_id":"78216b7a-e2cc-4e1a-a8a8-a8a2a337ad91","system_id":"levelo_inurba_marseille","lat":43.29198,"lon":5.40744,"is_reserved":false,"is_disabled":false,"rental_uris":{"android":"levelo://app?vid=78216b7a-e2cc-4e1a-a8a8-a8a2a337ad91","ios":"levelo://app?vid=78216b7a-e2cc-4e1a-a8a8-a8a2a337ad91"},"vehicle_type_id":"4","last_reported":1778283899,"current_range_meters":5600,"station_id":"","pricing_plan_id":"cebpf4jnsgd1na2vs0mg"},{"bike_id":"1f3e3ace-0660-4ade-829b-91970d9b07a1","system_id":"levelo_inurba_marseille","lat":43.28926,"lon":5.3838,"is_reserved":false,"is_disabled":false,"rental_uris":{"android":"levelo://app?vid=1f3e3ace-0660-4ade-829b-91970d9b07a1","ios":"levelo://app?vid=1f3e3ace-0660-4ade-829b-91970d9b07a1"},"vehicle_type_id":"4","last_reported":1778283899,"current_range_meters":5600,"station_id":"ce4bh612rcd13ifvqe6g","pricing_plan_id":"cebpf4jnsgd1na2vs0mg"},{"bike_id":"3056c84a-f614-437e-b41b-b1adbc616cfd","system_id":"levelo_inurba_marseille","lat":43.31887,"lon":5.36795,"is_reserved":false,"is_disabled":false,"rental_uris":{"android":"levelo://app?vid=3056c84a-f614-437e-b41b-b1adbc616cfd","ios":"levelo://app?vid=3056c84a-f614-437e-b41b-b1adbc616cfd"},"vehicle_type_id":"4","last_reported":1778283899,"current_range_meters":5600,"station_id":"st_d6o2h0d0559c73evc1b0","pricing_plan_id":"cebpf4jnsgd1na2vs0mg"},{"bike_id":"e744fd51-d53a-4993-92a1-3a6752e7a33c","system_id":"levelo_inurba_marseille","lat":43.32111,"lon":5.36767,"is_reserved":false,"is_disabled":false,"rental_uris":{"android":"levelo://app?vid=e744fd51-d53a-4993-92a1-3a6752e7a33c","ios":"levelo://app?vid=e744fd51-d53a-4993-92a1-3a6752e7a33c"},"vehicle_type_id":"4","last_reported":1778283899,"current_range_meters":5600,"station_id":"ce4bhrh2rcd13ifvqhug","pricing_plan_id":"cebpf4jnsgd1na2vs0mg"},{"bike_id":"d0ab7c4c-078c-4dfa-a2ca-4275c94406b8","system_id":"levelo_inurba_marseille","lat":43.30272,"lon":5.37703,"is_reserved":false,"is_disabled":false,"rental_uris":{"android":"levelo://app?vid=d0ab7c4c-078c-4dfa-a2ca-4275c94406b8","ios":"levelo://app?vid=d0ab7c4c-078c-4dfa-a2ca-4275c94406b8"},"vehicle_type_id":"4","last_reported":1778283899,"current_range_meters":5600,"station_id":"ce4bguh2rcd13ifvqcj0","pricing_plan_id":"cebpf4jnsgd1na2vs0mg"},{"bike_id":"758c8ce9-535b-4800-93d7-846bd85146e6","system_id":"levelo_inurba_marseille","lat":43.2495,"lon":5.40491,"is_reserved":false,"is_disabled":false,"rental_uris":{"android":"levelo://app?vid=758c8ce9-535b-4800-93d7-846bd85146e6","ios":"levelo://app?vid=758c8ce9-535b-4800-93d7-846bd85146e6"},"vehicle_type_id":"4","last_reported":1778283899,"current_range_meters":5600,"station_id":"st_d2ngiaodas8pm72gd1h0","pricing_plan_id":"cebpf4jnsgd1na2vs0mg"},{"bike_id":"4914e9ad-2671-4a20-a60d-4fb13fede2c7","system_id":"levelo_inurba_marseille","lat":43.26553,"lon":5.37307,"is_reserved":false,"is_disabled":false,"rental_uris":{"android":"levelo://app?vid=4914e9ad-2671-4a20-a60d-4fb13fede2c7","ios":"levelo://app?vid=4914e9ad-2671-4a20-a60d-4fb13fede2c7"},"vehicle_type_id":"4","last_reported":1778283899,"current_range_meters":6000,"station_id":"ce4bhg12rcd13ifvqf70","pricing_plan_id":"cebpf4jnsgd1na2vs0mg"},{"bike_id":"1443c9f0-139b-4d04-8945-c2db5286a83d","system_id":"levelo_inurba_marseille","lat":43.30616,"lon":5.37168,"is_reserved":false,"is_disabled":false,"rental_uris":{"android":"levelo://app?vid=1443c9f0-139b-4d04-8945-c2db5286a83d","ios":"levelo://app?vid=1443c9f0-139b-4d04-8945-c2db5286a83d"},"vehicle_type_id":"4","last_reported":1778283899,"current_range_meters":6000,"station_id":"ce4bgqh2rcd13ifvqc4g","pricing_plan_id":"cebpf4jnsgd1na2vs0mg"},{"bike_id":"271e283d-2f8c-4648-a622-26b7eba777d8","system_id":"levelo_inurba_marseille","lat":43.24826,"lon":5.37417,"is_reserved":false,"is_disabled":false,"rental_uris":{"android":"levelo://app?vid=271e283d-2f8c-4648-a622-26b7eba777d8","ios":"levelo://app?vid=271e283d-2f8c-4648-a622-26b7eba777d8"},"vehicle_type_id":"4","last_reported":1778283899,"current_range_meters":6000,"station_id":"ce4bhgh2rcd13ifvqfb0","pricing_plan_id":"cebpf4jnsgd1na2vs0mg"},{"bike_id":"5f06a8a1-2ff5-4ac3-a16d-8044e5eff3c8","system_id":"levelo_inurba_marseille","lat":43.23405,"lon":5.35979,"is_reserved":false,"is_disabled":false,"rental_uris":{"android":"levelo://app?vid=5f06a8a1-2ff5-4ac3-a16d-8044e5eff3c8","ios":"levelo://app?vid=5f06a8a1-2ff5-4ac3-a16d-8044e5eff3c8"},"vehicle_type_id":"4","last_reported":1778283899,"current_range_meters":6000,"station_id":"","pricing_plan_id":"cebpf4jnsgd1na2vs0mg"},{"bike_id":"d85df8c4-2a4c-4a0f-b116-b1d1c40ce681","system_id":"levelo_inurba_marseille","lat":43.265394,"lon":5.372973,"is_reserved":false,"is_disabled":false,"rental_uris":{"android":"levelo://app?vid=d85df8c4-2a4c-4a0f-b116-b1d1c40ce681","ios":"levelo://app?vid=d85df8c4-2a4c-4a0f-b116-b1d1c40ce681"},"vehicle_type_id":"4","last_reported":1778283899,"current_range_meters":6000,"station_id":"ce4bhg12rcd13ifvqf70","pricing_plan_id":"cebpf4jnsgd1na2vs0mg"},{"bike_id":"b5222300-2948-4a44-97d7-1d2453cfc7ea","system_id":"levelo_inurba_marseille","lat":43.24306,"lon":5.37153,"is_reserved":false,"is_disabled":false,"rental_uris":{"android":"levelo://app?vid=b5222300-2948-4a44-97d7-1d2453cfc7ea","ios":"levelo://app?vid=b5222300-2948-4a44-97d7-1d2453cfc7ea"},"vehicle_type_id":"4","last_reported":1778283899,"current_range_meters":6000,"station_id":"","pricing_plan_id":"cebpf4jnsgd1na2vs0mg"},{"bike_id":"28591a20-c550-4108-9263-49d1bdca52ed","system_id":"levelo_inurba_marseille","lat":43.28473,"lon":5.48386,"is_reserved":false,"is_disabled":false,"rental_uris":{"android":"levelo://app?vid=28591a20-c550-4108-9263-49d1bdca52ed","ios":"levelo://app?vid=28591a20-c550-4108-9263-49d1bdca52ed"},"vehicle_type_id":"4","last_reported":1778283899,"current_range_meters":6000,"station_id":"","pricing_plan_id":"cebpf4jnsgd1na2vs0mg"},{"bike_id":"bc4dd8e3-cbe0-4f07-a20e-5f98922252e8","system_id":"levelo_inurba_marseille","lat":43.25088,"lon":5.3951,"is_reserved":false,"is_disabled":false,"rental_uris":{"android":"levelo://app?vid=bc4dd8e3-cbe0-4f07-a20e-5f98922252e8","ios":"levelo://app?vid=bc4dd8e3-cbe0-4f07-a20e-5f98922252e8"},"vehicle_type_id":"4","last_reported":1778283899,"current_range_meters":6000,"station_id":"ce4bhm12rcd13ifvqgkg","pricing_plan_id":"cebpf4jnsgd1na2vs0mg"},{"bike_id":"06ab7e03-6cc1-4519-8625-3652421fe315","system_id":"levelo_inurba_marseille","lat":43.33157,"lon":5.37692,"is_reserved":false,"is_disabled":false,"rental_uris":{"android":"levelo://app?vid=06ab7e03-6cc1-4519-8625-3652421fe315","ios":"levelo://app?vid=06ab7e03-6cc1-4519-8625-3652421fe315"},"vehicle_type_id":"4","last_reported":1778283899,"current_range_meters":6000,"station_id":"st_d46cu089ee8s73dldbu0","pricing_plan_id":"cebpf4jnsgd1na2vs0mg"},{"bike_id":"9a3140d6-e3fa-492e-8460-9c6f22636700","system_id":"levelo_inurba_marseille","lat":43.31355,"lon":5.39956,"is_reserved":false,"is_disabled":false,"rental_uris":{"android":"levelo://app?vid=9a3140d6-e3fa-492e-8460-9c6f22636700","ios":"levelo://app?vid=9a3140d6-e3fa-492e-8460-9c6f22636700"},"vehicle_type_id":"4","last_reported":1778283899,"current_range_meters":6000,"station_id":"","pricing_plan_id":"cebpf4jnsgd1na2vs0mg"},{"bike_id":"940c94d8-ff98-4e0f-9908-14dde4b31f90","system_id":"levelo_inurba_marseille","lat":43.30794,"lon":5.38112,"is_reserved":false,"is_disabled":false,"rental_uris":{"android":"levelo://app?vid=940c94d8-ff98-4e0f-9908-14dde4b31f90","ios":"levelo://app?vid=940c94d8-ff98-4e0f-9908-14dde4b31f90"},"vehicle_type_id":"4","last_reported":1778283899,"current_range_meters":6000,"station_id":"ce4bgt12rcd13ifvqce0","pricing_plan_id":"cebpf4jnsgd1na2vs0mg"},{"bike_id":"9f135140-bc51-471a-99ba-2c149cd74964","system_id":"levelo_inurba_marseille","lat":43.24539,"lon":5.39528,"is_reserved":false,"is_disabled":false,"rental_uris":{"android":"levelo://app?vid=9f135140-bc51-471a-99ba-2c149cd74964","ios":"levelo://app?vid=9f135140-bc51-471a-99ba-2c149cd74964"},"vehicle_type_id":"4","last_reported":1778283899,"current_range_meters":6000,"station_id":"ce4bhlp2rcd13ifvqgjg","pricing_plan_id":"cebpf4jnsgd1na2vs0mg"},{"bike_id":"2ca1200b-d2cd-4f07-b6c3-a694118821f9","system_id":"levelo_inurba_marseille","lat":43.29915,"lon":5.37471,"is_reserved":false,"is_disabled":false,"rental_uris":{"android":"levelo://app?vid=2ca1200b-d2cd-4f07-b6c3-a694118821f9","ios":"levelo://app?vid=2ca1200b-d2cd-4f07-b6c3-a694118821f9"},"vehicle_type_id":"4","last_reported":1778283899,"current_range_meters":6000,"station_id":"ce4bgjh2rcd13ifvqbg0","pricing_plan_id":"cebpf4jnsgd1na2vs0mg"},{"bike_id":"621ef308-33a9-4a52-9e82-b4966d1a8f8d","system_id":"levelo_inurba_marseille","lat":43.28727,"lon":5.39999,"is_reserved":false,"is_disabled":true,"rental_uris":{"android":"levelo://app?vid=621ef308-33a9-4a52-9e82-b4966d1a8f8d","ios":"levelo://app?vid=621ef308-33a9-4a52-9e82-b4966d1a8f8d"},"vehicle_type_id":"4","last_reported":1778283899,"current_range_meters":6000,"station_id":"ce4bho92rcd13ifvqh3g","pricing_plan_id":"cebpf4jnsgd1na2vs0mg"},{"bike_id":"b2294491-b091-4f21-a219-0d82de5f39e6","system_id":"levelo_inurba_marseille","lat":43.28932,"lon":5.36622,"is_reserved":false,"is_disabled":false,"rental_uris":{"android":"levelo://app?vid=b2294491-b091-4f21-a219-0d82de5f39e6","ios":"levelo://app?vid=b2294491-b091-4f21-a219-0d82de5f39e6"},"vehicle_type_id":"4","last_reported":1778283899,"current_range_meters":6000,"station_id":"ce4bhap2rcd13ifvqek0","pricing_plan_id":"cebpf4jnsgd1na2vs0mg"},{"bike_id":"7d6e83f9-235f-4895-aea5-62b0c5201dff","system_id":"levelo_inurba_marseille","lat":43.29882,"lon":5.37481,"is_reserved":false,"is_disabled":false,"rental_uris":{"android":"levelo://app?vid=7d6e83f9-235f-4895-aea5-62b0c5201dff","ios":"levelo://app?vid=7d6e83f9-235f-4895-aea5-62b0c5201dff"},"vehicle_type_id":"4","last_reported":1778283899,"current_range_meters":6000,"station_id":"ce4bgjh2rcd13ifvqbg0","pricing_plan_id":"cebpf4jnsgd1na2vs0mg"},{"bike_id":"bfb0916e-2b00-499b-8dce-6828f49a497a","system_id":"levelo_inurba_marseille","lat":43.2509,"lon":5.39515,"is_reserved":false,"is_disabled":false,"rental_uris":{"android":"levelo://app?vid=bfb0916e-2b00-499b-8dce-6828f49a497a","ios":"levelo://app?vid=bfb0916e-2b00-499b-8dce-6828f49a497a"},"vehicle_type_id":"4","last_reported":1778283899,"current_range_meters":6000,"station_id":"ce4bhm12rcd13ifvqgkg","pricing_plan_id":"cebpf4jnsgd1na2vs0mg"},{"bike_id":"8cd9cdae-ca50-4160-9401-a463368603f2","system_id":"levelo_inurba_marseille","lat":43.31323,"lon":5.39722,"is_reserved":false,"is_disabled":false,"rental_uris":{"android":"levelo://app?vid=8cd9cdae-ca50-4160-9401-a463368603f2","ios":"levelo://app?vid=8cd9cdae-ca50-4160-9401-a463368603f2"},"vehicle_type_id":"4","last_reported":1778283899,"current_range_meters":6000,"station_id":"ce4bgvp2rcd13ifvqcu0","pricing_plan_id":"cebpf4jnsgd1na2vs0mg"},{"bike_id":"732c0c1a-7580-499b-b696-db1b4d6a345c","system_id":"levelo_inurba_marseille","lat":43.314615,"lon":5.37376,"is_reserved":false,"is_disabled":false,"rental_uris":{"android":"levelo://app?vid=732c0c1a-7580-499b-b696-db1b4d6a345c","ios":"levelo://app?vid=732c0c1a-7580-499b-b696-db1b4d6a345c"},"vehicle_type_id":"4","last_reported":1778283899,"current_range_meters":6000,"station_id":"","pricing_plan_id":"cebpf4jnsgd1na2vs0mg"},{"bike_id":"c81f80a9-bccf-42c4-90d3-496a1498aeb7","system_id":"levelo_inurba_marseille","lat":43.26001,"lon":5.37635,"is_reserved":false,"is_disabled":true,"rental_uris":{"android":"levelo://app?vid=c81f80a9-bccf-42c4-90d3-496a1498aeb7","ios":"levelo://app?vid=c81f80a9-bccf-42c4-90d3-496a1498aeb7"},"vehicle_type_id":"4","last_reported":1778283899,"current_range_meters":6000,"station_id":"","pricing_plan_id":"cebpf4jnsgd1na2vs0mg"},{"bike_id":"8bd3ae88-471d-4238-9dfc-c1af1fca006a","system_id":"levelo_inurba_marseille","lat":43.29208,"lon":5.38408,"is_reserved":false,"is_disabled":true,"rental_uris":{"android":"levelo://app?vid=8bd3ae88-471d-4238-9dfc-c1af1fca006a","ios":"levelo://app?vid=8bd3ae88-471d-4238-9dfc-c1af1fca006a"},"vehicle_type_id":"4","last_reported":1778283899,"current_range_meters":6000,"station_id":"","pricing_plan_id":"cebpf4jnsgd1na2vs0mg"},{"bike_id":"48a3f40b-b41c-45ee-82b8-00b871da13dc","system_id":"levelo_inurba_marseille","lat":43.26555,"lon":5.40329,"is_reserved":false,"is_disabled":false,"rental_uris":{"android":"levelo://app?vid=48a3f40b-b41c-45ee-82b8-00b871da13dc","ios":"levelo://app?vid=48a3f40b-b41c-45ee-82b8-00b871da13dc"},"vehicle_type_id":"4","last_reported":1778283899,"current_range_meters":6400,"station_id":"ce4bhmp2rcd13ifvqgng","pricing_plan_id":"cebpf4jnsgd1na2vs0mg"},{"bike_id":"e84a663b-feb3-4e68-ae50-be27e6b7d8af","system_id":"levelo_inurba_marseille","lat":43.29601,"lon":5.38103,"is_reserved":false,"is_disabled":false,"rental_uris":{"android":"levelo://app?vid=e84a663b-feb3-4e68-ae50-be27e6b7d8af","ios":"levelo://app?vid=e84a663b-feb3-4e68-ae50-be27e6b7d8af"},"vehicle_type_id":"4","last_reported":1778283899,"current_range_meters":6400,"station_id":"ce4bgl12rcd13ifvqbo0","pricing_plan_id":"cebpf4jnsgd1na2vs0mg"},{"bike_id":"c8ac96d0-ef16-4c8c-a940-b886f6e1a598","system_id":"levelo_inurba_marseille","lat":43.29019,"lon":5.386,"is_reserved":false,"is_disabled":false,"rental_uris":{"android":"levelo://app?vid=c8ac96d0-ef16-4c8c-a940-b886f6e1a598","ios":"levelo://app?vid=c8ac96d0-ef16-4c8c-a940-b886f6e1a598"},"vehicle_type_id":"4","last_reported":1778283899,"current_range_meters":6400,"station_id":"ce4bh4p2rcd13ifvqe0g","pricing_plan_id":"cebpf4jnsgd1na2vs0mg"},{"bike_id":"4b65741e-5ed9-4da8-8620-3a00f88659d6","system_id":"levelo_inurba_marseille","lat":43.28476,"lon":5.48394,"is_reserved":false,"is_disabled":false,"rental_uris":{"android":"levelo://app?vid=4b65741e-5ed9-4da8-8620-3a00f88659d6","ios":"levelo://app?vid=4b65741e-5ed9-4da8-8620-3a00f88659d6"},"vehicle_type_id":"4","last_reported":1778283899,"current_range_meters":6400,"station_id":"","pricing_plan_id":"cebpf4jnsgd1na2vs0mg"},{"bike_id":"37998d8c-8065-4b38-b75b-e58f03489059","system_id":"levelo_inurba_marseille","lat":43.2975,"lon":5.3711,"is_reserved":false,"is_disabled":true,"rental_uris":{"android":"levelo://app?vid=37998d8c-8065-4b38-b75b-e58f03489059","ios":"levelo://app?vid=37998d8c-8065-4b38-b75b-e58f03489059"},"vehicle_type_id":"4","last_reported":1778283899,"current_range_meters":6400,"station_id":"ce4bgop2rcd13ifvqc1g","pricing_plan_id":"cebpf4jnsgd1na2vs0mg"},{"bike_id":"a35ae0e4-76a9-41eb-9a5e-26ec5e80290c","system_id":"levelo_inurba_marseille","lat":43.28715,"lon":5.36105,"is_reserved":false,"is_disabled":true,"rental_uris":{"android":"levelo://app?vid=a35ae0e4-76a9-41eb-9a5e-26ec5e80290c","ios":"levelo://app?vid=a35ae0e4-76a9-41eb-9a5e-26ec5e80290c"},"vehicle_type_id":"4","last_reported":1778283899,"current_range_meters":6400,"station_id":"cki0cbj6b192h4jlfktg","pricing_plan_id":"cebpf4jnsgd1na2vs0mg"},{"bike_id":"00f07616-d550-4224-bad4-4b031ab0edc8","system_id":"levelo_inurba_marseille","lat":43.24727,"lon":5.40089,"is_reserved":false,"is_disabled":false,"rental_uris":{"android":"levelo://app?vid=00f07616-d550-4224-bad4-4b031ab0edc8","ios":"levelo://app?vid=00f07616-d550-4224-bad4-4b031ab0edc8"},"vehicle_type_id":"4","last_reported":1778283899,"current_range_meters":6400,"station_id":"","pricing_plan_id":"cebpf4jnsgd1na2vs0mg"},{"bike_id":"3529ab88-c139-4f1b-9bd8-eff637a56844","system_id":"levelo_inurba_marseille","lat":43.25415,"lon":5.41502,"is_reserved":false,"is_disabled":false,"rental_uris":{"android":"levelo://app?vid=3529ab88-c139-4f1b-9bd8-eff637a56844","ios":"levelo://app?vid=3529ab88-c139-4f1b-9bd8-eff637a56844"},"vehicle_type_id":"4","last_reported":1778283899,"current_range_meters":6400,"station_id":"","pricing_plan_id":"cebpf4jnsgd1na2vs0mg"},{"bike_id":"c1a97594-c328-414c-a4af-a7778a5a6311","system_id":"levelo_inurba_marseille","lat":43.27321,"lon":5.39077,"is_reserved":false,"is_disabled":false,"rental_uris":{"android":"levelo://app?vid=c1a97594-c328-414c-a4af-a7778a5a6311","ios":"levelo://app?vid=c1a97594-c328-414c-a4af-a7778a5a6311"},"vehicle_type_id":"4","last_reported":1778283899,"current_range_meters":6400,"station_id":"ce4bhgp2rcd13ifvqfe0","pricing_plan_id":"cebpf4jnsgd1na2vs0mg"},{"bike_id":"98bef945-3165-4b80-9af1-9bac2a9ad948","system_id":"levelo_inurba_marseille","lat":43.24043,"lon":5.37768,"is_reserved":false,"is_disabled":false,"rental_uris":{"android":"levelo://app?vid=98bef945-3165-4b80-9af1-9bac2a9ad948","ios":"levelo://app?vid=98bef945-3165-4b80-9af1-9bac2a9ad948"},"vehicle_type_id":"4","last_reported":1778283899,"current_range_meters":6400,"station_id":"ce4bhnp2rcd13ifvqgvg","pricing_plan_id":"cebpf4jnsgd1na2vs0mg"},{"bike_id":"cbc65248-03cc-4144-a0cb-baf3e5a8f89e","system_id":"levelo_inurba_marseille","lat":43.29892,"lon":5.39747,"is_reserved":false,"is_disabled":false,"rental_uris":{"android":"levelo://app?vid=cbc65248-03cc-4144-a0cb-baf3e5a8f89e","ios":"levelo://app?vid=cbc65248-03cc-4144-a0cb-baf3e5a8f89e"},"vehicle_type_id":"4","last_reported":1778283899,"current_range_meters":6400,"station_id":"ce4bh0h2rcd13ifvqd50","pricing_plan_id":"cebpf4jnsgd1na2vs0mg"},{"bike_id":"f986817d-6392-43f8-9ac4-27c0873d810e","system_id":"levelo_inurba_marseille","lat":43.24791,"lon":5.37457,"is_reserved":false,"is_disabled":false,"rental_uris":{"android":"levelo://app?vid=f986817d-6392-43f8-9ac4-27c0873d810e","ios":"levelo://app?vid=f986817d-6392-43f8-9ac4-27c0873d810e"},"vehicle_type_id":"4","last_reported":1778283899,"current_range_meters":6800,"station_id":"ce4bhgh2rcd13ifvqfb0","pricing_plan_id":"cebpf4jnsgd1na2vs0mg"},{"bike_id":"05ea95a4-cd67-4fc1-a218-6926df79c21d","system_id":"levelo_inurba_marseille","lat":43.31075,"lon":5.37796,"is_reserved":false,"is_disabled":false,"rental_uris":{"android":"levelo://app?vid=05ea95a4-cd67-4fc1-a218-6926df79c21d","ios":"levelo://app?vid=05ea95a4-cd67-4fc1-a218-6926df79c21d"},"vehicle_type_id":"4","last_reported":1778283899,"current_range_meters":6800,"station_id":"ce4bgt92rcd13ifvqcg0","pricing_plan_id":"cebpf4jnsgd1na2vs0mg"},{"bike_id":"8ce2f59a-c064-48f7-99d1-c1f6d8b2f7e2","system_id":"levelo_inurba_marseille","lat":43.29475,"lon":5.43303,"is_reserved":false,"is_disabled":false,"rental_uris":{"android":"levelo://app?vid=8ce2f59a-c064-48f7-99d1-c1f6d8b2f7e2","ios":"levelo://app?vid=8ce2f59a-c064-48f7-99d1-c1f6d8b2f7e2"},"vehicle_type_id":"4","last_reported":1778283899,"current_range_meters":6800,"station_id":"st_d3j5ugp08ojc73fj9d10","pricing_plan_id":"cebpf4jnsgd1na2vs0mg"},{"bike_id":"6452db2c-1182-4afc-94bd-93e76ac56d68","system_id":"levelo_inurba_marseille","lat":43.27068,"lon":5.42256,"is_reserved":false,"is_disabled":false,"rental_uris":{"android":"levelo://app?vid=6452db2c-1182-4afc-94bd-93e76ac56d68","ios":"levelo://app?vid=6452db2c-1182-4afc-94bd-93e76ac56d68"},"vehicle_type_id":"4","last_reported":1778283899,"current_range_meters":6800,"station_id":"ce4bhk92rcd13ifvqgb0","pricing_plan_id":"cebpf4jnsgd1na2vs0mg"},{"bike_id":"894cda9e-9123-496e-85d4-3eb0f38b46f7","system_id":"levelo_inurba_marseille","lat":43.29879,"lon":5.39721,"is_reserved":false,"is_disabled":false,"rental_uris":{"android":"levelo://app?vid=894cda9e-9123-496e-85d4-3eb0f38b46f7","ios":"levelo://app?vid=894cda9e-9123-496e-85d4-3eb0f38b46f7"},"vehicle_type_id":"4","last_reported":1778283899,"current_range_meters":6800,"station_id":"ce4bh0h2rcd13ifvqd50","pricing_plan_id":"cebpf4jnsgd1na2vs0mg"},{"bike_id":"025be5e0-0c74-454f-99f9-781faca9cdbe","system_id":"levelo_inurba_marseille","lat":43.29776,"lon":5.38075,"is_reserved":false,"is_disabled":true,"rental_uris":{"android":"levelo://app?vid=025be5e0-0c74-454f-99f9-781faca9cdbe","ios":"levelo://app?vid=025be5e0-0c74-454f-99f9-781faca9cdbe"},"vehicle_type_id":"4","last_reported":1778283899,"current_range_meters":6800,"station_id":"ce4bgip2rcd13ifvqbb0","pricing_plan_id":"cebpf4jnsgd1na2vs0mg"},{"bike_id":"cb282319-8aa6-401e-804e-440fe6c1c801","system_id":"levelo_inurba_marseille","lat":43.26208,"lon":5.40447,"is_reserved":false,"is_disabled":false,"rental_uris":{"android":"levelo://app?vid=cb282319-8aa6-401e-804e-440fe6c1c801","ios":"levelo://app?vid=cb282319-8aa6-401e-804e-440fe6c1c801"},"vehicle_type_id":"4","last_reported":1778283899,"current_range_meters":6800,"station_id":"ce4bhmh2rcd13ifvqgmg","pricing_plan_id":"cebpf4jnsgd1na2vs0mg"},{"bike_id":"ce6d5dbc-0b80-4f3a-abfd-d46149cf65d1","system_id":"levelo_inurba_marseille","lat":43.29883,"lon":5.3745,"is_reserved":false,"is_disabled":false,"rental_uris":{"android":"levelo://app?vid=ce6d5dbc-0b80-4f3a-abfd-d46149cf65d1","ios":"levelo://app?vid=ce6d5dbc-0b80-4f3a-abfd-d46149cf65d1"},"vehicle_type_id":"4","last_reported":1778283899,"current_range_meters":6800,"station_id":"","pricing_plan_id":"cebpf4jnsgd1na2vs0mg"},{"bike_id":"7b416787-800a-4e18-b782-4ef145ce6930","system_id":"levelo_inurba_marseille","lat":43.27955,"lon":5.38643,"is_reserved":false,"is_disabled":false,"rental_uris":{"android":"levelo://app?vid=7b416787-800a-4e18-b782-4ef145ce6930","ios":"levelo://app?vid=7b416787-800a-4e18-b782-4ef145ce6930"},"vehicle_type_id":"4","last_reported":1778283899,"current_range_meters":6800,"station_id":"","pricing_plan_id":"cebpf4jnsgd1na2vs0mg"},{"bike_id":"fe33cc1b-973a-4526-9664-2fa5496a4cb0","system_id":"levelo_inurba_marseille","lat":43.29553,"lon":5.40678,"is_reserved":false,"is_disabled":false,"rental_uris":{"android":"levelo://app?vid=fe33cc1b-973a-4526-9664-2fa5496a4cb0","ios":"levelo://app?vid=fe33cc1b-973a-4526-9664-2fa5496a4cb0"},"vehicle_type_id":"4","last_reported":1778283899,"current_range_meters":6800,"station_id":"","pricing_plan_id":"cebpf4jnsgd1na2vs0mg"},{"bike_id":"92d8cae8-0473-4899-be1e-93473a352b40","system_id":"levelo_inurba_marseille","lat":43.30253,"lon":5.40079,"is_reserved":false,"is_disabled":false,"rental_uris":{"android":"levelo://app?vid=92d8cae8-0473-4899-be1e-93473a352b40","ios":"levelo://app?vid=92d8cae8-0473-4899-be1e-93473a352b40"},"vehicle_type_id":"4","last_reported":1778283899,"current_range_meters":6800,"station_id":"ce4bgvh2rcd13ifvqcs0","pricing_plan_id":"cebpf4jnsgd1na2vs0mg"},{"bike_id":"c081e2e6-b6d3-466f-b56c-4844cab8d639","system_id":"levelo_inurba_marseille","lat":43.23787,"lon":5.41444,"is_reserved":false,"is_disabled":false,"rental_uris":{"android":"levelo://app?vid=c081e2e6-b6d3-466f-b56c-4844cab8d639","ios":"levelo://app?vid=c081e2e6-b6d3-466f-b56c-4844cab8d639"},"vehicle_type_id":"4","last_reported":1778283899,"current_range_meters":6800,"station_id":"","pricing_plan_id":"cebpf4jnsgd1na2vs0mg"},{"bike_id":"8eea14e8-81f9-450a-9f42-646e56a018e2","system_id":"levelo_inurba_marseille","lat":43.28865,"lon":5.42577,"is_reserved":false,"is_disabled":true,"rental_uris":{"android":"levelo://app?vid=8eea14e8-81f9-450a-9f42-646e56a018e2","ios":"levelo://app?vid=8eea14e8-81f9-450a-9f42-646e56a018e2"},"vehicle_type_id":"4","last_reported":1778283899,"current_range_meters":6800,"station_id":"st_d3b462108ojc7389ooeg","pricing_plan_id":"cebpf4jnsgd1na2vs0mg"},{"bike_id":"fa833790-fea7-4b87-ab01-22a9071ab066","system_id":"levelo_inurba_marseille","lat":43.28471,"lon":5.484,"is_reserved":false,"is_disabled":false,"rental_uris":{"android":"levelo://app?vid=fa833790-fea7-4b87-ab01-22a9071ab066","ios":"levelo://app?vid=fa833790-fea7-4b87-ab01-22a9071ab066"},"vehicle_type_id":"4","last_reported":1778283899,"current_range_meters":6800,"station_id":"st_d3svhcjqgbts73a3dn0g","pricing_plan_id":"cebpf4jnsgd1na2vs0mg"},{"bike_id":"95489a07-b280-4aea-935b-70fc8cc33653","system_id":"levelo_inurba_marseille","lat":43.21743,"lon":5.34604,"is_reserved":false,"is_disabled":true,"rental_uris":{"android":"levelo://app?vid=95489a07-b280-4aea-935b-70fc8cc33653","ios":"levelo://app?vid=95489a07-b280-4aea-935b-70fc8cc33653"},"vehicle_type_id":"4","last_reported":1778283899,"current_range_meters":6800,"station_id":"st_cvj6r9ubvosntc0bgbag","pricing_plan_id":"cebpf4jnsgd1na2vs0mg"},{"bike_id":"5fc85a70-cd51-491b-a363-a46b0850da15","system_id":"levelo_inurba_marseille","lat":43.32908,"lon":5.3668,"is_reserved":false,"is_disabled":false,"rental_uris":{"android":"levelo://app?vid=5fc85a70-cd51-491b-a363-a46b0850da15","ios":"levelo://app?vid=5fc85a70-cd51-491b-a363-a46b0850da15"},"vehicle_type_id":"4","last_reported":1778283899,"current_range_meters":6800,"station_id":"","pricing_plan_id":"cebpf4jnsgd1na2vs0mg"},{"bike_id":"13b1bcc7-e9d8-48b8-a72f-6d1f9d17e51d","system_id":"levelo_inurba_marseille","lat":43.24897,"lon":5.38953,"is_reserved":false,"is_disabled":false,"rental_uris":{"android":"levelo://app?vid=13b1bcc7-e9d8-48b8-a72f-6d1f9d17e51d","ios":"levelo://app?vid=13b1bcc7-e9d8-48b8-a72f-6d1f9d17e51d"},"vehicle_type_id":"4","last_reported":1778283899,"current_range_meters":6800,"station_id":"","pricing_plan_id":"cebpf4jnsgd1na2vs0mg"},{"bike_id":"29b7ea2f-eeee-48a2-82f2-1c3812aae014","system_id":"levelo_inurba_marseille","lat":43.30298,"lon":5.36892,"is_reserved":false,"is_disabled":false,"rental_uris":{"android":"levelo://app?vid=29b7ea2f-eeee-48a2-82f2-1c3812aae014","ios":"levelo://app?vid=29b7ea2f-eeee-48a2-82f2-1c3812aae014"},"vehicle_type_id":"4","last_reported":1778283899,"current_range_meters":6800,"station_id":"ce4bgqh2rcd13ifvqc5g","pricing_plan_id":"cebpf4jnsgd1na2vs0mg"},{"bike_id":"5b17b337-4e55-486b-b310-212b10614e57","system_id":"levelo_inurba_marseille","lat":43.32343,"lon":5.3673,"is_reserved":false,"is_disabled":false,"rental_uris":{"android":"levelo://app?vid=5b17b337-4e55-486b-b310-212b10614e57","ios":"levelo://app?vid=5b17b337-4e55-486b-b310-212b10614e57"},"vehicle_type_id":"4","last_reported":1778283899,"current_range_meters":6800,"station_id":"ce4bhsh2rcd13ifvqi2g","pricing_plan_id":"cebpf4jnsgd1na2vs0mg"},{"bike_id":"c0537e4f-b6e6-4613-829c-d3ab2e31740e","system_id":"levelo_inurba_marseille","lat":43.27061,"lon":5.42283,"is_reserved":false,"is_disabled":false,"rental_uris":{"android":"levelo://app?vid=c0537e4f-b6e6-4613-829c-d3ab2e31740e","ios":"levelo://app?vid=c0537e4f-b6e6-4613-829c-d3ab2e31740e"},"vehicle_type_id":"4","last_reported":1778283899,"current_range_meters":6800,"station_id":"ce4bhk92rcd13ifvqgb0","pricing_plan_id":"cebpf4jnsgd1na2vs0mg"},{"bike_id":"c98331c2-38ef-4684-ad8e-ccd8810effee","system_id":"levelo_inurba_marseille","lat":43.31116,"lon":5.37781,"is_reserved":false,"is_disabled":false,"rental_uris":{"android":"levelo://app?vid=c98331c2-38ef-4684-ad8e-ccd8810effee","ios":"levelo://app?vid=c98331c2-38ef-4684-ad8e-ccd8810effee"},"vehicle_type_id":"4","last_reported":1778283899,"current_range_meters":6800,"station_id":"ce4bgt92rcd13ifvqcg0","pricing_plan_id":"cebpf4jnsgd1na2vs0mg"},{"bike_id":"b5622673-ca18-43ad-8c54-f6790dd6d5ec","system_id":"levelo_inurba_marseille","lat":43.3068,"lon":5.37036,"is_reserved":false,"is_disabled":false,"rental_uris":{"android":"levelo://app?vid=b5622673-ca18-43ad-8c54-f6790dd6d5ec","ios":"levelo://app?vid=b5622673-ca18-43ad-8c54-f6790dd6d5ec"},"vehicle_type_id":"4","last_reported":1778283899,"current_range_meters":6800,"station_id":"","pricing_plan_id":"cebpf4jnsgd1na2vs0mg"},{"bike_id":"4adab041-9f44-4793-9f5f-5a30aefef920","system_id":"levelo_inurba_marseille","lat":43.28639,"lon":5.39865,"is_reserved":false,"is_disabled":false,"rental_uris":{"android":"levelo://app?vid=4adab041-9f44-4793-9f5f-5a30aefef920","ios":"levelo://app?vid=4adab041-9f44-4793-9f5f-5a30aefef920"},"vehicle_type_id":"4","last_reported":1778283899,"current_range_meters":6800,"station_id":"st_d4a7ka997mjs738ck50g","pricing_plan_id":"cebpf4jnsgd1na2vs0mg"},{"bike_id":"a1519436-19c1-429e-984e-3339bca9e7af","system_id":"levelo_inurba_marseille","lat":43.29002,"lon":5.38605,"is_reserved":false,"is_disabled":false,"rental_uris":{"android":"levelo://app?vid=a1519436-19c1-429e-984e-3339bca9e7af","ios":"levelo://app?vid=a1519436-19c1-429e-984e-3339bca9e7af"},"vehicle_type_id":"4","last_reported":1778283899,"current_range_meters":6800,"station_id":"ce4bh4p2rcd13ifvqe0g","pricing_plan_id":"cebpf4jnsgd1na2vs0mg"},{"bike_id":"2eff6c3c-b3c7-4f79-9177-294eb1d510e0","system_id":"levelo_inurba_marseille","lat":43.21182,"lon":5.35025,"is_reserved":false,"is_disabled":false,"rental_uris":{"android":"levelo://app?vid=2eff6c3c-b3c7-4f79-9177-294eb1d510e0","ios":"levelo://app?vid=2eff6c3c-b3c7-4f79-9177-294eb1d510e0"},"vehicle_type_id":"4","last_reported":1778283899,"current_range_meters":6800,"station_id":"","pricing_plan_id":"cebpf4jnsgd1na2vs0mg"},{"bike_id":"feecb4be-b14f-4f21-b0cd-b401783be40f","system_id":"levelo_inurba_marseille","lat":43.27942,"lon":5.41014,"is_reserved":false,"is_disabled":false,"rental_uris":{"android":"levelo://app?vid=feecb4be-b14f-4f21-b0cd-b401783be40f","ios":"levelo://app?vid=feecb4be-b14f-4f21-b0cd-b401783be40f"},"vehicle_type_id":"4","last_reported":1778283899,"current_range_meters":6800,"station_id":"ce4bhnp2rcd13ifvqh0g","pricing_plan_id":"cebpf4jnsgd1na2vs0mg"},{"bike_id":"338578b3-d500-4475-89bc-43f6d832f4c5","system_id":"levelo_inurba_marseille","lat":43.248064,"lon":5.374581,"is_reserved":false,"is_disabled":false,"rental_uris":{"android":"levelo://app?vid=338578b3-d500-4475-89bc-43f6d832f4c5","ios":"levelo://app?vid=338578b3-d500-4475-89bc-43f6d832f4c5"},"vehicle_type_id":"4","last_reported":1778283899,"current_range_meters":7200,"station_id":"ce4bhgh2rcd13ifvqfb0","pricing_plan_id":"cebpf4jnsgd1na2vs0mg"},{"bike_id":"240f83cd-e330-45fb-9f58-4a13270cfff0","system_id":"levelo_inurba_marseille","lat":43.2816,"lon":5.42654,"is_reserved":false,"is_disabled":false,"rental_uris":{"android":"levelo://app?vid=240f83cd-e330-45fb-9f58-4a13270cfff0","ios":"levelo://app?vid=240f83cd-e330-45fb-9f58-4a13270cfff0"},"vehicle_type_id":"4","last_reported":1778283899,"current_range_meters":7200,"station_id":"ce4bhnh2rcd13ifvqgug","pricing_plan_id":"cebpf4jnsgd1na2vs0mg"},{"bike_id":"b9cf5b87-574a-4a38-90c7-8cc551306206","system_id":"levelo_inurba_marseille","lat":43.31129,"lon":5.37743,"is_reserved":false,"is_disabled":false,"rental_uris":{"android":"levelo://app?vid=b9cf5b87-574a-4a38-90c7-8cc551306206","ios":"levelo://app?vid=b9cf5b87-574a-4a38-90c7-8cc551306206"},"vehicle_type_id":"4","last_reported":1778283899,"current_range_meters":7200,"station_id":"ce4bgt92rcd13ifvqcg0","pricing_plan_id":"cebpf4jnsgd1na2vs0mg"},{"bike_id":"7c56137a-05b5-47d0-b192-873a2f490371","system_id":"levelo_inurba_marseille","lat":43.24345,"lon":5.371,"is_reserved":false,"is_disabled":false,"rental_uris":{"android":"levelo://app?vid=7c56137a-05b5-47d0-b192-873a2f490371","ios":"levelo://app?vid=7c56137a-05b5-47d0-b192-873a2f490371"},"vehicle_type_id":"4","last_reported":1778283899,"current_range_meters":7200,"station_id":"","pricing_plan_id":"cebpf4jnsgd1na2vs0mg"},{"bike_id":"82f907ec-863d-443b-9a33-e018df21131b","system_id":"levelo_inurba_marseille","lat":43.27958,"lon":5.38681,"is_reserved":false,"is_disabled":false,"rental_uris":{"android":"levelo://app?vid=82f907ec-863d-443b-9a33-e018df21131b","ios":"levelo://app?vid=82f907ec-863d-443b-9a33-e018df21131b"},"vehicle_type_id":"4","last_reported":1778283899,"current_range_meters":7200,"station_id":"","pricing_plan_id":"cebpf4jnsgd1na2vs0mg"},{"bike_id":"063d5332-82c2-4d21-906c-702134c15dda","system_id":"levelo_inurba_marseille","lat":43.27166,"lon":5.40981,"is_reserved":false,"is_disabled":false,"rental_uris":{"android":"levelo://app?vid=063d5332-82c2-4d21-906c-702134c15dda","ios":"levelo://app?vid=063d5332-82c2-4d21-906c-702134c15dda"},"vehicle_type_id":"4","last_reported":1778283899,"current_range_meters":7200,"station_id":"ce4bhl12rcd13ifvqgf0","pricing_plan_id":"cebpf4jnsgd1na2vs0mg"},{"bike_id":"c61964c8-c89c-477d-b76c-a022d4861077","system_id":"levelo_inurba_marseille","lat":43.30929,"lon":5.40144,"is_reserved":false,"is_disabled":false,"rental_uris":{"android":"levelo://app?vid=c61964c8-c89c-477d-b76c-a022d4861077","ios":"levelo://app?vid=c61964c8-c89c-477d-b76c-a022d4861077"},"vehicle_type_id":"4","last_reported":1778283899,"current_range_meters":7200,"station_id":"ce4bgvp2rcd13ifvqct0","pricing_plan_id":"cebpf4jnsgd1na2vs0mg"},{"bike_id":"63ad4009-f8b3-41eb-8dbb-c45eb35171c9","system_id":"levelo_inurba_marseille","lat":43.24801,"lon":5.37467,"is_reserved":false,"is_disabled":false,"rental_uris":{"android":"levelo://app?vid=63ad4009-f8b3-41eb-8dbb-c45eb35171c9","ios":"levelo://app?vid=63ad4009-f8b3-41eb-8dbb-c45eb35171c9"},"vehicle_type_id":"4","last_reported":1778283899,"current_range_meters":7200,"station_id":"ce4bhgh2rcd13ifvqfb0","pricing_plan_id":"cebpf4jnsgd1na2vs0mg"},{"bike_id":"c90e6cae-dbe6-402b-9a31-659b3311ab55","system_id":"levelo_inurba_marseille","lat":43.28091,"lon":5.37855,"is_reserved":false,"is_disabled":false,"rental_uris":{"android":"levelo://app?vid=c90e6cae-dbe6-402b-9a31-659b3311ab55","ios":"levelo://app?vid=c90e6cae-dbe6-402b-9a31-659b3311ab55"},"vehicle_type_id":"4","last_reported":1778283899,"current_range_meters":7200,"station_id":"ce4bha12rcd13ifvqee0","pricing_plan_id":"cebpf4jnsgd1na2vs0mg"},{"bike_id":"6052b460-2ae9-4384-970a-feb21203acee","system_id":"levelo_inurba_marseille","lat":43.29928,"lon":5.37465,"is_reserved":false,"is_disabled":false,"rental_uris":{"android":"levelo://app?vid=6052b460-2ae9-4384-970a-feb21203acee","ios":"levelo://app?vid=6052b460-2ae9-4384-970a-feb21203acee"},"vehicle_type_id":"4","last_reported":1778283899,"current_range_meters":7200,"station_id":"ce4bgjh2rcd13ifvqbg0","pricing_plan_id":"cebpf4jnsgd1na2vs0mg"},{"bike_id":"9091060c-4cba-4c31-9803-bad920e5f577","system_id":"levelo_inurba_marseille","lat":43.29868,"lon":5.38877,"is_reserved":false,"is_disabled":true,"rental_uris":{"android":"levelo://app?vid=9091060c-4cba-4c31-9803-bad920e5f577","ios":"levelo://app?vid=9091060c-4cba-4c31-9803-bad920e5f577"},"vehicle_type_id":"4","last_reported":1778283899,"current_range_meters":7200,"station_id":"ce4bh392rcd13ifvqdl0","pricing_plan_id":"cebpf4jnsgd1na2vs0mg"},{"bike_id":"347e765c-cbc7-4548-a801-cb1066b51431","system_id":"levelo_inurba_marseille","lat":43.29299,"lon":5.38572,"is_reserved":false,"is_disabled":false,"rental_uris":{"android":"levelo://app?vid=347e765c-cbc7-4548-a801-cb1066b51431","ios":"levelo://app?vid=347e765c-cbc7-4548-a801-cb1066b51431"},"vehicle_type_id":"4","last_reported":1778283899,"current_range_meters":7200,"station_id":"","pricing_plan_id":"cebpf4jnsgd1na2vs0mg"},{"bike_id":"053ae27e-1b5e-47ed-8998-f72bfcfe9e14","system_id":"levelo_inurba_marseille","lat":43.29514,"lon":5.39395,"is_reserved":false,"is_disabled":false,"rental_uris":{"android":"levelo://app?vid=053ae27e-1b5e-47ed-8998-f72bfcfe9e14","ios":"levelo://app?vid=053ae27e-1b5e-47ed-8998-f72bfcfe9e14"},"vehicle_type_id":"4","last_reported":1778283899,"current_range_meters":7200,"station_id":"ce4bh292rcd13ifvqdf0","pricing_plan_id":"cebpf4jnsgd1na2vs0mg"},{"bike_id":"4ee78646-fefd-4446-9cad-30077bd1d04f","system_id":"levelo_inurba_marseille","lat":43.30225,"lon":5.39991,"is_reserved":false,"is_disabled":true,"rental_uris":{"android":"levelo://app?vid=4ee78646-fefd-4446-9cad-30077bd1d04f","ios":"levelo://app?vid=4ee78646-fefd-4446-9cad-30077bd1d04f"},"vehicle_type_id":"4","last_reported":1778283899,"current_range_meters":7200,"station_id":"","pricing_plan_id":"cebpf4jnsgd1na2vs0mg"},{"bike_id":"72555670-646d-4aa0-b487-b5377420c0ae","system_id":"levelo_inurba_marseille","lat":43.323383,"lon":5.385007,"is_reserved":false,"is_disabled":false,"rental_uris":{"android":"levelo://app?vid=72555670-646d-4aa0-b487-b5377420c0ae","ios":"levelo://app?vid=72555670-646d-4aa0-b487-b5377420c0ae"},"vehicle_type_id":"4","last_reported":1778283899,"current_range_meters":7200,"station_id":"st_d45171o9ee8s73djdqug","pricing_plan_id":"cebpf4jnsgd1na2vs0mg"},{"bike_id":"afadc751-cb81-4cf8-a9ae-327048d23675","system_id":"levelo_inurba_marseille","lat":43.28609,"lon":5.35107,"is_reserved":false,"is_disabled":false,"rental_uris":{"android":"levelo://app?vid=afadc751-cb81-4cf8-a9ae-327048d23675","ios":"levelo://app?vid=afadc751-cb81-4cf8-a9ae-327048d23675"},"vehicle_type_id":"4","last_reported":1778283899,"current_range_meters":7200,"station_id":"ce4bhch2rcd13ifvqeug","pricing_plan_id":"cebpf4jnsgd1na2vs0mg"},{"bike_id":"e8b1e16d-8120-4289-bd8d-f5e10e7fd582","system_id":"levelo_inurba_marseille","lat":43.30928,"lon":5.40144,"is_reserved":false,"is_disabled":false,"rental_uris":{"android":"levelo://app?vid=e8b1e16d-8120-4289-bd8d-f5e10e7fd582","ios":"levelo://app?vid=e8b1e16d-8120-4289-bd8d-f5e10e7fd582"},"vehicle_type_id":"4","last_reported":1778283899,"current_range_meters":7200,"station_id":"ce4bgvp2rcd13ifvqct0","pricing_plan_id":"cebpf4jnsgd1na2vs0mg"},{"bike_id":"f1341701-ce72-4914-bad3-31e4950fc2b5","system_id":"levelo_inurba_marseille","lat":43.2901,"lon":5.38152,"is_reserved":false,"is_disabled":true,"rental_uris":{"android":"levelo://app?vid=f1341701-ce72-4914-bad3-31e4950fc2b5","ios":"levelo://app?vid=f1341701-ce72-4914-bad3-31e4950fc2b5"},"vehicle_type_id":"4","last_reported":1778283899,"current_range_meters":7200,"station_id":"ce4bh4p2rcd13ifvqe1g","pricing_plan_id":"cebpf4jnsgd1na2vs0mg"},{"bike_id":"12633ac5-c16f-4db3-80b2-9ed2ef625bfd","system_id":"levelo_inurba_marseille","lat":43.29039,"lon":5.39944,"is_reserved":false,"is_disabled":false,"rental_uris":{"android":"levelo://app?vid=12633ac5-c16f-4db3-80b2-9ed2ef625bfd","ios":"levelo://app?vid=12633ac5-c16f-4db3-80b2-9ed2ef625bfd"},"vehicle_type_id":"4","last_reported":1778283899,"current_range_meters":7200,"station_id":"ce4bh392rcd13ifvqdm0","pricing_plan_id":"cebpf4jnsgd1na2vs0mg"},{"bike_id":"0bc66aaf-5baf-4527-9d78-345db4e62b37","system_id":"levelo_inurba_marseille","lat":43.27521,"lon":5.41575,"is_reserved":false,"is_disabled":false,"rental_uris":{"android":"levelo://app?vid=0bc66aaf-5baf-4527-9d78-345db4e62b37","ios":"levelo://app?vid=0bc66aaf-5baf-4527-9d78-345db4e62b37"},"vehicle_type_id":"4","last_reported":1778283899,"current_range_meters":7200,"station_id":"st_d6im8g6chgec73a5pndg","pricing_plan_id":"cebpf4jnsgd1na2vs0mg"},{"bike_id":"ba1a84df-99bc-4f91-b102-9b8b01f50ffc","system_id":"levelo_inurba_marseille","lat":43.31888,"lon":5.36806,"is_reserved":false,"is_disabled":false,"rental_uris":{"android":"levelo://app?vid=ba1a84df-99bc-4f91-b102-9b8b01f50ffc","ios":"levelo://app?vid=ba1a84df-99bc-4f91-b102-9b8b01f50ffc"},"vehicle_type_id":"4","last_reported":1778283899,"current_range_meters":8000,"station_id":"st_d6o2h0d0559c73evc1b0","pricing_plan_id":"cebpf4jnsgd1na2vs0mg"},{"bike_id":"289c1edb-13a4-489b-a577-bd445d919af0","system_id":"levelo_inurba_marseille","lat":43.24805,"lon":5.37455,"is_reserved":false,"is_disabled":false,"rental_uris":{"android":"levelo://app?vid=289c1edb-13a4-489b-a577-bd445d919af0","ios":"levelo://app?vid=289c1edb-13a4-489b-a577-bd445d919af0"},"vehicle_type_id":"4","last_reported":1778283899,"current_range_meters":8000,"station_id":"ce4bhgh2rcd13ifvqfb0","pricing_plan_id":"cebpf4jnsgd1na2vs0mg"},{"bike_id":"6fe4ba82-0048-4e70-941c-4452870ef26d","system_id":"levelo_inurba_marseille","lat":43.24799,"lon":5.37466,"is_reserved":false,"is_disabled":false,"rental_uris":{"android":"levelo://app?vid=6fe4ba82-0048-4e70-941c-4452870ef26d","ios":"levelo://app?vid=6fe4ba82-0048-4e70-941c-4452870ef26d"},"vehicle_type_id":"4","last_reported":1778283899,"current_range_meters":8000,"station_id":"ce4bhgh2rcd13ifvqfb0","pricing_plan_id":"cebpf4jnsgd1na2vs0mg"},{"bike_id":"8fdbe986-716a-4dce-a50d-3af695e9688c","system_id":"levelo_inurba_marseille","lat":43.33516,"lon":5.37489,"is_reserved":false,"is_disabled":false,"rental_uris":{"android":"levelo://app?vid=8fdbe986-716a-4dce-a50d-3af695e9688c","ios":"levelo://app?vid=8fdbe986-716a-4dce-a50d-3af695e9688c"},"vehicle_type_id":"4","last_reported":1778283899,"current_range_meters":8000,"station_id":"st_d46tts09ee8s73dlu43g","pricing_plan_id":"cebpf4jnsgd1na2vs0mg"},{"bike_id":"4f3df1e9-d2dc-4e9f-875f-b79b03b82144","system_id":"levelo_inurba_marseille","lat":43.32481,"lon":5.36562,"is_reserved":false,"is_disabled":false,"rental_uris":{"android":"levelo://app?vid=4f3df1e9-d2dc-4e9f-875f-b79b03b82144","ios":"levelo://app?vid=4f3df1e9-d2dc-4e9f-875f-b79b03b82144"},"vehicle_type_id":"4","last_reported":1778283899,"current_range_meters":8000,"station_id":"ce4bhs12rcd13ifvqhvg","pricing_plan_id":"cebpf4jnsgd1na2vs0mg"},{"bike_id":"09f03c71-3135-488b-aa1b-16f1834011a9","system_id":"levelo_inurba_marseille","lat":43.29198,"lon":5.35677,"is_reserved":false,"is_disabled":false,"rental_uris":{"android":"levelo://app?vid=09f03c71-3135-488b-aa1b-16f1834011a9","ios":"levelo://app?vid=09f03c71-3135-488b-aa1b-16f1834011a9"},"vehicle_type_id":"4","last_reported":1778283899,"current_range_meters":8000,"station_id":"","pricing_plan_id":"cebpf4jnsgd1na2vs0mg"},{"bike_id":"e9603e54-ff6b-4fae-9e9b-b17dd395cbe4","system_id":"levelo_inurba_marseille","lat":43.26358,"lon":5.39918,"is_reserved":false,"is_disabled":false,"rental_uris":{"android":"levelo://app?vid=e9603e54-ff6b-4fae-9e9b-b17dd395cbe4","ios":"levelo://app?vid=e9603e54-ff6b-4fae-9e9b-b17dd395cbe4"},"vehicle_type_id":"4","last_reported":1778283899,"current_range_meters":8000,"station_id":"","pricing_plan_id":"cebpf4jnsgd1na2vs0mg"},{"bike_id":"f03e9416-653d-45fd-aba7-c2ee459eb1bb","system_id":"levelo_inurba_marseille","lat":43.33529,"lon":5.37494,"is_reserved":false,"is_disabled":false,"rental_uris":{"android":"levelo://app?vid=f03e9416-653d-45fd-aba7-c2ee459eb1bb","ios":"levelo://app?vid=f03e9416-653d-45fd-aba7-c2ee459eb1bb"},"vehicle_type_id":"4","last_reported":1778283899,"current_range_meters":8000,"station_id":"st_d46tts09ee8s73dlu43g","pricing_plan_id":"cebpf4jnsgd1na2vs0mg"},{"bike_id":"612f85bb-15f5-4854-a20e-391e53ce825c","system_id":"levelo_inurba_marseille","lat":43.30956,"lon":5.39059,"is_reserved":false,"is_disabled":false,"rental_uris":{"android":"levelo://app?vid=612f85bb-15f5-4854-a20e-391e53ce825c","ios":"levelo://app?vid=612f85bb-15f5-4854-a20e-391e53ce825c"},"vehicle_type_id":"4","last_reported":1778283899,"current_range_meters":8000,"station_id":"ce4bgup2rcd13ifvqco0","pricing_plan_id":"cebpf4jnsgd1na2vs0mg"},{"bike_id":"fe719e21-ec18-4bb4-81a4-fa2c0ee31e9b","system_id":"levelo_inurba_marseille","lat":43.30795,"lon":5.38133,"is_reserved":false,"is_disabled":false,"rental_uris":{"android":"levelo://app?vid=fe719e21-ec18-4bb4-81a4-fa2c0ee31e9b","ios":"levelo://app?vid=fe719e21-ec18-4bb4-81a4-fa2c0ee31e9b"},"vehicle_type_id":"4","last_reported":1778283899,"current_range_meters":8000,"station_id":"ce4bgt12rcd13ifvqce0","pricing_plan_id":"cebpf4jnsgd1na2vs0mg"},{"bike_id":"9bab0edf-ec8d-417b-879a-09472d29680b","system_id":"levelo_inurba_marseille","lat":43.266825,"lon":5.382769,"is_reserved":false,"is_disabled":false,"rental_uris":{"android":"levelo://app?vid=9bab0edf-ec8d-417b-879a-09472d29680b","ios":"levelo://app?vid=9bab0edf-ec8d-417b-879a-09472d29680b"},"vehicle_type_id":"4","last_reported":1778283899,"current_range_meters":8000,"station_id":"ce4bhg92rcd13ifvqf90","pricing_plan_id":"cebpf4jnsgd1na2vs0mg"},{"bike_id":"5dda00a1-f787-488a-aa64-058079c40c64","system_id":"levelo_inurba_marseille","lat":43.269467,"lon":5.393522,"is_reserved":false,"is_disabled":false,"rental_uris":{"android":"levelo://app?vid=5dda00a1-f787-488a-aa64-058079c40c64","ios":"levelo://app?vid=5dda00a1-f787-488a-aa64-058079c40c64"},"vehicle_type_id":"4","last_reported":1778283899,"current_range_meters":8000,"station_id":"","pricing_plan_id":"cebpf4jnsgd1na2vs0mg"},{"bike_id":"2bfeb872-3b6a-44bd-aaf4-d49eee479e56","system_id":"levelo_inurba_marseille","lat":43.21745,"lon":5.34606,"is_reserved":false,"is_disabled":true,"rental_uris":{"android":"levelo://app?vid=2bfeb872-3b6a-44bd-aaf4-d49eee479e56","ios":"levelo://app?vid=2bfeb872-3b6a-44bd-aaf4-d49eee479e56"},"vehicle_type_id":"4","last_reported":1778283899,"current_range_meters":8000,"station_id":"st_cvj6r9ubvosntc0bgbag","pricing_plan_id":"cebpf4jnsgd1na2vs0mg"},{"bike_id":"9d19633a-09dc-421b-9646-d96c48669e07","system_id":"levelo_inurba_marseille","lat":43.24184,"lon":5.3972,"is_reserved":false,"is_disabled":false,"rental_uris":{"android":"levelo://app?vid=9d19633a-09dc-421b-9646-d96c48669e07","ios":"levelo://app?vid=9d19633a-09dc-421b-9646-d96c48669e07"},"vehicle_type_id":"4","last_reported":1778283899,"current_range_meters":8000,"station_id":"ce4bhn12rcd13ifvqgpg","pricing_plan_id":"cebpf4jnsgd1na2vs0mg"},{"bike_id":"7026d306-6ecf-4826-ba3d-c6c15fdac4aa","system_id":"levelo_inurba_marseille","lat":43.24808,"lon":5.37447,"is_reserved":false,"is_disabled":false,"rental_uris":{"android":"levelo://app?vid=7026d306-6ecf-4826-ba3d-c6c15fdac4aa","ios":"levelo://app?vid=7026d306-6ecf-4826-ba3d-c6c15fdac4aa"},"vehicle_type_id":"4","last_reported":1778283899,"current_range_meters":8000,"station_id":"ce4bhgh2rcd13ifvqfb0","pricing_plan_id":"cebpf4jnsgd1na2vs0mg"},{"bike_id":"e1273919-6285-4d8d-8abc-6501ea144945","system_id":"levelo_inurba_marseille","lat":43.28999,"lon":5.35613,"is_reserved":false,"is_disabled":false,"rental_uris":{"android":"levelo://app?vid=e1273919-6285-4d8d-8abc-6501ea144945","ios":"levelo://app?vid=e1273919-6285-4d8d-8abc-6501ea144945"},"vehicle_type_id":"4","last_reported":1778283899,"current_range_meters":8000,"station_id":"ce4bhb92rcd13ifvqen0","pricing_plan_id":"cebpf4jnsgd1na2vs0mg"},{"bike_id":"bdd7e5e6-a507-4b27-9760-4ad4469a7c6c","system_id":"levelo_inurba_marseille","lat":43.299253,"lon":5.374698,"is_reserved":false,"is_disabled":false,"rental_uris":{"android":"levelo://app?vid=bdd7e5e6-a507-4b27-9760-4ad4469a7c6c","ios":"levelo://app?vid=bdd7e5e6-a507-4b27-9760-4ad4469a7c6c"},"vehicle_type_id":"4","last_reported":1778283899,"current_range_meters":8000,"station_id":"ce4bgjh2rcd13ifvqbg0","pricing_plan_id":"cebpf4jnsgd1na2vs0mg"},{"bike_id":"e8461b56-9af7-4d44-a288-92e063783260","system_id":"levelo_inurba_marseille","lat":43.26231,"lon":5.40437,"is_reserved":false,"is_disabled":false,"rental_uris":{"android":"levelo://app?vid=e8461b56-9af7-4d44-a288-92e063783260","ios":"levelo://app?vid=e8461b56-9af7-4d44-a288-92e063783260"},"vehicle_type_id":"4","last_reported":1778283899,"current_range_meters":8000,"station_id":"ce4bhmh2rcd13ifvqgmg","pricing_plan_id":"cebpf4jnsgd1na2vs0mg"},{"bike_id":"5861de8b-ad8f-4983-9a9b-9a3073928c9b","system_id":"levelo_inurba_marseille","lat":43.2587,"lon":5.39896,"is_reserved":false,"is_disabled":false,"rental_uris":{"android":"levelo://app?vid=5861de8b-ad8f-4983-9a9b-9a3073928c9b","ios":"levelo://app?vid=5861de8b-ad8f-4983-9a9b-9a3073928c9b"},"vehicle_type_id":"4","last_reported":1778283899,"current_range_meters":8000,"station_id":"ce4bhl92rcd13ifvqghg","pricing_plan_id":"cebpf4jnsgd1na2vs0mg"},{"bike_id":"efa93904-cdd9-4451-a56b-e86f1847103f","system_id":"levelo_inurba_marseille","lat":43.3059,"lon":5.39359,"is_reserved":false,"is_disabled":false,"rental_uris":{"android":"levelo://app?vid=efa93904-cdd9-4451-a56b-e86f1847103f","ios":"levelo://app?vid=efa93904-cdd9-4451-a56b-e86f1847103f"},"vehicle_type_id":"4","last_reported":1778283899,"current_range_meters":8000,"station_id":"ce4bh0p2rcd13ifvqd80","pricing_plan_id":"cebpf4jnsgd1na2vs0mg"},{"bike_id":"ef4c0d2f-d37c-409b-be4c-7cceaa4aabfa","system_id":"levelo_inurba_marseille","lat":43.28462,"lon":5.48394,"is_reserved":false,"is_disabled":false,"rental_uris":{"android":"levelo://app?vid=ef4c0d2f-d37c-409b-be4c-7cceaa4aabfa","ios":"levelo://app?vid=ef4c0d2f-d37c-409b-be4c-7cceaa4aabfa"},"vehicle_type_id":"4","last_reported":1778283899,"current_range_meters":8400,"station_id":"st_d3svhcjqgbts73a3dn0g","pricing_plan_id":"cebpf4jnsgd1na2vs0mg"},{"bike_id":"a2255690-14bf-4d7c-b2f6-ffd493bfffd8","system_id":"levelo_inurba_marseille","lat":43.24147,"lon":5.36419,"is_reserved":false,"is_disabled":false,"rental_uris":{"android":"levelo://app?vid=a2255690-14bf-4d7c-b2f6-ffd493bfffd8","ios":"levelo://app?vid=a2255690-14bf-4d7c-b2f6-ffd493bfffd8"},"vehicle_type_id":"4","last_reported":1778283899,"current_range_meters":8400,"station_id":"cpo36qri1sfpv3e86is0","pricing_plan_id":"cebpf4jnsgd1na2vs0mg"},{"bike_id":"eee51eae-5aaa-4a90-b6bb-0ee2250819e2","system_id":"levelo_inurba_marseille","lat":43.27879,"lon":5.38741,"is_reserved":false,"is_disabled":false,"rental_uris":{"android":"levelo://app?vid=eee51eae-5aaa-4a90-b6bb-0ee2250819e2","ios":"levelo://app?vid=eee51eae-5aaa-4a90-b6bb-0ee2250819e2"},"vehicle_type_id":"4","last_reported":1778283899,"current_range_meters":8400,"station_id":"","pricing_plan_id":"cebpf4jnsgd1na2vs0mg"},{"bike_id":"36bf5966-883a-4820-975e-e8801ce08727","system_id":"levelo_inurba_marseille","lat":43.29317,"lon":5.37143,"is_reserved":false,"is_disabled":false,"rental_uris":{"android":"levelo://app?vid=36bf5966-883a-4820-975e-e8801ce08727","ios":"levelo://app?vid=36bf5966-883a-4820-975e-e8801ce08727"},"vehicle_type_id":"4","last_reported":1778283899,"current_range_meters":8400,"station_id":"ce4bgh92rcd13ifvqb40","pricing_plan_id":"cebpf4jnsgd1na2vs0mg"},{"bike_id":"1a8c1511-a5c4-4f88-9446-0c157bdbb297","system_id":"levelo_inurba_marseille","lat":43.30599,"lon":5.37199,"is_reserved":false,"is_disabled":false,"rental_uris":{"android":"levelo://app?vid=1a8c1511-a5c4-4f88-9446-0c157bdbb297","ios":"levelo://app?vid=1a8c1511-a5c4-4f88-9446-0c157bdbb297"},"vehicle_type_id":"4","last_reported":1778283899,"current_range_meters":8400,"station_id":"ce4bgqh2rcd13ifvqc4g","pricing_plan_id":"cebpf4jnsgd1na2vs0mg"},{"bike_id":"9d6e5803-f86e-480f-8608-b1264f61154e","system_id":"levelo_inurba_marseille","lat":43.3211,"lon":5.36774,"is_reserved":false,"is_disabled":false,"rental_uris":{"android":"levelo://app?vid=9d6e5803-f86e-480f-8608-b1264f61154e","ios":"levelo://app?vid=9d6e5803-f86e-480f-8608-b1264f61154e"},"vehicle_type_id":"4","last_reported":1778283899,"current_range_meters":8400,"station_id":"ce4bhrh2rcd13ifvqhug","pricing_plan_id":"cebpf4jnsgd1na2vs0mg"},{"bike_id":"2d4086a4-858c-483d-b34b-ed85e093cb96","system_id":"levelo_inurba_marseille","lat":43.30181,"lon":5.38157,"is_reserved":false,"is_disabled":false,"rental_uris":{"android":"levelo://app?vid=2d4086a4-858c-483d-b34b-ed85e093cb96","ios":"levelo://app?vid=2d4086a4-858c-483d-b34b-ed85e093cb96"},"vehicle_type_id":"4","last_reported":1778283899,"current_range_meters":8400,"station_id":"","pricing_plan_id":"cebpf4jnsgd1na2vs0mg"},{"bike_id":"fad0501a-5f07-42f4-a714-6b2d69abf03e","system_id":"levelo_inurba_marseille","lat":43.24536,"lon":5.39532,"is_reserved":false,"is_disabled":false,"rental_uris":{"android":"levelo://app?vid=fad0501a-5f07-42f4-a714-6b2d69abf03e","ios":"levelo://app?vid=fad0501a-5f07-42f4-a714-6b2d69abf03e"},"vehicle_type_id":"4","last_reported":1778283899,"current_range_meters":8400,"station_id":"ce4bhlp2rcd13ifvqgjg","pricing_plan_id":"cebpf4jnsgd1na2vs0mg"},{"bike_id":"ba9999b1-4282-4f46-9032-3a0c9b4ec963","system_id":"levelo_inurba_marseille","lat":43.24887,"lon":5.41802,"is_reserved":false,"is_disabled":false,"rental_uris":{"android":"levelo://app?vid=ba9999b1-4282-4f46-9032-3a0c9b4ec963","ios":"levelo://app?vid=ba9999b1-4282-4f46-9032-3a0c9b4ec963"},"vehicle_type_id":"4","last_reported":1778283899,"current_range_meters":8400,"station_id":"","pricing_plan_id":"cebpf4jnsgd1na2vs0mg"},{"bike_id":"c440543a-fc70-44c0-b21f-aa93407f1be5","system_id":"levelo_inurba_marseille","lat":43.3414,"lon":5.40916,"is_reserved":false,"is_disabled":false,"rental_uris":{"android":"levelo://app?vid=c440543a-fc70-44c0-b21f-aa93407f1be5","ios":"levelo://app?vid=c440543a-fc70-44c0-b21f-aa93407f1be5"},"vehicle_type_id":"4","last_reported":1778283899,"current_range_meters":8400,"station_id":"ce4bhqh2rcd13ifvqhlg","pricing_plan_id":"cebpf4jnsgd1na2vs0mg"},{"bike_id":"80d1d583-6f1b-4b17-8bc4-4532d4aec298","system_id":"levelo_inurba_marseille","lat":43.3168,"lon":5.43773,"is_reserved":false,"is_disabled":false,"rental_uris":{"android":"levelo://app?vid=80d1d583-6f1b-4b17-8bc4-4532d4aec298","ios":"levelo://app?vid=80d1d583-6f1b-4b17-8bc4-4532d4aec298"},"vehicle_type_id":"4","last_reported":1778283899,"current_range_meters":8400,"station_id":"","pricing_plan_id":"cebpf4jnsgd1na2vs0mg"},{"bike_id":"48f460bf-a506-4ac0-8337-530ebbfaf540","system_id":"levelo_inurba_marseille","lat":43.31126,"lon":5.38715,"is_reserved":false,"is_disabled":false,"rental_uris":{"android":"levelo://app?vid=48f460bf-a506-4ac0-8337-530ebbfaf540","ios":"levelo://app?vid=48f460bf-a506-4ac0-8337-530ebbfaf540"},"vehicle_type_id":"4","last_reported":1778283899,"current_range_meters":8400,"station_id":"","pricing_plan_id":"cebpf4jnsgd1na2vs0mg"},{"bike_id":"627ea465-4e71-4046-a508-023e31352421","system_id":"levelo_inurba_marseille","lat":43.25044,"lon":5.4049,"is_reserved":false,"is_disabled":false,"rental_uris":{"android":"levelo://app?vid=627ea465-4e71-4046-a508-023e31352421","ios":"levelo://app?vid=627ea465-4e71-4046-a508-023e31352421"},"vehicle_type_id":"4","last_reported":1778283899,"current_range_meters":8400,"station_id":"","pricing_plan_id":"cebpf4jnsgd1na2vs0mg"},{"bike_id":"bfa74098-47c7-47b1-a79b-5692a6814bb8","system_id":"levelo_inurba_marseille","lat":43.24747,"lon":5.40052,"is_reserved":false,"is_disabled":false,"rental_uris":{"android":"levelo://app?vid=bfa74098-47c7-47b1-a79b-5692a6814bb8","ios":"levelo://app?vid=bfa74098-47c7-47b1-a79b-5692a6814bb8"},"vehicle_type_id":"4","last_reported":1778283899,"current_range_meters":8400,"station_id":"","pricing_plan_id":"cebpf4jnsgd1na2vs0mg"},{"bike_id":"43705be5-0b0d-4249-9a45-6509fa354e7e","system_id":"levelo_inurba_marseille","lat":43.29936,"lon":5.36995,"is_reserved":false,"is_disabled":false,"rental_uris":{"android":"levelo://app?vid=43705be5-0b0d-4249-9a45-6509fa354e7e","ios":"levelo://app?vid=43705be5-0b0d-4249-9a45-6509fa354e7e"},"vehicle_type_id":"4","last_reported":1778283899,"current_range_meters":8400,"station_id":"","pricing_plan_id":"cebpf4jnsgd1na2vs0mg"},{"bike_id":"a0c19b63-2c1f-4c1e-983a-5581ff0a42a8","system_id":"levelo_inurba_marseille","lat":43.29347,"lon":5.44532,"is_reserved":false,"is_disabled":false,"rental_uris":{"android":"levelo://app?vid=a0c19b63-2c1f-4c1e-983a-5581ff0a42a8","ios":"levelo://app?vid=a0c19b63-2c1f-4c1e-983a-5581ff0a42a8"},"vehicle_type_id":"4","last_reported":1778283899,"current_range_meters":8400,"station_id":"","pricing_plan_id":"cebpf4jnsgd1na2vs0mg"},{"bike_id":"ffe0cb96-af34-4cc2-8ffa-153f35a471f1","system_id":"levelo_inurba_marseille","lat":43.2885,"lon":5.42518,"is_reserved":false,"is_disabled":false,"rental_uris":{"android":"levelo://app?vid=ffe0cb96-af34-4cc2-8ffa-153f35a471f1","ios":"levelo://app?vid=ffe0cb96-af34-4cc2-8ffa-153f35a471f1"},"vehicle_type_id":"4","last_reported":1778283899,"current_range_meters":8400,"station_id":"st_d3b462108ojc7389ooeg","pricing_plan_id":"cebpf4jnsgd1na2vs0mg"},{"bike_id":"60c211e6-e18d-4b70-b2b5-f2ecacf6f011","system_id":"levelo_inurba_marseille","lat":43.28681,"lon":5.3998,"is_reserved":false,"is_disabled":false,"rental_uris":{"android":"levelo://app?vid=60c211e6-e18d-4b70-b2b5-f2ecacf6f011","ios":"levelo://app?vid=60c211e6-e18d-4b70-b2b5-f2ecacf6f011"},"vehicle_type_id":"4","last_reported":1778283899,"current_range_meters":8800,"station_id":"ce4bho92rcd13ifvqh3g","pricing_plan_id":"cebpf4jnsgd1na2vs0mg"},{"bike_id":"72d42090-5bb1-42d2-8258-66748f74b226","system_id":"levelo_inurba_marseille","lat":43.2895,"lon":5.39636,"is_reserved":false,"is_disabled":true,"rental_uris":{"android":"levelo://app?vid=72d42090-5bb1-42d2-8258-66748f74b226","ios":"levelo://app?vid=72d42090-5bb1-42d2-8258-66748f74b226"},"vehicle_type_id":"4","last_reported":1778283899,"current_range_meters":8800,"station_id":"ce4bh3h2rcd13ifvqdn0","pricing_plan_id":"cebpf4jnsgd1na2vs0mg"},{"bike_id":"e6bd8138-3d56-4ae6-9878-8794caa087c5","system_id":"levelo_inurba_marseille","lat":43.24471,"lon":5.42537,"is_reserved":false,"is_disabled":false,"rental_uris":{"android":"levelo://app?vid=e6bd8138-3d56-4ae6-9878-8794caa087c5","ios":"levelo://app?vid=e6bd8138-3d56-4ae6-9878-8794caa087c5"},"vehicle_type_id":"4","last_reported":1778283899,"current_range_meters":8800,"station_id":"st_d4a3vfp97mjs738cd8kg","pricing_plan_id":"cebpf4jnsgd1na2vs0mg"},{"bike_id":"798dd442-ecce-41be-b4b9-436ee7f8a467","system_id":"levelo_inurba_marseille","lat":43.272094,"lon":5.390291,"is_reserved":false,"is_disabled":false,"rental_uris":{"android":"levelo://app?vid=798dd442-ecce-41be-b4b9-436ee7f8a467","ios":"levelo://app?vid=798dd442-ecce-41be-b4b9-436ee7f8a467"},"vehicle_type_id":"4","last_reported":1778283899,"current_range_meters":8800,"station_id":"ce4bhhp2rcd13ifvqfm0","pricing_plan_id":"cebpf4jnsgd1na2vs0mg"},{"bike_id":"89e60c09-d607-4c05-88a7-ef49c882e139","system_id":"levelo_inurba_marseille","lat":43.24172,"lon":5.36396,"is_reserved":false,"is_disabled":false,"rental_uris":{"android":"levelo://app?vid=89e60c09-d607-4c05-88a7-ef49c882e139","ios":"levelo://app?vid=89e60c09-d607-4c05-88a7-ef49c882e139"},"vehicle_type_id":"4","last_reported":1778283899,"current_range_meters":8800,"station_id":"cpo36qri1sfpv3e86is0","pricing_plan_id":"cebpf4jnsgd1na2vs0mg"},{"bike_id":"f6cd1f40-16c5-432d-8a50-dae9a4c5a7ed","system_id":"levelo_inurba_marseille","lat":43.28101,"lon":5.37822,"is_reserved":false,"is_disabled":false,"rental_uris":{"android":"levelo://app?vid=f6cd1f40-16c5-432d-8a50-dae9a4c5a7ed","ios":"levelo://app?vid=f6cd1f40-16c5-432d-8a50-dae9a4c5a7ed"},"vehicle_type_id":"4","last_reported":1778283899,"current_range_meters":8800,"station_id":"ce4bha12rcd13ifvqee0","pricing_plan_id":"cebpf4jnsgd1na2vs0mg"},{"bike_id":"526b3fff-6975-4310-abcb-091321c8c78d","system_id":"levelo_inurba_marseille","lat":43.30133,"lon":5.37424,"is_reserved":false,"is_disabled":false,"rental_uris":{"android":"levelo://app?vid=526b3fff-6975-4310-abcb-091321c8c78d","ios":"levelo://app?vid=526b3fff-6975-4310-abcb-091321c8c78d"},"vehicle_type_id":"4","last_reported":1778283899,"current_range_meters":8800,"station_id":"ce4bgs92rcd13ifvqcc0","pricing_plan_id":"cebpf4jnsgd1na2vs0mg"},{"bike_id":"1a3393ee-0896-40ae-8691-33c129c4d16a","system_id":"levelo_inurba_marseille","lat":43.31234,"lon":5.38485,"is_reserved":false,"is_disabled":false,"rental_uris":{"android":"levelo://app?vid=1a3393ee-0896-40ae-8691-33c129c4d16a","ios":"levelo://app?vid=1a3393ee-0896-40ae-8691-33c129c4d16a"},"vehicle_type_id":"4","last_reported":1778283899,"current_range_meters":8800,"station_id":"","pricing_plan_id":"cebpf4jnsgd1na2vs0mg"},{"bike_id":"06750813-80e5-4eb6-b50a-57ffe9fa6b8b","system_id":"levelo_inurba_marseille","lat":43.25509,"lon":5.38237,"is_reserved":false,"is_disabled":true,"rental_uris":{"android":"levelo://app?vid=06750813-80e5-4eb6-b50a-57ffe9fa6b8b","ios":"levelo://app?vid=06750813-80e5-4eb6-b50a-57ffe9fa6b8b"},"vehicle_type_id":"4","last_reported":1778283899,"current_range_meters":8800,"station_id":"","pricing_plan_id":"cebpf4jnsgd1na2vs0mg"},{"bike_id":"f539bb17-16cf-4505-8a99-d64e79a69d9e","system_id":"levelo_inurba_marseille","lat":43.3212,"lon":5.36784,"is_reserved":false,"is_disabled":false,"rental_uris":{"android":"levelo://app?vid=f539bb17-16cf-4505-8a99-d64e79a69d9e","ios":"levelo://app?vid=f539bb17-16cf-4505-8a99-d64e79a69d9e"},"vehicle_type_id":"4","last_reported":1778283899,"current_range_meters":8800,"station_id":"ce4bhrh2rcd13ifvqhug","pricing_plan_id":"cebpf4jnsgd1na2vs0mg"},{"bike_id":"432c89d1-620e-4292-8dbf-6ebb3657e025","system_id":"levelo_inurba_marseille","lat":43.31731,"lon":5.39006,"is_reserved":false,"is_disabled":true,"rental_uris":{"android":"levelo://app?vid=432c89d1-620e-4292-8dbf-6ebb3657e025","ios":"levelo://app?vid=432c89d1-620e-4292-8dbf-6ebb3657e025"},"vehicle_type_id":"4","last_reported":1778283899,"current_range_meters":8800,"station_id":"ce4bhqp2rcd13ifvqhng","pricing_plan_id":"cebpf4jnsgd1na2vs0mg"},{"bike_id":"407e9612-ad93-4d7c-a713-0ff1764d5034","system_id":"levelo_inurba_marseille","lat":43.31378,"lon":5.41505,"is_reserved":false,"is_disabled":false,"rental_uris":{"android":"levelo://app?vid=407e9612-ad93-4d7c-a713-0ff1764d5034","ios":"levelo://app?vid=407e9612-ad93-4d7c-a713-0ff1764d5034"},"vehicle_type_id":"4","last_reported":1778283899,"current_range_meters":8800,"station_id":"","pricing_plan_id":"cebpf4jnsgd1na2vs0mg"},{"bike_id":"a30008ae-a2df-4129-8ea6-0f377536b8ba","system_id":"levelo_inurba_marseille","lat":43.32083,"lon":5.36782,"is_reserved":false,"is_disabled":false,"rental_uris":{"android":"levelo://app?vid=a30008ae-a2df-4129-8ea6-0f377536b8ba","ios":"levelo://app?vid=a30008ae-a2df-4129-8ea6-0f377536b8ba"},"vehicle_type_id":"4","last_reported":1778283899,"current_range_meters":8800,"station_id":"ce4bhrh2rcd13ifvqhug","pricing_plan_id":"cebpf4jnsgd1na2vs0mg"},{"bike_id":"446a901d-bbac-4d0d-abe3-676e1901d57c","system_id":"levelo_inurba_marseille","lat":43.29257,"lon":5.38434,"is_reserved":false,"is_disabled":false,"rental_uris":{"android":"levelo://app?vid=446a901d-bbac-4d0d-abe3-676e1901d57c","ios":"levelo://app?vid=446a901d-bbac-4d0d-abe3-676e1901d57c"},"vehicle_type_id":"4","last_reported":1778283899,"current_range_meters":8800,"station_id":"ce4bh692rcd13ifvqea0","pricing_plan_id":"cebpf4jnsgd1na2vs0mg"},{"bike_id":"ac669cf6-3802-49e7-8567-a514ce79081d","system_id":"levelo_inurba_marseille","lat":43.29114,"lon":5.38482,"is_reserved":false,"is_disabled":false,"rental_uris":{"android":"levelo://app?vid=ac669cf6-3802-49e7-8567-a514ce79081d","ios":"levelo://app?vid=ac669cf6-3802-49e7-8567-a514ce79081d"},"vehicle_type_id":"4","last_reported":1778283899,"current_range_meters":8800,"station_id":"","pricing_plan_id":"cebpf4jnsgd1na2vs0mg"},{"bike_id":"07829fdc-c599-44a2-8a5d-d38b8b9f7bb8","system_id":"levelo_inurba_marseille","lat":43.30402,"lon":5.42486,"is_reserved":false,"is_disabled":true,"rental_uris":{"android":"levelo://app?vid=07829fdc-c599-44a2-8a5d-d38b8b9f7bb8","ios":"levelo://app?vid=07829fdc-c599-44a2-8a5d-d38b8b9f7bb8"},"vehicle_type_id":"4","last_reported":1778283899,"current_range_meters":8800,"station_id":"ce4bhoh2rcd13ifvqh6g","pricing_plan_id":"cebpf4jnsgd1na2vs0mg"},{"bike_id":"9cd41106-4bf5-4dce-8ced-a645e92cf717","system_id":"levelo_inurba_marseille","lat":43.2903,"lon":5.35893,"is_reserved":false,"is_disabled":false,"rental_uris":{"android":"levelo://app?vid=9cd41106-4bf5-4dce-8ced-a645e92cf717","ios":"levelo://app?vid=9cd41106-4bf5-4dce-8ced-a645e92cf717"},"vehicle_type_id":"4","last_reported":1778283899,"current_range_meters":8800,"station_id":"ce4bha92rcd13ifvqeg0","pricing_plan_id":"cebpf4jnsgd1na2vs0mg"},{"bike_id":"496ef005-3b28-4f89-8627-d41c73f67f06","system_id":"levelo_inurba_marseille","lat":43.31652,"lon":5.4049,"is_reserved":false,"is_disabled":false,"rental_uris":{"android":"levelo://app?vid=496ef005-3b28-4f89-8627-d41c73f67f06","ios":"levelo://app?vid=496ef005-3b28-4f89-8627-d41c73f67f06"},"vehicle_type_id":"4","last_reported":1778283899,"current_range_meters":8800,"station_id":"ce4bh012rcd13ifvqd00","pricing_plan_id":"cebpf4jnsgd1na2vs0mg"},{"bike_id":"c1b768b5-78ad-4562-8b11-acf628f13106","system_id":"levelo_inurba_marseille","lat":43.27984,"lon":5.44237,"is_reserved":false,"is_disabled":false,"rental_uris":{"android":"levelo://app?vid=c1b768b5-78ad-4562-8b11-acf628f13106","ios":"levelo://app?vid=c1b768b5-78ad-4562-8b11-acf628f13106"},"vehicle_type_id":"4","last_reported":1778283899,"current_range_meters":8800,"station_id":"","pricing_plan_id":"cebpf4jnsgd1na2vs0mg"},{"bike_id":"a9b6caf4-cf49-4aec-a6fc-9f0762250c26","system_id":"levelo_inurba_marseille","lat":43.24464,"lon":5.42551,"is_reserved":false,"is_disabled":false,"rental_uris":{"android":"levelo://app?vid=a9b6caf4-cf49-4aec-a6fc-9f0762250c26","ios":"levelo://app?vid=a9b6caf4-cf49-4aec-a6fc-9f0762250c26"},"vehicle_type_id":"4","last_reported":1778283899,"current_range_meters":8800,"station_id":"st_d4a3vfp97mjs738cd8kg","pricing_plan_id":"cebpf4jnsgd1na2vs0mg"},{"bike_id":"c228d5ae-4d72-480c-ba93-a939a90da1de","system_id":"levelo_inurba_marseille","lat":43.24703,"lon":5.38127,"is_reserved":false,"is_disabled":false,"rental_uris":{"android":"levelo://app?vid=c228d5ae-4d72-480c-ba93-a939a90da1de","ios":"levelo://app?vid=c228d5ae-4d72-480c-ba93-a939a90da1de"},"vehicle_type_id":"4","last_reported":1778283899,"current_range_meters":8800,"station_id":"","pricing_plan_id":"cebpf4jnsgd1na2vs0mg"},{"bike_id":"1261a57e-b9db-4e44-b05c-c17513cf7550","system_id":"levelo_inurba_marseille","lat":43.27058,"lon":5.4229,"is_reserved":false,"is_disabled":false,"rental_uris":{"android":"levelo://app?vid=1261a57e-b9db-4e44-b05c-c17513cf7550","ios":"levelo://app?vid=1261a57e-b9db-4e44-b05c-c17513cf7550"},"vehicle_type_id":"4","last_reported":1778283899,"current_range_meters":8800,"station_id":"ce4bhk92rcd13ifvqgb0","pricing_plan_id":"cebpf4jnsgd1na2vs0mg"},{"bike_id":"bb14baeb-3016-4cc2-93fa-30395fb0af59","system_id":"levelo_inurba_marseille","lat":43.26779,"lon":5.39423,"is_reserved":false,"is_disabled":true,"rental_uris":{"android":"levelo://app?vid=bb14baeb-3016-4cc2-93fa-30395fb0af59","ios":"levelo://app?vid=bb14baeb-3016-4cc2-93fa-30395fb0af59"},"vehicle_type_id":"4","last_reported":1778283899,"current_range_meters":8800,"station_id":"ce4bhh12rcd13ifvqfg0","pricing_plan_id":"cebpf4jnsgd1na2vs0mg"},{"bike_id":"fd0b6860-a19b-4020-922a-b1b2204bdf0b","system_id":"levelo_inurba_marseille","lat":43.31157,"lon":5.38709,"is_reserved":false,"is_disabled":false,"rental_uris":{"android":"levelo://app?vid=fd0b6860-a19b-4020-922a-b1b2204bdf0b","ios":"levelo://app?vid=fd0b6860-a19b-4020-922a-b1b2204bdf0b"},"vehicle_type_id":"4","last_reported":1778283899,"current_range_meters":8800,"station_id":"ce4bgv12rcd13ifvqcp0","pricing_plan_id":"cebpf4jnsgd1na2vs0mg"},{"bike_id":"4c0c91d1-784f-4ffc-9e9c-06018b1fdfee","system_id":"levelo_inurba_marseille","lat":43.30964,"lon":5.3904,"is_reserved":false,"is_disabled":false,"rental_uris":{"android":"levelo://app?vid=4c0c91d1-784f-4ffc-9e9c-06018b1fdfee","ios":"levelo://app?vid=4c0c91d1-784f-4ffc-9e9c-06018b1fdfee"},"vehicle_type_id":"4","last_reported":1778283899,"current_range_meters":8800,"station_id":"ce4bgup2rcd13ifvqco0","pricing_plan_id":"cebpf4jnsgd1na2vs0mg"},{"bike_id":"0115bc04-39b2-4d9a-ad7f-a19da4d1923c","system_id":"levelo_inurba_marseille","lat":43.24648,"lon":5.389,"is_reserved":false,"is_disabled":false,"rental_uris":{"android":"levelo://app?vid=0115bc04-39b2-4d9a-ad7f-a19da4d1923c","ios":"levelo://app?vid=0115bc04-39b2-4d9a-ad7f-a19da4d1923c"},"vehicle_type_id":"4","last_reported":1778283899,"current_range_meters":8800,"station_id":"ce4bhg12rcd13ifvqf60","pricing_plan_id":"cebpf4jnsgd1na2vs0mg"},{"bike_id":"0c7d2fbb-13a2-4b84-b36b-3bb945348f14","system_id":"levelo_inurba_marseille","lat":43.28393,"lon":5.37532,"is_reserved":false,"is_disabled":true,"rental_uris":{"android":"levelo://app?vid=0c7d2fbb-13a2-4b84-b36b-3bb945348f14","ios":"levelo://app?vid=0c7d2fbb-13a2-4b84-b36b-3bb945348f14"},"vehicle_type_id":"4","last_reported":1778283899,"current_range_meters":8800,"station_id":"ce4bh412rcd13ifvqds0","pricing_plan_id":"cebpf4jnsgd1na2vs0mg"},{"bike_id":"0b84946f-fbe3-484b-8e32-75efad2e42bf","system_id":"levelo_inurba_marseille","lat":43.30253,"lon":5.40077,"is_reserved":false,"is_disabled":false,"rental_uris":{"android":"levelo://app?vid=0b84946f-fbe3-484b-8e32-75efad2e42bf","ios":"levelo://app?vid=0b84946f-fbe3-484b-8e32-75efad2e42bf"},"vehicle_type_id":"4","last_reported":1778283899,"current_range_meters":9200,"station_id":"ce4bgvh2rcd13ifvqcs0","pricing_plan_id":"cebpf4jnsgd1na2vs0mg"},{"bike_id":"4ea77c9e-651a-4f8e-90c5-8d44df937562","system_id":"levelo_inurba_marseille","lat":43.29038,"lon":5.39947,"is_reserved":false,"is_disabled":false,"rental_uris":{"android":"levelo://app?vid=4ea77c9e-651a-4f8e-90c5-8d44df937562","ios":"levelo://app?vid=4ea77c9e-651a-4f8e-90c5-8d44df937562"},"vehicle_type_id":"4","last_reported":1778283899,"current_range_meters":9200,"station_id":"ce4bh392rcd13ifvqdm0","pricing_plan_id":"cebpf4jnsgd1na2vs0mg"},{"bike_id":"59e4a1ef-cde3-435c-ac35-1590f3c40ae5","system_id":"levelo_inurba_marseille","lat":43.26552,"lon":5.37302,"is_reserved":false,"is_disabled":false,"rental_uris":{"android":"levelo://app?vid=59e4a1ef-cde3-435c-ac35-1590f3c40ae5","ios":"levelo://app?vid=59e4a1ef-cde3-435c-ac35-1590f3c40ae5"},"vehicle_type_id":"4","last_reported":1778283899,"current_range_meters":9200,"station_id":"ce4bhg12rcd13ifvqf70","pricing_plan_id":"cebpf4jnsgd1na2vs0mg"},{"bike_id":"5a6c4d1f-5abf-4b00-974f-ebca937c59c1","system_id":"levelo_inurba_marseille","lat":43.29922,"lon":5.37468,"is_reserved":false,"is_disabled":false,"rental_uris":{"android":"levelo://app?vid=5a6c4d1f-5abf-4b00-974f-ebca937c59c1","ios":"levelo://app?vid=5a6c4d1f-5abf-4b00-974f-ebca937c59c1"},"vehicle_type_id":"4","last_reported":1778283899,"current_range_meters":9200,"station_id":"ce4bgjh2rcd13ifvqbg0","pricing_plan_id":"cebpf4jnsgd1na2vs0mg"},{"bike_id":"cac6599d-f38b-41ad-911f-155080b0afc6","system_id":"levelo_inurba_marseille","lat":43.21192,"lon":5.35075,"is_reserved":false,"is_disabled":false,"rental_uris":{"android":"levelo://app?vid=cac6599d-f38b-41ad-911f-155080b0afc6","ios":"levelo://app?vid=cac6599d-f38b-41ad-911f-155080b0afc6"},"vehicle_type_id":"4","last_reported":1778283899,"current_range_meters":9200,"station_id":"st_cvj6sg6p6f1abm77japg","pricing_plan_id":"cebpf4jnsgd1na2vs0mg"},{"bike_id":"799a7949-9d1a-4b53-8d07-a66fdf531119","system_id":"levelo_inurba_marseille","lat":43.27041,"lon":5.40265,"is_reserved":false,"is_disabled":false,"rental_uris":{"android":"levelo://app?vid=799a7949-9d1a-4b53-8d07-a66fdf531119","ios":"levelo://app?vid=799a7949-9d1a-4b53-8d07-a66fdf531119"},"vehicle_type_id":"4","last_reported":1778283899,"current_range_meters":9200,"station_id":"ce4bhk92rcd13ifvqgc0","pricing_plan_id":"cebpf4jnsgd1na2vs0mg"},{"bike_id":"8455e077-2d5f-491b-a899-41902956f844","system_id":"levelo_inurba_marseille","lat":43.28401,"lon":5.37514,"is_reserved":false,"is_disabled":false,"rental_uris":{"android":"levelo://app?vid=8455e077-2d5f-491b-a899-41902956f844","ios":"levelo://app?vid=8455e077-2d5f-491b-a899-41902956f844"},"vehicle_type_id":"4","last_reported":1778283899,"current_range_meters":9200,"station_id":"ce4bh412rcd13ifvqds0","pricing_plan_id":"cebpf4jnsgd1na2vs0mg"},{"bike_id":"b1eefa37-96ae-4f95-a344-438091e1d04d","system_id":"levelo_inurba_marseille","lat":43.31043,"lon":5.39365,"is_reserved":false,"is_disabled":false,"rental_uris":{"android":"levelo://app?vid=b1eefa37-96ae-4f95-a344-438091e1d04d","ios":"levelo://app?vid=b1eefa37-96ae-4f95-a344-438091e1d04d"},