{"last_updated":1744902634,"ttl":60,"version":"2.2","data":{"bikes":[{"bike_id":"4f9ad04c-9b7c-4d12-a382-84b9c424bd9a","system_id":"levelo_inurba_marseille","lat":43.31533,"lon":5.38027,"is_reserved":false,"is_disabled":false,"rental_uris":{"android":"levelo://app?vid=4f9ad04c-9b7c-4d12-a382-84b9c424bd9a","ios":"levelo://app?vid=4f9ad04c-9b7c-4d12-a382-84b9c424bd9a"},"vehicle_type_id":"4","last_reported":1744902634,"current_range_meters":2800,"station_id":"ce4bhsp2rcd13ifvqi50","pricing_plan_id":"cebpf4jnsgd1na2vs0mg"},{"bike_id":"aa16d544-f9ef-4241-af20-18b01869a593","system_id":"levelo_inurba_marseille","lat":43.231924,"lon":5.355609,"is_reserved":false,"is_disabled":false,"rental_uris":{"android":"levelo://app?vid=aa16d544-f9ef-4241-af20-18b01869a593","ios":"levelo://app?vid=aa16d544-f9ef-4241-af20-18b01869a593"},"vehicle_type_id":"4","last_reported":1744902634,"current_range_meters":3600,"station_id":"ce4bhu92rcd13ifvqi70","pricing_plan_id":"cebpf4jnsgd1na2vs0mg"},{"bike_id":"183be9cc-e299-4fd8-a193-ee90547da43b","system_id":"levelo_inurba_marseille","lat":43.30598,"lon":5.3723,"is_reserved":false,"is_disabled":false,"rental_uris":{"android":"levelo://app?vid=183be9cc-e299-4fd8-a193-ee90547da43b","ios":"levelo://app?vid=183be9cc-e299-4fd8-a193-ee90547da43b"},"vehicle_type_id":"4","last_reported":1744902634,"current_range_meters":5600,"station_id":"ce4bgqh2rcd13ifvqc4g","pricing_plan_id":"cebpf4jnsgd1na2vs0mg"},{"bike_id":"161041a7-2825-4cf8-89e4-9cd4f18d4824","system_id":"levelo_inurba_marseille","lat":43.28619,"lon":5.351,"is_reserved":false,"is_disabled":false,"rental_uris":{"android":"levelo://app?vid=161041a7-2825-4cf8-89e4-9cd4f18d4824","ios":"levelo://app?vid=161041a7-2825-4cf8-89e4-9cd4f18d4824"},"vehicle_type_id":"4","last_reported":1744902634,"current_range_meters":6400,"station_id":"ce4bhch2rcd13ifvqeug","pricing_plan_id":"cebpf4jnsgd1na2vs0mg"},{"bike_id":"c4badf82-6b67-4876-817c-7bbb53131d9e","system_id":"levelo_inurba_marseille","lat":43.29253,"lon":5.38425,"is_reserved":false,"is_disabled":false,"rental_uris":{"android":"levelo://app?vid=c4badf82-6b67-4876-817c-7bbb53131d9e","ios":"levelo://app?vid=c4badf82-6b67-4876-817c-7bbb53131d9e"},"vehicle_type_id":"4","last_reported":1744902634,"current_range_meters":6400,"station_id":"ce4bh692rcd13ifvqea0","pricing_plan_id":"cebpf4jnsgd1na2vs0mg"},{"bike_id":"048f8c34-c758-47f1-8148-d46b8f77f501","system_id":"levelo_inurba_marseille","lat":43.24585,"lon":5.37463,"is_reserved":false,"is_disabled":false,"rental_uris":{"android":"levelo://app?vid=048f8c34-c758-47f1-8148-d46b8f77f501","ios":"levelo://app?vid=048f8c34-c758-47f1-8148-d46b8f77f501"},"vehicle_type_id":"4","last_reported":1744902634,"current_range_meters":6800,"station_id":"","pricing_plan_id":"cebpf4jnsgd1na2vs0mg"},{"bike_id":"b0dbd109-dd07-40d7-86e1-bf3b86717302","system_id":"levelo_inurba_marseille","lat":43.28002,"lon":5.40029,"is_reserved":false,"is_disabled":false,"rental_uris":{"android":"levelo://app?vid=b0dbd109-dd07-40d7-86e1-bf3b86717302","ios":"levelo://app?vid=b0dbd109-dd07-40d7-86e1-bf3b86717302"},"vehicle_type_id":"4","last_reported":1744902634,"current_range_meters":6800,"station_id":"ce4bho92rcd13ifvqh4g","pricing_plan_id":"cebpf4jnsgd1na2vs0mg"},{"bike_id":"575c843c-1b74-4dd5-b48f-1b33ee58b5a7","system_id":"levelo_inurba_marseille","lat":43.21751,"lon":5.34606,"is_reserved":false,"is_disabled":false,"rental_uris":{"android":"levelo://app?vid=575c843c-1b74-4dd5-b48f-1b33ee58b5a7","ios":"levelo://app?vid=575c843c-1b74-4dd5-b48f-1b33ee58b5a7"},"vehicle_type_id":"4","last_reported":1744902634,"current_range_meters":7200,"station_id":"st_cvj6r9ubvosntc0bgbag","pricing_plan_id":"cebpf4jnsgd1na2vs0mg"},{"bike_id":"7b4a1346-cc63-413b-a265-5dc666d88c1a","system_id":"levelo_inurba_marseille","lat":43.29541,"lon":5.38553,"is_reserved":false,"is_disabled":false,"rental_uris":{"android":"levelo://app?vid=7b4a1346-cc63-413b-a265-5dc666d88c1a","ios":"levelo://app?vid=7b4a1346-cc63-413b-a265-5dc666d88c1a"},"vehicle_type_id":"4","last_reported":1744902634,"current_range_meters":8000,"station_id":"ce4bgih2rcd13ifvqba0","pricing_plan_id":"cebpf4jnsgd1na2vs0mg"},{"bike_id":"994695a9-98fd-4da6-9191-c96330e6cffb","system_id":"levelo_inurba_marseille","lat":43.21775,"lon":5.34616,"is_reserved":false,"is_disabled":false,"rental_uris":{"android":"levelo://app?vid=994695a9-98fd-4da6-9191-c96330e6cffb","ios":"levelo://app?vid=994695a9-98fd-4da6-9191-c96330e6cffb"},"vehicle_type_id":"4","last_reported":1744902634,"current_range_meters":8000,"station_id":"st_cvj6r9ubvosntc0bgbag","pricing_plan_id":"cebpf4jnsgd1na2vs0mg"},{"bike_id":"09002642-e1dc-4dc3-a673-71dae931d56f","system_id":"levelo_inurba_marseille","lat":43.21748,"lon":5.34588,"is_reserved":false,"is_disabled":false,"rental_uris":{"android":"levelo://app?vid=09002642-e1dc-4dc3-a673-71dae931d56f","ios":"levelo://app?vid=09002642-e1dc-4dc3-a673-71dae931d56f"},"vehicle_type_id":"4","last_reported":1744902634,"current_range_meters":8800,"station_id":"st_cvj6r9ubvosntc0bgbag","pricing_plan_id":"cebpf4jnsgd1na2vs0mg"},{"bike_id":"e2fca265-51ed-4986-8f4c-b2b897d6d52a","system_id":"levelo_inurba_marseille","lat":43.28075,"lon":5.3963,"is_reserved":false,"is_disabled":false,"rental_uris":{"android":"levelo://app?vid=e2fca265-51ed-4986-8f4c-b2b897d6d52a","ios":"levelo://app?vid=e2fca265-51ed-4986-8f4c-b2b897d6d52a"},"vehicle_type_id":"4","last_reported":1744902634,"current_range_meters":8800,"station_id":"ce4bho12rcd13ifvqh2g","pricing_plan_id":"cebpf4jnsgd1na2vs0mg"},{"bike_id":"2ba30249-2877-4ac7-bbae-abd9b4242999","system_id":"levelo_inurba_marseille","lat":43.29628,"lon":5.37713,"is_reserved":false,"is_disabled":false,"rental_uris":{"android":"levelo://app?vid=2ba30249-2877-4ac7-bbae-abd9b4242999","ios":"levelo://app?vid=2ba30249-2877-4ac7-bbae-abd9b4242999"},"vehicle_type_id":"4","last_reported":1744902634,"current_range_meters":8800,"station_id":"ce4bgi92rcd13ifvqb90","pricing_plan_id":"cebpf4jnsgd1na2vs0mg"},{"bike_id":"1bdba7a7-a82e-4252-906c-80db6beb180e","system_id":"levelo_inurba_marseille","lat":43.33774,"lon":5.37473,"is_reserved":false,"is_disabled":false,"rental_uris":{"android":"levelo://app?vid=1bdba7a7-a82e-4252-906c-80db6beb180e","ios":"levelo://app?vid=1bdba7a7-a82e-4252-906c-80db6beb180e"},"vehicle_type_id":"4","last_reported":1744902634,"current_range_meters":9200,"station_id":"","pricing_plan_id":"cebpf4jnsgd1na2vs0mg"},{"bike_id":"6a52c25e-e42a-4237-a980-f6f82f2e061e","system_id":"levelo_inurba_marseille","lat":43.21193,"lon":5.35076,"is_reserved":false,"is_disabled":false,"rental_uris":{"android":"levelo://app?vid=6a52c25e-e42a-4237-a980-f6f82f2e061e","ios":"levelo://app?vid=6a52c25e-e42a-4237-a980-f6f82f2e061e"},"vehicle_type_id":"4","last_reported":1744902634,"current_range_meters":9200,"station_id":"st_cvj6sg6p6f1abm77japg","pricing_plan_id":"cebpf4jnsgd1na2vs0mg"},{"bike_id":"23c89306-f85c-4827-8004-f1517f23894a","system_id":"levelo_inurba_marseille","lat":43.30278,"lon":5.37689,"is_reserved":false,"is_disabled":false,"rental_uris":{"android":"levelo://app?vid=23c89306-f85c-4827-8004-f1517f23894a","ios":"levelo://app?vid=23c89306-f85c-4827-8004-f1517f23894a"},"vehicle_type_id":"4","last_reported":1744902634,"current_range_meters":9200,"station_id":"ce4bguh2rcd13ifvqcj0","pricing_plan_id":"cebpf4jnsgd1na2vs0mg"},{"bike_id":"1e0f19dd-8f37-4aae-9a3b-3304b429f09e","system_id":"levelo_inurba_marseille","lat":43.30444,"lon":5.38887,"is_reserved":false,"is_disabled":false,"rental_uris":{"android":"levelo://app?vid=1e0f19dd-8f37-4aae-9a3b-3304b429f09e","ios":"levelo://app?vid=1e0f19dd-8f37-4aae-9a3b-3304b429f09e"},"vehicle_type_id":"4","last_reported":1744902634,"current_range_meters":10000,"station_id":"ce4bgk12rcd13ifvqbi0","pricing_plan_id":"cebpf4jnsgd1na2vs0mg"},{"bike_id":"ae623da4-6edd-49fd-8225-0e029ec4d0f1","system_id":"levelo_inurba_marseille","lat":43.284668,"lon":5.384033,"is_reserved":false,"is_disabled":false,"rental_uris":{"android":"levelo://app?vid=ae623da4-6edd-49fd-8225-0e029ec4d0f1","ios":"levelo://app?vid=ae623da4-6edd-49fd-8225-0e029ec4d0f1"},"vehicle_type_id":"4","last_reported":1744902634,"current_range_meters":9600,"station_id":"ce4bhbh2rcd13ifvqeo0","pricing_plan_id":"cebpf4jnsgd1na2vs0mg"},{"bike_id":"0a0b0a73-2b27-49fb-801a-3111dcebfbac","system_id":"levelo_inurba_marseille","lat":43.27499,"lon":5.424527,"is_reserved":false,"is_disabled":false,"rental_uris":{"android":"levelo://app?vid=0a0b0a73-2b27-49fb-801a-3111dcebfbac","ios":"levelo://app?vid=0a0b0a73-2b27-49fb-801a-3111dcebfbac"},"vehicle_type_id":"4","last_reported":1744902634,"current_range_meters":9600,"station_id":"ce4bhn92rcd13ifvqgrg","pricing_plan_id":"cebpf4jnsgd1na2vs0mg"},{"bike_id":"6a42fdd6-075d-4748-811a-29f5845c8920","system_id":"levelo_inurba_marseille","lat":43.21747,"lon":5.34603,"is_reserved":false,"is_disabled":false,"rental_uris":{"android":"levelo://app?vid=6a42fdd6-075d-4748-811a-29f5845c8920","ios":"levelo://app?vid=6a42fdd6-075d-4748-811a-29f5845c8920"},"vehicle_type_id":"4","last_reported":1744902634,"current_range_meters":10000,"station_id":"st_cvj6r9ubvosntc0bgbag","pricing_plan_id":"cebpf4jnsgd1na2vs0mg"},{"bike_id":"67ef3f3f-85cc-4778-8f9a-e4d935bed89c","system_id":"levelo_inurba_marseille","lat":43.30343,"lon":5.4043,"is_reserved":false,"is_disabled":false,"rental_uris":{"android":"levelo://app?vid=67ef3f3f-85cc-4778-8f9a-e4d935bed89c","ios":"levelo://app?vid=67ef3f3f-85cc-4778-8f9a-e4d935bed89c"},"vehicle_type_id":"4","last_reported":1744902634,"current_range_meters":10000,"station_id":"ce4bh012rcd13ifvqd10","pricing_plan_id":"cebpf4jnsgd1na2vs0mg"},{"bike_id":"2df22311-bac1-4b8f-abff-11893969de63","system_id":"levelo_inurba_marseille","lat":43.31093,"lon":5.37867,"is_reserved":false,"is_disabled":false,"rental_uris":{"android":"levelo://app?vid=2df22311-bac1-4b8f-abff-11893969de63","ios":"levelo://app?vid=2df22311-bac1-4b8f-abff-11893969de63"},"vehicle_type_id":"4","last_reported":1744902634,"current_range_meters":10000,"station_id":"","pricing_plan_id":"cebpf4jnsgd1na2vs0mg"},{"bike_id":"408eca25-c9e3-4259-ba41-7160925f4d7a","system_id":"levelo_inurba_marseille","lat":43.217428,"lon":5.346137,"is_reserved":false,"is_disabled":false,"rental_uris":{"android":"levelo://app?vid=408eca25-c9e3-4259-ba41-7160925f4d7a","ios":"levelo://app?vid=408eca25-c9e3-4259-ba41-7160925f4d7a"},"vehicle_type_id":"4","last_reported":1744902634,"current_range_meters":10000,"station_id":"st_cvj6r9ubvosntc0bgbag","pricing_plan_id":"cebpf4jnsgd1na2vs0mg"},{"bike_id":"4f4bf14b-bc4e-4700-bbea-e39755699b01","system_id":"levelo_inurba_marseille","lat":43.26784,"lon":5.3942,"is_reserved":false,"is_disabled":false,"rental_uris":{"android":"levelo://app?vid=4f4bf14b-bc4e-4700-bbea-e39755699b01","ios":"levelo://app?vid=4f4bf14b-bc4e-4700-bbea-e39755699b01"},"vehicle_type_id":"4","last_reported":1744902634,"current_range_meters":9600,"station_id":"ce4bhh12rcd13ifvqfg0","pricing_plan_id":"cebpf4jnsgd1na2vs0mg"},{"bike_id":"9f8e06d3-5872-4f4e-b571-578e00489c6c","system_id":"levelo_inurba_marseille","lat":43.26203,"lon":5.37448,"is_reserved":false,"is_disabled":false,"rental_uris":{"android":"levelo://app?vid=9f8e06d3-5872-4f4e-b571-578e00489c6c","ios":"levelo://app?vid=9f8e06d3-5872-4f4e-b571-578e00489c6c"},"vehicle_type_id":"4","last_reported":1744902634,"current_range_meters":10000,"station_id":"ce4bhgp2rcd13ifvqfc0","pricing_plan_id":"cebpf4jnsgd1na2vs0mg"},{"bike_id":"4efcb470-9499-4fe2-90b9-fa6f92e44a10","system_id":"levelo_inurba_marseille","lat":43.29967,"lon":5.38497,"is_reserved":false,"is_disabled":false,"rental_uris":{"android":"levelo://app?vid=4efcb470-9499-4fe2-90b9-fa6f92e44a10","ios":"levelo://app?vid=4efcb470-9499-4fe2-90b9-fa6f92e44a10"},"vehicle_type_id":"4","last_reported":1744902634,"current_range_meters":14000,"station_id":"ce4bgj92rcd13ifvqbd0","pricing_plan_id":"cebpf4jnsgd1na2vs0mg"},{"bike_id":"a0f67ce2-a27b-49c2-8e0d-492e2b0e1642","system_id":"levelo_inurba_marseille","lat":43.24671,"lon":5.3817,"is_reserved":false,"is_disabled":false,"rental_uris":{"android":"levelo://app?vid=a0f67ce2-a27b-49c2-8e0d-492e2b0e1642","ios":"levelo://app?vid=a0f67ce2-a27b-49c2-8e0d-492e2b0e1642"},"vehicle_type_id":"4","last_reported":1744902634,"current_range_meters":11600,"station_id":"ce4bhih2rcd13ifvqfr0","pricing_plan_id":"cebpf4jnsgd1na2vs0mg"},{"bike_id":"6182d45b-191a-4249-88bd-5fad61239bca","system_id":"levelo_inurba_marseille","lat":43.21741,"lon":5.34614,"is_reserved":false,"is_disabled":false,"rental_uris":{"android":"levelo://app?vid=6182d45b-191a-4249-88bd-5fad61239bca","ios":"levelo://app?vid=6182d45b-191a-4249-88bd-5fad61239bca"},"vehicle_type_id":"4","last_reported":1744902634,"current_range_meters":11600,"station_id":"st_cvj6r9ubvosntc0bgbag","pricing_plan_id":"cebpf4jnsgd1na2vs0mg"},{"bike_id":"7c67b9cd-54d7-43a4-95fb-c0c285ea79f2","system_id":"levelo_inurba_marseille","lat":43.29905,"lon":5.38152,"is_reserved":false,"is_disabled":false,"rental_uris":{"android":"levelo://app?vid=7c67b9cd-54d7-43a4-95fb-c0c285ea79f2","ios":"levelo://app?vid=7c67b9cd-54d7-43a4-95fb-c0c285ea79f2"},"vehicle_type_id":"4","last_reported":1744902634,"current_range_meters":11600,"station_id":"ce4bgj12rcd13ifvqbc0","pricing_plan_id":"cebpf4jnsgd1na2vs0mg"},{"bike_id":"b0a06712-9fbf-40ac-8f38-cb57d0bf8f14","system_id":"levelo_inurba_marseille","lat":43.326593,"lon":5.410094,"is_reserved":false,"is_disabled":false,"rental_uris":{"android":"levelo://app?vid=b0a06712-9fbf-40ac-8f38-cb57d0bf8f14","ios":"levelo://app?vid=b0a06712-9fbf-40ac-8f38-cb57d0bf8f14"},"vehicle_type_id":"4","last_reported":1744902634,"current_range_meters":12000,"station_id":"ce4bhpp2rcd13ifvqhgg","pricing_plan_id":"cebpf4jnsgd1na2vs0mg"},{"bike_id":"ff935f1c-246d-4e07-a399-40ad7e059de5","system_id":"levelo_inurba_marseille","lat":43.25477,"lon":5.37702,"is_reserved":false,"is_disabled":true,"rental_uris":{"android":"levelo://app?vid=ff935f1c-246d-4e07-a399-40ad7e059de5","ios":"levelo://app?vid=ff935f1c-246d-4e07-a399-40ad7e059de5"},"vehicle_type_id":"4","last_reported":1744902634,"current_range_meters":12000,"station_id":"ce4bhh12rcd13ifvqff0","pricing_plan_id":"cebpf4jnsgd1na2vs0mg"},{"bike_id":"01909e86-1f8c-422d-a82f-2c82665dffe4","system_id":"levelo_inurba_marseille","lat":43.299561,"lon":5.385127,"is_reserved":false,"is_disabled":false,"rental_uris":{"android":"levelo://app?vid=01909e86-1f8c-422d-a82f-2c82665dffe4","ios":"levelo://app?vid=01909e86-1f8c-422d-a82f-2c82665dffe4"},"vehicle_type_id":"4","last_reported":1744902634,"current_range_meters":12000,"station_id":"ce4bgj92rcd13ifvqbd0","pricing_plan_id":"cebpf4jnsgd1na2vs0mg"},{"bike_id":"36c134b3-0d16-419f-a88f-82afe26f7c42","system_id":"levelo_inurba_marseille","lat":43.24075,"lon":5.37762,"is_reserved":false,"is_disabled":false,"rental_uris":{"android":"levelo://app?vid=36c134b3-0d16-419f-a88f-82afe26f7c42","ios":"levelo://app?vid=36c134b3-0d16-419f-a88f-82afe26f7c42"},"vehicle_type_id":"4","last_reported":1744902634,"current_range_meters":12000,"station_id":"ce4bhnp2rcd13ifvqgvg","pricing_plan_id":"cebpf4jnsgd1na2vs0mg"},{"bike_id":"13fcfb4c-7dbd-450b-9f3a-e1fc1d3da376","system_id":"levelo_inurba_marseille","lat":43.29604,"lon":5.38112,"is_reserved":false,"is_disabled":false,"rental_uris":{"android":"levelo://app?vid=13fcfb4c-7dbd-450b-9f3a-e1fc1d3da376","ios":"levelo://app?vid=13fcfb4c-7dbd-450b-9f3a-e1fc1d3da376"},"vehicle_type_id":"4","last_reported":1744902634,"current_range_meters":12000,"station_id":"ce4bgl12rcd13ifvqbo0","pricing_plan_id":"cebpf4jnsgd1na2vs0mg"},{"bike_id":"9ae4de2b-65d6-4c8d-9fd9-eb2927f36e22","system_id":"levelo_inurba_marseille","lat":43.23368,"lon":5.36525,"is_reserved":false,"is_disabled":false,"rental_uris":{"android":"levelo://app?vid=9ae4de2b-65d6-4c8d-9fd9-eb2927f36e22","ios":"levelo://app?vid=9ae4de2b-65d6-4c8d-9fd9-eb2927f36e22"},"vehicle_type_id":"4","last_reported":1744902634,"current_range_meters":12000,"station_id":"","pricing_plan_id":"cebpf4jnsgd1na2vs0mg"},{"bike_id":"2e3d1586-39b9-4f2e-a808-4f2fbc6116b5","system_id":"levelo_inurba_marseille","lat":43.284133,"lon":5.375117,"is_reserved":false,"is_disabled":false,"rental_uris":{"android":"levelo://app?vid=2e3d1586-39b9-4f2e-a808-4f2fbc6116b5","ios":"levelo://app?vid=2e3d1586-39b9-4f2e-a808-4f2fbc6116b5"},"vehicle_type_id":"4","last_reported":1744902634,"current_range_meters":12400,"station_id":"ce4bh412rcd13ifvqds0","pricing_plan_id":"cebpf4jnsgd1na2vs0mg"},{"bike_id":"1f7d122c-16bb-45ee-a4cf-eb65fb257913","system_id":"levelo_inurba_marseille","lat":43.2842,"lon":5.37525,"is_reserved":false,"is_disabled":false,"rental_uris":{"android":"levelo://app?vid=1f7d122c-16bb-45ee-a4cf-eb65fb257913","ios":"levelo://app?vid=1f7d122c-16bb-45ee-a4cf-eb65fb257913"},"vehicle_type_id":"4","last_reported":1744902634,"current_range_meters":12400,"station_id":"ce4bh412rcd13ifvqds0","pricing_plan_id":"cebpf4jnsgd1na2vs0mg"},{"bike_id":"d46609d5-5233-4631-a6f7-4a8a4b34a8fa","system_id":"levelo_inurba_marseille","lat":43.25834,"lon":5.39428,"is_reserved":false,"is_disabled":false,"rental_uris":{"android":"levelo://app?vid=d46609d5-5233-4631-a6f7-4a8a4b34a8fa","ios":"levelo://app?vid=d46609d5-5233-4631-a6f7-4a8a4b34a8fa"},"vehicle_type_id":"4","last_reported":1744902634,"current_range_meters":12400,"station_id":"ce4bhip2rcd13ifvqft0","pricing_plan_id":"cebpf4jnsgd1na2vs0mg"},{"bike_id":"da0699e6-fffb-42fd-bda2-fa249cfedfd8","system_id":"levelo_inurba_marseille","lat":43.3149,"lon":5.37299,"is_reserved":false,"is_disabled":false,"rental_uris":{"android":"levelo://app?vid=da0699e6-fffb-42fd-bda2-fa249cfedfd8","ios":"levelo://app?vid=da0699e6-fffb-42fd-bda2-fa249cfedfd8"},"vehicle_type_id":"4","last_reported":1744902634,"current_range_meters":12800,"station_id":"ce4bgt12rcd13ifvqcd0","pricing_plan_id":"cebpf4jnsgd1na2vs0mg"},{"bike_id":"dc2581d8-2e7b-4c43-aa5e-52f481bfc702","system_id":"levelo_inurba_marseille","lat":43.30481,"lon":5.37912,"is_reserved":false,"is_disabled":false,"rental_uris":{"android":"levelo://app?vid=dc2581d8-2e7b-4c43-aa5e-52f481bfc702","ios":"levelo://app?vid=dc2581d8-2e7b-4c43-aa5e-52f481bfc702"},"vehicle_type_id":"4","last_reported":1744902634,"current_range_meters":12800,"station_id":"ce4bgup2rcd13ifvqcn0","pricing_plan_id":"cebpf4jnsgd1na2vs0mg"},{"bike_id":"ea51f6de-059b-403c-9bfb-569a402108dd","system_id":"levelo_inurba_marseille","lat":43.30942,"lon":5.40136,"is_reserved":false,"is_disabled":false,"rental_uris":{"android":"levelo://app?vid=ea51f6de-059b-403c-9bfb-569a402108dd","ios":"levelo://app?vid=ea51f6de-059b-403c-9bfb-569a402108dd"},"vehicle_type_id":"4","last_reported":1744902634,"current_range_meters":12800,"station_id":"ce4bgvp2rcd13ifvqct0","pricing_plan_id":"cebpf4jnsgd1na2vs0mg"},{"bike_id":"559306d4-8b23-4192-b8d5-28a38ab3887f","system_id":"levelo_inurba_marseille","lat":43.29931,"lon":5.36532,"is_reserved":false,"is_disabled":false,"rental_uris":{"android":"levelo://app?vid=559306d4-8b23-4192-b8d5-28a38ab3887f","ios":"levelo://app?vid=559306d4-8b23-4192-b8d5-28a38ab3887f"},"vehicle_type_id":"4","last_reported":1744902634,"current_range_meters":13600,"station_id":"ce4bgm92rcd13ifvqbr0","pricing_plan_id":"cebpf4jnsgd1na2vs0mg"},{"bike_id":"9f012665-a1ac-4dc3-8504-6f82c4598cf6","system_id":"levelo_inurba_marseille","lat":43.2928,"lon":5.38456,"is_reserved":false,"is_disabled":false,"rental_uris":{"android":"levelo://app?vid=9f012665-a1ac-4dc3-8504-6f82c4598cf6","ios":"levelo://app?vid=9f012665-a1ac-4dc3-8504-6f82c4598cf6"},"vehicle_type_id":"4","last_reported":1744902634,"current_range_meters":13600,"station_id":"ce4bh692rcd13ifvqea0","pricing_plan_id":"cebpf4jnsgd1na2vs0mg"},{"bike_id":"ec8c9ac7-1e95-4171-97f3-226ce1e3c951","system_id":"levelo_inurba_marseille","lat":43.32117,"lon":5.36815,"is_reserved":false,"is_disabled":false,"rental_uris":{"android":"levelo://app?vid=ec8c9ac7-1e95-4171-97f3-226ce1e3c951","ios":"levelo://app?vid=ec8c9ac7-1e95-4171-97f3-226ce1e3c951"},"vehicle_type_id":"4","last_reported":1744902634,"current_range_meters":13600,"station_id":"ce4bhrh2rcd13ifvqhug","pricing_plan_id":"cebpf4jnsgd1na2vs0mg"},{"bike_id":"dc3b3801-159e-48ce-b9e3-78c86a91fdca","system_id":"levelo_inurba_marseille","lat":43.2998,"lon":5.38496,"is_reserved":false,"is_disabled":false,"rental_uris":{"android":"levelo://app?vid=dc3b3801-159e-48ce-b9e3-78c86a91fdca","ios":"levelo://app?vid=dc3b3801-159e-48ce-b9e3-78c86a91fdca"},"vehicle_type_id":"4","last_reported":1744902634,"current_range_meters":13600,"station_id":"ce4bgj92rcd13ifvqbd0","pricing_plan_id":"cebpf4jnsgd1na2vs0mg"},{"bike_id":"1b0431e3-bc69-42be-9c43-c858abf644b2","system_id":"levelo_inurba_marseille","lat":43.29601,"lon":5.38104,"is_reserved":false,"is_disabled":false,"rental_uris":{"android":"levelo://app?vid=1b0431e3-bc69-42be-9c43-c858abf644b2","ios":"levelo://app?vid=1b0431e3-bc69-42be-9c43-c858abf644b2"},"vehicle_type_id":"4","last_reported":1744902634,"current_range_meters":12800,"station_id":"ce4bgl12rcd13ifvqbo0","pricing_plan_id":"cebpf4jnsgd1na2vs0mg"},{"bike_id":"ae0e1566-e631-4bc5-9aed-0ebca70f0554","system_id":"levelo_inurba_marseille","lat":43.28616,"lon":5.35112,"is_reserved":false,"is_disabled":false,"rental_uris":{"android":"levelo://app?vid=ae0e1566-e631-4bc5-9aed-0ebca70f0554","ios":"levelo://app?vid=ae0e1566-e631-4bc5-9aed-0ebca70f0554"},"vehicle_type_id":"4","last_reported":1744902634,"current_range_meters":13600,"station_id":"ce4bhch2rcd13ifvqeug","pricing_plan_id":"cebpf4jnsgd1na2vs0mg"},{"bike_id":"173d39b4-7a97-4693-9385-db8bda0fe199","system_id":"levelo_inurba_marseille","lat":43.21761,"lon":5.34578,"is_reserved":false,"is_disabled":false,"rental_uris":{"android":"levelo://app?vid=173d39b4-7a97-4693-9385-db8bda0fe199","ios":"levelo://app?vid=173d39b4-7a97-4693-9385-db8bda0fe199"},"vehicle_type_id":"4","last_reported":1744902634,"current_range_meters":14000,"station_id":"st_cvj6r9ubvosntc0bgbag","pricing_plan_id":"cebpf4jnsgd1na2vs0mg"},{"bike_id":"4a17a27b-4979-4133-9ae1-996785f8fee4","system_id":"levelo_inurba_marseille","lat":43.23133,"lon":5.35513,"is_reserved":false,"is_disabled":false,"rental_uris":{"android":"levelo://app?vid=4a17a27b-4979-4133-9ae1-996785f8fee4","ios":"levelo://app?vid=4a17a27b-4979-4133-9ae1-996785f8fee4"},"vehicle_type_id":"4","last_reported":1744902634,"current_range_meters":14000,"station_id":"ce4bhu92rcd13ifvqi70","pricing_plan_id":"cebpf4jnsgd1na2vs0mg"},{"bike_id":"4475cba4-f96f-4714-82f1-7c010c1af46b","system_id":"levelo_inurba_marseille","lat":43.26205,"lon":5.37924,"is_reserved":false,"is_disabled":false,"rental_uris":{"android":"levelo://app?vid=4475cba4-f96f-4714-82f1-7c010c1af46b","ios":"levelo://app?vid=4475cba4-f96f-4714-82f1-7c010c1af46b"},"vehicle_type_id":"4","last_reported":1744902634,"current_range_meters":14400,"station_id":"ce4bhjp2rcd13ifvqg90","pricing_plan_id":"cebpf4jnsgd1na2vs0mg"},{"bike_id":"43f93ac4-34bb-4b70-8a41-4121e0851f43","system_id":"levelo_inurba_marseille","lat":43.25825,"lon":5.3944,"is_reserved":false,"is_disabled":false,"rental_uris":{"android":"levelo://app?vid=43f93ac4-34bb-4b70-8a41-4121e0851f43","ios":"levelo://app?vid=43f93ac4-34bb-4b70-8a41-4121e0851f43"},"vehicle_type_id":"4","last_reported":1744902634,"current_range_meters":14800,"station_id":"ce4bhip2rcd13ifvqft0","pricing_plan_id":"cebpf4jnsgd1na2vs0mg"},{"bike_id":"4f5949cd-aa32-4e2a-8f94-d009bdd8c8cd","system_id":"levelo_inurba_marseille","lat":43.30392,"lon":5.42488,"is_reserved":false,"is_disabled":false,"rental_uris":{"android":"levelo://app?vid=4f5949cd-aa32-4e2a-8f94-d009bdd8c8cd","ios":"levelo://app?vid=4f5949cd-aa32-4e2a-8f94-d009bdd8c8cd"},"vehicle_type_id":"4","last_reported":1744902634,"current_range_meters":14800,"station_id":"ce4bhoh2rcd13ifvqh6g","pricing_plan_id":"cebpf4jnsgd1na2vs0mg"},{"bike_id":"e7d006af-0166-470f-b77d-82060ae2b864","system_id":"levelo_inurba_marseille","lat":43.29373,"lon":5.37844,"is_reserved":false,"is_disabled":false,"rental_uris":{"android":"levelo://app?vid=e7d006af-0166-470f-b77d-82060ae2b864","ios":"levelo://app?vid=e7d006af-0166-470f-b77d-82060ae2b864"},"vehicle_type_id":"4","last_reported":1744902634,"current_range_meters":12800,"station_id":"ce4bgjh2rcd13ifvqbf0","pricing_plan_id":"cebpf4jnsgd1na2vs0mg"},{"bike_id":"cc7ac33d-b61e-49f5-ad83-554a3d040679","system_id":"levelo_inurba_marseille","lat":43.30602,"lon":5.37966,"is_reserved":false,"is_disabled":false,"rental_uris":{"android":"levelo://app?vid=cc7ac33d-b61e-49f5-ad83-554a3d040679","ios":"levelo://app?vid=cc7ac33d-b61e-49f5-ad83-554a3d040679"},"vehicle_type_id":"4","last_reported":1744902634,"current_range_meters":14800,"station_id":"","pricing_plan_id":"cebpf4jnsgd1na2vs0mg"},{"bike_id":"5ec448d8-0dbd-4eac-9053-d5eaff95cf64","system_id":"levelo_inurba_marseille","lat":43.30647,"lon":5.40102,"is_reserved":false,"is_disabled":false,"rental_uris":{"android":"levelo://app?vid=5ec448d8-0dbd-4eac-9053-d5eaff95cf64","ios":"levelo://app?vid=5ec448d8-0dbd-4eac-9053-d5eaff95cf64"},"vehicle_type_id":"4","last_reported":1744902634,"current_range_meters":15200,"station_id":"ce4bh112rcd13ifvqda0","pricing_plan_id":"cebpf4jnsgd1na2vs0mg"},{"bike_id":"41fb0398-f2fe-4abb-ae37-a38f47615ea9","system_id":"levelo_inurba_marseille","lat":43.323579,"lon":5.367598,"is_reserved":false,"is_disabled":false,"rental_uris":{"android":"levelo://app?vid=41fb0398-f2fe-4abb-ae37-a38f47615ea9","ios":"levelo://app?vid=41fb0398-f2fe-4abb-ae37-a38f47615ea9"},"vehicle_type_id":"4","last_reported":1744902634,"current_range_meters":15200,"station_id":"ce4bhsh2rcd13ifvqi2g","pricing_plan_id":"cebpf4jnsgd1na2vs0mg"},{"bike_id":"2da19230-f53a-427c-9cf4-a00e50b76f57","system_id":"levelo_inurba_marseille","lat":43.24074,"lon":5.37776,"is_reserved":false,"is_disabled":false,"rental_uris":{"android":"levelo://app?vid=2da19230-f53a-427c-9cf4-a00e50b76f57","ios":"levelo://app?vid=2da19230-f53a-427c-9cf4-a00e50b76f57"},"vehicle_type_id":"4","last_reported":1744902634,"current_range_meters":15200,"station_id":"ce4bhnp2rcd13ifvqgvg","pricing_plan_id":"cebpf4jnsgd1na2vs0mg"},{"bike_id":"04657881-18eb-45ab-8fbd-9926a7c863cf","system_id":"levelo_inurba_marseille","lat":43.28616,"lon":5.3511,"is_reserved":false,"is_disabled":false,"rental_uris":{"android":"levelo://app?vid=04657881-18eb-45ab-8fbd-9926a7c863cf","ios":"levelo://app?vid=04657881-18eb-45ab-8fbd-9926a7c863cf"},"vehicle_type_id":"4","last_reported":1744902634,"current_range_meters":15200,"station_id":"ce4bhch2rcd13ifvqeug","pricing_plan_id":"cebpf4jnsgd1na2vs0mg"},{"bike_id":"386b66dd-54dd-4f23-9399-5feab1b083fa","system_id":"levelo_inurba_marseille","lat":43.29671,"lon":5.37827,"is_reserved":false,"is_disabled":false,"rental_uris":{"android":"levelo://app?vid=386b66dd-54dd-4f23-9399-5feab1b083fa","ios":"levelo://app?vid=386b66dd-54dd-4f23-9399-5feab1b083fa"},"vehicle_type_id":"4","last_reported":1744902634,"current_range_meters":15200,"station_id":"","pricing_plan_id":"cebpf4jnsgd1na2vs0mg"},{"bike_id":"d750596a-6ac6-4755-84cc-45acd4464f3d","system_id":"levelo_inurba_marseille","lat":43.243907,"lon":5.370698,"is_reserved":false,"is_disabled":false,"rental_uris":{"android":"levelo://app?vid=d750596a-6ac6-4755-84cc-45acd4464f3d","ios":"levelo://app?vid=d750596a-6ac6-4755-84cc-45acd4464f3d"},"vehicle_type_id":"4","last_reported":1744902634,"current_range_meters":16000,"station_id":"ce4bhhh2rcd13ifvqfk0","pricing_plan_id":"cebpf4jnsgd1na2vs0mg"},{"bike_id":"efb84f9c-3aa1-43e2-97ac-cb40e0853479","system_id":"levelo_inurba_marseille","lat":43.25106,"lon":5.40346,"is_reserved":false,"is_disabled":false,"rental_uris":{"android":"levelo://app?vid=efb84f9c-3aa1-43e2-97ac-cb40e0853479","ios":"levelo://app?vid=efb84f9c-3aa1-43e2-97ac-cb40e0853479"},"vehicle_type_id":"4","last_reported":1744902634,"current_range_meters":16000,"station_id":"ce4bhlh2rcd13ifvqgig","pricing_plan_id":"cebpf4jnsgd1na2vs0mg"},{"bike_id":"e14c265e-eca3-4791-a3e7-f534121ae166","system_id":"levelo_inurba_marseille","lat":43.22931,"lon":5.35382,"is_reserved":false,"is_disabled":false,"rental_uris":{"android":"levelo://app?vid=e14c265e-eca3-4791-a3e7-f534121ae166","ios":"levelo://app?vid=e14c265e-eca3-4791-a3e7-f534121ae166"},"vehicle_type_id":"4","last_reported":1744902634,"current_range_meters":16000,"station_id":"cpo3532slgdg3j2ikp40","pricing_plan_id":"cebpf4jnsgd1na2vs0mg"},{"bike_id":"6902e231-849f-4895-8679-94968919fc31","system_id":"levelo_inurba_marseille","lat":43.26955,"lon":5.38632,"is_reserved":false,"is_disabled":false,"rental_uris":{"android":"levelo://app?vid=6902e231-849f-4895-8679-94968919fc31","ios":"levelo://app?vid=6902e231-849f-4895-8679-94968919fc31"},"vehicle_type_id":"4","last_reported":1744902634,"current_range_meters":16000,"station_id":"ce4bhh92rcd13ifvqfh0","pricing_plan_id":"cebpf4jnsgd1na2vs0mg"},{"bike_id":"c644f21e-4a71-4647-ba32-27683999c192","system_id":"levelo_inurba_marseille","lat":43.3123,"lon":5.36855,"is_reserved":false,"is_disabled":false,"rental_uris":{"android":"levelo://app?vid=c644f21e-4a71-4647-ba32-27683999c192","ios":"levelo://app?vid=c644f21e-4a71-4647-ba32-27683999c192"},"vehicle_type_id":"4","last_reported":1744902634,"current_range_meters":16000,"station_id":"ce4bgl92rcd13ifvqbq0","pricing_plan_id":"cebpf4jnsgd1na2vs0mg"},{"bike_id":"de07f061-fea0-412d-8750-24f4054e4094","system_id":"levelo_inurba_marseille","lat":43.2917,"lon":5.37164,"is_reserved":false,"is_disabled":false,"rental_uris":{"android":"levelo://app?vid=de07f061-fea0-412d-8750-24f4054e4094","ios":"levelo://app?vid=de07f061-fea0-412d-8750-24f4054e4094"},"vehicle_type_id":"4","last_reported":1744902634,"current_range_meters":16000,"station_id":"ce4bha92rcd13ifvqeh0","pricing_plan_id":"cebpf4jnsgd1na2vs0mg"},{"bike_id":"6276b16e-e4b4-495a-be49-946173c88753","system_id":"levelo_inurba_marseille","lat":43.30545,"lon":5.38428,"is_reserved":false,"is_disabled":false,"rental_uris":{"android":"levelo://app?vid=6276b16e-e4b4-495a-be49-946173c88753","ios":"levelo://app?vid=6276b16e-e4b4-495a-be49-946173c88753"},"vehicle_type_id":"4","last_reported":1744902634,"current_range_meters":16400,"station_id":"ce4bgg92rcd13ifvqb30","pricing_plan_id":"cebpf4jnsgd1na2vs0mg"},{"bike_id":"ef47ab31-7094-4fae-8f33-c69e3651a119","system_id":"levelo_inurba_marseille","lat":43.31754,"lon":5.39016,"is_reserved":false,"is_disabled":false,"rental_uris":{"android":"levelo://app?vid=ef47ab31-7094-4fae-8f33-c69e3651a119","ios":"levelo://app?vid=ef47ab31-7094-4fae-8f33-c69e3651a119"},"vehicle_type_id":"4","last_reported":1744902634,"current_range_meters":16400,"station_id":"ce4bhqp2rcd13ifvqhng","pricing_plan_id":"cebpf4jnsgd1na2vs0mg"},{"bike_id":"9ff41a1c-de4e-4af0-98df-f91cf3dc0422","system_id":"levelo_inurba_marseille","lat":43.298817,"lon":5.397298,"is_reserved":false,"is_disabled":false,"rental_uris":{"android":"levelo://app?vid=9ff41a1c-de4e-4af0-98df-f91cf3dc0422","ios":"levelo://app?vid=9ff41a1c-de4e-4af0-98df-f91cf3dc0422"},"vehicle_type_id":"4","last_reported":1744902634,"current_range_meters":16400,"station_id":"ce4bh0h2rcd13ifvqd50","pricing_plan_id":"cebpf4jnsgd1na2vs0mg"},{"bike_id":"229d6252-3993-486e-97f8-2735d6f89d43","system_id":"levelo_inurba_marseille","lat":43.29421,"lon":5.38621,"is_reserved":false,"is_disabled":false,"rental_uris":{"android":"levelo://app?vid=229d6252-3993-486e-97f8-2735d6f89d43","ios":"levelo://app?vid=229d6252-3993-486e-97f8-2735d6f89d43"},"vehicle_type_id":"4","last_reported":1744902634,"current_range_meters":17200,"station_id":"ce4bh2h2rcd13ifvqdh0","pricing_plan_id":"cebpf4jnsgd1na2vs0mg"},{"bike_id":"502eb57f-58c1-46b5-bbab-f82b11336169","system_id":"levelo_inurba_marseille","lat":43.3055,"lon":5.36462,"is_reserved":false,"is_disabled":false,"rental_uris":{"android":"levelo://app?vid=502eb57f-58c1-46b5-bbab-f82b11336169","ios":"levelo://app?vid=502eb57f-58c1-46b5-bbab-f82b11336169"},"vehicle_type_id":"4","last_reported":1744902634,"current_range_meters":16800,"station_id":"ce4bgs12rcd13ifvqcag","pricing_plan_id":"cebpf4jnsgd1na2vs0mg"},{"bike_id":"eb88ff69-4654-409d-9bd5-93738e3a7dcd","system_id":"levelo_inurba_marseille","lat":43.29278,"lon":5.37623,"is_reserved":false,"is_disabled":false,"rental_uris":{"android":"levelo://app?vid=eb88ff69-4654-409d-9bd5-93738e3a7dcd","ios":"levelo://app?vid=eb88ff69-4654-409d-9bd5-93738e3a7dcd"},"vehicle_type_id":"4","last_reported":1744902634,"current_range_meters":16800,"station_id":"ce4bgi12rcd13ifvqb80","pricing_plan_id":"cebpf4jnsgd1na2vs0mg"},{"bike_id":"bbb1c662-cc65-4c72-8489-de78d2f0f12f","system_id":"levelo_inurba_marseille","lat":43.23068,"lon":5.3551,"is_reserved":false,"is_disabled":false,"rental_uris":{"android":"levelo://app?vid=bbb1c662-cc65-4c72-8489-de78d2f0f12f","ios":"levelo://app?vid=bbb1c662-cc65-4c72-8489-de78d2f0f12f"},"vehicle_type_id":"4","last_reported":1744902634,"current_range_meters":17200,"station_id":"cpo3342slgdg3j2ifvpg","pricing_plan_id":"cebpf4jnsgd1na2vs0mg"},{"bike_id":"1ce2e4b6-92ac-4019-987f-f7e2d80b4e6b","system_id":"levelo_inurba_marseille","lat":43.2747,"lon":5.42469,"is_reserved":false,"is_disabled":false,"rental_uris":{"android":"levelo://app?vid=1ce2e4b6-92ac-4019-987f-f7e2d80b4e6b","ios":"levelo://app?vid=1ce2e4b6-92ac-4019-987f-f7e2d80b4e6b"},"vehicle_type_id":"4","last_reported":1744902634,"current_range_meters":17200,"station_id":"ce4bhn92rcd13ifvqgrg","pricing_plan_id":"cebpf4jnsgd1na2vs0mg"},{"bike_id":"72252ee0-6b29-4ecb-b919-233f7db6d4bd","system_id":"levelo_inurba_marseille","lat":43.2176,"lon":5.34619,"is_reserved":false,"is_disabled":false,"rental_uris":{"android":"levelo://app?vid=72252ee0-6b29-4ecb-b919-233f7db6d4bd","ios":"levelo://app?vid=72252ee0-6b29-4ecb-b919-233f7db6d4bd"},"vehicle_type_id":"4","last_reported":1744902634,"current_range_meters":17200,"station_id":"st_cvj6r9ubvosntc0bgbag","pricing_plan_id":"cebpf4jnsgd1na2vs0mg"},{"bike_id":"a0ddb0a5-f7f0-4281-aa27-9e82747cc573","system_id":"levelo_inurba_marseille","lat":43.33754,"lon":5.37491,"is_reserved":false,"is_disabled":false,"rental_uris":{"android":"levelo://app?vid=a0ddb0a5-f7f0-4281-aa27-9e82747cc573","ios":"levelo://app?vid=a0ddb0a5-f7f0-4281-aa27-9e82747cc573"},"vehicle_type_id":"4","last_reported":1744902634,"current_range_meters":17200,"station_id":"","pricing_plan_id":"cebpf4jnsgd1na2vs0mg"},{"bike_id":"5a105784-9ece-43a7-82eb-5b085bed9cd8","system_id":"levelo_inurba_marseille","lat":43.28483,"lon":5.38431,"is_reserved":false,"is_disabled":false,"rental_uris":{"android":"levelo://app?vid=5a105784-9ece-43a7-82eb-5b085bed9cd8","ios":"levelo://app?vid=5a105784-9ece-43a7-82eb-5b085bed9cd8"},"vehicle_type_id":"4","last_reported":1744902634,"current_range_meters":17200,"station_id":"ce4bh512rcd13ifvqe3g","pricing_plan_id":"cebpf4jnsgd1na2vs0mg"},{"bike_id":"135f0758-d03d-42f1-a2d6-49e93dc7a634","system_id":"levelo_inurba_marseille","lat":43.2984,"lon":5.36289,"is_reserved":false,"is_disabled":false,"rental_uris":{"android":"levelo://app?vid=135f0758-d03d-42f1-a2d6-49e93dc7a634","ios":"levelo://app?vid=135f0758-d03d-42f1-a2d6-49e93dc7a634"},"vehicle_type_id":"4","last_reported":1744902634,"current_range_meters":17200,"station_id":"ce4bgpp2rcd13ifvqc3g","pricing_plan_id":"cebpf4jnsgd1na2vs0mg"},{"bike_id":"818145d8-6d5a-4f2a-a524-7c978f8d4760","system_id":"levelo_inurba_marseille","lat":43.29884,"lon":5.39721,"is_reserved":false,"is_disabled":false,"rental_uris":{"android":"levelo://app?vid=818145d8-6d5a-4f2a-a524-7c978f8d4760","ios":"levelo://app?vid=818145d8-6d5a-4f2a-a524-7c978f8d4760"},"vehicle_type_id":"4","last_reported":1744902634,"current_range_meters":17600,"station_id":"ce4bh0h2rcd13ifvqd50","pricing_plan_id":"cebpf4jnsgd1na2vs0mg"},{"bike_id":"bd492354-2d79-4427-82ee-84e4a12dea30","system_id":"levelo_inurba_marseille","lat":43.21193,"lon":5.35069,"is_reserved":false,"is_disabled":false,"rental_uris":{"android":"levelo://app?vid=bd492354-2d79-4427-82ee-84e4a12dea30","ios":"levelo://app?vid=bd492354-2d79-4427-82ee-84e4a12dea30"},"vehicle_type_id":"4","last_reported":1744902634,"current_range_meters":17600,"station_id":"st_cvj6sg6p6f1abm77japg","pricing_plan_id":"cebpf4jnsgd1na2vs0mg"},{"bike_id":"6d8d56df-8fae-4129-b01e-cc758e18cfa8","system_id":"levelo_inurba_marseille","lat":43.24651,"lon":5.3888,"is_reserved":false,"is_disabled":false,"rental_uris":{"android":"levelo://app?vid=6d8d56df-8fae-4129-b01e-cc758e18cfa8","ios":"levelo://app?vid=6d8d56df-8fae-4129-b01e-cc758e18cfa8"},"vehicle_type_id":"4","last_reported":1744902634,"current_range_meters":17600,"station_id":"ce4bhg12rcd13ifvqf60","pricing_plan_id":"cebpf4jnsgd1na2vs0mg"},{"bike_id":"6dffd0b8-e063-4bc8-9596-c03d27f98b1d","system_id":"levelo_inurba_marseille","lat":43.33717,"lon":5.39186,"is_reserved":false,"is_disabled":false,"rental_uris":{"android":"levelo://app?vid=6dffd0b8-e063-4bc8-9596-c03d27f98b1d","ios":"levelo://app?vid=6dffd0b8-e063-4bc8-9596-c03d27f98b1d"},"vehicle_type_id":"4","last_reported":1744902634,"current_range_meters":17600,"station_id":"ce4bhr92rcd13ifvqhsg","pricing_plan_id":"cebpf4jnsgd1na2vs0mg"},{"bike_id":"7ed91d22-3d5b-4254-83bf-64eb2a7d5481","system_id":"levelo_inurba_marseille","lat":43.22502,"lon":5.34794,"is_reserved":false,"is_disabled":false,"rental_uris":{"android":"levelo://app?vid=7ed91d22-3d5b-4254-83bf-64eb2a7d5481","ios":"levelo://app?vid=7ed91d22-3d5b-4254-83bf-64eb2a7d5481"},"vehicle_type_id":"4","last_reported":1744902634,"current_range_meters":17600,"station_id":"","pricing_plan_id":"cebpf4jnsgd1na2vs0mg"},{"bike_id":"8c527f53-d13c-4acf-989b-88ebb0844632","system_id":"levelo_inurba_marseille","lat":43.306149,"lon":5.372471,"is_reserved":false,"is_disabled":false,"rental_uris":{"android":"levelo://app?vid=8c527f53-d13c-4acf-989b-88ebb0844632","ios":"levelo://app?vid=8c527f53-d13c-4acf-989b-88ebb0844632"},"vehicle_type_id":"4","last_reported":1744902634,"current_range_meters":17600,"station_id":"","pricing_plan_id":"cebpf4jnsgd1na2vs0mg"},{"bike_id":"0ced172e-d267-48f8-823b-595463e3fa07","system_id":"levelo_inurba_marseille","lat":43.2943,"lon":5.38626,"is_reserved":false,"is_disabled":false,"rental_uris":{"android":"levelo://app?vid=0ced172e-d267-48f8-823b-595463e3fa07","ios":"levelo://app?vid=0ced172e-d267-48f8-823b-595463e3fa07"},"vehicle_type_id":"4","last_reported":1744902634,"current_range_meters":17600,"station_id":"ce4bh2h2rcd13ifvqdh0","pricing_plan_id":"cebpf4jnsgd1na2vs0mg"},{"bike_id":"2a6ae85d-482d-4ccc-b749-cd4e749be6a0","system_id":"levelo_inurba_marseille","lat":43.29276,"lon":5.38408,"is_reserved":false,"is_disabled":false,"rental_uris":{"android":"levelo://app?vid=2a6ae85d-482d-4ccc-b749-cd4e749be6a0","ios":"levelo://app?vid=2a6ae85d-482d-4ccc-b749-cd4e749be6a0"},"vehicle_type_id":"4","last_reported":1744902634,"current_range_meters":17600,"station_id":"ce4bh692rcd13ifvqea0","pricing_plan_id":"cebpf4jnsgd1na2vs0mg"},{"bike_id":"4872dbfc-6b06-47a9-8d3a-abaa1b22d17b","system_id":"levelo_inurba_marseille","lat":43.30588,"lon":5.39354,"is_reserved":false,"is_disabled":false,"rental_uris":{"android":"levelo://app?vid=4872dbfc-6b06-47a9-8d3a-abaa1b22d17b","ios":"levelo://app?vid=4872dbfc-6b06-47a9-8d3a-abaa1b22d17b"},"vehicle_type_id":"4","last_reported":1744902634,"current_range_meters":18000,"station_id":"ce4bh0p2rcd13ifvqd80","pricing_plan_id":"cebpf4jnsgd1na2vs0mg"},{"bike_id":"2052dc63-8ee1-4b61-9715-d5f11bb2c19a","system_id":"levelo_inurba_marseille","lat":43.26491,"lon":5.39557,"is_reserved":false,"is_disabled":false,"rental_uris":{"android":"levelo://app?vid=2052dc63-8ee1-4b61-9715-d5f11bb2c19a","ios":"levelo://app?vid=2052dc63-8ee1-4b61-9715-d5f11bb2c19a"},"vehicle_type_id":"4","last_reported":1744902634,"current_range_meters":18000,"station_id":"ce4bhi12rcd13ifvqfq0","pricing_plan_id":"cebpf4jnsgd1na2vs0mg"},{"bike_id":"4cdeb94d-6b8c-4d5b-a59f-49def5ff14db","system_id":"levelo_inurba_marseille","lat":43.2751,"lon":5.4247,"is_reserved":false,"is_disabled":false,"rental_uris":{"android":"levelo://app?vid=4cdeb94d-6b8c-4d5b-a59f-49def5ff14db","ios":"levelo://app?vid=4cdeb94d-6b8c-4d5b-a59f-49def5ff14db"},"vehicle_type_id":"4","last_reported":1744902634,"current_range_meters":18000,"station_id":"ce4bhn92rcd13ifvqgrg","pricing_plan_id":"cebpf4jnsgd1na2vs0mg"},{"bike_id":"c0ee038b-e766-4150-bc15-bfd92f633a0e","system_id":"levelo_inurba_marseille","lat":43.21765,"lon":5.34619,"is_reserved":false,"is_disabled":false,"rental_uris":{"android":"levelo://app?vid=c0ee038b-e766-4150-bc15-bfd92f633a0e","ios":"levelo://app?vid=c0ee038b-e766-4150-bc15-bfd92f633a0e"},"vehicle_type_id":"4","last_reported":1744902634,"current_range_meters":18000,"station_id":"st_cvj6r9ubvosntc0bgbag","pricing_plan_id":"cebpf4jnsgd1na2vs0mg"},{"bike_id":"ef6e9c6f-8f69-4fcf-9727-b556a001e5bc","system_id":"levelo_inurba_marseille","lat":43.29555,"lon":5.42289,"is_reserved":false,"is_disabled":false,"rental_uris":{"android":"levelo://app?vid=ef6e9c6f-8f69-4fcf-9727-b556a001e5bc","ios":"levelo://app?vid=ef6e9c6f-8f69-4fcf-9727-b556a001e5bc"},"vehicle_type_id":"4","last_reported":1744902634,"current_range_meters":18000,"station_id":"ce4bhph2rcd13ifvqhdg","pricing_plan_id":"cebpf4jnsgd1na2vs0mg"},{"bike_id":"993a8b1f-d1d1-40da-bf3f-cd220a987a25","system_id":"levelo_inurba_marseille","lat":43.302085,"lon":5.370237,"is_reserved":false,"is_disabled":false,"rental_uris":{"android":"levelo://app?vid=993a8b1f-d1d1-40da-bf3f-cd220a987a25","ios":"levelo://app?vid=993a8b1f-d1d1-40da-bf3f-cd220a987a25"},"vehicle_type_id":"4","last_reported":1744902634,"current_range_meters":17600,"station_id":"ce4bgqh2rcd13ifvqc5g","pricing_plan_id":"cebpf4jnsgd1na2vs0mg"},{"bike_id":"3bc36086-1c08-44b5-82e2-993c4a7fabae","system_id":"levelo_inurba_marseille","lat":43.2987,"lon":5.39731,"is_reserved":false,"is_disabled":false,"rental_uris":{"android":"levelo://app?vid=3bc36086-1c08-44b5-82e2-993c4a7fabae","ios":"levelo://app?vid=3bc36086-1c08-44b5-82e2-993c4a7fabae"},"vehicle_type_id":"4","last_reported":1744902634,"current_range_meters":18000,"station_id":"ce4bh0h2rcd13ifvqd50","pricing_plan_id":"cebpf4jnsgd1na2vs0mg"},{"bike_id":"7eb8853e-3665-40f5-8308-1299f0674652","system_id":"levelo_inurba_marseille","lat":43.30393,"lon":5.42492,"is_reserved":false,"is_disabled":false,"rental_uris":{"android":"levelo://app?vid=7eb8853e-3665-40f5-8308-1299f0674652","ios":"levelo://app?vid=7eb8853e-3665-40f5-8308-1299f0674652"},"vehicle_type_id":"4","last_reported":1744902634,"current_range_meters":18000,"station_id":"ce4bhoh2rcd13ifvqh6g","pricing_plan_id":"cebpf4jnsgd1na2vs0mg"},{"bike_id":"b2c80c33-92d2-4061-82ee-59368f5e4976","system_id":"levelo_inurba_marseille","lat":43.30134,"lon":5.39876,"is_reserved":false,"is_disabled":false,"rental_uris":{"android":"levelo://app?vid=b2c80c33-92d2-4061-82ee-59368f5e4976","ios":"levelo://app?vid=b2c80c33-92d2-4061-82ee-59368f5e4976"},"vehicle_type_id":"4","last_reported":1744902634,"current_range_meters":18000,"station_id":"ce4bh0h2rcd13ifvqd40","pricing_plan_id":"cebpf4jnsgd1na2vs0mg"},{"bike_id":"a77bdd15-388e-4dfa-ae84-9a1f1930181f","system_id":"levelo_inurba_marseille","lat":43.29258,"lon":5.37623,"is_reserved":false,"is_disabled":false,"rental_uris":{"android":"levelo://app?vid=a77bdd15-388e-4dfa-ae84-9a1f1930181f","ios":"levelo://app?vid=a77bdd15-388e-4dfa-ae84-9a1f1930181f"},"vehicle_type_id":"4","last_reported":1744902634,"current_range_meters":18000,"station_id":"ce4bgi12rcd13ifvqb80","pricing_plan_id":"cebpf4jnsgd1na2vs0mg"},{"bike_id":"4d6c5836-0d36-4804-aa26-c9765886862d","system_id":"levelo_inurba_marseille","lat":43.29422,"lon":5.38625,"is_reserved":false,"is_disabled":false,"rental_uris":{"android":"levelo://app?vid=4d6c5836-0d36-4804-aa26-c9765886862d","ios":"levelo://app?vid=4d6c5836-0d36-4804-aa26-c9765886862d"},"vehicle_type_id":"4","last_reported":1744902634,"current_range_meters":18800,"station_id":"","pricing_plan_id":"cebpf4jnsgd1na2vs0mg"},{"bike_id":"51f32d2c-1879-464c-acba-93c57bc66ab6","system_id":"levelo_inurba_marseille","lat":43.29061,"lon":5.35934,"is_reserved":false,"is_disabled":true,"rental_uris":{"android":"levelo://app?vid=51f32d2c-1879-464c-acba-93c57bc66ab6","ios":"levelo://app?vid=51f32d2c-1879-464c-acba-93c57bc66ab6"},"vehicle_type_id":"4","last_reported":1744902634,"current_range_meters":18800,"station_id":"ce4bha92rcd13ifvqeg0","pricing_plan_id":"cebpf4jnsgd1na2vs0mg"},{"bike_id":"2096d8d1-86b6-4f17-a24e-1c7db810ee2c","system_id":"levelo_inurba_marseille","lat":43.29869,"lon":5.3973,"is_reserved":false,"is_disabled":false,"rental_uris":{"android":"levelo://app?vid=2096d8d1-86b6-4f17-a24e-1c7db810ee2c","ios":"levelo://app?vid=2096d8d1-86b6-4f17-a24e-1c7db810ee2c"},"vehicle_type_id":"4","last_reported":1744902634,"current_range_meters":18800,"station_id":"ce4bh0h2rcd13ifvqd50","pricing_plan_id":"cebpf4jnsgd1na2vs0mg"},{"bike_id":"332d50ef-0349-465a-a3f8-a14d47a27c91","system_id":"levelo_inurba_marseille","lat":43.30554,"lon":5.36546,"is_reserved":false,"is_disabled":false,"rental_uris":{"android":"levelo://app?vid=332d50ef-0349-465a-a3f8-a14d47a27c91","ios":"levelo://app?vid=332d50ef-0349-465a-a3f8-a14d47a27c91"},"vehicle_type_id":"4","last_reported":1744902634,"current_range_meters":18800,"station_id":"ce4bgs12rcd13ifvqcag","pricing_plan_id":"cebpf4jnsgd1na2vs0mg"},{"bike_id":"33efbe4e-e642-4271-be29-4926b421ca5b","system_id":"levelo_inurba_marseille","lat":43.24156,"lon":5.36437,"is_reserved":false,"is_disabled":false,"rental_uris":{"android":"levelo://app?vid=33efbe4e-e642-4271-be29-4926b421ca5b","ios":"levelo://app?vid=33efbe4e-e642-4271-be29-4926b421ca5b"},"vehicle_type_id":"4","last_reported":1744902634,"current_range_meters":18800,"station_id":"cpo36qri1sfpv3e86is0","pricing_plan_id":"cebpf4jnsgd1na2vs0mg"},{"bike_id":"c6df4557-9f73-4116-9e46-36186b05b4e0","system_id":"levelo_inurba_marseille","lat":43.28144,"lon":5.4264,"is_reserved":false,"is_disabled":false,"rental_uris":{"android":"levelo://app?vid=c6df4557-9f73-4116-9e46-36186b05b4e0","ios":"levelo://app?vid=c6df4557-9f73-4116-9e46-36186b05b4e0"},"vehicle_type_id":"4","last_reported":1744902634,"current_range_meters":18800,"station_id":"ce4bhnh2rcd13ifvqgug","pricing_plan_id":"cebpf4jnsgd1na2vs0mg"},{"bike_id":"92441d80-0a3c-4736-91be-0f8d865feb05","system_id":"levelo_inurba_marseille","lat":43.27928,"lon":5.3801,"is_reserved":false,"is_disabled":false,"rental_uris":{"android":"levelo://app?vid=92441d80-0a3c-4736-91be-0f8d865feb05","ios":"levelo://app?vid=92441d80-0a3c-4736-91be-0f8d865feb05"},"vehicle_type_id":"4","last_reported":1744902634,"current_range_meters":18800,"station_id":"ce4bhf92rcd13ifvqf50","pricing_plan_id":"cebpf4jnsgd1na2vs0mg"},{"bike_id":"fdf102c3-d7b9-4c4a-84da-0254278b1adc","system_id":"levelo_inurba_marseille","lat":43.301508,"lon":5.374216,"is_reserved":false,"is_disabled":false,"rental_uris":{"android":"levelo://app?vid=fdf102c3-d7b9-4c4a-84da-0254278b1adc","ios":"levelo://app?vid=fdf102c3-d7b9-4c4a-84da-0254278b1adc"},"vehicle_type_id":"4","last_reported":1744902634,"current_range_meters":18800,"station_id":"ce4bgs92rcd13ifvqcc0","pricing_plan_id":"cebpf4jnsgd1na2vs0mg"},{"bike_id":"934a8fc0-98f8-4aaf-a145-d485dee937c7","system_id":"levelo_inurba_marseille","lat":43.32381,"lon":5.36792,"is_reserved":false,"is_disabled":false,"rental_uris":{"android":"levelo://app?vid=934a8fc0-98f8-4aaf-a145-d485dee937c7","ios":"levelo://app?vid=934a8fc0-98f8-4aaf-a145-d485dee937c7"},"vehicle_type_id":"4","last_reported":1744902634,"current_range_meters":18800,"station_id":"ce4bhsh2rcd13ifvqi2g","pricing_plan_id":"cebpf4jnsgd1na2vs0mg"},{"bike_id":"68342d9f-f0b6-47e7-b690-b27078e67a77","system_id":"levelo_inurba_marseille","lat":43.2423,"lon":5.36376,"is_reserved":false,"is_disabled":false,"rental_uris":{"android":"levelo://app?vid=68342d9f-f0b6-47e7-b690-b27078e67a77","ios":"levelo://app?vid=68342d9f-f0b6-47e7-b690-b27078e67a77"},"vehicle_type_id":"4","last_reported":1744902634,"current_range_meters":19200,"station_id":"","pricing_plan_id":"cebpf4jnsgd1na2vs0mg"},{"bike_id":"f332932e-b174-483a-8274-751626cfe4bb","system_id":"levelo_inurba_marseille","lat":43.28004,"lon":5.40027,"is_reserved":false,"is_disabled":false,"rental_uris":{"android":"levelo://app?vid=f332932e-b174-483a-8274-751626cfe4bb","ios":"levelo://app?vid=f332932e-b174-483a-8274-751626cfe4bb"},"vehicle_type_id":"4","last_reported":1744902634,"current_range_meters":19200,"station_id":"ce4bho92rcd13ifvqh4g","pricing_plan_id":"cebpf4jnsgd1na2vs0mg"},{"bike_id":"789c3822-56ca-4769-bcd4-8845bdea2fda","system_id":"levelo_inurba_marseille","lat":43.24162,"lon":5.36409,"is_reserved":false,"is_disabled":false,"rental_uris":{"android":"levelo://app?vid=789c3822-56ca-4769-bcd4-8845bdea2fda","ios":"levelo://app?vid=789c3822-56ca-4769-bcd4-8845bdea2fda"},"vehicle_type_id":"4","last_reported":1744902634,"current_range_meters":19200,"station_id":"cpo36qri1sfpv3e86is0","pricing_plan_id":"cebpf4jnsgd1na2vs0mg"},{"bike_id":"baecf04b-7089-4e93-9766-36898fc68960","system_id":"levelo_inurba_marseille","lat":43.298478,"lon":5.362897,"is_reserved":false,"is_disabled":false,"rental_uris":{"android":"levelo://app?vid=baecf04b-7089-4e93-9766-36898fc68960","ios":"levelo://app?vid=baecf04b-7089-4e93-9766-36898fc68960"},"vehicle_type_id":"4","last_reported":1744902634,"current_range_meters":19200,"station_id":"","pricing_plan_id":"cebpf4jnsgd1na2vs0mg"},{"bike_id":"940d0fed-203a-46da-83be-88bb26143c6a","system_id":"levelo_inurba_marseille","lat":43.30557,"lon":5.36561,"is_reserved":false,"is_disabled":false,"rental_uris":{"android":"levelo://app?vid=940d0fed-203a-46da-83be-88bb26143c6a","ios":"levelo://app?vid=940d0fed-203a-46da-83be-88bb26143c6a"},"vehicle_type_id":"4","last_reported":1744902634,"current_range_meters":19200,"station_id":"ce4bgs12rcd13ifvqcag","pricing_plan_id":"cebpf4jnsgd1na2vs0mg"},{"bike_id":"5807070e-7591-4608-b97d-4da390ac25a7","system_id":"levelo_inurba_marseille","lat":43.21743,"lon":5.34601,"is_reserved":false,"is_disabled":false,"rental_uris":{"android":"levelo://app?vid=5807070e-7591-4608-b97d-4da390ac25a7","ios":"levelo://app?vid=5807070e-7591-4608-b97d-4da390ac25a7"},"vehicle_type_id":"4","last_reported":1744902634,"current_range_meters":19200,"station_id":"st_cvj6r9ubvosntc0bgbag","pricing_plan_id":"cebpf4jnsgd1na2vs0mg"},{"bike_id":"a9f5fcea-008f-4549-851b-8227d9aa92b1","system_id":"levelo_inurba_marseille","lat":43.299857,"lon":5.37159,"is_reserved":false,"is_disabled":false,"rental_uris":{"android":"levelo://app?vid=a9f5fcea-008f-4549-851b-8227d9aa92b1","ios":"levelo://app?vid=a9f5fcea-008f-4549-851b-8227d9aa92b1"},"vehicle_type_id":"4","last_reported":1744902634,"current_range_meters":19200,"station_id":"ce4bgr92rcd13ifvqc7g","pricing_plan_id":"cebpf4jnsgd1na2vs0mg"},{"bike_id":"9eff435c-820b-44c2-8333-130f53b102ed","system_id":"levelo_inurba_marseille","lat":43.29361,"lon":5.37859,"is_reserved":false,"is_disabled":false,"rental_uris":{"android":"levelo://app?vid=9eff435c-820b-44c2-8333-130f53b102ed","ios":"levelo://app?vid=9eff435c-820b-44c2-8333-130f53b102ed"},"vehicle_type_id":"4","last_reported":1744902634,"current_range_meters":18800,"station_id":"ce4bgjh2rcd13ifvqbf0","pricing_plan_id":"cebpf4jnsgd1na2vs0mg"},{"bike_id":"52f7596e-4739-4eb5-8acb-b353051159f5","system_id":"levelo_inurba_marseille","lat":43.31338,"lon":5.3969,"is_reserved":false,"is_disabled":false,"rental_uris":{"android":"levelo://app?vid=52f7596e-4739-4eb5-8acb-b353051159f5","ios":"levelo://app?vid=52f7596e-4739-4eb5-8acb-b353051159f5"},"vehicle_type_id":"4","last_reported":1744902634,"current_range_meters":19200,"station_id":"ce4bgvp2rcd13ifvqcu0","pricing_plan_id":"cebpf4jnsgd1na2vs0mg"},{"bike_id":"f9d3fbe6-73e5-424e-af02-f446d5b07152","system_id":"levelo_inurba_marseille","lat":43.217531,"lon":5.346056,"is_reserved":false,"is_disabled":false,"rental_uris":{"android":"levelo://app?vid=f9d3fbe6-73e5-424e-af02-f446d5b07152","ios":"levelo://app?vid=f9d3fbe6-73e5-424e-af02-f446d5b07152"},"vehicle_type_id":"4","last_reported":1744902634,"current_range_meters":19200,"station_id":"st_cvj6r9ubvosntc0bgbag","pricing_plan_id":"cebpf4jnsgd1na2vs0mg"},{"bike_id":"5e328f7a-692b-480d-8aaa-c7ad9af84ca8","system_id":"levelo_inurba_marseille","lat":43.29954,"lon":5.3819,"is_reserved":false,"is_disabled":false,"rental_uris":{"android":"levelo://app?vid=5e328f7a-692b-480d-8aaa-c7ad9af84ca8","ios":"levelo://app?vid=5e328f7a-692b-480d-8aaa-c7ad9af84ca8"},"vehicle_type_id":"4","last_reported":1744902634,"current_range_meters":19200,"station_id":"ce4bgj12rcd13ifvqbc0","pricing_plan_id":"cebpf4jnsgd1na2vs0mg"},{"bike_id":"ca2e1c0e-b4f2-46ea-9bc6-4832bf223e90","system_id":"levelo_inurba_marseille","lat":43.25838,"lon":5.39425,"is_reserved":false,"is_disabled":false,"rental_uris":{"android":"levelo://app?vid=ca2e1c0e-b4f2-46ea-9bc6-4832bf223e90","ios":"levelo://app?vid=ca2e1c0e-b4f2-46ea-9bc6-4832bf223e90"},"vehicle_type_id":"4","last_reported":1744902634,"current_range_meters":19600,"station_id":"ce4bhip2rcd13ifvqft0","pricing_plan_id":"cebpf4jnsgd1na2vs0mg"},{"bike_id":"6cefad3e-197b-4d59-971b-74410ea248b2","system_id":"levelo_inurba_marseille","lat":43.2587,"lon":5.39899,"is_reserved":false,"is_disabled":false,"rental_uris":{"android":"levelo://app?vid=6cefad3e-197b-4d59-971b-74410ea248b2","ios":"levelo://app?vid=6cefad3e-197b-4d59-971b-74410ea248b2"},"vehicle_type_id":"4","last_reported":1744902634,"current_range_meters":19600,"station_id":"ce4bhl92rcd13ifvqghg","pricing_plan_id":"cebpf4jnsgd1na2vs0mg"},{"bike_id":"27c53f8e-8eee-4981-b615-63b3c21f1cce","system_id":"levelo_inurba_marseille","lat":43.28486,"lon":5.38417,"is_reserved":false,"is_disabled":false,"rental_uris":{"android":"levelo://app?vid=27c53f8e-8eee-4981-b615-63b3c21f1cce","ios":"levelo://app?vid=27c53f8e-8eee-4981-b615-63b3c21f1cce"},"vehicle_type_id":"4","last_reported":1744902634,"current_range_meters":19600,"station_id":"ce4bh512rcd13ifvqe3g","pricing_plan_id":"cebpf4jnsgd1na2vs0mg"},{"bike_id":"c2edfd09-1e0e-49de-a6e6-84b45c79d940","system_id":"levelo_inurba_marseille","lat":43.32493,"lon":5.3657,"is_reserved":false,"is_disabled":false,"rental_uris":{"android":"levelo://app?vid=c2edfd09-1e0e-49de-a6e6-84b45c79d940","ios":"levelo://app?vid=c2edfd09-1e0e-49de-a6e6-84b45c79d940"},"vehicle_type_id":"4","last_reported":1744902634,"current_range_meters":19600,"station_id":"ce4bhs12rcd13ifvqhvg","pricing_plan_id":"cebpf4jnsgd1na2vs0mg"},{"bike_id":"86ed1dd9-1041-492b-9144-d841d5556d1a","system_id":"levelo_inurba_marseille","lat":43.27995,"lon":5.41651,"is_reserved":false,"is_disabled":false,"rental_uris":{"android":"levelo://app?vid=86ed1dd9-1041-492b-9144-d841d5556d1a","ios":"levelo://app?vid=86ed1dd9-1041-492b-9144-d841d5556d1a"},"vehicle_type_id":"4","last_reported":1744902634,"current_range_meters":19600,"station_id":"ce4bho12rcd13ifvqh1g","pricing_plan_id":"cebpf4jnsgd1na2vs0mg"},{"bike_id":"efb996b3-bed7-4ae8-93ff-d4d1352bc8f1","system_id":"levelo_inurba_marseille","lat":43.30285,"lon":5.37709,"is_reserved":false,"is_disabled":false,"rental_uris":{"android":"levelo://app?vid=efb996b3-bed7-4ae8-93ff-d4d1352bc8f1","ios":"levelo://app?vid=efb996b3-bed7-4ae8-93ff-d4d1352bc8f1"},"vehicle_type_id":"4","last_reported":1744902634,"current_range_meters":20000,"station_id":"ce4bguh2rcd13ifvqcj0","pricing_plan_id":"cebpf4jnsgd1na2vs0mg"},{"bike_id":"5602e25b-b6d1-4029-9b61-4770f34bc1ea","system_id":"levelo_inurba_marseille","lat":43.24082,"lon":5.37762,"is_reserved":false,"is_disabled":false,"rental_uris":{"android":"levelo://app?vid=5602e25b-b6d1-4029-9b61-4770f34bc1ea","ios":"levelo://app?vid=5602e25b-b6d1-4029-9b61-4770f34bc1ea"},"vehicle_type_id":"4","last_reported":1744902634,"current_range_meters":20000,"station_id":"ce4bhnp2rcd13ifvqgvg","pricing_plan_id":"cebpf4jnsgd1na2vs0mg"},{"bike_id":"03d283ab-0884-403a-966e-9088e2a06789","system_id":"levelo_inurba_marseille","lat":43.241699,"lon":5.363998,"is_reserved":false,"is_disabled":false,"rental_uris":{"android":"levelo://app?vid=03d283ab-0884-403a-966e-9088e2a06789","ios":"levelo://app?vid=03d283ab-0884-403a-966e-9088e2a06789"},"vehicle_type_id":"4","last_reported":1744902634,"current_range_meters":20000,"station_id":"cpo36qri1sfpv3e86is0","pricing_plan_id":"cebpf4jnsgd1na2vs0mg"},{"bike_id":"b6ddb938-f520-4114-a93c-49b66ba25ce3","system_id":"levelo_inurba_marseille","lat":43.28483,"lon":5.38425,"is_reserved":false,"is_disabled":false,"rental_uris":{"android":"levelo://app?vid=b6ddb938-f520-4114-a93c-49b66ba25ce3","ios":"levelo://app?vid=b6ddb938-f520-4114-a93c-49b66ba25ce3"},"vehicle_type_id":"4","last_reported":1744902634,"current_range_meters":20000,"station_id":"ce4bh512rcd13ifvqe3g","pricing_plan_id":"cebpf4jnsgd1na2vs0mg"},{"bike_id":"f333f110-959a-46ad-821a-d1feadf162d8","system_id":"levelo_inurba_marseille","lat":43.30523,"lon":5.36745,"is_reserved":false,"is_disabled":false,"rental_uris":{"android":"levelo://app?vid=f333f110-959a-46ad-821a-d1feadf162d8","ios":"levelo://app?vid=f333f110-959a-46ad-821a-d1feadf162d8"},"vehicle_type_id":"4","last_reported":1744902634,"current_range_meters":20000,"station_id":"ce4bgrp2rcd13ifvqc9g","pricing_plan_id":"cebpf4jnsgd1na2vs0mg"},{"bike_id":"855a1ef4-8b4a-474b-b30b-32fc781f2034","system_id":"levelo_inurba_marseille","lat":43.25122,"lon":5.40317,"is_reserved":false,"is_disabled":false,"rental_uris":{"android":"levelo://app?vid=855a1ef4-8b4a-474b-b30b-32fc781f2034","ios":"levelo://app?vid=855a1ef4-8b4a-474b-b30b-32fc781f2034"},"vehicle_type_id":"4","last_reported":1744902634,"current_range_meters":20000,"station_id":"ce4bhlh2rcd13ifvqgig","pricing_plan_id":"cebpf4jnsgd1na2vs0mg"},{"bike_id":"ecd9b5fe-4b17-4d30-a270-9ff21e0a9ad2","system_id":"levelo_inurba_marseille","lat":43.24189,"lon":5.36406,"is_reserved":false,"is_disabled":false,"rental_uris":{"android":"levelo://app?vid=ecd9b5fe-4b17-4d30-a270-9ff21e0a9ad2","ios":"levelo://app?vid=ecd9b5fe-4b17-4d30-a270-9ff21e0a9ad2"},"vehicle_type_id":"4","last_reported":1744902634,"current_range_meters":20000,"station_id":"cpo36qri1sfpv3e86is0","pricing_plan_id":"cebpf4jnsgd1na2vs0mg"},{"bike_id":"cc937bc8-27c1-44e9-a469-8b24e9cfd941","system_id":"levelo_inurba_marseille","lat":43.29857,"lon":5.36288,"is_reserved":false,"is_disabled":false,"rental_uris":{"android":"levelo://app?vid=cc937bc8-27c1-44e9-a469-8b24e9cfd941","ios":"levelo://app?vid=cc937bc8-27c1-44e9-a469-8b24e9cfd941"},"vehicle_type_id":"4","last_reported":1744902634,"current_range_meters":20400,"station_id":"ce4bgpp2rcd13ifvqc3g","pricing_plan_id":"cebpf4jnsgd1na2vs0mg"},{"bike_id":"d39e5537-c00a-4bf8-9f22-53966b448679","system_id":"levelo_inurba_marseille","lat":43.2956,"lon":5.4228,"is_reserved":false,"is_disabled":false,"rental_uris":{"android":"levelo://app?vid=d39e5537-c00a-4bf8-9f22-53966b448679","ios":"levelo://app?vid=d39e5537-c00a-4bf8-9f22-53966b448679"},"vehicle_type_id":"4","last_reported":1744902634,"current_range_meters":20400,"station_id":"ce4bhph2rcd13ifvqhdg","pricing_plan_id":"cebpf4jnsgd1na2vs0mg"},{"bike_id":"4db90a9e-8717-4cbd-a23f-1edb8e22d369","system_id":"levelo_inurba_marseille","lat":43.28482,"lon":5.38424,"is_reserved":false,"is_disabled":false,"rental_uris":{"android":"levelo://app?vid=4db90a9e-8717-4cbd-a23f-1edb8e22d369","ios":"levelo://app?vid=4db90a9e-8717-4cbd-a23f-1edb8e22d369"},"vehicle_type_id":"4","last_reported":1744902634,"current_range_meters":20400,"station_id":"ce4bh512rcd13ifvqe3g","pricing_plan_id":"cebpf4jnsgd1na2vs0mg"},{"bike_id":"c510377d-48c1-465c-99ad-fa811a9aed0d","system_id":"levelo_inurba_marseille","lat":43.262074,"lon":5.374463,"is_reserved":false,"is_disabled":false,"rental_uris":{"android":"levelo://app?vid=c510377d-48c1-465c-99ad-fa811a9aed0d","ios":"levelo://app?vid=c510377d-48c1-465c-99ad-fa811a9aed0d"},"vehicle_type_id":"4","last_reported":1744902634,"current_range_meters":20400,"station_id":"ce4bhgp2rcd13ifvqfc0","pricing_plan_id":"cebpf4jnsgd1na2vs0mg"},{"bike_id":"4075b45f-8f50-4457-80df-b67f06d7b68e","system_id":"levelo_inurba_marseille","lat":43.30653,"lon":5.401,"is_reserved":false,"is_disabled":false,"rental_uris":{"android":"levelo://app?vid=4075b45f-8f50-4457-80df-b67f06d7b68e","ios":"levelo://app?vid=4075b45f-8f50-4457-80df-b67f06d7b68e"},"vehicle_type_id":"4","last_reported":1744902634,"current_range_meters":20400,"station_id":"ce4bh112rcd13ifvqda0","pricing_plan_id":"cebpf4jnsgd1na2vs0mg"},{"bike_id":"c07bd745-f79a-42e4-966e-f25add6c6956","system_id":"levelo_inurba_marseille","lat":43.29877,"lon":5.38912,"is_reserved":false,"is_disabled":false,"rental_uris":{"android":"levelo://app?vid=c07bd745-f79a-42e4-966e-f25add6c6956","ios":"levelo://app?vid=c07bd745-f79a-42e4-966e-f25add6c6956"},"vehicle_type_id":"4","last_reported":1744902634,"current_range_meters":20000,"station_id":"ce4bh392rcd13ifvqdl0","pricing_plan_id":"cebpf4jnsgd1na2vs0mg"},{"bike_id":"f360ce01-46df-428c-86e8-1f979e9c6565","system_id":"levelo_inurba_marseille","lat":43.29076,"lon":5.37169,"is_reserved":false,"is_disabled":false,"rental_uris":{"android":"levelo://app?vid=f360ce01-46df-428c-86e8-1f979e9c6565","ios":"levelo://app?vid=f360ce01-46df-428c-86e8-1f979e9c6565"},"vehicle_type_id":"4","last_reported":1744902634,"current_range_meters":20400,"station_id":"ce4bh5p2rcd13ifvqe4g","pricing_plan_id":"cebpf4jnsgd1na2vs0mg"},{"bike_id":"a98846e9-8bfc-47f7-8530-12eb548f5820","system_id":"levelo_inurba_marseille","lat":43.28973,"lon":5.37821,"is_reserved":false,"is_disabled":false,"rental_uris":{"android":"levelo://app?vid=a98846e9-8bfc-47f7-8530-12eb548f5820","ios":"levelo://app?vid=a98846e9-8bfc-47f7-8530-12eb548f5820"},"vehicle_type_id":"4","last_reported":1744902634,"current_range_meters":20800,"station_id":"ce4bh9p2rcd13ifvqed0","pricing_plan_id":"cebpf4jnsgd1na2vs0mg"},{"bike_id":"767ac8e2-0e80-4549-a954-7d5c8496a13a","system_id":"levelo_inurba_marseille","lat":43.30539,"lon":5.36546,"is_reserved":false,"is_disabled":false,"rental_uris":{"android":"levelo://app?vid=767ac8e2-0e80-4549-a954-7d5c8496a13a","ios":"levelo://app?vid=767ac8e2-0e80-4549-a954-7d5c8496a13a"},"vehicle_type_id":"4","last_reported":1744902634,"current_range_meters":20800,"station_id":"ce4bgs12rcd13ifvqcag","pricing_plan_id":"cebpf4jnsgd1na2vs0mg"},{"bike_id":"f1d513e7-93f2-472b-b840-4c42490aad95","system_id":"levelo_inurba_marseille","lat":43.24164,"lon":5.36412,"is_reserved":false,"is_disabled":false,"rental_uris":{"android":"levelo://app?vid=f1d513e7-93f2-472b-b840-4c42490aad95","ios":"levelo://app?vid=f1d513e7-93f2-472b-b840-4c42490aad95"},"vehicle_type_id":"4","last_reported":1744902634,"current_range_meters":20800,"station_id":"cpo36qri1sfpv3e86is0","pricing_plan_id":"cebpf4jnsgd1na2vs0mg"},{"bike_id":"a121bdde-5343-4e24-9973-c901463711f4","system_id":"levelo_inurba_marseille","lat":43.2318,"lon":5.3999,"is_reserved":false,"is_disabled":false,"rental_uris":{"android":"levelo://app?vid=a121bdde-5343-4e24-9973-c901463711f4","ios":"levelo://app?vid=a121bdde-5343-4e24-9973-c901463711f4"},"vehicle_type_id":"4","last_reported":1744902634,"current_range_meters":21600,"station_id":"ce4bhn12rcd13ifvqgqg","pricing_plan_id":"cebpf4jnsgd1na2vs0mg"},{"bike_id":"283238de-1b4b-4c74-85bb-097d5eac3f6d","system_id":"levelo_inurba_marseille","lat":43.31156,"lon":5.38695,"is_reserved":false,"is_disabled":false,"rental_uris":{"android":"levelo://app?vid=283238de-1b4b-4c74-85bb-097d5eac3f6d","ios":"levelo://app?vid=283238de-1b4b-4c74-85bb-097d5eac3f6d"},"vehicle_type_id":"4","last_reported":1744902634,"current_range_meters":21600,"station_id":"ce4bgv12rcd13ifvqcp0","pricing_plan_id":"cebpf4jnsgd1na2vs0mg"},{"bike_id":"9eb6738d-486c-4d0a-88f4-70b8d81983d1","system_id":"levelo_inurba_marseille","lat":43.21763,"lon":5.346,"is_reserved":false,"is_disabled":false,"rental_uris":{"android":"levelo://app?vid=9eb6738d-486c-4d0a-88f4-70b8d81983d1","ios":"levelo://app?vid=9eb6738d-486c-4d0a-88f4-70b8d81983d1"},"vehicle_type_id":"4","last_reported":1744902634,"current_range_meters":21600,"station_id":"st_cvj6r9ubvosntc0bgbag","pricing_plan_id":"cebpf4jnsgd1na2vs0mg"},{"bike_id":"5e6be620-a3d0-49c3-9ff0-b85332cde817","system_id":"levelo_inurba_marseille","lat":43.23193,"lon":5.355633,"is_reserved":false,"is_disabled":false,"rental_uris":{"android":"levelo://app?vid=5e6be620-a3d0-49c3-9ff0-b85332cde817","ios":"levelo://app?vid=5e6be620-a3d0-49c3-9ff0-b85332cde817"},"vehicle_type_id":"4","last_reported":1744902634,"current_range_meters":21600,"station_id":"ce4bhu92rcd13ifvqi70","pricing_plan_id":"cebpf4jnsgd1na2vs0mg"},{"bike_id":"80bac1fe-218c-4068-937c-4aa733df023f","system_id":"levelo_inurba_marseille","lat":43.28603,"lon":5.37078,"is_reserved":false,"is_disabled":false,"rental_uris":{"android":"levelo://app?vid=80bac1fe-218c-4068-937c-4aa733df023f","ios":"levelo://app?vid=80bac1fe-218c-4068-937c-4aa733df023f"},"vehicle_type_id":"4","last_reported":1744902634,"current_range_meters":21600,"station_id":"ce4bht12rcd13ifvqi60","pricing_plan_id":"cebpf4jnsgd1na2vs0mg"},{"bike_id":"64b81355-bd6e-4d3d-819e-09776b604527","system_id":"levelo_inurba_marseille","lat":43.29546,"lon":5.38547,"is_reserved":false,"is_disabled":false,"rental_uris":{"android":"levelo://app?vid=64b81355-bd6e-4d3d-819e-09776b604527","ios":"levelo://app?vid=64b81355-bd6e-4d3d-819e-09776b604527"},"vehicle_type_id":"4","last_reported":1744902634,"current_range_meters":21600,"station_id":"ce4bgih2rcd13ifvqba0","pricing_plan_id":"cebpf4jnsgd1na2vs0mg"},{"bike_id":"873bcab6-b973-48ed-b129-34762c209441","system_id":"levelo_inurba_marseille","lat":43.31485,"lon":5.37364,"is_reserved":false,"is_disabled":false,"rental_uris":{"android":"levelo://app?vid=873bcab6-b973-48ed-b129-34762c209441","ios":"levelo://app?vid=873bcab6-b973-48ed-b129-34762c209441"},"vehicle_type_id":"4","last_reported":1744902634,"current_range_meters":22000,"station_id":"ce4bgt12rcd13ifvqcd0","pricing_plan_id":"cebpf4jnsgd1na2vs0mg"},{"bike_id":"229be63d-35d1-484e-9baa-ba0eedf358a3","system_id":"levelo_inurba_marseille","lat":43.28001,"lon":5.40009,"is_reserved":false,"is_disabled":false,"rental_uris":{"android":"levelo://app?vid=229be63d-35d1-484e-9baa-ba0eedf358a3","ios":"levelo://app?vid=229be63d-35d1-484e-9baa-ba0eedf358a3"},"vehicle_type_id":"4","last_reported":1744902634,"current_range_meters":22000,"station_id":"ce4bho92rcd13ifvqh4g","pricing_plan_id":"cebpf4jnsgd1na2vs0mg"},{"bike_id":"aae1e5a7-8f8b-462e-a6db-878b1252f2fe","system_id":"levelo_inurba_marseille","lat":43.30444,"lon":5.38821,"is_reserved":false,"is_disabled":false,"rental_uris":{"android":"levelo://app?vid=aae1e5a7-8f8b-462e-a6db-878b1252f2fe","ios":"levelo://app?vid=aae1e5a7-8f8b-462e-a6db-878b1252f2fe"},"vehicle_type_id":"4","last_reported":1744902634,"current_range_meters":21600,"station_id":"ce4bgk12rcd13ifvqbi0","pricing_plan_id":"cebpf4jnsgd1na2vs0mg"},{"bike_id":"32e4552a-f42f-4e62-b7a8-0d73c754f37a","system_id":"levelo_inurba_marseille","lat":43.295313,"lon":5.385441,"is_reserved":false,"is_disabled":false,"rental_uris":{"android":"levelo://app?vid=32e4552a-f42f-4e62-b7a8-0d73c754f37a","ios":"levelo://app?vid=32e4552a-f42f-4e62-b7a8-0d73c754f37a"},"vehicle_type_id":"4","last_reported":1744902634,"current_range_meters":22000,"station_id":"ce4bgih2rcd13ifvqba0","pricing_plan_id":"cebpf4jnsgd1na2vs0mg"},{"bike_id":"ea28c13a-0fd6-441c-b956-8922ce3de3a3","system_id":"levelo_inurba_marseille","lat":43.26555,"lon":5.37282,"is_reserved":false,"is_disabled":false,"rental_uris":{"android":"levelo://app?vid=ea28c13a-0fd6-441c-b956-8922ce3de3a3","ios":"levelo://app?vid=ea28c13a-0fd6-441c-b956-8922ce3de3a3"},"vehicle_type_id":"4","last_reported":1744902634,"current_range_meters":22400,"station_id":"ce4bhg12rcd13ifvqf70","pricing_plan_id":"cebpf4jnsgd1na2vs0mg"},{"bike_id":"adb99102-c2e1-4399-8d04-866b557b576c","system_id":"levelo_inurba_marseille","lat":43.28934,"lon":5.38395,"is_reserved":false,"is_disabled":false,"rental_uris":{"android":"levelo://app?vid=adb99102-c2e1-4399-8d04-866b557b576c","ios":"levelo://app?vid=adb99102-c2e1-4399-8d04-866b557b576c"},"vehicle_type_id":"4","last_reported":1744902634,"current_range_meters":22400,"station_id":"ce4bh612rcd13ifvqe6g","pricing_plan_id":"cebpf4jnsgd1na2vs0mg"},{"bike_id":"b66512e9-6177-4d4b-801b-0a909db33f3b","system_id":"levelo_inurba_marseille","lat":43.29995,"lon":5.37187,"is_reserved":false,"is_disabled":false,"rental_uris":{"android":"levelo://app?vid=b66512e9-6177-4d4b-801b-0a909db33f3b","ios":"levelo://app?vid=b66512e9-6177-4d4b-801b-0a909db33f3b"},"vehicle_type_id":"4","last_reported":1744902634,"current_range_meters":22400,"station_id":"ce4bgr92rcd13ifvqc7g","pricing_plan_id":"cebpf4jnsgd1na2vs0mg"},{"bike_id":"91aa591a-3e56-4092-a295-ecb6aebe69eb","system_id":"levelo_inurba_marseille","lat":43.22499,"lon":5.34781,"is_reserved":false,"is_disabled":false,"rental_uris":{"android":"levelo://app?vid=91aa591a-3e56-4092-a295-ecb6aebe69eb","ios":"levelo://app?vid=91aa591a-3e56-4092-a295-ecb6aebe69eb"},"vehicle_type_id":"4","last_reported":1744902634,"current_range_meters":22400,"station_id":"st_cvj5dfep6f1abm77gieg","pricing_plan_id":"cebpf4jnsgd1na2vs0mg"},{"bike_id":"aea2afb6-112e-4c3a-968a-5eb5aa77e9be","system_id":"levelo_inurba_marseille","lat":43.21192,"lon":5.35073,"is_reserved":false,"is_disabled":false,"rental_uris":{"android":"levelo://app?vid=aea2afb6-112e-4c3a-968a-5eb5aa77e9be","ios":"levelo://app?vid=aea2afb6-112e-4c3a-968a-5eb5aa77e9be"},"vehicle_type_id":"4","last_reported":1744902634,"current_range_meters":22400,"station_id":"st_cvj6sg6p6f1abm77japg","pricing_plan_id":"cebpf4jnsgd1na2vs0mg"},{"bike_id":"db2488d1-77a1-4eb3-9b9b-b51975bfb43c","system_id":"levelo_inurba_marseille","lat":43.30164,"lon":5.37426,"is_reserved":false,"is_disabled":false,"rental_uris":{"android":"levelo://app?vid=db2488d1-77a1-4eb3-9b9b-b51975bfb43c","ios":"levelo://app?vid=db2488d1-77a1-4eb3-9b9b-b51975bfb43c"},"vehicle_type_id":"4","last_reported":1744902634,"current_range_meters":22400,"station_id":"ce4bgs92rcd13ifvqcc0","pricing_plan_id":"cebpf4jnsgd1na2vs0mg"},{"bike_id":"ebf3b22e-fcde-411a-9900-08d133508b67","system_id":"levelo_inurba_marseille","lat":43.29375,"lon":5.37846,"is_reserved":false,"is_disabled":false,"rental_uris":{"android":"levelo://app?vid=ebf3b22e-fcde-411a-9900-08d133508b67","ios":"levelo://app?vid=ebf3b22e-fcde-411a-9900-08d133508b67"},"vehicle_type_id":"4","last_reported":1744902634,"current_range_meters":22000,"station_id":"ce4bgjh2rcd13ifvqbf0","pricing_plan_id":"cebpf4jnsgd1na2vs0mg"},{"bike_id":"3ffb1f71-6850-4a43-943b-96a017425afb","system_id":"levelo_inurba_marseille","lat":43.29312,"lon":5.37183,"is_reserved":false,"is_disabled":false,"rental_uris":{"android":"levelo://app?vid=3ffb1f71-6850-4a43-943b-96a017425afb","ios":"levelo://app?vid=3ffb1f71-6850-4a43-943b-96a017425afb"},"vehicle_type_id":"4","last_reported":1744902634,"current_range_meters":22400,"station_id":"ce4bgh92rcd13ifvqb40","pricing_plan_id":"cebpf4jnsgd1na2vs0mg"},{"bike_id":"d05b7cc4-f88b-4d02-ae6c-c344f22c0e5c","system_id":"levelo_inurba_marseille","lat":43.29776,"lon":5.36568,"is_reserved":false,"is_disabled":false,"rental_uris":{"android":"levelo://app?vid=d05b7cc4-f88b-4d02-ae6c-c344f22c0e5c","ios":"levelo://app?vid=d05b7cc4-f88b-4d02-ae6c-c344f22c0e5c"},"vehicle_type_id":"4","last_reported":1744902634,"current_range_meters":22800,"station_id":"","pricing_plan_id":"cebpf4jnsgd1na2vs0mg"},{"bike_id":"e0daffdd-979a-4d26-9bfd-4cecdb66874c","system_id":"levelo_inurba_marseille","lat":43.29173,"lon":5.37164,"is_reserved":false,"is_disabled":false,"rental_uris":{"android":"levelo://app?vid=e0daffdd-979a-4d26-9bfd-4cecdb66874c","ios":"levelo://app?vid=e0daffdd-979a-4d26-9bfd-4cecdb66874c"},"vehicle_type_id":"4","last_reported":1744902634,"current_range_meters":22800,"station_id":"ce4bha92rcd13ifvqeh0","pricing_plan_id":"cebpf4jnsgd1na2vs0mg"},{"bike_id":"38577b19-1561-4e54-b3a0-fd08ff660afa","system_id":"levelo_inurba_marseille","lat":43.29936,"lon":5.3655,"is_reserved":false,"is_disabled":false,"rental_uris":{"android":"levelo://app?vid=38577b19-1561-4e54-b3a0-fd08ff660afa","ios":"levelo://app?vid=38577b19-1561-4e54-b3a0-fd08ff660afa"},"vehicle_type_id":"4","last_reported":1744902634,"current_range_meters":22800,"station_id":"ce4bgm92rcd13ifvqbr0","pricing_plan_id":"cebpf4jnsgd1na2vs0mg"},{"bike_id":"5f94d4e3-2818-403f-8154-844aff364e87","system_id":"levelo_inurba_marseille","lat":43.30308,"lon":5.39203,"is_reserved":false,"is_disabled":false,"rental_uris":{"android":"levelo://app?vid=5f94d4e3-2818-403f-8154-844aff364e87","ios":"levelo://app?vid=5f94d4e3-2818-403f-8154-844aff364e87"},"vehicle_type_id":"4","last_reported":1744902634,"current_range_meters":22800,"station_id":"ce4bgkh2rcd13ifvqbk0","pricing_plan_id":"cebpf4jnsgd1na2vs0mg"},{"bike_id":"3e019780-be52-41a3-9bab-38313021daf2","system_id":"levelo_inurba_marseille","lat":43.2988,"lon":5.39731,"is_reserved":false,"is_disabled":false,"rental_uris":{"android":"levelo://app?vid=3e019780-be52-41a3-9bab-38313021daf2","ios":"levelo://app?vid=3e019780-be52-41a3-9bab-38313021daf2"},"vehicle_type_id":"4","last_reported":1744902634,"current_range_meters":22800,"station_id":"ce4bh0h2rcd13ifvqd50","pricing_plan_id":"cebpf4jnsgd1na2vs0mg"},{"bike_id":"735318b0-b44d-478f-9ffe-1a4ee26723f1","system_id":"levelo_inurba_marseille","lat":43.29423,"lon":5.38619,"is_reserved":false,"is_disabled":false,"rental_uris":{"android":"levelo://app?vid=735318b0-b44d-478f-9ffe-1a4ee26723f1","ios":"levelo://app?vid=735318b0-b44d-478f-9ffe-1a4ee26723f1"},"vehicle_type_id":"4","last_reported":1744902634,"current_range_meters":22800,"station_id":"ce4bh2h2rcd13ifvqdh0","pricing_plan_id":"cebpf4jnsgd1na2vs0mg"},{"bike_id":"f8b04e29-2376-49e9-a21e-b922f9c3286a","system_id":"levelo_inurba_marseille","lat":43.313332,"lon":5.367317,"is_reserved":false,"is_disabled":false,"rental_uris":{"android":"levelo://app?vid=f8b04e29-2376-49e9-a21e-b922f9c3286a","ios":"levelo://app?vid=f8b04e29-2376-49e9-a21e-b922f9c3286a"},"vehicle_type_id":"4","last_reported":1744902634,"current_range_meters":22800,"station_id":"ce4bha12rcd13ifvqef0","pricing_plan_id":"cebpf4jnsgd1na2vs0mg"},{"bike_id":"5589c0bf-de3c-46ad-8bfb-50d4015a6e88","system_id":"levelo_inurba_marseille","lat":43.30145,"lon":5.38767,"is_reserved":false,"is_disabled":false,"rental_uris":{"android":"levelo://app?vid=5589c0bf-de3c-46ad-8bfb-50d4015a6e88","ios":"levelo://app?vid=5589c0bf-de3c-46ad-8bfb-50d4015a6e88"},"vehicle_type_id":"4","last_reported":1744902634,"current_range_meters":18800,"station_id":"ce4bghh2rcd13ifvqb60","pricing_plan_id":"cebpf4jnsgd1na2vs0mg"},{"bike_id":"8ea2237f-83ea-4547-994f-b4e446b2b67b","system_id":"levelo_inurba_marseille","lat":43.29851,"lon":5.36287,"is_reserved":false,"is_disabled":false,"rental_uris":{"android":"levelo://app?vid=8ea2237f-83ea-4547-994f-b4e446b2b67b","ios":"levelo://app?vid=8ea2237f-83ea-4547-994f-b4e446b2b67b"},"vehicle_type_id":"4","last_reported":1744902634,"current_range_meters":22800,"station_id":"ce4bgpp2rcd13ifvqc3g","pricing_plan_id":"cebpf4jnsgd1na2vs0mg"},{"bike_id":"8c27302f-f097-4cd6-ab48-d0a97788b606","system_id":"levelo_inurba_marseille","lat":43.296875,"lon":5.365834,"is_reserved":false,"is_disabled":false,"rental_uris":{"android":"levelo://app?vid=8c27302f-f097-4cd6-ab48-d0a97788b606","ios":"levelo://app?vid=8c27302f-f097-4cd6-ab48-d0a97788b606"},"vehicle_type_id":"4","last_reported":1744902634,"current_range_meters":22800,"station_id":"ce4bgn12rcd13ifvqbt0","pricing_plan_id":"cebpf4jnsgd1na2vs0mg"},{"bike_id":"8d17fcb1-a4f8-4b12-97e7-31c809d09339","system_id":"levelo_inurba_marseille","lat":43.28593,"lon":5.37762,"is_reserved":false,"is_disabled":false,"rental_uris":{"android":"levelo://app?vid=8d17fcb1-a4f8-4b12-97e7-31c809d09339","ios":"levelo://app?vid=8d17fcb1-a4f8-4b12-97e7-31c809d09339"},"vehicle_type_id":"4","last_reported":1744902634,"current_range_meters":22800,"station_id":"ce4bhh92rcd13ifvqfi0","pricing_plan_id":"cebpf4jnsgd1na2vs0mg"},{"bike_id":"c8abb56c-e538-4bb2-a4d4-6e3d84b2ccac","system_id":"levelo_inurba_marseille","lat":43.282676,"lon":5.379875,"is_reserved":false,"is_disabled":false,"rental_uris":{"android":"levelo://app?vid=c8abb56c-e538-4bb2-a4d4-6e3d84b2ccac","ios":"levelo://app?vid=c8abb56c-e538-4bb2-a4d4-6e3d84b2ccac"},"vehicle_type_id":"4","last_reported":1744902634,"current_range_meters":23200,"station_id":"","pricing_plan_id":"cebpf4jnsgd1na2vs0mg"},{"bike_id":"718a73c7-95b8-4776-8cab-bead733c488f","system_id":"levelo_inurba_marseille","lat":43.28425,"lon":5.3498,"is_reserved":false,"is_disabled":false,"rental_uris":{"android":"levelo://app?vid=718a73c7-95b8-4776-8cab-bead733c488f","ios":"levelo://app?vid=718a73c7-95b8-4776-8cab-bead733c488f"},"vehicle_type_id":"4","last_reported":1744902634,"current_range_meters":23200,"station_id":"ce4bhbh2rcd13ifvqepg","pricing_plan_id":"cebpf4jnsgd1na2vs0mg"},{"bike_id":"24213b37-b766-4d9c-a174-f6bf34920497","system_id":"levelo_inurba_marseille","lat":43.28469,"lon":5.384178,"is_reserved":false,"is_disabled":false,"rental_uris":{"android":"levelo://app?vid=24213b37-b766-4d9c-a174-f6bf34920497","ios":"levelo://app?vid=24213b37-b766-4d9c-a174-f6bf34920497"},"vehicle_type_id":"4","last_reported":1744902634,"current_range_meters":23200,"station_id":"ce4bh512rcd13ifvqe3g","pricing_plan_id":"cebpf4jnsgd1na2vs0mg"},{"bike_id":"17de6571-3c1c-4621-995b-d445cb9c6f14","system_id":"levelo_inurba_marseille","lat":43.212,"lon":5.35078,"is_reserved":false,"is_disabled":false,"rental_uris":{"android":"levelo://app?vid=17de6571-3c1c-4621-995b-d445cb9c6f14","ios":"levelo://app?vid=17de6571-3c1c-4621-995b-d445cb9c6f14"},"vehicle_type_id":"4","last_reported":1744902634,"current_range_meters":23200,"station_id":"st_cvj6sg6p6f1abm77japg","pricing_plan_id":"cebpf4jnsgd1na2vs0mg"},{"bike_id":"7e9fbd33-cfb6-44a6-96fc-1f60d0c215f7","system_id":"levelo_inurba_marseille","lat":43.323553,"lon":5.367374,"is_reserved":false,"is_disabled":false,"rental_uris":{"android":"levelo://app?vid=7e9fbd33-cfb6-44a6-96fc-1f60d0c215f7","ios":"levelo://app?vid=7e9fbd33-cfb6-44a6-96fc-1f60d0c215f7"},"vehicle_type_id":"4","last_reported":1744902634,"current_range_meters":23200,"station_id":"ce4bhsh2rcd13ifvqi2g","pricing_plan_id":"cebpf4jnsgd1na2vs0mg"},{"bike_id":"9f67a883-257e-4721-9b74-3e94384bceef","system_id":"levelo_inurba_marseille","lat":43.29878,"lon":5.39729,"is_reserved":false,"is_disabled":false,"rental_uris":{"android":"levelo://app?vid=9f67a883-257e-4721-9b74-3e94384bceef","ios":"levelo://app?vid=9f67a883-257e-4721-9b74-3e94384bceef"},"vehicle_type_id":"4","last_reported":1744902634,"current_range_meters":23200,"station_id":"ce4bh0h2rcd13ifvqd50","pricing_plan_id":"cebpf4jnsgd1na2vs0mg"},{"bike_id":"a3cb3541-e34e-4e91-96bd-3d2be11ba3ea","system_id":"levelo_inurba_marseille","lat":43.3048,"lon":5.37905,"is_reserved":false,"is_disabled":false,"rental_uris":{"android":"levelo://app?vid=a3cb3541-e34e-4e91-96bd-3d2be11ba3ea","ios":"levelo://app?vid=a3cb3541-e34e-4e91-96bd-3d2be11ba3ea"},"vehicle_type_id":"4","last_reported":1744902634,"current_range_meters":23200,"station_id":"ce4bgup2rcd13ifvqcn0","pricing_plan_id":"cebpf4jnsgd1na2vs0mg"},{"bike_id":"a37d6557-218d-4e45-bab1-24fbc13d1820","system_id":"levelo_inurba_marseille","lat":43.29789,"lon":5.39348,"is_reserved":false,"is_disabled":false,"rental_uris":{"android":"levelo://app?vid=a37d6557-218d-4e45-bab1-24fbc13d1820","ios":"levelo://app?vid=a37d6557-218d-4e45-bab1-24fbc13d1820"},"vehicle_type_id":"4","last_reported":1744902634,"current_range_meters":23200,"station_id":"chh1huq6cuj3fo74tm60","pricing_plan_id":"cebpf4jnsgd1na2vs0mg"},{"bike_id":"38531853-a890-46b4-8923-50c23c86ff24","system_id":"levelo_inurba_marseille","lat":43.30433,"lon":5.38881,"is_reserved":false,"is_disabled":false,"rental_uris":{"android":"levelo://app?vid=38531853-a890-46b4-8923-50c23c86ff24","ios":"levelo://app?vid=38531853-a890-46b4-8923-50c23c86ff24"},"vehicle_type_id":"4","last_reported":1744902634,"current_range_meters":24000,"station_id":"ce4bgk12rcd13ifvqbi0","pricing_plan_id":"cebpf4jnsgd1na2vs0mg"},{"bike_id":"06d3a8b7-caf0-46b1-89a3-faf101fad7fe","system_id":"levelo_inurba_marseille","lat":43.28406,"lon":5.37514,"is_reserved":false,"is_disabled":false,"rental_uris":{"android":"levelo://app?vid=06d3a8b7-caf0-46b1-89a3-faf101fad7fe","ios":"levelo://app?vid=06d3a8b7-caf0-46b1-89a3-faf101fad7fe"},"vehicle_type_id":"4","last_reported":1744902634,"current_range_meters":24000,"station_id":"ce4bh412rcd13ifvqds0","pricing_plan_id":"cebpf4jnsgd1na2vs0mg"},{"bike_id":"f1f30861-2e48-4970-9f7d-33998edd71f6","system_id":"levelo_inurba_marseille","lat":43.2959,"lon":5.36746,"is_reserved":false,"is_disabled":false,"rental_uris":{"android":"levelo://app?vid=f1f30861-2e48-4970-9f7d-33998edd71f6","ios":"levelo://app?vid=f1f30861-2e48-4970-9f7d-33998edd71f6"},"vehicle_type_id":"4","last_reported":1744902634,"current_range_meters":24000,"station_id":"ce4bgph2rcd13ifvqc2g","pricing_plan_id":"cebpf4jnsgd1na2vs0mg"},{"bike_id":"8a733f44-48e5-4212-b46d-eb3064e4bc7d","system_id":"levelo_inurba_marseille","lat":43.27377,"lon":5.36265,"is_reserved":false,"is_disabled":false,"rental_uris":{"android":"levelo://app?vid=8a733f44-48e5-4212-b46d-eb3064e4bc7d","ios":"levelo://app?vid=8a733f44-48e5-4212-b46d-eb3064e4bc7d"},"vehicle_type_id":"4","last_reported":1744902634,"current_range_meters":24000,"station_id":"ce4bhbh2rcd13ifvqeo0","pricing_plan_id":"cebpf4jnsgd1na2vs0mg"},{"bike_id":"2e12347d-b274-4908-938c-e3b3e96c41e7","system_id":"levelo_inurba_marseille","lat":43.251173,"lon":5.403153,"is_reserved":false,"is_disabled":false,"rental_uris":{"android":"levelo://app?vid=2e12347d-b274-4908-938c-e3b3e96c41e7","ios":"levelo://app?vid=2e12347d-b274-4908-938c-e3b3e96c41e7"},"vehicle_type_id":"4","last_reported":1744902634,"current_range_meters":24000,"station_id":"ce4bhlh2rcd13ifvqgig","pricing_plan_id":"cebpf4jnsgd1na2vs0mg"},{"bike_id":"ce900a40-95b5-4c11-a278-e406e5e5ccf0","system_id":"levelo_inurba_marseille","lat":43.29008,"lon":5.35609,"is_reserved":false,"is_disabled":false,"rental_uris":{"android":"levelo://app?vid=ce900a40-95b5-4c11-a278-e406e5e5ccf0","ios":"levelo://app?vid=ce900a40-95b5-4c11-a278-e406e5e5ccf0"},"vehicle_type_id":"4","last_reported":1744902634,"current_range_meters":24000,"station_id":"ce4bhb92rcd13ifvqen0","pricing_plan_id":"cebpf4jnsgd1na2vs0mg"},{"bike_id":"6b263e6b-aafb-45b2-8f6c-e9526fac004d","system_id":"levelo_inurba_marseille","lat":43.25848,"lon":5.39404,"is_reserved":false,"is_disabled":false,"rental_uris":{"android":"levelo://app?vid=6b263e6b-aafb-45b2-8f6c-e9526fac004d","ios":"levelo://app?vid=6b263e6b-aafb-45b2-8f6c-e9526fac004d"},"vehicle_type_id":"4","last_reported":1744902634,"current_range_meters":24000,"station_id":"ce4bhip2rcd13ifvqft0","pricing_plan_id":"cebpf4jnsgd1na2vs0mg"},{"bike_id":"379dee3f-34cd-468c-aca0-cf546e557097","system_id":"levelo_inurba_marseille","lat":43.265662,"lon":5.38999,"is_reserved":false,"is_disabled":false,"rental_uris":{"android":"levelo://app?vid=379dee3f-34cd-468c-aca0-cf546e557097","ios":"levelo://app?vid=379dee3f-34cd-468c-aca0-cf546e557097"},"vehicle_type_id":"4","last_reported":1744902634,"current_range_meters":24000,"station_id":"ce4bhe12rcd13ifvqf30","pricing_plan_id":"cebpf4jnsgd1na2vs0mg"},{"bike_id":"3c37d3ec-c1f3-47c3-9356-b25b0d14152b","system_id":"levelo_inurba_marseille","lat":43.28604,"lon":5.37067,"is_reserved":false,"is_disabled":false,"rental_uris":{"android":"levelo://app?vid=3c37d3ec-c1f3-47c3-9356-b25b0d14152b","ios":"levelo://app?vid=3c37d3ec-c1f3-47c3-9356-b25b0d14152b"},"vehicle_type_id":"4","last_reported":1744902634,"current_range_meters":24000,"station_id":"ce4bht12rcd13ifvqi60","pricing_plan_id":"cebpf4jnsgd1na2vs0mg"},{"bike_id":"92d13790-174c-49f0-a669-803fc0e304ec","system_id":"levelo_inurba_marseille","lat":43.29978,"lon":5.38496,"is_reserved":false,"is_disabled":false,"rental_uris":{"android":"levelo://app?vid=92d13790-174c-49f0-a669-803fc0e304ec","ios":"levelo://app?vid=92d13790-174c-49f0-a669-803fc0e304ec"},"vehicle_type_id":"4","last_reported":1744902634,"current_range_meters":24000,"station_id":"ce4bgj92rcd13ifvqbd0","pricing_plan_id":"cebpf4jnsgd1na2vs0mg"},{"bike_id":"b50e348b-db3b-4ac8-8b97-e9af1dc06a5c","system_id":"levelo_inurba_marseille","lat":43.29975,"lon":5.38507,"is_reserved":false,"is_disabled":false,"rental_uris":{"android":"levelo://app?vid=b50e348b-db3b-4ac8-8b97-e9af1dc06a5c","ios":"levelo://app?vid=b50e348b-db3b-4ac8-8b97-e9af1dc06a5c"},"vehicle_type_id":"4","last_reported":1744902634,"current_range_meters":24000,"station_id":"ce4bgj92rcd13ifvqbd0","pricing_plan_id":"cebpf4jnsgd1na2vs0mg"},{"bike_id":"7a597853-937c-4204-b8b9-87d3c6b4e8ef","system_id":"levelo_inurba_marseille","lat":43.2418,"lon":5.36398,"is_reserved":false,"is_disabled":false,"rental_uris":{"android":"levelo://app?vid=7a597853-937c-4204-b8b9-87d3c6b4e8ef","ios":"levelo://app?vid=7a597853-937c-4204-b8b9-87d3c6b4e8ef"},"vehicle_type_id":"4","last_reported":1744902634,"current_range_meters":24000,"station_id":"cpo36qri1sfpv3e86is0","pricing_plan_id":"cebpf4jnsgd1na2vs0mg"},{"bike_id":"784a1312-a9ff-4d2f-b7ac-25fd65623156","system_id":"levelo_inurba_marseille","lat":43.30301,"lon":5.39208,"is_reserved":false,"is_disabled":false,"rental_uris":{"android":"levelo://app?vid=784a1312-a9ff-4d2f-b7ac-25fd65623156","ios":"levelo://app?vid=784a1312-a9ff-4d2f-b7ac-25fd65623156"},"vehicle_type_id":"4","last_reported":1744902634,"current_range_meters":24000,"station_id":"ce4bgkh2rcd13ifvqbk0","pricing_plan_id":"cebpf4jnsgd1na2vs0mg"},{"bike_id":"6960c89c-0262-4ec5-8a24-f3d37288926d","system_id":"levelo_inurba_marseille","lat":43.29423,"lon":5.38625,"is_reserved":false,"is_disabled":false,"rental_uris":{"android":"levelo://app?vid=6960c89c-0262-4ec5-8a24-f3d37288926d","ios":"levelo://app?vid=6960c89c-0262-4ec5-8a24-f3d37288926d"},"vehicle_type_id":"4","last_reported":1744902634,"current_range_meters":24800,"station_id":"ce4bh2h2rcd13ifvqdh0","pricing_plan_id":"cebpf4jnsgd1na2vs0mg"},{"bike_id":"2cd84c85-4424-421e-945e-bdb118a7bfb7","system_id":"levelo_inurba_marseille","lat":43.2582,"lon":5.394427,"is_reserved":false,"is_disabled":false,"rental_uris":{"android":"levelo://app?vid=2cd84c85-4424-421e-945e-bdb118a7bfb7","ios":"levelo://app?vid=2cd84c85-4424-421e-945e-bdb118a7bfb7"},"vehicle_type_id":"4","last_reported":1744902634,"current_range_meters":22800,"station_id":"ce4bhip2rcd13ifvqft0","pricing_plan_id":"cebpf4jnsgd1na2vs0mg"},{"bike_id":"d292768d-60bf-49b6-be3f-c193a9f1b728","system_id":"levelo_inurba_marseille","lat":43.31337,"lon":5.39696,"is_reserved":false,"is_disabled":false,"rental_uris":{"android":"levelo://app?vid=d292768d-60bf-49b6-be3f-c193a9f1b728","ios":"levelo://app?vid=d292768d-60bf-49b6-be3f-c193a9f1b728"},"vehicle_type_id":"4","last_reported":1744902634,"current_range_meters":24400,"station_id":"ce4bgvp2rcd13ifvqcu0","pricing_plan_id":"cebpf4jnsgd1na2vs0mg"},{"bike_id":"cea6fef1-eeeb-45a4-943f-c32bad00a2e4","system_id":"levelo_inurba_marseille","lat":43.3236,"lon":5.38881,"is_reserved":false,"is_disabled":false,"rental_uris":{"android":"levelo://app?vid=cea6fef1-eeeb-45a4-943f-c32bad00a2e4","ios":"levelo://app?vid=cea6fef1-eeeb-45a4-943f-c32bad00a2e4"},"vehicle_type_id":"4","last_reported":1744902634,"current_range_meters":24400,"station_id":"ce4bhqp2rcd13ifvqhog","pricing_plan_id":"cebpf4jnsgd1na2vs0mg"},{"bike_id":"f3509f97-f816-4688-842d-c9410e6219dd","system_id":"levelo_inurba_marseille","lat":43.292998,"lon":5.374692,"is_reserved":false,"is_disabled":false,"rental_uris":{"android":"levelo://app?vid=f3509f97-f816-4688-842d-c9410e6219dd","ios":"levelo://app?vid=f3509f97-f816-4688-842d-c9410e6219dd"},"vehicle_type_id":"4","last_reported":1744902634,"current_range_meters":24400,"station_id":"ce4bgih2rcd13ifvqba0","pricing_plan_id":"cebpf4jnsgd1na2vs0mg"},{"bike_id":"e63a499e-ab65-4c85-8fe8-fa1b56ba3b94","system_id":"levelo_inurba_marseille","lat":43.3204,"lon":5.41546,"is_reserved":false,"is_disabled":false,"rental_uris":{"android":"levelo://app?vid=e63a499e-ab65-4c85-8fe8-fa1b56ba3b94","ios":"levelo://app?vid=e63a499e-ab65-4c85-8fe8-fa1b56ba3b94"},"vehicle_type_id":"4","last_reported":1744902634,"current_range_meters":16800,"station_id":"ce4bhq92rcd13ifvqhkg","pricing_plan_id":"cebpf4jnsgd1na2vs0mg"},{"bike_id":"1ae44176-d357-4839-8782-1b79aa7dfe4f","system_id":"levelo_inurba_marseille","lat":43.29919,"lon":5.38156,"is_reserved":false,"is_disabled":false,"rental_uris":{"android":"levelo://app?vid=1ae44176-d357-4839-8782-1b79aa7dfe4f","ios":"levelo://app?vid=1ae44176-d357-4839-8782-1b79aa7dfe4f"},"vehicle_type_id":"4","last_reported":1744902634,"current_range_meters":24400,"station_id":"ce4bgj12rcd13ifvqbc0","pricing_plan_id":"cebpf4jnsgd1na2vs0mg"},{"bike_id":"6ee13ef8-e1e3-49ab-8d03-d594a6017f3b","system_id":"levelo_inurba_marseille","lat":43.28708,"lon":5.39991,"is_reserved":false,"is_disabled":false,"rental_uris":{"android":"levelo://app?vid=6ee13ef8-e1e3-49ab-8d03-d594a6017f3b","ios":"levelo://app?vid=6ee13ef8-e1e3-49ab-8d03-d594a6017f3b"},"vehicle_type_id":"4","last_reported":1744902634,"current_range_meters":24400,"station_id":"ce4bho92rcd13ifvqh3g","pricing_plan_id":"cebpf4jnsgd1na2vs0mg"},{"bike_id":"d7daf009-0c34-48f8-b312-04917ebc65a1","system_id":"levelo_inurba_marseille","lat":43.30791,"lon":5.37646,"is_reserved":false,"is_disabled":false,"rental_uris":{"android":"levelo://app?vid=d7daf009-0c34-48f8-b312-04917ebc65a1","ios":"levelo://app?vid=d7daf009-0c34-48f8-b312-04917ebc65a1"},"vehicle_type_id":"4","last_reported":1744902634,"current_range_meters":24400,"station_id":"ce4bgv92rcd13ifvqcq0","pricing_plan_id":"cebpf4jnsgd1na2vs0mg"},{"bike_id":"21fd7888-7c74-4975-83bb-a7c2fd487fd2","system_id":"levelo_inurba_marseille","lat":43.28692,"lon":5.38663,"is_reserved":false,"is_disabled":false,"rental_uris":{"android":"levelo://app?vid=21fd7888-7c74-4975-83bb-a7c2fd487fd2","ios":"levelo://app?vid=21fd7888-7c74-4975-83bb-a7c2fd487fd2"},"vehicle_type_id":"4","last_reported":1744902634,"current_range_meters":24400,"station_id":"ce4bh492rcd13ifvqdug","pricing_plan_id":"cebpf4jnsgd1na2vs0mg"},{"bike_id":"d04103bc-1bdb-4f89-8b04-52b41496fc22","system_id":"levelo_inurba_marseille","lat":43.29989,"lon":5.37224,"is_reserved":false,"is_disabled":false,"rental_uris":{"android":"levelo://app?vid=d04103bc-1bdb-4f89-8b04-52b41496fc22","ios":"levelo://app?vid=d04103bc-1bdb-4f89-8b04-52b41496fc22"},"vehicle_type_id":"4","last_reported":1744902634,"current_range_meters":24800,"station_id":"ce4bgr92rcd13ifvqc7g","pricing_plan_id":"cebpf4jnsgd1na2vs0mg"},{"bike_id":"a001321d-6dbe-4bbe-b7e6-6e7543a4d10f","system_id":"levelo_inurba_marseille","lat":43.29855,"lon":5.36289,"is_reserved":false,"is_disabled":false,"rental_uris":{"android":"levelo://app?vid=a001321d-6dbe-4bbe-b7e6-6e7543a4d10f","ios":"levelo://app?vid=a001321d-6dbe-4bbe-b7e6-6e7543a4d10f"},"vehicle_type_id":"4","last_reported":1744902634,"current_range_meters":24800,"station_id":"ce4bgpp2rcd13ifvqc3g","pricing_plan_id":"cebpf4jnsgd1na2vs0mg"},{"bike_id":"5480cc14-c7cd-4bdf-851b-3a282b663620","system_id":"levelo_inurba_marseille","lat":43.26554,"lon":5.37286,"is_reserved":false,"is_disabled":false,"rental_uris":{"android":"levelo://app?vid=5480cc14-c7cd-4bdf-851b-3a282b663620","ios":"levelo://app?vid=5480cc14-c7cd-4bdf-851b-3a282b663620"},"vehicle_type_id":"4","last_reported":1744902634,"current_range_meters":24800,"station_id":"ce4bhg12rcd13ifvqf70","pricing_plan_id":"cebpf4jnsgd1na2vs0mg"},{"bike_id":"a028bd60-4ad7-4d4b-91e5-0e03ac945aa0","system_id":"levelo_inurba_marseille","lat":43.29604,"lon":5.38142,"is_reserved":false,"is_disabled":false,"rental_uris":{"android":"levelo://app?vid=a028bd60-4ad7-4d4b-91e5-0e03ac945aa0","ios":"levelo://app?vid=a028bd60-4ad7-4d4b-91e5-0e03ac945aa0"},"vehicle_type_id":"4","last_reported":1744902634,"current_range_meters":24800,"station_id":"ce4bgl12rcd13ifvqbo0","pricing_plan_id":"cebpf4jnsgd1na2vs0mg"},{"bike_id":"8f8f6076-12ea-46df-b607-085587f3aae7","system_id":"levelo_inurba_marseille","lat":43.26558,"lon":5.37295,"is_reserved":false,"is_disabled":false,"rental_uris":{"android":"levelo://app?vid=8f8f6076-12ea-46df-b607-085587f3aae7","ios":"levelo://app?vid=8f8f6076-12ea-46df-b607-085587f3aae7"},"vehicle_type_id":"4","last_reported":1744902634,"current_range_meters":24800,"station_id":"ce4bhg12rcd13ifvqf70","pricing_plan_id":"cebpf4jnsgd1na2vs0mg"},{"bike_id":"ce03ad46-9270-40bd-95e3-665a24df5431","system_id":"levelo_inurba_marseille","lat":43.304596,"lon":5.379183,"is_reserved":false,"is_disabled":false,"rental_uris":{"android":"levelo://app?vid=ce03ad46-9270-40bd-95e3-665a24df5431","ios":"levelo://app?vid=ce03ad46-9270-40bd-95e3-665a24df5431"},"vehicle_type_id":"4","last_reported":1744902634,"current_range_meters":24800,"station_id":"ce4bgup2rcd13ifvqcn0","pricing_plan_id":"cebpf4jnsgd1na2vs0mg"},{"bike_id":"ab3c5c6e-7d63-4852-b222-ef196ad8f6cf","system_id":"levelo_inurba_marseille","lat":43.2454,"lon":5.39535,"is_reserved":false,"is_disabled":false,"rental_uris":{"android":"levelo://app?vid=ab3c5c6e-7d63-4852-b222-ef196ad8f6cf","ios":"levelo://app?vid=ab3c5c6e-7d63-4852-b222-ef196ad8f6cf"},"vehicle_type_id":"4","last_reported":1744902634,"current_range_meters":24800,"station_id":"ce4bhlp2rcd13ifvqgjg","pricing_plan_id":"cebpf4jnsgd1na2vs0mg"},{"bike_id":"dd98f6e4-626f-4712-86ab-cbda4699522f","system_id":"levelo_inurba_marseille","lat":43.29861,"lon":5.36286,"is_reserved":false,"is_disabled":false,"rental_uris":{"android":"levelo://app?vid=dd98f6e4-626f-4712-86ab-cbda4699522f","ios":"levelo://app?vid=dd98f6e4-626f-4712-86ab-cbda4699522f"},"vehicle_type_id":"4","last_reported":1744902634,"current_range_meters":24800,"station_id":"ce4bgpp2rcd13ifvqc3g","pricing_plan_id":"cebpf4jnsgd1na2vs0mg"},{"bike_id":"8586d6bb-85bb-491d-9e22-600640f394dc","system_id":"levelo_inurba_marseille","lat":43.31331,"lon":5.36714,"is_reserved":false,"is_disabled":false,"rental_uris":{"android":"levelo://app?vid=8586d6bb-85bb-491d-9e22-600640f394dc","ios":"levelo://app?vid=8586d6bb-85bb-491d-9e22-600640f394dc"},"vehicle_type_id":"4","last_reported":1744902634,"current_range_meters":24800,"station_id":"ce4bgr92rcd13ifvqc6g","pricing_plan_id":"cebpf4jnsgd1na2vs0mg"},{"bike_id":"17d242e3-8a33-4754-beab-19209edd5b6d","system_id":"levelo_inurba_marseille","lat":43.28356,"lon":5.38108,"is_reserved":false,"is_disabled":false,"rental_uris":{"android":"levelo://app?vid=17d242e3-8a33-4754-beab-19209edd5b6d","ios":"levelo://app?vid=17d242e3-8a33-4754-beab-19209edd5b6d"},"vehicle_type_id":"4","last_reported":1744902634,"current_range_meters":24800,"station_id":"ce4bh412rcd13ifvqdr0","pricing_plan_id":"cebpf4jnsgd1na2vs0mg"},{"bike_id":"935377c0-a8c8-47e7-8726-21d70a212587","system_id":"levelo_inurba_marseille","lat":43.3103,"lon":5.39524,"is_reserved":false,"is_disabled":false,"rental_uris":{"android":"levelo://app?vid=935377c0-a8c8-47e7-8726-21d70a212587","ios":"levelo://app?vid=935377c0-a8c8-47e7-8726-21d70a212587"},"vehicle_type_id":"4","last_reported":1744902634,"current_range_meters":24800,"station_id":"ce4bh2h2rcd13ifvqdh0","pricing_plan_id":"cebpf4jnsgd1na2vs0mg"},{"bike_id":"034fdeb4-0b7c-482b-828b-ab0dda837132","system_id":"levelo_inurba_marseille","lat":43.23196,"lon":5.35555,"is_reserved":false,"is_disabled":false,"rental_uris":{"android":"levelo://app?vid=034fdeb4-0b7c-482b-828b-ab0dda837132","ios":"levelo://app?vid=034fdeb4-0b7c-482b-828b-ab0dda837132"},"vehicle_type_id":"4","last_reported":1744902634,"current_range_meters":24800,"station_id":"ce4bhu92rcd13ifvqi70","pricing_plan_id":"cebpf4jnsgd1na2vs0mg"},{"bike_id":"99062e51-0348-47f0-b002-ff3974ccfd47","system_id":"levelo_inurba_marseille","lat":43.212,"lon":5.35079,"is_reserved":false,"is_disabled":false,"rental_uris":{"android":"levelo://app?vid=99062e51-0348-47f0-b002-ff3974ccfd47","ios":"levelo://app?vid=99062e51-0348-47f0-b002-ff3974ccfd47"},"vehicle_type_id":"4","last_reported":1744902634,"current_range_meters":25200,"station_id":"st_cvj6sg6p6f1abm77japg","pricing_plan_id":"cebpf4jnsgd1na2vs0mg"},{"bike_id":"0eb8abe7-f0a9-4c8f-b094-8a9a2fced311","system_id":"levelo_inurba_marseille","lat":43.24176,"lon":5.36397,"is_reserved":false,"is_disabled":false,"rental_uris":{"android":"levelo://app?vid=0eb8abe7-f0a9-4c8f-b094-8a9a2fced311","ios":"levelo://app?vid=0eb8abe7-f0a9-4c8f-b094-8a9a2fced311"},"vehicle_type_id":"4","last_reported":1744902634,"current_range_meters":25200,"station_id":"cpo36qri1sfpv3e86is0","pricing_plan_id":"cebpf4jnsgd1na2vs0mg"},{"bike_id":"5b4bc013-99c2-419f-8458-1eb1ed9e4470","system_id":"levelo_inurba_marseille","lat":43.30307,"lon":5.3922,"is_reserved":false,"is_disabled":true,"rental_uris":{"android":"levelo://app?vid=5b4bc013-99c2-419f-8458-1eb1ed9e4470","ios":"levelo://app?vid=5b4bc013-99c2-419f-8458-1eb1ed9e4470"},"vehicle_type_id":"4","last_reported":1744902634,"current_range_meters":25200,"station_id":"ce4bgkh2rcd13ifvqbk0","pricing_plan_id":"cebpf4jnsgd1na2vs0mg"},{"bike_id":"28075b88-bee1-4e6d-b551-f2e6efab60e2","system_id":"levelo_inurba_marseille","lat":43.30633,"lon":5.40086,"is_reserved":false,"is_disabled":false,"rental_uris":{"android":"levelo://app?vid=28075b88-bee1-4e6d-b551-f2e6efab60e2","ios":"levelo://app?vid=28075b88-bee1-4e6d-b551-f2e6efab60e2"},"vehicle_type_id":"4","last_reported":1744902634,"current_range_meters":25600,"station_id":"ce4bh112rcd13ifvqda0","pricing_plan_id":"cebpf4jnsgd1na2vs0mg"},{"bike_id":"a96acc61-4336-46a8-b4c4-73ccc8e70b96","system_id":"levelo_inurba_marseille","lat":43.29987,"lon":5.38488,"is_reserved":false,"is_disabled":false,"rental_uris":{"android":"levelo://app?vid=a96acc61-4336-46a8-b4c4-73ccc8e70b96","ios":"levelo://app?vid=a96acc61-4336-46a8-b4c4-73ccc8e70b96"},"vehicle_type_id":"4","last_reported":1744902634,"current_range_meters":25200,"station_id":"ce4bgj92rcd13ifvqbd0","pricing_plan_id":"cebpf4jnsgd1na2vs0mg"},{"bike_id":"600250cf-00aa-403f-a669-1dcd170e0773","system_id":"levelo_inurba_marseille","lat":43.28855,"lon":5.35873,"is_reserved":false,"is_disabled":false,"rental_uris":{"android":"levelo://app?vid=600250cf-00aa-403f-a669-1dcd170e0773","ios":"levelo://app?vid=600250cf-00aa-403f-a669-1dcd170e0773"},"vehicle_type_id":"4","last_reported":1744902634,"current_range_meters":25200,"station_id":"ce4bhb12rcd13ifvqem0","pricing_plan_id":"cebpf4jnsgd1na2vs0mg"},{"bike_id":"4b369c64-15f6-4369-a187-6568d55f773f","system_id":"levelo_inurba_marseille","lat":43.30149,"lon":5.37418,"is_reserved":false,"is_disabled":false,"rental_uris":{"android":"levelo://app?vid=4b369c64-15f6-4369-a187-6568d55f773f","ios":"levelo://app?vid=4b369c64-15f6-4369-a187-6568d55f773f"},"vehicle_type_id":"4","last_reported":1744902634,"current_range_meters":25600,"station_id":"ce4bgs92rcd13ifvqcc0","pricing_plan_id":"cebpf4jnsgd1na2vs0mg"},{"bike_id":"b2620e81-b601-455a-8e3b-53dd1a7682b3","system_id":"levelo_inurba_marseille","lat":43.287126,"lon":5.379268,"is_reserved":false,"is_disabled":false,"rental_uris":{"android":"levelo://app?vid=b2620e81-b601-455a-8e3b-53dd1a7682b3","ios":"levelo://app?vid=b2620e81-b601-455a-8e3b-53dd1a7682b3"},"vehicle_type_id":"4","last_reported":1744902634,"current_range_meters":25600,"station_id":"ce4bh9p2rcd13ifvqec0","pricing_plan_id":"cebpf4jnsgd1na2vs0mg"},{"bike_id":"3962686f-e3fb-4279-b87e-8cd7eac4b71b","system_id":"levelo_inurba_marseille","lat":43.30106,"lon":5.39079,"is_reserved":false,"is_disabled":false,"rental_uris":{"android":"levelo://app?vid=3962686f-e3fb-4279-b87e-8cd7eac4b71b","ios":"levelo://app?vid=3962686f-e3fb-4279-b87e-8cd7eac4b71b"},"vehicle_type_id":"4","last_reported":1744902634,"current_range_meters":25600,"station_id":"ce4bh192rcd13ifvqdb0","pricing_plan_id":"cebpf4jnsgd1na2vs0mg"},{"bike_id":"b9ef6d36-f2fd-45e4-93fe-e5dd1e3ae14e","system_id":"levelo_inurba_marseille","lat":43.29851,"lon":5.362949,"is_reserved":false,"is_disabled":false,"rental_uris":{"android":"levelo://app?vid=b9ef6d36-f2fd-45e4-93fe-e5dd1e3ae14e","ios":"levelo://app?vid=b9ef6d36-f2fd-45e4-93fe-e5dd1e3ae14e"},"vehicle_type_id":"4","last_reported":1744902634,"current_range_meters":25600,"station_id":"ce4bgpp2rcd13ifvqc3g","pricing_plan_id":"cebpf4jnsgd1na2vs0mg"},