{"last_updated":1777217581,"ttl":60,"version":"2.2","data":{"bikes":[{"bike_id":"d98e803b-63ff-4aed-8550-0d90ae1d9ab9","system_id":"levelo_inurba_marseille","lat":43.23964,"lon":5.36624,"is_reserved":false,"is_disabled":false,"rental_uris":{"android":"levelo://app?vid=d98e803b-63ff-4aed-8550-0d90ae1d9ab9","ios":"levelo://app?vid=d98e803b-63ff-4aed-8550-0d90ae1d9ab9"},"vehicle_type_id":"4","last_reported":1777217582,"current_range_meters":2800,"station_id":"ce4bhi12rcd13ifvqfp0","pricing_plan_id":"cebpf4jnsgd1na2vs0mg"},{"bike_id":"933fbca5-b9b0-42ec-b9b1-206fdc2e8dab","system_id":"levelo_inurba_marseille","lat":43.26957,"lon":5.38626,"is_reserved":false,"is_disabled":true,"rental_uris":{"android":"levelo://app?vid=933fbca5-b9b0-42ec-b9b1-206fdc2e8dab","ios":"levelo://app?vid=933fbca5-b9b0-42ec-b9b1-206fdc2e8dab"},"vehicle_type_id":"4","last_reported":1777217582,"current_range_meters":2800,"station_id":"ce4bhh92rcd13ifvqfh0","pricing_plan_id":"cebpf4jnsgd1na2vs0mg"},{"bike_id":"8e69e4ba-d23c-44f9-ba72-b1898e2d2619","system_id":"levelo_inurba_marseille","lat":43.29261,"lon":5.3844,"is_reserved":false,"is_disabled":false,"rental_uris":{"android":"levelo://app?vid=8e69e4ba-d23c-44f9-ba72-b1898e2d2619","ios":"levelo://app?vid=8e69e4ba-d23c-44f9-ba72-b1898e2d2619"},"vehicle_type_id":"4","last_reported":1777217582,"current_range_meters":2800,"station_id":"ce4bh692rcd13ifvqea0","pricing_plan_id":"cebpf4jnsgd1na2vs0mg"},{"bike_id":"1e0fad0a-f2d7-45f5-977e-c9cd1efc3001","system_id":"levelo_inurba_marseille","lat":43.30439,"lon":5.38871,"is_reserved":false,"is_disabled":false,"rental_uris":{"android":"levelo://app?vid=1e0fad0a-f2d7-45f5-977e-c9cd1efc3001","ios":"levelo://app?vid=1e0fad0a-f2d7-45f5-977e-c9cd1efc3001"},"vehicle_type_id":"4","last_reported":1777217582,"current_range_meters":2800,"station_id":"ce4bgk12rcd13ifvqbi0","pricing_plan_id":"cebpf4jnsgd1na2vs0mg"},{"bike_id":"06558e5b-846f-4e20-b375-c8972d75dc5a","system_id":"levelo_inurba_marseille","lat":43.2733,"lon":5.43093,"is_reserved":false,"is_disabled":false,"rental_uris":{"android":"levelo://app?vid=06558e5b-846f-4e20-b375-c8972d75dc5a","ios":"levelo://app?vid=06558e5b-846f-4e20-b375-c8972d75dc5a"},"vehicle_type_id":"4","last_reported":1777217582,"current_range_meters":2800,"station_id":"","pricing_plan_id":"cebpf4jnsgd1na2vs0mg"},{"bike_id":"d5aa04e9-97b7-4f02-9364-8e29c2556008","system_id":"levelo_inurba_marseille","lat":43.26505,"lon":5.39551,"is_reserved":false,"is_disabled":false,"rental_uris":{"android":"levelo://app?vid=d5aa04e9-97b7-4f02-9364-8e29c2556008","ios":"levelo://app?vid=d5aa04e9-97b7-4f02-9364-8e29c2556008"},"vehicle_type_id":"4","last_reported":1777217582,"current_range_meters":2800,"station_id":"ce4bhi12rcd13ifvqfq0","pricing_plan_id":"cebpf4jnsgd1na2vs0mg"},{"bike_id":"29556b60-0d07-4e3e-9e55-d90c68dd58a9","system_id":"levelo_inurba_marseille","lat":43.24071,"lon":5.37744,"is_reserved":false,"is_disabled":false,"rental_uris":{"android":"levelo://app?vid=29556b60-0d07-4e3e-9e55-d90c68dd58a9","ios":"levelo://app?vid=29556b60-0d07-4e3e-9e55-d90c68dd58a9"},"vehicle_type_id":"4","last_reported":1777217582,"current_range_meters":2800,"station_id":"ce4bhnp2rcd13ifvqgvg","pricing_plan_id":"cebpf4jnsgd1na2vs0mg"},{"bike_id":"28469170-3aad-4ce9-9abb-2ba3afdae206","system_id":"levelo_inurba_marseille","lat":43.31361,"lon":5.38507,"is_reserved":false,"is_disabled":false,"rental_uris":{"android":"levelo://app?vid=28469170-3aad-4ce9-9abb-2ba3afdae206","ios":"levelo://app?vid=28469170-3aad-4ce9-9abb-2ba3afdae206"},"vehicle_type_id":"4","last_reported":1777217582,"current_range_meters":2800,"station_id":"ce4bgt92rcd13ifvqcf0","pricing_plan_id":"cebpf4jnsgd1na2vs0mg"},{"bike_id":"18e3afdc-90fa-426e-84ab-348d279671dd","system_id":"levelo_inurba_marseille","lat":43.28416,"lon":5.37559,"is_reserved":false,"is_disabled":false,"rental_uris":{"android":"levelo://app?vid=18e3afdc-90fa-426e-84ab-348d279671dd","ios":"levelo://app?vid=18e3afdc-90fa-426e-84ab-348d279671dd"},"vehicle_type_id":"4","last_reported":1777217582,"current_range_meters":2800,"station_id":"ce4bh412rcd13ifvqds0","pricing_plan_id":"cebpf4jnsgd1na2vs0mg"},{"bike_id":"7edd1599-5e70-49bb-b284-64d6a7a95dcb","system_id":"levelo_inurba_marseille","lat":43.26192,"lon":5.37434,"is_reserved":false,"is_disabled":false,"rental_uris":{"android":"levelo://app?vid=7edd1599-5e70-49bb-b284-64d6a7a95dcb","ios":"levelo://app?vid=7edd1599-5e70-49bb-b284-64d6a7a95dcb"},"vehicle_type_id":"4","last_reported":1777217582,"current_range_meters":2800,"station_id":"ce4bhgp2rcd13ifvqfc0","pricing_plan_id":"cebpf4jnsgd1na2vs0mg"},{"bike_id":"f175f185-7688-4ed5-812b-75cae0a8c06c","system_id":"levelo_inurba_marseille","lat":43.26945,"lon":5.38652,"is_reserved":false,"is_disabled":false,"rental_uris":{"android":"levelo://app?vid=f175f185-7688-4ed5-812b-75cae0a8c06c","ios":"levelo://app?vid=f175f185-7688-4ed5-812b-75cae0a8c06c"},"vehicle_type_id":"4","last_reported":1777217582,"current_range_meters":3200,"station_id":"ce4bhh92rcd13ifvqfh0","pricing_plan_id":"cebpf4jnsgd1na2vs0mg"},{"bike_id":"4705c9e5-26c1-4b76-8dee-bfeca06fa81f","system_id":"levelo_inurba_marseille","lat":43.29937,"lon":5.36558,"is_reserved":false,"is_disabled":false,"rental_uris":{"android":"levelo://app?vid=4705c9e5-26c1-4b76-8dee-bfeca06fa81f","ios":"levelo://app?vid=4705c9e5-26c1-4b76-8dee-bfeca06fa81f"},"vehicle_type_id":"4","last_reported":1777217582,"current_range_meters":3200,"station_id":"ce4bgm92rcd13ifvqbr0","pricing_plan_id":"cebpf4jnsgd1na2vs0mg"},{"bike_id":"40d69b45-a292-4d7d-b8e6-837b8b5a9d0c","system_id":"levelo_inurba_marseille","lat":43.28473,"lon":5.48389,"is_reserved":false,"is_disabled":false,"rental_uris":{"android":"levelo://app?vid=40d69b45-a292-4d7d-b8e6-837b8b5a9d0c","ios":"levelo://app?vid=40d69b45-a292-4d7d-b8e6-837b8b5a9d0c"},"vehicle_type_id":"4","last_reported":1777217582,"current_range_meters":3200,"station_id":"","pricing_plan_id":"cebpf4jnsgd1na2vs0mg"},{"bike_id":"7f14f307-ed9b-4bde-a995-2c9126a5e681","system_id":"levelo_inurba_marseille","lat":43.30463,"lon":5.37899,"is_reserved":false,"is_disabled":true,"rental_uris":{"android":"levelo://app?vid=7f14f307-ed9b-4bde-a995-2c9126a5e681","ios":"levelo://app?vid=7f14f307-ed9b-4bde-a995-2c9126a5e681"},"vehicle_type_id":"4","last_reported":1777217582,"current_range_meters":3200,"station_id":"ce4bgup2rcd13ifvqcn0","pricing_plan_id":"cebpf4jnsgd1na2vs0mg"},{"bike_id":"9e2117ad-9c01-4569-af8d-f14ad7218752","system_id":"levelo_inurba_marseille","lat":43.23185,"lon":5.39992,"is_reserved":false,"is_disabled":false,"rental_uris":{"android":"levelo://app?vid=9e2117ad-9c01-4569-af8d-f14ad7218752","ios":"levelo://app?vid=9e2117ad-9c01-4569-af8d-f14ad7218752"},"vehicle_type_id":"4","last_reported":1777217582,"current_range_meters":3200,"station_id":"ce4bhn12rcd13ifvqgqg","pricing_plan_id":"cebpf4jnsgd1na2vs0mg"},{"bike_id":"541dbded-315f-4ca8-ac49-47fcb4294bb7","system_id":"levelo_inurba_marseille","lat":43.33537,"lon":5.37472,"is_reserved":false,"is_disabled":false,"rental_uris":{"android":"levelo://app?vid=541dbded-315f-4ca8-ac49-47fcb4294bb7","ios":"levelo://app?vid=541dbded-315f-4ca8-ac49-47fcb4294bb7"},"vehicle_type_id":"4","last_reported":1777217582,"current_range_meters":3200,"station_id":"st_d46tts09ee8s73dlu43g","pricing_plan_id":"cebpf4jnsgd1na2vs0mg"},{"bike_id":"fc5c67fb-bafc-42eb-b43f-0d2fffce18e0","system_id":"levelo_inurba_marseille","lat":43.29986,"lon":5.37176,"is_reserved":false,"is_disabled":false,"rental_uris":{"android":"levelo://app?vid=fc5c67fb-bafc-42eb-b43f-0d2fffce18e0","ios":"levelo://app?vid=fc5c67fb-bafc-42eb-b43f-0d2fffce18e0"},"vehicle_type_id":"4","last_reported":1777217582,"current_range_meters":3200,"station_id":"ce4bgr92rcd13ifvqc7g","pricing_plan_id":"cebpf4jnsgd1na2vs0mg"},{"bike_id":"df536d5c-3585-4f46-ba01-ee41ee5a95ac","system_id":"levelo_inurba_marseille","lat":43.30141,"lon":5.37426,"is_reserved":false,"is_disabled":false,"rental_uris":{"android":"levelo://app?vid=df536d5c-3585-4f46-ba01-ee41ee5a95ac","ios":"levelo://app?vid=df536d5c-3585-4f46-ba01-ee41ee5a95ac"},"vehicle_type_id":"4","last_reported":1777217582,"current_range_meters":3600,"station_id":"ce4bgs92rcd13ifvqcc0","pricing_plan_id":"cebpf4jnsgd1na2vs0mg"},{"bike_id":"4d7e0746-ea5b-4218-81ac-ea76ae0f21c7","system_id":"levelo_inurba_marseille","lat":43.26208,"lon":5.3793,"is_reserved":false,"is_disabled":false,"rental_uris":{"android":"levelo://app?vid=4d7e0746-ea5b-4218-81ac-ea76ae0f21c7","ios":"levelo://app?vid=4d7e0746-ea5b-4218-81ac-ea76ae0f21c7"},"vehicle_type_id":"4","last_reported":1777217582,"current_range_meters":3600,"station_id":"ce4bhjp2rcd13ifvqg90","pricing_plan_id":"cebpf4jnsgd1na2vs0mg"},{"bike_id":"2b51c914-b2ad-45b3-bcc5-ffa6e3c39426","system_id":"levelo_inurba_marseille","lat":43.26062,"lon":5.39387,"is_reserved":false,"is_disabled":false,"rental_uris":{"android":"levelo://app?vid=2b51c914-b2ad-45b3-bcc5-ffa6e3c39426","ios":"levelo://app?vid=2b51c914-b2ad-45b3-bcc5-ffa6e3c39426"},"vehicle_type_id":"4","last_reported":1777217582,"current_range_meters":3600,"station_id":"ce4bhh92rcd13ifvqfj0","pricing_plan_id":"cebpf4jnsgd1na2vs0mg"},{"bike_id":"17fe3f56-b486-40dd-ac6a-710ede14c97d","system_id":"levelo_inurba_marseille","lat":43.314869,"lon":5.373029,"is_reserved":false,"is_disabled":false,"rental_uris":{"android":"levelo://app?vid=17fe3f56-b486-40dd-ac6a-710ede14c97d","ios":"levelo://app?vid=17fe3f56-b486-40dd-ac6a-710ede14c97d"},"vehicle_type_id":"4","last_reported":1777217582,"current_range_meters":3600,"station_id":"","pricing_plan_id":"cebpf4jnsgd1na2vs0mg"},{"bike_id":"e3a85734-967b-4e37-87a0-f489c025438e","system_id":"levelo_inurba_marseille","lat":43.31758,"lon":5.39035,"is_reserved":false,"is_disabled":true,"rental_uris":{"android":"levelo://app?vid=e3a85734-967b-4e37-87a0-f489c025438e","ios":"levelo://app?vid=e3a85734-967b-4e37-87a0-f489c025438e"},"vehicle_type_id":"4","last_reported":1777217582,"current_range_meters":3600,"station_id":"ce4bhqp2rcd13ifvqhng","pricing_plan_id":"cebpf4jnsgd1na2vs0mg"},{"bike_id":"3111ed18-a4ca-4d09-ad11-67b9ed77667b","system_id":"levelo_inurba_marseille","lat":43.24471,"lon":5.42537,"is_reserved":false,"is_disabled":false,"rental_uris":{"android":"levelo://app?vid=3111ed18-a4ca-4d09-ad11-67b9ed77667b","ios":"levelo://app?vid=3111ed18-a4ca-4d09-ad11-67b9ed77667b"},"vehicle_type_id":"4","last_reported":1777217582,"current_range_meters":3600,"station_id":"st_d4a3vfp97mjs738cd8kg","pricing_plan_id":"cebpf4jnsgd1na2vs0mg"},{"bike_id":"279728aa-f8ab-4b2e-a096-2e3450183d77","system_id":"levelo_inurba_marseille","lat":43.24156,"lon":5.36448,"is_reserved":false,"is_disabled":false,"rental_uris":{"android":"levelo://app?vid=279728aa-f8ab-4b2e-a096-2e3450183d77","ios":"levelo://app?vid=279728aa-f8ab-4b2e-a096-2e3450183d77"},"vehicle_type_id":"4","last_reported":1777217582,"current_range_meters":3600,"station_id":"cpo36qri1sfpv3e86is0","pricing_plan_id":"cebpf4jnsgd1na2vs0mg"},{"bike_id":"8d1cc07a-c87d-4a7b-8797-cd61ba104d31","system_id":"levelo_inurba_marseille","lat":43.29505,"lon":5.39033,"is_reserved":false,"is_disabled":true,"rental_uris":{"android":"levelo://app?vid=8d1cc07a-c87d-4a7b-8797-cd61ba104d31","ios":"levelo://app?vid=8d1cc07a-c87d-4a7b-8797-cd61ba104d31"},"vehicle_type_id":"4","last_reported":1777217582,"current_range_meters":3600,"station_id":"ce4bh3p2rcd13ifvqdp0","pricing_plan_id":"cebpf4jnsgd1na2vs0mg"},{"bike_id":"90fac789-06e9-4c33-94b9-e82543e03c21","system_id":"levelo_inurba_marseille","lat":43.23028,"lon":5.41442,"is_reserved":false,"is_disabled":true,"rental_uris":{"android":"levelo://app?vid=90fac789-06e9-4c33-94b9-e82543e03c21","ios":"levelo://app?vid=90fac789-06e9-4c33-94b9-e82543e03c21"},"vehicle_type_id":"4","last_reported":1777217582,"current_range_meters":3600,"station_id":"st_d2o4gvlbi1j2169b742g","pricing_plan_id":"cebpf4jnsgd1na2vs0mg"},{"bike_id":"94511bc1-bfe2-497b-922d-7ee0d340f5f8","system_id":"levelo_inurba_marseille","lat":43.29227,"lon":5.36063,"is_reserved":false,"is_disabled":false,"rental_uris":{"android":"levelo://app?vid=94511bc1-bfe2-497b-922d-7ee0d340f5f8","ios":"levelo://app?vid=94511bc1-bfe2-497b-922d-7ee0d340f5f8"},"vehicle_type_id":"4","last_reported":1777217582,"current_range_meters":3600,"station_id":"ce4bhbh2rcd13ifvqeqg","pricing_plan_id":"cebpf4jnsgd1na2vs0mg"},{"bike_id":"0cd2fd7c-6402-466e-aa1b-fa186d7a7ed3","system_id":"levelo_inurba_marseille","lat":43.33194,"lon":5.37792,"is_reserved":false,"is_disabled":false,"rental_uris":{"android":"levelo://app?vid=0cd2fd7c-6402-466e-aa1b-fa186d7a7ed3","ios":"levelo://app?vid=0cd2fd7c-6402-466e-aa1b-fa186d7a7ed3"},"vehicle_type_id":"4","last_reported":1777217582,"current_range_meters":4000,"station_id":"","pricing_plan_id":"cebpf4jnsgd1na2vs0mg"},{"bike_id":"c0126e79-e455-4033-aa6f-9cd2537e8b04","system_id":"levelo_inurba_marseille","lat":43.28705,"lon":5.46688,"is_reserved":false,"is_disabled":false,"rental_uris":{"android":"levelo://app?vid=c0126e79-e455-4033-aa6f-9cd2537e8b04","ios":"levelo://app?vid=c0126e79-e455-4033-aa6f-9cd2537e8b04"},"vehicle_type_id":"4","last_reported":1777217582,"current_range_meters":4000,"station_id":"st_d6tc3vkotcvc738tfjhg","pricing_plan_id":"cebpf4jnsgd1na2vs0mg"},{"bike_id":"a03ce919-3949-4c06-bbb8-c0f13ba943b2","system_id":"levelo_inurba_marseille","lat":43.25531,"lon":5.37656,"is_reserved":false,"is_disabled":true,"rental_uris":{"android":"levelo://app?vid=a03ce919-3949-4c06-bbb8-c0f13ba943b2","ios":"levelo://app?vid=a03ce919-3949-4c06-bbb8-c0f13ba943b2"},"vehicle_type_id":"4","last_reported":1777217582,"current_range_meters":4000,"station_id":"ce4bhh12rcd13ifvqff0","pricing_plan_id":"cebpf4jnsgd1na2vs0mg"},{"bike_id":"5a4163c6-002a-4c51-9595-ce1a05963235","system_id":"levelo_inurba_marseille","lat":43.29022,"lon":5.38141,"is_reserved":false,"is_disabled":true,"rental_uris":{"android":"levelo://app?vid=5a4163c6-002a-4c51-9595-ce1a05963235","ios":"levelo://app?vid=5a4163c6-002a-4c51-9595-ce1a05963235"},"vehicle_type_id":"4","last_reported":1777217582,"current_range_meters":4000,"station_id":"ce4bh4p2rcd13ifvqe1g","pricing_plan_id":"cebpf4jnsgd1na2vs0mg"},{"bike_id":"ca986e00-5727-4b61-972c-abe501783996","system_id":"levelo_inurba_marseille","lat":43.30136,"lon":5.3987,"is_reserved":false,"is_disabled":false,"rental_uris":{"android":"levelo://app?vid=ca986e00-5727-4b61-972c-abe501783996","ios":"levelo://app?vid=ca986e00-5727-4b61-972c-abe501783996"},"vehicle_type_id":"4","last_reported":1777217582,"current_range_meters":4000,"station_id":"ce4bh0h2rcd13ifvqd40","pricing_plan_id":"cebpf4jnsgd1na2vs0mg"},{"bike_id":"b465b832-41ca-4c8a-b678-132228b145ba","system_id":"levelo_inurba_marseille","lat":43.30462,"lon":5.39712,"is_reserved":false,"is_disabled":true,"rental_uris":{"android":"levelo://app?vid=b465b832-41ca-4c8a-b678-132228b145ba","ios":"levelo://app?vid=b465b832-41ca-4c8a-b678-132228b145ba"},"vehicle_type_id":"4","last_reported":1777217582,"current_range_meters":4000,"station_id":"ce4bh092rcd13ifvqd20","pricing_plan_id":"cebpf4jnsgd1na2vs0mg"},{"bike_id":"fb302d90-e64b-4e07-8e93-395cbc2da052","system_id":"levelo_inurba_marseille","lat":43.24815,"lon":5.37463,"is_reserved":false,"is_disabled":false,"rental_uris":{"android":"levelo://app?vid=fb302d90-e64b-4e07-8e93-395cbc2da052","ios":"levelo://app?vid=fb302d90-e64b-4e07-8e93-395cbc2da052"},"vehicle_type_id":"4","last_reported":1777217582,"current_range_meters":4000,"station_id":"ce4bhgh2rcd13ifvqfb0","pricing_plan_id":"cebpf4jnsgd1na2vs0mg"},{"bike_id":"73b29586-6035-4b17-8f89-10c778399a16","system_id":"levelo_inurba_marseille","lat":43.32004,"lon":5.38142,"is_reserved":false,"is_disabled":false,"rental_uris":{"android":"levelo://app?vid=73b29586-6035-4b17-8f89-10c778399a16","ios":"levelo://app?vid=73b29586-6035-4b17-8f89-10c778399a16"},"vehicle_type_id":"4","last_reported":1777217582,"current_range_meters":4000,"station_id":"ce4bhr12rcd13ifvqhpg","pricing_plan_id":"cebpf4jnsgd1na2vs0mg"},{"bike_id":"905a2bbe-5873-4c89-b7f2-5655bd30211a","system_id":"levelo_inurba_marseille","lat":43.27373,"lon":5.36255,"is_reserved":false,"is_disabled":false,"rental_uris":{"android":"levelo://app?vid=905a2bbe-5873-4c89-b7f2-5655bd30211a","ios":"levelo://app?vid=905a2bbe-5873-4c89-b7f2-5655bd30211a"},"vehicle_type_id":"4","last_reported":1777217582,"current_range_meters":4000,"station_id":"ce4bhbh2rcd13ifvqeo0","pricing_plan_id":"cebpf4jnsgd1na2vs0mg"},{"bike_id":"801a27ae-76cb-4879-8f08-15e07ed042f4","system_id":"levelo_inurba_marseille","lat":43.24667,"lon":5.38164,"is_reserved":false,"is_disabled":false,"rental_uris":{"android":"levelo://app?vid=801a27ae-76cb-4879-8f08-15e07ed042f4","ios":"levelo://app?vid=801a27ae-76cb-4879-8f08-15e07ed042f4"},"vehicle_type_id":"4","last_reported":1777217582,"current_range_meters":4000,"station_id":"ce4bhih2rcd13ifvqfr0","pricing_plan_id":"cebpf4jnsgd1na2vs0mg"},{"bike_id":"02bdea52-d1de-474b-acce-91d90c02f046","system_id":"levelo_inurba_marseille","lat":43.21189,"lon":5.35074,"is_reserved":false,"is_disabled":false,"rental_uris":{"android":"levelo://app?vid=02bdea52-d1de-474b-acce-91d90c02f046","ios":"levelo://app?vid=02bdea52-d1de-474b-acce-91d90c02f046"},"vehicle_type_id":"4","last_reported":1777217582,"current_range_meters":4000,"station_id":"st_cvj6sg6p6f1abm77japg","pricing_plan_id":"cebpf4jnsgd1na2vs0mg"},{"bike_id":"a1fa8530-65b9-4008-96f3-a6831b1af9e3","system_id":"levelo_inurba_marseille","lat":43.33543,"lon":5.37455,"is_reserved":false,"is_disabled":true,"rental_uris":{"android":"levelo://app?vid=a1fa8530-65b9-4008-96f3-a6831b1af9e3","ios":"levelo://app?vid=a1fa8530-65b9-4008-96f3-a6831b1af9e3"},"vehicle_type_id":"4","last_reported":1777217582,"current_range_meters":4000,"station_id":"st_d46tts09ee8s73dlu43g","pricing_plan_id":"cebpf4jnsgd1na2vs0mg"},{"bike_id":"413e4623-e4a6-44c0-8fe0-f06c3e224af8","system_id":"levelo_inurba_marseille","lat":43.3188,"lon":5.36844,"is_reserved":false,"is_disabled":false,"rental_uris":{"android":"levelo://app?vid=413e4623-e4a6-44c0-8fe0-f06c3e224af8","ios":"levelo://app?vid=413e4623-e4a6-44c0-8fe0-f06c3e224af8"},"vehicle_type_id":"4","last_reported":1777217582,"current_range_meters":4400,"station_id":"st_d6o2h0d0559c73evc1b0","pricing_plan_id":"cebpf4jnsgd1na2vs0mg"},{"bike_id":"f771f9f3-e664-4ed2-b34e-95c138283e80","system_id":"levelo_inurba_marseille","lat":43.26962,"lon":5.3864,"is_reserved":false,"is_disabled":false,"rental_uris":{"android":"levelo://app?vid=f771f9f3-e664-4ed2-b34e-95c138283e80","ios":"levelo://app?vid=f771f9f3-e664-4ed2-b34e-95c138283e80"},"vehicle_type_id":"4","last_reported":1777217582,"current_range_meters":4400,"station_id":"ce4bhh92rcd13ifvqfh0","pricing_plan_id":"cebpf4jnsgd1na2vs0mg"},{"bike_id":"ace34436-51fe-4536-a1f6-cfa009f56977","system_id":"levelo_inurba_marseille","lat":43.3356,"lon":5.37437,"is_reserved":false,"is_disabled":false,"rental_uris":{"android":"levelo://app?vid=ace34436-51fe-4536-a1f6-cfa009f56977","ios":"levelo://app?vid=ace34436-51fe-4536-a1f6-cfa009f56977"},"vehicle_type_id":"4","last_reported":1777217582,"current_range_meters":4400,"station_id":"st_d46tts09ee8s73dlu43g","pricing_plan_id":"cebpf4jnsgd1na2vs0mg"},{"bike_id":"46d7e80b-9016-4338-9529-31ca2c06c7da","system_id":"levelo_inurba_marseille","lat":43.29199,"lon":5.39325,"is_reserved":false,"is_disabled":false,"rental_uris":{"android":"levelo://app?vid=46d7e80b-9016-4338-9529-31ca2c06c7da","ios":"levelo://app?vid=46d7e80b-9016-4338-9529-31ca2c06c7da"},"vehicle_type_id":"4","last_reported":1777217582,"current_range_meters":4400,"station_id":"ce4bh192rcd13ifvqdd0","pricing_plan_id":"cebpf4jnsgd1na2vs0mg"},{"bike_id":"e9caee44-b787-4c36-a632-4bd6c1ec7cfa","system_id":"levelo_inurba_marseille","lat":43.28485,"lon":5.48425,"is_reserved":false,"is_disabled":false,"rental_uris":{"android":"levelo://app?vid=e9caee44-b787-4c36-a632-4bd6c1ec7cfa","ios":"levelo://app?vid=e9caee44-b787-4c36-a632-4bd6c1ec7cfa"},"vehicle_type_id":"4","last_reported":1777217582,"current_range_meters":4400,"station_id":"st_d3svhcjqgbts73a3dn0g","pricing_plan_id":"cebpf4jnsgd1na2vs0mg"},{"bike_id":"724d0869-017c-4e7e-9911-705be0df09b1","system_id":"levelo_inurba_marseille","lat":43.31439,"lon":5.37394,"is_reserved":false,"is_disabled":false,"rental_uris":{"android":"levelo://app?vid=724d0869-017c-4e7e-9911-705be0df09b1","ios":"levelo://app?vid=724d0869-017c-4e7e-9911-705be0df09b1"},"vehicle_type_id":"4","last_reported":1777217582,"current_range_meters":4400,"station_id":"","pricing_plan_id":"cebpf4jnsgd1na2vs0mg"},{"bike_id":"fd433ccd-97bc-45cd-82e1-09aa550bfe0d","system_id":"levelo_inurba_marseille","lat":43.28611,"lon":5.35102,"is_reserved":false,"is_disabled":false,"rental_uris":{"android":"levelo://app?vid=fd433ccd-97bc-45cd-82e1-09aa550bfe0d","ios":"levelo://app?vid=fd433ccd-97bc-45cd-82e1-09aa550bfe0d"},"vehicle_type_id":"4","last_reported":1777217582,"current_range_meters":4400,"station_id":"ce4bhch2rcd13ifvqeug","pricing_plan_id":"cebpf4jnsgd1na2vs0mg"},{"bike_id":"1897e8e2-7b1b-424a-9485-bb043f4a9850","system_id":"levelo_inurba_marseille","lat":43.31184,"lon":5.38714,"is_reserved":false,"is_disabled":false,"rental_uris":{"android":"levelo://app?vid=1897e8e2-7b1b-424a-9485-bb043f4a9850","ios":"levelo://app?vid=1897e8e2-7b1b-424a-9485-bb043f4a9850"},"vehicle_type_id":"4","last_reported":1777217582,"current_range_meters":4400,"station_id":"ce4bgv12rcd13ifvqcp0","pricing_plan_id":"cebpf4jnsgd1na2vs0mg"},{"bike_id":"4677174f-c6a6-417a-b879-7cde000b74cf","system_id":"levelo_inurba_marseille","lat":43.27966,"lon":5.38745,"is_reserved":false,"is_disabled":false,"rental_uris":{"android":"levelo://app?vid=4677174f-c6a6-417a-b879-7cde000b74cf","ios":"levelo://app?vid=4677174f-c6a6-417a-b879-7cde000b74cf"},"vehicle_type_id":"4","last_reported":1777217582,"current_range_meters":4400,"station_id":"ce4bhg12rcd13ifvqf80","pricing_plan_id":"cebpf4jnsgd1na2vs0mg"},{"bike_id":"0f126928-5121-4469-a9c9-6740d8de1e82","system_id":"levelo_inurba_marseille","lat":43.24431,"lon":5.37463,"is_reserved":false,"is_disabled":false,"rental_uris":{"android":"levelo://app?vid=0f126928-5121-4469-a9c9-6740d8de1e82","ios":"levelo://app?vid=0f126928-5121-4469-a9c9-6740d8de1e82"},"vehicle_type_id":"4","last_reported":1777217582,"current_range_meters":4400,"station_id":"","pricing_plan_id":"cebpf4jnsgd1na2vs0mg"},{"bike_id":"dc7f9f41-0ef4-44ab-b595-4288ce1e87f7","system_id":"levelo_inurba_marseille","lat":43.23966,"lon":5.36625,"is_reserved":false,"is_disabled":false,"rental_uris":{"android":"levelo://app?vid=dc7f9f41-0ef4-44ab-b595-4288ce1e87f7","ios":"levelo://app?vid=dc7f9f41-0ef4-44ab-b595-4288ce1e87f7"},"vehicle_type_id":"4","last_reported":1777217582,"current_range_meters":4400,"station_id":"ce4bhi12rcd13ifvqfp0","pricing_plan_id":"cebpf4jnsgd1na2vs0mg"},{"bike_id":"05a33fd5-e436-4ad0-a907-865e546c41d5","system_id":"levelo_inurba_marseille","lat":43.22554,"lon":5.41613,"is_reserved":false,"is_disabled":true,"rental_uris":{"android":"levelo://app?vid=05a33fd5-e436-4ad0-a907-865e546c41d5","ios":"levelo://app?vid=05a33fd5-e436-4ad0-a907-865e546c41d5"},"vehicle_type_id":"4","last_reported":1777217582,"current_range_meters":4400,"station_id":"","pricing_plan_id":"cebpf4jnsgd1na2vs0mg"},{"bike_id":"927fc73c-22d2-4adb-b1d5-46009b2fc07d","system_id":"levelo_inurba_marseille","lat":43.3032,"lon":5.3693,"is_reserved":false,"is_disabled":false,"rental_uris":{"android":"levelo://app?vid=927fc73c-22d2-4adb-b1d5-46009b2fc07d","ios":"levelo://app?vid=927fc73c-22d2-4adb-b1d5-46009b2fc07d"},"vehicle_type_id":"4","last_reported":1777217582,"current_range_meters":4400,"station_id":"ce4bgqh2rcd13ifvqc5g","pricing_plan_id":"cebpf4jnsgd1na2vs0mg"},{"bike_id":"6161ede7-aa25-46de-a043-cdaf0b87397b","system_id":"levelo_inurba_marseille","lat":43.2879,"lon":5.38541,"is_reserved":false,"is_disabled":false,"rental_uris":{"android":"levelo://app?vid=6161ede7-aa25-46de-a043-cdaf0b87397b","ios":"levelo://app?vid=6161ede7-aa25-46de-a043-cdaf0b87397b"},"vehicle_type_id":"4","last_reported":1777217582,"current_range_meters":4400,"station_id":"","pricing_plan_id":"cebpf4jnsgd1na2vs0mg"},{"bike_id":"e7760414-c99e-4edb-8d77-254918982c51","system_id":"levelo_inurba_marseille","lat":43.280813,"lon":5.396654,"is_reserved":false,"is_disabled":false,"rental_uris":{"android":"levelo://app?vid=e7760414-c99e-4edb-8d77-254918982c51","ios":"levelo://app?vid=e7760414-c99e-4edb-8d77-254918982c51"},"vehicle_type_id":"4","last_reported":1777217582,"current_range_meters":4800,"station_id":"ce4bho12rcd13ifvqh2g","pricing_plan_id":"cebpf4jnsgd1na2vs0mg"},{"bike_id":"70578acc-b935-4f77-be23-bcde1db99b26","system_id":"levelo_inurba_marseille","lat":43.29794,"lon":5.38155,"is_reserved":false,"is_disabled":false,"rental_uris":{"android":"levelo://app?vid=70578acc-b935-4f77-be23-bcde1db99b26","ios":"levelo://app?vid=70578acc-b935-4f77-be23-bcde1db99b26"},"vehicle_type_id":"4","last_reported":1777217582,"current_range_meters":4800,"station_id":"ce4bgip2rcd13ifvqbb0","pricing_plan_id":"cebpf4jnsgd1na2vs0mg"},{"bike_id":"fea5a28c-0167-4a62-9062-e629ed9b3e8f","system_id":"levelo_inurba_marseille","lat":43.28485,"lon":5.48411,"is_reserved":false,"is_disabled":false,"rental_uris":{"android":"levelo://app?vid=fea5a28c-0167-4a62-9062-e629ed9b3e8f","ios":"levelo://app?vid=fea5a28c-0167-4a62-9062-e629ed9b3e8f"},"vehicle_type_id":"4","last_reported":1777217582,"current_range_meters":4800,"station_id":"st_d3svhcjqgbts73a3dn0g","pricing_plan_id":"cebpf4jnsgd1na2vs0mg"},{"bike_id":"e2271685-eba6-49b2-a439-3e6e8dd8fe8d","system_id":"levelo_inurba_marseille","lat":43.28939,"lon":5.38404,"is_reserved":false,"is_disabled":false,"rental_uris":{"android":"levelo://app?vid=e2271685-eba6-49b2-a439-3e6e8dd8fe8d","ios":"levelo://app?vid=e2271685-eba6-49b2-a439-3e6e8dd8fe8d"},"vehicle_type_id":"4","last_reported":1777217582,"current_range_meters":4800,"station_id":"ce4bh612rcd13ifvqe6g","pricing_plan_id":"cebpf4jnsgd1na2vs0mg"},{"bike_id":"71f77c9b-2474-4a80-ae75-64f6cd6ceed6","system_id":"levelo_inurba_marseille","lat":43.28281,"lon":5.35066,"is_reserved":false,"is_disabled":false,"rental_uris":{"android":"levelo://app?vid=71f77c9b-2474-4a80-ae75-64f6cd6ceed6","ios":"levelo://app?vid=71f77c9b-2474-4a80-ae75-64f6cd6ceed6"},"vehicle_type_id":"4","last_reported":1777217582,"current_range_meters":4800,"station_id":"ce4bhbp2rcd13ifvqerg","pricing_plan_id":"cebpf4jnsgd1na2vs0mg"},{"bike_id":"1ccfe6f4-e5d4-4b33-812d-52bd4f628f2d","system_id":"levelo_inurba_marseille","lat":43.24824,"lon":5.37461,"is_reserved":false,"is_disabled":false,"rental_uris":{"android":"levelo://app?vid=1ccfe6f4-e5d4-4b33-812d-52bd4f628f2d","ios":"levelo://app?vid=1ccfe6f4-e5d4-4b33-812d-52bd4f628f2d"},"vehicle_type_id":"4","last_reported":1777217582,"current_range_meters":4800,"station_id":"ce4bhgh2rcd13ifvqfb0","pricing_plan_id":"cebpf4jnsgd1na2vs0mg"},{"bike_id":"edc2a3bb-1aa4-404a-9f62-c14a9c4956a6","system_id":"levelo_inurba_marseille","lat":43.25406,"lon":5.41903,"is_reserved":false,"is_disabled":false,"rental_uris":{"android":"levelo://app?vid=edc2a3bb-1aa4-404a-9f62-c14a9c4956a6","ios":"levelo://app?vid=edc2a3bb-1aa4-404a-9f62-c14a9c4956a6"},"vehicle_type_id":"4","last_reported":1777217582,"current_range_meters":4800,"station_id":"","pricing_plan_id":"cebpf4jnsgd1na2vs0mg"},{"bike_id":"8230fff6-f0b0-4711-bd60-fa208d406046","system_id":"levelo_inurba_marseille","lat":43.28953,"lon":5.36605,"is_reserved":false,"is_disabled":false,"rental_uris":{"android":"levelo://app?vid=8230fff6-f0b0-4711-bd60-fa208d406046","ios":"levelo://app?vid=8230fff6-f0b0-4711-bd60-fa208d406046"},"vehicle_type_id":"4","last_reported":1777217582,"current_range_meters":5600,"station_id":"ce4bhap2rcd13ifvqek0","pricing_plan_id":"cebpf4jnsgd1na2vs0mg"},{"bike_id":"9a7c39d8-ef30-4694-b180-b6fe0a089530","system_id":"levelo_inurba_marseille","lat":43.30117,"lon":5.43118,"is_reserved":false,"is_disabled":false,"rental_uris":{"android":"levelo://app?vid=9a7c39d8-ef30-4694-b180-b6fe0a089530","ios":"levelo://app?vid=9a7c39d8-ef30-4694-b180-b6fe0a089530"},"vehicle_type_id":"4","last_reported":1777217582,"current_range_meters":5600,"station_id":"st_d3js3co5814s73ftftug","pricing_plan_id":"cebpf4jnsgd1na2vs0mg"},{"bike_id":"27cd71a7-0940-4415-a67f-21597fbf1cd9","system_id":"levelo_inurba_marseille","lat":43.34567,"lon":5.37808,"is_reserved":false,"is_disabled":false,"rental_uris":{"android":"levelo://app?vid=27cd71a7-0940-4415-a67f-21597fbf1cd9","ios":"levelo://app?vid=27cd71a7-0940-4415-a67f-21597fbf1cd9"},"vehicle_type_id":"4","last_reported":1777217582,"current_range_meters":5600,"station_id":"","pricing_plan_id":"cebpf4jnsgd1na2vs0mg"},{"bike_id":"a741ff1a-484b-4d8a-9c06-c4887c117baa","system_id":"levelo_inurba_marseille","lat":43.22539,"lon":5.34836,"is_reserved":false,"is_disabled":false,"rental_uris":{"android":"levelo://app?vid=a741ff1a-484b-4d8a-9c06-c4887c117baa","ios":"levelo://app?vid=a741ff1a-484b-4d8a-9c06-c4887c117baa"},"vehicle_type_id":"4","last_reported":1777217582,"current_range_meters":5600,"station_id":"st_cvj5dfep6f1abm77gieg","pricing_plan_id":"cebpf4jnsgd1na2vs0mg"},{"bike_id":"b33df2e8-4ad5-4b17-a401-b153fb18213d","system_id":"levelo_inurba_marseille","lat":43.23965,"lon":5.36631,"is_reserved":false,"is_disabled":false,"rental_uris":{"android":"levelo://app?vid=b33df2e8-4ad5-4b17-a401-b153fb18213d","ios":"levelo://app?vid=b33df2e8-4ad5-4b17-a401-b153fb18213d"},"vehicle_type_id":"4","last_reported":1777217582,"current_range_meters":5600,"station_id":"ce4bhi12rcd13ifvqfp0","pricing_plan_id":"cebpf4jnsgd1na2vs0mg"},{"bike_id":"7d1bd3e1-6fa5-4a81-b0ce-045b4844a577","system_id":"levelo_inurba_marseille","lat":43.298096,"lon":5.380895,"is_reserved":false,"is_disabled":false,"rental_uris":{"android":"levelo://app?vid=7d1bd3e1-6fa5-4a81-b0ce-045b4844a577","ios":"levelo://app?vid=7d1bd3e1-6fa5-4a81-b0ce-045b4844a577"},"vehicle_type_id":"4","last_reported":1777217582,"current_range_meters":5600,"station_id":"ce4bgip2rcd13ifvqbb0","pricing_plan_id":"cebpf4jnsgd1na2vs0mg"},{"bike_id":"26d26955-b302-4311-88a8-057f7b19117a","system_id":"levelo_inurba_marseille","lat":43.29652,"lon":5.36063,"is_reserved":false,"is_disabled":false,"rental_uris":{"android":"levelo://app?vid=26d26955-b302-4311-88a8-057f7b19117a","ios":"levelo://app?vid=26d26955-b302-4311-88a8-057f7b19117a"},"vehicle_type_id":"4","last_reported":1777217582,"current_range_meters":5600,"station_id":"","pricing_plan_id":"cebpf4jnsgd1na2vs0mg"},{"bike_id":"4fba49e0-f42f-4971-ab48-4a6d5148f297","system_id":"levelo_inurba_marseille","lat":43.26384,"lon":5.42299,"is_reserved":false,"is_disabled":false,"rental_uris":{"android":"levelo://app?vid=4fba49e0-f42f-4971-ab48-4a6d5148f297","ios":"levelo://app?vid=4fba49e0-f42f-4971-ab48-4a6d5148f297"},"vehicle_type_id":"4","last_reported":1777217582,"current_range_meters":5600,"station_id":"","pricing_plan_id":"cebpf4jnsgd1na2vs0mg"},{"bike_id":"cb829a37-a2d9-4b70-8e32-6a01cca2fc1b","system_id":"levelo_inurba_marseille","lat":43.25503,"lon":5.37648,"is_reserved":false,"is_disabled":false,"rental_uris":{"android":"levelo://app?vid=cb829a37-a2d9-4b70-8e32-6a01cca2fc1b","ios":"levelo://app?vid=cb829a37-a2d9-4b70-8e32-6a01cca2fc1b"},"vehicle_type_id":"4","last_reported":1777217582,"current_range_meters":5600,"station_id":"ce4bhh12rcd13ifvqff0","pricing_plan_id":"cebpf4jnsgd1na2vs0mg"},{"bike_id":"d83043df-be41-4ce1-bb7e-16787e981c67","system_id":"levelo_inurba_marseille","lat":43.28278,"lon":5.35068,"is_reserved":false,"is_disabled":false,"rental_uris":{"android":"levelo://app?vid=d83043df-be41-4ce1-bb7e-16787e981c67","ios":"levelo://app?vid=d83043df-be41-4ce1-bb7e-16787e981c67"},"vehicle_type_id":"4","last_reported":1777217582,"current_range_meters":5600,"station_id":"ce4bhbp2rcd13ifvqerg","pricing_plan_id":"cebpf4jnsgd1na2vs0mg"},{"bike_id":"56cbe7f3-21cf-46ab-b794-a1e2e0fe0114","system_id":"levelo_inurba_marseille","lat":43.25597,"lon":5.38218,"is_reserved":false,"is_disabled":false,"rental_uris":{"android":"levelo://app?vid=56cbe7f3-21cf-46ab-b794-a1e2e0fe0114","ios":"levelo://app?vid=56cbe7f3-21cf-46ab-b794-a1e2e0fe0114"},"vehicle_type_id":"4","last_reported":1777217582,"current_range_meters":5600,"station_id":"ce4bhih2rcd13ifvqfs0","pricing_plan_id":"cebpf4jnsgd1na2vs0mg"},{"bike_id":"b17d2084-e25f-4e0b-861a-0ba3f0dd4fc9","system_id":"levelo_inurba_marseille","lat":43.2637,"lon":5.41084,"is_reserved":false,"is_disabled":false,"rental_uris":{"android":"levelo://app?vid=b17d2084-e25f-4e0b-861a-0ba3f0dd4fc9","ios":"levelo://app?vid=b17d2084-e25f-4e0b-861a-0ba3f0dd4fc9"},"vehicle_type_id":"4","last_reported":1777217582,"current_range_meters":5600,"station_id":"st_d4e5ca6na9uc73bfl5fg","pricing_plan_id":"cebpf4jnsgd1na2vs0mg"},{"bike_id":"e3ba7ed7-5450-4177-b375-df845d265486","system_id":"levelo_inurba_marseille","lat":43.27379,"lon":5.36269,"is_reserved":false,"is_disabled":false,"rental_uris":{"android":"levelo://app?vid=e3ba7ed7-5450-4177-b375-df845d265486","ios":"levelo://app?vid=e3ba7ed7-5450-4177-b375-df845d265486"},"vehicle_type_id":"4","last_reported":1777217582,"current_range_meters":5600,"station_id":"ce4bhbh2rcd13ifvqeo0","pricing_plan_id":"cebpf4jnsgd1na2vs0mg"},{"bike_id":"100b2aef-e4b6-448c-8339-d775852982de","system_id":"levelo_inurba_marseille","lat":43.30234,"lon":5.40042,"is_reserved":false,"is_disabled":false,"rental_uris":{"android":"levelo://app?vid=100b2aef-e4b6-448c-8339-d775852982de","ios":"levelo://app?vid=100b2aef-e4b6-448c-8339-d775852982de"},"vehicle_type_id":"4","last_reported":1777217582,"current_range_meters":5600,"station_id":"ce4bgvh2rcd13ifvqcs0","pricing_plan_id":"cebpf4jnsgd1na2vs0mg"},{"bike_id":"3a1dde76-eca1-4259-a733-fe668960caa8","system_id":"levelo_inurba_marseille","lat":43.24435,"lon":5.39092,"is_reserved":false,"is_disabled":false,"rental_uris":{"android":"levelo://app?vid=3a1dde76-eca1-4259-a733-fe668960caa8","ios":"levelo://app?vid=3a1dde76-eca1-4259-a733-fe668960caa8"},"vehicle_type_id":"4","last_reported":1777217582,"current_range_meters":5600,"station_id":"","pricing_plan_id":"cebpf4jnsgd1na2vs0mg"},{"bike_id":"e79bde01-2f2e-4687-9114-2908a926683e","system_id":"levelo_inurba_marseille","lat":43.3355,"lon":5.37468,"is_reserved":false,"is_disabled":false,"rental_uris":{"android":"levelo://app?vid=e79bde01-2f2e-4687-9114-2908a926683e","ios":"levelo://app?vid=e79bde01-2f2e-4687-9114-2908a926683e"},"vehicle_type_id":"4","last_reported":1777217582,"current_range_meters":5600,"station_id":"st_d46tts09ee8s73dlu43g","pricing_plan_id":"cebpf4jnsgd1na2vs0mg"},{"bike_id":"833d7be3-421b-4c5f-bc44-1a51dc01aed7","system_id":"levelo_inurba_marseille","lat":43.29662,"lon":5.37268,"is_reserved":false,"is_disabled":true,"rental_uris":{"android":"levelo://app?vid=833d7be3-421b-4c5f-bc44-1a51dc01aed7","ios":"levelo://app?vid=833d7be3-421b-4c5f-bc44-1a51dc01aed7"},"vehicle_type_id":"4","last_reported":1777217582,"current_range_meters":5600,"station_id":"ce4bgk12rcd13ifvqbj0","pricing_plan_id":"cebpf4jnsgd1na2vs0mg"},{"bike_id":"f33c6c9d-346a-4c73-9b31-f3ca6fe92254","system_id":"levelo_inurba_marseille","lat":43.29606,"lon":5.37713,"is_reserved":false,"is_disabled":true,"rental_uris":{"android":"levelo://app?vid=f33c6c9d-346a-4c73-9b31-f3ca6fe92254","ios":"levelo://app?vid=f33c6c9d-346a-4c73-9b31-f3ca6fe92254"},"vehicle_type_id":"4","last_reported":1777217582,"current_range_meters":5600,"station_id":"ce4bgi92rcd13ifvqb90","pricing_plan_id":"cebpf4jnsgd1na2vs0mg"},{"bike_id":"aba6359e-8c7a-4c39-b354-91e3ff5623c9","system_id":"levelo_inurba_marseille","lat":43.29621,"lon":5.37726,"is_reserved":false,"is_disabled":false,"rental_uris":{"android":"levelo://app?vid=aba6359e-8c7a-4c39-b354-91e3ff5623c9","ios":"levelo://app?vid=aba6359e-8c7a-4c39-b354-91e3ff5623c9"},"vehicle_type_id":"4","last_reported":1777217582,"current_range_meters":5600,"station_id":"ce4bgi92rcd13ifvqb90","pricing_plan_id":"cebpf4jnsgd1na2vs0mg"},{"bike_id":"cdf76281-cbe4-4bfe-a9b8-31758e439078","system_id":"levelo_inurba_marseille","lat":43.28623,"lon":5.35095,"is_reserved":false,"is_disabled":false,"rental_uris":{"android":"levelo://app?vid=cdf76281-cbe4-4bfe-a9b8-31758e439078","ios":"levelo://app?vid=cdf76281-cbe4-4bfe-a9b8-31758e439078"},"vehicle_type_id":"4","last_reported":1777217582,"current_range_meters":5600,"station_id":"ce4bhch2rcd13ifvqeug","pricing_plan_id":"cebpf4jnsgd1na2vs0mg"},{"bike_id":"5367fafd-42a5-4c52-bd35-5d85953af91c","system_id":"levelo_inurba_marseille","lat":43.30818,"lon":5.375,"is_reserved":false,"is_disabled":true,"rental_uris":{"android":"levelo://app?vid=5367fafd-42a5-4c52-bd35-5d85953af91c","ios":"levelo://app?vid=5367fafd-42a5-4c52-bd35-5d85953af91c"},"vehicle_type_id":"4","last_reported":1777217582,"current_range_meters":6000,"station_id":"","pricing_plan_id":"cebpf4jnsgd1na2vs0mg"},{"bike_id":"9762113e-a054-458e-a16d-f34215941270","system_id":"levelo_inurba_marseille","lat":43.29236,"lon":5.36105,"is_reserved":false,"is_disabled":true,"rental_uris":{"android":"levelo://app?vid=9762113e-a054-458e-a16d-f34215941270","ios":"levelo://app?vid=9762113e-a054-458e-a16d-f34215941270"},"vehicle_type_id":"4","last_reported":1777217582,"current_range_meters":6000,"station_id":"ce4bhbh2rcd13ifvqeqg","pricing_plan_id":"cebpf4jnsgd1na2vs0mg"},{"bike_id":"72337c7c-15fe-4d9d-a055-b6365e7a1881","system_id":"levelo_inurba_marseille","lat":43.24951,"lon":5.40488,"is_reserved":false,"is_disabled":false,"rental_uris":{"android":"levelo://app?vid=72337c7c-15fe-4d9d-a055-b6365e7a1881","ios":"levelo://app?vid=72337c7c-15fe-4d9d-a055-b6365e7a1881"},"vehicle_type_id":"4","last_reported":1777217582,"current_range_meters":6000,"station_id":"st_d2ngiaodas8pm72gd1h0","pricing_plan_id":"cebpf4jnsgd1na2vs0mg"},{"bike_id":"e8030f99-01e5-4a45-af9a-80d46a8d8629","system_id":"levelo_inurba_marseille","lat":43.30551,"lon":5.36535,"is_reserved":false,"is_disabled":false,"rental_uris":{"android":"levelo://app?vid=e8030f99-01e5-4a45-af9a-80d46a8d8629","ios":"levelo://app?vid=e8030f99-01e5-4a45-af9a-80d46a8d8629"},"vehicle_type_id":"4","last_reported":1777217582,"current_range_meters":6000,"station_id":"ce4bgs12rcd13ifvqcag","pricing_plan_id":"cebpf4jnsgd1na2vs0mg"},{"bike_id":"5687bcf3-d7dc-457c-91e4-c37491638fcd","system_id":"levelo_inurba_marseille","lat":43.2417,"lon":5.36385,"is_reserved":false,"is_disabled":false,"rental_uris":{"android":"levelo://app?vid=5687bcf3-d7dc-457c-91e4-c37491638fcd","ios":"levelo://app?vid=5687bcf3-d7dc-457c-91e4-c37491638fcd"},"vehicle_type_id":"4","last_reported":1777217582,"current_range_meters":6000,"station_id":"cpo36qri1sfpv3e86is0","pricing_plan_id":"cebpf4jnsgd1na2vs0mg"},{"bike_id":"511a6892-12ce-4e94-9b1c-0cbbb3e91bc1","system_id":"levelo_inurba_marseille","lat":43.2695,"lon":5.38626,"is_reserved":false,"is_disabled":false,"rental_uris":{"android":"levelo://app?vid=511a6892-12ce-4e94-9b1c-0cbbb3e91bc1","ios":"levelo://app?vid=511a6892-12ce-4e94-9b1c-0cbbb3e91bc1"},"vehicle_type_id":"4","last_reported":1777217582,"current_range_meters":6000,"station_id":"ce4bhh92rcd13ifvqfh0","pricing_plan_id":"cebpf4jnsgd1na2vs0mg"},{"bike_id":"085eefc3-42b6-4e5f-8fa3-5e096f60ac23","system_id":"levelo_inurba_marseille","lat":43.21755,"lon":5.34598,"is_reserved":false,"is_disabled":true,"rental_uris":{"android":"levelo://app?vid=085eefc3-42b6-4e5f-8fa3-5e096f60ac23","ios":"levelo://app?vid=085eefc3-42b6-4e5f-8fa3-5e096f60ac23"},"vehicle_type_id":"4","last_reported":1777217582,"current_range_meters":6000,"station_id":"st_cvj6r9ubvosntc0bgbag","pricing_plan_id":"cebpf4jnsgd1na2vs0mg"},{"bike_id":"26dc68b8-ddf2-4ea3-9f31-b67700d6c4aa","system_id":"levelo_inurba_marseille","lat":43.27969,"lon":5.38754,"is_reserved":false,"is_disabled":false,"rental_uris":{"android":"levelo://app?vid=26dc68b8-ddf2-4ea3-9f31-b67700d6c4aa","ios":"levelo://app?vid=26dc68b8-ddf2-4ea3-9f31-b67700d6c4aa"},"vehicle_type_id":"4","last_reported":1777217582,"current_range_meters":6000,"station_id":"ce4bhg12rcd13ifvqf80","pricing_plan_id":"cebpf4jnsgd1na2vs0mg"},{"bike_id":"65ce94a2-3b6f-415d-8407-e4423b2b406b","system_id":"levelo_inurba_marseille","lat":43.26214,"lon":5.37446,"is_reserved":false,"is_disabled":false,"rental_uris":{"android":"levelo://app?vid=65ce94a2-3b6f-415d-8407-e4423b2b406b","ios":"levelo://app?vid=65ce94a2-3b6f-415d-8407-e4423b2b406b"},"vehicle_type_id":"4","last_reported":1777217582,"current_range_meters":6000,"station_id":"ce4bhgp2rcd13ifvqfc0","pricing_plan_id":"cebpf4jnsgd1na2vs0mg"},{"bike_id":"590204e1-9bb1-4258-b095-b64777876692","system_id":"levelo_inurba_marseille","lat":43.29634,"lon":5.406,"is_reserved":false,"is_disabled":false,"rental_uris":{"android":"levelo://app?vid=590204e1-9bb1-4258-b095-b64777876692","ios":"levelo://app?vid=590204e1-9bb1-4258-b095-b64777876692"},"vehicle_type_id":"4","last_reported":1777217582,"current_range_meters":6000,"station_id":"ce4bh0h2rcd13ifvqd60","pricing_plan_id":"cebpf4jnsgd1na2vs0mg"},{"bike_id":"0e385029-f21e-4196-be6e-7feb5fd87d07","system_id":"levelo_inurba_marseille","lat":43.31894,"lon":5.36819,"is_reserved":false,"is_disabled":false,"rental_uris":{"android":"levelo://app?vid=0e385029-f21e-4196-be6e-7feb5fd87d07","ios":"levelo://app?vid=0e385029-f21e-4196-be6e-7feb5fd87d07"},"vehicle_type_id":"4","last_reported":1777217582,"current_range_meters":6000,"station_id":"st_d6o2h0d0559c73evc1b0","pricing_plan_id":"cebpf4jnsgd1na2vs0mg"},{"bike_id":"f0a78c21-af18-4d12-999c-c61c54a5c6ee","system_id":"levelo_inurba_marseille","lat":43.28376,"lon":5.38628,"is_reserved":false,"is_disabled":false,"rental_uris":{"android":"levelo://app?vid=f0a78c21-af18-4d12-999c-c61c54a5c6ee","ios":"levelo://app?vid=f0a78c21-af18-4d12-999c-c61c54a5c6ee"},"vehicle_type_id":"4","last_reported":1777217582,"current_range_meters":6000,"station_id":"ce4bh492rcd13ifvqdvg","pricing_plan_id":"cebpf4jnsgd1na2vs0mg"},{"bike_id":"bfe7a5c5-cae5-484e-8420-f5487a17b915","system_id":"levelo_inurba_marseille","lat":43.2841,"lon":5.34977,"is_reserved":false,"is_disabled":false,"rental_uris":{"android":"levelo://app?vid=bfe7a5c5-cae5-484e-8420-f5487a17b915","ios":"levelo://app?vid=bfe7a5c5-cae5-484e-8420-f5487a17b915"},"vehicle_type_id":"4","last_reported":1777217582,"current_range_meters":6000,"station_id":"ce4bhbh2rcd13ifvqepg","pricing_plan_id":"cebpf4jnsgd1na2vs0mg"},{"bike_id":"3396edc7-aee7-4dab-866e-237c4fafd6eb","system_id":"levelo_inurba_marseille","lat":43.27677,"lon":5.38885,"is_reserved":false,"is_disabled":false,"rental_uris":{"android":"levelo://app?vid=3396edc7-aee7-4dab-866e-237c4fafd6eb","ios":"levelo://app?vid=3396edc7-aee7-4dab-866e-237c4fafd6eb"},"vehicle_type_id":"4","last_reported":1777217582,"current_range_meters":6000,"station_id":"ce4bhi12rcd13ifvqfo0","pricing_plan_id":"cebpf4jnsgd1na2vs0mg"},{"bike_id":"bce420a6-5599-4be4-8fa7-2b5abfb08496","system_id":"levelo_inurba_marseille","lat":43.26214,"lon":5.37439,"is_reserved":false,"is_disabled":false,"rental_uris":{"android":"levelo://app?vid=bce420a6-5599-4be4-8fa7-2b5abfb08496","ios":"levelo://app?vid=bce420a6-5599-4be4-8fa7-2b5abfb08496"},"vehicle_type_id":"4","last_reported":1777217582,"current_range_meters":6000,"station_id":"ce4bhgp2rcd13ifvqfc0","pricing_plan_id":"cebpf4jnsgd1na2vs0mg"},{"bike_id":"757fdfcb-45d7-4c45-8e18-f9ab346e8260","system_id":"levelo_inurba_marseille","lat":43.24662,"lon":5.39864,"is_reserved":false,"is_disabled":false,"rental_uris":{"android":"levelo://app?vid=757fdfcb-45d7-4c45-8e18-f9ab346e8260","ios":"levelo://app?vid=757fdfcb-45d7-4c45-8e18-f9ab346e8260"},"vehicle_type_id":"4","last_reported":1777217582,"current_range_meters":6400,"station_id":"","pricing_plan_id":"cebpf4jnsgd1na2vs0mg"},{"bike_id":"dcf3c7cc-fd9e-448d-9a58-59ca264eaa33","system_id":"levelo_inurba_marseille","lat":43.23192,"lon":5.39998,"is_reserved":false,"is_disabled":false,"rental_uris":{"android":"levelo://app?vid=dcf3c7cc-fd9e-448d-9a58-59ca264eaa33","ios":"levelo://app?vid=dcf3c7cc-fd9e-448d-9a58-59ca264eaa33"},"vehicle_type_id":"4","last_reported":1777217582,"current_range_meters":6400,"station_id":"ce4bhn12rcd13ifvqgqg","pricing_plan_id":"cebpf4jnsgd1na2vs0mg"},{"bike_id":"8072cacb-a3e8-46da-82ae-1b43a1fd8ce5","system_id":"levelo_inurba_marseille","lat":43.27821,"lon":5.40732,"is_reserved":false,"is_disabled":false,"rental_uris":{"android":"levelo://app?vid=8072cacb-a3e8-46da-82ae-1b43a1fd8ce5","ios":"levelo://app?vid=8072cacb-a3e8-46da-82ae-1b43a1fd8ce5"},"vehicle_type_id":"4","last_reported":1777217582,"current_range_meters":6400,"station_id":"ce4bhnh2rcd13ifvqgtg","pricing_plan_id":"cebpf4jnsgd1na2vs0mg"},{"bike_id":"6cf3a600-b22f-4888-b1ea-a099526102d1","system_id":"levelo_inurba_marseille","lat":43.24657,"lon":5.38156,"is_reserved":false,"is_disabled":false,"rental_uris":{"android":"levelo://app?vid=6cf3a600-b22f-4888-b1ea-a099526102d1","ios":"levelo://app?vid=6cf3a600-b22f-4888-b1ea-a099526102d1"},"vehicle_type_id":"4","last_reported":1777217582,"current_range_meters":6400,"station_id":"ce4bhih2rcd13ifvqfr0","pricing_plan_id":"cebpf4jnsgd1na2vs0mg"},{"bike_id":"6b60b3c8-da35-492c-9411-418199a97ad7","system_id":"levelo_inurba_marseille","lat":43.28492,"lon":5.48392,"is_reserved":false,"is_disabled":false,"rental_uris":{"android":"levelo://app?vid=6b60b3c8-da35-492c-9411-418199a97ad7","ios":"levelo://app?vid=6b60b3c8-da35-492c-9411-418199a97ad7"},"vehicle_type_id":"4","last_reported":1777217582,"current_range_meters":6400,"station_id":"","pricing_plan_id":"cebpf4jnsgd1na2vs0mg"},{"bike_id":"8c8f50af-b31e-47d5-bf4e-c8304b436a64","system_id":"levelo_inurba_marseille","lat":43.30285,"lon":5.36902,"is_reserved":false,"is_disabled":false,"rental_uris":{"android":"levelo://app?vid=8c8f50af-b31e-47d5-bf4e-c8304b436a64","ios":"levelo://app?vid=8c8f50af-b31e-47d5-bf4e-c8304b436a64"},"vehicle_type_id":"4","last_reported":1777217582,"current_range_meters":6400,"station_id":"ce4bgqh2rcd13ifvqc5g","pricing_plan_id":"cebpf4jnsgd1na2vs0mg"},{"bike_id":"adfeb2f2-21a5-4adf-a92e-a60a7bb66934","system_id":"levelo_inurba_marseille","lat":43.29006,"lon":5.35612,"is_reserved":false,"is_disabled":true,"rental_uris":{"android":"levelo://app?vid=adfeb2f2-21a5-4adf-a92e-a60a7bb66934","ios":"levelo://app?vid=adfeb2f2-21a5-4adf-a92e-a60a7bb66934"},"vehicle_type_id":"4","last_reported":1777217582,"current_range_meters":6400,"station_id":"ce4bhb92rcd13ifvqen0","pricing_plan_id":"cebpf4jnsgd1na2vs0mg"},{"bike_id":"e6e0181d-d51b-42d7-93b1-7e8f4d00629c","system_id":"levelo_inurba_marseille","lat":43.29839,"lon":5.42036,"is_reserved":false,"is_disabled":true,"rental_uris":{"android":"levelo://app?vid=e6e0181d-d51b-42d7-93b1-7e8f4d00629c","ios":"levelo://app?vid=e6e0181d-d51b-42d7-93b1-7e8f4d00629c"},"vehicle_type_id":"4","last_reported":1777217582,"current_range_meters":6400,"station_id":"","pricing_plan_id":"cebpf4jnsgd1na2vs0mg"},{"bike_id":"fda983b3-301e-40f3-bb07-e5c67ab620e4","system_id":"levelo_inurba_marseille","lat":43.2558,"lon":5.40293,"is_reserved":false,"is_disabled":false,"rental_uris":{"android":"levelo://app?vid=fda983b3-301e-40f3-bb07-e5c67ab620e4","ios":"levelo://app?vid=fda983b3-301e-40f3-bb07-e5c67ab620e4"},"vehicle_type_id":"4","last_reported":1777217582,"current_range_meters":6400,"station_id":"","pricing_plan_id":"cebpf4jnsgd1na2vs0mg"},{"bike_id":"1a4ab09d-1c5c-4805-9318-38d8f551e352","system_id":"levelo_inurba_marseille","lat":43.26682,"lon":5.38263,"is_reserved":false,"is_disabled":false,"rental_uris":{"android":"levelo://app?vid=1a4ab09d-1c5c-4805-9318-38d8f551e352","ios":"levelo://app?vid=1a4ab09d-1c5c-4805-9318-38d8f551e352"},"vehicle_type_id":"4","last_reported":1777217582,"current_range_meters":6400,"station_id":"ce4bhg92rcd13ifvqf90","pricing_plan_id":"cebpf4jnsgd1na2vs0mg"},{"bike_id":"d054276e-6372-4793-ae37-6281dafb78f8","system_id":"levelo_inurba_marseille","lat":43.3376,"lon":5.37435,"is_reserved":false,"is_disabled":false,"rental_uris":{"android":"levelo://app?vid=d054276e-6372-4793-ae37-6281dafb78f8","ios":"levelo://app?vid=d054276e-6372-4793-ae37-6281dafb78f8"},"vehicle_type_id":"4","last_reported":1777217582,"current_range_meters":6400,"station_id":"","pricing_plan_id":"cebpf4jnsgd1na2vs0mg"},{"bike_id":"8f936b82-de81-4fcc-afb2-e06d99fe7490","system_id":"levelo_inurba_marseille","lat":43.24661,"lon":5.38168,"is_reserved":false,"is_disabled":false,"rental_uris":{"android":"levelo://app?vid=8f936b82-de81-4fcc-afb2-e06d99fe7490","ios":"levelo://app?vid=8f936b82-de81-4fcc-afb2-e06d99fe7490"},"vehicle_type_id":"4","last_reported":1777217582,"current_range_meters":6400,"station_id":"ce4bhih2rcd13ifvqfr0","pricing_plan_id":"cebpf4jnsgd1na2vs0mg"},{"bike_id":"1f89bb6f-bd63-459f-9d91-6a6497ac0810","system_id":"levelo_inurba_marseille","lat":43.29623,"lon":5.37169,"is_reserved":false,"is_disabled":false,"rental_uris":{"android":"levelo://app?vid=1f89bb6f-bd63-459f-9d91-6a6497ac0810","ios":"levelo://app?vid=1f89bb6f-bd63-459f-9d91-6a6497ac0810"},"vehicle_type_id":"4","last_reported":1777217582,"current_range_meters":6400,"station_id":"ce4bgnh2rcd13ifvqc0g","pricing_plan_id":"cebpf4jnsgd1na2vs0mg"},{"bike_id":"577bfdf5-6f2c-490d-a748-b8e81e08342d","system_id":"levelo_inurba_marseille","lat":43.262,"lon":5.37931,"is_reserved":false,"is_disabled":false,"rental_uris":{"android":"levelo://app?vid=577bfdf5-6f2c-490d-a748-b8e81e08342d","ios":"levelo://app?vid=577bfdf5-6f2c-490d-a748-b8e81e08342d"},"vehicle_type_id":"4","last_reported":1777217582,"current_range_meters":6400,"station_id":"ce4bhjp2rcd13ifvqg90","pricing_plan_id":"cebpf4jnsgd1na2vs0mg"},{"bike_id":"d23a676f-e810-4271-a63f-a24ba79cb5df","system_id":"levelo_inurba_marseille","lat":43.22928,"lon":5.35369,"is_reserved":false,"is_disabled":false,"rental_uris":{"android":"levelo://app?vid=d23a676f-e810-4271-a63f-a24ba79cb5df","ios":"levelo://app?vid=d23a676f-e810-4271-a63f-a24ba79cb5df"},"vehicle_type_id":"4","last_reported":1777217582,"current_range_meters":6400,"station_id":"cpo3532slgdg3j2ikp40","pricing_plan_id":"cebpf4jnsgd1na2vs0mg"},{"bike_id":"5fdff1d7-b2d7-4e39-ad7f-00ed09411d1d","system_id":"levelo_inurba_marseille","lat":43.28481,"lon":5.48399,"is_reserved":false,"is_disabled":false,"rental_uris":{"android":"levelo://app?vid=5fdff1d7-b2d7-4e39-ad7f-00ed09411d1d","ios":"levelo://app?vid=5fdff1d7-b2d7-4e39-ad7f-00ed09411d1d"},"vehicle_type_id":"4","last_reported":1777217582,"current_range_meters":6800,"station_id":"st_d3svhcjqgbts73a3dn0g","pricing_plan_id":"cebpf4jnsgd1na2vs0mg"},{"bike_id":"3dd88976-0db9-4f79-9d69-2b4de8a2650c","system_id":"levelo_inurba_marseille","lat":43.22567,"lon":5.41628,"is_reserved":false,"is_disabled":false,"rental_uris":{"android":"levelo://app?vid=3dd88976-0db9-4f79-9d69-2b4de8a2650c","ios":"levelo://app?vid=3dd88976-0db9-4f79-9d69-2b4de8a2650c"},"vehicle_type_id":"4","last_reported":1777217582,"current_range_meters":6800,"station_id":"st_d2o4gvlbi1j2169b742g","pricing_plan_id":"cebpf4jnsgd1na2vs0mg"},{"bike_id":"1fa7c290-baf4-43ed-aa99-7181dabef99e","system_id":"levelo_inurba_marseille","lat":43.33555,"lon":5.37444,"is_reserved":false,"is_disabled":false,"rental_uris":{"android":"levelo://app?vid=1fa7c290-baf4-43ed-aa99-7181dabef99e","ios":"levelo://app?vid=1fa7c290-baf4-43ed-aa99-7181dabef99e"},"vehicle_type_id":"4","last_reported":1777217582,"current_range_meters":6800,"station_id":"st_d46tts09ee8s73dlu43g","pricing_plan_id":"cebpf4jnsgd1na2vs0mg"},{"bike_id":"3bbb54aa-80d6-492a-a626-cfb9b00e8791","system_id":"levelo_inurba_marseille","lat":43.25504,"lon":5.37672,"is_reserved":false,"is_disabled":false,"rental_uris":{"android":"levelo://app?vid=3bbb54aa-80d6-492a-a626-cfb9b00e8791","ios":"levelo://app?vid=3bbb54aa-80d6-492a-a626-cfb9b00e8791"},"vehicle_type_id":"4","last_reported":1777217582,"current_range_meters":6800,"station_id":"ce4bhh12rcd13ifvqff0","pricing_plan_id":"cebpf4jnsgd1na2vs0mg"},{"bike_id":"be3dbaca-317c-43ef-8335-8f03df566046","system_id":"levelo_inurba_marseille","lat":43.28466,"lon":5.48403,"is_reserved":false,"is_disabled":true,"rental_uris":{"android":"levelo://app?vid=be3dbaca-317c-43ef-8335-8f03df566046","ios":"levelo://app?vid=be3dbaca-317c-43ef-8335-8f03df566046"},"vehicle_type_id":"4","last_reported":1777217582,"current_range_meters":6800,"station_id":"st_d3svhcjqgbts73a3dn0g","pricing_plan_id":"cebpf4jnsgd1na2vs0mg"},{"bike_id":"f54ccc15-12bb-43a9-bcae-01eb62b17984","system_id":"levelo_inurba_marseille","lat":43.24805,"lon":5.3746,"is_reserved":false,"is_disabled":false,"rental_uris":{"android":"levelo://app?vid=f54ccc15-12bb-43a9-bcae-01eb62b17984","ios":"levelo://app?vid=f54ccc15-12bb-43a9-bcae-01eb62b17984"},"vehicle_type_id":"4","last_reported":1777217582,"current_range_meters":6800,"station_id":"ce4bhgh2rcd13ifvqfb0","pricing_plan_id":"cebpf4jnsgd1na2vs0mg"},{"bike_id":"318c3220-f9ff-4ac8-9eaf-473f0d3affbf","system_id":"levelo_inurba_marseille","lat":43.29873,"lon":5.39748,"is_reserved":false,"is_disabled":false,"rental_uris":{"android":"levelo://app?vid=318c3220-f9ff-4ac8-9eaf-473f0d3affbf","ios":"levelo://app?vid=318c3220-f9ff-4ac8-9eaf-473f0d3affbf"},"vehicle_type_id":"4","last_reported":1777217582,"current_range_meters":6800,"station_id":"ce4bh0h2rcd13ifvqd50","pricing_plan_id":"cebpf4jnsgd1na2vs0mg"},{"bike_id":"673573fb-7457-48f9-bf98-23c4f082a93a","system_id":"levelo_inurba_marseille","lat":43.23188,"lon":5.40037,"is_reserved":false,"is_disabled":false,"rental_uris":{"android":"levelo://app?vid=673573fb-7457-48f9-bf98-23c4f082a93a","ios":"levelo://app?vid=673573fb-7457-48f9-bf98-23c4f082a93a"},"vehicle_type_id":"4","last_reported":1777217582,"current_range_meters":6800,"station_id":"ce4bhn12rcd13ifvqgqg","pricing_plan_id":"cebpf4jnsgd1na2vs0mg"},{"bike_id":"5e683b62-64f7-44d0-9ab4-412119859e25","system_id":"levelo_inurba_marseille","lat":43.28415,"lon":5.34986,"is_reserved":false,"is_disabled":false,"rental_uris":{"android":"levelo://app?vid=5e683b62-64f7-44d0-9ab4-412119859e25","ios":"levelo://app?vid=5e683b62-64f7-44d0-9ab4-412119859e25"},"vehicle_type_id":"4","last_reported":1777217582,"current_range_meters":6800,"station_id":"ce4bhbh2rcd13ifvqepg","pricing_plan_id":"cebpf4jnsgd1na2vs0mg"},{"bike_id":"4e5ec277-bdaf-40c7-b7a0-54305415c0fc","system_id":"levelo_inurba_marseille","lat":43.27975,"lon":5.38749,"is_reserved":false,"is_disabled":false,"rental_uris":{"android":"levelo://app?vid=4e5ec277-bdaf-40c7-b7a0-54305415c0fc","ios":"levelo://app?vid=4e5ec277-bdaf-40c7-b7a0-54305415c0fc"},"vehicle_type_id":"4","last_reported":1777217582,"current_range_meters":6800,"station_id":"ce4bhg12rcd13ifvqf80","pricing_plan_id":"cebpf4jnsgd1na2vs0mg"},{"bike_id":"18e9f39f-3394-4027-b5e9-3e90b3530b0e","system_id":"levelo_inurba_marseille","lat":43.29727,"lon":5.37703,"is_reserved":false,"is_disabled":false,"rental_uris":{"android":"levelo://app?vid=18e9f39f-3394-4027-b5e9-3e90b3530b0e","ios":"levelo://app?vid=18e9f39f-3394-4027-b5e9-3e90b3530b0e"},"vehicle_type_id":"4","last_reported":1777217582,"current_range_meters":6800,"station_id":"ce4bgkh2rcd13ifvqbl0","pricing_plan_id":"cebpf4jnsgd1na2vs0mg"},{"bike_id":"b7166d00-058e-4f8a-ac08-8d7664362d9a","system_id":"levelo_inurba_marseille","lat":43.26551,"lon":5.373,"is_reserved":false,"is_disabled":true,"rental_uris":{"android":"levelo://app?vid=b7166d00-058e-4f8a-ac08-8d7664362d9a","ios":"levelo://app?vid=b7166d00-058e-4f8a-ac08-8d7664362d9a"},"vehicle_type_id":"4","last_reported":1777217582,"current_range_meters":6800,"station_id":"ce4bhg12rcd13ifvqf70","pricing_plan_id":"cebpf4jnsgd1na2vs0mg"},{"bike_id":"494fd0fc-3b39-4504-a26b-321afbf22977","system_id":"levelo_inurba_marseille","lat":43.23843,"lon":5.38578,"is_reserved":false,"is_disabled":false,"rental_uris":{"android":"levelo://app?vid=494fd0fc-3b39-4504-a26b-321afbf22977","ios":"levelo://app?vid=494fd0fc-3b39-4504-a26b-321afbf22977"},"vehicle_type_id":"4","last_reported":1777217582,"current_range_meters":7200,"station_id":"","pricing_plan_id":"cebpf4jnsgd1na2vs0mg"},{"bike_id":"619b4b09-ecfc-4a0b-9115-5e9e5f758e17","system_id":"levelo_inurba_marseille","lat":43.2622,"lon":5.40441,"is_reserved":false,"is_disabled":false,"rental_uris":{"android":"levelo://app?vid=619b4b09-ecfc-4a0b-9115-5e9e5f758e17","ios":"levelo://app?vid=619b4b09-ecfc-4a0b-9115-5e9e5f758e17"},"vehicle_type_id":"4","last_reported":1777217582,"current_range_meters":7200,"station_id":"ce4bhmh2rcd13ifvqgmg","pricing_plan_id":"cebpf4jnsgd1na2vs0mg"},{"bike_id":"fb350924-3b39-4197-a891-8208914eef37","system_id":"levelo_inurba_marseille","lat":43.24842,"lon":5.37459,"is_reserved":false,"is_disabled":false,"rental_uris":{"android":"levelo://app?vid=fb350924-3b39-4197-a891-8208914eef37","ios":"levelo://app?vid=fb350924-3b39-4197-a891-8208914eef37"},"vehicle_type_id":"4","last_reported":1777217582,"current_range_meters":7200,"station_id":"","pricing_plan_id":"cebpf4jnsgd1na2vs0mg"},{"bike_id":"4470a9dc-0144-467a-9b93-3600a3a76722","system_id":"levelo_inurba_marseille","lat":43.28284,"lon":5.3511,"is_reserved":false,"is_disabled":false,"rental_uris":{"android":"levelo://app?vid=4470a9dc-0144-467a-9b93-3600a3a76722","ios":"levelo://app?vid=4470a9dc-0144-467a-9b93-3600a3a76722"},"vehicle_type_id":"4","last_reported":1777217582,"current_range_meters":7200,"station_id":"ce4bhbp2rcd13ifvqerg","pricing_plan_id":"cebpf4jnsgd1na2vs0mg"},{"bike_id":"9d1ed9ff-baf1-40fc-993f-5d81d5be1a06","system_id":"levelo_inurba_marseille","lat":43.28601,"lon":5.35144,"is_reserved":false,"is_disabled":false,"rental_uris":{"android":"levelo://app?vid=9d1ed9ff-baf1-40fc-993f-5d81d5be1a06","ios":"levelo://app?vid=9d1ed9ff-baf1-40fc-993f-5d81d5be1a06"},"vehicle_type_id":"4","last_reported":1777217582,"current_range_meters":7200,"station_id":"ce4bhch2rcd13ifvqeug","pricing_plan_id":"cebpf4jnsgd1na2vs0mg"},{"bike_id":"0d585696-6ba0-434c-ad3b-bb41bdb279c5","system_id":"levelo_inurba_marseille","lat":43.28611,"lon":5.37104,"is_reserved":false,"is_disabled":false,"rental_uris":{"android":"levelo://app?vid=0d585696-6ba0-434c-ad3b-bb41bdb279c5","ios":"levelo://app?vid=0d585696-6ba0-434c-ad3b-bb41bdb279c5"},"vehicle_type_id":"4","last_reported":1777217582,"current_range_meters":7200,"station_id":"ce4bht12rcd13ifvqi60","pricing_plan_id":"cebpf4jnsgd1na2vs0mg"},{"bike_id":"f7716b3d-5dc6-4c1f-94ea-dd8b69d23a22","system_id":"levelo_inurba_marseille","lat":43.27488,"lon":5.43531,"is_reserved":false,"is_disabled":false,"rental_uris":{"android":"levelo://app?vid=f7716b3d-5dc6-4c1f-94ea-dd8b69d23a22","ios":"levelo://app?vid=f7716b3d-5dc6-4c1f-94ea-dd8b69d23a22"},"vehicle_type_id":"4","last_reported":1777217582,"current_range_meters":7200,"station_id":"","pricing_plan_id":"cebpf4jnsgd1na2vs0mg"},{"bike_id":"bb538005-a0eb-4246-9484-c2ceeb41b60a","system_id":"levelo_inurba_marseille","lat":43.30954,"lon":5.39027,"is_reserved":false,"is_disabled":false,"rental_uris":{"android":"levelo://app?vid=bb538005-a0eb-4246-9484-c2ceeb41b60a","ios":"levelo://app?vid=bb538005-a0eb-4246-9484-c2ceeb41b60a"},"vehicle_type_id":"4","last_reported":1777217582,"current_range_meters":7200,"station_id":"ce4bgup2rcd13ifvqco0","pricing_plan_id":"cebpf4jnsgd1na2vs0mg"},{"bike_id":"4b43a537-0025-4181-b3f0-3f1fa031f295","system_id":"levelo_inurba_marseille","lat":43.24396,"lon":5.37066,"is_reserved":false,"is_disabled":false,"rental_uris":{"android":"levelo://app?vid=4b43a537-0025-4181-b3f0-3f1fa031f295","ios":"levelo://app?vid=4b43a537-0025-4181-b3f0-3f1fa031f295"},"vehicle_type_id":"4","last_reported":1777217582,"current_range_meters":8000,"station_id":"ce4bhhh2rcd13ifvqfk0","pricing_plan_id":"cebpf4jnsgd1na2vs0mg"},{"bike_id":"d84dad1f-3355-427c-a81e-a3f872caa973","system_id":"levelo_inurba_marseille","lat":43.28709,"lon":5.46684,"is_reserved":false,"is_disabled":false,"rental_uris":{"android":"levelo://app?vid=d84dad1f-3355-427c-a81e-a3f872caa973","ios":"levelo://app?vid=d84dad1f-3355-427c-a81e-a3f872caa973"},"vehicle_type_id":"4","last_reported":1777217582,"current_range_meters":8000,"station_id":"st_d6tc3vkotcvc738tfjhg","pricing_plan_id":"cebpf4jnsgd1na2vs0mg"},{"bike_id":"274b41c4-8b16-47b0-9c85-d9e012646b67","system_id":"levelo_inurba_marseille","lat":43.22921,"lon":5.35394,"is_reserved":false,"is_disabled":true,"rental_uris":{"android":"levelo://app?vid=274b41c4-8b16-47b0-9c85-d9e012646b67","ios":"levelo://app?vid=274b41c4-8b16-47b0-9c85-d9e012646b67"},"vehicle_type_id":"4","last_reported":1777217582,"current_range_meters":8000,"station_id":"cpo3532slgdg3j2ikp40","pricing_plan_id":"cebpf4jnsgd1na2vs0mg"},{"bike_id":"3142bc3c-82f8-47a3-b9b7-bdb5ae2f4136","system_id":"levelo_inurba_marseille","lat":43.26055,"lon":5.37563,"is_reserved":false,"is_disabled":false,"rental_uris":{"android":"levelo://app?vid=3142bc3c-82f8-47a3-b9b7-bdb5ae2f4136","ios":"levelo://app?vid=3142bc3c-82f8-47a3-b9b7-bdb5ae2f4136"},"vehicle_type_id":"4","last_reported":1777217582,"current_range_meters":8000,"station_id":"ce4bhgh2rcd13ifvqfa0","pricing_plan_id":"cebpf4jnsgd1na2vs0mg"},{"bike_id":"1fb0d201-1f56-4523-b307-08a30b23c19f","system_id":"levelo_inurba_marseille","lat":43.26805,"lon":5.40269,"is_reserved":false,"is_disabled":false,"rental_uris":{"android":"levelo://app?vid=1fb0d201-1f56-4523-b307-08a30b23c19f","ios":"levelo://app?vid=1fb0d201-1f56-4523-b307-08a30b23c19f"},"vehicle_type_id":"4","last_reported":1777217582,"current_range_meters":8000,"station_id":"ce501612rcd8frsf0b60","pricing_plan_id":"cebpf4jnsgd1na2vs0mg"},{"bike_id":"6c03a756-6268-4631-a1f0-4d7b6ab3b005","system_id":"levelo_inurba_marseille","lat":43.26063,"lon":5.39416,"is_reserved":false,"is_disabled":false,"rental_uris":{"android":"levelo://app?vid=6c03a756-6268-4631-a1f0-4d7b6ab3b005","ios":"levelo://app?vid=6c03a756-6268-4631-a1f0-4d7b6ab3b005"},"vehicle_type_id":"4","last_reported":1777217582,"current_range_meters":8000,"station_id":"ce4bhh92rcd13ifvqfj0","pricing_plan_id":"cebpf4jnsgd1na2vs0mg"},{"bike_id":"d1063a8e-a667-4f9b-9166-4b2ea1244e5f","system_id":"levelo_inurba_marseille","lat":43.24805,"lon":5.37471,"is_reserved":false,"is_disabled":false,"rental_uris":{"android":"levelo://app?vid=d1063a8e-a667-4f9b-9166-4b2ea1244e5f","ios":"levelo://app?vid=d1063a8e-a667-4f9b-9166-4b2ea1244e5f"},"vehicle_type_id":"4","last_reported":1777217582,"current_range_meters":8000,"station_id":"ce4bhgh2rcd13ifvqfb0","pricing_plan_id":"cebpf4jnsgd1na2vs0mg"},{"bike_id":"59f6b328-72d7-4dfa-8670-9b58c1a318e7","system_id":"levelo_inurba_marseille","lat":43.26033,"lon":5.37564,"is_reserved":false,"is_disabled":false,"rental_uris":{"android":"levelo://app?vid=59f6b328-72d7-4dfa-8670-9b58c1a318e7","ios":"levelo://app?vid=59f6b328-72d7-4dfa-8670-9b58c1a318e7"},"vehicle_type_id":"4","last_reported":1777217582,"current_range_meters":8000,"station_id":"ce4bhgh2rcd13ifvqfa0","pricing_plan_id":"cebpf4jnsgd1na2vs0mg"},{"bike_id":"cb7ba386-45a7-47f5-8264-c70bae194ae1","system_id":"levelo_inurba_marseille","lat":43.2861,"lon":5.35126,"is_reserved":false,"is_disabled":false,"rental_uris":{"android":"levelo://app?vid=cb7ba386-45a7-47f5-8264-c70bae194ae1","ios":"levelo://app?vid=cb7ba386-45a7-47f5-8264-c70bae194ae1"},"vehicle_type_id":"4","last_reported":1777217582,"current_range_meters":8000,"station_id":"ce4bhch2rcd13ifvqeug","pricing_plan_id":"cebpf4jnsgd1na2vs0mg"},{"bike_id":"f8e49c13-4447-481a-b2cb-170ab5c72f31","system_id":"levelo_inurba_marseille","lat":43.27051,"lon":5.40267,"is_reserved":false,"is_disabled":false,"rental_uris":{"android":"levelo://app?vid=f8e49c13-4447-481a-b2cb-170ab5c72f31","ios":"levelo://app?vid=f8e49c13-4447-481a-b2cb-170ab5c72f31"},"vehicle_type_id":"4","last_reported":1777217582,"current_range_meters":8000,"station_id":"ce4bhk92rcd13ifvqgc0","pricing_plan_id":"cebpf4jnsgd1na2vs0mg"},{"bike_id":"a5d1c5f8-e551-41de-b7f3-a52119a1050b","system_id":"levelo_inurba_marseille","lat":43.27827,"lon":5.37468,"is_reserved":false,"is_disabled":false,"rental_uris":{"android":"levelo://app?vid=a5d1c5f8-e551-41de-b7f3-a52119a1050b","ios":"levelo://app?vid=a5d1c5f8-e551-41de-b7f3-a52119a1050b"},"vehicle_type_id":"4","last_reported":1777217582,"current_range_meters":8000,"station_id":"","pricing_plan_id":"cebpf4jnsgd1na2vs0mg"},{"bike_id":"68dc6881-bd54-44f2-a55f-b4e90f11c36b","system_id":"levelo_inurba_marseille","lat":43.29193,"lon":5.35791,"is_reserved":false,"is_disabled":false,"rental_uris":{"android":"levelo://app?vid=68dc6881-bd54-44f2-a55f-b4e90f11c36b","ios":"levelo://app?vid=68dc6881-bd54-44f2-a55f-b4e90f11c36b"},"vehicle_type_id":"4","last_reported":1777217582,"current_range_meters":8000,"station_id":"ce4bhb12rcd13ifvqel0","pricing_plan_id":"cebpf4jnsgd1na2vs0mg"},{"bike_id":"adea3d3b-6ffc-4558-8661-26de84e3f93e","system_id":"levelo_inurba_marseille","lat":43.28414,"lon":5.34984,"is_reserved":false,"is_disabled":false,"rental_uris":{"android":"levelo://app?vid=adea3d3b-6ffc-4558-8661-26de84e3f93e","ios":"levelo://app?vid=adea3d3b-6ffc-4558-8661-26de84e3f93e"},"vehicle_type_id":"4","last_reported":1777217582,"current_range_meters":8000,"station_id":"ce4bhbh2rcd13ifvqepg","pricing_plan_id":"cebpf4jnsgd1na2vs0mg"},{"bike_id":"e8ea08c9-e50c-43a9-9698-f7b9aa91d80c","system_id":"levelo_inurba_marseille","lat":43.31086,"lon":5.42434,"is_reserved":false,"is_disabled":false,"rental_uris":{"android":"levelo://app?vid=e8ea08c9-e50c-43a9-9698-f7b9aa91d80c","ios":"levelo://app?vid=e8ea08c9-e50c-43a9-9698-f7b9aa91d80c"},"vehicle_type_id":"4","last_reported":1777217582,"current_range_meters":8000,"station_id":"ce4bhp92rcd13ifvqhag","pricing_plan_id":"cebpf4jnsgd1na2vs0mg"},{"bike_id":"c6941364-0b3e-415d-827c-e48038694e60","system_id":"levelo_inurba_marseille","lat":43.30765,"lon":5.43521,"is_reserved":false,"is_disabled":false,"rental_uris":{"android":"levelo://app?vid=c6941364-0b3e-415d-827c-e48038694e60","ios":"levelo://app?vid=c6941364-0b3e-415d-827c-e48038694e60"},"vehicle_type_id":"4","last_reported":1777217582,"current_range_meters":8000,"station_id":"","pricing_plan_id":"cebpf4jnsgd1na2vs0mg"},{"bike_id":"020db429-7c6a-4786-a59b-3eb7a60f4963","system_id":"levelo_inurba_marseille","lat":43.232,"lon":5.35562,"is_reserved":false,"is_disabled":false,"rental_uris":{"android":"levelo://app?vid=020db429-7c6a-4786-a59b-3eb7a60f4963","ios":"levelo://app?vid=020db429-7c6a-4786-a59b-3eb7a60f4963"},"vehicle_type_id":"4","last_reported":1777217582,"current_range_meters":8000,"station_id":"ce4bhu92rcd13ifvqi70","pricing_plan_id":"cebpf4jnsgd1na2vs0mg"},{"bike_id":"eb62955f-8cdd-447c-8270-3bf1b0d4de5c","system_id":"levelo_inurba_marseille","lat":43.3038,"lon":5.42483,"is_reserved":false,"is_disabled":false,"rental_uris":{"android":"levelo://app?vid=eb62955f-8cdd-447c-8270-3bf1b0d4de5c","ios":"levelo://app?vid=eb62955f-8cdd-447c-8270-3bf1b0d4de5c"},"vehicle_type_id":"4","last_reported":1777217582,"current_range_meters":8000,"station_id":"ce4bhoh2rcd13ifvqh6g","pricing_plan_id":"cebpf4jnsgd1na2vs0mg"},{"bike_id":"01810cf7-b759-4cb5-a303-02a67e493263","system_id":"levelo_inurba_marseille","lat":43.25081,"lon":5.39501,"is_reserved":false,"is_disabled":false,"rental_uris":{"android":"levelo://app?vid=01810cf7-b759-4cb5-a303-02a67e493263","ios":"levelo://app?vid=01810cf7-b759-4cb5-a303-02a67e493263"},"vehicle_type_id":"4","last_reported":1777217582,"current_range_meters":8000,"station_id":"ce4bhm12rcd13ifvqgkg","pricing_plan_id":"cebpf4jnsgd1na2vs0mg"},{"bike_id":"cea31a32-5e3a-46c4-9d32-5011edfbb303","system_id":"levelo_inurba_marseille","lat":43.337444,"lon":5.374475,"is_reserved":false,"is_disabled":true,"rental_uris":{"android":"levelo://app?vid=cea31a32-5e3a-46c4-9d32-5011edfbb303","ios":"levelo://app?vid=cea31a32-5e3a-46c4-9d32-5011edfbb303"},"vehicle_type_id":"4","last_reported":1777217582,"current_range_meters":8400,"station_id":"","pricing_plan_id":"cebpf4jnsgd1na2vs0mg"},{"bike_id":"df75676a-7c3f-4d29-80c0-260795f2c62d","system_id":"levelo_inurba_marseille","lat":43.27962,"lon":5.40789,"is_reserved":false,"is_disabled":false,"rental_uris":{"android":"levelo://app?vid=df75676a-7c3f-4d29-80c0-260795f2c62d","ios":"levelo://app?vid=df75676a-7c3f-4d29-80c0-260795f2c62d"},"vehicle_type_id":"4","last_reported":1777217582,"current_range_meters":8400,"station_id":"","pricing_plan_id":"cebpf4jnsgd1na2vs0mg"},{"bike_id":"5354cf07-79ed-432a-b193-14addfafc2f9","system_id":"levelo_inurba_marseille","lat":43.2439,"lon":5.37049,"is_reserved":false,"is_disabled":false,"rental_uris":{"android":"levelo://app?vid=5354cf07-79ed-432a-b193-14addfafc2f9","ios":"levelo://app?vid=5354cf07-79ed-432a-b193-14addfafc2f9"},"vehicle_type_id":"4","last_reported":1777217582,"current_range_meters":8400,"station_id":"ce4bhhh2rcd13ifvqfk0","pricing_plan_id":"cebpf4jnsgd1na2vs0mg"},{"bike_id":"eb4f5e63-07a3-492b-a692-255513933af3","system_id":"levelo_inurba_marseille","lat":43.2833,"lon":5.38102,"is_reserved":false,"is_disabled":false,"rental_uris":{"android":"levelo://app?vid=eb4f5e63-07a3-492b-a692-255513933af3","ios":"levelo://app?vid=eb4f5e63-07a3-492b-a692-255513933af3"},"vehicle_type_id":"4","last_reported":1777217582,"current_range_meters":8400,"station_id":"ce4bh412rcd13ifvqdr0","pricing_plan_id":"cebpf4jnsgd1na2vs0mg"},{"bike_id":"5676b1df-3102-49f0-94ea-6bd037dc90c9","system_id":"levelo_inurba_marseille","lat":43.31122,"lon":5.3806,"is_reserved":false,"is_disabled":false,"rental_uris":{"android":"levelo://app?vid=5676b1df-3102-49f0-94ea-6bd037dc90c9","ios":"levelo://app?vid=5676b1df-3102-49f0-94ea-6bd037dc90c9"},"vehicle_type_id":"4","last_reported":1777217582,"current_range_meters":8400,"station_id":"","pricing_plan_id":"cebpf4jnsgd1na2vs0mg"},{"bike_id":"9bbf1e9d-6737-4217-8ec3-b0d06e6a1719","system_id":"levelo_inurba_marseille","lat":43.27377,"lon":5.36243,"is_reserved":false,"is_disabled":false,"rental_uris":{"android":"levelo://app?vid=9bbf1e9d-6737-4217-8ec3-b0d06e6a1719","ios":"levelo://app?vid=9bbf1e9d-6737-4217-8ec3-b0d06e6a1719"},"vehicle_type_id":"4","last_reported":1777217582,"current_range_meters":8400,"station_id":"ce4bhbh2rcd13ifvqeo0","pricing_plan_id":"cebpf4jnsgd1na2vs0mg"},{"bike_id":"7d1af08b-d38e-42df-b2e0-b67819018fb2","system_id":"levelo_inurba_marseille","lat":43.29809,"lon":5.38114,"is_reserved":false,"is_disabled":true,"rental_uris":{"android":"levelo://app?vid=7d1af08b-d38e-42df-b2e0-b67819018fb2","ios":"levelo://app?vid=7d1af08b-d38e-42df-b2e0-b67819018fb2"},"vehicle_type_id":"4","last_reported":1777217582,"current_range_meters":8400,"station_id":"ce4bgip2rcd13ifvqbb0","pricing_plan_id":"cebpf4jnsgd1na2vs0mg"},{"bike_id":"45e2a6e9-684a-46a8-8587-f721a0b37a5d","system_id":"levelo_inurba_marseille","lat":43.28609,"lon":5.35064,"is_reserved":false,"is_disabled":false,"rental_uris":{"android":"levelo://app?vid=45e2a6e9-684a-46a8-8587-f721a0b37a5d","ios":"levelo://app?vid=45e2a6e9-684a-46a8-8587-f721a0b37a5d"},"vehicle_type_id":"4","last_reported":1777217582,"current_range_meters":8400,"station_id":"ce4bhch2rcd13ifvqeug","pricing_plan_id":"cebpf4jnsgd1na2vs0mg"},{"bike_id":"b21748b2-fb24-4ee6-8e6a-c7c61264faec","system_id":"levelo_inurba_marseille","lat":43.27382,"lon":5.42241,"is_reserved":false,"is_disabled":false,"rental_uris":{"android":"levelo://app?vid=b21748b2-fb24-4ee6-8e6a-c7c61264faec","ios":"levelo://app?vid=b21748b2-fb24-4ee6-8e6a-c7c61264faec"},"vehicle_type_id":"4","last_reported":1777217582,"current_range_meters":8400,"station_id":"","pricing_plan_id":"cebpf4jnsgd1na2vs0mg"},{"bike_id":"06f98cbb-2026-4cc8-b3f8-d64f4647192e","system_id":"levelo_inurba_marseille","lat":43.26775,"lon":5.39417,"is_reserved":false,"is_disabled":false,"rental_uris":{"android":"levelo://app?vid=06f98cbb-2026-4cc8-b3f8-d64f4647192e","ios":"levelo://app?vid=06f98cbb-2026-4cc8-b3f8-d64f4647192e"},"vehicle_type_id":"4","last_reported":1777217582,"current_range_meters":8400,"station_id":"ce4bhh12rcd13ifvqfg0","pricing_plan_id":"cebpf4jnsgd1na2vs0mg"},{"bike_id":"d5745ec8-244f-4a10-b0cf-ba5032b624de","system_id":"levelo_inurba_marseille","lat":43.23968,"lon":5.36627,"is_reserved":false,"is_disabled":false,"rental_uris":{"android":"levelo://app?vid=d5745ec8-244f-4a10-b0cf-ba5032b624de","ios":"levelo://app?vid=d5745ec8-244f-4a10-b0cf-ba5032b624de"},"vehicle_type_id":"4","last_reported":1777217582,"current_range_meters":8400,"station_id":"ce4bhi12rcd13ifvqfp0","pricing_plan_id":"cebpf4jnsgd1na2vs0mg"},{"bike_id":"de533d60-fc53-444d-8629-7018aa60f561","system_id":"levelo_inurba_marseille","lat":43.27923,"lon":5.39585,"is_reserved":false,"is_disabled":false,"rental_uris":{"android":"levelo://app?vid=de533d60-fc53-444d-8629-7018aa60f561","ios":"levelo://app?vid=de533d60-fc53-444d-8629-7018aa60f561"},"vehicle_type_id":"4","last_reported":1777217582,"current_range_meters":8400,"station_id":"ce4bhf92rcd13ifvqf40","pricing_plan_id":"cebpf4jnsgd1na2vs0mg"},{"bike_id":"93e41579-7f0c-4250-b259-2cb32916c045","system_id":"levelo_inurba_marseille","lat":43.25573,"lon":5.38259,"is_reserved":false,"is_disabled":false,"rental_uris":{"android":"levelo://app?vid=93e41579-7f0c-4250-b259-2cb32916c045","ios":"levelo://app?vid=93e41579-7f0c-4250-b259-2cb32916c045"},"vehicle_type_id":"4","last_reported":1777217582,"current_range_meters":8400,"station_id":"ce4bhih2rcd13ifvqfs0","pricing_plan_id":"cebpf4jnsgd1na2vs0mg"},{"bike_id":"7330c8ef-fbc2-46dc-a61a-008571d42bde","system_id":"levelo_inurba_marseille","lat":43.29376,"lon":5.37852,"is_reserved":false,"is_disabled":false,"rental_uris":{"android":"levelo://app?vid=7330c8ef-fbc2-46dc-a61a-008571d42bde","ios":"levelo://app?vid=7330c8ef-fbc2-46dc-a61a-008571d42bde"},"vehicle_type_id":"4","last_reported":1777217582,"current_range_meters":8400,"station_id":"ce4bgjh2rcd13ifvqbf0","pricing_plan_id":"cebpf4jnsgd1na2vs0mg"},{"bike_id":"7917a9d5-4ac9-40bd-8834-5d3047c76c9d","system_id":"levelo_inurba_marseille","lat":43.32497,"lon":5.40755,"is_reserved":false,"is_disabled":false,"rental_uris":{"android":"levelo://app?vid=7917a9d5-4ac9-40bd-8834-5d3047c76c9d","ios":"levelo://app?vid=7917a9d5-4ac9-40bd-8834-5d3047c76c9d"},"vehicle_type_id":"4","last_reported":1777217582,"current_range_meters":8400,"station_id":"","pricing_plan_id":"cebpf4jnsgd1na2vs0mg"},{"bike_id":"867e4efb-03e8-466f-a027-d873140a375d","system_id":"levelo_inurba_marseille","lat":43.24831,"lon":5.37444,"is_reserved":false,"is_disabled":false,"rental_uris":{"android":"levelo://app?vid=867e4efb-03e8-466f-a027-d873140a375d","ios":"levelo://app?vid=867e4efb-03e8-466f-a027-d873140a375d"},"vehicle_type_id":"4","last_reported":1777217582,"current_range_meters":8400,"station_id":"ce4bhgh2rcd13ifvqfb0","pricing_plan_id":"cebpf4jnsgd1na2vs0mg"},{"bike_id":"6fefe45f-2e4d-4ce5-a9fc-a6bb1d77c1d3","system_id":"levelo_inurba_marseille","lat":43.28621,"lon":5.35098,"is_reserved":false,"is_disabled":false,"rental_uris":{"android":"levelo://app?vid=6fefe45f-2e4d-4ce5-a9fc-a6bb1d77c1d3","ios":"levelo://app?vid=6fefe45f-2e4d-4ce5-a9fc-a6bb1d77c1d3"},"vehicle_type_id":"4","last_reported":1777217582,"current_range_meters":8400,"station_id":"ce4bhch2rcd13ifvqeug","pricing_plan_id":"cebpf4jnsgd1na2vs0mg"},{"bike_id":"3641d640-2b8a-4f13-b91c-6c317e71d939","system_id":"levelo_inurba_marseille","lat":43.24171,"lon":5.36392,"is_reserved":false,"is_disabled":false,"rental_uris":{"android":"levelo://app?vid=3641d640-2b8a-4f13-b91c-6c317e71d939","ios":"levelo://app?vid=3641d640-2b8a-4f13-b91c-6c317e71d939"},"vehicle_type_id":"4","last_reported":1777217582,"current_range_meters":8800,"station_id":"cpo36qri1sfpv3e86is0","pricing_plan_id":"cebpf4jnsgd1na2vs0mg"},{"bike_id":"cfae915e-7759-4e10-bb0f-07d6de82e535","system_id":"levelo_inurba_marseille","lat":43.28876,"lon":5.42514,"is_reserved":false,"is_disabled":false,"rental_uris":{"android":"levelo://app?vid=cfae915e-7759-4e10-bb0f-07d6de82e535","ios":"levelo://app?vid=cfae915e-7759-4e10-bb0f-07d6de82e535"},"vehicle_type_id":"4","last_reported":1777217582,"current_range_meters":8800,"station_id":"st_d3b462108ojc7389ooeg","pricing_plan_id":"cebpf4jnsgd1na2vs0mg"},{"bike_id":"17f5223a-84d1-46d9-b55d-6a7e95a08bd7","system_id":"levelo_inurba_marseille","lat":43.24814,"lon":5.3746,"is_reserved":false,"is_disabled":false,"rental_uris":{"android":"levelo://app?vid=17f5223a-84d1-46d9-b55d-6a7e95a08bd7","ios":"levelo://app?vid=17f5223a-84d1-46d9-b55d-6a7e95a08bd7"},"vehicle_type_id":"4","last_reported":1777217582,"current_range_meters":8800,"station_id":"ce4bhgh2rcd13ifvqfb0","pricing_plan_id":"cebpf4jnsgd1na2vs0mg"},{"bike_id":"a9335f62-4c73-44b2-8914-e3f52e6941ca","system_id":"levelo_inurba_marseille","lat":43.32141,"lon":5.36842,"is_reserved":false,"is_disabled":false,"rental_uris":{"android":"levelo://app?vid=a9335f62-4c73-44b2-8914-e3f52e6941ca","ios":"levelo://app?vid=a9335f62-4c73-44b2-8914-e3f52e6941ca"},"vehicle_type_id":"4","last_reported":1777217582,"current_range_meters":8800,"station_id":"ce4bhrh2rcd13ifvqhug","pricing_plan_id":"cebpf4jnsgd1na2vs0mg"},{"bike_id":"53f33b0a-a396-4bc3-94d9-d4677bad4ad0","system_id":"levelo_inurba_marseille","lat":43.28267,"lon":5.35066,"is_reserved":false,"is_disabled":false,"rental_uris":{"android":"levelo://app?vid=53f33b0a-a396-4bc3-94d9-d4677bad4ad0","ios":"levelo://app?vid=53f33b0a-a396-4bc3-94d9-d4677bad4ad0"},"vehicle_type_id":"4","last_reported":1777217582,"current_range_meters":8800,"station_id":"ce4bhbp2rcd13ifvqerg","pricing_plan_id":"cebpf4jnsgd1na2vs0mg"},{"bike_id":"fa751cf9-28f3-4d65-b8f1-30773d90354d","system_id":"levelo_inurba_marseille","lat":43.24955,"lon":5.40484,"is_reserved":false,"is_disabled":false,"rental_uris":{"android":"levelo://app?vid=fa751cf9-28f3-4d65-b8f1-30773d90354d","ios":"levelo://app?vid=fa751cf9-28f3-4d65-b8f1-30773d90354d"},"vehicle_type_id":"4","last_reported":1777217582,"current_range_meters":8800,"station_id":"st_d2ngiaodas8pm72gd1h0","pricing_plan_id":"cebpf4jnsgd1na2vs0mg"},{"bike_id":"c6829236-6ef6-46b9-8b67-2d5d96820965","system_id":"levelo_inurba_marseille","lat":43.2746,"lon":5.43898,"is_reserved":false,"is_disabled":false,"rental_uris":{"android":"levelo://app?vid=c6829236-6ef6-46b9-8b67-2d5d96820965","ios":"levelo://app?vid=c6829236-6ef6-46b9-8b67-2d5d96820965"},"vehicle_type_id":"4","last_reported":1777217582,"current_range_meters":8800,"station_id":"","pricing_plan_id":"cebpf4jnsgd1na2vs0mg"},{"bike_id":"a78c4cf8-6f0f-4b95-a435-c6377aca3889","system_id":"levelo_inurba_marseille","lat":43.28428,"lon":5.34995,"is_reserved":false,"is_disabled":false,"rental_uris":{"android":"levelo://app?vid=a78c4cf8-6f0f-4b95-a435-c6377aca3889","ios":"levelo://app?vid=a78c4cf8-6f0f-4b95-a435-c6377aca3889"},"vehicle_type_id":"4","last_reported":1777217582,"current_range_meters":8800,"station_id":"ce4bhbh2rcd13ifvqepg","pricing_plan_id":"cebpf4jnsgd1na2vs0mg"},{"bike_id":"1f13452b-ac27-48ca-bbd2-1255b0865067","system_id":"levelo_inurba_marseille","lat":43.27814,"lon":5.37942,"is_reserved":false,"is_disabled":false,"rental_uris":{"android":"levelo://app?vid=1f13452b-ac27-48ca-bbd2-1255b0865067","ios":"levelo://app?vid=1f13452b-ac27-48ca-bbd2-1255b0865067"},"vehicle_type_id":"4","last_reported":1777217582,"current_range_meters":8800,"station_id":"","pricing_plan_id":"cebpf4jnsgd1na2vs0mg"},{"bike_id":"93378c7e-8a33-4e07-ab2a-fc9cc927fe7a","system_id":"levelo_inurba_marseille","lat":43.28841,"lon":5.39334,"is_reserved":false,"is_disabled":true,"rental_uris":{"android":"levelo://app?vid=93378c7e-8a33-4e07-ab2a-fc9cc927fe7a","ios":"levelo://app?vid=93378c7e-8a33-4e07-ab2a-fc9cc927fe7a"},"vehicle_type_id":"4","last_reported":1777217582,"current_range_meters":8800,"station_id":"ce4bh2p2rcd13ifvqdi0","pricing_plan_id":"cebpf4jnsgd1na2vs0mg"},{"bike_id":"89361049-3250-43c7-bc2b-1605a651a9a7","system_id":"levelo_inurba_marseille","lat":43.2921,"lon":5.36052,"is_reserved":false,"is_disabled":false,"rental_uris":{"android":"levelo://app?vid=89361049-3250-43c7-bc2b-1605a651a9a7","ios":"levelo://app?vid=89361049-3250-43c7-bc2b-1605a651a9a7"},"vehicle_type_id":"4","last_reported":1777217582,"current_range_meters":8800,"station_id":"ce4bhbh2rcd13ifvqeqg","pricing_plan_id":"cebpf4jnsgd1na2vs0mg"},{"bike_id":"43415a5b-93f6-43e7-9362-e8ca2b097157","system_id":"levelo_inurba_marseille","lat":43.28617,"lon":5.35102,"is_reserved":false,"is_disabled":false,"rental_uris":{"android":"levelo://app?vid=43415a5b-93f6-43e7-9362-e8ca2b097157","ios":"levelo://app?vid=43415a5b-93f6-43e7-9362-e8ca2b097157"},"vehicle_type_id":"4","last_reported":1777217582,"current_range_meters":8800,"station_id":"ce4bhch2rcd13ifvqeug","pricing_plan_id":"cebpf4jnsgd1na2vs0mg"},{"bike_id":"d9ab1fbe-ca7f-4edc-8873-00513849da8b","system_id":"levelo_inurba_marseille","lat":43.24379,"lon":5.37032,"is_reserved":false,"is_disabled":false,"rental_uris":{"android":"levelo://app?vid=d9ab1fbe-ca7f-4edc-8873-00513849da8b","ios":"levelo://app?vid=d9ab1fbe-ca7f-4edc-8873-00513849da8b"},"vehicle_type_id":"4","last_reported":1777217582,"current_range_meters":8800,"station_id":"ce4bhhh2rcd13ifvqfk0","pricing_plan_id":"cebpf4jnsgd1na2vs0mg"},{"bike_id":"010f70dc-31f6-4a98-a527-10ab1314f9d7","system_id":"levelo_inurba_marseille","lat":43.29267,"lon":5.38442,"is_reserved":false,"is_disabled":false,"rental_uris":{"android":"levelo://app?vid=010f70dc-31f6-4a98-a527-10ab1314f9d7","ios":"levelo://app?vid=010f70dc-31f6-4a98-a527-10ab1314f9d7"},"vehicle_type_id":"4","last_reported":1777217582,"current_range_meters":8800,"station_id":"ce4bh692rcd13ifvqea0","pricing_plan_id":"cebpf4jnsgd1na2vs0mg"},{"bike_id":"77329e33-2dc1-450f-b6e8-76f1fd51488a","system_id":"levelo_inurba_marseille","lat":43.30147,"lon":5.39875,"is_reserved":false,"is_disabled":false,"rental_uris":{"android":"levelo://app?vid=77329e33-2dc1-450f-b6e8-76f1fd51488a","ios":"levelo://app?vid=77329e33-2dc1-450f-b6e8-76f1fd51488a"},"vehicle_type_id":"4","last_reported":1777217582,"current_range_meters":8800,"station_id":"ce4bh0h2rcd13ifvqd40","pricing_plan_id":"cebpf4jnsgd1na2vs0mg"},{"bike_id":"9049a726-2e9c-4a27-83e2-c78c47adbb55","system_id":"levelo_inurba_marseille","lat":43.2842,"lon":5.34986,"is_reserved":false,"is_disabled":false,"rental_uris":{"android":"levelo://app?vid=9049a726-2e9c-4a27-83e2-c78c47adbb55","ios":"levelo://app?vid=9049a726-2e9c-4a27-83e2-c78c47adbb55"},"vehicle_type_id":"4","last_reported":1777217582,"current_range_meters":8800,"station_id":"ce4bhbh2rcd13ifvqepg","pricing_plan_id":"cebpf4jnsgd1na2vs0mg"},{"bike_id":"9a33b6e8-965f-4f51-a917-9ea741d41fdf","system_id":"levelo_inurba_marseille","lat":43.25826,"lon":5.39441,"is_reserved":false,"is_disabled":false,"rental_uris":{"android":"levelo://app?vid=9a33b6e8-965f-4f51-a917-9ea741d41fdf","ios":"levelo://app?vid=9a33b6e8-965f-4f51-a917-9ea741d41fdf"},"vehicle_type_id":"4","last_reported":1777217582,"current_range_meters":8800,"station_id":"ce4bhip2rcd13ifvqft0","pricing_plan_id":"cebpf4jnsgd1na2vs0mg"},{"bike_id":"7b9926f3-1d2b-4da5-87b5-bf4a0fec5f8c","system_id":"levelo_inurba_marseille","lat":43.24205,"lon":5.36385,"is_reserved":false,"is_disabled":false,"rental_uris":{"android":"levelo://app?vid=7b9926f3-1d2b-4da5-87b5-bf4a0fec5f8c","ios":"levelo://app?vid=7b9926f3-1d2b-4da5-87b5-bf4a0fec5f8c"},"vehicle_type_id":"4","last_reported":1777217582,"current_range_meters":8800,"station_id":"cpo36qri1sfpv3e86is0","pricing_plan_id":"cebpf4jnsgd1na2vs0mg"},{"bike_id":"50fcb081-4b05-4355-adf3-07f022c0399c","system_id":"levelo_inurba_marseille","lat":43.30993,"lon":5.37913,"is_reserved":false,"is_disabled":false,"rental_uris":{"android":"levelo://app?vid=50fcb081-4b05-4355-adf3-07f022c0399c","ios":"levelo://app?vid=50fcb081-4b05-4355-adf3-07f022c0399c"},"vehicle_type_id":"4","last_reported":1777217582,"current_range_meters":8800,"station_id":"","pricing_plan_id":"cebpf4jnsgd1na2vs0mg"},{"bike_id":"c5e4557e-a579-4ba0-b540-76be6c2c51d2","system_id":"levelo_inurba_marseille","lat":43.26966,"lon":5.40342,"is_reserved":false,"is_disabled":true,"rental_uris":{"android":"levelo://app?vid=c5e4557e-a579-4ba0-b540-76be6c2c51d2","ios":"levelo://app?vid=c5e4557e-a579-4ba0-b540-76be6c2c51d2"},"vehicle_type_id":"4","last_reported":1777217582,"current_range_meters":9200,"station_id":"","pricing_plan_id":"cebpf4jnsgd1na2vs0mg"},{"bike_id":"6a31cccb-b242-4fae-b7da-85ed2a588b48","system_id":"levelo_inurba_marseille","lat":43.27966,"lon":5.38759,"is_reserved":false,"is_disabled":false,"rental_uris":{"android":"levelo://app?vid=6a31cccb-b242-4fae-b7da-85ed2a588b48","ios":"levelo://app?vid=6a31cccb-b242-4fae-b7da-85ed2a588b48"},"vehicle_type_id":"4","last_reported":1777217582,"current_range_meters":9200,"station_id":"ce4bhg12rcd13ifvqf80","pricing_plan_id":"cebpf4jnsgd1na2vs0mg"},{"bike_id":"72cd7fd4-b0f4-4ce9-a638-f45224e6a67b","system_id":"levelo_inurba_marseille","lat":43.3065,"lon":5.40103,"is_reserved":false,"is_disabled":false,"rental_uris":{"android":"levelo://app?vid=72cd7fd4-b0f4-4ce9-a638-f45224e6a67b","ios":"levelo://app?vid=72cd7fd4-b0f4-4ce9-a638-f45224e6a67b"},"vehicle_type_id":"4","last_reported":1777217582,"current_range_meters":9200,"station_id":"ce4bh112rcd13ifvqda0","pricing_plan_id":"cebpf4jnsgd1na2vs0mg"},{"bike_id":"32d8062d-b01e-46bc-92b9-65d5fbd8fc06","system_id":"levelo_inurba_marseille","lat":43.23971,"lon":5.36615,"is_reserved":false,"is_disabled":false,"rental_uris":{"android":"levelo://app?vid=32d8062d-b01e-46bc-92b9-65d5fbd8fc06","ios":"levelo://app?vid=32d8062d-b01e-46bc-92b9-65d5fbd8fc06"},"vehicle_type_id":"4","last_reported":1777217582,"current_range_meters":9200,"station_id":"ce4bhi12rcd13ifvqfp0","pricing_plan_id":"cebpf4jnsgd1na2vs0mg"},{"bike_id":"2881562f-5e49-4315-80bf-dc8fd103d061","system_id":"levelo_inurba_marseille","lat":43.21196,"lon":5.35093,"is_reserved":false,"is_disabled":false,"rental_uris":{"android":"levelo://app?vid=2881562f-5e49-4315-80bf-dc8fd103d061","ios":"levelo://app?vid=2881562f-5e49-4315-80bf-dc8fd103d061"},"vehicle_type_id":"4","last_reported":1777217582,"current_range_meters":9200,"station_id":"st_cvj6sg6p6f1abm77japg","pricing_plan_id":"cebpf4jnsgd1na2vs0mg"},{"bike_id":"1dbbb389-5931-4d64-b29b-02449b2d67dc","system_id":"levelo_inurba_marseille","lat":43.24465,"lon":5.42542,"is_reserved":false,"is_disabled":false,"rental_uris":{"android":"levelo://app?vid=1dbbb389-5931-4d64-b29b-02449b2d67dc","ios":"levelo://app?vid=1dbbb389-5931-4d64-b29b-02449b2d67dc"},"vehicle_type_id":"4","last_reported":1777217582,"current_range_meters":9200,"station_id":"st_d4a3vfp97mjs738cd8kg","pricing_plan_id":"cebpf4jnsgd1na2vs0mg"},{"bike_id":"a17a356a-6340-4eae-b4d5-d59f3247dda3","system_id":"levelo_inurba_marseille","lat":43.26004,"lon":5.39226,"is_reserved":false,"is_disabled":false,"rental_uris":{"android":"levelo://app?vid=a17a356a-6340-4eae-b4d5-d59f3247dda3","ios":"levelo://app?vid=a17a356a-6340-4eae-b4d5-d59f3247dda3"},"vehicle_type_id":"4","last_reported":1777217582,"current_range_meters":9200,"station_id":"","pricing_plan_id":"cebpf4jnsgd1na2vs0mg"},{"bike_id":"6b5b9e45-67f3-4a64-a294-ead66e30dbef","system_id":"levelo_inurba_marseille","lat":43.2468,"lon":5.3816,"is_reserved":false,"is_disabled":false,"rental_uris":{"android":"levelo://app?vid=6b5b9e45-67f3-4a64-a294-ead66e30dbef","ios":"levelo://app?vid=6b5b9e45-67f3-4a64-a294-ead66e30dbef"},"vehicle_type_id":"4","last_reported":1777217582,"current_range_meters":9200,"station_id":"ce4bhih2rcd13ifvqfr0","pricing_plan_id":"cebpf4jnsgd1na2vs0mg"},{"bike_id":"50f8bdff-b169-44f8-8920-840c94d5e30a","system_id":"levelo_inurba_marseille","lat":43.28492,"lon":5.48396,"is_reserved":false,"is_disabled":true,"rental_uris":{"android":"levelo://app?vid=50f8bdff-b169-44f8-8920-840c94d5e30a","ios":"levelo://app?vid=50f8bdff-b169-44f8-8920-840c94d5e30a"},"vehicle_type_id":"4","last_reported":1777217582,"current_range_meters":9200,"station_id":"","pricing_plan_id":"cebpf4jnsgd1na2vs0mg"},{"bike_id":"de6a60a0-a720-47c5-9a6b-2d5f1248bf1f","system_id":"levelo_inurba_marseille","lat":43.26214,"lon":5.37941,"is_reserved":false,"is_disabled":false,"rental_uris":{"android":"levelo://app?vid=de6a60a0-a720-47c5-9a6b-2d5f1248bf1f","ios":"levelo://app?vid=de6a60a0-a720-47c5-9a6b-2d5f1248bf1f"},"vehicle_type_id":"4","last_reported":1777217582,"current_range_meters":9200,"station_id":"ce4bhjp2rcd13ifvqg90","pricing_plan_id":"cebpf4jnsgd1na2vs0mg"},{"bike_id":"bcbf0ecb-c4a5-4899-809c-ae86068f4fd3","system_id":"levelo_inurba_marseille","lat":43.29032,"lon":5.39971,"is_reserved":false,"is_disabled":false,"rental_uris":{"android":"levelo://app?vid=bcbf0ecb-c4a5-4899-809c-ae86068f4fd3","ios":"levelo://app?vid=bcbf0ecb-c4a5-4899-809c-ae86068f4fd3"},"vehicle_type_id":"4","last_reported":1777217582,"current_range_meters":9200,"station_id":"ce4bh392rcd13ifvqdm0","pricing_plan_id":"cebpf4jnsgd1na2vs0mg"},{"bike_id":"2725b0c0-a653-43ae-bc24-ce0141576499","system_id":"levelo_inurba_marseille","lat":43.30128,"lon":5.43109,"is_reserved":false,"is_disabled":false,"rental_uris":{"android":"levelo://app?vid=2725b0c0-a653-43ae-bc24-ce0141576499","ios":"levelo://app?vid=2725b0c0-a653-43ae-bc24-ce0141576499"},"vehicle_type_id":"4","last_reported":1777217582,"current_range_meters":9200,"station_id":"st_d3js3co5814s73ftftug","pricing_plan_id":"cebpf4jnsgd1na2vs0mg"},{"bike_id":"8146689d-df79-44c6-93dd-b589feab99b2","system_id":"levelo_inurba_marseille","lat":43.24399,"lon":5.3703,"is_reserved":false,"is_disabled":false,"rental_uris":{"android":"levelo://app?vid=8146689d-df79-44c6-93dd-b589feab99b2","ios":"levelo://app?vid=8146689d-df79-44c6-93dd-b589feab99b2"},"vehicle_type_id":"4","last_reported":1777217582,"current_range_meters":9200,"station_id":"ce4bhhh2rcd13ifvqfk0","pricing_plan_id":"cebpf4jnsgd1na2vs0mg"},{"bike_id":"fd583349-9e7d-4e5b-8155-1da1a7a44b99","system_id":"levelo_inurba_marseille","lat":43.2797,"lon":5.41049,"is_reserved":false,"is_disabled":false,"rental_uris":{"android":"levelo://app?vid=fd583349-9e7d-4e5b-8155-1da1a7a44b99","ios":"levelo://app?vid=fd583349-9e7d-4e5b-8155-1da1a7a44b99"},"vehicle_type_id":"4","last_reported":1777217582,"current_range_meters":9200,"station_id":"ce4bhnp2rcd13ifvqh0g","pricing_plan_id":"cebpf4jnsgd1na2vs0mg"},{"bike_id":"4b49ab9b-eeca-4117-b1e9-4b53277a58b0","system_id":"levelo_inurba_marseille","lat":43.23201,"lon":5.35557,"is_reserved":false,"is_disabled":true,"rental_uris":{"android":"levelo://app?vid=4b49ab9b-eeca-4117-b1e9-4b53277a58b0","ios":"levelo://app?vid=4b49ab9b-eeca-4117-b1e9-4b53277a58b0"},"vehicle_type_id":"4","last_reported":1777217582,"current_range_meters":9200,"station_id":"ce4bhu92rcd13ifvqi70","pricing_plan_id":"cebpf4jnsgd1na2vs0mg"},{"bike_id":"9e94f685-439c-4210-a47c-5f8aacfae607","system_id":"levelo_inurba_marseille","lat":43.25675,"lon":5.40999,"is_reserved":false,"is_disabled":false,"rental_uris":{"android":"levelo://app?vid=9e94f685-439c-4210-a47c-5f8aacfae607","ios":"levelo://app?vid=9e94f685-439c-4210-a47c-5f8aacfae607"},"vehicle_type_id":"4","last_reported":1777217582,"current_range_meters":9200,"station_id":"ce4bhkp2rcd13ifvqgd0","pricing_plan_id":"cebpf4jnsgd1na2vs0mg"},{"bike_id":"2768b254-100f-4f21-93b4-59c9565aaf35","system_id":"levelo_inurba_marseille","lat":43.30176,"lon":5.39183,"is_reserved":false,"is_disabled":false,"rental_uris":{"android":"levelo://app?vid=2768b254-100f-4f21-93b4-59c9565aaf35","ios":"levelo://app?vid=2768b254-100f-4f21-93b4-59c9565aaf35"},"vehicle_type_id":"4","last_reported":1777217582,"current_range_meters":9200,"station_id":"","pricing_plan_id":"cebpf4jnsgd1na2vs0mg"},{"bike_id":"ddb3f26f-5b94-4860-9d94-ee4e77761565","system_id":"levelo_inurba_marseille","lat":43.28343,"lon":5.38108,"is_reserved":false,"is_disabled":false,"rental_uris":{"android":"levelo://app?vid=ddb3f26f-5b94-4860-9d94-ee4e77761565","ios":"levelo://app?vid=ddb3f26f-5b94-4860-9d94-ee4e77761565"},"vehicle_type_id":"4","last_reported":1777217582,"current_range_meters":9200,"station_id":"ce4bh412rcd13ifvqdr0","pricing_plan_id":"cebpf4jnsgd1na2vs0mg"},{"bike_id":"223be3b8-b4a5-4798-918b-5d0c6f31c366","system_id":"levelo_inurba_marseille","lat":43.25722,"lon":5.41115,"is_reserved":false,"is_disabled":false,"rental_uris":{"android":"levelo://app?vid=223be3b8-b4a5-4798-918b-5d0c6f31c366","ios":"levelo://app?vid=223be3b8-b4a5-4798-918b-5d0c6f31c366"},"vehicle_type_id":"4","last_reported":1777217582,"current_range_meters":9200,"station_id":"ce4bhkp2rcd13ifvqgd0","pricing_plan_id":"cebpf4jnsgd1na2vs0mg"},{"bike_id":"04854a72-ced0-4283-865f-a5ee62a347e0","system_id":"levelo_inurba_marseille","lat":43.28024,"lon":5.36944,"is_reserved":false,"is_disabled":false,"rental_uris":{"android":"levelo://app?vid=04854a72-ced0-4283-865f-a5ee62a347e0","ios":"levelo://app?vid=04854a72-ced0-4283-865f-a5ee62a347e0"},"vehicle_type_id":"4","last_reported":1777217582,"current_range_meters":9600,"station_id":"ce4bha12rcd13ifvqef0","pricing_plan_id":"cebpf4jnsgd1na2vs0mg"},{"bike_id":"58bc3e60-f18b-427c-b5e0-e156e759d6db","system_id":"levelo_inurba_marseille","lat":43.31345,"lon":5.36729,"is_reserved":false,"is_disabled":false,"rental_uris":{"android":"levelo://app?vid=58bc3e60-f18b-427c-b5e0-e156e759d6db","ios":"levelo://app?vid=58bc3e60-f18b-427c-b5e0-e156e759d6db"},"vehicle_type_id":"4","last_reported":1777217582,"current_range_meters":9600,"station_id":"ce4bgr92rcd13ifvqc6g","pricing_plan_id":"cebpf4jnsgd1na2vs0mg"},{"bike_id":"97f0351e-0015-4f6a-a402-604cdb115786","system_id":"levelo_inurba_marseille","lat":43.21192,"lon":5.3508,"is_reserved":false,"is_disabled":false,"rental_uris":{"android":"levelo://app?vid=97f0351e-0015-4f6a-a402-604cdb115786","ios":"levelo://app?vid=97f0351e-0015-4f6a-a402-604cdb115786"},"vehicle_type_id":"4","last_reported":1777217582,"current_range_meters":9600,"station_id":"st_cvj6sg6p6f1abm77japg","pricing_plan_id":"cebpf4jnsgd1na2vs0mg"},{"bike_id":"2ff18e3b-13b0-4b4b-b5ad-9ad70d527e0f","system_id":"levelo_inurba_marseille","lat":43.29365,"lon":5.37864,"is_reserved":false,"is_disabled":false,"rental_uris":{"android":"levelo://app?vid=2ff18e3b-13b0-4b4b-b5ad-9ad70d527e0f","ios":"levelo://app?vid=2ff18e3b-13b0-4b4b-b5ad-9ad70d527e0f"},"vehicle_type_id":"4","last_reported":1777217582,"current_range_meters":9600,"station_id":"ce4bgjh2rcd13ifvqbf0","pricing_plan_id":"cebpf4jnsgd1na2vs0mg"},{"bike_id":"afe2c699-d272-47f9-9a1b-81ffe94bdde8","system_id":"levelo_inurba_marseille","lat":43.24173,"lon":5.36378,"is_reserved":false,"is_disabled":false,"rental_uris":{"android":"levelo://app?vid=afe2c699-d272-47f9-9a1b-81ffe94bdde8","ios":"levelo://app?vid=afe2c699-d272-47f9-9a1b-81ffe94bdde8"},"vehicle_type_id":"4","last_reported":1777217582,"current_range_meters":9600,"station_id":"cpo36qri1sfpv3e86is0","pricing_plan_id":"cebpf4jnsgd1na2vs0mg"},{"bike_id":"b2ebe025-2506-48bd-b36e-1c7a764605d0","system_id":"levelo_inurba_marseille","lat":43.29016,"lon":5.35606,"is_reserved":false,"is_disabled":false,"rental_uris":{"android":"levelo://app?vid=b2ebe025-2506-48bd-b36e-1c7a764605d0","ios":"levelo://app?vid=b2ebe025-2506-48bd-b36e-1c7a764605d0"},"vehicle_type_id":"4","last_reported":1777217582,"current_range_meters":9600,"station_id":"ce4bhb92rcd13ifvqen0","pricing_plan_id":"cebpf4jnsgd1na2vs0mg"},{"bike_id":"ad06fbeb-2893-47bd-9310-693ccba410e9","system_id":"levelo_inurba_marseille","lat":43.28763,"lon":5.46823,"is_reserved":false,"is_disabled":false,"rental_uris":{"android":"levelo://app?vid=ad06fbeb-2893-47bd-9310-693ccba410e9","ios":"levelo://app?vid=ad06fbeb-2893-47bd-9310-693ccba410e9"},"vehicle_type_id":"4","last_reported":1777217582,"current_range_meters":9600,"station_id":"","pricing_plan_id":"cebpf4jnsgd1na2vs0mg"},{"bike_id":"42e7af46-21b9-49bb-80c5-85bfc113283e","system_id":"levelo_inurba_marseille","lat":43.27378,"lon":5.36258,"is_reserved":false,"is_disabled":false,"rental_uris":{"android":"levelo://app?vid=42e7af46-21b9-49bb-80c5-85bfc113283e","ios":"levelo://app?vid=42e7af46-21b9-49bb-80c5-85bfc113283e"},"vehicle_type_id":"4","last_reported":1777217582,"current_range_meters":9600,"station_id":"ce4bhbh2rcd13ifvqeo0","pricing_plan_id":"cebpf4jnsgd1na2vs0mg"},{"bike_id":"1b7bb941-83c3-4ec7-8d56-88190ac17fc3","system_id":"levelo_inurba_marseille","lat":43.2812,"lon":5.39191,"is_reserved":false,"is_disabled":false,"rental_uris":{"android":"levelo://app?vid=1b7bb941-83c3-4ec7-8d56-88190ac17fc3","ios":"levelo://app?vid=1b7bb941-83c3-4ec7-8d56-88190ac17fc3"},"vehicle_type_id":"4","last_reported":1777217582,"current_range_meters":9600,"station_id":"","pricing_plan_id":"cebpf4jnsgd1na2vs0mg"},{"bike_id":"d68cd392-a214-40e4-8e5f-e39fa567524a","system_id":"levelo_inurba_marseille","lat":43.30107,"lon":5.37429,"is_reserved":false,"is_disabled":true,"rental_uris":{"android":"levelo://app?vid=d68cd392-a214-40e4-8e5f-e39fa567524a","ios":"levelo://app?vid=d68cd392-a214-40e4-8e5f-e39fa567524a"},"vehicle_type_id":"4","last_reported":1777217582,"current_range_meters":9600,"station_id":"ce4bgs92rcd13ifvqcc0","pricing_plan_id":"cebpf4jnsgd1na2vs0mg"},{"bike_id":"9adcf0e1-ed68-4d74-b4ce-6a0071e4c7b8","system_id":"levelo_inurba_marseille","lat":43.29873,"lon":5.39726,"is_reserved":false,"is_disabled":false,"rental_uris":{"android":"levelo://app?vid=9adcf0e1-ed68-4d74-b4ce-6a0071e4c7b8","ios":"levelo://app?vid=9adcf0e1-ed68-4d74-b4ce-6a0071e4c7b8"},"vehicle_type_id":"4","last_reported":1777217582,"current_range_meters":9600,"station_id":"ce4bh0h2rcd13ifvqd50","pricing_plan_id":"cebpf4jnsgd1na2vs0mg"},{"bike_id":"0d8c3362-be20-49ce-8a46-7df1fa0c42ea","system_id":"levelo_inurba_marseille","lat":43.24821,"lon":5.3747,"is_reserved":false,"is_disabled":false,"rental_uris":{"android":"levelo://app?vid=0d8c3362-be20-49ce-8a46-7df1fa0c42ea","ios":"levelo://app?vid=0d8c3362-be20-49ce-8a46-7df1fa0c42ea"},"vehicle_type_id":"4","last_reported":1777217582,"current_range_meters":9600,"station_id":"ce4bhgh2rcd13ifvqfb0","pricing_plan_id":"cebpf4jnsgd1na2vs0mg"},{"bike_id":"9cee4e90-2861-42ab-8f88-f2f3c8ba8048","system_id":"levelo_inurba_marseille","lat":43.31531,"lon":5.38031,"is_reserved":false,"is_disabled":false,"rental_uris":{"android":"levelo://app?vid=9cee4e90-2861-42ab-8f88-f2f3c8ba8048","ios":"levelo://app?vid=9cee4e90-2861-42ab-8f88-f2f3c8ba8048"},"vehicle_type_id":"4","last_reported":1777217582,"current_range_meters":9600,"station_id":"ce4bhsp2rcd13ifvqi50","pricing_plan_id":"cebpf4jnsgd1na2vs0mg"},{"bike_id":"edcaf22a-77e0-4cfb-9c63-c534d08704f4","system_id":"levelo_inurba_marseille","lat":43.28638,"lon":5.35081,"is_reserved":false,"is_disabled":false,"rental_uris":{"android":"levelo://app?vid=edcaf22a-77e0-4cfb-9c63-c534d08704f4","ios":"levelo://app?vid=edcaf22a-77e0-4cfb-9c63-c534d08704f4"},"vehicle_type_id":"4","last_reported":1777217582,"current_range_meters":9600,"station_id":"ce4bhch2rcd13ifvqeug","pricing_plan_id":"cebpf4jnsgd1na2vs0mg"},{"bike_id":"482f5578-58ba-48a2-a2e0-fadc9f2741fe","system_id":"levelo_inurba_marseille","lat":43.28359,"lon":5.38104,"is_reserved":false,"is_disabled":false,"rental_uris":{"android":"levelo://app?vid=482f5578-58ba-48a2-a2e0-fadc9f2741fe","ios":"levelo://app?vid=482f5578-58ba-48a2-a2e0-fadc9f2741fe"},"vehicle_type_id":"4","last_reported":1777217582,"current_range_meters":9600,"station_id":"ce4bh412rcd13ifvqdr0","pricing_plan_id":"cebpf4jnsgd1na2vs0mg"},{"bike_id":"62a20b6e-e98d-4cc9-b298-e865d7184b00","system_id":"levelo_inurba_marseille","lat":43.25539,"lon":5.37609,"is_reserved":false,"is_disabled":false,"rental_uris":{"android":"levelo://app?vid=62a20b6e-e98d-4cc9-b298-e865d7184b00","ios":"levelo://app?vid=62a20b6e-e98d-4cc9-b298-e865d7184b00"},"vehicle_type_id":"4","last_reported":1777217582,"current_range_meters":9600,"station_id":"","pricing_plan_id":"cebpf4jnsgd1na2vs0mg"},{"bike_id":"4bcf0e64-be47-461c-b105-544ba4e9a730","system_id":"levelo_inurba_marseille","lat":43.27955,"lon":5.38701,"is_reserved":false,"is_disabled":false,"rental_uris":{"android":"levelo://app?vid=4bcf0e64-be47-461c-b105-544ba4e9a730","ios":"levelo://app?vid=4bcf0e64-be47-461c-b105-544ba4e9a730"},"vehicle_type_id":"4","last_reported":1777217582,"current_range_meters":9600,"station_id":"ce4bhg12rcd13ifvqf80","pricing_plan_id":"cebpf4jnsgd1na2vs0mg"},{"bike_id":"20888d5f-86bc-4c7d-9485-dc63a1da740c","system_id":"levelo_inurba_marseille","lat":43.25585,"lon":5.3824,"is_reserved":false,"is_disabled":false,"rental_uris":{"android":"levelo://app?vid=20888d5f-86bc-4c7d-9485-dc63a1da740c","ios":"levelo://app?vid=20888d5f-86bc-4c7d-9485-dc63a1da740c"},