{"last_updated":1742300348,"ttl":60,"version":"2.2","data":{"bikes":[{"bike_id":"e39f083d-4542-4f7b-9173-1e8fe9e09597","system_id":"levelo_inurba_marseille","lat":43.274888,"lon":5.424731,"is_reserved":false,"is_disabled":true,"rental_uris":{"android":"levelo://app?vid=e39f083d-4542-4f7b-9173-1e8fe9e09597","ios":"levelo://app?vid=e39f083d-4542-4f7b-9173-1e8fe9e09597"},"vehicle_type_id":"4","last_reported":1742300349,"current_range_meters":2800,"station_id":"ce4bhn92rcd13ifvqgrg","pricing_plan_id":"cebpf4jnsgd1na2vs0mg"},{"bike_id":"be6efebf-ec11-48b8-b527-4823d6511cbf","system_id":"levelo_inurba_marseille","lat":43.29885,"lon":5.38897,"is_reserved":false,"is_disabled":false,"rental_uris":{"android":"levelo://app?vid=be6efebf-ec11-48b8-b527-4823d6511cbf","ios":"levelo://app?vid=be6efebf-ec11-48b8-b527-4823d6511cbf"},"vehicle_type_id":"4","last_reported":1742300349,"current_range_meters":2000,"station_id":"ce4bh392rcd13ifvqdl0","pricing_plan_id":"cebpf4jnsgd1na2vs0mg"},{"bike_id":"fae3a401-2a78-4eb4-a9a0-50ec1f373441","system_id":"levelo_inurba_marseille","lat":43.27944,"lon":5.38699,"is_reserved":false,"is_disabled":false,"rental_uris":{"android":"levelo://app?vid=fae3a401-2a78-4eb4-a9a0-50ec1f373441","ios":"levelo://app?vid=fae3a401-2a78-4eb4-a9a0-50ec1f373441"},"vehicle_type_id":"4","last_reported":1742300349,"current_range_meters":2800,"station_id":"ce4bhg12rcd13ifvqf80","pricing_plan_id":"cebpf4jnsgd1na2vs0mg"},{"bike_id":"5ebde17b-8246-496a-a81b-de3c4af60529","system_id":"levelo_inurba_marseille","lat":43.286644,"lon":5.38376,"is_reserved":false,"is_disabled":false,"rental_uris":{"android":"levelo://app?vid=5ebde17b-8246-496a-a81b-de3c4af60529","ios":"levelo://app?vid=5ebde17b-8246-496a-a81b-de3c4af60529"},"vehicle_type_id":"4","last_reported":1742300349,"current_range_meters":3200,"station_id":"ce4bh392rcd13ifvqdm0","pricing_plan_id":"cebpf4jnsgd1na2vs0mg"},{"bike_id":"6d225f6f-e3c7-4a50-b971-cfb04177ef23","system_id":"levelo_inurba_marseille","lat":43.274923,"lon":5.424531,"is_reserved":false,"is_disabled":false,"rental_uris":{"android":"levelo://app?vid=6d225f6f-e3c7-4a50-b971-cfb04177ef23","ios":"levelo://app?vid=6d225f6f-e3c7-4a50-b971-cfb04177ef23"},"vehicle_type_id":"4","last_reported":1742300349,"current_range_meters":3200,"station_id":"ce4bhlh2rcd13ifvqgig","pricing_plan_id":"cebpf4jnsgd1na2vs0mg"},{"bike_id":"784d9120-add7-4963-ab75-e1eb7c983ec3","system_id":"levelo_inurba_marseille","lat":43.32483,"lon":5.36564,"is_reserved":false,"is_disabled":false,"rental_uris":{"android":"levelo://app?vid=784d9120-add7-4963-ab75-e1eb7c983ec3","ios":"levelo://app?vid=784d9120-add7-4963-ab75-e1eb7c983ec3"},"vehicle_type_id":"4","last_reported":1742300349,"current_range_meters":3200,"station_id":"ce4bhs12rcd13ifvqhvg","pricing_plan_id":"cebpf4jnsgd1na2vs0mg"},{"bike_id":"528137f0-1ffa-46a2-b3e2-68f5aea4094e","system_id":"levelo_inurba_marseille","lat":43.304367,"lon":5.388997,"is_reserved":false,"is_disabled":false,"rental_uris":{"android":"levelo://app?vid=528137f0-1ffa-46a2-b3e2-68f5aea4094e","ios":"levelo://app?vid=528137f0-1ffa-46a2-b3e2-68f5aea4094e"},"vehicle_type_id":"4","last_reported":1742300349,"current_range_meters":3600,"station_id":"ce4bgk12rcd13ifvqbi0","pricing_plan_id":"cebpf4jnsgd1na2vs0mg"},{"bike_id":"ffeb7b93-583a-4026-8a15-1fd7eaf75cb9","system_id":"levelo_inurba_marseille","lat":43.26685,"lon":5.38274,"is_reserved":false,"is_disabled":false,"rental_uris":{"android":"levelo://app?vid=ffeb7b93-583a-4026-8a15-1fd7eaf75cb9","ios":"levelo://app?vid=ffeb7b93-583a-4026-8a15-1fd7eaf75cb9"},"vehicle_type_id":"4","last_reported":1742300349,"current_range_meters":2800,"station_id":"ce4bhg92rcd13ifvqf90","pricing_plan_id":"cebpf4jnsgd1na2vs0mg"},{"bike_id":"c869a08e-31bb-4b3b-855d-5547b736ee84","system_id":"levelo_inurba_marseille","lat":43.28415,"lon":5.34997,"is_reserved":false,"is_disabled":false,"rental_uris":{"android":"levelo://app?vid=c869a08e-31bb-4b3b-855d-5547b736ee84","ios":"levelo://app?vid=c869a08e-31bb-4b3b-855d-5547b736ee84"},"vehicle_type_id":"4","last_reported":1742300349,"current_range_meters":3200,"station_id":"ce4bhbh2rcd13ifvqepg","pricing_plan_id":"cebpf4jnsgd1na2vs0mg"},{"bike_id":"558ab4fd-8d49-432d-a3ea-02229c3af17f","system_id":"levelo_inurba_marseille","lat":43.3249,"lon":5.36565,"is_reserved":false,"is_disabled":true,"rental_uris":{"android":"levelo://app?vid=558ab4fd-8d49-432d-a3ea-02229c3af17f","ios":"levelo://app?vid=558ab4fd-8d49-432d-a3ea-02229c3af17f"},"vehicle_type_id":"4","last_reported":1742300349,"current_range_meters":3200,"station_id":"ce4bhs12rcd13ifvqhvg","pricing_plan_id":"cebpf4jnsgd1na2vs0mg"},{"bike_id":"71fb480b-0a02-4ecf-be9b-6ebfc527e896","system_id":"levelo_inurba_marseille","lat":43.30149,"lon":5.38773,"is_reserved":false,"is_disabled":false,"rental_uris":{"android":"levelo://app?vid=71fb480b-0a02-4ecf-be9b-6ebfc527e896","ios":"levelo://app?vid=71fb480b-0a02-4ecf-be9b-6ebfc527e896"},"vehicle_type_id":"4","last_reported":1742300349,"current_range_meters":3200,"station_id":"ce4bghh2rcd13ifvqb60","pricing_plan_id":"cebpf4jnsgd1na2vs0mg"},{"bike_id":"55ba7983-7669-435c-9daa-d84960f8c444","system_id":"levelo_inurba_marseille","lat":43.32116,"lon":5.36784,"is_reserved":false,"is_disabled":false,"rental_uris":{"android":"levelo://app?vid=55ba7983-7669-435c-9daa-d84960f8c444","ios":"levelo://app?vid=55ba7983-7669-435c-9daa-d84960f8c444"},"vehicle_type_id":"4","last_reported":1742300349,"current_range_meters":3200,"station_id":"ce4bhrh2rcd13ifvqhug","pricing_plan_id":"cebpf4jnsgd1na2vs0mg"},{"bike_id":"85e5375e-de83-408d-9f4f-6aca724e20a6","system_id":"levelo_inurba_marseille","lat":43.28933,"lon":5.36643,"is_reserved":false,"is_disabled":false,"rental_uris":{"android":"levelo://app?vid=85e5375e-de83-408d-9f4f-6aca724e20a6","ios":"levelo://app?vid=85e5375e-de83-408d-9f4f-6aca724e20a6"},"vehicle_type_id":"4","last_reported":1742300349,"current_range_meters":3200,"station_id":"ce4bhap2rcd13ifvqek0","pricing_plan_id":"cebpf4jnsgd1na2vs0mg"},{"bike_id":"48e4a722-e028-460f-9f08-f920ecb9ad10","system_id":"levelo_inurba_marseille","lat":43.28261,"lon":5.35062,"is_reserved":false,"is_disabled":false,"rental_uris":{"android":"levelo://app?vid=48e4a722-e028-460f-9f08-f920ecb9ad10","ios":"levelo://app?vid=48e4a722-e028-460f-9f08-f920ecb9ad10"},"vehicle_type_id":"4","last_reported":1742300349,"current_range_meters":3600,"station_id":"ce4bhbp2rcd13ifvqerg","pricing_plan_id":"cebpf4jnsgd1na2vs0mg"},{"bike_id":"9498b8d1-1a26-4adb-94b7-abf5278caff7","system_id":"levelo_inurba_marseille","lat":43.25871,"lon":5.39906,"is_reserved":false,"is_disabled":true,"rental_uris":{"android":"levelo://app?vid=9498b8d1-1a26-4adb-94b7-abf5278caff7","ios":"levelo://app?vid=9498b8d1-1a26-4adb-94b7-abf5278caff7"},"vehicle_type_id":"4","last_reported":1742300349,"current_range_meters":4000,"station_id":"ce4bhl92rcd13ifvqghg","pricing_plan_id":"cebpf4jnsgd1na2vs0mg"},{"bike_id":"4f4e8f9d-64bc-4477-af11-38241ec3aac0","system_id":"levelo_inurba_marseille","lat":43.2607,"lon":5.39369,"is_reserved":false,"is_disabled":false,"rental_uris":{"android":"levelo://app?vid=4f4e8f9d-64bc-4477-af11-38241ec3aac0","ios":"levelo://app?vid=4f4e8f9d-64bc-4477-af11-38241ec3aac0"},"vehicle_type_id":"4","last_reported":1742300349,"current_range_meters":3600,"station_id":"ce4bhh92rcd13ifvqfj0","pricing_plan_id":"cebpf4jnsgd1na2vs0mg"},{"bike_id":"762b670a-ad58-4e4c-9963-f59a9e27e686","system_id":"levelo_inurba_marseille","lat":43.300074,"lon":5.406554,"is_reserved":false,"is_disabled":false,"rental_uris":{"android":"levelo://app?vid=762b670a-ad58-4e4c-9963-f59a9e27e686","ios":"levelo://app?vid=762b670a-ad58-4e4c-9963-f59a9e27e686"},"vehicle_type_id":"4","last_reported":1742300349,"current_range_meters":4400,"station_id":"ce4bh112rcd13ifvqd90","pricing_plan_id":"cebpf4jnsgd1na2vs0mg"},{"bike_id":"fc0db593-95e4-45a1-805b-64a3443ddd89","system_id":"levelo_inurba_marseille","lat":43.28668,"lon":5.36356,"is_reserved":false,"is_disabled":false,"rental_uris":{"android":"levelo://app?vid=fc0db593-95e4-45a1-805b-64a3443ddd89","ios":"levelo://app?vid=fc0db593-95e4-45a1-805b-64a3443ddd89"},"vehicle_type_id":"4","last_reported":1742300349,"current_range_meters":4000,"station_id":"ce4bhah2rcd13ifvqej0","pricing_plan_id":"cebpf4jnsgd1na2vs0mg"},{"bike_id":"b03c134a-f5f2-4a8d-88ab-2d3387a6272a","system_id":"levelo_inurba_marseille","lat":43.30272,"lon":5.37714,"is_reserved":false,"is_disabled":false,"rental_uris":{"android":"levelo://app?vid=b03c134a-f5f2-4a8d-88ab-2d3387a6272a","ios":"levelo://app?vid=b03c134a-f5f2-4a8d-88ab-2d3387a6272a"},"vehicle_type_id":"4","last_reported":1742300349,"current_range_meters":4400,"station_id":"ce4bguh2rcd13ifvqcj0","pricing_plan_id":"cebpf4jnsgd1na2vs0mg"},{"bike_id":"6c6e5693-f098-4bb7-966b-91c38ee2d48f","system_id":"levelo_inurba_marseille","lat":43.304725,"lon":5.379243,"is_reserved":false,"is_disabled":false,"rental_uris":{"android":"levelo://app?vid=6c6e5693-f098-4bb7-966b-91c38ee2d48f","ios":"levelo://app?vid=6c6e5693-f098-4bb7-966b-91c38ee2d48f"},"vehicle_type_id":"4","last_reported":1742300349,"current_range_meters":4800,"station_id":"ce4bgup2rcd13ifvqcn0","pricing_plan_id":"cebpf4jnsgd1na2vs0mg"},{"bike_id":"268ae582-fc6b-4794-b71f-914ab0733e53","system_id":"levelo_inurba_marseille","lat":43.28857,"lon":5.35834,"is_reserved":false,"is_disabled":false,"rental_uris":{"android":"levelo://app?vid=268ae582-fc6b-4794-b71f-914ab0733e53","ios":"levelo://app?vid=268ae582-fc6b-4794-b71f-914ab0733e53"},"vehicle_type_id":"4","last_reported":1742300349,"current_range_meters":4800,"station_id":"ce4bhb12rcd13ifvqem0","pricing_plan_id":"cebpf4jnsgd1na2vs0mg"},{"bike_id":"13030fe0-f542-4016-b5c9-0b3ccfd48774","system_id":"levelo_inurba_marseille","lat":43.31191,"lon":5.36862,"is_reserved":false,"is_disabled":false,"rental_uris":{"android":"levelo://app?vid=13030fe0-f542-4016-b5c9-0b3ccfd48774","ios":"levelo://app?vid=13030fe0-f542-4016-b5c9-0b3ccfd48774"},"vehicle_type_id":"4","last_reported":1742300349,"current_range_meters":4800,"station_id":"ce4bgl92rcd13ifvqbq0","pricing_plan_id":"cebpf4jnsgd1na2vs0mg"},{"bike_id":"f73ba149-3151-40b1-8750-d5ff63fd4adb","system_id":"levelo_inurba_marseille","lat":43.30463,"lon":5.37911,"is_reserved":false,"is_disabled":false,"rental_uris":{"android":"levelo://app?vid=f73ba149-3151-40b1-8750-d5ff63fd4adb","ios":"levelo://app?vid=f73ba149-3151-40b1-8750-d5ff63fd4adb"},"vehicle_type_id":"4","last_reported":1742300349,"current_range_meters":4800,"station_id":"ce4bgup2rcd13ifvqcn0","pricing_plan_id":"cebpf4jnsgd1na2vs0mg"},{"bike_id":"27b9eeb9-c9e1-4dff-8dc3-cc4da9aafde5","system_id":"levelo_inurba_marseille","lat":43.24081,"lon":5.37755,"is_reserved":false,"is_disabled":false,"rental_uris":{"android":"levelo://app?vid=27b9eeb9-c9e1-4dff-8dc3-cc4da9aafde5","ios":"levelo://app?vid=27b9eeb9-c9e1-4dff-8dc3-cc4da9aafde5"},"vehicle_type_id":"4","last_reported":1742300349,"current_range_meters":5600,"station_id":"","pricing_plan_id":"cebpf4jnsgd1na2vs0mg"},{"bike_id":"791a472d-9726-4653-a068-46e7bd8f882a","system_id":"levelo_inurba_marseille","lat":43.27057,"lon":5.4026,"is_reserved":false,"is_disabled":false,"rental_uris":{"android":"levelo://app?vid=791a472d-9726-4653-a068-46e7bd8f882a","ios":"levelo://app?vid=791a472d-9726-4653-a068-46e7bd8f882a"},"vehicle_type_id":"4","last_reported":1742300349,"current_range_meters":5600,"station_id":"ce4bhk92rcd13ifvqgc0","pricing_plan_id":"cebpf4jnsgd1na2vs0mg"},{"bike_id":"d03a0b06-bb1e-423c-b6b4-14fa6671c49a","system_id":"levelo_inurba_marseille","lat":43.29939,"lon":5.36513,"is_reserved":false,"is_disabled":false,"rental_uris":{"android":"levelo://app?vid=d03a0b06-bb1e-423c-b6b4-14fa6671c49a","ios":"levelo://app?vid=d03a0b06-bb1e-423c-b6b4-14fa6671c49a"},"vehicle_type_id":"4","last_reported":1742300349,"current_range_meters":6000,"station_id":"ce4bgm92rcd13ifvqbr0","pricing_plan_id":"cebpf4jnsgd1na2vs0mg"},{"bike_id":"e95151cd-abc4-4dae-8ab5-1de4cba734f5","system_id":"levelo_inurba_marseille","lat":43.24188,"lon":5.39715,"is_reserved":false,"is_disabled":false,"rental_uris":{"android":"levelo://app?vid=e95151cd-abc4-4dae-8ab5-1de4cba734f5","ios":"levelo://app?vid=e95151cd-abc4-4dae-8ab5-1de4cba734f5"},"vehicle_type_id":"4","last_reported":1742300349,"current_range_meters":6000,"station_id":"ce4bhn12rcd13ifvqgpg","pricing_plan_id":"cebpf4jnsgd1na2vs0mg"},{"bike_id":"b44ac867-8fe0-4d31-9d48-b44cdef430fc","system_id":"levelo_inurba_marseille","lat":43.296104,"lon":5.377204,"is_reserved":false,"is_disabled":true,"rental_uris":{"android":"levelo://app?vid=b44ac867-8fe0-4d31-9d48-b44cdef430fc","ios":"levelo://app?vid=b44ac867-8fe0-4d31-9d48-b44cdef430fc"},"vehicle_type_id":"4","last_reported":1742300349,"current_range_meters":6000,"station_id":"ce4bhh12rcd13ifvqff0","pricing_plan_id":"cebpf4jnsgd1na2vs0mg"},{"bike_id":"07f5dd64-b7ab-4ae4-8343-9a8dcc9172c7","system_id":"levelo_inurba_marseille","lat":43.29302,"lon":5.37463,"is_reserved":false,"is_disabled":false,"rental_uris":{"android":"levelo://app?vid=07f5dd64-b7ab-4ae4-8343-9a8dcc9172c7","ios":"levelo://app?vid=07f5dd64-b7ab-4ae4-8343-9a8dcc9172c7"},"vehicle_type_id":"4","last_reported":1742300349,"current_range_meters":6000,"station_id":"ce4bgi12rcd13ifvqb70","pricing_plan_id":"cebpf4jnsgd1na2vs0mg"},{"bike_id":"2e428c2a-a156-4b68-9661-447c853f2fec","system_id":"levelo_inurba_marseille","lat":43.28376,"lon":5.38638,"is_reserved":false,"is_disabled":false,"rental_uris":{"android":"levelo://app?vid=2e428c2a-a156-4b68-9661-447c853f2fec","ios":"levelo://app?vid=2e428c2a-a156-4b68-9661-447c853f2fec"},"vehicle_type_id":"4","last_reported":1742300349,"current_range_meters":6000,"station_id":"ce4bh492rcd13ifvqdvg","pricing_plan_id":"cebpf4jnsgd1na2vs0mg"},{"bike_id":"9331b619-4b30-4212-b267-c04dc023b135","system_id":"levelo_inurba_marseille","lat":43.33026,"lon":5.39046,"is_reserved":false,"is_disabled":false,"rental_uris":{"android":"levelo://app?vid=9331b619-4b30-4212-b267-c04dc023b135","ios":"levelo://app?vid=9331b619-4b30-4212-b267-c04dc023b135"},"vehicle_type_id":"4","last_reported":1742300349,"current_range_meters":5600,"station_id":"ce4bhr92rcd13ifvqhrg","pricing_plan_id":"cebpf4jnsgd1na2vs0mg"},{"bike_id":"d9e96b24-e0f4-4ebb-9963-a6a7c93d494b","system_id":"levelo_inurba_marseille","lat":43.28488,"lon":5.38557,"is_reserved":false,"is_disabled":false,"rental_uris":{"android":"levelo://app?vid=d9e96b24-e0f4-4ebb-9963-a6a7c93d494b","ios":"levelo://app?vid=d9e96b24-e0f4-4ebb-9963-a6a7c93d494b"},"vehicle_type_id":"4","last_reported":1742300349,"current_range_meters":6400,"station_id":"ce4bh8p2rcd13ifvqeb0","pricing_plan_id":"cebpf4jnsgd1na2vs0mg"},{"bike_id":"057c4299-c24d-4a02-8ede-b4bf9523726b","system_id":"levelo_inurba_marseille","lat":43.23144,"lon":5.43726,"is_reserved":false,"is_disabled":true,"rental_uris":{"android":"levelo://app?vid=057c4299-c24d-4a02-8ede-b4bf9523726b","ios":"levelo://app?vid=057c4299-c24d-4a02-8ede-b4bf9523726b"},"vehicle_type_id":"4","last_reported":1742300349,"current_range_meters":6400,"station_id":"ce4bhmp2rcd13ifvqgog","pricing_plan_id":"cebpf4jnsgd1na2vs0mg"},{"bike_id":"0e1521bd-0bc6-46df-970b-49ec5dd29256","system_id":"levelo_inurba_marseille","lat":43.2918,"lon":5.37882,"is_reserved":false,"is_disabled":false,"rental_uris":{"android":"levelo://app?vid=0e1521bd-0bc6-46df-970b-49ec5dd29256","ios":"levelo://app?vid=0e1521bd-0bc6-46df-970b-49ec5dd29256"},"vehicle_type_id":"4","last_reported":1742300349,"current_range_meters":6400,"station_id":"","pricing_plan_id":"cebpf4jnsgd1na2vs0mg"},{"bike_id":"d1676c12-45d0-460a-ab7d-e6bd42a8628c","system_id":"levelo_inurba_marseille","lat":43.25939,"lon":5.40911,"is_reserved":false,"is_disabled":false,"rental_uris":{"android":"levelo://app?vid=d1676c12-45d0-460a-ab7d-e6bd42a8628c","ios":"levelo://app?vid=d1676c12-45d0-460a-ab7d-e6bd42a8628c"},"vehicle_type_id":"4","last_reported":1742300349,"current_range_meters":6400,"station_id":"ce4bhm92rcd13ifvqglg","pricing_plan_id":"cebpf4jnsgd1na2vs0mg"},{"bike_id":"3930e43b-0f25-442d-8ca6-b3e183fecbad","system_id":"levelo_inurba_marseille","lat":43.3054,"lon":5.36539,"is_reserved":false,"is_disabled":false,"rental_uris":{"android":"levelo://app?vid=3930e43b-0f25-442d-8ca6-b3e183fecbad","ios":"levelo://app?vid=3930e43b-0f25-442d-8ca6-b3e183fecbad"},"vehicle_type_id":"4","last_reported":1742300349,"current_range_meters":6400,"station_id":"","pricing_plan_id":"cebpf4jnsgd1na2vs0mg"},{"bike_id":"fa5f15ab-8994-45e1-84de-31aa4c8b3ced","system_id":"levelo_inurba_marseille","lat":43.23221,"lon":5.35538,"is_reserved":false,"is_disabled":false,"rental_uris":{"android":"levelo://app?vid=fa5f15ab-8994-45e1-84de-31aa4c8b3ced","ios":"levelo://app?vid=fa5f15ab-8994-45e1-84de-31aa4c8b3ced"},"vehicle_type_id":"4","last_reported":1742300349,"current_range_meters":6400,"station_id":"ce4bhu92rcd13ifvqi70","pricing_plan_id":"cebpf4jnsgd1na2vs0mg"},{"bike_id":"80352524-42cd-42a0-9692-c3382a370bec","system_id":"levelo_inurba_marseille","lat":43.30923,"lon":5.36853,"is_reserved":false,"is_disabled":false,"rental_uris":{"android":"levelo://app?vid=80352524-42cd-42a0-9692-c3382a370bec","ios":"levelo://app?vid=80352524-42cd-42a0-9692-c3382a370bec"},"vehicle_type_id":"4","last_reported":1742300349,"current_range_meters":6000,"station_id":"ce4bgn92rcd13ifvqbvg","pricing_plan_id":"cebpf4jnsgd1na2vs0mg"},{"bike_id":"b54a649d-2707-4569-87ee-d2c230e19409","system_id":"levelo_inurba_marseille","lat":43.27463,"lon":5.40894,"is_reserved":false,"is_disabled":false,"rental_uris":{"android":"levelo://app?vid=b54a649d-2707-4569-87ee-d2c230e19409","ios":"levelo://app?vid=b54a649d-2707-4569-87ee-d2c230e19409"},"vehicle_type_id":"4","last_reported":1742300349,"current_range_meters":6400,"station_id":"","pricing_plan_id":"cebpf4jnsgd1na2vs0mg"},{"bike_id":"dd117a7c-a536-40a1-91af-43693b0b8fe5","system_id":"levelo_inurba_marseille","lat":43.25953,"lon":5.40897,"is_reserved":false,"is_disabled":false,"rental_uris":{"android":"levelo://app?vid=dd117a7c-a536-40a1-91af-43693b0b8fe5","ios":"levelo://app?vid=dd117a7c-a536-40a1-91af-43693b0b8fe5"},"vehicle_type_id":"4","last_reported":1742300349,"current_range_meters":6400,"station_id":"ce4bhm92rcd13ifvqglg","pricing_plan_id":"cebpf4jnsgd1na2vs0mg"},{"bike_id":"dccbd1a5-c8e6-41df-b576-25959d36c231","system_id":"levelo_inurba_marseille","lat":43.30926,"lon":5.40151,"is_reserved":false,"is_disabled":false,"rental_uris":{"android":"levelo://app?vid=dccbd1a5-c8e6-41df-b576-25959d36c231","ios":"levelo://app?vid=dccbd1a5-c8e6-41df-b576-25959d36c231"},"vehicle_type_id":"4","last_reported":1742300349,"current_range_meters":6400,"station_id":"ce4bgvp2rcd13ifvqct0","pricing_plan_id":"cebpf4jnsgd1na2vs0mg"},{"bike_id":"2d09f959-a102-4e82-81e5-f5242077dd37","system_id":"levelo_inurba_marseille","lat":43.26955,"lon":5.38624,"is_reserved":false,"is_disabled":false,"rental_uris":{"android":"levelo://app?vid=2d09f959-a102-4e82-81e5-f5242077dd37","ios":"levelo://app?vid=2d09f959-a102-4e82-81e5-f5242077dd37"},"vehicle_type_id":"4","last_reported":1742300349,"current_range_meters":6400,"station_id":"ce4bhh92rcd13ifvqfh0","pricing_plan_id":"cebpf4jnsgd1na2vs0mg"},{"bike_id":"40805b97-fadb-44c2-9cd1-665899423e7e","system_id":"levelo_inurba_marseille","lat":43.25694,"lon":5.41113,"is_reserved":false,"is_disabled":false,"rental_uris":{"android":"levelo://app?vid=40805b97-fadb-44c2-9cd1-665899423e7e","ios":"levelo://app?vid=40805b97-fadb-44c2-9cd1-665899423e7e"},"vehicle_type_id":"4","last_reported":1742300349,"current_range_meters":6400,"station_id":"ce4bhkp2rcd13ifvqgd0","pricing_plan_id":"cebpf4jnsgd1na2vs0mg"},{"bike_id":"694e2550-26c1-4e5d-b544-75ec19648790","system_id":"levelo_inurba_marseille","lat":43.32361,"lon":5.36758,"is_reserved":false,"is_disabled":false,"rental_uris":{"android":"levelo://app?vid=694e2550-26c1-4e5d-b544-75ec19648790","ios":"levelo://app?vid=694e2550-26c1-4e5d-b544-75ec19648790"},"vehicle_type_id":"4","last_reported":1742300349,"current_range_meters":6800,"station_id":"ce4bhsh2rcd13ifvqi2g","pricing_plan_id":"cebpf4jnsgd1na2vs0mg"},{"bike_id":"49606fbc-d990-48cc-83bd-50d9a6397d2e","system_id":"levelo_inurba_marseille","lat":43.29972,"lon":5.38491,"is_reserved":false,"is_disabled":false,"rental_uris":{"android":"levelo://app?vid=49606fbc-d990-48cc-83bd-50d9a6397d2e","ios":"levelo://app?vid=49606fbc-d990-48cc-83bd-50d9a6397d2e"},"vehicle_type_id":"4","last_reported":1742300349,"current_range_meters":6400,"station_id":"ce4bgj92rcd13ifvqbd0","pricing_plan_id":"cebpf4jnsgd1na2vs0mg"},{"bike_id":"8408f639-5fb6-4c9a-96c1-4be24771d1c4","system_id":"levelo_inurba_marseille","lat":43.27947,"lon":5.41045,"is_reserved":false,"is_disabled":false,"rental_uris":{"android":"levelo://app?vid=8408f639-5fb6-4c9a-96c1-4be24771d1c4","ios":"levelo://app?vid=8408f639-5fb6-4c9a-96c1-4be24771d1c4"},"vehicle_type_id":"4","last_reported":1742300349,"current_range_meters":6800,"station_id":"ce4bhnp2rcd13ifvqh0g","pricing_plan_id":"cebpf4jnsgd1na2vs0mg"},{"bike_id":"6d8e8090-a4c7-4966-a3f4-a833922b9e5a","system_id":"levelo_inurba_marseille","lat":43.23198,"lon":5.35549,"is_reserved":false,"is_disabled":false,"rental_uris":{"android":"levelo://app?vid=6d8e8090-a4c7-4966-a3f4-a833922b9e5a","ios":"levelo://app?vid=6d8e8090-a4c7-4966-a3f4-a833922b9e5a"},"vehicle_type_id":"4","last_reported":1742300349,"current_range_meters":7200,"station_id":"ce4bhu92rcd13ifvqi70","pricing_plan_id":"cebpf4jnsgd1na2vs0mg"},{"bike_id":"4b4ef384-1988-4f2d-87eb-17fa715d657c","system_id":"levelo_inurba_marseille","lat":43.28346,"lon":5.38104,"is_reserved":false,"is_disabled":false,"rental_uris":{"android":"levelo://app?vid=4b4ef384-1988-4f2d-87eb-17fa715d657c","ios":"levelo://app?vid=4b4ef384-1988-4f2d-87eb-17fa715d657c"},"vehicle_type_id":"4","last_reported":1742300349,"current_range_meters":7200,"station_id":"ce4bh412rcd13ifvqdr0","pricing_plan_id":"cebpf4jnsgd1na2vs0mg"},{"bike_id":"2665cc4b-07ed-4ae6-a66f-2b09983c709d","system_id":"levelo_inurba_marseille","lat":43.33761,"lon":5.37489,"is_reserved":false,"is_disabled":false,"rental_uris":{"android":"levelo://app?vid=2665cc4b-07ed-4ae6-a66f-2b09983c709d","ios":"levelo://app?vid=2665cc4b-07ed-4ae6-a66f-2b09983c709d"},"vehicle_type_id":"4","last_reported":1742300349,"current_range_meters":7200,"station_id":"","pricing_plan_id":"cebpf4jnsgd1na2vs0mg"},{"bike_id":"b6ed82ed-6cc5-42ba-803e-53ce8f49405d","system_id":"levelo_inurba_marseille","lat":43.25001,"lon":5.3893,"is_reserved":false,"is_disabled":false,"rental_uris":{"android":"levelo://app?vid=b6ed82ed-6cc5-42ba-803e-53ce8f49405d","ios":"levelo://app?vid=b6ed82ed-6cc5-42ba-803e-53ce8f49405d"},"vehicle_type_id":"4","last_reported":1742300349,"current_range_meters":7200,"station_id":"ce4bhgp2rcd13ifvqfd0","pricing_plan_id":"cebpf4jnsgd1na2vs0mg"},{"bike_id":"b3b435bc-527d-443c-a38c-42be9119e09f","system_id":"levelo_inurba_marseille","lat":43.28481,"lon":5.38559,"is_reserved":false,"is_disabled":false,"rental_uris":{"android":"levelo://app?vid=b3b435bc-527d-443c-a38c-42be9119e09f","ios":"levelo://app?vid=b3b435bc-527d-443c-a38c-42be9119e09f"},"vehicle_type_id":"4","last_reported":1742300349,"current_range_meters":7200,"station_id":"ce4bh8p2rcd13ifvqeb0","pricing_plan_id":"cebpf4jnsgd1na2vs0mg"},{"bike_id":"e113ab42-ac6c-409f-a210-0c652769b4aa","system_id":"levelo_inurba_marseille","lat":43.25003,"lon":5.3893,"is_reserved":false,"is_disabled":false,"rental_uris":{"android":"levelo://app?vid=e113ab42-ac6c-409f-a210-0c652769b4aa","ios":"levelo://app?vid=e113ab42-ac6c-409f-a210-0c652769b4aa"},"vehicle_type_id":"4","last_reported":1742300349,"current_range_meters":7200,"station_id":"ce4bhgp2rcd13ifvqfd0","pricing_plan_id":"cebpf4jnsgd1na2vs0mg"},{"bike_id":"45286ae3-a0ff-444f-928c-44d1ca499de8","system_id":"levelo_inurba_marseille","lat":43.28353,"lon":5.38102,"is_reserved":false,"is_disabled":false,"rental_uris":{"android":"levelo://app?vid=45286ae3-a0ff-444f-928c-44d1ca499de8","ios":"levelo://app?vid=45286ae3-a0ff-444f-928c-44d1ca499de8"},"vehicle_type_id":"4","last_reported":1742300349,"current_range_meters":7200,"station_id":"ce4bh412rcd13ifvqdr0","pricing_plan_id":"cebpf4jnsgd1na2vs0mg"},{"bike_id":"65778f8c-6eba-4ef0-b928-4e0900177142","system_id":"levelo_inurba_marseille","lat":43.29851,"lon":5.36285,"is_reserved":false,"is_disabled":false,"rental_uris":{"android":"levelo://app?vid=65778f8c-6eba-4ef0-b928-4e0900177142","ios":"levelo://app?vid=65778f8c-6eba-4ef0-b928-4e0900177142"},"vehicle_type_id":"4","last_reported":1742300349,"current_range_meters":7200,"station_id":"ce4bgpp2rcd13ifvqc3g","pricing_plan_id":"cebpf4jnsgd1na2vs0mg"},{"bike_id":"804128c7-633e-4c74-b021-ca536452f71f","system_id":"levelo_inurba_marseille","lat":43.31503,"lon":5.37274,"is_reserved":false,"is_disabled":false,"rental_uris":{"android":"levelo://app?vid=804128c7-633e-4c74-b021-ca536452f71f","ios":"levelo://app?vid=804128c7-633e-4c74-b021-ca536452f71f"},"vehicle_type_id":"4","last_reported":1742300349,"current_range_meters":8000,"station_id":"ce4bgt12rcd13ifvqcd0","pricing_plan_id":"cebpf4jnsgd1na2vs0mg"},{"bike_id":"64ec1f7b-80b6-4b55-802d-ff36e8c801b9","system_id":"levelo_inurba_marseille","lat":43.28854,"lon":5.35854,"is_reserved":false,"is_disabled":false,"rental_uris":{"android":"levelo://app?vid=64ec1f7b-80b6-4b55-802d-ff36e8c801b9","ios":"levelo://app?vid=64ec1f7b-80b6-4b55-802d-ff36e8c801b9"},"vehicle_type_id":"4","last_reported":1742300349,"current_range_meters":8000,"station_id":"ce4bhb12rcd13ifvqem0","pricing_plan_id":"cebpf4jnsgd1na2vs0mg"},{"bike_id":"b1b41327-66f3-4983-ac80-93a6af2a034d","system_id":"levelo_inurba_marseille","lat":43.23086,"lon":5.35503,"is_reserved":false,"is_disabled":false,"rental_uris":{"android":"levelo://app?vid=b1b41327-66f3-4983-ac80-93a6af2a034d","ios":"levelo://app?vid=b1b41327-66f3-4983-ac80-93a6af2a034d"},"vehicle_type_id":"4","last_reported":1742300349,"current_range_meters":8000,"station_id":"cpo3342slgdg3j2ifvpg","pricing_plan_id":"cebpf4jnsgd1na2vs0mg"},{"bike_id":"4e98cc9a-2c15-4e32-9793-e01bc10451a4","system_id":"levelo_inurba_marseille","lat":43.26953,"lon":5.38642,"is_reserved":false,"is_disabled":false,"rental_uris":{"android":"levelo://app?vid=4e98cc9a-2c15-4e32-9793-e01bc10451a4","ios":"levelo://app?vid=4e98cc9a-2c15-4e32-9793-e01bc10451a4"},"vehicle_type_id":"4","last_reported":1742300349,"current_range_meters":8000,"station_id":"ce4bhh92rcd13ifvqfh0","pricing_plan_id":"cebpf4jnsgd1na2vs0mg"},{"bike_id":"08e80bb9-cb82-47a5-828b-291c4860b714","system_id":"levelo_inurba_marseille","lat":43.31765,"lon":5.42359,"is_reserved":false,"is_disabled":false,"rental_uris":{"android":"levelo://app?vid=08e80bb9-cb82-47a5-828b-291c4860b714","ios":"levelo://app?vid=08e80bb9-cb82-47a5-828b-291c4860b714"},"vehicle_type_id":"4","last_reported":1742300349,"current_range_meters":8000,"station_id":"","pricing_plan_id":"cebpf4jnsgd1na2vs0mg"},{"bike_id":"0414c92c-7144-48ed-abc0-69cdccd9ea5d","system_id":"levelo_inurba_marseille","lat":43.24177,"lon":5.39723,"is_reserved":false,"is_disabled":false,"rental_uris":{"android":"levelo://app?vid=0414c92c-7144-48ed-abc0-69cdccd9ea5d","ios":"levelo://app?vid=0414c92c-7144-48ed-abc0-69cdccd9ea5d"},"vehicle_type_id":"4","last_reported":1742300349,"current_range_meters":8000,"station_id":"ce4bhn12rcd13ifvqgpg","pricing_plan_id":"cebpf4jnsgd1na2vs0mg"},{"bike_id":"237b9b39-f2b6-4e7d-be97-7029ba0299bb","system_id":"levelo_inurba_marseille","lat":43.29852,"lon":5.363,"is_reserved":false,"is_disabled":false,"rental_uris":{"android":"levelo://app?vid=237b9b39-f2b6-4e7d-be97-7029ba0299bb","ios":"levelo://app?vid=237b9b39-f2b6-4e7d-be97-7029ba0299bb"},"vehicle_type_id":"4","last_reported":1742300349,"current_range_meters":8000,"station_id":"ce4bgpp2rcd13ifvqc3g","pricing_plan_id":"cebpf4jnsgd1na2vs0mg"},{"bike_id":"0d3accb9-853e-4df0-b9d8-4607b8048f46","system_id":"levelo_inurba_marseille","lat":43.24166,"lon":5.36403,"is_reserved":false,"is_disabled":false,"rental_uris":{"android":"levelo://app?vid=0d3accb9-853e-4df0-b9d8-4607b8048f46","ios":"levelo://app?vid=0d3accb9-853e-4df0-b9d8-4607b8048f46"},"vehicle_type_id":"4","last_reported":1742300349,"current_range_meters":8000,"station_id":"cpo36qri1sfpv3e86is0","pricing_plan_id":"cebpf4jnsgd1na2vs0mg"},{"bike_id":"8fe7e33b-57fc-439c-ba02-015988635c80","system_id":"levelo_inurba_marseille","lat":43.2707,"lon":5.42285,"is_reserved":false,"is_disabled":true,"rental_uris":{"android":"levelo://app?vid=8fe7e33b-57fc-439c-ba02-015988635c80","ios":"levelo://app?vid=8fe7e33b-57fc-439c-ba02-015988635c80"},"vehicle_type_id":"4","last_reported":1742300349,"current_range_meters":8000,"station_id":"ce4bhk92rcd13ifvqgb0","pricing_plan_id":"cebpf4jnsgd1na2vs0mg"},{"bike_id":"8b47e242-36c2-4968-ba43-3579a3760cf7","system_id":"levelo_inurba_marseille","lat":43.26238,"lon":5.40447,"is_reserved":false,"is_disabled":false,"rental_uris":{"android":"levelo://app?vid=8b47e242-36c2-4968-ba43-3579a3760cf7","ios":"levelo://app?vid=8b47e242-36c2-4968-ba43-3579a3760cf7"},"vehicle_type_id":"4","last_reported":1742300349,"current_range_meters":8000,"station_id":"ce4bhmh2rcd13ifvqgmg","pricing_plan_id":"cebpf4jnsgd1na2vs0mg"},{"bike_id":"93818785-4c64-486d-9c4f-06a86f54c22e","system_id":"levelo_inurba_marseille","lat":43.24077,"lon":5.37744,"is_reserved":false,"is_disabled":false,"rental_uris":{"android":"levelo://app?vid=93818785-4c64-486d-9c4f-06a86f54c22e","ios":"levelo://app?vid=93818785-4c64-486d-9c4f-06a86f54c22e"},"vehicle_type_id":"4","last_reported":1742300349,"current_range_meters":8000,"station_id":"","pricing_plan_id":"cebpf4jnsgd1na2vs0mg"},{"bike_id":"bf53558a-323c-40e3-9c37-ac64ba388e1c","system_id":"levelo_inurba_marseille","lat":43.23962,"lon":5.36625,"is_reserved":false,"is_disabled":false,"rental_uris":{"android":"levelo://app?vid=bf53558a-323c-40e3-9c37-ac64ba388e1c","ios":"levelo://app?vid=bf53558a-323c-40e3-9c37-ac64ba388e1c"},"vehicle_type_id":"4","last_reported":1742300349,"current_range_meters":8000,"station_id":"ce4bhi12rcd13ifvqfp0","pricing_plan_id":"cebpf4jnsgd1na2vs0mg"},{"bike_id":"54e3c9c4-35fb-4d09-9bc0-613b2665a24a","system_id":"levelo_inurba_marseille","lat":43.26948,"lon":5.38638,"is_reserved":false,"is_disabled":false,"rental_uris":{"android":"levelo://app?vid=54e3c9c4-35fb-4d09-9bc0-613b2665a24a","ios":"levelo://app?vid=54e3c9c4-35fb-4d09-9bc0-613b2665a24a"},"vehicle_type_id":"4","last_reported":1742300349,"current_range_meters":8000,"station_id":"ce4bhh92rcd13ifvqfh0","pricing_plan_id":"cebpf4jnsgd1na2vs0mg"},{"bike_id":"22b33f8b-10c0-458f-aade-58b5b524501f","system_id":"levelo_inurba_marseille","lat":43.2998,"lon":5.38488,"is_reserved":false,"is_disabled":false,"rental_uris":{"android":"levelo://app?vid=22b33f8b-10c0-458f-aade-58b5b524501f","ios":"levelo://app?vid=22b33f8b-10c0-458f-aade-58b5b524501f"},"vehicle_type_id":"4","last_reported":1742300349,"current_range_meters":8000,"station_id":"ce4bgj92rcd13ifvqbd0","pricing_plan_id":"cebpf4jnsgd1na2vs0mg"},{"bike_id":"82d3dad7-63f3-4a7e-8219-54f8cb3f7636","system_id":"levelo_inurba_marseille","lat":43.23166,"lon":5.43731,"is_reserved":false,"is_disabled":false,"rental_uris":{"android":"levelo://app?vid=82d3dad7-63f3-4a7e-8219-54f8cb3f7636","ios":"levelo://app?vid=82d3dad7-63f3-4a7e-8219-54f8cb3f7636"},"vehicle_type_id":"4","last_reported":1742300349,"current_range_meters":8400,"station_id":"ce4bhmp2rcd13ifvqgog","pricing_plan_id":"cebpf4jnsgd1na2vs0mg"},{"bike_id":"5acfff0d-6883-40b9-90d2-621af333cea4","system_id":"levelo_inurba_marseille","lat":43.25929,"lon":5.40908,"is_reserved":false,"is_disabled":false,"rental_uris":{"android":"levelo://app?vid=5acfff0d-6883-40b9-90d2-621af333cea4","ios":"levelo://app?vid=5acfff0d-6883-40b9-90d2-621af333cea4"},"vehicle_type_id":"4","last_reported":1742300349,"current_range_meters":8400,"station_id":"ce4bhm92rcd13ifvqglg","pricing_plan_id":"cebpf4jnsgd1na2vs0mg"},{"bike_id":"8237cd2c-40d5-4f92-bf44-83fcaa49a848","system_id":"levelo_inurba_marseille","lat":43.24077,"lon":5.37757,"is_reserved":false,"is_disabled":false,"rental_uris":{"android":"levelo://app?vid=8237cd2c-40d5-4f92-bf44-83fcaa49a848","ios":"levelo://app?vid=8237cd2c-40d5-4f92-bf44-83fcaa49a848"},"vehicle_type_id":"4","last_reported":1742300349,"current_range_meters":8400,"station_id":"","pricing_plan_id":"cebpf4jnsgd1na2vs0mg"},{"bike_id":"555cd317-6697-49af-a4a2-f46d1e905b25","system_id":"levelo_inurba_marseille","lat":43.28715,"lon":5.37942,"is_reserved":false,"is_disabled":false,"rental_uris":{"android":"levelo://app?vid=555cd317-6697-49af-a4a2-f46d1e905b25","ios":"levelo://app?vid=555cd317-6697-49af-a4a2-f46d1e905b25"},"vehicle_type_id":"4","last_reported":1742300349,"current_range_meters":8400,"station_id":"ce4bh9p2rcd13ifvqec0","pricing_plan_id":"cebpf4jnsgd1na2vs0mg"},{"bike_id":"2d2cc216-0298-408d-9222-9bdc662aa771","system_id":"levelo_inurba_marseille","lat":43.3122,"lon":5.368477,"is_reserved":false,"is_disabled":false,"rental_uris":{"android":"levelo://app?vid=2d2cc216-0298-408d-9222-9bdc662aa771","ios":"levelo://app?vid=2d2cc216-0298-408d-9222-9bdc662aa771"},"vehicle_type_id":"4","last_reported":1742300349,"current_range_meters":8400,"station_id":"ce4bgl92rcd13ifvqbq0","pricing_plan_id":"cebpf4jnsgd1na2vs0mg"},{"bike_id":"97a1e633-c2b3-487e-8569-9036bf18d175","system_id":"levelo_inurba_marseille","lat":43.24207,"lon":5.36365,"is_reserved":false,"is_disabled":false,"rental_uris":{"android":"levelo://app?vid=97a1e633-c2b3-487e-8569-9036bf18d175","ios":"levelo://app?vid=97a1e633-c2b3-487e-8569-9036bf18d175"},"vehicle_type_id":"4","last_reported":1742300349,"current_range_meters":8400,"station_id":"cpo36qri1sfpv3e86is0","pricing_plan_id":"cebpf4jnsgd1na2vs0mg"},{"bike_id":"c7210302-a7fc-4dd4-8df3-138bbb26d5f3","system_id":"levelo_inurba_marseille","lat":43.24996,"lon":5.38941,"is_reserved":false,"is_disabled":false,"rental_uris":{"android":"levelo://app?vid=c7210302-a7fc-4dd4-8df3-138bbb26d5f3","ios":"levelo://app?vid=c7210302-a7fc-4dd4-8df3-138bbb26d5f3"},"vehicle_type_id":"4","last_reported":1742300349,"current_range_meters":8400,"station_id":"ce4bhgp2rcd13ifvqfd0","pricing_plan_id":"cebpf4jnsgd1na2vs0mg"},{"bike_id":"4d9ae2f3-a796-49dc-a321-2b64b628a9e2","system_id":"levelo_inurba_marseille","lat":43.2408,"lon":5.37752,"is_reserved":false,"is_disabled":false,"rental_uris":{"android":"levelo://app?vid=4d9ae2f3-a796-49dc-a321-2b64b628a9e2","ios":"levelo://app?vid=4d9ae2f3-a796-49dc-a321-2b64b628a9e2"},"vehicle_type_id":"4","last_reported":1742300349,"current_range_meters":8400,"station_id":"","pricing_plan_id":"cebpf4jnsgd1na2vs0mg"},{"bike_id":"a1a51917-b6b3-4d1f-a2ec-3217fd18d626","system_id":"levelo_inurba_marseille","lat":43.26121,"lon":5.41465,"is_reserved":false,"is_disabled":false,"rental_uris":{"android":"levelo://app?vid=a1a51917-b6b3-4d1f-a2ec-3217fd18d626","ios":"levelo://app?vid=a1a51917-b6b3-4d1f-a2ec-3217fd18d626"},"vehicle_type_id":"4","last_reported":1742300349,"current_range_meters":8800,"station_id":"","pricing_plan_id":"cebpf4jnsgd1na2vs0mg"},{"bike_id":"ea7f16e6-de90-4692-b642-b4503d1ac536","system_id":"levelo_inurba_marseille","lat":43.24415,"lon":5.37055,"is_reserved":false,"is_disabled":false,"rental_uris":{"android":"levelo://app?vid=ea7f16e6-de90-4692-b642-b4503d1ac536","ios":"levelo://app?vid=ea7f16e6-de90-4692-b642-b4503d1ac536"},"vehicle_type_id":"4","last_reported":1742300349,"current_range_meters":8800,"station_id":"ce4bhhh2rcd13ifvqfk0","pricing_plan_id":"cebpf4jnsgd1na2vs0mg"},{"bike_id":"5600ef63-f7a2-4308-9fdb-70e36f576d7a","system_id":"levelo_inurba_marseille","lat":43.2902,"lon":5.3562,"is_reserved":false,"is_disabled":false,"rental_uris":{"android":"levelo://app?vid=5600ef63-f7a2-4308-9fdb-70e36f576d7a","ios":"levelo://app?vid=5600ef63-f7a2-4308-9fdb-70e36f576d7a"},"vehicle_type_id":"4","last_reported":1742300349,"current_range_meters":8800,"station_id":"ce4bhb92rcd13ifvqen0","pricing_plan_id":"cebpf4jnsgd1na2vs0mg"},{"bike_id":"636870f1-e674-4906-bfe0-f5446ef43cbf","system_id":"levelo_inurba_marseille","lat":43.292389,"lon":5.383464,"is_reserved":false,"is_disabled":false,"rental_uris":{"android":"levelo://app?vid=636870f1-e674-4906-bfe0-f5446ef43cbf","ios":"levelo://app?vid=636870f1-e674-4906-bfe0-f5446ef43cbf"},"vehicle_type_id":"4","last_reported":1742300349,"current_range_meters":8800,"station_id":"ce4bh692rcd13ifvqea0","pricing_plan_id":"cebpf4jnsgd1na2vs0mg"},{"bike_id":"5f45fabe-4370-4661-8c5d-1ccb3acdd2c3","system_id":"levelo_inurba_marseille","lat":43.32366,"lon":5.38896,"is_reserved":false,"is_disabled":false,"rental_uris":{"android":"levelo://app?vid=5f45fabe-4370-4661-8c5d-1ccb3acdd2c3","ios":"levelo://app?vid=5f45fabe-4370-4661-8c5d-1ccb3acdd2c3"},"vehicle_type_id":"4","last_reported":1742300349,"current_range_meters":8800,"station_id":"ce4bhqp2rcd13ifvqhog","pricing_plan_id":"cebpf4jnsgd1na2vs0mg"},{"bike_id":"12e9f9d2-192e-4789-910e-20fc35fd6e12","system_id":"levelo_inurba_marseille","lat":43.33601,"lon":5.41031,"is_reserved":false,"is_disabled":false,"rental_uris":{"android":"levelo://app?vid=12e9f9d2-192e-4789-910e-20fc35fd6e12","ios":"levelo://app?vid=12e9f9d2-192e-4789-910e-20fc35fd6e12"},"vehicle_type_id":"4","last_reported":1742300349,"current_range_meters":9200,"station_id":"ce4bhqh2rcd13ifvqhmg","pricing_plan_id":"cebpf4jnsgd1na2vs0mg"},{"bike_id":"eb11b094-bf47-43ab-bffd-d6c6fa0bddc2","system_id":"levelo_inurba_marseille","lat":43.25004,"lon":5.38936,"is_reserved":false,"is_disabled":false,"rental_uris":{"android":"levelo://app?vid=eb11b094-bf47-43ab-bffd-d6c6fa0bddc2","ios":"levelo://app?vid=eb11b094-bf47-43ab-bffd-d6c6fa0bddc2"},"vehicle_type_id":"4","last_reported":1742300349,"current_range_meters":9200,"station_id":"ce4bhgp2rcd13ifvqfd0","pricing_plan_id":"cebpf4jnsgd1na2vs0mg"},{"bike_id":"b73d4104-b747-4b3f-9858-c508f4b18edd","system_id":"levelo_inurba_marseille","lat":43.32495,"lon":5.36569,"is_reserved":false,"is_disabled":false,"rental_uris":{"android":"levelo://app?vid=b73d4104-b747-4b3f-9858-c508f4b18edd","ios":"levelo://app?vid=b73d4104-b747-4b3f-9858-c508f4b18edd"},"vehicle_type_id":"4","last_reported":1742300349,"current_range_meters":9200,"station_id":"ce4bhs12rcd13ifvqhvg","pricing_plan_id":"cebpf4jnsgd1na2vs0mg"},{"bike_id":"1ebf2e8f-468e-4ae8-a2d3-09b3b1d8cbbd","system_id":"levelo_inurba_marseille","lat":43.32473,"lon":5.36552,"is_reserved":false,"is_disabled":false,"rental_uris":{"android":"levelo://app?vid=1ebf2e8f-468e-4ae8-a2d3-09b3b1d8cbbd","ios":"levelo://app?vid=1ebf2e8f-468e-4ae8-a2d3-09b3b1d8cbbd"},"vehicle_type_id":"4","last_reported":1742300349,"current_range_meters":9200,"station_id":"ce4bhs12rcd13ifvqhvg","pricing_plan_id":"cebpf4jnsgd1na2vs0mg"},{"bike_id":"8dd5315b-9664-4a75-a7d4-3d78d5bda7c8","system_id":"levelo_inurba_marseille","lat":43.30254,"lon":5.4006,"is_reserved":false,"is_disabled":false,"rental_uris":{"android":"levelo://app?vid=8dd5315b-9664-4a75-a7d4-3d78d5bda7c8","ios":"levelo://app?vid=8dd5315b-9664-4a75-a7d4-3d78d5bda7c8"},"vehicle_type_id":"4","last_reported":1742300349,"current_range_meters":9200,"station_id":"ce4bgvh2rcd13ifvqcs0","pricing_plan_id":"cebpf4jnsgd1na2vs0mg"},{"bike_id":"09be20b3-ccfa-43d5-8616-036d82fe33a0","system_id":"levelo_inurba_marseille","lat":43.24998,"lon":5.38937,"is_reserved":false,"is_disabled":false,"rental_uris":{"android":"levelo://app?vid=09be20b3-ccfa-43d5-8616-036d82fe33a0","ios":"levelo://app?vid=09be20b3-ccfa-43d5-8616-036d82fe33a0"},"vehicle_type_id":"4","last_reported":1742300349,"current_range_meters":9200,"station_id":"ce4bhgp2rcd13ifvqfd0","pricing_plan_id":"cebpf4jnsgd1na2vs0mg"},{"bike_id":"ce25c10b-452e-48dd-bc2b-5f1384ee177c","system_id":"levelo_inurba_marseille","lat":43.26568,"lon":5.39025,"is_reserved":false,"is_disabled":false,"rental_uris":{"android":"levelo://app?vid=ce25c10b-452e-48dd-bc2b-5f1384ee177c","ios":"levelo://app?vid=ce25c10b-452e-48dd-bc2b-5f1384ee177c"},"vehicle_type_id":"4","last_reported":1742300349,"current_range_meters":9200,"station_id":"ce4bhe12rcd13ifvqf30","pricing_plan_id":"cebpf4jnsgd1na2vs0mg"},{"bike_id":"f15037cb-8e7a-400d-b4bc-bd332e9bb5c5","system_id":"levelo_inurba_marseille","lat":43.31758,"lon":5.39016,"is_reserved":false,"is_disabled":false,"rental_uris":{"android":"levelo://app?vid=f15037cb-8e7a-400d-b4bc-bd332e9bb5c5","ios":"levelo://app?vid=f15037cb-8e7a-400d-b4bc-bd332e9bb5c5"},"vehicle_type_id":"4","last_reported":1742300349,"current_range_meters":9200,"station_id":"ce4bhqp2rcd13ifvqhng","pricing_plan_id":"cebpf4jnsgd1na2vs0mg"},{"bike_id":"393025a0-1c51-472e-a5fd-83bb9b39b412","system_id":"levelo_inurba_marseille","lat":43.25577,"lon":5.38229,"is_reserved":false,"is_disabled":false,"rental_uris":{"android":"levelo://app?vid=393025a0-1c51-472e-a5fd-83bb9b39b412","ios":"levelo://app?vid=393025a0-1c51-472e-a5fd-83bb9b39b412"},"vehicle_type_id":"4","last_reported":1742300349,"current_range_meters":9200,"station_id":"ce4bhih2rcd13ifvqfs0","pricing_plan_id":"cebpf4jnsgd1na2vs0mg"},{"bike_id":"51f23f44-adc9-49f8-8563-11e4ac2b1978","system_id":"levelo_inurba_marseille","lat":43.23152,"lon":5.43708,"is_reserved":false,"is_disabled":false,"rental_uris":{"android":"levelo://app?vid=51f23f44-adc9-49f8-8563-11e4ac2b1978","ios":"levelo://app?vid=51f23f44-adc9-49f8-8563-11e4ac2b1978"},"vehicle_type_id":"4","last_reported":1742300349,"current_range_meters":9200,"station_id":"ce4bhmp2rcd13ifvqgog","pricing_plan_id":"cebpf4jnsgd1na2vs0mg"},{"bike_id":"741d391f-90d7-4181-bd12-a5dd4665e554","system_id":"levelo_inurba_marseille","lat":43.2594,"lon":5.40915,"is_reserved":false,"is_disabled":false,"rental_uris":{"android":"levelo://app?vid=741d391f-90d7-4181-bd12-a5dd4665e554","ios":"levelo://app?vid=741d391f-90d7-4181-bd12-a5dd4665e554"},"vehicle_type_id":"4","last_reported":1742300349,"current_range_meters":9200,"station_id":"ce4bhm92rcd13ifvqglg","pricing_plan_id":"cebpf4jnsgd1na2vs0mg"},{"bike_id":"13ee90d6-43f1-4f5d-94d8-e0b0679e9a53","system_id":"levelo_inurba_marseille","lat":43.32114,"lon":5.36763,"is_reserved":false,"is_disabled":false,"rental_uris":{"android":"levelo://app?vid=13ee90d6-43f1-4f5d-94d8-e0b0679e9a53","ios":"levelo://app?vid=13ee90d6-43f1-4f5d-94d8-e0b0679e9a53"},"vehicle_type_id":"4","last_reported":1742300349,"current_range_meters":9200,"station_id":"ce4bhrh2rcd13ifvqhug","pricing_plan_id":"cebpf4jnsgd1na2vs0mg"},{"bike_id":"88a59591-0c64-4e7c-826d-6b9574c6f954","system_id":"levelo_inurba_marseille","lat":43.2439,"lon":5.37064,"is_reserved":false,"is_disabled":false,"rental_uris":{"android":"levelo://app?vid=88a59591-0c64-4e7c-826d-6b9574c6f954","ios":"levelo://app?vid=88a59591-0c64-4e7c-826d-6b9574c6f954"},"vehicle_type_id":"4","last_reported":1742300349,"current_range_meters":9600,"station_id":"ce4bhhh2rcd13ifvqfk0","pricing_plan_id":"cebpf4jnsgd1na2vs0mg"},{"bike_id":"882d5b04-baa2-4dc9-9e53-64f01cb7663b","system_id":"levelo_inurba_marseille","lat":43.30134,"lon":5.37425,"is_reserved":false,"is_disabled":false,"rental_uris":{"android":"levelo://app?vid=882d5b04-baa2-4dc9-9e53-64f01cb7663b","ios":"levelo://app?vid=882d5b04-baa2-4dc9-9e53-64f01cb7663b"},"vehicle_type_id":"4","last_reported":1742300349,"current_range_meters":9600,"station_id":"ce4bgs92rcd13ifvqcc0","pricing_plan_id":"cebpf4jnsgd1na2vs0mg"},{"bike_id":"b59dcec8-37cb-424d-a257-1df19beff6cb","system_id":"levelo_inurba_marseille","lat":43.30906,"lon":5.36855,"is_reserved":false,"is_disabled":false,"rental_uris":{"android":"levelo://app?vid=b59dcec8-37cb-424d-a257-1df19beff6cb","ios":"levelo://app?vid=b59dcec8-37cb-424d-a257-1df19beff6cb"},"vehicle_type_id":"4","last_reported":1742300349,"current_range_meters":9600,"station_id":"ce4bgn92rcd13ifvqbvg","pricing_plan_id":"cebpf4jnsgd1na2vs0mg"},{"bike_id":"d0ecd06f-b344-485c-8550-9fa5bf448f53","system_id":"levelo_inurba_marseille","lat":43.25829,"lon":5.39434,"is_reserved":false,"is_disabled":false,"rental_uris":{"android":"levelo://app?vid=d0ecd06f-b344-485c-8550-9fa5bf448f53","ios":"levelo://app?vid=d0ecd06f-b344-485c-8550-9fa5bf448f53"},"vehicle_type_id":"4","last_reported":1742300349,"current_range_meters":9600,"station_id":"ce4bhip2rcd13ifvqft0","pricing_plan_id":"cebpf4jnsgd1na2vs0mg"},{"bike_id":"02f219f4-ab1e-4f3c-b8f8-0f3f096d2dc6","system_id":"levelo_inurba_marseille","lat":43.29595,"lon":5.38088,"is_reserved":false,"is_disabled":true,"rental_uris":{"android":"levelo://app?vid=02f219f4-ab1e-4f3c-b8f8-0f3f096d2dc6","ios":"levelo://app?vid=02f219f4-ab1e-4f3c-b8f8-0f3f096d2dc6"},"vehicle_type_id":"4","last_reported":1742300349,"current_range_meters":9600,"station_id":"ce4bgl12rcd13ifvqbo0","pricing_plan_id":"cebpf4jnsgd1na2vs0mg"},{"bike_id":"60e4a6db-e1b6-424c-bb6a-375818ea5bb8","system_id":"levelo_inurba_marseille","lat":43.25866,"lon":5.39899,"is_reserved":false,"is_disabled":false,"rental_uris":{"android":"levelo://app?vid=60e4a6db-e1b6-424c-bb6a-375818ea5bb8","ios":"levelo://app?vid=60e4a6db-e1b6-424c-bb6a-375818ea5bb8"},"vehicle_type_id":"4","last_reported":1742300349,"current_range_meters":9600,"station_id":"ce4bhl92rcd13ifvqghg","pricing_plan_id":"cebpf4jnsgd1na2vs0mg"},{"bike_id":"2e699971-7225-45dd-931c-f708c119b34f","system_id":"levelo_inurba_marseille","lat":43.29,"lon":5.35616,"is_reserved":false,"is_disabled":false,"rental_uris":{"android":"levelo://app?vid=2e699971-7225-45dd-931c-f708c119b34f","ios":"levelo://app?vid=2e699971-7225-45dd-931c-f708c119b34f"},"vehicle_type_id":"4","last_reported":1742300349,"current_range_meters":9600,"station_id":"ce4bhb92rcd13ifvqen0","pricing_plan_id":"cebpf4jnsgd1na2vs0mg"},{"bike_id":"18c8ab89-f1c1-441e-97fe-390bc9fe5f94","system_id":"levelo_inurba_marseille","lat":43.27496,"lon":5.42446,"is_reserved":false,"is_disabled":false,"rental_uris":{"android":"levelo://app?vid=18c8ab89-f1c1-441e-97fe-390bc9fe5f94","ios":"levelo://app?vid=18c8ab89-f1c1-441e-97fe-390bc9fe5f94"},"vehicle_type_id":"4","last_reported":1742300349,"current_range_meters":9600,"station_id":"ce4bhn92rcd13ifvqgrg","pricing_plan_id":"cebpf4jnsgd1na2vs0mg"},{"bike_id":"60b51ac5-12f7-407a-b44a-0edddd5fe7ad","system_id":"levelo_inurba_marseille","lat":43.27065,"lon":5.42275,"is_reserved":false,"is_disabled":false,"rental_uris":{"android":"levelo://app?vid=60b51ac5-12f7-407a-b44a-0edddd5fe7ad","ios":"levelo://app?vid=60b51ac5-12f7-407a-b44a-0edddd5fe7ad"},"vehicle_type_id":"4","last_reported":1742300349,"current_range_meters":9600,"station_id":"ce4bhk92rcd13ifvqgb0","pricing_plan_id":"cebpf4jnsgd1na2vs0mg"},{"bike_id":"4e950670-b096-4049-8c8c-3012830ea5a4","system_id":"levelo_inurba_marseille","lat":43.24382,"lon":5.37072,"is_reserved":false,"is_disabled":false,"rental_uris":{"android":"levelo://app?vid=4e950670-b096-4049-8c8c-3012830ea5a4","ios":"levelo://app?vid=4e950670-b096-4049-8c8c-3012830ea5a4"},"vehicle_type_id":"4","last_reported":1742300349,"current_range_meters":9600,"station_id":"ce4bhhh2rcd13ifvqfk0","pricing_plan_id":"cebpf4jnsgd1na2vs0mg"},{"bike_id":"2fa5754c-ba4c-4be7-abf6-9b7abdbb3735","system_id":"levelo_inurba_marseille","lat":43.2408,"lon":5.37754,"is_reserved":false,"is_disabled":false,"rental_uris":{"android":"levelo://app?vid=2fa5754c-ba4c-4be7-abf6-9b7abdbb3735","ios":"levelo://app?vid=2fa5754c-ba4c-4be7-abf6-9b7abdbb3735"},"vehicle_type_id":"4","last_reported":1742300349,"current_range_meters":10000,"station_id":"","pricing_plan_id":"cebpf4jnsgd1na2vs0mg"},{"bike_id":"0b60e72b-d8b1-4266-9b63-b94b87c1ad4b","system_id":"levelo_inurba_marseille","lat":43.23194,"lon":5.39987,"is_reserved":false,"is_disabled":false,"rental_uris":{"android":"levelo://app?vid=0b60e72b-d8b1-4266-9b63-b94b87c1ad4b","ios":"levelo://app?vid=0b60e72b-d8b1-4266-9b63-b94b87c1ad4b"},"vehicle_type_id":"4","last_reported":1742300349,"current_range_meters":10000,"station_id":"ce4bhn12rcd13ifvqgqg","pricing_plan_id":"cebpf4jnsgd1na2vs0mg"},{"bike_id":"39d2df96-c36f-4593-8a68-432fe8c8d072","system_id":"levelo_inurba_marseille","lat":43.299,"lon":5.43688,"is_reserved":false,"is_disabled":false,"rental_uris":{"android":"levelo://app?vid=39d2df96-c36f-4593-8a68-432fe8c8d072","ios":"levelo://app?vid=39d2df96-c36f-4593-8a68-432fe8c8d072"},"vehicle_type_id":"4","last_reported":1742300349,"current_range_meters":10000,"station_id":"ce4bhpp2rcd13ifvqhfg","pricing_plan_id":"cebpf4jnsgd1na2vs0mg"},{"bike_id":"519efbbc-7577-4063-8eac-658ef30e98a3","system_id":"levelo_inurba_marseille","lat":43.25012,"lon":5.3894,"is_reserved":false,"is_disabled":false,"rental_uris":{"android":"levelo://app?vid=519efbbc-7577-4063-8eac-658ef30e98a3","ios":"levelo://app?vid=519efbbc-7577-4063-8eac-658ef30e98a3"},"vehicle_type_id":"4","last_reported":1742300349,"current_range_meters":10000,"station_id":"ce4bhgp2rcd13ifvqfd0","pricing_plan_id":"cebpf4jnsgd1na2vs0mg"},{"bike_id":"8ce1e5e0-ef21-4cdf-b2e8-bf2610967fbb","system_id":"levelo_inurba_marseille","lat":43.2408,"lon":5.37755,"is_reserved":false,"is_disabled":false,"rental_uris":{"android":"levelo://app?vid=8ce1e5e0-ef21-4cdf-b2e8-bf2610967fbb","ios":"levelo://app?vid=8ce1e5e0-ef21-4cdf-b2e8-bf2610967fbb"},"vehicle_type_id":"4","last_reported":1742300349,"current_range_meters":10000,"station_id":"","pricing_plan_id":"cebpf4jnsgd1na2vs0mg"},{"bike_id":"794247f9-0198-41ae-9af5-991ded60b492","system_id":"levelo_inurba_marseille","lat":43.24678,"lon":5.38141,"is_reserved":false,"is_disabled":false,"rental_uris":{"android":"levelo://app?vid=794247f9-0198-41ae-9af5-991ded60b492","ios":"levelo://app?vid=794247f9-0198-41ae-9af5-991ded60b492"},"vehicle_type_id":"4","last_reported":1742300349,"current_range_meters":10000,"station_id":"ce4bhih2rcd13ifvqfr0","pricing_plan_id":"cebpf4jnsgd1na2vs0mg"},{"bike_id":"c87df4e7-0f98-4f48-b5fd-ef99539c3f96","system_id":"levelo_inurba_marseille","lat":43.27202,"lon":5.3917,"is_reserved":false,"is_disabled":false,"rental_uris":{"android":"levelo://app?vid=c87df4e7-0f98-4f48-b5fd-ef99539c3f96","ios":"levelo://app?vid=c87df4e7-0f98-4f48-b5fd-ef99539c3f96"},"vehicle_type_id":"4","last_reported":1742300349,"current_range_meters":10000,"station_id":"ce4bhhp2rcd13ifvqfm0","pricing_plan_id":"cebpf4jnsgd1na2vs0mg"},{"bike_id":"2fc9495d-c829-4229-a4db-5c8674880d7a","system_id":"levelo_inurba_marseille","lat":43.23042,"lon":5.35481,"is_reserved":false,"is_disabled":false,"rental_uris":{"android":"levelo://app?vid=2fc9495d-c829-4229-a4db-5c8674880d7a","ios":"levelo://app?vid=2fc9495d-c829-4229-a4db-5c8674880d7a"},"vehicle_type_id":"4","last_reported":1742300349,"current_range_meters":10000,"station_id":"cpo3342slgdg3j2ifvpg","pricing_plan_id":"cebpf4jnsgd1na2vs0mg"},{"bike_id":"89a9a07a-5569-426e-baa6-da72a98a25be","system_id":"levelo_inurba_marseille","lat":43.323646,"lon":5.388626,"is_reserved":false,"is_disabled":false,"rental_uris":{"android":"levelo://app?vid=89a9a07a-5569-426e-baa6-da72a98a25be","ios":"levelo://app?vid=89a9a07a-5569-426e-baa6-da72a98a25be"},"vehicle_type_id":"4","last_reported":1742300349,"current_range_meters":10000,"station_id":"ce4bhqp2rcd13ifvqhog","pricing_plan_id":"cebpf4jnsgd1na2vs0mg"},{"bike_id":"25ced1d0-c7f3-4b5e-b25e-0f66ead06834","system_id":"levelo_inurba_marseille","lat":43.25865,"lon":5.39908,"is_reserved":false,"is_disabled":true,"rental_uris":{"android":"levelo://app?vid=25ced1d0-c7f3-4b5e-b25e-0f66ead06834","ios":"levelo://app?vid=25ced1d0-c7f3-4b5e-b25e-0f66ead06834"},"vehicle_type_id":"4","last_reported":1742300349,"current_range_meters":10800,"station_id":"ce4bhl92rcd13ifvqghg","pricing_plan_id":"cebpf4jnsgd1na2vs0mg"},{"bike_id":"f320e0be-85c9-40da-aa7c-f47d7b01ae06","system_id":"levelo_inurba_marseille","lat":43.33023,"lon":5.39044,"is_reserved":false,"is_disabled":false,"rental_uris":{"android":"levelo://app?vid=f320e0be-85c9-40da-aa7c-f47d7b01ae06","ios":"levelo://app?vid=f320e0be-85c9-40da-aa7c-f47d7b01ae06"},"vehicle_type_id":"4","last_reported":1742300349,"current_range_meters":10000,"station_id":"ce4bhr92rcd13ifvqhrg","pricing_plan_id":"cebpf4jnsgd1na2vs0mg"},{"bike_id":"6ae6f76c-6a01-4d75-9d3f-dfa610803a78","system_id":"levelo_inurba_marseille","lat":43.2307,"lon":5.35487,"is_reserved":false,"is_disabled":false,"rental_uris":{"android":"levelo://app?vid=6ae6f76c-6a01-4d75-9d3f-dfa610803a78","ios":"levelo://app?vid=6ae6f76c-6a01-4d75-9d3f-dfa610803a78"},"vehicle_type_id":"4","last_reported":1742300349,"current_range_meters":10800,"station_id":"cpo3342slgdg3j2ifvpg","pricing_plan_id":"cebpf4jnsgd1na2vs0mg"},{"bike_id":"755738d2-c9c3-40cd-aa6d-acaee42f7cc6","system_id":"levelo_inurba_marseille","lat":43.2903,"lon":5.38649,"is_reserved":false,"is_disabled":false,"rental_uris":{"android":"levelo://app?vid=755738d2-c9c3-40cd-aa6d-acaee42f7cc6","ios":"levelo://app?vid=755738d2-c9c3-40cd-aa6d-acaee42f7cc6"},"vehicle_type_id":"4","last_reported":1742300349,"current_range_meters":10800,"station_id":"ce4bh4p2rcd13ifvqe0g","pricing_plan_id":"cebpf4jnsgd1na2vs0mg"},{"bike_id":"b611c071-f0bb-41a2-aa25-420b921bc079","system_id":"levelo_inurba_marseille","lat":43.23065,"lon":5.35475,"is_reserved":false,"is_disabled":false,"rental_uris":{"android":"levelo://app?vid=b611c071-f0bb-41a2-aa25-420b921bc079","ios":"levelo://app?vid=b611c071-f0bb-41a2-aa25-420b921bc079"},"vehicle_type_id":"4","last_reported":1742300349,"current_range_meters":10800,"station_id":"cpo3342slgdg3j2ifvpg","pricing_plan_id":"cebpf4jnsgd1na2vs0mg"},{"bike_id":"84b8f04b-e88f-4221-9bad-0f76762dfac4","system_id":"levelo_inurba_marseille","lat":43.24087,"lon":5.37753,"is_reserved":false,"is_disabled":false,"rental_uris":{"android":"levelo://app?vid=84b8f04b-e88f-4221-9bad-0f76762dfac4","ios":"levelo://app?vid=84b8f04b-e88f-4221-9bad-0f76762dfac4"},"vehicle_type_id":"4","last_reported":1742300349,"current_range_meters":10800,"station_id":"ce4bhnp2rcd13ifvqgvg","pricing_plan_id":"cebpf4jnsgd1na2vs0mg"},{"bike_id":"b885f75f-3c96-46ec-8caf-25e821eabbb9","system_id":"levelo_inurba_marseille","lat":43.23147,"lon":5.43706,"is_reserved":false,"is_disabled":false,"rental_uris":{"android":"levelo://app?vid=b885f75f-3c96-46ec-8caf-25e821eabbb9","ios":"levelo://app?vid=b885f75f-3c96-46ec-8caf-25e821eabbb9"},"vehicle_type_id":"4","last_reported":1742300349,"current_range_meters":10800,"station_id":"ce4bhmp2rcd13ifvqgog","pricing_plan_id":"cebpf4jnsgd1na2vs0mg"},{"bike_id":"7f2d3a10-fb38-49e6-9c91-ea2286af82e2","system_id":"levelo_inurba_marseille","lat":43.25936,"lon":5.40907,"is_reserved":false,"is_disabled":false,"rental_uris":{"android":"levelo://app?vid=7f2d3a10-fb38-49e6-9c91-ea2286af82e2","ios":"levelo://app?vid=7f2d3a10-fb38-49e6-9c91-ea2286af82e2"},"vehicle_type_id":"4","last_reported":1742300349,"current_range_meters":10800,"station_id":"ce4bhm92rcd13ifvqglg","pricing_plan_id":"cebpf4jnsgd1na2vs0mg"},{"bike_id":"fe78a566-04ec-4269-a62f-23329583c7d4","system_id":"levelo_inurba_marseille","lat":43.32491,"lon":5.36565,"is_reserved":false,"is_disabled":false,"rental_uris":{"android":"levelo://app?vid=fe78a566-04ec-4269-a62f-23329583c7d4","ios":"levelo://app?vid=fe78a566-04ec-4269-a62f-23329583c7d4"},"vehicle_type_id":"4","last_reported":1742300349,"current_range_meters":10800,"station_id":"ce4bhs12rcd13ifvqhvg","pricing_plan_id":"cebpf4jnsgd1na2vs0mg"},{"bike_id":"181e3e56-f011-4aab-956d-9d49d55e063c","system_id":"levelo_inurba_marseille","lat":43.32369,"lon":5.36774,"is_reserved":false,"is_disabled":false,"rental_uris":{"android":"levelo://app?vid=181e3e56-f011-4aab-956d-9d49d55e063c","ios":"levelo://app?vid=181e3e56-f011-4aab-956d-9d49d55e063c"},"vehicle_type_id":"4","last_reported":1742300349,"current_range_meters":11200,"station_id":"ce4bhsh2rcd13ifvqi2g","pricing_plan_id":"cebpf4jnsgd1na2vs0mg"},{"bike_id":"f158cb0f-0380-45cd-a82f-e7d941bda018","system_id":"levelo_inurba_marseille","lat":43.3171,"lon":5.43702,"is_reserved":false,"is_disabled":false,"rental_uris":{"android":"levelo://app?vid=f158cb0f-0380-45cd-a82f-e7d941bda018","ios":"levelo://app?vid=f158cb0f-0380-45cd-a82f-e7d941bda018"},"vehicle_type_id":"4","last_reported":1742300349,"current_range_meters":11200,"station_id":"ce4bhp92rcd13ifvqhcg","pricing_plan_id":"cebpf4jnsgd1na2vs0mg"},{"bike_id":"9399d019-4dcd-4e80-b8a5-954c7412a61c","system_id":"levelo_inurba_marseille","lat":43.29368,"lon":5.37826,"is_reserved":false,"is_disabled":false,"rental_uris":{"android":"levelo://app?vid=9399d019-4dcd-4e80-b8a5-954c7412a61c","ios":"levelo://app?vid=9399d019-4dcd-4e80-b8a5-954c7412a61c"},"vehicle_type_id":"4","last_reported":1742300349,"current_range_meters":11200,"station_id":"ce4bgjh2rcd13ifvqbf0","pricing_plan_id":"cebpf4jnsgd1na2vs0mg"},{"bike_id":"dd4787ac-b247-4204-b3f3-a3164a30a846","system_id":"levelo_inurba_marseille","lat":43.30553,"lon":5.36547,"is_reserved":false,"is_disabled":false,"rental_uris":{"android":"levelo://app?vid=dd4787ac-b247-4204-b3f3-a3164a30a846","ios":"levelo://app?vid=dd4787ac-b247-4204-b3f3-a3164a30a846"},"vehicle_type_id":"4","last_reported":1742300349,"current_range_meters":11200,"station_id":"ce4bgs12rcd13ifvqcag","pricing_plan_id":"cebpf4jnsgd1na2vs0mg"},{"bike_id":"ad21d957-c0ea-4c86-82f5-b3682e2201c9","system_id":"levelo_inurba_marseille","lat":43.24177,"lon":5.39723,"is_reserved":false,"is_disabled":false,"rental_uris":{"android":"levelo://app?vid=ad21d957-c0ea-4c86-82f5-b3682e2201c9","ios":"levelo://app?vid=ad21d957-c0ea-4c86-82f5-b3682e2201c9"},"vehicle_type_id":"4","last_reported":1742300349,"current_range_meters":11600,"station_id":"ce4bhn12rcd13ifvqgpg","pricing_plan_id":"cebpf4jnsgd1na2vs0mg"},{"bike_id":"21ccb767-52a1-45b3-a164-abf872aeb2d6","system_id":"levelo_inurba_marseille","lat":43.33607,"lon":5.40981,"is_reserved":false,"is_disabled":false,"rental_uris":{"android":"levelo://app?vid=21ccb767-52a1-45b3-a164-abf872aeb2d6","ios":"levelo://app?vid=21ccb767-52a1-45b3-a164-abf872aeb2d6"},"vehicle_type_id":"4","last_reported":1742300349,"current_range_meters":12000,"station_id":"ce4bhqh2rcd13ifvqhmg","pricing_plan_id":"cebpf4jnsgd1na2vs0mg"},{"bike_id":"d00028dc-9b0d-47df-ad9d-778d21fb21b2","system_id":"levelo_inurba_marseille","lat":43.2319,"lon":5.35561,"is_reserved":false,"is_disabled":false,"rental_uris":{"android":"levelo://app?vid=d00028dc-9b0d-47df-ad9d-778d21fb21b2","ios":"levelo://app?vid=d00028dc-9b0d-47df-ad9d-778d21fb21b2"},"vehicle_type_id":"4","last_reported":1742300349,"current_range_meters":12000,"station_id":"ce4bhu92rcd13ifvqi70","pricing_plan_id":"cebpf4jnsgd1na2vs0mg"},{"bike_id":"ca1c0a28-8faf-435f-9d8b-370c3a07ff34","system_id":"levelo_inurba_marseille","lat":43.24171,"lon":5.36395,"is_reserved":false,"is_disabled":false,"rental_uris":{"android":"levelo://app?vid=ca1c0a28-8faf-435f-9d8b-370c3a07ff34","ios":"levelo://app?vid=ca1c0a28-8faf-435f-9d8b-370c3a07ff34"},"vehicle_type_id":"4","last_reported":1742300349,"current_range_meters":12000,"station_id":"cpo36qri1sfpv3e86is0","pricing_plan_id":"cebpf4jnsgd1na2vs0mg"},{"bike_id":"fb0ffda9-5a26-4999-bb9e-ea956bf8766e","system_id":"levelo_inurba_marseille","lat":43.2985,"lon":5.36281,"is_reserved":false,"is_disabled":false,"rental_uris":{"android":"levelo://app?vid=fb0ffda9-5a26-4999-bb9e-ea956bf8766e","ios":"levelo://app?vid=fb0ffda9-5a26-4999-bb9e-ea956bf8766e"},"vehicle_type_id":"4","last_reported":1742300349,"current_range_meters":12000,"station_id":"ce4bgpp2rcd13ifvqc3g","pricing_plan_id":"cebpf4jnsgd1na2vs0mg"},{"bike_id":"37962361-eb60-43c8-9b46-342d6fca5b1f","system_id":"levelo_inurba_marseille","lat":43.30152,"lon":5.37414,"is_reserved":false,"is_disabled":false,"rental_uris":{"android":"levelo://app?vid=37962361-eb60-43c8-9b46-342d6fca5b1f","ios":"levelo://app?vid=37962361-eb60-43c8-9b46-342d6fca5b1f"},"vehicle_type_id":"4","last_reported":1742300349,"current_range_meters":12000,"station_id":"ce4bgs92rcd13ifvqcc0","pricing_plan_id":"cebpf4jnsgd1na2vs0mg"},{"bike_id":"8581e34a-e545-4ecd-94c3-9ab5366e4794","system_id":"levelo_inurba_marseille","lat":43.27505,"lon":5.42444,"is_reserved":false,"is_disabled":false,"rental_uris":{"android":"levelo://app?vid=8581e34a-e545-4ecd-94c3-9ab5366e4794","ios":"levelo://app?vid=8581e34a-e545-4ecd-94c3-9ab5366e4794"},"vehicle_type_id":"4","last_reported":1742300349,"current_range_meters":12000,"station_id":"ce4bhn92rcd13ifvqgrg","pricing_plan_id":"cebpf4jnsgd1na2vs0mg"},{"bike_id":"51340ab1-538a-4c08-bec1-bdaac5a5d72f","system_id":"levelo_inurba_marseille","lat":43.23147,"lon":5.43709,"is_reserved":false,"is_disabled":false,"rental_uris":{"android":"levelo://app?vid=51340ab1-538a-4c08-bec1-bdaac5a5d72f","ios":"levelo://app?vid=51340ab1-538a-4c08-bec1-bdaac5a5d72f"},"vehicle_type_id":"4","last_reported":1742300349,"current_range_meters":12000,"station_id":"ce4bhmp2rcd13ifvqgog","pricing_plan_id":"cebpf4jnsgd1na2vs0mg"},{"bike_id":"0cb439ba-c73c-4e00-a10d-d81c8bff11ec","system_id":"levelo_inurba_marseille","lat":43.32472,"lon":5.36518,"is_reserved":false,"is_disabled":false,"rental_uris":{"android":"levelo://app?vid=0cb439ba-c73c-4e00-a10d-d81c8bff11ec","ios":"levelo://app?vid=0cb439ba-c73c-4e00-a10d-d81c8bff11ec"},"vehicle_type_id":"4","last_reported":1742300349,"current_range_meters":12400,"station_id":"ce4bhs12rcd13ifvqhvg","pricing_plan_id":"cebpf4jnsgd1na2vs0mg"},{"bike_id":"175919c0-deb0-4e48-9a06-eea90edc3e69","system_id":"levelo_inurba_marseille","lat":43.23207,"lon":5.35542,"is_reserved":false,"is_disabled":false,"rental_uris":{"android":"levelo://app?vid=175919c0-deb0-4e48-9a06-eea90edc3e69","ios":"levelo://app?vid=175919c0-deb0-4e48-9a06-eea90edc3e69"},"vehicle_type_id":"4","last_reported":1742300349,"current_range_meters":12400,"station_id":"ce4bhu92rcd13ifvqi70","pricing_plan_id":"cebpf4jnsgd1na2vs0mg"},{"bike_id":"b1f3d06d-5b44-46e7-b2f7-013ad4cf17f9","system_id":"levelo_inurba_marseille","lat":43.28937,"lon":5.3664,"is_reserved":false,"is_disabled":false,"rental_uris":{"android":"levelo://app?vid=b1f3d06d-5b44-46e7-b2f7-013ad4cf17f9","ios":"levelo://app?vid=b1f3d06d-5b44-46e7-b2f7-013ad4cf17f9"},"vehicle_type_id":"4","last_reported":1742300349,"current_range_meters":12400,"station_id":"ce4bhap2rcd13ifvqek0","pricing_plan_id":"cebpf4jnsgd1na2vs0mg"},{"bike_id":"ab11fa9b-759f-447f-a4f1-b143e2360775","system_id":"levelo_inurba_marseille","lat":43.31359,"lon":5.3915,"is_reserved":false,"is_disabled":false,"rental_uris":{"android":"levelo://app?vid=ab11fa9b-759f-447f-a4f1-b143e2360775","ios":"levelo://app?vid=ab11fa9b-759f-447f-a4f1-b143e2360775"},"vehicle_type_id":"4","last_reported":1742300349,"current_range_meters":12400,"station_id":"","pricing_plan_id":"cebpf4jnsgd1na2vs0mg"},{"bike_id":"08058f9b-5fd7-489c-a6cd-58711359da60","system_id":"levelo_inurba_marseille","lat":43.32527,"lon":5.41424,"is_reserved":false,"is_disabled":false,"rental_uris":{"android":"levelo://app?vid=08058f9b-5fd7-489c-a6cd-58711359da60","ios":"levelo://app?vid=08058f9b-5fd7-489c-a6cd-58711359da60"},"vehicle_type_id":"4","last_reported":1742300349,"current_range_meters":12400,"station_id":"ce4bhq12rcd13ifvqhhg","pricing_plan_id":"cebpf4jnsgd1na2vs0mg"},{"bike_id":"d36c89e8-07d2-4942-be59-0b2e43ed175d","system_id":"levelo_inurba_marseille","lat":43.25931,"lon":5.40913,"is_reserved":false,"is_disabled":false,"rental_uris":{"android":"levelo://app?vid=d36c89e8-07d2-4942-be59-0b2e43ed175d","ios":"levelo://app?vid=d36c89e8-07d2-4942-be59-0b2e43ed175d"},"vehicle_type_id":"4","last_reported":1742300349,"current_range_meters":12400,"station_id":"ce4bhm92rcd13ifvqglg","pricing_plan_id":"cebpf4jnsgd1na2vs0mg"},{"bike_id":"bb859d18-c8e9-4651-9cb0-d21fc0695b19","system_id":"levelo_inurba_marseille","lat":43.30541,"lon":5.36538,"is_reserved":false,"is_disabled":false,"rental_uris":{"android":"levelo://app?vid=bb859d18-c8e9-4651-9cb0-d21fc0695b19","ios":"levelo://app?vid=bb859d18-c8e9-4651-9cb0-d21fc0695b19"},"vehicle_type_id":"4","last_reported":1742300349,"current_range_meters":12400,"station_id":"ce4bgs12rcd13ifvqcag","pricing_plan_id":"cebpf4jnsgd1na2vs0mg"},{"bike_id":"a570a9db-c032-4df3-92f7-35a15bd8ce69","system_id":"levelo_inurba_marseille","lat":43.28373,"lon":5.3864,"is_reserved":false,"is_disabled":false,"rental_uris":{"android":"levelo://app?vid=a570a9db-c032-4df3-92f7-35a15bd8ce69","ios":"levelo://app?vid=a570a9db-c032-4df3-92f7-35a15bd8ce69"},"vehicle_type_id":"4","last_reported":1742300349,"current_range_meters":12400,"station_id":"ce4bh492rcd13ifvqdvg","pricing_plan_id":"cebpf4jnsgd1na2vs0mg"},{"bike_id":"30afd827-1af8-40de-a576-149b865b7207","system_id":"levelo_inurba_marseille","lat":43.24108,"lon":5.37733,"is_reserved":false,"is_disabled":false,"rental_uris":{"android":"levelo://app?vid=30afd827-1af8-40de-a576-149b865b7207","ios":"levelo://app?vid=30afd827-1af8-40de-a576-149b865b7207"},"vehicle_type_id":"4","last_reported":1742300349,"current_range_meters":12800,"station_id":"ce4bhnp2rcd13ifvqgvg","pricing_plan_id":"cebpf4jnsgd1na2vs0mg"},{"bike_id":"148c8f55-7f73-4340-81b3-f1aa3bd8ae8b","system_id":"levelo_inurba_marseille","lat":43.2866,"lon":5.38673,"is_reserved":false,"is_disabled":false,"rental_uris":{"android":"levelo://app?vid=148c8f55-7f73-4340-81b3-f1aa3bd8ae8b","ios":"levelo://app?vid=148c8f55-7f73-4340-81b3-f1aa3bd8ae8b"},"vehicle_type_id":"4","last_reported":1742300349,"current_range_meters":12400,"station_id":"ce4bh492rcd13ifvqdug","pricing_plan_id":"cebpf4jnsgd1na2vs0mg"},{"bike_id":"deefc024-d4ec-43da-aa25-35631ac8a7c7","system_id":"levelo_inurba_marseille","lat":43.29227,"lon":5.3607,"is_reserved":false,"is_disabled":false,"rental_uris":{"android":"levelo://app?vid=deefc024-d4ec-43da-aa25-35631ac8a7c7","ios":"levelo://app?vid=deefc024-d4ec-43da-aa25-35631ac8a7c7"},"vehicle_type_id":"4","last_reported":1742300349,"current_range_meters":12800,"station_id":"ce4bhbh2rcd13ifvqeqg","pricing_plan_id":"cebpf4jnsgd1na2vs0mg"},{"bike_id":"460cf48a-da3b-43f2-83e9-71aea5edebe3","system_id":"levelo_inurba_marseille","lat":43.25111,"lon":5.40322,"is_reserved":false,"is_disabled":false,"rental_uris":{"android":"levelo://app?vid=460cf48a-da3b-43f2-83e9-71aea5edebe3","ios":"levelo://app?vid=460cf48a-da3b-43f2-83e9-71aea5edebe3"},"vehicle_type_id":"4","last_reported":1742300349,"current_range_meters":12800,"station_id":"ce4bhlh2rcd13ifvqgig","pricing_plan_id":"cebpf4jnsgd1na2vs0mg"},{"bike_id":"89cb3140-d211-4c4d-97ca-7e01c3c4da90","system_id":"levelo_inurba_marseille","lat":43.231917,"lon":5.355626,"is_reserved":false,"is_disabled":false,"rental_uris":{"android":"levelo://app?vid=89cb3140-d211-4c4d-97ca-7e01c3c4da90","ios":"levelo://app?vid=89cb3140-d211-4c4d-97ca-7e01c3c4da90"},"vehicle_type_id":"4","last_reported":1742300349,"current_range_meters":12800,"station_id":"ce4bhu92rcd13ifvqi70","pricing_plan_id":"cebpf4jnsgd1na2vs0mg"},{"bike_id":"a7c6daee-84bd-45a4-832d-68ec30bd8800","system_id":"levelo_inurba_marseille","lat":43.24079,"lon":5.37754,"is_reserved":false,"is_disabled":false,"rental_uris":{"android":"levelo://app?vid=a7c6daee-84bd-45a4-832d-68ec30bd8800","ios":"levelo://app?vid=a7c6daee-84bd-45a4-832d-68ec30bd8800"},"vehicle_type_id":"4","last_reported":1742300349,"current_range_meters":12800,"station_id":"","pricing_plan_id":"cebpf4jnsgd1na2vs0mg"},{"bike_id":"29702d2b-96b7-47e7-a088-8a62571aa62d","system_id":"levelo_inurba_marseille","lat":43.28269,"lon":5.35084,"is_reserved":false,"is_disabled":false,"rental_uris":{"android":"levelo://app?vid=29702d2b-96b7-47e7-a088-8a62571aa62d","ios":"levelo://app?vid=29702d2b-96b7-47e7-a088-8a62571aa62d"},"vehicle_type_id":"4","last_reported":1742300349,"current_range_meters":12800,"station_id":"ce4bhbp2rcd13ifvqerg","pricing_plan_id":"cebpf4jnsgd1na2vs0mg"},{"bike_id":"fb702ae0-ac8f-4e42-95aa-d94b79cc2676","system_id":"levelo_inurba_marseille","lat":43.3042,"lon":5.39765,"is_reserved":false,"is_disabled":false,"rental_uris":{"android":"levelo://app?vid=fb702ae0-ac8f-4e42-95aa-d94b79cc2676","ios":"levelo://app?vid=fb702ae0-ac8f-4e42-95aa-d94b79cc2676"},"vehicle_type_id":"4","last_reported":1742300349,"current_range_meters":13600,"station_id":"ce4bh092rcd13ifvqd20","pricing_plan_id":"cebpf4jnsgd1na2vs0mg"},{"bike_id":"2e5ecf31-30b5-467e-9117-e49fe2c181fc","system_id":"levelo_inurba_marseille","lat":43.2466,"lon":5.38167,"is_reserved":false,"is_disabled":false,"rental_uris":{"android":"levelo://app?vid=2e5ecf31-30b5-467e-9117-e49fe2c181fc","ios":"levelo://app?vid=2e5ecf31-30b5-467e-9117-e49fe2c181fc"},"vehicle_type_id":"4","last_reported":1742300349,"current_range_meters":14000,"station_id":"ce4bhih2rcd13ifvqfr0","pricing_plan_id":"cebpf4jnsgd1na2vs0mg"},{"bike_id":"247370a0-bf6a-41d8-baaa-506adc37e22a","system_id":"levelo_inurba_marseille","lat":43.30186,"lon":5.36609,"is_reserved":false,"is_disabled":false,"rental_uris":{"android":"levelo://app?vid=247370a0-bf6a-41d8-baaa-506adc37e22a","ios":"levelo://app?vid=247370a0-bf6a-41d8-baaa-506adc37e22a"},"vehicle_type_id":"4","last_reported":1742300349,"current_range_meters":13600,"station_id":"ce4bgrh2rcd13ifvqc8g","pricing_plan_id":"cebpf4jnsgd1na2vs0mg"},{"bike_id":"bf4be79b-9026-4b82-94c1-e6cf04153714","system_id":"levelo_inurba_marseille","lat":43.28482,"lon":5.38564,"is_reserved":false,"is_disabled":false,"rental_uris":{"android":"levelo://app?vid=bf4be79b-9026-4b82-94c1-e6cf04153714","ios":"levelo://app?vid=bf4be79b-9026-4b82-94c1-e6cf04153714"},"vehicle_type_id":"4","last_reported":1742300349,"current_range_meters":14000,"station_id":"ce4bh8p2rcd13ifvqeb0","pricing_plan_id":"cebpf4jnsgd1na2vs0mg"},{"bike_id":"e0522b1b-8773-47e6-9b79-caec897a5d53","system_id":"levelo_inurba_marseille","lat":43.29297,"lon":5.37449,"is_reserved":false,"is_disabled":false,"rental_uris":{"android":"levelo://app?vid=e0522b1b-8773-47e6-9b79-caec897a5d53","ios":"levelo://app?vid=e0522b1b-8773-47e6-9b79-caec897a5d53"},"vehicle_type_id":"4","last_reported":1742300349,"current_range_meters":14000,"station_id":"ce4bgi12rcd13ifvqb70","pricing_plan_id":"cebpf4jnsgd1na2vs0mg"},{"bike_id":"f142dc05-f5d3-4cbc-afe5-c54cd3d760d6","system_id":"levelo_inurba_marseille","lat":43.28083,"lon":5.39659,"is_reserved":false,"is_disabled":false,"rental_uris":{"android":"levelo://app?vid=f142dc05-f5d3-4cbc-afe5-c54cd3d760d6","ios":"levelo://app?vid=f142dc05-f5d3-4cbc-afe5-c54cd3d760d6"},"vehicle_type_id":"4","last_reported":1742300349,"current_range_meters":14000,"station_id":"ce4bho12rcd13ifvqh2g","pricing_plan_id":"cebpf4jnsgd1na2vs0mg"},{"bike_id":"472ae7f9-4609-416e-80e6-f4d0bd7fa3dc","system_id":"levelo_inurba_marseille","lat":43.2679,"lon":5.39408,"is_reserved":false,"is_disabled":false,"rental_uris":{"android":"levelo://app?vid=472ae7f9-4609-416e-80e6-f4d0bd7fa3dc","ios":"levelo://app?vid=472ae7f9-4609-416e-80e6-f4d0bd7fa3dc"},"vehicle_type_id":"4","last_reported":1742300349,"current_range_meters":13600,"station_id":"ce4bhh12rcd13ifvqfg0","pricing_plan_id":"cebpf4jnsgd1na2vs0mg"},{"bike_id":"954d20fb-5af9-4e59-8456-4203eeb9e3f8","system_id":"levelo_inurba_marseille","lat":43.31328,"lon":5.3969,"is_reserved":false,"is_disabled":false,"rental_uris":{"android":"levelo://app?vid=954d20fb-5af9-4e59-8456-4203eeb9e3f8","ios":"levelo://app?vid=954d20fb-5af9-4e59-8456-4203eeb9e3f8"},"vehicle_type_id":"4","last_reported":1742300349,"current_range_meters":13600,"station_id":"ce4bgvp2rcd13ifvqcu0","pricing_plan_id":"cebpf4jnsgd1na2vs0mg"},{"bike_id":"05565f09-885a-4341-81a0-e7f30e055813","system_id":"levelo_inurba_marseille","lat":43.32541,"lon":5.41423,"is_reserved":false,"is_disabled":false,"rental_uris":{"android":"levelo://app?vid=05565f09-885a-4341-81a0-e7f30e055813","ios":"levelo://app?vid=05565f09-885a-4341-81a0-e7f30e055813"},"vehicle_type_id":"4","last_reported":1742300349,"current_range_meters":14000,"station_id":"ce4bhq12rcd13ifvqhhg","pricing_plan_id":"cebpf4jnsgd1na2vs0mg"},{"bike_id":"ef1c1528-aa7a-46e8-a577-9de7cbd990cb","system_id":"levelo_inurba_marseille","lat":43.24175,"lon":5.36399,"is_reserved":false,"is_disabled":false,"rental_uris":{"android":"levelo://app?vid=ef1c1528-aa7a-46e8-a577-9de7cbd990cb","ios":"levelo://app?vid=ef1c1528-aa7a-46e8-a577-9de7cbd990cb"},"vehicle_type_id":"4","last_reported":1742300349,"current_range_meters":14400,"station_id":"cpo36qri1sfpv3e86is0","pricing_plan_id":"cebpf4jnsgd1na2vs0mg"},{"bike_id":"fd57678e-e4df-420b-908b-04ee2ba2b9c7","system_id":"levelo_inurba_marseille","lat":43.275,"lon":5.42454,"is_reserved":false,"is_disabled":false,"rental_uris":{"android":"levelo://app?vid=fd57678e-e4df-420b-908b-04ee2ba2b9c7","ios":"levelo://app?vid=fd57678e-e4df-420b-908b-04ee2ba2b9c7"},"vehicle_type_id":"4","last_reported":1742300349,"current_range_meters":14400,"station_id":"ce4bhn92rcd13ifvqgrg","pricing_plan_id":"cebpf4jnsgd1na2vs0mg"},{"bike_id":"1b816da1-b5df-49f9-9180-41dff3e2b872","system_id":"levelo_inurba_marseille","lat":43.24192,"lon":5.39745,"is_reserved":false,"is_disabled":false,"rental_uris":{"android":"levelo://app?vid=1b816da1-b5df-49f9-9180-41dff3e2b872","ios":"levelo://app?vid=1b816da1-b5df-49f9-9180-41dff3e2b872"},"vehicle_type_id":"4","last_reported":1742300349,"current_range_meters":14400,"station_id":"ce4bhn12rcd13ifvqgpg","pricing_plan_id":"cebpf4jnsgd1na2vs0mg"},{"bike_id":"623b1d48-fe8c-4a6a-b45e-f5a8ef1ac996","system_id":"levelo_inurba_marseille","lat":43.30541,"lon":5.36538,"is_reserved":false,"is_disabled":false,"rental_uris":{"android":"levelo://app?vid=623b1d48-fe8c-4a6a-b45e-f5a8ef1ac996","ios":"levelo://app?vid=623b1d48-fe8c-4a6a-b45e-f5a8ef1ac996"},"vehicle_type_id":"4","last_reported":1742300349,"current_range_meters":14400,"station_id":"ce4bgs12rcd13ifvqcag","pricing_plan_id":"cebpf4jnsgd1na2vs0mg"},{"bike_id":"6ae2d0cd-cf3a-4c81-ab29-cc8ca7ee04a8","system_id":"levelo_inurba_marseille","lat":43.28347,"lon":5.3811,"is_reserved":false,"is_disabled":false,"rental_uris":{"android":"levelo://app?vid=6ae2d0cd-cf3a-4c81-ab29-cc8ca7ee04a8","ios":"levelo://app?vid=6ae2d0cd-cf3a-4c81-ab29-cc8ca7ee04a8"},"vehicle_type_id":"4","last_reported":1742300349,"current_range_meters":14400,"station_id":"ce4bh412rcd13ifvqdr0","pricing_plan_id":"cebpf4jnsgd1na2vs0mg"},{"bike_id":"d8c1ae52-2a9e-4470-a363-aadad54f73dd","system_id":"levelo_inurba_marseille","lat":43.26223,"lon":5.40434,"is_reserved":false,"is_disabled":false,"rental_uris":{"android":"levelo://app?vid=d8c1ae52-2a9e-4470-a363-aadad54f73dd","ios":"levelo://app?vid=d8c1ae52-2a9e-4470-a363-aadad54f73dd"},"vehicle_type_id":"4","last_reported":1742300349,"current_range_meters":14400,"station_id":"ce4bhmh2rcd13ifvqgmg","pricing_plan_id":"cebpf4jnsgd1na2vs0mg"},{"bike_id":"7341297d-d43a-4895-907f-c3efe66c169b","system_id":"levelo_inurba_marseille","lat":43.30287,"lon":5.37699,"is_reserved":false,"is_disabled":false,"rental_uris":{"android":"levelo://app?vid=7341297d-d43a-4895-907f-c3efe66c169b","ios":"levelo://app?vid=7341297d-d43a-4895-907f-c3efe66c169b"},"vehicle_type_id":"4","last_reported":1742300349,"current_range_meters":14400,"station_id":"ce4bguh2rcd13ifvqcj0","pricing_plan_id":"cebpf4jnsgd1na2vs0mg"},{"bike_id":"0cfe4940-1cd0-45a3-9100-77af29174910","system_id":"levelo_inurba_marseille","lat":43.24661,"lon":5.38167,"is_reserved":false,"is_disabled":false,"rental_uris":{"android":"levelo://app?vid=0cfe4940-1cd0-45a3-9100-77af29174910","ios":"levelo://app?vid=0cfe4940-1cd0-45a3-9100-77af29174910"},"vehicle_type_id":"4","last_reported":1742300349,"current_range_meters":14800,"station_id":"ce4bhih2rcd13ifvqfr0","pricing_plan_id":"cebpf4jnsgd1na2vs0mg"},{"bike_id":"ff037ac5-a7ea-45e6-93cf-7d394f2f7759","system_id":"levelo_inurba_marseille","lat":43.30539,"lon":5.36543,"is_reserved":false,"is_disabled":false,"rental_uris":{"android":"levelo://app?vid=ff037ac5-a7ea-45e6-93cf-7d394f2f7759","ios":"levelo://app?vid=ff037ac5-a7ea-45e6-93cf-7d394f2f7759"},"vehicle_type_id":"4","last_reported":1742300349,"current_range_meters":14800,"station_id":"ce4bgs12rcd13ifvqcag","pricing_plan_id":"cebpf4jnsgd1na2vs0mg"},{"bike_id":"cf6265a1-47c3-4f28-82bd-a18b06e57bd4","system_id":"levelo_inurba_marseille","lat":43.23149,"lon":5.43706,"is_reserved":false,"is_disabled":false,"rental_uris":{"android":"levelo://app?vid=cf6265a1-47c3-4f28-82bd-a18b06e57bd4","ios":"levelo://app?vid=cf6265a1-47c3-4f28-82bd-a18b06e57bd4"},"vehicle_type_id":"4","last_reported":1742300349,"current_range_meters":14800,"station_id":"ce4bhmp2rcd13ifvqgog","pricing_plan_id":"cebpf4jnsgd1na2vs0mg"},{"bike_id":"aa2ce3d9-c3ae-4c5d-9495-2ff1fd62127e","system_id":"levelo_inurba_marseille","lat":43.27376,"lon":5.36264,"is_reserved":false,"is_disabled":false,"rental_uris":{"android":"levelo://app?vid=aa2ce3d9-c3ae-4c5d-9495-2ff1fd62127e","ios":"levelo://app?vid=aa2ce3d9-c3ae-4c5d-9495-2ff1fd62127e"},"vehicle_type_id":"4","last_reported":1742300349,"current_range_meters":14800,"station_id":"ce4bhbh2rcd13ifvqeo0","pricing_plan_id":"cebpf4jnsgd1na2vs0mg"},{"bike_id":"f5b5b897-b776-4f00-9f85-b4d42ed7205c","system_id":"levelo_inurba_marseille","lat":43.25933,"lon":5.40913,"is_reserved":false,"is_disabled":false,"rental_uris":{"android":"levelo://app?vid=f5b5b897-b776-4f00-9f85-b4d42ed7205c","ios":"levelo://app?vid=f5b5b897-b776-4f00-9f85-b4d42ed7205c"},"vehicle_type_id":"4","last_reported":1742300349,"current_range_meters":14800,"station_id":"ce4bhm92rcd13ifvqglg","pricing_plan_id":"cebpf4jnsgd1na2vs0mg"},{"bike_id":"d8d34366-24c0-4b59-b436-55c479c2fe33","system_id":"levelo_inurba_marseille","lat":43.24545,"lon":5.39521,"is_reserved":false,"is_disabled":false,"rental_uris":{"android":"levelo://app?vid=d8d34366-24c0-4b59-b436-55c479c2fe33","ios":"levelo://app?vid=d8d34366-24c0-4b59-b436-55c479c2fe33"},"vehicle_type_id":"4","last_reported":1742300349,"current_range_meters":14800,"station_id":"ce4bhlp2rcd13ifvqgjg","pricing_plan_id":"cebpf4jnsgd1na2vs0mg"},{"bike_id":"3c054d98-734f-40a9-bc9f-5a6912ba9713","system_id":"levelo_inurba_marseille","lat":43.33565,"lon":5.40968,"is_reserved":false,"is_disabled":false,"rental_uris":{"android":"levelo://app?vid=3c054d98-734f-40a9-bc9f-5a6912ba9713","ios":"levelo://app?vid=3c054d98-734f-40a9-bc9f-5a6912ba9713"},"vehicle_type_id":"4","last_reported":1742300349,"current_range_meters":14800,"station_id":"","pricing_plan_id":"cebpf4jnsgd1na2vs0mg"},{"bike_id":"e60c1153-ceb4-4f72-92cd-2dc1051b5e4c","system_id":"levelo_inurba_marseille","lat":43.26066,"lon":5.39392,"is_reserved":false,"is_disabled":true,"rental_uris":{"android":"levelo://app?vid=e60c1153-ceb4-4f72-92cd-2dc1051b5e4c","ios":"levelo://app?vid=e60c1153-ceb4-4f72-92cd-2dc1051b5e4c"},"vehicle_type_id":"4","last_reported":1742300349,"current_range_meters":15200,"station_id":"ce4bhh92rcd13ifvqfj0","pricing_plan_id":"cebpf4jnsgd1na2vs0mg"},{"bike_id":"2e899b17-5d5e-460c-84e0-4774e1458249","system_id":"levelo_inurba_marseille","lat":43.25089,"lon":5.3951,"is_reserved":false,"is_disabled":false,"rental_uris":{"android":"levelo://app?vid=2e899b17-5d5e-460c-84e0-4774e1458249","ios":"levelo://app?vid=2e899b17-5d5e-460c-84e0-4774e1458249"},"vehicle_type_id":"4","last_reported":1742300349,"current_range_meters":15200,"station_id":"ce4bhm12rcd13ifvqgkg","pricing_plan_id":"cebpf4jnsgd1na2vs0mg"},{"bike_id":"aa73cc06-366a-4e97-9f9b-baf449cf39f7","system_id":"levelo_inurba_marseille","lat":43.30318,"lon":5.36871,"is_reserved":false,"is_disabled":false,"rental_uris":{"android":"levelo://app?vid=aa73cc06-366a-4e97-9f9b-baf449cf39f7","ios":"levelo://app?vid=aa73cc06-366a-4e97-9f9b-baf449cf39f7"},"vehicle_type_id":"4","last_reported":1742300349,"current_range_meters":15200,"station_id":"ce4bgqh2rcd13ifvqc5g","pricing_plan_id":"cebpf4jnsgd1na2vs0mg"},{"bike_id":"b1363475-9844-44dc-a7f2-7f615e06087c","system_id":"levelo_inurba_marseille","lat":43.30461,"lon":5.37914,"is_reserved":false,"is_disabled":false,"rental_uris":{"android":"levelo://app?vid=b1363475-9844-44dc-a7f2-7f615e06087c","ios":"levelo://app?vid=b1363475-9844-44dc-a7f2-7f615e06087c"},"vehicle_type_id":"4","last_reported":1742300349,"current_range_meters":15200,"station_id":"ce4bgup2rcd13ifvqcn0","pricing_plan_id":"cebpf4jnsgd1na2vs0mg"},{"bike_id":"674c274d-8b90-442c-ab1b-22c012ecc008","system_id":"levelo_inurba_marseille","lat":43.29031,"lon":5.37567,"is_reserved":false,"is_disabled":false,"rental_uris":{"android":"levelo://app?vid=674c274d-8b90-442c-ab1b-22c012ecc008","ios":"levelo://app?vid=674c274d-8b90-442c-ab1b-22c012ecc008"},"vehicle_type_id":"4","last_reported":1742300349,"current_range_meters":14800,"station_id":"ce4bh692rcd13ifvqe90","pricing_plan_id":"cebpf4jnsgd1na2vs0mg"},{"bike_id":"1d823875-14a5-497e-926f-bb3dd4573470","system_id":"levelo_inurba_marseille","lat":43.27815,"lon":5.407,"is_reserved":false,"is_disabled":false,"rental_uris":{"android":"levelo://app?vid=1d823875-14a5-497e-926f-bb3dd4573470","ios":"levelo://app?vid=1d823875-14a5-497e-926f-bb3dd4573470"},"vehicle_type_id":"4","last_reported":1742300349,"current_range_meters":15200,"station_id":"ce4bhnh2rcd13ifvqgtg","pricing_plan_id":"cebpf4jnsgd1na2vs0mg"},{"bike_id":"e0d56dd0-3072-4b4c-a2d4-f12c43f68db1","system_id":"levelo_inurba_marseille","lat":43.27613,"lon":5.36111,"is_reserved":false,"is_disabled":false,"rental_uris":{"android":"levelo://app?vid=e0d56dd0-3072-4b4c-a2d4-f12c43f68db1","ios":"levelo://app?vid=e0d56dd0-3072-4b4c-a2d4-f12c43f68db1"},"vehicle_type_id":"4","last_reported":1742300349,"current_range_meters":15200,"station_id":"ce4bgj92rcd13ifvqbe0","pricing_plan_id":"cebpf4jnsgd1na2vs0mg"},{"bike_id":"ceda2065-f350-47bf-a42b-0d3ed48da482","system_id":"levelo_inurba_marseille","lat":43.26838,"lon":5.38524,"is_reserved":false,"is_disabled":false,"rental_uris":{"android":"levelo://app?vid=ceda2065-f350-47bf-a42b-0d3ed48da482","ios":"levelo://app?vid=ceda2065-f350-47bf-a42b-0d3ed48da482"},"vehicle_type_id":"4","last_reported":1742300349,"current_range_meters":11600,"station_id":"ce4bhh92rcd13ifvqfh0","pricing_plan_id":"cebpf4jnsgd1na2vs0mg"},{"bike_id":"af8f38f6-9dae-4ca7-8e54-6e4617ce8861","system_id":"levelo_inurba_marseille","lat":43.26062,"lon":5.39399,"is_reserved":false,"is_disabled":false,"rental_uris":{"android":"levelo://app?vid=af8f38f6-9dae-4ca7-8e54-6e4617ce8861","ios":"levelo://app?vid=af8f38f6-9dae-4ca7-8e54-6e4617ce8861"},"vehicle_type_id":"4","last_reported":1742300349,"current_range_meters":15200,"station_id":"ce4bhh92rcd13ifvqfj0","pricing_plan_id":"cebpf4jnsgd1na2vs0mg"},{"bike_id":"b4f7173c-958e-46f2-8903-b51a4fdcf0e3","system_id":"levelo_inurba_marseille","lat":43.28942,"lon":5.36636,"is_reserved":false,"is_disabled":false,"rental_uris":{"android":"levelo://app?vid=b4f7173c-958e-46f2-8903-b51a4fdcf0e3","ios":"levelo://app?vid=b4f7173c-958e-46f2-8903-b51a4fdcf0e3"},"vehicle_type_id":"4","last_reported":1742300349,"current_range_meters":16000,"station_id":"ce4bhap2rcd13ifvqek0","pricing_plan_id":"cebpf4jnsgd1na2vs0mg"},{"bike_id":"2a26b436-cf5e-47ad-bc5d-1ca9c11c32cb","system_id":"levelo_inurba_marseille","lat":43.29783,"lon":5.37099,"is_reserved":false,"is_disabled":false,"rental_uris":{"android":"levelo://app?vid=2a26b436-cf5e-47ad-bc5d-1ca9c11c32cb","ios":"levelo://app?vid=2a26b436-cf5e-47ad-bc5d-1ca9c11c32cb"},"vehicle_type_id":"4","last_reported":1742300349,"current_range_meters":15200,"station_id":"ce4bgop2rcd13ifvqc1g","pricing_plan_id":"cebpf4jnsgd1na2vs0mg"},{"bike_id":"5d43cf7a-1630-472d-881e-1eed8733fe20","system_id":"levelo_inurba_marseille","lat":43.29161,"lon":5.37149,"is_reserved":false,"is_disabled":false,"rental_uris":{"android":"levelo://app?vid=5d43cf7a-1630-472d-881e-1eed8733fe20","ios":"levelo://app?vid=5d43cf7a-1630-472d-881e-1eed8733fe20"},"vehicle_type_id":"4","last_reported":1742300349,"current_range_meters":16000,"station_id":"ce4bha92rcd13ifvqeh0","pricing_plan_id":"cebpf4jnsgd1na2vs0mg"},{"bike_id":"e6bcec3f-59c1-4640-9c65-c759d9df1a32","system_id":"levelo_inurba_marseille","lat":43.29851,"lon":5.36289,"is_reserved":false,"is_disabled":false,"rental_uris":{"android":"levelo://app?vid=e6bcec3f-59c1-4640-9c65-c759d9df1a32","ios":"levelo://app?vid=e6bcec3f-59c1-4640-9c65-c759d9df1a32"},"vehicle_type_id":"4","last_reported":1742300349,"current_range_meters":16000,"station_id":"ce4bgpp2rcd13ifvqc3g","pricing_plan_id":"cebpf4jnsgd1na2vs0mg"},{"bike_id":"36f5e068-26e9-485b-84a3-fa1ce5017122","system_id":"levelo_inurba_marseille","lat":43.26932,"lon":5.38946,"is_reserved":false,"is_disabled":false,"rental_uris":{"android":"levelo://app?vid=36f5e068-26e9-485b-84a3-fa1ce5017122","ios":"levelo://app?vid=36f5e068-26e9-485b-84a3-fa1ce5017122"},"vehicle_type_id":"4","last_reported":1742300349,"current_range_meters":16000,"station_id":"ce4bhhh2rcd13ifvqfl0","pricing_plan_id":"cebpf4jnsgd1na2vs0mg"},{"bike_id":"3455258b-4135-46b9-9a26-10bf95160e40","system_id":"levelo_inurba_marseille","lat":43.23191,"lon":5.3556,"is_reserved":false,"is_disabled":false,"rental_uris":{"android":"levelo://app?vid=3455258b-4135-46b9-9a26-10bf95160e40","ios":"levelo://app?vid=3455258b-4135-46b9-9a26-10bf95160e40"},"vehicle_type_id":"4","last_reported":1742300349,"current_range_meters":16000,"station_id":"ce4bhu92rcd13ifvqi70","pricing_plan_id":"cebpf4jnsgd1na2vs0mg"},{"bike_id":"4acd6c98-2bc8-4cfb-b7ff-4cd34c885cf3","system_id":"levelo_inurba_marseille","lat":43.28352,"lon":5.38105,"is_reserved":false,"is_disabled":false,"rental_uris":{"android":"levelo://app?vid=4acd6c98-2bc8-4cfb-b7ff-4cd34c885cf3","ios":"levelo://app?vid=4acd6c98-2bc8-4cfb-b7ff-4cd34c885cf3"},"vehicle_type_id":"4","last_reported":1742300349,"current_range_meters":16000,"station_id":"ce4bh412rcd13ifvqdr0","pricing_plan_id":"cebpf4jnsgd1na2vs0mg"},{"bike_id":"2ebdd665-45bc-41e4-ba36-29ebf27d9e85","system_id":"levelo_inurba_marseille","lat":43.25932,"lon":5.40899,"is_reserved":false,"is_disabled":false,"rental_uris":{"android":"levelo://app?vid=2ebdd665-45bc-41e4-ba36-29ebf27d9e85","ios":"levelo://app?vid=2ebdd665-45bc-41e4-ba36-29ebf27d9e85"},"vehicle_type_id":"4","last_reported":1742300349,"current_range_meters":16000,"station_id":"ce4bhm92rcd13ifvqglg","pricing_plan_id":"cebpf4jnsgd1na2vs0mg"},{"bike_id":"ee5247d7-b0a8-4dce-90ad-48e79724b2ab","system_id":"levelo_inurba_marseille","lat":43.27494,"lon":5.42469,"is_reserved":false,"is_disabled":false,"rental_uris":{"android":"levelo://app?vid=ee5247d7-b0a8-4dce-90ad-48e79724b2ab","ios":"levelo://app?vid=ee5247d7-b0a8-4dce-90ad-48e79724b2ab"},"vehicle_type_id":"4","last_reported":1742300349,"current_range_meters":16000,"station_id":"ce4bhn92rcd13ifvqgrg","pricing_plan_id":"cebpf4jnsgd1na2vs0mg"},{"bike_id":"8aeade5c-ec6a-4e42-8012-3b75e75619bf","system_id":"levelo_inurba_marseille","lat":43.28726,"lon":5.36082,"is_reserved":false,"is_disabled":false,"rental_uris":{"android":"levelo://app?vid=8aeade5c-ec6a-4e42-8012-3b75e75619bf","ios":"levelo://app?vid=8aeade5c-ec6a-4e42-8012-3b75e75619bf"},"vehicle_type_id":"4","last_reported":1742300349,"current_range_meters":16000,"station_id":"cki0cbj6b192h4jlfktg","pricing_plan_id":"cebpf4jnsgd1na2vs0mg"},{"bike_id":"e96af8f2-6ebf-4f2c-a24a-98278f44bf29","system_id":"levelo_inurba_marseille","lat":43.26562,"lon":5.37304,"is_reserved":false,"is_disabled":false,"rental_uris":{"android":"levelo://app?vid=e96af8f2-6ebf-4f2c-a24a-98278f44bf29","ios":"levelo://app?vid=e96af8f2-6ebf-4f2c-a24a-98278f44bf29"},"vehicle_type_id":"4","last_reported":1742300349,"current_range_meters":16000,"station_id":"ce4bhg12rcd13ifvqf70","pricing_plan_id":"cebpf4jnsgd1na2vs0mg"},{"bike_id":"b404ad0f-6f90-4a10-ae0d-3ca0b7bc21a1","system_id":"levelo_inurba_marseille","lat":43.24665,"lon":5.38166,"is_reserved":false,"is_disabled":false,"rental_uris":{"android":"levelo://app?vid=b404ad0f-6f90-4a10-ae0d-3ca0b7bc21a1","ios":"levelo://app?vid=b404ad0f-6f90-4a10-ae0d-3ca0b7bc21a1"},"vehicle_type_id":"4","last_reported":1742300349,"current_range_meters":16400,"station_id":"ce4bhih2rcd13ifvqfr0","pricing_plan_id":"cebpf4jnsgd1na2vs0mg"},{"bike_id":"6193b074-5ac2-48ec-901d-c6a58dee7e36","system_id":"levelo_inurba_marseille","lat":43.30137,"lon":5.37423,"is_reserved":false,"is_disabled":false,"rental_uris":{"android":"levelo://app?vid=6193b074-5ac2-48ec-901d-c6a58dee7e36","ios":"levelo://app?vid=6193b074-5ac2-48ec-901d-c6a58dee7e36"},"vehicle_type_id":"4","last_reported":1742300349,"current_range_meters":16400,"station_id":"ce4bgs92rcd13ifvqcc0","pricing_plan_id":"cebpf4jnsgd1na2vs0mg"},{"bike_id":"0d8be51d-5d60-4768-b79c-08d207c22ec7","system_id":"levelo_inurba_marseille","lat":43.25959,"lon":5.40895,"is_reserved":false,"is_disabled":false,"rental_uris":{"android":"levelo://app?vid=0d8be51d-5d60-4768-b79c-08d207c22ec7","ios":"levelo://app?vid=0d8be51d-5d60-4768-b79c-08d207c22ec7"},"vehicle_type_id":"4","last_reported":1742300349,"current_range_meters":16400,"station_id":"ce4bhm92rcd13ifvqglg","pricing_plan_id":"cebpf4jnsgd1na2vs0mg"},{"bike_id":"cf7fa0a0-e996-41fc-914f-2703e9b1ea77","system_id":"levelo_inurba_marseille","lat":43.30125,"lon":5.39857,"is_reserved":false,"is_disabled":false,"rental_uris":{"android":"levelo://app?vid=cf7fa0a0-e996-41fc-914f-2703e9b1ea77","ios":"levelo://app?vid=cf7fa0a0-e996-41fc-914f-2703e9b1ea77"},"vehicle_type_id":"4","last_reported":1742300349,"current_range_meters":16400,"station_id":"ce4bh0h2rcd13ifvqd40","pricing_plan_id":"cebpf4jnsgd1na2vs0mg"},{"bike_id":"f52a9808-de99-4214-b6d8-d8a401436e34","system_id":"levelo_inurba_marseille","lat":43.3129,"lon":5.39019,"is_reserved":false,"is_disabled":false,"rental_uris":{"android":"levelo://app?vid=f52a9808-de99-4214-b6d8-d8a401436e34","ios":"levelo://app?vid=f52a9808-de99-4214-b6d8-d8a401436e34"},"vehicle_type_id":"4","last_reported":1742300349,"current_range_meters":16400,"station_id":"","pricing_plan_id":"cebpf4jnsgd1na2vs0mg"},{"bike_id":"95f28da3-ba24-4f59-96a4-78e2d7cd063b","system_id":"levelo_inurba_marseille","lat":43.23142,"lon":5.43718,"is_reserved":false,"is_disabled":false,"rental_uris":{"android":"levelo://app?vid=95f28da3-ba24-4f59-96a4-78e2d7cd063b","ios":"levelo://app?vid=95f28da3-ba24-4f59-96a4-78e2d7cd063b"},"vehicle_type_id":"4","last_reported":1742300349,"current_range_meters":16400,"station_id":"ce4bhmp2rcd13ifvqgog","pricing_plan_id":"cebpf4jnsgd1na2vs0mg"},{"bike_id":"c4ab908c-6ae9-4ef1-9805-1daecd563f02","system_id":"levelo_inurba_marseille","lat":43.30285,"lon":5.37698,"is_reserved":false,"is_disabled":false,"rental_uris":{"android":"levelo://app?vid=c4ab908c-6ae9-4ef1-9805-1daecd563f02","ios":"levelo://app?vid=c4ab908c-6ae9-4ef1-9805-1daecd563f02"},"vehicle_type_id":"4","last_reported":1742300349,"current_range_meters":16400,"station_id":"ce4bguh2rcd13ifvqcj0","pricing_plan_id":"cebpf4jnsgd1na2vs0mg"},{"bike_id":"833409d1-884c-470a-adfc-946aa417a656","system_id":"levelo_inurba_marseille","lat":43.29263,"lon":5.40897,"is_reserved":false,"is_disabled":false,"rental_uris":{"android":"levelo://app?vid=833409d1-884c-470a-adfc-946aa417a656","ios":"levelo://app?vid=833409d1-884c-470a-adfc-946aa417a656"},"vehicle_type_id":"4","last_reported":1742300349,"current_range_meters":16400,"station_id":"ce4bh192rcd13ifvqdc0","pricing_plan_id":"cebpf4jnsgd1na2vs0mg"},{"bike_id":"6aa8a86f-2a82-489a-8f58-44b906300447","system_id":"levelo_inurba_marseille","lat":43.29062,"lon":5.37162,"is_reserved":false,"is_disabled":false,"rental_uris":{"android":"levelo://app?vid=6aa8a86f-2a82-489a-8f58-44b906300447","ios":"levelo://app?vid=6aa8a86f-2a82-489a-8f58-44b906300447"},"vehicle_type_id":"4","last_reported":1742300349,"current_range_meters":16400,"station_id":"ce4bh5p2rcd13ifvqe4g","pricing_plan_id":"cebpf4jnsgd1na2vs0mg"},{"bike_id":"eaa16f1d-1abb-46a5-88a7-4d9cc8058b7a","system_id":"levelo_inurba_marseille","lat":43.25026,"lon":5.38919,"is_reserved":false,"is_disabled":false,"rental_uris":{"android":"levelo://app?vid=eaa16f1d-1abb-46a5-88a7-4d9cc8058b7a","ios":"levelo://app?vid=eaa16f1d-1abb-46a5-88a7-4d9cc8058b7a"},"vehicle_type_id":"4","last_reported":1742300349,"current_range_meters":16800,"station_id":"ce4bhgp2rcd13ifvqfd0","pricing_plan_id":"cebpf4jnsgd1na2vs0mg"},{"bike_id":"5c2dd71e-6e1b-4cda-93ae-236e8761997f","system_id":"levelo_inurba_marseille","lat":43.29849,"lon":5.36292,"is_reserved":false,"is_disabled":false,"rental_uris":{"android":"levelo://app?vid=5c2dd71e-6e1b-4cda-93ae-236e8761997f","ios":"levelo://app?vid=5c2dd71e-6e1b-4cda-93ae-236e8761997f"},"vehicle_type_id":"4","last_reported":1742300349,"current_range_meters":16800,"station_id":"ce4bgpp2rcd13ifvqc3g","pricing_plan_id":"cebpf4jnsgd1na2vs0mg"},{"bike_id":"883b32dd-5060-41c4-aeea-e2267cfa2618","system_id":"levelo_inurba_marseille","lat":43.27991,"lon":5.41661,"is_reserved":false,"is_disabled":false,"rental_uris":{"android":"levelo://app?vid=883b32dd-5060-41c4-aeea-e2267cfa2618","ios":"levelo://app?vid=883b32dd-5060-41c4-aeea-e2267cfa2618"},"vehicle_type_id":"4","last_reported":1742300349,"current_range_meters":16800,"station_id":"ce4bho12rcd13ifvqh1g","pricing_plan_id":"cebpf4jnsgd1na2vs0mg"},{"bike_id":"d3b4e915-e2cf-4a99-bf03-be717c139f82","system_id":"levelo_inurba_marseille","lat":43.28479,"lon":5.38418,"is_reserved":false,"is_disabled":false,"rental_uris":{"android":"levelo://app?vid=d3b4e915-e2cf-4a99-bf03-be717c139f82","ios":"levelo://app?vid=d3b4e915-e2cf-4a99-bf03-be717c139f82"},"vehicle_type_id":"4","last_reported":1742300349,"current_range_meters":17200,"station_id":"ce4bh512rcd13ifvqe3g","pricing_plan_id":"cebpf4jnsgd1na2vs0mg"},{"bike_id":"8a6fbe8e-ac57-45a0-8a53-222d27d2ab4e","system_id":"levelo_inurba_marseille","lat":43.25708,"lon":5.41091,"is_reserved":false,"is_disabled":false,"rental_uris":{"android":"levelo://app?vid=8a6fbe8e-ac57-45a0-8a53-222d27d2ab4e","ios":"levelo://app?vid=8a6fbe8e-ac57-45a0-8a53-222d27d2ab4e"},"vehicle_type_id":"4","last_reported":1742300349,"current_range_meters":17200,"station_id":"ce4bhkp2rcd13ifvqgd0","pricing_plan_id":"cebpf4jnsgd1na2vs0mg"},{"bike_id":"3d4bbbd2-19e2-435f-863d-a66da5d0d13f","system_id":"levelo_inurba_marseille","lat":43.28749,"lon":5.39987,"is_reserved":false,"is_disabled":true,"rental_uris":{"android":"levelo://app?vid=3d4bbbd2-19e2-435f-863d-a66da5d0d13f","ios":"levelo://app?vid=3d4bbbd2-19e2-435f-863d-a66da5d0d13f"},"vehicle_type_id":"4","last_reported":1742300349,"current_range_meters":17200,"station_id":"ce4bho92rcd13ifvqh3g","pricing_plan_id":"cebpf4jnsgd1na2vs0mg"},{"bike_id":"cdc31855-95b1-4572-8859-865a0c0436a4","system_id":"levelo_inurba_marseille","lat":43.29365,"lon":5.37832,"is_reserved":false,"is_disabled":false,"rental_uris":{"android":"levelo://app?vid=cdc31855-95b1-4572-8859-865a0c0436a4","ios":"levelo://app?vid=cdc31855-95b1-4572-8859-865a0c0436a4"},"vehicle_type_id":"4","last_reported":1742300349,"current_range_meters":17200,"station_id":"ce4bgjh2rcd13ifvqbf0","pricing_plan_id":"cebpf4jnsgd1na2vs0mg"},{"bike_id":"9ad1e64e-470c-4753-b1b4-aadcddcf9940","system_id":"levelo_inurba_marseille","lat":43.28485,"lon":5.38525,"is_reserved":false,"is_disabled":false,"rental_uris":{"android":"levelo://app?vid=9ad1e64e-470c-4753-b1b4-aadcddcf9940","ios":"levelo://app?vid=9ad1e64e-470c-4753-b1b4-aadcddcf9940"},"vehicle_type_id":"4","last_reported":1742300349,"current_range_meters":17200,"station_id":"ce4bh8p2rcd13ifvqeb0","pricing_plan_id":"cebpf4jnsgd1na2vs0mg"},{"bike_id":"0facce62-ec8a-411a-a1e6-5d69c47fc333","system_id":"levelo_inurba_marseille","lat":43.30472,"lon":5.36731,"is_reserved":false,"is_disabled":false,"rental_uris":{"android":"levelo://app?vid=0facce62-ec8a-411a-a1e6-5d69c47fc333","ios":"levelo://app?vid=0facce62-ec8a-411a-a1e6-5d69c47fc333"},"vehicle_type_id":"4","last_reported":1742300349,"current_range_meters":17200,"station_id":"","pricing_plan_id":"cebpf4jnsgd1na2vs0mg"},{"bike_id":"c2d5a123-d09a-4b21-a2ef-a198ad54bfc2","system_id":"levelo_inurba_marseille","lat":43.23058,"lon":5.35497,"is_reserved":false,"is_disabled":false,"rental_uris":{"android":"levelo://app?vid=c2d5a123-d09a-4b21-a2ef-a198ad54bfc2","ios":"levelo://app?vid=c2d5a123-d09a-4b21-a2ef-a198ad54bfc2"},"vehicle_type_id":"4","last_reported":1742300349,"current_range_meters":17600,"station_id":"cpo3342slgdg3j2ifvpg","pricing_plan_id":"cebpf4jnsgd1na2vs0mg"},{"bike_id":"8faa2f0a-2b62-4c8b-bcaa-80196f91f044","system_id":"levelo_inurba_marseille","lat":43.26559,"lon":5.37282,"is_reserved":false,"is_disabled":false,"rental_uris":{"android":"levelo://app?vid=8faa2f0a-2b62-4c8b-bcaa-80196f91f044","ios":"levelo://app?vid=8faa2f0a-2b62-4c8b-bcaa-80196f91f044"},"vehicle_type_id":"4","last_reported":1742300349,"current_range_meters":17600,"station_id":"ce4bhg12rcd13ifvqf70","pricing_plan_id":"cebpf4jnsgd1na2vs0mg"},{"bike_id":"b0d2fd39-c5b7-4eb0-bbb9-af7d841ce0e3","system_id":"levelo_inurba_marseille","lat":43.24153,"lon":5.36417,"is_reserved":false,"is_disabled":true,"rental_uris":{"android":"levelo://app?vid=b0d2fd39-c5b7-4eb0-bbb9-af7d841ce0e3","ios":"levelo://app?vid=b0d2fd39-c5b7-4eb0-bbb9-af7d841ce0e3"},"vehicle_type_id":"4","last_reported":1742300349,"current_range_meters":17600,"station_id":"cpo36qri1sfpv3e86is0","pricing_plan_id":"cebpf4jnsgd1na2vs0mg"},{"bike_id":"22c4663a-4492-4623-9402-2dfb2586b472","system_id":"levelo_inurba_marseille","lat":43.3248,"lon":5.36563,"is_reserved":false,"is_disabled":false,"rental_uris":{"android":"levelo://app?vid=22c4663a-4492-4623-9402-2dfb2586b472","ios":"levelo://app?vid=22c4663a-4492-4623-9402-2dfb2586b472"},"vehicle_type_id":"4","last_reported":1742300349,"current_range_meters":17600,"station_id":"ce4bhs12rcd13ifvqhvg","pricing_plan_id":"cebpf4jnsgd1na2vs0mg"},{"bike_id":"948d306b-42e0-4ba6-93a8-a10bb3eef8e3","system_id":"levelo_inurba_marseille","lat":43.26218,"lon":5.40433,"is_reserved":false,"is_disabled":false,"rental_uris":{"android":"levelo://app?vid=948d306b-42e0-4ba6-93a8-a10bb3eef8e3","ios":"levelo://app?vid=948d306b-42e0-4ba6-93a8-a10bb3eef8e3"},"vehicle_type_id":"4","last_reported":1742300349,"current_range_meters":17600,"station_id":"ce4bhmh2rcd13ifvqgmg","pricing_plan_id":"cebpf4jnsgd1na2vs0mg"},{"bike_id":"60d20fee-7f26-4eac-ad3c-ff621442f8dc","system_id":"levelo_inurba_marseille","lat":43.29932,"lon":5.36516,"is_reserved":false,"is_disabled":false,"rental_uris":{"android":"levelo://app?vid=60d20fee-7f26-4eac-ad3c-ff621442f8dc","ios":"levelo://app?vid=60d20fee-7f26-4eac-ad3c-ff621442f8dc"},"vehicle_type_id":"4","last_reported":1742300349,"current_range_meters":17600,"station_id":"ce4bgm92rcd13ifvqbr0","pricing_plan_id":"cebpf4jnsgd1na2vs0mg"},{"bike_id":"fd0177d0-7683-42e9-883f-4147c78013d3","system_id":"levelo_inurba_marseille","lat":43.2466,"lon":5.38164,"is_reserved":false,"is_disabled":false,"rental_uris":{"android":"levelo://app?vid=fd0177d0-7683-42e9-883f-4147c78013d3","ios":"levelo://app?vid=fd0177d0-7683-42e9-883f-4147c78013d3"},"vehicle_type_id":"4","last_reported":1742300349,"current_range_meters":17600,"station_id":"ce4bhih2rcd13ifvqfr0","pricing_plan_id":"cebpf4jnsgd1na2vs0mg"},{"bike_id":"8f94eeb8-6fb8-48ae-bbbd-5f92d4e24c30","system_id":"levelo_inurba_marseille","lat":43.28344,"lon":5.38108,"is_reserved":false,"is_disabled":false,"rental_uris":{"android":"levelo://app?vid=8f94eeb8-6fb8-48ae-bbbd-5f92d4e24c30","ios":"levelo://app?vid=8f94eeb8-6fb8-48ae-bbbd-5f92d4e24c30"},"vehicle_type_id":"4","last_reported":1742300349,"current_range_meters":17600,"station_id":"ce4bh412rcd13ifvqdr0","pricing_plan_id":"cebpf4jnsgd1na2vs0mg"},{"bike_id":"4f47c2d8-553d-484c-b4f4-e20fe45b6bbb","system_id":"levelo_inurba_marseille","lat":43.30887,"lon":5.37199,"is_reserved":false,"is_disabled":false,"rental_uris":{"android":"levelo://app?vid=4f47c2d8-553d-484c-b4f4-e20fe45b6bbb","ios":"levelo://app?vid=4f47c2d8-553d-484c-b4f4-e20fe45b6bbb"},"vehicle_type_id":"4","last_reported":1742300349,"current_range_meters":17600,"station_id":"ce4bguh2rcd13ifvqckg","pricing_plan_id":"cebpf4jnsgd1na2vs0mg"},{"bike_id":"82cf34fb-e34b-473e-9eb3-04a5c1221312","system_id":"levelo_inurba_marseille","lat":43.29527,"lon":5.36484,"is_reserved":false,"is_disabled":true,"rental_uris":{"android":"levelo://app?vid=82cf34fb-e34b-473e-9eb3-04a5c1221312","ios":"levelo://app?vid=82cf34fb-e34b-473e-9eb3-04a5c1221312"},"vehicle_type_id":"4","last_reported":1742300349,"current_range_meters":17600,"station_id":"","pricing_plan_id":"cebpf4jnsgd1na2vs0mg"},{"bike_id":"657f02ee-924a-4457-aed4-e5f276ab3884","system_id":"levelo_inurba_marseille","lat":43.23152,"lon":5.4371,"is_reserved":false,"is_disabled":false,"rental_uris":{"android":"levelo://app?vid=657f02ee-924a-4457-aed4-e5f276ab3884","ios":"levelo://app?vid=657f02ee-924a-4457-aed4-e5f276ab3884"},