{"last_updated":1768321092,"ttl":60,"version":"2.2","data":{"bikes":[{"bike_id":"8c7c9205-f6b0-41ca-9e68-58ed9eb10a0e","system_id":"levelo_inurba_marseille","lat":43.244679,"lon":5.425382,"is_reserved":false,"is_disabled":false,"rental_uris":{"android":"levelo://app?vid=8c7c9205-f6b0-41ca-9e68-58ed9eb10a0e","ios":"levelo://app?vid=8c7c9205-f6b0-41ca-9e68-58ed9eb10a0e"},"vehicle_type_id":"4","last_reported":1768321092,"current_range_meters":2800,"station_id":"st_d4a3vfp97mjs738cd8kg","pricing_plan_id":"cebpf4jnsgd1na2vs0mg"},{"bike_id":"16c0a840-73e1-4ae0-9a77-5a3261744e51","system_id":"levelo_inurba_marseille","lat":43.2693,"lon":5.40255,"is_reserved":false,"is_disabled":false,"rental_uris":{"android":"levelo://app?vid=16c0a840-73e1-4ae0-9a77-5a3261744e51","ios":"levelo://app?vid=16c0a840-73e1-4ae0-9a77-5a3261744e51"},"vehicle_type_id":"4","last_reported":1768321092,"current_range_meters":2800,"station_id":"cjm6bp8fraef2m0cb0m0","pricing_plan_id":"cebpf4jnsgd1na2vs0mg"},{"bike_id":"64d5976f-8dcc-4221-b8a1-159649fd0eb6","system_id":"levelo_inurba_marseille","lat":43.23957,"lon":5.36629,"is_reserved":false,"is_disabled":false,"rental_uris":{"android":"levelo://app?vid=64d5976f-8dcc-4221-b8a1-159649fd0eb6","ios":"levelo://app?vid=64d5976f-8dcc-4221-b8a1-159649fd0eb6"},"vehicle_type_id":"4","last_reported":1768321092,"current_range_meters":2800,"station_id":"ce4bhi12rcd13ifvqfp0","pricing_plan_id":"cebpf4jnsgd1na2vs0mg"},{"bike_id":"952ac753-0b2d-4eac-a986-0b52c2b0b206","system_id":"levelo_inurba_marseille","lat":43.31878,"lon":5.4001,"is_reserved":false,"is_disabled":false,"rental_uris":{"android":"levelo://app?vid=952ac753-0b2d-4eac-a986-0b52c2b0b206","ios":"levelo://app?vid=952ac753-0b2d-4eac-a986-0b52c2b0b206"},"vehicle_type_id":"4","last_reported":1768321092,"current_range_meters":2800,"station_id":"","pricing_plan_id":"cebpf4jnsgd1na2vs0mg"},{"bike_id":"fb9f796c-fb12-45e2-b876-3e3a9fa6352d","system_id":"levelo_inurba_marseille","lat":43.27995,"lon":5.41669,"is_reserved":false,"is_disabled":false,"rental_uris":{"android":"levelo://app?vid=fb9f796c-fb12-45e2-b876-3e3a9fa6352d","ios":"levelo://app?vid=fb9f796c-fb12-45e2-b876-3e3a9fa6352d"},"vehicle_type_id":"4","last_reported":1768321092,"current_range_meters":2800,"station_id":"ce4bho12rcd13ifvqh1g","pricing_plan_id":"cebpf4jnsgd1na2vs0mg"},{"bike_id":"3e6e857e-44a4-43cb-b7bd-1bdbecc8bb0c","system_id":"levelo_inurba_marseille","lat":43.3017,"lon":5.37114,"is_reserved":false,"is_disabled":false,"rental_uris":{"android":"levelo://app?vid=3e6e857e-44a4-43cb-b7bd-1bdbecc8bb0c","ios":"levelo://app?vid=3e6e857e-44a4-43cb-b7bd-1bdbecc8bb0c"},"vehicle_type_id":"4","last_reported":1768321092,"current_range_meters":3200,"station_id":"","pricing_plan_id":"cebpf4jnsgd1na2vs0mg"},{"bike_id":"017368ae-a8ef-4ad6-bc9a-d16935d6312f","system_id":"levelo_inurba_marseille","lat":43.23525,"lon":5.35949,"is_reserved":false,"is_disabled":false,"rental_uris":{"android":"levelo://app?vid=017368ae-a8ef-4ad6-bc9a-d16935d6312f","ios":"levelo://app?vid=017368ae-a8ef-4ad6-bc9a-d16935d6312f"},"vehicle_type_id":"4","last_reported":1768321092,"current_range_meters":3200,"station_id":"","pricing_plan_id":"cebpf4jnsgd1na2vs0mg"},{"bike_id":"232ad3be-6df5-405a-a3b4-07ee6a984dfb","system_id":"levelo_inurba_marseille","lat":43.32903,"lon":5.38952,"is_reserved":false,"is_disabled":false,"rental_uris":{"android":"levelo://app?vid=232ad3be-6df5-405a-a3b4-07ee6a984dfb","ios":"levelo://app?vid=232ad3be-6df5-405a-a3b4-07ee6a984dfb"},"vehicle_type_id":"4","last_reported":1768321092,"current_range_meters":3200,"station_id":"","pricing_plan_id":"cebpf4jnsgd1na2vs0mg"},{"bike_id":"4470ee29-c1d9-4cd5-b86f-e144152a5653","system_id":"levelo_inurba_marseille","lat":43.2821,"lon":5.40373,"is_reserved":false,"is_disabled":false,"rental_uris":{"android":"levelo://app?vid=4470ee29-c1d9-4cd5-b86f-e144152a5653","ios":"levelo://app?vid=4470ee29-c1d9-4cd5-b86f-e144152a5653"},"vehicle_type_id":"4","last_reported":1768321092,"current_range_meters":3200,"station_id":"","pricing_plan_id":"cebpf4jnsgd1na2vs0mg"},{"bike_id":"3ae0c06d-a2ab-49c7-b39f-1a85ce1aa14c","system_id":"levelo_inurba_marseille","lat":43.28869,"lon":5.42519,"is_reserved":false,"is_disabled":false,"rental_uris":{"android":"levelo://app?vid=3ae0c06d-a2ab-49c7-b39f-1a85ce1aa14c","ios":"levelo://app?vid=3ae0c06d-a2ab-49c7-b39f-1a85ce1aa14c"},"vehicle_type_id":"4","last_reported":1768321092,"current_range_meters":3200,"station_id":"st_d3b462108ojc7389ooeg","pricing_plan_id":"cebpf4jnsgd1na2vs0mg"},{"bike_id":"ab90bc63-6269-4067-995e-23baa0f14cab","system_id":"levelo_inurba_marseille","lat":43.26945,"lon":5.3891,"is_reserved":false,"is_disabled":false,"rental_uris":{"android":"levelo://app?vid=ab90bc63-6269-4067-995e-23baa0f14cab","ios":"levelo://app?vid=ab90bc63-6269-4067-995e-23baa0f14cab"},"vehicle_type_id":"4","last_reported":1768321092,"current_range_meters":3200,"station_id":"ce4bhhh2rcd13ifvqfl0","pricing_plan_id":"cebpf4jnsgd1na2vs0mg"},{"bike_id":"f3b72a5b-c8af-4d34-b042-e867b98cb10e","system_id":"levelo_inurba_marseille","lat":43.30248,"lon":5.40052,"is_reserved":false,"is_disabled":false,"rental_uris":{"android":"levelo://app?vid=f3b72a5b-c8af-4d34-b042-e867b98cb10e","ios":"levelo://app?vid=f3b72a5b-c8af-4d34-b042-e867b98cb10e"},"vehicle_type_id":"4","last_reported":1768321092,"current_range_meters":3600,"station_id":"ce4bgvh2rcd13ifvqcs0","pricing_plan_id":"cebpf4jnsgd1na2vs0mg"},{"bike_id":"4ccf5df6-38fa-46c4-ae58-5671706983df","system_id":"levelo_inurba_marseille","lat":43.32345,"lon":5.36745,"is_reserved":false,"is_disabled":false,"rental_uris":{"android":"levelo://app?vid=4ccf5df6-38fa-46c4-ae58-5671706983df","ios":"levelo://app?vid=4ccf5df6-38fa-46c4-ae58-5671706983df"},"vehicle_type_id":"4","last_reported":1768321092,"current_range_meters":3600,"station_id":"ce4bhsh2rcd13ifvqi2g","pricing_plan_id":"cebpf4jnsgd1na2vs0mg"},{"bike_id":"e64de5c8-c429-4d9e-853a-793e735e5e70","system_id":"levelo_inurba_marseille","lat":43.29962,"lon":5.41318,"is_reserved":false,"is_disabled":false,"rental_uris":{"android":"levelo://app?vid=e64de5c8-c429-4d9e-853a-793e735e5e70","ios":"levelo://app?vid=e64de5c8-c429-4d9e-853a-793e735e5e70"},"vehicle_type_id":"4","last_reported":1768321092,"current_range_meters":3600,"station_id":"ce4bhp12rcd13ifvqh9g","pricing_plan_id":"cebpf4jnsgd1na2vs0mg"},{"bike_id":"d5bf3822-caa6-4b4f-906f-27b56cfded39","system_id":"levelo_inurba_marseille","lat":43.30552,"lon":5.36533,"is_reserved":false,"is_disabled":false,"rental_uris":{"android":"levelo://app?vid=d5bf3822-caa6-4b4f-906f-27b56cfded39","ios":"levelo://app?vid=d5bf3822-caa6-4b4f-906f-27b56cfded39"},"vehicle_type_id":"4","last_reported":1768321092,"current_range_meters":3600,"station_id":"ce4bgs12rcd13ifvqcag","pricing_plan_id":"cebpf4jnsgd1na2vs0mg"},{"bike_id":"57011a74-0c32-42bc-9899-fdfd84c9d05c","system_id":"levelo_inurba_marseille","lat":43.2481,"lon":5.3746,"is_reserved":false,"is_disabled":false,"rental_uris":{"android":"levelo://app?vid=57011a74-0c32-42bc-9899-fdfd84c9d05c","ios":"levelo://app?vid=57011a74-0c32-42bc-9899-fdfd84c9d05c"},"vehicle_type_id":"4","last_reported":1768321092,"current_range_meters":3600,"station_id":"ce4bhgh2rcd13ifvqfb0","pricing_plan_id":"cebpf4jnsgd1na2vs0mg"},{"bike_id":"381233c1-a392-4ce7-a7bc-4c8d28384db0","system_id":"levelo_inurba_marseille","lat":43.28944,"lon":5.36637,"is_reserved":false,"is_disabled":false,"rental_uris":{"android":"levelo://app?vid=381233c1-a392-4ce7-a7bc-4c8d28384db0","ios":"levelo://app?vid=381233c1-a392-4ce7-a7bc-4c8d28384db0"},"vehicle_type_id":"4","last_reported":1768321092,"current_range_meters":3600,"station_id":"ce4bhap2rcd13ifvqek0","pricing_plan_id":"cebpf4jnsgd1na2vs0mg"},{"bike_id":"84daa672-7c6b-4b19-8751-cae0d8f3d012","system_id":"levelo_inurba_marseille","lat":43.28972,"lon":5.37835,"is_reserved":false,"is_disabled":false,"rental_uris":{"android":"levelo://app?vid=84daa672-7c6b-4b19-8751-cae0d8f3d012","ios":"levelo://app?vid=84daa672-7c6b-4b19-8751-cae0d8f3d012"},"vehicle_type_id":"4","last_reported":1768321092,"current_range_meters":3600,"station_id":"ce4bh9p2rcd13ifvqed0","pricing_plan_id":"cebpf4jnsgd1na2vs0mg"},{"bike_id":"2dad8955-6910-4131-8def-de70399b7eb8","system_id":"levelo_inurba_marseille","lat":43.29972,"lon":5.37333,"is_reserved":false,"is_disabled":false,"rental_uris":{"android":"levelo://app?vid=2dad8955-6910-4131-8def-de70399b7eb8","ios":"levelo://app?vid=2dad8955-6910-4131-8def-de70399b7eb8"},"vehicle_type_id":"4","last_reported":1768321092,"current_range_meters":3600,"station_id":"","pricing_plan_id":"cebpf4jnsgd1na2vs0mg"},{"bike_id":"19cf4836-8dc0-4d4b-a30b-cc7133de4342","system_id":"levelo_inurba_marseille","lat":43.260632,"lon":5.393942,"is_reserved":false,"is_disabled":false,"rental_uris":{"android":"levelo://app?vid=19cf4836-8dc0-4d4b-a30b-cc7133de4342","ios":"levelo://app?vid=19cf4836-8dc0-4d4b-a30b-cc7133de4342"},"vehicle_type_id":"4","last_reported":1768321092,"current_range_meters":3600,"station_id":"ce4bhh92rcd13ifvqfj0","pricing_plan_id":"cebpf4jnsgd1na2vs0mg"},{"bike_id":"9c423030-6e98-4809-93ab-a8809140de01","system_id":"levelo_inurba_marseille","lat":43.29627,"lon":5.37702,"is_reserved":false,"is_disabled":false,"rental_uris":{"android":"levelo://app?vid=9c423030-6e98-4809-93ab-a8809140de01","ios":"levelo://app?vid=9c423030-6e98-4809-93ab-a8809140de01"},"vehicle_type_id":"4","last_reported":1768321092,"current_range_meters":3600,"station_id":"ce4bgi92rcd13ifvqb90","pricing_plan_id":"cebpf4jnsgd1na2vs0mg"},{"bike_id":"8a669674-ed91-4f5f-b611-d4a9f2abae3d","system_id":"levelo_inurba_marseille","lat":43.262015,"lon":5.37446,"is_reserved":false,"is_disabled":false,"rental_uris":{"android":"levelo://app?vid=8a669674-ed91-4f5f-b611-d4a9f2abae3d","ios":"levelo://app?vid=8a669674-ed91-4f5f-b611-d4a9f2abae3d"},"vehicle_type_id":"4","last_reported":1768321092,"current_range_meters":3600,"station_id":"ce4bhgp2rcd13ifvqfc0","pricing_plan_id":"cebpf4jnsgd1na2vs0mg"},{"bike_id":"78b5fcef-eb69-4bb9-b995-d031358bd549","system_id":"levelo_inurba_marseille","lat":43.31515,"lon":5.41411,"is_reserved":false,"is_disabled":false,"rental_uris":{"android":"levelo://app?vid=78b5fcef-eb69-4bb9-b995-d031358bd549","ios":"levelo://app?vid=78b5fcef-eb69-4bb9-b995-d031358bd549"},"vehicle_type_id":"4","last_reported":1768321092,"current_range_meters":3600,"station_id":"","pricing_plan_id":"cebpf4jnsgd1na2vs0mg"},{"bike_id":"91f830b5-135b-4e75-8a53-49de6ef86e8b","system_id":"levelo_inurba_marseille","lat":43.309352,"lon":5.39026,"is_reserved":false,"is_disabled":false,"rental_uris":{"android":"levelo://app?vid=91f830b5-135b-4e75-8a53-49de6ef86e8b","ios":"levelo://app?vid=91f830b5-135b-4e75-8a53-49de6ef86e8b"},"vehicle_type_id":"4","last_reported":1768321092,"current_range_meters":4000,"station_id":"","pricing_plan_id":"cebpf4jnsgd1na2vs0mg"},{"bike_id":"90374415-cbc3-4952-a2cb-bda17d2a3e8f","system_id":"levelo_inurba_marseille","lat":43.31329,"lon":5.38424,"is_reserved":false,"is_disabled":false,"rental_uris":{"android":"levelo://app?vid=90374415-cbc3-4952-a2cb-bda17d2a3e8f","ios":"levelo://app?vid=90374415-cbc3-4952-a2cb-bda17d2a3e8f"},"vehicle_type_id":"4","last_reported":1768321092,"current_range_meters":4000,"station_id":"","pricing_plan_id":"cebpf4jnsgd1na2vs0mg"},{"bike_id":"82b87168-267f-432c-a609-70f7b40ac901","system_id":"levelo_inurba_marseille","lat":43.27945,"lon":5.41031,"is_reserved":false,"is_disabled":false,"rental_uris":{"android":"levelo://app?vid=82b87168-267f-432c-a609-70f7b40ac901","ios":"levelo://app?vid=82b87168-267f-432c-a609-70f7b40ac901"},"vehicle_type_id":"4","last_reported":1768321092,"current_range_meters":4000,"station_id":"","pricing_plan_id":"cebpf4jnsgd1na2vs0mg"},{"bike_id":"93beefeb-bae2-44e6-b1e7-4e0bc7c2456a","system_id":"levelo_inurba_marseille","lat":43.27602,"lon":5.3612,"is_reserved":false,"is_disabled":false,"rental_uris":{"android":"levelo://app?vid=93beefeb-bae2-44e6-b1e7-4e0bc7c2456a","ios":"levelo://app?vid=93beefeb-bae2-44e6-b1e7-4e0bc7c2456a"},"vehicle_type_id":"4","last_reported":1768321092,"current_range_meters":4000,"station_id":"ce4bgj92rcd13ifvqbe0","pricing_plan_id":"cebpf4jnsgd1na2vs0mg"},{"bike_id":"5cd0348c-c053-42c0-b52c-0fd30637dd40","system_id":"levelo_inurba_marseille","lat":43.29898,"lon":5.37797,"is_reserved":false,"is_disabled":false,"rental_uris":{"android":"levelo://app?vid=5cd0348c-c053-42c0-b52c-0fd30637dd40","ios":"levelo://app?vid=5cd0348c-c053-42c0-b52c-0fd30637dd40"},"vehicle_type_id":"4","last_reported":1768321092,"current_range_meters":4000,"station_id":"","pricing_plan_id":"cebpf4jnsgd1na2vs0mg"},{"bike_id":"24fc37fd-357c-4a91-9e14-c0484892cf8d","system_id":"levelo_inurba_marseille","lat":43.29928,"lon":5.40909,"is_reserved":false,"is_disabled":false,"rental_uris":{"android":"levelo://app?vid=24fc37fd-357c-4a91-9e14-c0484892cf8d","ios":"levelo://app?vid=24fc37fd-357c-4a91-9e14-c0484892cf8d"},"vehicle_type_id":"4","last_reported":1768321092,"current_range_meters":4000,"station_id":"","pricing_plan_id":"cebpf4jnsgd1na2vs0mg"},{"bike_id":"a95f51b4-f0ea-4753-9f15-e2c2ed48d66b","system_id":"levelo_inurba_marseille","lat":43.28552,"lon":5.44078,"is_reserved":false,"is_disabled":false,"rental_uris":{"android":"levelo://app?vid=a95f51b4-f0ea-4753-9f15-e2c2ed48d66b","ios":"levelo://app?vid=a95f51b4-f0ea-4753-9f15-e2c2ed48d66b"},"vehicle_type_id":"4","last_reported":1768321092,"current_range_meters":4000,"station_id":"st_d3j3df2ikq2c7380ej80","pricing_plan_id":"cebpf4jnsgd1na2vs0mg"},{"bike_id":"c09699c4-36dc-4c20-b8d2-b0787f1c0dba","system_id":"levelo_inurba_marseille","lat":43.30628,"lon":5.40077,"is_reserved":false,"is_disabled":false,"rental_uris":{"android":"levelo://app?vid=c09699c4-36dc-4c20-b8d2-b0787f1c0dba","ios":"levelo://app?vid=c09699c4-36dc-4c20-b8d2-b0787f1c0dba"},"vehicle_type_id":"4","last_reported":1768321092,"current_range_meters":4000,"station_id":"ce4bh112rcd13ifvqda0","pricing_plan_id":"cebpf4jnsgd1na2vs0mg"},{"bike_id":"01945cdd-0088-40c1-b968-9fbb65d75a3a","system_id":"levelo_inurba_marseille","lat":43.32102,"lon":5.36793,"is_reserved":false,"is_disabled":false,"rental_uris":{"android":"levelo://app?vid=01945cdd-0088-40c1-b968-9fbb65d75a3a","ios":"levelo://app?vid=01945cdd-0088-40c1-b968-9fbb65d75a3a"},"vehicle_type_id":"4","last_reported":1768321092,"current_range_meters":4000,"station_id":"ce4bhrh2rcd13ifvqhug","pricing_plan_id":"cebpf4jnsgd1na2vs0mg"},{"bike_id":"053203c3-b50f-44b4-9df5-2a6af082b9e9","system_id":"levelo_inurba_marseille","lat":43.24639,"lon":5.43118,"is_reserved":false,"is_disabled":false,"rental_uris":{"android":"levelo://app?vid=053203c3-b50f-44b4-9df5-2a6af082b9e9","ios":"levelo://app?vid=053203c3-b50f-44b4-9df5-2a6af082b9e9"},"vehicle_type_id":"4","last_reported":1768321092,"current_range_meters":4000,"station_id":"st_d2m6c4gdas8pm72e190g","pricing_plan_id":"cebpf4jnsgd1na2vs0mg"},{"bike_id":"e63df9e0-af8f-4554-a6e1-61250e5af1c1","system_id":"levelo_inurba_marseille","lat":43.23178,"lon":5.40032,"is_reserved":false,"is_disabled":false,"rental_uris":{"android":"levelo://app?vid=e63df9e0-af8f-4554-a6e1-61250e5af1c1","ios":"levelo://app?vid=e63df9e0-af8f-4554-a6e1-61250e5af1c1"},"vehicle_type_id":"4","last_reported":1768321092,"current_range_meters":4000,"station_id":"ce4bhn12rcd13ifvqgqg","pricing_plan_id":"cebpf4jnsgd1na2vs0mg"},{"bike_id":"3230873c-fc31-45b7-9508-aee7786321e1","system_id":"levelo_inurba_marseille","lat":43.32685,"lon":5.39556,"is_reserved":false,"is_disabled":false,"rental_uris":{"android":"levelo://app?vid=3230873c-fc31-45b7-9508-aee7786321e1","ios":"levelo://app?vid=3230873c-fc31-45b7-9508-aee7786321e1"},"vehicle_type_id":"4","last_reported":1768321092,"current_range_meters":4000,"station_id":"","pricing_plan_id":"cebpf4jnsgd1na2vs0mg"},{"bike_id":"d822d21f-2a31-408a-b00b-b3387695630b","system_id":"levelo_inurba_marseille","lat":43.21194,"lon":5.35077,"is_reserved":false,"is_disabled":false,"rental_uris":{"android":"levelo://app?vid=d822d21f-2a31-408a-b00b-b3387695630b","ios":"levelo://app?vid=d822d21f-2a31-408a-b00b-b3387695630b"},"vehicle_type_id":"4","last_reported":1768321092,"current_range_meters":4000,"station_id":"st_cvj6sg6p6f1abm77japg","pricing_plan_id":"cebpf4jnsgd1na2vs0mg"},{"bike_id":"01a7ee90-aa38-4595-9821-dc1953f186ec","system_id":"levelo_inurba_marseille","lat":43.31076,"lon":5.38358,"is_reserved":false,"is_disabled":false,"rental_uris":{"android":"levelo://app?vid=01a7ee90-aa38-4595-9821-dc1953f186ec","ios":"levelo://app?vid=01a7ee90-aa38-4595-9821-dc1953f186ec"},"vehicle_type_id":"4","last_reported":1768321092,"current_range_meters":4000,"station_id":"ce4bgv92rcd13ifvqcr0","pricing_plan_id":"cebpf4jnsgd1na2vs0mg"},{"bike_id":"93420a80-8e35-472b-9a22-41b99ae8b801","system_id":"levelo_inurba_marseille","lat":43.2417,"lon":5.36399,"is_reserved":false,"is_disabled":false,"rental_uris":{"android":"levelo://app?vid=93420a80-8e35-472b-9a22-41b99ae8b801","ios":"levelo://app?vid=93420a80-8e35-472b-9a22-41b99ae8b801"},"vehicle_type_id":"4","last_reported":1768321092,"current_range_meters":4400,"station_id":"cpo36qri1sfpv3e86is0","pricing_plan_id":"cebpf4jnsgd1na2vs0mg"},{"bike_id":"0ca727f1-22a9-4d29-b4b0-403b274e760f","system_id":"levelo_inurba_marseille","lat":43.2954,"lon":5.3854,"is_reserved":false,"is_disabled":false,"rental_uris":{"android":"levelo://app?vid=0ca727f1-22a9-4d29-b4b0-403b274e760f","ios":"levelo://app?vid=0ca727f1-22a9-4d29-b4b0-403b274e760f"},"vehicle_type_id":"4","last_reported":1768321092,"current_range_meters":4400,"station_id":"ce4bgih2rcd13ifvqba0","pricing_plan_id":"cebpf4jnsgd1na2vs0mg"},{"bike_id":"348a7616-c475-4feb-93b6-e7e3eba9b2e9","system_id":"levelo_inurba_marseille","lat":43.24984,"lon":5.38937,"is_reserved":false,"is_disabled":false,"rental_uris":{"android":"levelo://app?vid=348a7616-c475-4feb-93b6-e7e3eba9b2e9","ios":"levelo://app?vid=348a7616-c475-4feb-93b6-e7e3eba9b2e9"},"vehicle_type_id":"4","last_reported":1768321092,"current_range_meters":4400,"station_id":"ce4bhgp2rcd13ifvqfd0","pricing_plan_id":"cebpf4jnsgd1na2vs0mg"},{"bike_id":"533cb83c-e8dd-42bc-9375-30430a43b393","system_id":"levelo_inurba_marseille","lat":43.25511,"lon":5.37655,"is_reserved":false,"is_disabled":false,"rental_uris":{"android":"levelo://app?vid=533cb83c-e8dd-42bc-9375-30430a43b393","ios":"levelo://app?vid=533cb83c-e8dd-42bc-9375-30430a43b393"},"vehicle_type_id":"4","last_reported":1768321092,"current_range_meters":4400,"station_id":"ce4bhh12rcd13ifvqff0","pricing_plan_id":"cebpf4jnsgd1na2vs0mg"},{"bike_id":"829b4dfc-f5b2-4ad0-a42d-896237842994","system_id":"levelo_inurba_marseille","lat":43.28483,"lon":5.483961,"is_reserved":false,"is_disabled":false,"rental_uris":{"android":"levelo://app?vid=829b4dfc-f5b2-4ad0-a42d-896237842994","ios":"levelo://app?vid=829b4dfc-f5b2-4ad0-a42d-896237842994"},"vehicle_type_id":"4","last_reported":1768321092,"current_range_meters":4400,"station_id":"","pricing_plan_id":"cebpf4jnsgd1na2vs0mg"},{"bike_id":"b3365a79-4e93-4ced-801f-9c3754c77da0","system_id":"levelo_inurba_marseille","lat":43.24387,"lon":5.37084,"is_reserved":false,"is_disabled":false,"rental_uris":{"android":"levelo://app?vid=b3365a79-4e93-4ced-801f-9c3754c77da0","ios":"levelo://app?vid=b3365a79-4e93-4ced-801f-9c3754c77da0"},"vehicle_type_id":"4","last_reported":1768321092,"current_range_meters":4400,"station_id":"ce4bhhh2rcd13ifvqfk0","pricing_plan_id":"cebpf4jnsgd1na2vs0mg"},{"bike_id":"50d6cb25-e8c5-49dd-88b4-e56e19cdc111","system_id":"levelo_inurba_marseille","lat":43.29035,"lon":5.37042,"is_reserved":false,"is_disabled":false,"rental_uris":{"android":"levelo://app?vid=50d6cb25-e8c5-49dd-88b4-e56e19cdc111","ios":"levelo://app?vid=50d6cb25-e8c5-49dd-88b4-e56e19cdc111"},"vehicle_type_id":"4","last_reported":1768321092,"current_range_meters":4400,"station_id":"","pricing_plan_id":"cebpf4jnsgd1na2vs0mg"},{"bike_id":"140c73a9-177d-4aa4-92eb-d1f4e5c80096","system_id":"levelo_inurba_marseille","lat":43.28159,"lon":5.42645,"is_reserved":false,"is_disabled":false,"rental_uris":{"android":"levelo://app?vid=140c73a9-177d-4aa4-92eb-d1f4e5c80096","ios":"levelo://app?vid=140c73a9-177d-4aa4-92eb-d1f4e5c80096"},"vehicle_type_id":"4","last_reported":1768321092,"current_range_meters":4400,"station_id":"ce4bhnh2rcd13ifvqgug","pricing_plan_id":"cebpf4jnsgd1na2vs0mg"},{"bike_id":"4c099c20-24a7-4376-8b7d-d395a98fe50e","system_id":"levelo_inurba_marseille","lat":43.30148,"lon":5.38775,"is_reserved":false,"is_disabled":false,"rental_uris":{"android":"levelo://app?vid=4c099c20-24a7-4376-8b7d-d395a98fe50e","ios":"levelo://app?vid=4c099c20-24a7-4376-8b7d-d395a98fe50e"},"vehicle_type_id":"4","last_reported":1768321092,"current_range_meters":4400,"station_id":"ce4bghh2rcd13ifvqb60","pricing_plan_id":"cebpf4jnsgd1na2vs0mg"},{"bike_id":"d926f6df-bb6d-4c22-9c30-1d92a2769c5e","system_id":"levelo_inurba_marseille","lat":43.22951,"lon":5.35364,"is_reserved":false,"is_disabled":false,"rental_uris":{"android":"levelo://app?vid=d926f6df-bb6d-4c22-9c30-1d92a2769c5e","ios":"levelo://app?vid=d926f6df-bb6d-4c22-9c30-1d92a2769c5e"},"vehicle_type_id":"4","last_reported":1768321092,"current_range_meters":4400,"station_id":"cpo3532slgdg3j2ikp40","pricing_plan_id":"cebpf4jnsgd1na2vs0mg"},{"bike_id":"77648d21-2eba-4733-a182-ee140dc2d61a","system_id":"levelo_inurba_marseille","lat":43.2319,"lon":5.35533,"is_reserved":false,"is_disabled":false,"rental_uris":{"android":"levelo://app?vid=77648d21-2eba-4733-a182-ee140dc2d61a","ios":"levelo://app?vid=77648d21-2eba-4733-a182-ee140dc2d61a"},"vehicle_type_id":"4","last_reported":1768321092,"current_range_meters":4400,"station_id":"ce4bhu92rcd13ifvqi70","pricing_plan_id":"cebpf4jnsgd1na2vs0mg"},{"bike_id":"46152bd7-5aa6-477a-9fcc-6a3940f95a27","system_id":"levelo_inurba_marseille","lat":43.26238,"lon":5.40448,"is_reserved":false,"is_disabled":false,"rental_uris":{"android":"levelo://app?vid=46152bd7-5aa6-477a-9fcc-6a3940f95a27","ios":"levelo://app?vid=46152bd7-5aa6-477a-9fcc-6a3940f95a27"},"vehicle_type_id":"4","last_reported":1768321092,"current_range_meters":4400,"station_id":"ce4bhmh2rcd13ifvqgmg","pricing_plan_id":"cebpf4jnsgd1na2vs0mg"},{"bike_id":"a1b7b2fb-b65a-4c41-8ba1-24c0b6b32d24","system_id":"levelo_inurba_marseille","lat":43.24688,"lon":5.38152,"is_reserved":false,"is_disabled":false,"rental_uris":{"android":"levelo://app?vid=a1b7b2fb-b65a-4c41-8ba1-24c0b6b32d24","ios":"levelo://app?vid=a1b7b2fb-b65a-4c41-8ba1-24c0b6b32d24"},"vehicle_type_id":"4","last_reported":1768321092,"current_range_meters":4400,"station_id":"ce4bhih2rcd13ifvqfr0","pricing_plan_id":"cebpf4jnsgd1na2vs0mg"},{"bike_id":"e550fc9a-3d68-4b17-9669-6894900f7416","system_id":"levelo_inurba_marseille","lat":43.30663,"lon":5.40507,"is_reserved":false,"is_disabled":false,"rental_uris":{"android":"levelo://app?vid=e550fc9a-3d68-4b17-9669-6894900f7416","ios":"levelo://app?vid=e550fc9a-3d68-4b17-9669-6894900f7416"},"vehicle_type_id":"4","last_reported":1768321092,"current_range_meters":4400,"station_id":"ce4bh112rcd13ifvqda0","pricing_plan_id":"cebpf4jnsgd1na2vs0mg"},{"bike_id":"1a23bd73-e326-4762-a7a7-c8e38a59bb0d","system_id":"levelo_inurba_marseille","lat":43.273754,"lon":5.3626,"is_reserved":false,"is_disabled":false,"rental_uris":{"android":"levelo://app?vid=1a23bd73-e326-4762-a7a7-c8e38a59bb0d","ios":"levelo://app?vid=1a23bd73-e326-4762-a7a7-c8e38a59bb0d"},"vehicle_type_id":"4","last_reported":1768321092,"current_range_meters":4400,"station_id":"","pricing_plan_id":"cebpf4jnsgd1na2vs0mg"},{"bike_id":"1801c6f9-0c65-4e78-bbf2-c91fed55b8f3","system_id":"levelo_inurba_marseille","lat":43.26211,"lon":5.37445,"is_reserved":false,"is_disabled":false,"rental_uris":{"android":"levelo://app?vid=1801c6f9-0c65-4e78-bbf2-c91fed55b8f3","ios":"levelo://app?vid=1801c6f9-0c65-4e78-bbf2-c91fed55b8f3"},"vehicle_type_id":"4","last_reported":1768321092,"current_range_meters":4800,"station_id":"ce4bhgp2rcd13ifvqfc0","pricing_plan_id":"cebpf4jnsgd1na2vs0mg"},{"bike_id":"e495eb23-96b0-4afa-a6fd-13a04b5007b0","system_id":"levelo_inurba_marseille","lat":43.2906,"lon":5.37168,"is_reserved":false,"is_disabled":false,"rental_uris":{"android":"levelo://app?vid=e495eb23-96b0-4afa-a6fd-13a04b5007b0","ios":"levelo://app?vid=e495eb23-96b0-4afa-a6fd-13a04b5007b0"},"vehicle_type_id":"4","last_reported":1768321092,"current_range_meters":4800,"station_id":"ce4bh5p2rcd13ifvqe4g","pricing_plan_id":"cebpf4jnsgd1na2vs0mg"},{"bike_id":"eae60b8d-db4a-4fd1-8c21-4e433e17839f","system_id":"levelo_inurba_marseille","lat":43.260659,"lon":5.393943,"is_reserved":false,"is_disabled":false,"rental_uris":{"android":"levelo://app?vid=eae60b8d-db4a-4fd1-8c21-4e433e17839f","ios":"levelo://app?vid=eae60b8d-db4a-4fd1-8c21-4e433e17839f"},"vehicle_type_id":"4","last_reported":1768321092,"current_range_meters":4800,"station_id":"ce4bhh92rcd13ifvqfj0","pricing_plan_id":"cebpf4jnsgd1na2vs0mg"},{"bike_id":"5ad52785-0823-41c2-87b5-2779a76f0e53","system_id":"levelo_inurba_marseille","lat":43.24599,"lon":5.38406,"is_reserved":false,"is_disabled":false,"rental_uris":{"android":"levelo://app?vid=5ad52785-0823-41c2-87b5-2779a76f0e53","ios":"levelo://app?vid=5ad52785-0823-41c2-87b5-2779a76f0e53"},"vehicle_type_id":"4","last_reported":1768321092,"current_range_meters":4800,"station_id":"","pricing_plan_id":"cebpf4jnsgd1na2vs0mg"},{"bike_id":"0e8bf274-4e41-43de-a66e-ca34f84c602e","system_id":"levelo_inurba_marseille","lat":43.23963,"lon":5.36623,"is_reserved":false,"is_disabled":false,"rental_uris":{"android":"levelo://app?vid=0e8bf274-4e41-43de-a66e-ca34f84c602e","ios":"levelo://app?vid=0e8bf274-4e41-43de-a66e-ca34f84c602e"},"vehicle_type_id":"4","last_reported":1768321092,"current_range_meters":4800,"station_id":"ce4bhi12rcd13ifvqfp0","pricing_plan_id":"cebpf4jnsgd1na2vs0mg"},{"bike_id":"c99e908e-7a32-4d1f-800f-603e38b74fa5","system_id":"levelo_inurba_marseille","lat":43.241593,"lon":5.364043,"is_reserved":false,"is_disabled":false,"rental_uris":{"android":"levelo://app?vid=c99e908e-7a32-4d1f-800f-603e38b74fa5","ios":"levelo://app?vid=c99e908e-7a32-4d1f-800f-603e38b74fa5"},"vehicle_type_id":"4","last_reported":1768321092,"current_range_meters":4800,"station_id":"cpo36qri1sfpv3e86is0","pricing_plan_id":"cebpf4jnsgd1na2vs0mg"},{"bike_id":"5b8302cb-d6a5-4483-b477-0ec5d1c212e3","system_id":"levelo_inurba_marseille","lat":43.25573,"lon":5.38228,"is_reserved":false,"is_disabled":false,"rental_uris":{"android":"levelo://app?vid=5b8302cb-d6a5-4483-b477-0ec5d1c212e3","ios":"levelo://app?vid=5b8302cb-d6a5-4483-b477-0ec5d1c212e3"},"vehicle_type_id":"4","last_reported":1768321092,"current_range_meters":4800,"station_id":"ce4bhih2rcd13ifvqfs0","pricing_plan_id":"cebpf4jnsgd1na2vs0mg"},{"bike_id":"16896211-ae0f-42c9-986d-e536bc0a46ac","system_id":"levelo_inurba_marseille","lat":43.31348,"lon":5.36726,"is_reserved":false,"is_disabled":false,"rental_uris":{"android":"levelo://app?vid=16896211-ae0f-42c9-986d-e536bc0a46ac","ios":"levelo://app?vid=16896211-ae0f-42c9-986d-e536bc0a46ac"},"vehicle_type_id":"4","last_reported":1768321092,"current_range_meters":4800,"station_id":"ce4bgr92rcd13ifvqc6g","pricing_plan_id":"cebpf4jnsgd1na2vs0mg"},{"bike_id":"066c6ede-2e00-4b82-b8c4-c24bdc063f22","system_id":"levelo_inurba_marseille","lat":43.23842,"lon":5.36647,"is_reserved":false,"is_disabled":false,"rental_uris":{"android":"levelo://app?vid=066c6ede-2e00-4b82-b8c4-c24bdc063f22","ios":"levelo://app?vid=066c6ede-2e00-4b82-b8c4-c24bdc063f22"},"vehicle_type_id":"4","last_reported":1768321092,"current_range_meters":4800,"station_id":"","pricing_plan_id":"cebpf4jnsgd1na2vs0mg"},{"bike_id":"c8c44e8d-f3e0-45b1-904b-d220b73b482f","system_id":"levelo_inurba_marseille","lat":43.28406,"lon":5.37524,"is_reserved":false,"is_disabled":false,"rental_uris":{"android":"levelo://app?vid=c8c44e8d-f3e0-45b1-904b-d220b73b482f","ios":"levelo://app?vid=c8c44e8d-f3e0-45b1-904b-d220b73b482f"},"vehicle_type_id":"4","last_reported":1768321092,"current_range_meters":4800,"station_id":"ce4bh412rcd13ifvqds0","pricing_plan_id":"cebpf4jnsgd1na2vs0mg"},{"bike_id":"cd122465-4bd8-4111-a501-746f52ad2f74","system_id":"levelo_inurba_marseille","lat":43.25506,"lon":5.37653,"is_reserved":false,"is_disabled":false,"rental_uris":{"android":"levelo://app?vid=cd122465-4bd8-4111-a501-746f52ad2f74","ios":"levelo://app?vid=cd122465-4bd8-4111-a501-746f52ad2f74"},"vehicle_type_id":"4","last_reported":1768321092,"current_range_meters":4800,"station_id":"ce4bhh12rcd13ifvqff0","pricing_plan_id":"cebpf4jnsgd1na2vs0mg"},{"bike_id":"f34ce2e5-33b6-4187-bd26-bd7acd5eae89","system_id":"levelo_inurba_marseille","lat":43.265452,"lon":5.372944,"is_reserved":false,"is_disabled":false,"rental_uris":{"android":"levelo://app?vid=f34ce2e5-33b6-4187-bd26-bd7acd5eae89","ios":"levelo://app?vid=f34ce2e5-33b6-4187-bd26-bd7acd5eae89"},"vehicle_type_id":"4","last_reported":1768321092,"current_range_meters":5600,"station_id":"ce4bhg12rcd13ifvqf70","pricing_plan_id":"cebpf4jnsgd1na2vs0mg"},{"bike_id":"2aa6a2e3-e5de-46df-9625-4d08b9a55ec3","system_id":"levelo_inurba_marseille","lat":43.31502,"lon":5.37316,"is_reserved":false,"is_disabled":false,"rental_uris":{"android":"levelo://app?vid=2aa6a2e3-e5de-46df-9625-4d08b9a55ec3","ios":"levelo://app?vid=2aa6a2e3-e5de-46df-9625-4d08b9a55ec3"},"vehicle_type_id":"4","last_reported":1768321092,"current_range_meters":5600,"station_id":"ce4bgt12rcd13ifvqcd0","pricing_plan_id":"cebpf4jnsgd1na2vs0mg"},{"bike_id":"d8cbeae4-24d8-488e-8327-21d938c70611","system_id":"levelo_inurba_marseille","lat":43.26675,"lon":5.38267,"is_reserved":false,"is_disabled":false,"rental_uris":{"android":"levelo://app?vid=d8cbeae4-24d8-488e-8327-21d938c70611","ios":"levelo://app?vid=d8cbeae4-24d8-488e-8327-21d938c70611"},"vehicle_type_id":"4","last_reported":1768321092,"current_range_meters":5600,"station_id":"ce4bhg92rcd13ifvqf90","pricing_plan_id":"cebpf4jnsgd1na2vs0mg"},{"bike_id":"e9256aba-e968-44a2-a82a-3ab5b51309db","system_id":"levelo_inurba_marseille","lat":43.281521,"lon":5.426487,"is_reserved":false,"is_disabled":false,"rental_uris":{"android":"levelo://app?vid=e9256aba-e968-44a2-a82a-3ab5b51309db","ios":"levelo://app?vid=e9256aba-e968-44a2-a82a-3ab5b51309db"},"vehicle_type_id":"4","last_reported":1768321092,"current_range_meters":5600,"station_id":"ce4bhnh2rcd13ifvqgug","pricing_plan_id":"cebpf4jnsgd1na2vs0mg"},{"bike_id":"d4f3bd37-a943-479b-98c1-66fc15a01b59","system_id":"levelo_inurba_marseille","lat":43.323531,"lon":5.367377,"is_reserved":false,"is_disabled":false,"rental_uris":{"android":"levelo://app?vid=d4f3bd37-a943-479b-98c1-66fc15a01b59","ios":"levelo://app?vid=d4f3bd37-a943-479b-98c1-66fc15a01b59"},"vehicle_type_id":"4","last_reported":1768321092,"current_range_meters":5600,"station_id":"ce4bhsh2rcd13ifvqi2g","pricing_plan_id":"cebpf4jnsgd1na2vs0mg"},{"bike_id":"9214fc27-3e7b-491f-964a-50b957f48224","system_id":"levelo_inurba_marseille","lat":43.25721,"lon":5.41108,"is_reserved":false,"is_disabled":false,"rental_uris":{"android":"levelo://app?vid=9214fc27-3e7b-491f-964a-50b957f48224","ios":"levelo://app?vid=9214fc27-3e7b-491f-964a-50b957f48224"},"vehicle_type_id":"4","last_reported":1768321092,"current_range_meters":5600,"station_id":"ce4bhkp2rcd13ifvqgd0","pricing_plan_id":"cebpf4jnsgd1na2vs0mg"},{"bike_id":"a56313fe-28fc-4513-a928-6deaae5792bc","system_id":"levelo_inurba_marseille","lat":43.297167,"lon":5.377091,"is_reserved":false,"is_disabled":false,"rental_uris":{"android":"levelo://app?vid=a56313fe-28fc-4513-a928-6deaae5792bc","ios":"levelo://app?vid=a56313fe-28fc-4513-a928-6deaae5792bc"},"vehicle_type_id":"4","last_reported":1768321092,"current_range_meters":5600,"station_id":"ce4bgkh2rcd13ifvqbl0","pricing_plan_id":"cebpf4jnsgd1na2vs0mg"},{"bike_id":"c7b05092-9c06-4f61-be6e-b18625ed3741","system_id":"levelo_inurba_marseille","lat":43.27619,"lon":5.36104,"is_reserved":false,"is_disabled":false,"rental_uris":{"android":"levelo://app?vid=c7b05092-9c06-4f61-be6e-b18625ed3741","ios":"levelo://app?vid=c7b05092-9c06-4f61-be6e-b18625ed3741"},"vehicle_type_id":"4","last_reported":1768321092,"current_range_meters":5600,"station_id":"ce4bgj92rcd13ifvqbe0","pricing_plan_id":"cebpf4jnsgd1na2vs0mg"},{"bike_id":"79b7d26a-b25b-4eba-9216-03c39302c739","system_id":"levelo_inurba_marseille","lat":43.26946,"lon":5.40251,"is_reserved":false,"is_disabled":false,"rental_uris":{"android":"levelo://app?vid=79b7d26a-b25b-4eba-9216-03c39302c739","ios":"levelo://app?vid=79b7d26a-b25b-4eba-9216-03c39302c739"},"vehicle_type_id":"4","last_reported":1768321092,"current_range_meters":5600,"station_id":"cjm6bp8fraef2m0cb0m0","pricing_plan_id":"cebpf4jnsgd1na2vs0mg"},{"bike_id":"3c91a548-2cc3-4705-ab80-5230129be485","system_id":"levelo_inurba_marseille","lat":43.29831,"lon":5.37655,"is_reserved":false,"is_disabled":false,"rental_uris":{"android":"levelo://app?vid=3c91a548-2cc3-4705-ab80-5230129be485","ios":"levelo://app?vid=3c91a548-2cc3-4705-ab80-5230129be485"},"vehicle_type_id":"4","last_reported":1768321092,"current_range_meters":5600,"station_id":"","pricing_plan_id":"cebpf4jnsgd1na2vs0mg"},{"bike_id":"9e3f8b43-110a-4683-808c-c8bd643c9f41","system_id":"levelo_inurba_marseille","lat":43.24164,"lon":5.36395,"is_reserved":false,"is_disabled":false,"rental_uris":{"android":"levelo://app?vid=9e3f8b43-110a-4683-808c-c8bd643c9f41","ios":"levelo://app?vid=9e3f8b43-110a-4683-808c-c8bd643c9f41"},"vehicle_type_id":"4","last_reported":1768321092,"current_range_meters":5600,"station_id":"cpo36qri1sfpv3e86is0","pricing_plan_id":"cebpf4jnsgd1na2vs0mg"},{"bike_id":"b5120791-10c6-4c67-8290-90ce21b0cd69","system_id":"levelo_inurba_marseille","lat":43.27994,"lon":5.40021,"is_reserved":false,"is_disabled":false,"rental_uris":{"android":"levelo://app?vid=b5120791-10c6-4c67-8290-90ce21b0cd69","ios":"levelo://app?vid=b5120791-10c6-4c67-8290-90ce21b0cd69"},"vehicle_type_id":"4","last_reported":1768321092,"current_range_meters":5600,"station_id":"ce4bho92rcd13ifvqh4g","pricing_plan_id":"cebpf4jnsgd1na2vs0mg"},{"bike_id":"affed72c-cd8c-45cc-a144-46145cf4b5be","system_id":"levelo_inurba_marseille","lat":43.22566,"lon":5.41624,"is_reserved":false,"is_disabled":false,"rental_uris":{"android":"levelo://app?vid=affed72c-cd8c-45cc-a144-46145cf4b5be","ios":"levelo://app?vid=affed72c-cd8c-45cc-a144-46145cf4b5be"},"vehicle_type_id":"4","last_reported":1768321092,"current_range_meters":5600,"station_id":"st_d2o4gvlbi1j2169b742g","pricing_plan_id":"cebpf4jnsgd1na2vs0mg"},{"bike_id":"67b7a0a0-cf38-4ad6-b02e-4105eb22c5ee","system_id":"levelo_inurba_marseille","lat":43.33025,"lon":5.39045,"is_reserved":false,"is_disabled":false,"rental_uris":{"android":"levelo://app?vid=67b7a0a0-cf38-4ad6-b02e-4105eb22c5ee","ios":"levelo://app?vid=67b7a0a0-cf38-4ad6-b02e-4105eb22c5ee"},"vehicle_type_id":"4","last_reported":1768321092,"current_range_meters":6000,"station_id":"ce4bhr92rcd13ifvqhrg","pricing_plan_id":"cebpf4jnsgd1na2vs0mg"},{"bike_id":"ba7654d7-92e8-4e9b-a5b9-8f820e72ab5d","system_id":"levelo_inurba_marseille","lat":43.32358,"lon":5.36724,"is_reserved":false,"is_disabled":false,"rental_uris":{"android":"levelo://app?vid=ba7654d7-92e8-4e9b-a5b9-8f820e72ab5d","ios":"levelo://app?vid=ba7654d7-92e8-4e9b-a5b9-8f820e72ab5d"},"vehicle_type_id":"4","last_reported":1768321092,"current_range_meters":6000,"station_id":"ce4bhsh2rcd13ifvqi2g","pricing_plan_id":"cebpf4jnsgd1na2vs0mg"},{"bike_id":"957cb636-bc48-4b50-840f-bd4f72ba1cbd","system_id":"levelo_inurba_marseille","lat":43.305644,"lon":5.365283,"is_reserved":false,"is_disabled":false,"rental_uris":{"android":"levelo://app?vid=957cb636-bc48-4b50-840f-bd4f72ba1cbd","ios":"levelo://app?vid=957cb636-bc48-4b50-840f-bd4f72ba1cbd"},"vehicle_type_id":"4","last_reported":1768321092,"current_range_meters":6000,"station_id":"ce4bgs12rcd13ifvqcag","pricing_plan_id":"cebpf4jnsgd1na2vs0mg"},{"bike_id":"77011b9b-6822-4782-99ff-8bd6cad13b8f","system_id":"levelo_inurba_marseille","lat":43.25115,"lon":5.40316,"is_reserved":false,"is_disabled":false,"rental_uris":{"android":"levelo://app?vid=77011b9b-6822-4782-99ff-8bd6cad13b8f","ios":"levelo://app?vid=77011b9b-6822-4782-99ff-8bd6cad13b8f"},"vehicle_type_id":"4","last_reported":1768321092,"current_range_meters":6000,"station_id":"ce4bhlh2rcd13ifvqgig","pricing_plan_id":"cebpf4jnsgd1na2vs0mg"},{"bike_id":"fb221a40-bde2-46d1-95ba-618fffd0a7ea","system_id":"levelo_inurba_marseille","lat":43.28833,"lon":5.39316,"is_reserved":false,"is_disabled":false,"rental_uris":{"android":"levelo://app?vid=fb221a40-bde2-46d1-95ba-618fffd0a7ea","ios":"levelo://app?vid=fb221a40-bde2-46d1-95ba-618fffd0a7ea"},"vehicle_type_id":"4","last_reported":1768321092,"current_range_meters":6000,"station_id":"ce4bh2p2rcd13ifvqdi0","pricing_plan_id":"cebpf4jnsgd1na2vs0mg"},{"bike_id":"5af3242c-9133-4734-9374-77f1f4f62acf","system_id":"levelo_inurba_marseille","lat":43.2416,"lon":5.36397,"is_reserved":false,"is_disabled":false,"rental_uris":{"android":"levelo://app?vid=5af3242c-9133-4734-9374-77f1f4f62acf","ios":"levelo://app?vid=5af3242c-9133-4734-9374-77f1f4f62acf"},"vehicle_type_id":"4","last_reported":1768321092,"current_range_meters":6000,"station_id":"cpo36qri1sfpv3e86is0","pricing_plan_id":"cebpf4jnsgd1na2vs0mg"},{"bike_id":"dedc092e-5a64-44c2-8d92-91df13a8a88e","system_id":"levelo_inurba_marseille","lat":43.27809,"lon":5.40707,"is_reserved":false,"is_disabled":false,"rental_uris":{"android":"levelo://app?vid=dedc092e-5a64-44c2-8d92-91df13a8a88e","ios":"levelo://app?vid=dedc092e-5a64-44c2-8d92-91df13a8a88e"},"vehicle_type_id":"4","last_reported":1768321092,"current_range_meters":6000,"station_id":"ce4bhnh2rcd13ifvqgtg","pricing_plan_id":"cebpf4jnsgd1na2vs0mg"},{"bike_id":"796073de-267e-4d0a-bdcf-9730fe26073e","system_id":"levelo_inurba_marseille","lat":43.31291,"lon":5.36733,"is_reserved":false,"is_disabled":false,"rental_uris":{"android":"levelo://app?vid=796073de-267e-4d0a-bdcf-9730fe26073e","ios":"levelo://app?vid=796073de-267e-4d0a-bdcf-9730fe26073e"},"vehicle_type_id":"4","last_reported":1768321092,"current_range_meters":6000,"station_id":"","pricing_plan_id":"cebpf4jnsgd1na2vs0mg"},{"bike_id":"fe494ec5-1707-4075-a207-f74162cc93ea","system_id":"levelo_inurba_marseille","lat":43.25338,"lon":5.42171,"is_reserved":false,"is_disabled":false,"rental_uris":{"android":"levelo://app?vid=fe494ec5-1707-4075-a207-f74162cc93ea","ios":"levelo://app?vid=fe494ec5-1707-4075-a207-f74162cc93ea"},"vehicle_type_id":"4","last_reported":1768321092,"current_range_meters":6000,"station_id":"st_d2m65c5bi1j21697t3ng","pricing_plan_id":"cebpf4jnsgd1na2vs0mg"},{"bike_id":"e204e395-472f-48eb-84b1-e1991d4dba24","system_id":"levelo_inurba_marseille","lat":43.24457,"lon":5.42557,"is_reserved":false,"is_disabled":false,"rental_uris":{"android":"levelo://app?vid=e204e395-472f-48eb-84b1-e1991d4dba24","ios":"levelo://app?vid=e204e395-472f-48eb-84b1-e1991d4dba24"},"vehicle_type_id":"4","last_reported":1768321092,"current_range_meters":6000,"station_id":"st_d4a3vfp97mjs738cd8kg","pricing_plan_id":"cebpf4jnsgd1na2vs0mg"},{"bike_id":"45eb2387-a0c2-48ad-925b-0251d018d148","system_id":"levelo_inurba_marseille","lat":43.24709,"lon":5.38118,"is_reserved":false,"is_disabled":false,"rental_uris":{"android":"levelo://app?vid=45eb2387-a0c2-48ad-925b-0251d018d148","ios":"levelo://app?vid=45eb2387-a0c2-48ad-925b-0251d018d148"},"vehicle_type_id":"4","last_reported":1768321092,"current_range_meters":6000,"station_id":"","pricing_plan_id":"cebpf4jnsgd1na2vs0mg"},{"bike_id":"f7edb647-926c-4dfc-a318-e14c8ce272fc","system_id":"levelo_inurba_marseille","lat":43.30565,"lon":5.36523,"is_reserved":false,"is_disabled":false,"rental_uris":{"android":"levelo://app?vid=f7edb647-926c-4dfc-a318-e14c8ce272fc","ios":"levelo://app?vid=f7edb647-926c-4dfc-a318-e14c8ce272fc"},"vehicle_type_id":"4","last_reported":1768321092,"current_range_meters":6000,"station_id":"ce4bgs12rcd13ifvqcag","pricing_plan_id":"cebpf4jnsgd1na2vs0mg"},{"bike_id":"bdf1653d-7b56-4ea5-baaa-3639df8df18b","system_id":"levelo_inurba_marseille","lat":43.29614,"lon":5.37719,"is_reserved":false,"is_disabled":false,"rental_uris":{"android":"levelo://app?vid=bdf1653d-7b56-4ea5-baaa-3639df8df18b","ios":"levelo://app?vid=bdf1653d-7b56-4ea5-baaa-3639df8df18b"},"vehicle_type_id":"4","last_reported":1768321092,"current_range_meters":6000,"station_id":"ce4bgi92rcd13ifvqb90","pricing_plan_id":"cebpf4jnsgd1na2vs0mg"},{"bike_id":"b0591438-4f8b-458b-95d3-396e832bb098","system_id":"levelo_inurba_marseille","lat":43.2255,"lon":5.41627,"is_reserved":false,"is_disabled":false,"rental_uris":{"android":"levelo://app?vid=b0591438-4f8b-458b-95d3-396e832bb098","ios":"levelo://app?vid=b0591438-4f8b-458b-95d3-396e832bb098"},"vehicle_type_id":"4","last_reported":1768321092,"current_range_meters":6000,"station_id":"st_d2o4gvlbi1j2169b742g","pricing_plan_id":"cebpf4jnsgd1na2vs0mg"},{"bike_id":"faeccda2-2c9c-48d6-a543-d573d0ec26a2","system_id":"levelo_inurba_marseille","lat":43.30209,"lon":5.39475,"is_reserved":false,"is_disabled":false,"rental_uris":{"android":"levelo://app?vid=faeccda2-2c9c-48d6-a543-d573d0ec26a2","ios":"levelo://app?vid=faeccda2-2c9c-48d6-a543-d573d0ec26a2"},"vehicle_type_id":"4","last_reported":1768321092,"current_range_meters":6000,"station_id":"ce4bh0p2rcd13ifvqd70","pricing_plan_id":"cebpf4jnsgd1na2vs0mg"},{"bike_id":"dd19e9c1-5960-4ffe-b7cb-e6afcd8da926","system_id":"levelo_inurba_marseille","lat":43.30137,"lon":5.374,"is_reserved":false,"is_disabled":false,"rental_uris":{"android":"levelo://app?vid=dd19e9c1-5960-4ffe-b7cb-e6afcd8da926","ios":"levelo://app?vid=dd19e9c1-5960-4ffe-b7cb-e6afcd8da926"},"vehicle_type_id":"4","last_reported":1768321092,"current_range_meters":6000,"station_id":"ce4bgs92rcd13ifvqcc0","pricing_plan_id":"cebpf4jnsgd1na2vs0mg"},{"bike_id":"4c171aec-60f9-4710-8657-317b51a39b9e","system_id":"levelo_inurba_marseille","lat":43.323682,"lon":5.36739,"is_reserved":false,"is_disabled":false,"rental_uris":{"android":"levelo://app?vid=4c171aec-60f9-4710-8657-317b51a39b9e","ios":"levelo://app?vid=4c171aec-60f9-4710-8657-317b51a39b9e"},"vehicle_type_id":"4","last_reported":1768321092,"current_range_meters":6000,"station_id":"ce4bhsh2rcd13ifvqi2g","pricing_plan_id":"cebpf4jnsgd1na2vs0mg"},{"bike_id":"0b1f48b9-0f95-4f0d-ad33-027d10827a64","system_id":"levelo_inurba_marseille","lat":43.25727,"lon":5.41107,"is_reserved":false,"is_disabled":false,"rental_uris":{"android":"levelo://app?vid=0b1f48b9-0f95-4f0d-ad33-027d10827a64","ios":"levelo://app?vid=0b1f48b9-0f95-4f0d-ad33-027d10827a64"},"vehicle_type_id":"4","last_reported":1768321092,"current_range_meters":6400,"station_id":"ce4bhkp2rcd13ifvqgd0","pricing_plan_id":"cebpf4jnsgd1na2vs0mg"},{"bike_id":"173e874a-bef3-47f8-8f65-3e423bb125d3","system_id":"levelo_inurba_marseille","lat":43.25911,"lon":5.40881,"is_reserved":false,"is_disabled":false,"rental_uris":{"android":"levelo://app?vid=173e874a-bef3-47f8-8f65-3e423bb125d3","ios":"levelo://app?vid=173e874a-bef3-47f8-8f65-3e423bb125d3"},"vehicle_type_id":"4","last_reported":1768321092,"current_range_meters":6400,"station_id":"ce4bhm92rcd13ifvqglg","pricing_plan_id":"cebpf4jnsgd1na2vs0mg"},{"bike_id":"91dbe188-56c8-4fce-a414-d6e43ed9eb6b","system_id":"levelo_inurba_marseille","lat":43.26694,"lon":5.39943,"is_reserved":false,"is_disabled":false,"rental_uris":{"android":"levelo://app?vid=91dbe188-56c8-4fce-a414-d6e43ed9eb6b","ios":"levelo://app?vid=91dbe188-56c8-4fce-a414-d6e43ed9eb6b"},"vehicle_type_id":"4","last_reported":1768321092,"current_range_meters":6400,"station_id":"","pricing_plan_id":"cebpf4jnsgd1na2vs0mg"},{"bike_id":"479d04b3-091e-4637-ab2f-f901b6f36a36","system_id":"levelo_inurba_marseille","lat":43.24166,"lon":5.36396,"is_reserved":false,"is_disabled":false,"rental_uris":{"android":"levelo://app?vid=479d04b3-091e-4637-ab2f-f901b6f36a36","ios":"levelo://app?vid=479d04b3-091e-4637-ab2f-f901b6f36a36"},"vehicle_type_id":"4","last_reported":1768321092,"current_range_meters":6400,"station_id":"cpo36qri1sfpv3e86is0","pricing_plan_id":"cebpf4jnsgd1na2vs0mg"},{"bike_id":"abcd74ad-91b3-4bfb-baff-2442ed322096","system_id":"levelo_inurba_marseille","lat":43.315151,"lon":5.380328,"is_reserved":false,"is_disabled":false,"rental_uris":{"android":"levelo://app?vid=abcd74ad-91b3-4bfb-baff-2442ed322096","ios":"levelo://app?vid=abcd74ad-91b3-4bfb-baff-2442ed322096"},"vehicle_type_id":"4","last_reported":1768321092,"current_range_meters":6400,"station_id":"ce4bghh2rcd13ifvqb60","pricing_plan_id":"cebpf4jnsgd1na2vs0mg"},{"bike_id":"09905e20-0fc0-4b86-a93c-e99d6d9f66fb","system_id":"levelo_inurba_marseille","lat":43.29877,"lon":5.38913,"is_reserved":false,"is_disabled":false,"rental_uris":{"android":"levelo://app?vid=09905e20-0fc0-4b86-a93c-e99d6d9f66fb","ios":"levelo://app?vid=09905e20-0fc0-4b86-a93c-e99d6d9f66fb"},"vehicle_type_id":"4","last_reported":1768321092,"current_range_meters":6400,"station_id":"ce4bh392rcd13ifvqdl0","pricing_plan_id":"cebpf4jnsgd1na2vs0mg"},{"bike_id":"f5d19579-dfd3-4245-9a3c-40f0995461f4","system_id":"levelo_inurba_marseille","lat":43.32364,"lon":5.36774,"is_reserved":false,"is_disabled":false,"rental_uris":{"android":"levelo://app?vid=f5d19579-dfd3-4245-9a3c-40f0995461f4","ios":"levelo://app?vid=f5d19579-dfd3-4245-9a3c-40f0995461f4"},"vehicle_type_id":"4","last_reported":1768321092,"current_range_meters":6400,"station_id":"ce4bhsh2rcd13ifvqi2g","pricing_plan_id":"cebpf4jnsgd1na2vs0mg"},{"bike_id":"435db267-3d15-44f5-8420-37d50b585844","system_id":"levelo_inurba_marseille","lat":43.296873,"lon":5.372814,"is_reserved":false,"is_disabled":false,"rental_uris":{"android":"levelo://app?vid=435db267-3d15-44f5-8420-37d50b585844","ios":"levelo://app?vid=435db267-3d15-44f5-8420-37d50b585844"},"vehicle_type_id":"4","last_reported":1768321092,"current_range_meters":6400,"station_id":"ce4bgk12rcd13ifvqbj0","pricing_plan_id":"cebpf4jnsgd1na2vs0mg"},{"bike_id":"7939b1bf-26be-49b9-bf37-7939769ce1e5","system_id":"levelo_inurba_marseille","lat":43.29986,"lon":5.37152,"is_reserved":false,"is_disabled":false,"rental_uris":{"android":"levelo://app?vid=7939b1bf-26be-49b9-bf37-7939769ce1e5","ios":"levelo://app?vid=7939b1bf-26be-49b9-bf37-7939769ce1e5"},"vehicle_type_id":"4","last_reported":1768321092,"current_range_meters":6400,"station_id":"ce4bgr92rcd13ifvqc7g","pricing_plan_id":"cebpf4jnsgd1na2vs0mg"},{"bike_id":"6f340d65-8a96-4245-a37f-c84a4e9a1d07","system_id":"levelo_inurba_marseille","lat":43.323545,"lon":5.367366,"is_reserved":false,"is_disabled":false,"rental_uris":{"android":"levelo://app?vid=6f340d65-8a96-4245-a37f-c84a4e9a1d07","ios":"levelo://app?vid=6f340d65-8a96-4245-a37f-c84a4e9a1d07"},"vehicle_type_id":"4","last_reported":1768321092,"current_range_meters":6400,"station_id":"ce4bhsh2rcd13ifvqi2g","pricing_plan_id":"cebpf4jnsgd1na2vs0mg"},{"bike_id":"1a3905a6-c265-4e57-845a-e219ffc5a2ea","system_id":"levelo_inurba_marseille","lat":43.26568,"lon":5.39013,"is_reserved":false,"is_disabled":false,"rental_uris":{"android":"levelo://app?vid=1a3905a6-c265-4e57-845a-e219ffc5a2ea","ios":"levelo://app?vid=1a3905a6-c265-4e57-845a-e219ffc5a2ea"},"vehicle_type_id":"4","last_reported":1768321092,"current_range_meters":6400,"station_id":"ce4bhe12rcd13ifvqf30","pricing_plan_id":"cebpf4jnsgd1na2vs0mg"},{"bike_id":"4c68eacc-2d63-41f4-bcd0-18cc9a25ae57","system_id":"levelo_inurba_marseille","lat":43.241696,"lon":5.363979,"is_reserved":false,"is_disabled":false,"rental_uris":{"android":"levelo://app?vid=4c68eacc-2d63-41f4-bcd0-18cc9a25ae57","ios":"levelo://app?vid=4c68eacc-2d63-41f4-bcd0-18cc9a25ae57"},"vehicle_type_id":"4","last_reported":1768321092,"current_range_meters":6400,"station_id":"cpo36qri1sfpv3e86is0","pricing_plan_id":"cebpf4jnsgd1na2vs0mg"},{"bike_id":"bee2231a-aedd-4f8a-ae11-883f123d575e","system_id":"levelo_inurba_marseille","lat":43.31221,"lon":5.38168,"is_reserved":false,"is_disabled":false,"rental_uris":{"android":"levelo://app?vid=bee2231a-aedd-4f8a-ae11-883f123d575e","ios":"levelo://app?vid=bee2231a-aedd-4f8a-ae11-883f123d575e"},"vehicle_type_id":"4","last_reported":1768321092,"current_range_meters":6400,"station_id":"","pricing_plan_id":"cebpf4jnsgd1na2vs0mg"},{"bike_id":"a2d976b2-4930-45bf-896b-10cb61922490","system_id":"levelo_inurba_marseille","lat":43.23192,"lon":5.35542,"is_reserved":false,"is_disabled":false,"rental_uris":{"android":"levelo://app?vid=a2d976b2-4930-45bf-896b-10cb61922490","ios":"levelo://app?vid=a2d976b2-4930-45bf-896b-10cb61922490"},"vehicle_type_id":"4","last_reported":1768321092,"current_range_meters":6400,"station_id":"ce4bhu92rcd13ifvqi70","pricing_plan_id":"cebpf4jnsgd1na2vs0mg"},{"bike_id":"614a562d-2005-4cf7-9f04-119c8ed3d172","system_id":"levelo_inurba_marseille","lat":43.29316,"lon":5.37234,"is_reserved":false,"is_disabled":false,"rental_uris":{"android":"levelo://app?vid=614a562d-2005-4cf7-9f04-119c8ed3d172","ios":"levelo://app?vid=614a562d-2005-4cf7-9f04-119c8ed3d172"},"vehicle_type_id":"4","last_reported":1768321092,"current_range_meters":6800,"station_id":"ce4bgh92rcd13ifvqb40","pricing_plan_id":"cebpf4jnsgd1na2vs0mg"},{"bike_id":"9d34d7ef-34a4-4f23-96b5-b0ffcf64619b","system_id":"levelo_inurba_marseille","lat":43.266876,"lon":5.382704,"is_reserved":false,"is_disabled":false,"rental_uris":{"android":"levelo://app?vid=9d34d7ef-34a4-4f23-96b5-b0ffcf64619b","ios":"levelo://app?vid=9d34d7ef-34a4-4f23-96b5-b0ffcf64619b"},"vehicle_type_id":"4","last_reported":1768321092,"current_range_meters":6800,"station_id":"ce4bhg92rcd13ifvqf90","pricing_plan_id":"cebpf4jnsgd1na2vs0mg"},{"bike_id":"e81eb905-09b1-4753-bb4f-8434dc51b91d","system_id":"levelo_inurba_marseille","lat":43.26933,"lon":5.40261,"is_reserved":false,"is_disabled":false,"rental_uris":{"android":"levelo://app?vid=e81eb905-09b1-4753-bb4f-8434dc51b91d","ios":"levelo://app?vid=e81eb905-09b1-4753-bb4f-8434dc51b91d"},"vehicle_type_id":"4","last_reported":1768321092,"current_range_meters":6800,"station_id":"cjm6bp8fraef2m0cb0m0","pricing_plan_id":"cebpf4jnsgd1na2vs0mg"},{"bike_id":"f22dc6ab-69dc-44a9-93f9-bbe909b62519","system_id":"levelo_inurba_marseille","lat":43.299612,"lon":5.384737,"is_reserved":false,"is_disabled":false,"rental_uris":{"android":"levelo://app?vid=f22dc6ab-69dc-44a9-93f9-bbe909b62519","ios":"levelo://app?vid=f22dc6ab-69dc-44a9-93f9-bbe909b62519"},"vehicle_type_id":"4","last_reported":1768321092,"current_range_meters":6800,"station_id":"","pricing_plan_id":"cebpf4jnsgd1na2vs0mg"},{"bike_id":"4aab430b-0108-4ec3-9489-8d74653efaef","system_id":"levelo_inurba_marseille","lat":43.29875,"lon":5.39732,"is_reserved":false,"is_disabled":false,"rental_uris":{"android":"levelo://app?vid=4aab430b-0108-4ec3-9489-8d74653efaef","ios":"levelo://app?vid=4aab430b-0108-4ec3-9489-8d74653efaef"},"vehicle_type_id":"4","last_reported":1768321092,"current_range_meters":6800,"station_id":"ce4bh0h2rcd13ifvqd50","pricing_plan_id":"cebpf4jnsgd1na2vs0mg"},{"bike_id":"34809879-5c78-46b9-8640-8f0f333de3ff","system_id":"levelo_inurba_marseille","lat":43.231781,"lon":5.399938,"is_reserved":false,"is_disabled":false,"rental_uris":{"android":"levelo://app?vid=34809879-5c78-46b9-8640-8f0f333de3ff","ios":"levelo://app?vid=34809879-5c78-46b9-8640-8f0f333de3ff"},"vehicle_type_id":"4","last_reported":1768321092,"current_range_meters":6800,"station_id":"ce4bhn12rcd13ifvqgqg","pricing_plan_id":"cebpf4jnsgd1na2vs0mg"},{"bike_id":"35361d4e-38f0-417d-a5fe-17895b791255","system_id":"levelo_inurba_marseille","lat":43.27999,"lon":5.40024,"is_reserved":false,"is_disabled":false,"rental_uris":{"android":"levelo://app?vid=35361d4e-38f0-417d-a5fe-17895b791255","ios":"levelo://app?vid=35361d4e-38f0-417d-a5fe-17895b791255"},"vehicle_type_id":"4","last_reported":1768321092,"current_range_meters":6800,"station_id":"ce4bho92rcd13ifvqh4g","pricing_plan_id":"cebpf4jnsgd1na2vs0mg"},{"bike_id":"cb7af7b5-a138-4db4-a330-74ad640aa6ec","system_id":"levelo_inurba_marseille","lat":43.27814,"lon":5.40706,"is_reserved":false,"is_disabled":false,"rental_uris":{"android":"levelo://app?vid=cb7af7b5-a138-4db4-a330-74ad640aa6ec","ios":"levelo://app?vid=cb7af7b5-a138-4db4-a330-74ad640aa6ec"},"vehicle_type_id":"4","last_reported":1768321092,"current_range_meters":6800,"station_id":"ce4bhnh2rcd13ifvqgtg","pricing_plan_id":"cebpf4jnsgd1na2vs0mg"},{"bike_id":"5c5e9bb7-bb73-4db6-a458-5ba3293a46da","system_id":"levelo_inurba_marseille","lat":43.31358,"lon":5.36731,"is_reserved":false,"is_disabled":false,"rental_uris":{"android":"levelo://app?vid=5c5e9bb7-bb73-4db6-a458-5ba3293a46da","ios":"levelo://app?vid=5c5e9bb7-bb73-4db6-a458-5ba3293a46da"},"vehicle_type_id":"4","last_reported":1768321092,"current_range_meters":6800,"station_id":"ce4bgr92rcd13ifvqc6g","pricing_plan_id":"cebpf4jnsgd1na2vs0mg"},{"bike_id":"4027d1cb-ad1c-45a8-bf1d-57fe43f8c304","system_id":"levelo_inurba_marseille","lat":43.289816,"lon":5.39049,"is_reserved":false,"is_disabled":false,"rental_uris":{"android":"levelo://app?vid=4027d1cb-ad1c-45a8-bf1d-57fe43f8c304","ios":"levelo://app?vid=4027d1cb-ad1c-45a8-bf1d-57fe43f8c304"},"vehicle_type_id":"4","last_reported":1768321092,"current_range_meters":6800,"station_id":"","pricing_plan_id":"cebpf4jnsgd1na2vs0mg"},{"bike_id":"69987fb0-9d36-4b3a-8334-fc5121bd0232","system_id":"levelo_inurba_marseille","lat":43.24388,"lon":5.37064,"is_reserved":false,"is_disabled":false,"rental_uris":{"android":"levelo://app?vid=69987fb0-9d36-4b3a-8334-fc5121bd0232","ios":"levelo://app?vid=69987fb0-9d36-4b3a-8334-fc5121bd0232"},"vehicle_type_id":"4","last_reported":1768321092,"current_range_meters":6800,"station_id":"ce4bhhh2rcd13ifvqfk0","pricing_plan_id":"cebpf4jnsgd1na2vs0mg"},{"bike_id":"d97e0ede-3940-40ea-9e91-339dcd403227","system_id":"levelo_inurba_marseille","lat":43.25745,"lon":5.41104,"is_reserved":false,"is_disabled":false,"rental_uris":{"android":"levelo://app?vid=d97e0ede-3940-40ea-9e91-339dcd403227","ios":"levelo://app?vid=d97e0ede-3940-40ea-9e91-339dcd403227"},"vehicle_type_id":"4","last_reported":1768321092,"current_range_meters":6800,"station_id":"ce4bhkp2rcd13ifvqgd0","pricing_plan_id":"cebpf4jnsgd1na2vs0mg"},{"bike_id":"9b1e0065-ad9b-474e-8515-086ced78000e","system_id":"levelo_inurba_marseille","lat":43.281003,"lon":5.378309,"is_reserved":false,"is_disabled":false,"rental_uris":{"android":"levelo://app?vid=9b1e0065-ad9b-474e-8515-086ced78000e","ios":"levelo://app?vid=9b1e0065-ad9b-474e-8515-086ced78000e"},"vehicle_type_id":"4","last_reported":1768321092,"current_range_meters":6800,"station_id":"ce4bha12rcd13ifvqee0","pricing_plan_id":"cebpf4jnsgd1na2vs0mg"},{"bike_id":"f44e7fc0-57ad-4c5c-87c8-d57ce9d37a8a","system_id":"levelo_inurba_marseille","lat":43.26141,"lon":5.37519,"is_reserved":false,"is_disabled":false,"rental_uris":{"android":"levelo://app?vid=f44e7fc0-57ad-4c5c-87c8-d57ce9d37a8a","ios":"levelo://app?vid=f44e7fc0-57ad-4c5c-87c8-d57ce9d37a8a"},"vehicle_type_id":"4","last_reported":1768321092,"current_range_meters":6800,"station_id":"ce4bhgp2rcd13ifvqfc0","pricing_plan_id":"cebpf4jnsgd1na2vs0mg"},{"bike_id":"0c4529d2-9a4f-4a24-adad-ec9494efd665","system_id":"levelo_inurba_marseille","lat":43.297615,"lon":5.427806,"is_reserved":false,"is_disabled":false,"rental_uris":{"android":"levelo://app?vid=0c4529d2-9a4f-4a24-adad-ec9494efd665","ios":"levelo://app?vid=0c4529d2-9a4f-4a24-adad-ec9494efd665"},"vehicle_type_id":"4","last_reported":1768321092,"current_range_meters":7200,"station_id":"st_d3md5207bmas73dh9klg","pricing_plan_id":"cebpf4jnsgd1na2vs0mg"},{"bike_id":"a8ecfe7d-195f-47f3-8f55-54974257ce75","system_id":"levelo_inurba_marseille","lat":43.26564,"lon":5.40314,"is_reserved":false,"is_disabled":false,"rental_uris":{"android":"levelo://app?vid=a8ecfe7d-195f-47f3-8f55-54974257ce75","ios":"levelo://app?vid=a8ecfe7d-195f-47f3-8f55-54974257ce75"},"vehicle_type_id":"4","last_reported":1768321092,"current_range_meters":7200,"station_id":"ce4bhmp2rcd13ifvqgng","pricing_plan_id":"cebpf4jnsgd1na2vs0mg"},{"bike_id":"dc941693-f968-4335-a586-0547afadf857","system_id":"levelo_inurba_marseille","lat":43.255206,"lon":5.376623,"is_reserved":false,"is_disabled":false,"rental_uris":{"android":"levelo://app?vid=dc941693-f968-4335-a586-0547afadf857","ios":"levelo://app?vid=dc941693-f968-4335-a586-0547afadf857"},"vehicle_type_id":"4","last_reported":1768321092,"current_range_meters":7200,"station_id":"ce4bhh12rcd13ifvqff0","pricing_plan_id":"cebpf4jnsgd1na2vs0mg"},{"bike_id":"7aebede3-29e7-422e-9949-e6406848b636","system_id":"levelo_inurba_marseille","lat":43.25112,"lon":5.40324,"is_reserved":false,"is_disabled":false,"rental_uris":{"android":"levelo://app?vid=7aebede3-29e7-422e-9949-e6406848b636","ios":"levelo://app?vid=7aebede3-29e7-422e-9949-e6406848b636"},"vehicle_type_id":"4","last_reported":1768321092,"current_range_meters":7200,"station_id":"ce4bhlh2rcd13ifvqgig","pricing_plan_id":"cebpf4jnsgd1na2vs0mg"},{"bike_id":"278e4a8b-7a29-40ff-9b74-5aa7e88774ac","system_id":"levelo_inurba_marseille","lat":43.2447,"lon":5.42533,"is_reserved":false,"is_disabled":false,"rental_uris":{"android":"levelo://app?vid=278e4a8b-7a29-40ff-9b74-5aa7e88774ac","ios":"levelo://app?vid=278e4a8b-7a29-40ff-9b74-5aa7e88774ac"},"vehicle_type_id":"4","last_reported":1768321092,"current_range_meters":7200,"station_id":"st_d4a3vfp97mjs738cd8kg","pricing_plan_id":"cebpf4jnsgd1na2vs0mg"},{"bike_id":"ffcf206e-2a6e-4fc2-8998-7e22064b3e4e","system_id":"levelo_inurba_marseille","lat":43.295294,"lon":5.385488,"is_reserved":false,"is_disabled":false,"rental_uris":{"android":"levelo://app?vid=ffcf206e-2a6e-4fc2-8998-7e22064b3e4e","ios":"levelo://app?vid=ffcf206e-2a6e-4fc2-8998-7e22064b3e4e"},"vehicle_type_id":"4","last_reported":1768321092,"current_range_meters":7200,"station_id":"ce4bgih2rcd13ifvqba0","pricing_plan_id":"cebpf4jnsgd1na2vs0mg"},{"bike_id":"ea9769ab-39d8-4325-b701-f75eef547046","system_id":"levelo_inurba_marseille","lat":43.22539,"lon":5.34823,"is_reserved":false,"is_disabled":false,"rental_uris":{"android":"levelo://app?vid=ea9769ab-39d8-4325-b701-f75eef547046","ios":"levelo://app?vid=ea9769ab-39d8-4325-b701-f75eef547046"},"vehicle_type_id":"4","last_reported":1768321092,"current_range_meters":7200,"station_id":"st_cvj5dfep6f1abm77gieg","pricing_plan_id":"cebpf4jnsgd1na2vs0mg"},{"bike_id":"cafe9508-7db5-496a-a0cd-bcd349231be5","system_id":"levelo_inurba_marseille","lat":43.25513,"lon":5.37656,"is_reserved":false,"is_disabled":false,"rental_uris":{"android":"levelo://app?vid=cafe9508-7db5-496a-a0cd-bcd349231be5","ios":"levelo://app?vid=cafe9508-7db5-496a-a0cd-bcd349231be5"},"vehicle_type_id":"4","last_reported":1768321092,"current_range_meters":7200,"station_id":"ce4bhh12rcd13ifvqff0","pricing_plan_id":"cebpf4jnsgd1na2vs0mg"},{"bike_id":"6688a629-7822-4dde-a1b1-aa24df94d1e6","system_id":"levelo_inurba_marseille","lat":43.31366,"lon":5.36697,"is_reserved":false,"is_disabled":true,"rental_uris":{"android":"levelo://app?vid=6688a629-7822-4dde-a1b1-aa24df94d1e6","ios":"levelo://app?vid=6688a629-7822-4dde-a1b1-aa24df94d1e6"},"vehicle_type_id":"4","last_reported":1768321092,"current_range_meters":7200,"station_id":"ce4bgr92rcd13ifvqc6g","pricing_plan_id":"cebpf4jnsgd1na2vs0mg"},{"bike_id":"9c27121a-722d-4643-8f07-02e037634eda","system_id":"levelo_inurba_marseille","lat":43.28428,"lon":5.35001,"is_reserved":false,"is_disabled":false,"rental_uris":{"android":"levelo://app?vid=9c27121a-722d-4643-8f07-02e037634eda","ios":"levelo://app?vid=9c27121a-722d-4643-8f07-02e037634eda"},"vehicle_type_id":"4","last_reported":1768321092,"current_range_meters":7200,"station_id":"ce4bhbh2rcd13ifvqepg","pricing_plan_id":"cebpf4jnsgd1na2vs0mg"},{"bike_id":"f5353b18-e643-49cf-ae84-ebccc1479298","system_id":"levelo_inurba_marseille","lat":43.29791,"lon":5.371006,"is_reserved":false,"is_disabled":false,"rental_uris":{"android":"levelo://app?vid=f5353b18-e643-49cf-ae84-ebccc1479298","ios":"levelo://app?vid=f5353b18-e643-49cf-ae84-ebccc1479298"},"vehicle_type_id":"4","last_reported":1768321092,"current_range_meters":7200,"station_id":"ce4bgop2rcd13ifvqc1g","pricing_plan_id":"cebpf4jnsgd1na2vs0mg"},{"bike_id":"b945bd28-a3b4-4961-a0bf-743fe57cc1a5","system_id":"levelo_inurba_marseille","lat":43.29905,"lon":5.43656,"is_reserved":false,"is_disabled":false,"rental_uris":{"android":"levelo://app?vid=b945bd28-a3b4-4961-a0bf-743fe57cc1a5","ios":"levelo://app?vid=b945bd28-a3b4-4961-a0bf-743fe57cc1a5"},"vehicle_type_id":"4","last_reported":1768321092,"current_range_meters":7200,"station_id":"ce4bhpp2rcd13ifvqhfg","pricing_plan_id":"cebpf4jnsgd1na2vs0mg"},{"bike_id":"b41f9551-ae47-4da7-a60d-f3352e00b4ad","system_id":"levelo_inurba_marseille","lat":43.284759,"lon":5.483927,"is_reserved":false,"is_disabled":false,"rental_uris":{"android":"levelo://app?vid=b41f9551-ae47-4da7-a60d-f3352e00b4ad","ios":"levelo://app?vid=b41f9551-ae47-4da7-a60d-f3352e00b4ad"},"vehicle_type_id":"4","last_reported":1768321092,"current_range_meters":7200,"station_id":"","pricing_plan_id":"cebpf4jnsgd1na2vs0mg"},{"bike_id":"656f7124-70b2-47ea-af21-9a7fe3a05e60","system_id":"levelo_inurba_marseille","lat":43.290111,"lon":5.356057,"is_reserved":false,"is_disabled":false,"rental_uris":{"android":"levelo://app?vid=656f7124-70b2-47ea-af21-9a7fe3a05e60","ios":"levelo://app?vid=656f7124-70b2-47ea-af21-9a7fe3a05e60"},"vehicle_type_id":"4","last_reported":1768321092,"current_range_meters":7200,"station_id":"ce4bhb92rcd13ifvqen0","pricing_plan_id":"cebpf4jnsgd1na2vs0mg"},{"bike_id":"0b7fcce3-5957-4ba3-a942-4767ab10e88d","system_id":"levelo_inurba_marseille","lat":43.30144,"lon":5.3988,"is_reserved":false,"is_disabled":false,"rental_uris":{"android":"levelo://app?vid=0b7fcce3-5957-4ba3-a942-4767ab10e88d","ios":"levelo://app?vid=0b7fcce3-5957-4ba3-a942-4767ab10e88d"},"vehicle_type_id":"4","last_reported":1768321092,"current_range_meters":7200,"station_id":"ce4bh0h2rcd13ifvqd40","pricing_plan_id":"cebpf4jnsgd1na2vs0mg"},{"bike_id":"19acb0d9-5641-4610-b2b2-7ba868c5f563","system_id":"levelo_inurba_marseille","lat":43.239619,"lon":5.366158,"is_reserved":false,"is_disabled":false,"rental_uris":{"android":"levelo://app?vid=19acb0d9-5641-4610-b2b2-7ba868c5f563","ios":"levelo://app?vid=19acb0d9-5641-4610-b2b2-7ba868c5f563"},"vehicle_type_id":"4","last_reported":1768321092,"current_range_meters":7200,"station_id":"ce4bhi12rcd13ifvqfp0","pricing_plan_id":"cebpf4jnsgd1na2vs0mg"},{"bike_id":"a6264499-99d7-4bff-a8d4-07bf735aaf88","system_id":"levelo_inurba_marseille","lat":43.27922,"lon":5.39579,"is_reserved":false,"is_disabled":false,"rental_uris":{"android":"levelo://app?vid=a6264499-99d7-4bff-a8d4-07bf735aaf88","ios":"levelo://app?vid=a6264499-99d7-4bff-a8d4-07bf735aaf88"},"vehicle_type_id":"4","last_reported":1768321092,"current_range_meters":7200,"station_id":"ce4bhf92rcd13ifvqf40","pricing_plan_id":"cebpf4jnsgd1na2vs0mg"},{"bike_id":"37f478a4-02ba-45f2-a4d6-fdcdc6b39bc8","system_id":"levelo_inurba_marseille","lat":43.28826,"lon":5.426348,"is_reserved":false,"is_disabled":false,"rental_uris":{"android":"levelo://app?vid=37f478a4-02ba-45f2-a4d6-fdcdc6b39bc8","ios":"levelo://app?vid=37f478a4-02ba-45f2-a4d6-fdcdc6b39bc8"},"vehicle_type_id":"4","last_reported":1768321092,"current_range_meters":7200,"station_id":"","pricing_plan_id":"cebpf4jnsgd1na2vs0mg"},{"bike_id":"39becb68-37d2-4fe5-af83-65d5813b987b","system_id":"levelo_inurba_marseille","lat":43.32547,"lon":5.36872,"is_reserved":false,"is_disabled":false,"rental_uris":{"android":"levelo://app?vid=39becb68-37d2-4fe5-af83-65d5813b987b","ios":"levelo://app?vid=39becb68-37d2-4fe5-af83-65d5813b987b"},"vehicle_type_id":"4","last_reported":1768321092,"current_range_meters":7200,"station_id":"","pricing_plan_id":"cebpf4jnsgd1na2vs0mg"},{"bike_id":"cfe81093-69a9-492e-9820-bd1d48eb57ea","system_id":"levelo_inurba_marseille","lat":43.2621,"lon":5.37439,"is_reserved":false,"is_disabled":false,"rental_uris":{"android":"levelo://app?vid=cfe81093-69a9-492e-9820-bd1d48eb57ea","ios":"levelo://app?vid=cfe81093-69a9-492e-9820-bd1d48eb57ea"},"vehicle_type_id":"4","last_reported":1768321092,"current_range_meters":7200,"station_id":"ce4bhgp2rcd13ifvqfc0","pricing_plan_id":"cebpf4jnsgd1na2vs0mg"},{"bike_id":"99eb6c51-7f0f-4137-8b85-23f4caea2333","system_id":"levelo_inurba_marseille","lat":43.298948,"lon":5.396687,"is_reserved":false,"is_disabled":false,"rental_uris":{"android":"levelo://app?vid=99eb6c51-7f0f-4137-8b85-23f4caea2333","ios":"levelo://app?vid=99eb6c51-7f0f-4137-8b85-23f4caea2333"},"vehicle_type_id":"4","last_reported":1768321092,"current_range_meters":7200,"station_id":"","pricing_plan_id":"cebpf4jnsgd1na2vs0mg"},{"bike_id":"3655a9f7-901b-4885-8038-e7046951f14d","system_id":"levelo_inurba_marseille","lat":43.29747,"lon":5.42775,"is_reserved":false,"is_disabled":false,"rental_uris":{"android":"levelo://app?vid=3655a9f7-901b-4885-8038-e7046951f14d","ios":"levelo://app?vid=3655a9f7-901b-4885-8038-e7046951f14d"},"vehicle_type_id":"4","last_reported":1768321092,"current_range_meters":7200,"station_id":"st_d3md5207bmas73dh9klg","pricing_plan_id":"cebpf4jnsgd1na2vs0mg"},{"bike_id":"d12a5c37-df8a-440d-b99b-49d121d9a484","system_id":"levelo_inurba_marseille","lat":43.22932,"lon":5.35384,"is_reserved":false,"is_disabled":false,"rental_uris":{"android":"levelo://app?vid=d12a5c37-df8a-440d-b99b-49d121d9a484","ios":"levelo://app?vid=d12a5c37-df8a-440d-b99b-49d121d9a484"},"vehicle_type_id":"4","last_reported":1768321092,"current_range_meters":7200,"station_id":"cpo3532slgdg3j2ikp40","pricing_plan_id":"cebpf4jnsgd1na2vs0mg"},{"bike_id":"d8b7a56d-0319-4556-9ba7-cd78d8eac0e9","system_id":"levelo_inurba_marseille","lat":43.24383,"lon":5.37043,"is_reserved":false,"is_disabled":false,"rental_uris":{"android":"levelo://app?vid=d8b7a56d-0319-4556-9ba7-cd78d8eac0e9","ios":"levelo://app?vid=d8b7a56d-0319-4556-9ba7-cd78d8eac0e9"},"vehicle_type_id":"4","last_reported":1768321092,"current_range_meters":8000,"station_id":"ce4bhhh2rcd13ifvqfk0","pricing_plan_id":"cebpf4jnsgd1na2vs0mg"},{"bike_id":"a9ceab4f-7363-474c-a0e0-4e83cf033539","system_id":"levelo_inurba_marseille","lat":43.28927,"lon":5.36619,"is_reserved":false,"is_disabled":false,"rental_uris":{"android":"levelo://app?vid=a9ceab4f-7363-474c-a0e0-4e83cf033539","ios":"levelo://app?vid=a9ceab4f-7363-474c-a0e0-4e83cf033539"},"vehicle_type_id":"4","last_reported":1768321092,"current_range_meters":8000,"station_id":"ce4bhap2rcd13ifvqek0","pricing_plan_id":"cebpf4jnsgd1na2vs0mg"},{"bike_id":"7aaa5463-7c58-4e08-89ff-e62dd5259471","system_id":"levelo_inurba_marseille","lat":43.24808,"lon":5.37458,"is_reserved":false,"is_disabled":false,"rental_uris":{"android":"levelo://app?vid=7aaa5463-7c58-4e08-89ff-e62dd5259471","ios":"levelo://app?vid=7aaa5463-7c58-4e08-89ff-e62dd5259471"},"vehicle_type_id":"4","last_reported":1768321092,"current_range_meters":8000,"station_id":"ce4bhgh2rcd13ifvqfb0","pricing_plan_id":"cebpf4jnsgd1na2vs0mg"},{"bike_id":"674485da-6375-4a1e-850b-d935815daaad","system_id":"levelo_inurba_marseille","lat":43.2378,"lon":5.36633,"is_reserved":false,"is_disabled":false,"rental_uris":{"android":"levelo://app?vid=674485da-6375-4a1e-850b-d935815daaad","ios":"levelo://app?vid=674485da-6375-4a1e-850b-d935815daaad"},"vehicle_type_id":"4","last_reported":1768321092,"current_range_meters":8000,"station_id":"st_d3nk18o9ro0c73en2l3g","pricing_plan_id":"cebpf4jnsgd1na2vs0mg"},{"bike_id":"23f90f90-4766-44cf-a3ad-ecda2307978a","system_id":"levelo_inurba_marseille","lat":43.26065,"lon":5.39399,"is_reserved":false,"is_disabled":false,"rental_uris":{"android":"levelo://app?vid=23f90f90-4766-44cf-a3ad-ecda2307978a","ios":"levelo://app?vid=23f90f90-4766-44cf-a3ad-ecda2307978a"},"vehicle_type_id":"4","last_reported":1768321092,"current_range_meters":8000,"station_id":"ce4bhh92rcd13ifvqfj0","pricing_plan_id":"cebpf4jnsgd1na2vs0mg"},{"bike_id":"03ff8d42-84cb-40f4-a4fb-d8fa574268df","system_id":"levelo_inurba_marseille","lat":43.26804,"lon":5.40254,"is_reserved":false,"is_disabled":false,"rental_uris":{"android":"levelo://app?vid=03ff8d42-84cb-40f4-a4fb-d8fa574268df","ios":"levelo://app?vid=03ff8d42-84cb-40f4-a4fb-d8fa574268df"},"vehicle_type_id":"4","last_reported":1768321092,"current_range_meters":8000,"station_id":"ce501612rcd8frsf0b60","pricing_plan_id":"cebpf4jnsgd1na2vs0mg"},{"bike_id":"8a689e49-1449-46e9-9d9f-6cee66305474","system_id":"levelo_inurba_marseille","lat":43.29267,"lon":5.40923,"is_reserved":false,"is_disabled":true,"rental_uris":{"android":"levelo://app?vid=8a689e49-1449-46e9-9d9f-6cee66305474","ios":"levelo://app?vid=8a689e49-1449-46e9-9d9f-6cee66305474"},"vehicle_type_id":"4","last_reported":1768321092,"current_range_meters":8000,"station_id":"ce4bh192rcd13ifvqdc0","pricing_plan_id":"cebpf4jnsgd1na2vs0mg"},{"bike_id":"e3689fe5-a0aa-4258-8eec-13656f1f8382","system_id":"levelo_inurba_marseille","lat":43.24806,"lon":5.37453,"is_reserved":false,"is_disabled":false,"rental_uris":{"android":"levelo://app?vid=e3689fe5-a0aa-4258-8eec-13656f1f8382","ios":"levelo://app?vid=e3689fe5-a0aa-4258-8eec-13656f1f8382"},"vehicle_type_id":"4","last_reported":1768321092,"current_range_meters":8000,"station_id":"ce4bhgh2rcd13ifvqfb0","pricing_plan_id":"cebpf4jnsgd1na2vs0mg"},{"bike_id":"a7cfbd20-f164-49e6-9f87-847432bce4ed","system_id":"levelo_inurba_marseille","lat":43.30146,"lon":5.37406,"is_reserved":false,"is_disabled":false,"rental_uris":{"android":"levelo://app?vid=a7cfbd20-f164-49e6-9f87-847432bce4ed","ios":"levelo://app?vid=a7cfbd20-f164-49e6-9f87-847432bce4ed"},"vehicle_type_id":"4","last_reported":1768321092,"current_range_meters":8000,"station_id":"ce4bgs92rcd13ifvqcc0","pricing_plan_id":"cebpf4jnsgd1na2vs0mg"},{"bike_id":"2050d4ed-f6dc-4bb8-b5eb-dffb2a6d3f86","system_id":"levelo_inurba_marseille","lat":43.29277,"lon":5.36847,"is_reserved":false,"is_disabled":false,"rental_uris":{"android":"levelo://app?vid=2050d4ed-f6dc-4bb8-b5eb-dffb2a6d3f86","ios":"levelo://app?vid=2050d4ed-f6dc-4bb8-b5eb-dffb2a6d3f86"},"vehicle_type_id":"4","last_reported":1768321092,"current_range_meters":8000,"station_id":"ce4bhbp2rcd13ifvqesg","pricing_plan_id":"cebpf4jnsgd1na2vs0mg"},{"bike_id":"7565d9e4-5737-444e-a6cb-70b726a9685a","system_id":"levelo_inurba_marseille","lat":43.244,"lon":5.37079,"is_reserved":false,"is_disabled":false,"rental_uris":{"android":"levelo://app?vid=7565d9e4-5737-444e-a6cb-70b726a9685a","ios":"levelo://app?vid=7565d9e4-5737-444e-a6cb-70b726a9685a"},"vehicle_type_id":"4","last_reported":1768321092,"current_range_meters":8000,"station_id":"ce4bhhh2rcd13ifvqfk0","pricing_plan_id":"cebpf4jnsgd1na2vs0mg"},{"bike_id":"47d96b8b-14c3-457a-a882-a3b41481dc99","system_id":"levelo_inurba_marseille","lat":43.280762,"lon":5.39663,"is_reserved":false,"is_disabled":false,"rental_uris":{"android":"levelo://app?vid=47d96b8b-14c3-457a-a882-a3b41481dc99","ios":"levelo://app?vid=47d96b8b-14c3-457a-a882-a3b41481dc99"},"vehicle_type_id":"4","last_reported":1768321092,"current_range_meters":8000,"station_id":"ce4bho12rcd13ifvqh2g","pricing_plan_id":"cebpf4jnsgd1na2vs0mg"},{"bike_id":"5d21c596-50a9-4a98-8678-377ed372531b","system_id":"levelo_inurba_marseille","lat":43.23777,"lon":5.36625,"is_reserved":false,"is_disabled":false,"rental_uris":{"android":"levelo://app?vid=5d21c596-50a9-4a98-8678-377ed372531b","ios":"levelo://app?vid=5d21c596-50a9-4a98-8678-377ed372531b"},"vehicle_type_id":"4","last_reported":1768321092,"current_range_meters":8000,"station_id":"st_d3nk18o9ro0c73en2l3g","pricing_plan_id":"cebpf4jnsgd1na2vs0mg"},{"bike_id":"f86a85e0-5758-474d-9946-b94efb7de527","system_id":"levelo_inurba_marseille","lat":43.27619,"lon":5.36109,"is_reserved":false,"is_disabled":false,"rental_uris":{"android":"levelo://app?vid=f86a85e0-5758-474d-9946-b94efb7de527","ios":"levelo://app?vid=f86a85e0-5758-474d-9946-b94efb7de527"},"vehicle_type_id":"4","last_reported":1768321092,"current_range_meters":8000,"station_id":"ce4bgj92rcd13ifvqbe0","pricing_plan_id":"cebpf4jnsgd1na2vs0mg"},{"bike_id":"ec6556c0-8771-44be-b1ce-12b0d62b8bfb","system_id":"levelo_inurba_marseille","lat":43.32915,"lon":5.39113,"is_reserved":false,"is_disabled":false,"rental_uris":{"android":"levelo://app?vid=ec6556c0-8771-44be-b1ce-12b0d62b8bfb","ios":"levelo://app?vid=ec6556c0-8771-44be-b1ce-12b0d62b8bfb"},"vehicle_type_id":"4","last_reported":1768321092,"current_range_meters":8000,"station_id":"","pricing_plan_id":"cebpf4jnsgd1na2vs0mg"},{"bike_id":"18e7aed4-7cab-4e5f-b147-5c98f8a1e192","system_id":"levelo_inurba_marseille","lat":43.32352,"lon":5.3675,"is_reserved":false,"is_disabled":false,"rental_uris":{"android":"levelo://app?vid=18e7aed4-7cab-4e5f-b147-5c98f8a1e192","ios":"levelo://app?vid=18e7aed4-7cab-4e5f-b147-5c98f8a1e192"},"vehicle_type_id":"4","last_reported":1768321092,"current_range_meters":8400,"station_id":"ce4bhsh2rcd13ifvqi2g","pricing_plan_id":"cebpf4jnsgd1na2vs0mg"},{"bike_id":"0b0bd9e8-0e91-4cd7-8087-c13549508128","system_id":"levelo_inurba_marseille","lat":43.28537,"lon":5.44086,"is_reserved":false,"is_disabled":false,"rental_uris":{"android":"levelo://app?vid=0b0bd9e8-0e91-4cd7-8087-c13549508128","ios":"levelo://app?vid=0b0bd9e8-0e91-4cd7-8087-c13549508128"},"vehicle_type_id":"4","last_reported":1768321092,"current_range_meters":8400,"station_id":"st_d3j3df2ikq2c7380ej80","pricing_plan_id":"cebpf4jnsgd1na2vs0mg"},{"bike_id":"4da4b9b5-8e34-4a21-a7eb-76e6a1792527","system_id":"levelo_inurba_marseille","lat":43.28242,"lon":5.43027,"is_reserved":false,"is_disabled":false,"rental_uris":{"android":"levelo://app?vid=4da4b9b5-8e34-4a21-a7eb-76e6a1792527","ios":"levelo://app?vid=4da4b9b5-8e34-4a21-a7eb-76e6a1792527"},"vehicle_type_id":"4","last_reported":1768321092,"current_range_meters":8400,"station_id":"","pricing_plan_id":"cebpf4jnsgd1na2vs0mg"},{"bike_id":"92cdc27f-4766-48a4-a329-ea7a52a05a32","system_id":"levelo_inurba_marseille","lat":43.26942,"lon":5.40246,"is_reserved":false,"is_disabled":false,"rental_uris":{"android":"levelo://app?vid=92cdc27f-4766-48a4-a329-ea7a52a05a32","ios":"levelo://app?vid=92cdc27f-4766-48a4-a329-ea7a52a05a32"},"vehicle_type_id":"4","last_reported":1768321092,"current_range_meters":8400,"station_id":"cjm6bp8fraef2m0cb0m0","pricing_plan_id":"cebpf4jnsgd1na2vs0mg"},{"bike_id":"956f2f43-0da9-4646-be7d-418ca296dc4d","system_id":"levelo_inurba_marseille","lat":43.29759,"lon":5.42783,"is_reserved":false,"is_disabled":false,"rental_uris":{"android":"levelo://app?vid=956f2f43-0da9-4646-be7d-418ca296dc4d","ios":"levelo://app?vid=956f2f43-0da9-4646-be7d-418ca296dc4d"},"vehicle_type_id":"4","last_reported":1768321092,"current_range_meters":8400,"station_id":"st_d3md5207bmas73dh9klg","pricing_plan_id":"cebpf4jnsgd1na2vs0mg"},{"bike_id":"a31c8f9e-9708-4ea2-9e5d-05e3441bc85f","system_id":"levelo_inurba_marseille","lat":43.28484,"lon":5.48385,"is_reserved":false,"is_disabled":false,"rental_uris":{"android":"levelo://app?vid=a31c8f9e-9708-4ea2-9e5d-05e3441bc85f","ios":"levelo://app?vid=a31c8f9e-9708-4ea2-9e5d-05e3441bc85f"},"vehicle_type_id":"4","last_reported":1768321092,"current_range_meters":8400,"station_id":"","pricing_plan_id":"cebpf4jnsgd1na2vs0mg"},{"bike_id":"dce34ae9-6b54-4567-9cc3-a453de46352f","system_id":"levelo_inurba_marseille","lat":43.23795,"lon":5.36622,"is_reserved":false,"is_disabled":false,"rental_uris":{"android":"levelo://app?vid=dce34ae9-6b54-4567-9cc3-a453de46352f","ios":"levelo://app?vid=dce34ae9-6b54-4567-9cc3-a453de46352f"},"vehicle_type_id":"4","last_reported":1768321092,"current_range_meters":8400,"station_id":"st_d3nk18o9ro0c73en2l3g","pricing_plan_id":"cebpf4jnsgd1na2vs0mg"},{"bike_id":"9fcf8708-33ec-48c7-b0ea-5fcda076cf5f","system_id":"levelo_inurba_marseille","lat":43.32289,"lon":5.38273,"is_reserved":false,"is_disabled":false,"rental_uris":{"android":"levelo://app?vid=9fcf8708-33ec-48c7-b0ea-5fcda076cf5f","ios":"levelo://app?vid=9fcf8708-33ec-48c7-b0ea-5fcda076cf5f"},"vehicle_type_id":"4","last_reported":1768321092,"current_range_meters":8400,"station_id":"ce4bhr12rcd13ifvqhqg","pricing_plan_id":"cebpf4jnsgd1na2vs0mg"},{"bike_id":"8572cfdd-d18d-49bb-914e-8027a1466aef","system_id":"levelo_inurba_marseille","lat":43.29578,"lon":5.3751,"is_reserved":false,"is_disabled":false,"rental_uris":{"android":"levelo://app?vid=8572cfdd-d18d-49bb-914e-8027a1466aef","ios":"levelo://app?vid=8572cfdd-d18d-49bb-914e-8027a1466aef"},"vehicle_type_id":"4","last_reported":1768321092,"current_range_meters":8800,"station_id":"ce4bgh92rcd13ifvqb50","pricing_plan_id":"cebpf4jnsgd1na2vs0mg"},{"bike_id":"b523c110-d25e-4af1-b7ea-2ae80dfe757b","system_id":"levelo_inurba_marseille","lat":43.23791,"lon":5.36637,"is_reserved":false,"is_disabled":false,"rental_uris":{"android":"levelo://app?vid=b523c110-d25e-4af1-b7ea-2ae80dfe757b","ios":"levelo://app?vid=b523c110-d25e-4af1-b7ea-2ae80dfe757b"},"vehicle_type_id":"4","last_reported":1768321092,"current_range_meters":8800,"station_id":"st_d3nk18o9ro0c73en2l3g","pricing_plan_id":"cebpf4jnsgd1na2vs0mg"},{"bike_id":"dd82bb59-7829-4c53-a4f7-95c2c13f9278","system_id":"levelo_inurba_marseille","lat":43.29933,"lon":5.3747,"is_reserved":false,"is_disabled":false,"rental_uris":{"android":"levelo://app?vid=dd82bb59-7829-4c53-a4f7-95c2c13f9278","ios":"levelo://app?vid=dd82bb59-7829-4c53-a4f7-95c2c13f9278"},"vehicle_type_id":"4","last_reported":1768321092,"current_range_meters":8800,"station_id":"ce4bgjh2rcd13ifvqbg0","pricing_plan_id":"cebpf4jnsgd1na2vs0mg"},{"bike_id":"f49d0ce0-6e6e-47a1-947f-3b3cc7ef6c5b","system_id":"levelo_inurba_marseille","lat":43.30657,"lon":5.40057,"is_reserved":false,"is_disabled":false,"rental_uris":{"android":"levelo://app?vid=f49d0ce0-6e6e-47a1-947f-3b3cc7ef6c5b","ios":"levelo://app?vid=f49d0ce0-6e6e-47a1-947f-3b3cc7ef6c5b"},"vehicle_type_id":"4","last_reported":1768321092,"current_range_meters":8800,"station_id":"ce4bh112rcd13ifvqda0","pricing_plan_id":"cebpf4jnsgd1na2vs0mg"},{"bike_id":"9600ee7f-c134-429a-9b6a-b4eda8311a3e","system_id":"levelo_inurba_marseille","lat":43.24671,"lon":5.38165,"is_reserved":false,"is_disabled":true,"rental_uris":{"android":"levelo://app?vid=9600ee7f-c134-429a-9b6a-b4eda8311a3e","ios":"levelo://app?vid=9600ee7f-c134-429a-9b6a-b4eda8311a3e"},"vehicle_type_id":"4","last_reported":1768321092,"current_range_meters":8800,"station_id":"ce4bhih2rcd13ifvqfr0","pricing_plan_id":"cebpf4jnsgd1na2vs0mg"},{"bike_id":"5d753472-8af1-40a8-b93c-6901afeb049e","system_id":"levelo_inurba_marseille","lat":43.23746,"lon":5.3664,"is_reserved":false,"is_disabled":false,"rental_uris":{"android":"levelo://app?vid=5d753472-8af1-40a8-b93c-6901afeb049e","ios":"levelo://app?vid=5d753472-8af1-40a8-b93c-6901afeb049e"},"vehicle_type_id":"4","last_reported":1768321092,"current_range_meters":8800,"station_id":"st_d3nk18o9ro0c73en2l3g","pricing_plan_id":"cebpf4jnsgd1na2vs0mg"},{"bike_id":"a6e9fc9a-b156-4d26-bea5-773ac0e34cdc","system_id":"levelo_inurba_marseille","lat":43.32496,"lon":5.38294,"is_reserved":false,"is_disabled":false,"rental_uris":{"android":"levelo://app?vid=a6e9fc9a-b156-4d26-bea5-773ac0e34cdc","ios":"levelo://app?vid=a6e9fc9a-b156-4d26-bea5-773ac0e34cdc"},"vehicle_type_id":"4","last_reported":1768321092,"current_range_meters":8800,"station_id":"st_d4asgbiv49dc73anf9m0","pricing_plan_id":"cebpf4jnsgd1na2vs0mg"},{"bike_id":"e4ceba95-9874-4924-9fa5-96771066b0ef","system_id":"levelo_inurba_marseille","lat":43.23962,"lon":5.36626,"is_reserved":false,"is_disabled":false,"rental_uris":{"android":"levelo://app?vid=e4ceba95-9874-4924-9fa5-96771066b0ef","ios":"levelo://app?vid=e4ceba95-9874-4924-9fa5-96771066b0ef"},"vehicle_type_id":"4","last_reported":1768321092,"current_range_meters":8800,"station_id":"ce4bhi12rcd13ifvqfp0","pricing_plan_id":"cebpf4jnsgd1na2vs0mg"},{"bike_id":"7cb71b2a-cdcb-4df1-8b45-14f0946816db","system_id":"levelo_inurba_marseille","lat":43.29527,"lon":5.38544,"is_reserved":false,"is_disabled":false,"rental_uris":{"android":"levelo://app?vid=7cb71b2a-cdcb-4df1-8b45-14f0946816db","ios":"levelo://app?vid=7cb71b2a-cdcb-4df1-8b45-14f0946816db"},"vehicle_type_id":"4","last_reported":1768321092,"current_range_meters":8800,"station_id":"ce4bgih2rcd13ifvqba0","pricing_plan_id":"cebpf4jnsgd1na2vs0mg"},{"bike_id":"29489b72-f277-47d9-bce4-2b20125d1ed9","system_id":"levelo_inurba_marseille","lat":43.317039,"lon":5.43691,"is_reserved":false,"is_disabled":false,"rental_uris":{"android":"levelo://app?vid=29489b72-f277-47d9-bce4-2b20125d1ed9","ios":"levelo://app?vid=29489b72-f277-47d9-bce4-2b20125d1ed9"},"vehicle_type_id":"4","last_reported":1768321092,"current_range_meters":8800,"station_id":"","pricing_plan_id":"cebpf4jnsgd1na2vs0mg"},{"bike_id":"6f82e636-1cf8-4d17-966b-f1fdd1089a3d","system_id":"levelo_inurba_marseille","lat":43.30267,"lon":5.37273,"is_reserved":false,"is_disabled":false,"rental_uris":{"android":"levelo://app?vid=6f82e636-1cf8-4d17-966b-f1fdd1089a3d","ios":"levelo://app?vid=6f82e636-1cf8-4d17-966b-f1fdd1089a3d"},"vehicle_type_id":"4","last_reported":1768321092,"current_range_meters":8800,"station_id":"","pricing_plan_id":"cebpf4jnsgd1na2vs0mg"},{"bike_id":"53e022ad-e5c5-4539-8c53-cc2b0aa06d27","system_id":"levelo_inurba_marseille","lat":43.28327,"lon":5.38846,"is_reserved":false,"is_disabled":true,"rental_uris":{"android":"levelo://app?vid=53e022ad-e5c5-4539-8c53-cc2b0aa06d27","ios":"levelo://app?vid=53e022ad-e5c5-4539-8c53-cc2b0aa06d27"},"vehicle_type_id":"4","last_reported":1768321092,"current_range_meters":8800,"station_id":"ce4bh492rcd13ifvqdvg","pricing_plan_id":"cebpf4jnsgd1na2vs0mg"},{"bike_id":"5f3f7816-15b2-42e6-8301-73c7c01ce517","system_id":"levelo_inurba_marseille","lat":43.28415,"lon":5.37506,"is_reserved":false,"is_disabled":false,"rental_uris":{"android":"levelo://app?vid=5f3f7816-15b2-42e6-8301-73c7c01ce517","ios":"levelo://app?vid=5f3f7816-15b2-42e6-8301-73c7c01ce517"},"vehicle_type_id":"4","last_reported":1768321092,"current_range_meters":8800,"station_id":"ce4bh412rcd13ifvqds0","pricing_plan_id":"cebpf4jnsgd1na2vs0mg"},{"bike_id":"abc91b41-0a29-482c-96ac-2352b1ba5c08","system_id":"levelo_inurba_marseille","lat":43.29254,"lon":5.40905,"is_reserved":false,"is_disabled":false,"rental_uris":{"android":"levelo://app?vid=abc91b41-0a29-482c-96ac-2352b1ba5c08","ios":"levelo://app?vid=abc91b41-0a29-482c-96ac-2352b1ba5c08"},"vehicle_type_id":"4","last_reported":1768321092,"current_range_meters":9200,"station_id":"ce4bh192rcd13ifvqdc0","pricing_plan_id":"cebpf4jnsgd1na2vs0mg"},{"bike_id":"de4fdcf9-092b-41a0-8dfa-c29b327d00ab","system_id":"levelo_inurba_marseille","lat":43.31242,"lon":5.36866,"is_reserved":false,"is_disabled":false,"rental_uris":{"android":"levelo://app?vid=de4fdcf9-092b-41a0-8dfa-c29b327d00ab","ios":"levelo://app?vid=de4fdcf9-092b-41a0-8dfa-c29b327d00ab"},"vehicle_type_id":"4","last_reported":1768321092,"current_range_meters":9200,"station_id":"ce4bgl92rcd13ifvqbq0","pricing_plan_id":"cebpf4jnsgd1na2vs0mg"},{"bike_id":"d8b52035-9107-4203-ba3b-8ab85229defc","system_id":"levelo_inurba_marseille","lat":43.25885,"lon":5.39923,"is_reserved":false,"is_disabled":true,"rental_uris":{"android":"levelo://app?vid=d8b52035-9107-4203-ba3b-8ab85229defc","ios":"levelo://app?vid=d8b52035-9107-4203-ba3b-8ab85229defc"},"vehicle_type_id":"4","last_reported":1768321092,"current_range_meters":9200,"station_id":"ce4bhl92rcd13ifvqghg","pricing_plan_id":"cebpf4jnsgd1na2vs0mg"},{"bike_id":"43738401-0000-4ed6-a69e-b6ebffac4bdb","system_id":"levelo_inurba_marseille","lat":43.25119,"lon":5.40313,"is_reserved":false,"is_disabled":false,"rental_uris":{"android":"levelo://app?vid=43738401-0000-4ed6-a69e-b6ebffac4bdb","ios":"levelo://app?vid=43738401-0000-4ed6-a69e-b6ebffac4bdb"},"vehicle_type_id":"4","last_reported":1768321092,"current_range_meters":9200,"station_id":"ce4bhlh2rcd13ifvqgig","pricing_plan_id":"cebpf4jnsgd1na2vs0mg"},{"bike_id":"cff36d3a-a2a6-4fcb-ac92-f47e8ea4afef","system_id":"levelo_inurba_marseille","lat":43.28866,"lon":5.42516,"is_reserved":false,"is_disabled":false,"rental_uris":{"android":"levelo://app?vid=cff36d3a-a2a6-4fcb-ac92-f47e8ea4afef","ios":"levelo://app?vid=cff36d3a-a2a6-4fcb-ac92-f47e8ea4afef"},"vehicle_type_id":"4","last_reported":1768321092,"current_range_meters":9200,"station_id":"st_d3b462108ojc7389ooeg","pricing_plan_id":"cebpf4jnsgd1na2vs0mg"},{"bike_id":"19331ab6-8bcc-4922-ad53-56f970f639cf","system_id":"levelo_inurba_marseille","lat":43.30879,"lon":5.37204,"is_reserved":false,"is_disabled":false,"rental_uris":{"android":"levelo://app?vid=19331ab6-8bcc-4922-ad53-56f970f639cf","ios":"levelo://app?vid=19331ab6-8bcc-4922-ad53-56f970f639cf"},"vehicle_type_id":"4","last_reported":1768321092,"current_range_meters":9200,"station_id":"ce4bguh2rcd13ifvqckg","pricing_plan_id":"cebpf4jnsgd1na2vs0mg"},{"bike_id":"1bf9cf6d-e072-4431-a82d-5627096c1643","system_id":"levelo_inurba_marseille","lat":43.295797,"lon":5.367811,"is_reserved":false,"is_disabled":false,"rental_uris":{"android":"levelo://app?vid=1bf9cf6d-e072-4431-a82d-5627096c1643","ios":"levelo://app?vid=1bf9cf6d-e072-4431-a82d-5627096c1643"},"vehicle_type_id":"4","last_reported":1768321092,"current_range_meters":9200,"station_id":"ce4bgph2rcd13ifvqc2g","pricing_plan_id":"cebpf4jnsgd1na2vs0mg"},{"bike_id":"dccf6443-2690-4508-8f9a-a0435732725f","system_id":"levelo_inurba_marseille","lat":43.25486,"lon":5.37654,"is_reserved":false,"is_disabled":false,"rental_uris":{"android":"levelo://app?vid=dccf6443-2690-4508-8f9a-a0435732725f","ios":"levelo://app?vid=dccf6443-2690-4508-8f9a-a0435732725f"},"vehicle_type_id":"4","last_reported":1768321092,"current_range_meters":9200,"station_id":"ce4bhh12rcd13ifvqff0","pricing_plan_id":"cebpf4jnsgd1na2vs0mg"},{"bike_id":"19808eb4-9421-4aa3-abb7-17eaafb92ddb","system_id":"levelo_inurba_marseille","lat":43.211928,"lon":5.350721,"is_reserved":false,"is_disabled":false,"rental_uris":{"android":"levelo://app?vid=19808eb4-9421-4aa3-abb7-17eaafb92ddb","ios":"levelo://app?vid=19808eb4-9421-4aa3-abb7-17eaafb92ddb"},"vehicle_type_id":"4","last_reported":1768321092,"current_range_meters":9200,"station_id":"st_cvj6sg6p6f1abm77japg","pricing_plan_id":"cebpf4jnsgd1na2vs0mg"},{"bike_id":"4e539861-bd6c-41e6-89b7-7228811caa5d","system_id":"levelo_inurba_marseille","lat":43.2956,"lon":5.37524,"is_reserved":false,"is_disabled":false,"rental_uris":{"android":"levelo://app?vid=4e539861-bd6c-41e6-89b7-7228811caa5d","ios":"levelo://app?vid=4e539861-bd6c-41e6-89b7-7228811caa5d"},"vehicle_type_id":"4","last_reported":1768321092,"current_range_meters":9200,"station_id":"ce4bgh92rcd13ifvqb50","pricing_plan_id":"cebpf4jnsgd1na2vs0mg"},{"bike_id":"782dd1b2-8f02-4edb-a10b-417c4cdf742a","system_id":"levelo_inurba_marseille","lat":43.28471,"lon":5.38413,"is_reserved":false,"is_disabled":false,"rental_uris":{"android":"levelo://app?vid=782dd1b2-8f02-4edb-a10b-417c4cdf742a","ios":"levelo://app?vid=782dd1b2-8f02-4edb-a10b-417c4cdf742a"},"vehicle_type_id":"4","last_reported":1768321092,"current_range_meters":9200,"station_id":"ce4bh512rcd13ifvqe3g","pricing_plan_id":"cebpf4jnsgd1na2vs0mg"},{"bike_id":"f38ed4b7-f307-4cfa-b2e9-38a5294373df","system_id":"levelo_inurba_marseille","lat":43.29196,"lon":5.39317,"is_reserved":false,"is_disabled":false,"rental_uris":{"android":"levelo://app?vid=f38ed4b7-f307-4cfa-b2e9-38a5294373df","ios":"levelo://app?vid=f38ed4b7-f307-4cfa-b2e9-38a5294373df"},"vehicle_type_id":"4","last_reported":1768321092,"current_range_meters":9200,"station_id":"ce4bh192rcd13ifvqdd0","pricing_plan_id":"cebpf4jnsgd1na2vs0mg"},{"bike_id":"b4cd75b4-a1c3-475b-8113-d2eeee83c135","system_id":"levelo_inurba_marseille","lat":43.31322,"lon":5.39697,"is_reserved":false,"is_disabled":false,"rental_uris":{"android":"levelo://app?vid=b4cd75b4-a1c3-475b-8113-d2eeee83c135","ios":"levelo://app?vid=b4cd75b4-a1c3-475b-8113-d2eeee83c135"},"vehicle_type_id":"4","last_reported":1768321092,"current_range_meters":9200,"station_id":"ce4bgvp2rcd13ifvqcu0","pricing_plan_id":"cebpf4jnsgd1na2vs0mg"},{"bike_id":"54a665b1-efb8-4a74-a5c5-3658aaf489a2","system_id":"levelo_inurba_marseille","lat":43.28477,"lon":5.48403,"is_reserved":false,"is_disabled":false,"rental_uris":{"android":"levelo://app?vid=54a665b1-efb8-4a74-a5c5-3658aaf489a2","ios":"levelo://app?vid=54a665b1-efb8-4a74-a5c5-3658aaf489a2"},"vehicle_type_id":"4","last_reported":1768321092,"current_range_meters":9200,"station_id":"","pricing_plan_id":"cebpf4jnsgd1na2vs0mg"},{"bike_id":"a5b47075-cc34-4d2d-9ebe-68115039bbf3","system_id":"levelo_inurba_marseille","lat":43.30194,"lon":5.36625,"is_reserved":false,"is_disabled":false,"rental_uris":{"android":"levelo://app?vid=a5b47075-cc34-4d2d-9ebe-68115039bbf3","ios":"levelo://app?vid=a5b47075-cc34-4d2d-9ebe-68115039bbf3"},"vehicle_type_id":"4","last_reported":1768321092,"current_range_meters":9200,"station_id":"ce4bgrh2rcd13ifvqc8g","pricing_plan_id":"cebpf4jnsgd1na2vs0mg"},{"bike_id":"b1f9b624-e2b8-400f-bfca-f7daf4f0cf6b","system_id":"levelo_inurba_marseille","lat":43.302145,"lon":5.394699,"is_reserved":false,"is_disabled":false,"rental_uris":{"android":"levelo://app?vid=b1f9b624-e2b8-400f-bfca-f7daf4f0cf6b","ios":"levelo://app?vid=b1f9b624-e2b8-400f-bfca-f7daf4f0cf6b"},"vehicle_type_id":"4","last_reported":1768321092,"current_range_meters":9200,"station_id":"","pricing_plan_id":"cebpf4jnsgd1na2vs0mg"},{"bike_id":"27ea8170-0361-438d-b591-2ebcd05d2dfe","system_id":"levelo_inurba_marseille","lat":43.28422,"lon":5.35008,"is_reserved":false,"is_disabled":false,"rental_uris":{"android":"levelo://app?vid=27ea8170-0361-438d-b591-2ebcd05d2dfe","ios":"levelo://app?vid=27ea8170-0361-438d-b591-2ebcd05d2dfe"},"vehicle_type_id":"4","last_reported":1768321092,"current_range_meters":9600,"station_id":"ce4bhbh2rcd13ifvqepg","pricing_plan_id":"cebpf4jnsgd1na2vs0mg"},{"bike_id":"1bf5f90b-be93-4125-879f-1ef3a8850708","system_id":"levelo_inurba_marseille","lat":43.294462,"lon":5.377791,"is_reserved":false,"is_disabled":false,"rental_uris":{"android":"levelo://app?vid=1bf5f90b-be93-4125-879f-1ef3a8850708","ios":"levelo://app?vid=1bf5f90b-be93-4125-879f-1ef3a8850708"},"vehicle_type_id":"4","last_reported":1768321092,"current_range_meters":9600,"station_id":"ce4bgjh2rcd13ifvqbf0","pricing_plan_id":"cebpf4jnsgd1na2vs0mg"},{"bike_id":"724de8c9-2883-4455-a458-126b64737fa0","system_id":"levelo_inurba_marseille","lat":43.28531,"lon":5.44106,"is_reserved":false,"is_disabled":false,"rental_uris":{"android":"levelo://app?vid=724de8c9-2883-4455-a458-126b64737fa0","ios":"levelo://app?vid=724de8c9-2883-4455-a458-126b64737fa0"},"vehicle_type_id":"4","last_reported":1768321092,"current_range_meters":9600,"station_id":"st_d3j3df2ikq2c7380ej80","pricing_plan_id":"cebpf4jnsgd1na2vs0mg"},{"bike_id":"65911626-1c61-4f37-a33b-f9cb4cd0f7ea","system_id":"levelo_inurba_marseille","lat":43.27983,"lon":5.41668,"is_reserved":false,"is_disabled":false,"rental_uris":{"android":"levelo://app?vid=65911626-1c61-4f37-a33b-f9cb4cd0f7ea","ios":"levelo://app?vid=65911626-1c61-4f37-a33b-f9cb4cd0f7ea"},"vehicle_type_id":"4","last_reported":1768321092,"current_range_meters":9600,"station_id":"ce4bho12rcd13ifvqh1g","pricing_plan_id":"cebpf4jnsgd1na2vs0mg"},{"bike_id":"d3adc42d-0576-4954-8492-720260568653","system_id":"levelo_inurba_marseille","lat":43.246371,"lon":5.389014,"is_reserved":false,"is_disabled":false,"rental_uris":{"android":"levelo://app?vid=d3adc42d-0576-4954-8492-720260568653","ios":"levelo://app?vid=d3adc42d-0576-4954-8492-720260568653"},"vehicle_type_id":"4","last_reported":1768321092,"current_range_meters":9600,"station_id":"ce4bhg12rcd13ifvqf60","pricing_plan_id":"cebpf4jnsgd1na2vs0mg"},{"bike_id":"eafa126d-0f57-4cee-ab0c-812b0d93d833","system_id":"levelo_inurba_marseille","lat":43.31376,"lon":5.367,"is_reserved":false,"is_disabled":false,"rental_uris":{"android":"levelo://app?vid=eafa126d-0f57-4cee-ab0c-812b0d93d833","ios":"levelo://app?vid=eafa126d-0f57-4cee-ab0c-812b0d93d833"},"vehicle_type_id":"4","last_reported":1768321092,"current_range_meters":9600,"station_id":"ce4bgr92rcd13ifvqc6g","pricing_plan_id":"cebpf4jnsgd1na2vs0mg"},{"bike_id":"edae41ff-efa7-45e8-b9af-a8202fc573da","system_id":"levelo_inurba_marseille","lat":43.249925,"lon":5.389349,"is_reserved":false,"is_disabled":false,"rental_uris":{"android":"levelo://app?vid=edae41ff-efa7-45e8-b9af-a8202fc573da","ios":"levelo://app?vid=edae41ff-efa7-45e8-b9af-a8202fc573da"},"vehicle_type_id":"4","last_reported":1768321092,"current_range_meters":9600,"station_id":"ce4bhgp2rcd13ifvqfd0","pricing_plan_id":"cebpf4jnsgd1na2vs0mg"},{"bike_id":"bbb74105-3be2-48fe-95ba-d328ecd4aedb","system_id":"levelo_inurba_marseille","lat":43.246452,"lon":5.388883,"is_reserved":false,"is_disabled":false,"rental_uris":{"android":"levelo://app?vid=bbb74105-3be2-48fe-95ba-d328ecd4aedb","ios":"levelo://app?vid=bbb74105-3be2-48fe-95ba-d328ecd4aedb"},"vehicle_type_id":"4","last_reported":1768321092,"current_range_meters":9600,"station_id":"ce4bhg12rcd13ifvqf60","pricing_plan_id":"cebpf4jnsgd1na2vs0mg"},{"bike_id":"b56713af-f00e-4869-8063-775f8dc178bd","system_id":"levelo_inurba_marseille","lat":43.27988,"lon":5.41665,"is_reserved":false,"is_disabled":true,"rental_uris":{"android":"levelo://app?vid=b56713af-f00e-4869-8063-775f8dc178bd","ios":"levelo://app?vid=b56713af-f00e-4869-8063-775f8dc178bd"},"vehicle_type_id":"4","last_reported":1768321092,"current_range_meters":9600,"station_id":"ce4bho12rcd13ifvqh1g","pricing_plan_id":"cebpf4jnsgd1na2vs0mg"},{"bike_id":"2ca62a56-7776-4970-9af8-4359e51e07d3","system_id":"levelo_inurba_marseille","lat":43.29706,"lon":5.37714,"is_reserved":false,"is_disabled":false,"rental_uris":{"android":"levelo://app?vid=2ca62a56-7776-4970-9af8-4359e51e07d3","ios":"levelo://app?vid=2ca62a56-7776-4970-9af8-4359e51e07d3"},"vehicle_type_id":"4","last_reported":1768321092,"current_range_meters":9600,"station_id":"ce4bgkh2rcd13ifvqbl0","pricing_plan_id":"cebpf4jnsgd1na2vs0mg"},{"bike_id":"6799e5e8-82a6-481e-93fb-b1ca5c27007d","system_id":"levelo_inurba_marseille","lat":43.29172,"lon":5.37168,"is_reserved":false,"is_disabled":false,"rental_uris":{"android":"levelo://app?vid=6799e5e8-82a6-481e-93fb-b1ca5c27007d","ios":"levelo://app?vid=6799e5e8-82a6-481e-93fb-b1ca5c27007d"},"vehicle_type_id":"4","last_reported":1768321092,"current_range_meters":9600,"station_id":"ce4bha92rcd13ifvqeh0","pricing_plan_id":"cebpf4jnsgd1na2vs0mg"},{"bike_id":"dac3fb11-a38a-4e00-b603-57d9f1795982","system_id":"levelo_inurba_marseille","lat":43.29166,"lon":5.37164,"is_reserved":false,"is_disabled":false,"rental_uris":{"android":"levelo://app?vid=dac3fb11-a38a-4e00-b603-57d9f1795982","ios":"levelo://app?vid=dac3fb11-a38a-4e00-b603-57d9f1795982"},"vehicle_type_id":"4","last_reported":1768321092,"current_range_meters":9600,"station_id":"ce4bha92rcd13ifvqeh0","pricing_plan_id":"cebpf4jnsgd1na2vs0mg"},{"bike_id":"8d76e454-c6d5-4421-84d9-c75f79e28396","system_id":"levelo_inurba_marseille","lat":43.29719,"lon":5.36621,"is_reserved":false,"is_disabled":false,"rental_uris":{"android":"levelo://app?vid=8d76e454-c6d5-4421-84d9-c75f79e28396","ios":"levelo://app?vid=8d76e454-c6d5-4421-84d9-c75f79e28396"},"vehicle_type_id":"4","last_reported":1768321092,"current_range_meters":9600,"station_id":"ce4bgn12rcd13ifvqbt0","pricing_plan_id":"cebpf4jnsgd1na2vs0mg"},{"bike_id":"f46e8896-f60b-49f2-b8ac-80520c0162b1","system_id":"levelo_inurba_marseille","lat":43.2902,"lon":5.37381,"is_reserved":false,"is_disabled":false,"rental_uris":{"android":"levelo://app?vid=f46e8896-f60b-49f2-b8ac-80520c0162b1","ios":"levelo://app?vid=f46e8896-f60b-49f2-b8ac-80520c0162b1"},"vehicle_type_id":"4","last_reported":1768321092,"current_range_meters":9600,"station_id":"","pricing_plan_id":"cebpf4jnsgd1na2vs0mg"},{"bike_id":"37812a24-f46a-44a3-896e-37273948907b","system_id":"levelo_inurba_marseille","lat":43.28726,"lon":5.37942,"is_reserved":false,"is_disabled":false,"rental_uris":{"android":"levelo://app?vid=37812a24-f46a-44a3-896e-37273948907b","ios":"levelo://app?vid=37812a24-f46a-44a3-896e-37273948907b"},"vehicle_type_id":"4","last_reported":1768321092,"current_range_meters":9600,"station_id":"ce4bh9p2rcd13ifvqec0","pricing_plan_id":"cebpf4jnsgd1na2vs0mg"},{"bike_id":"7e09f6aa-6a01-490d-a5d4-56de9c0277ad","system_id":"levelo_inurba_marseille","lat":43.28537,"lon":5.441,"is_reserved":false,"is_disabled":false,"rental_uris":{"android":"levelo://app?vid=7e09f6aa-6a01-490d-a5d4-56de9c0277ad","ios":"levelo://app?vid=7e09f6aa-6a01-490d-a5d4-56de9c0277ad"},"vehicle_type_id":"4","last_reported":1768321092,"current_range_meters":10000,"station_id":"st_d3j3df2ikq2c7380ej80","pricing_plan_id":"cebpf4jnsgd1na2vs0mg"},{"bike_id":"2ee0fab5-7040-4975-9414-0b1e23a72b5b","system_id":"levelo_inurba_marseille","lat":43.32348,"lon":5.36737,"is_reserved":false,"is_disabled":false,"rental_uris":{"android":"levelo://app?vid=2ee0fab5-7040-4975-9414-0b1e23a72b5b","ios":"levelo://app?vid=2ee0fab5-7040-4975-9414-0b1e23a72b5b"},"vehicle_type_id":"4","last_reported":1768321092,"current_range_meters":10000,"station_id":"ce4bhsh2rcd13ifvqi2g","pricing_plan_id":"cebpf4jnsgd1na2vs0mg"},{"bike_id":"66b22a0d-8193-426f-802e-f81b60966219","system_id":"levelo_inurba_marseille","lat":43.23788,"lon":5.36628,"is_reserved":false,"is_disabled":false,"rental_uris":{"android":"levelo://app?vid=66b22a0d-8193-426f-802e-f81b60966219","ios":"levelo://app?vid=66b22a0d-8193-426f-802e-f81b60966219"},"vehicle_type_id":"4","last_reported":1768321092,"current_range_meters":10000,"station_id":"st_d3nk18o9ro0c73en2l3g","pricing_plan_id":"cebpf4jnsgd1na2vs0mg"},{"bike_id":"54a5227f-b40b-4cb7-9b02-b20a06d21f47","system_id":"levelo_inurba_marseille","lat":43.30566,"lon":5.36415,"is_reserved":false,"is_disabled":false,"rental_uris":{"android":"levelo://app?vid=54a5227f-b40b-4cb7-9b02-b20a06d21f47","ios":"levelo://app?vid=54a5227f-b40b-4cb7-9b02-b20a06d21f47"},"vehicle_type_id":"4","last_reported":1768321092,"current_range_meters":10000,"station_id":"","pricing_plan_id":"cebpf4jnsgd1na2vs0mg"},{"bike_id":"023b021f-b7a1-4cdd-8807-9092d492c18a","system_id":"levelo_inurba_marseille","lat":43.26933,"lon":5.38639,"is_reserved":false,"is_disabled":false,"rental_uris":{"android":"levelo://app?vid=023b021f-b7a1-4cdd-8807-9092d492c18a","ios":"levelo://app?vid=023b021f-b7a1-4cdd-8807-9092d492c18a"},"vehicle_type_id":"4","last_reported":1768321092,"current_range_meters":10000,"station_id":"ce4bhh92rcd13ifvqfh0","pricing_plan_id":"cebpf4jnsgd1na2vs0mg"},{"bike_id":"20583c9e-c4b7-4107-9c72-a87b9b6cbfb2","system_id":"levelo_inurba_marseille","lat":43.30209,"lon":5.39466,"is_reserved":false,"is_disabled":false,"rental_uris":{"android":"levelo://app?vid=20583c9e-c4b7-4107-9c72-a87b9b6cbfb2","ios":"levelo://app?vid=20583c9e-c4b7-4107-9c72-a87b9b6cbfb2"},"vehicle_type_id":"4","last_reported":1768321092,"current_range_meters":10000,"station_id":"ce4bh0p2rcd13ifvqd70","pricing_plan_id":"cebpf4jnsgd1na2vs0mg"},{"bike_id":"0261c6fd-283d-4283-af45-cb4a9ce5e8c4","system_id":"levelo_inurba_marseille","lat":43.23524,"lon":5.35949,"is_reserved":false,"is_disabled":false,"rental_uris":{"android":"levelo://app?vid=0261c6fd-283d-4283-af45-cb4a9ce5e8c4","ios":"levelo://app?vid=0261c6fd-283d-4283-af45-cb4a9ce5e8c4"},"vehicle_type_id":"4","last_reported":1768321092,"current_range_meters":10000,"station_id":"","pricing_plan_id":"cebpf4jnsgd1na2vs0mg"},{"bike_id":"6d57f812-15ba-4444-9c0c-dbbe3143382e","system_id":"levelo_inurba_marseille","lat":43.27058,"lon":5.40265,"is_reserved":false,"is_disabled":true,"rental_uris":{"android":"levelo://app?vid=6d57f812-15ba-4444-9c0c-dbbe3143382e","ios":"levelo://app?vid=6d57f812-15ba-4444-9c0c-dbbe3143382e"},"vehicle_type_id":"4","last_reported":1768321092,"current_range_meters":10000,"station_id":"ce4bhk92rcd13ifvqgc0","pricing_plan_id":"cebpf4jnsgd1na2vs0mg"},{"bike_id":"f680f50c-74ae-434a-9907-5a62e8f7d3ec","system_id":"levelo_inurba_marseille","lat":43.30537,"lon":5.36701,"is_reserved":false,"is_disabled":false,"rental_uris":{"android":"levelo://app?vid=f680f50c-74ae-434a-9907-5a62e8f7d3ec","ios":"levelo://app?vid=f680f50c-74ae-434a-9907-5a62e8f7d3ec"},"vehicle_type_id":"4","last_reported":1768321092,"current_range_meters":10000,"station_id":"ce4bgrp2rcd13ifvqc9g","pricing_plan_id":"cebpf4jnsgd1na2vs0mg"},