{"last_updated":1760681732,"ttl":60,"version":"2.2","data":{"bikes":[{"bike_id":"1b78d50e-e95b-419e-a5ec-c3093b7e141a","system_id":"levelo_inurba_marseille","lat":43.337444,"lon":5.374475,"is_reserved":false,"is_disabled":true,"rental_uris":{"android":"levelo://app?vid=1b78d50e-e95b-419e-a5ec-c3093b7e141a","ios":"levelo://app?vid=1b78d50e-e95b-419e-a5ec-c3093b7e141a"},"vehicle_type_id":"4","last_reported":1760681732,"current_range_meters":0,"station_id":"","pricing_plan_id":"cebpf4jnsgd1na2vs0mg"},{"bike_id":"84c22208-7ddb-49b8-be8e-b34b5bdf05b2","system_id":"levelo_inurba_marseille","lat":43.33771,"lon":5.37424,"is_reserved":false,"is_disabled":true,"rental_uris":{"android":"levelo://app?vid=84c22208-7ddb-49b8-be8e-b34b5bdf05b2","ios":"levelo://app?vid=84c22208-7ddb-49b8-be8e-b34b5bdf05b2"},"vehicle_type_id":"4","last_reported":1760681732,"current_range_meters":0,"station_id":"","pricing_plan_id":"cebpf4jnsgd1na2vs0mg"},{"bike_id":"da90025a-3512-4db8-9c5c-f808888b7e59","system_id":"levelo_inurba_marseille","lat":43.33751,"lon":5.37456,"is_reserved":false,"is_disabled":true,"rental_uris":{"android":"levelo://app?vid=da90025a-3512-4db8-9c5c-f808888b7e59","ios":"levelo://app?vid=da90025a-3512-4db8-9c5c-f808888b7e59"},"vehicle_type_id":"4","last_reported":1760681732,"current_range_meters":0,"station_id":"","pricing_plan_id":"cebpf4jnsgd1na2vs0mg"},{"bike_id":"783b0905-e73e-4043-b791-e38f037df91f","system_id":"levelo_inurba_marseille","lat":43.33747,"lon":5.37463,"is_reserved":false,"is_disabled":true,"rental_uris":{"android":"levelo://app?vid=783b0905-e73e-4043-b791-e38f037df91f","ios":"levelo://app?vid=783b0905-e73e-4043-b791-e38f037df91f"},"vehicle_type_id":"1","last_reported":1760681732,"current_range_meters":0,"station_id":"","pricing_plan_id":"cebpf4jnsgd1na2vs0mg"},{"bike_id":"8d89ee17-9f9e-4689-8ca8-8bd05eb5782d","system_id":"levelo_inurba_marseille","lat":43.33737,"lon":5.37465,"is_reserved":false,"is_disabled":true,"rental_uris":{"android":"levelo://app?vid=8d89ee17-9f9e-4689-8ca8-8bd05eb5782d","ios":"levelo://app?vid=8d89ee17-9f9e-4689-8ca8-8bd05eb5782d"},"vehicle_type_id":"4","last_reported":1760681732,"current_range_meters":0,"station_id":"","pricing_plan_id":"cebpf4jnsgd1na2vs0mg"},{"bike_id":"0ab0967e-1041-44e0-b599-5f9a08360f34","system_id":"levelo_inurba_marseille","lat":43.33755,"lon":5.37468,"is_reserved":false,"is_disabled":true,"rental_uris":{"android":"levelo://app?vid=0ab0967e-1041-44e0-b599-5f9a08360f34","ios":"levelo://app?vid=0ab0967e-1041-44e0-b599-5f9a08360f34"},"vehicle_type_id":"4","last_reported":1760681732,"current_range_meters":0,"station_id":"","pricing_plan_id":"cebpf4jnsgd1na2vs0mg"},{"bike_id":"44c5d8b8-3b93-4ee7-95d3-747bcabcce2c","system_id":"levelo_inurba_marseille","lat":43.337444,"lon":5.374475,"is_reserved":false,"is_disabled":true,"rental_uris":{"android":"levelo://app?vid=44c5d8b8-3b93-4ee7-95d3-747bcabcce2c","ios":"levelo://app?vid=44c5d8b8-3b93-4ee7-95d3-747bcabcce2c"},"vehicle_type_id":"4","last_reported":1760681732,"current_range_meters":0,"station_id":"","pricing_plan_id":"cebpf4jnsgd1na2vs0mg"},{"bike_id":"13795e40-ba46-438c-a25f-1b5bade251a4","system_id":"levelo_inurba_marseille","lat":43.30773,"lon":5.3677,"is_reserved":false,"is_disabled":true,"rental_uris":{"android":"levelo://app?vid=13795e40-ba46-438c-a25f-1b5bade251a4","ios":"levelo://app?vid=13795e40-ba46-438c-a25f-1b5bade251a4"},"vehicle_type_id":"4","last_reported":1760681732,"current_range_meters":0,"station_id":"","pricing_plan_id":"cebpf4jnsgd1na2vs0mg"},{"bike_id":"6a09c87e-850a-4728-ae04-3800a14ab6f6","system_id":"levelo_inurba_marseille","lat":43.23965,"lon":5.36624,"is_reserved":false,"is_disabled":true,"rental_uris":{"android":"levelo://app?vid=6a09c87e-850a-4728-ae04-3800a14ab6f6","ios":"levelo://app?vid=6a09c87e-850a-4728-ae04-3800a14ab6f6"},"vehicle_type_id":"4","last_reported":1760681732,"current_range_meters":0,"station_id":"","pricing_plan_id":"cebpf4jnsgd1na2vs0mg"},{"bike_id":"af233c89-ff22-4fc0-a87b-2353168c05dd","system_id":"levelo_inurba_marseille","lat":43.27413,"lon":5.41169,"is_reserved":false,"is_disabled":true,"rental_uris":{"android":"levelo://app?vid=af233c89-ff22-4fc0-a87b-2353168c05dd","ios":"levelo://app?vid=af233c89-ff22-4fc0-a87b-2353168c05dd"},"vehicle_type_id":"4","last_reported":1760681732,"current_range_meters":0,"station_id":"","pricing_plan_id":"cebpf4jnsgd1na2vs0mg"},{"bike_id":"e7973983-e409-4d4d-9d5b-ce0cf838629a","system_id":"levelo_inurba_marseille","lat":43.284972,"lon":5.384354,"is_reserved":false,"is_disabled":true,"rental_uris":{"android":"levelo://app?vid=e7973983-e409-4d4d-9d5b-ce0cf838629a","ios":"levelo://app?vid=e7973983-e409-4d4d-9d5b-ce0cf838629a"},"vehicle_type_id":"4","last_reported":1760681732,"current_range_meters":0,"station_id":"","pricing_plan_id":"cebpf4jnsgd1na2vs0mg"},{"bike_id":"e174ec7a-3d90-4146-9085-b8a14d5ce575","system_id":"levelo_inurba_marseille","lat":43.2497,"lon":5.40136,"is_reserved":false,"is_disabled":true,"rental_uris":{"android":"levelo://app?vid=e174ec7a-3d90-4146-9085-b8a14d5ce575","ios":"levelo://app?vid=e174ec7a-3d90-4146-9085-b8a14d5ce575"},"vehicle_type_id":"4","last_reported":1760681732,"current_range_meters":0,"station_id":"","pricing_plan_id":"cebpf4jnsgd1na2vs0mg"},{"bike_id":"16eed657-9695-4baa-b480-c274f8e9018f","system_id":"levelo_inurba_marseille","lat":43.2684,"lon":5.38524,"is_reserved":false,"is_disabled":true,"rental_uris":{"android":"levelo://app?vid=16eed657-9695-4baa-b480-c274f8e9018f","ios":"levelo://app?vid=16eed657-9695-4baa-b480-c274f8e9018f"},"vehicle_type_id":"4","last_reported":1760681732,"current_range_meters":0,"station_id":"","pricing_plan_id":"cebpf4jnsgd1na2vs0mg"},{"bike_id":"83560911-40e0-4475-b727-bda6aeb6ed60","system_id":"levelo_inurba_marseille","lat":43.22538,"lon":5.34834,"is_reserved":false,"is_disabled":true,"rental_uris":{"android":"levelo://app?vid=83560911-40e0-4475-b727-bda6aeb6ed60","ios":"levelo://app?vid=83560911-40e0-4475-b727-bda6aeb6ed60"},"vehicle_type_id":"4","last_reported":1760681732,"current_range_meters":0,"station_id":"","pricing_plan_id":"cebpf4jnsgd1na2vs0mg"},{"bike_id":"3327e998-6a1b-431b-a68a-176444eaf7d0","system_id":"levelo_inurba_marseille","lat":43.29662,"lon":5.36757,"is_reserved":false,"is_disabled":true,"rental_uris":{"android":"levelo://app?vid=3327e998-6a1b-431b-a68a-176444eaf7d0","ios":"levelo://app?vid=3327e998-6a1b-431b-a68a-176444eaf7d0"},"vehicle_type_id":"4","last_reported":1760681732,"current_range_meters":0,"station_id":"","pricing_plan_id":"cebpf4jnsgd1na2vs0mg"},{"bike_id":"eb9fdec9-99d7-422d-ba0b-35ee4d7c324b","system_id":"levelo_inurba_marseille","lat":43.22531,"lon":5.34836,"is_reserved":false,"is_disabled":true,"rental_uris":{"android":"levelo://app?vid=eb9fdec9-99d7-422d-ba0b-35ee4d7c324b","ios":"levelo://app?vid=eb9fdec9-99d7-422d-ba0b-35ee4d7c324b"},"vehicle_type_id":"4","last_reported":1760681732,"current_range_meters":0,"station_id":"","pricing_plan_id":"cebpf4jnsgd1na2vs0mg"},{"bike_id":"4c49ff48-f815-4dd0-8fd4-375b27e08d94","system_id":"levelo_inurba_marseille","lat":43.291488,"lon":5.408176,"is_reserved":false,"is_disabled":true,"rental_uris":{"android":"levelo://app?vid=4c49ff48-f815-4dd0-8fd4-375b27e08d94","ios":"levelo://app?vid=4c49ff48-f815-4dd0-8fd4-375b27e08d94"},"vehicle_type_id":"4","last_reported":1760681732,"current_range_meters":0,"station_id":"","pricing_plan_id":"cebpf4jnsgd1na2vs0mg"},{"bike_id":"6776cb03-734b-4d27-9345-e3fc5cb1d40c","system_id":"levelo_inurba_marseille","lat":43.26343,"lon":5.40102,"is_reserved":false,"is_disabled":true,"rental_uris":{"android":"levelo://app?vid=6776cb03-734b-4d27-9345-e3fc5cb1d40c","ios":"levelo://app?vid=6776cb03-734b-4d27-9345-e3fc5cb1d40c"},"vehicle_type_id":"4","last_reported":1760681732,"current_range_meters":0,"station_id":"","pricing_plan_id":"cebpf4jnsgd1na2vs0mg"},{"bike_id":"3804a29c-a782-4c50-a410-9157f2094310","system_id":"levelo_inurba_marseille","lat":43.274425,"lon":5.3848,"is_reserved":false,"is_disabled":true,"rental_uris":{"android":"levelo://app?vid=3804a29c-a782-4c50-a410-9157f2094310","ios":"levelo://app?vid=3804a29c-a782-4c50-a410-9157f2094310"},"vehicle_type_id":"4","last_reported":1760681732,"current_range_meters":0,"station_id":"","pricing_plan_id":"cebpf4jnsgd1na2vs0mg"},{"bike_id":"c5939fc8-9930-4946-980f-efc9f762c9ae","system_id":"levelo_inurba_marseille","lat":43.251796,"lon":5.375516,"is_reserved":false,"is_disabled":true,"rental_uris":{"android":"levelo://app?vid=c5939fc8-9930-4946-980f-efc9f762c9ae","ios":"levelo://app?vid=c5939fc8-9930-4946-980f-efc9f762c9ae"},"vehicle_type_id":"4","last_reported":1760681732,"current_range_meters":0,"station_id":"","pricing_plan_id":"cebpf4jnsgd1na2vs0mg"},{"bike_id":"4b0f356a-7a97-4f4e-85ee-bd2469184852","system_id":"levelo_inurba_marseille","lat":43.279433,"lon":5.415166,"is_reserved":false,"is_disabled":true,"rental_uris":{"android":"levelo://app?vid=4b0f356a-7a97-4f4e-85ee-bd2469184852","ios":"levelo://app?vid=4b0f356a-7a97-4f4e-85ee-bd2469184852"},"vehicle_type_id":"4","last_reported":1760681732,"current_range_meters":0,"station_id":"","pricing_plan_id":"cebpf4jnsgd1na2vs0mg"},{"bike_id":"124077fa-3fea-4e89-99ac-8687f87c4c44","system_id":"levelo_inurba_marseille","lat":43.2954,"lon":5.383068,"is_reserved":false,"is_disabled":true,"rental_uris":{"android":"levelo://app?vid=124077fa-3fea-4e89-99ac-8687f87c4c44","ios":"levelo://app?vid=124077fa-3fea-4e89-99ac-8687f87c4c44"},"vehicle_type_id":"4","last_reported":1760681732,"current_range_meters":0,"station_id":"","pricing_plan_id":"cebpf4jnsgd1na2vs0mg"},{"bike_id":"5cb07cb5-0b34-4b60-a06d-6b4732ac8358","system_id":"levelo_inurba_marseille","lat":43.272289,"lon":5.392788,"is_reserved":false,"is_disabled":true,"rental_uris":{"android":"levelo://app?vid=5cb07cb5-0b34-4b60-a06d-6b4732ac8358","ios":"levelo://app?vid=5cb07cb5-0b34-4b60-a06d-6b4732ac8358"},"vehicle_type_id":"4","last_reported":1760681732,"current_range_meters":0,"station_id":"","pricing_plan_id":"cebpf4jnsgd1na2vs0mg"},{"bike_id":"14b2c2ae-b21d-4422-a602-7ad9cf908478","system_id":"levelo_inurba_marseille","lat":43.279412,"lon":5.412289,"is_reserved":false,"is_disabled":true,"rental_uris":{"android":"levelo://app?vid=14b2c2ae-b21d-4422-a602-7ad9cf908478","ios":"levelo://app?vid=14b2c2ae-b21d-4422-a602-7ad9cf908478"},"vehicle_type_id":"4","last_reported":1760681732,"current_range_meters":0,"station_id":"","pricing_plan_id":"cebpf4jnsgd1na2vs0mg"},{"bike_id":"a07671c1-6d17-4bcd-ab00-db4ecec8b7f4","system_id":"levelo_inurba_marseille","lat":43.31697,"lon":5.40457,"is_reserved":false,"is_disabled":true,"rental_uris":{"android":"levelo://app?vid=a07671c1-6d17-4bcd-ab00-db4ecec8b7f4","ios":"levelo://app?vid=a07671c1-6d17-4bcd-ab00-db4ecec8b7f4"},"vehicle_type_id":"4","last_reported":1760681732,"current_range_meters":0,"station_id":"ce4bh012rcd13ifvqd00","pricing_plan_id":"cebpf4jnsgd1na2vs0mg"},{"bike_id":"4bb75d7a-ac50-4673-96d1-2545e379c9cc","system_id":"levelo_inurba_marseille","lat":43.301213,"lon":5.398596,"is_reserved":false,"is_disabled":true,"rental_uris":{"android":"levelo://app?vid=4bb75d7a-ac50-4673-96d1-2545e379c9cc","ios":"levelo://app?vid=4bb75d7a-ac50-4673-96d1-2545e379c9cc"},"vehicle_type_id":"4","last_reported":1760681732,"current_range_meters":0,"station_id":"ce4bh0h2rcd13ifvqd40","pricing_plan_id":"cebpf4jnsgd1na2vs0mg"},{"bike_id":"641876d9-f68e-466c-989d-dff00292e439","system_id":"levelo_inurba_marseille","lat":43.28944,"lon":5.39629,"is_reserved":false,"is_disabled":true,"rental_uris":{"android":"levelo://app?vid=641876d9-f68e-466c-989d-dff00292e439","ios":"levelo://app?vid=641876d9-f68e-466c-989d-dff00292e439"},"vehicle_type_id":"4","last_reported":1760681732,"current_range_meters":0,"station_id":"ce4bh3h2rcd13ifvqdn0","pricing_plan_id":"cebpf4jnsgd1na2vs0mg"},{"bike_id":"f4dd4007-5747-4406-8704-1be3d602c57e","system_id":"levelo_inurba_marseille","lat":43.284074,"lon":5.375006,"is_reserved":false,"is_disabled":true,"rental_uris":{"android":"levelo://app?vid=f4dd4007-5747-4406-8704-1be3d602c57e","ios":"levelo://app?vid=f4dd4007-5747-4406-8704-1be3d602c57e"},"vehicle_type_id":"4","last_reported":1760681732,"current_range_meters":0,"station_id":"ce4bh412rcd13ifvqds0","pricing_plan_id":"cebpf4jnsgd1na2vs0mg"},{"bike_id":"be9a6e73-9efb-4ae1-aa0f-18af9cf0c97a","system_id":"levelo_inurba_marseille","lat":43.28468,"lon":5.38423,"is_reserved":false,"is_disabled":true,"rental_uris":{"android":"levelo://app?vid=be9a6e73-9efb-4ae1-aa0f-18af9cf0c97a","ios":"levelo://app?vid=be9a6e73-9efb-4ae1-aa0f-18af9cf0c97a"},"vehicle_type_id":"4","last_reported":1760681732,"current_range_meters":0,"station_id":"ce4bh512rcd13ifvqe3g","pricing_plan_id":"cebpf4jnsgd1na2vs0mg"},{"bike_id":"69498116-c619-4c18-bdcc-044f697eb141","system_id":"levelo_inurba_marseille","lat":43.288836,"lon":5.38212,"is_reserved":false,"is_disabled":true,"rental_uris":{"android":"levelo://app?vid=69498116-c619-4c18-bdcc-044f697eb141","ios":"levelo://app?vid=69498116-c619-4c18-bdcc-044f697eb141"},"vehicle_type_id":"4","last_reported":1760681732,"current_range_meters":0,"station_id":"ce4bh8p2rcd13ifvqeb0","pricing_plan_id":"cebpf4jnsgd1na2vs0mg"},{"bike_id":"2c896c5a-298d-434b-834a-129af70f681c","system_id":"levelo_inurba_marseille","lat":43.29033,"lon":5.35943,"is_reserved":false,"is_disabled":true,"rental_uris":{"android":"levelo://app?vid=2c896c5a-298d-434b-834a-129af70f681c","ios":"levelo://app?vid=2c896c5a-298d-434b-834a-129af70f681c"},"vehicle_type_id":"4","last_reported":1760681732,"current_range_meters":0,"station_id":"ce4bha92rcd13ifvqeg0","pricing_plan_id":"cebpf4jnsgd1na2vs0mg"},{"bike_id":"32781f62-932c-4412-99c5-5e0d9ac68fe9","system_id":"levelo_inurba_marseille","lat":43.273749,"lon":5.362649,"is_reserved":false,"is_disabled":true,"rental_uris":{"android":"levelo://app?vid=32781f62-932c-4412-99c5-5e0d9ac68fe9","ios":"levelo://app?vid=32781f62-932c-4412-99c5-5e0d9ac68fe9"},"vehicle_type_id":"4","last_reported":1760681732,"current_range_meters":0,"station_id":"ce4bhbh2rcd13ifvqeo0","pricing_plan_id":"cebpf4jnsgd1na2vs0mg"},{"bike_id":"662c988f-6796-4e97-9249-7303e6f05af0","system_id":"levelo_inurba_marseille","lat":43.28272,"lon":5.35018,"is_reserved":false,"is_disabled":true,"rental_uris":{"android":"levelo://app?vid=662c988f-6796-4e97-9249-7303e6f05af0","ios":"levelo://app?vid=662c988f-6796-4e97-9249-7303e6f05af0"},"vehicle_type_id":"4","last_reported":1760681732,"current_range_meters":0,"station_id":"ce4bhbp2rcd13ifvqerg","pricing_plan_id":"cebpf4jnsgd1na2vs0mg"},{"bike_id":"0c26d98e-77cc-44b8-b2dd-bfc2642c925e","system_id":"levelo_inurba_marseille","lat":43.274372,"lon":5.394096,"is_reserved":false,"is_disabled":true,"rental_uris":{"android":"levelo://app?vid=0c26d98e-77cc-44b8-b2dd-bfc2642c925e","ios":"levelo://app?vid=0c26d98e-77cc-44b8-b2dd-bfc2642c925e"},"vehicle_type_id":"4","last_reported":1760681732,"current_range_meters":0,"station_id":"ce4bhdp2rcd13ifvqf20","pricing_plan_id":"cebpf4jnsgd1na2vs0mg"},{"bike_id":"249d6189-6f85-405c-980f-dcb4720e5db4","system_id":"levelo_inurba_marseille","lat":43.27909,"lon":5.39592,"is_reserved":false,"is_disabled":true,"rental_uris":{"android":"levelo://app?vid=249d6189-6f85-405c-980f-dcb4720e5db4","ios":"levelo://app?vid=249d6189-6f85-405c-980f-dcb4720e5db4"},"vehicle_type_id":"4","last_reported":1760681732,"current_range_meters":0,"station_id":"ce4bhf92rcd13ifvqf40","pricing_plan_id":"cebpf4jnsgd1na2vs0mg"},{"bike_id":"c3610992-da5f-4a6a-ae5e-02a9382285ab","system_id":"levelo_inurba_marseille","lat":43.24643,"lon":5.38897,"is_reserved":false,"is_disabled":true,"rental_uris":{"android":"levelo://app?vid=c3610992-da5f-4a6a-ae5e-02a9382285ab","ios":"levelo://app?vid=c3610992-da5f-4a6a-ae5e-02a9382285ab"},"vehicle_type_id":"4","last_reported":1760681732,"current_range_meters":0,"station_id":"ce4bhg12rcd13ifvqf60","pricing_plan_id":"cebpf4jnsgd1na2vs0mg"},{"bike_id":"c7e29cfb-feb6-49dc-968b-f2aebfb502f4","system_id":"levelo_inurba_marseille","lat":43.26786,"lon":5.39428,"is_reserved":false,"is_disabled":true,"rental_uris":{"android":"levelo://app?vid=c7e29cfb-feb6-49dc-968b-f2aebfb502f4","ios":"levelo://app?vid=c7e29cfb-feb6-49dc-968b-f2aebfb502f4"},"vehicle_type_id":"4","last_reported":1760681732,"current_range_meters":0,"station_id":"ce4bhh12rcd13ifvqfg0","pricing_plan_id":"cebpf4jnsgd1na2vs0mg"},{"bike_id":"5b0627f6-0a3e-4029-a0cb-7c6cfa2e42fb","system_id":"levelo_inurba_marseille","lat":43.239658,"lon":5.366371,"is_reserved":false,"is_disabled":true,"rental_uris":{"android":"levelo://app?vid=5b0627f6-0a3e-4029-a0cb-7c6cfa2e42fb","ios":"levelo://app?vid=5b0627f6-0a3e-4029-a0cb-7c6cfa2e42fb"},"vehicle_type_id":"4","last_reported":1760681732,"current_range_meters":0,"station_id":"ce4bhi12rcd13ifvqfp0","pricing_plan_id":"cebpf4jnsgd1na2vs0mg"},{"bike_id":"5d93fb6d-a30b-4576-89e7-77885bacd9a6","system_id":"levelo_inurba_marseille","lat":43.251037,"lon":5.403196,"is_reserved":false,"is_disabled":true,"rental_uris":{"android":"levelo://app?vid=5d93fb6d-a30b-4576-89e7-77885bacd9a6","ios":"levelo://app?vid=5d93fb6d-a30b-4576-89e7-77885bacd9a6"},"vehicle_type_id":"4","last_reported":1760681732,"current_range_meters":0,"station_id":"ce4bhlh2rcd13ifvqgig","pricing_plan_id":"cebpf4jnsgd1na2vs0mg"},{"bike_id":"f09d669d-e912-44e8-a46b-bf1377751064","system_id":"levelo_inurba_marseille","lat":43.23144,"lon":5.43728,"is_reserved":false,"is_disabled":true,"rental_uris":{"android":"levelo://app?vid=f09d669d-e912-44e8-a46b-bf1377751064","ios":"levelo://app?vid=f09d669d-e912-44e8-a46b-bf1377751064"},"vehicle_type_id":"4","last_reported":1760681732,"current_range_meters":0,"station_id":"ce4bhmp2rcd13ifvqgog","pricing_plan_id":"cebpf4jnsgd1na2vs0mg"},{"bike_id":"da8be982-3aba-4152-a463-205e9ba82ba5","system_id":"levelo_inurba_marseille","lat":43.2408,"lon":5.37746,"is_reserved":false,"is_disabled":true,"rental_uris":{"android":"levelo://app?vid=da8be982-3aba-4152-a463-205e9ba82ba5","ios":"levelo://app?vid=da8be982-3aba-4152-a463-205e9ba82ba5"},"vehicle_type_id":"4","last_reported":1760681732,"current_range_meters":0,"station_id":"ce4bhnp2rcd13ifvqgvg","pricing_plan_id":"cebpf4jnsgd1na2vs0mg"},{"bike_id":"f8099e6f-f36d-49ed-8770-80ec09b5a09e","system_id":"levelo_inurba_marseille","lat":43.2408,"lon":5.37753,"is_reserved":false,"is_disabled":true,"rental_uris":{"android":"levelo://app?vid=f8099e6f-f36d-49ed-8770-80ec09b5a09e","ios":"levelo://app?vid=f8099e6f-f36d-49ed-8770-80ec09b5a09e"},"vehicle_type_id":"4","last_reported":1760681732,"current_range_meters":0,"station_id":"ce4bhnp2rcd13ifvqgvg","pricing_plan_id":"cebpf4jnsgd1na2vs0mg"},{"bike_id":"b1755f3a-132d-4ef2-adf7-cce9fee13a5a","system_id":"levelo_inurba_marseille","lat":43.33624,"lon":5.4102,"is_reserved":false,"is_disabled":true,"rental_uris":{"android":"levelo://app?vid=b1755f3a-132d-4ef2-adf7-cce9fee13a5a","ios":"levelo://app?vid=b1755f3a-132d-4ef2-adf7-cce9fee13a5a"},"vehicle_type_id":"4","last_reported":1760681732,"current_range_meters":0,"station_id":"ce4bhqh2rcd13ifvqhmg","pricing_plan_id":"cebpf4jnsgd1na2vs0mg"},{"bike_id":"a75545b0-ed1e-417b-8ac9-7e9eafe36464","system_id":"levelo_inurba_marseille","lat":43.26936,"lon":5.40298,"is_reserved":false,"is_disabled":true,"rental_uris":{"android":"levelo://app?vid=a75545b0-ed1e-417b-8ac9-7e9eafe36464","ios":"levelo://app?vid=a75545b0-ed1e-417b-8ac9-7e9eafe36464"},"vehicle_type_id":"4","last_reported":1760681732,"current_range_meters":0,"station_id":"cjm6bp8fraef2m0cb0m0","pricing_plan_id":"cebpf4jnsgd1na2vs0mg"},{"bike_id":"7392215a-c92f-4dc8-b5b9-44692caa02a2","system_id":"levelo_inurba_marseille","lat":43.241685,"lon":5.36402,"is_reserved":false,"is_disabled":true,"rental_uris":{"android":"levelo://app?vid=7392215a-c92f-4dc8-b5b9-44692caa02a2","ios":"levelo://app?vid=7392215a-c92f-4dc8-b5b9-44692caa02a2"},"vehicle_type_id":"4","last_reported":1760681732,"current_range_meters":0,"station_id":"cpo36qri1sfpv3e86is0","pricing_plan_id":"cebpf4jnsgd1na2vs0mg"},{"bike_id":"ab3968fe-3b55-40ea-bbd1-eae81f0449bd","system_id":"levelo_inurba_marseille","lat":43.21188,"lon":5.35075,"is_reserved":false,"is_disabled":true,"rental_uris":{"android":"levelo://app?vid=ab3968fe-3b55-40ea-bbd1-eae81f0449bd","ios":"levelo://app?vid=ab3968fe-3b55-40ea-bbd1-eae81f0449bd"},"vehicle_type_id":"4","last_reported":1760681732,"current_range_meters":0,"station_id":"st_cvj6sg6p6f1abm77japg","pricing_plan_id":"cebpf4jnsgd1na2vs0mg"},{"bike_id":"64319cc5-1bac-445e-a3fb-e9e9b5d70b5c","system_id":"levelo_inurba_marseille","lat":43.25336,"lon":5.42175,"is_reserved":false,"is_disabled":true,"rental_uris":{"android":"levelo://app?vid=64319cc5-1bac-445e-a3fb-e9e9b5d70b5c","ios":"levelo://app?vid=64319cc5-1bac-445e-a3fb-e9e9b5d70b5c"},"vehicle_type_id":"4","last_reported":1760681732,"current_range_meters":0,"station_id":"st_d2m65c5bi1j21697t3ng","pricing_plan_id":"cebpf4jnsgd1na2vs0mg"},{"bike_id":"593d93ad-87b2-4cc3-bbb6-f7097cd8e227","system_id":"levelo_inurba_marseille","lat":43.24613,"lon":5.43188,"is_reserved":false,"is_disabled":true,"rental_uris":{"android":"levelo://app?vid=593d93ad-87b2-4cc3-bbb6-f7097cd8e227","ios":"levelo://app?vid=593d93ad-87b2-4cc3-bbb6-f7097cd8e227"},"vehicle_type_id":"4","last_reported":1760681732,"current_range_meters":0,"station_id":"st_d2m6c4gdas8pm72e190g","pricing_plan_id":"cebpf4jnsgd1na2vs0mg"},{"bike_id":"1c85a881-1a02-40ca-a892-0869eb8b6b91","system_id":"levelo_inurba_marseille","lat":43.29878,"lon":5.37731,"is_reserved":false,"is_disabled":true,"rental_uris":{"android":"levelo://app?vid=1c85a881-1a02-40ca-a892-0869eb8b6b91","ios":"levelo://app?vid=1c85a881-1a02-40ca-a892-0869eb8b6b91"},"vehicle_type_id":"4","last_reported":1760681732,"current_range_meters":400,"station_id":"","pricing_plan_id":"cebpf4jnsgd1na2vs0mg"},{"bike_id":"2782f896-a676-4247-a36b-e89b7e1c4fbc","system_id":"levelo_inurba_marseille","lat":43.31167,"lon":5.38711,"is_reserved":false,"is_disabled":true,"rental_uris":{"android":"levelo://app?vid=2782f896-a676-4247-a36b-e89b7e1c4fbc","ios":"levelo://app?vid=2782f896-a676-4247-a36b-e89b7e1c4fbc"},"vehicle_type_id":"4","last_reported":1760681732,"current_range_meters":400,"station_id":"ce4bgv12rcd13ifvqcp0","pricing_plan_id":"cebpf4jnsgd1na2vs0mg"},{"bike_id":"b8350f11-834d-46bc-82cc-897579185d3b","system_id":"levelo_inurba_marseille","lat":43.27562,"lon":5.3843,"is_reserved":false,"is_disabled":true,"rental_uris":{"android":"levelo://app?vid=b8350f11-834d-46bc-82cc-897579185d3b","ios":"levelo://app?vid=b8350f11-834d-46bc-82cc-897579185d3b"},"vehicle_type_id":"4","last_reported":1760681732,"current_range_meters":400,"station_id":"ce4bhh92rcd13ifvqfi0","pricing_plan_id":"cebpf4jnsgd1na2vs0mg"},{"bike_id":"ca87b72b-d55d-4908-a5ad-f1b11a6d909e","system_id":"levelo_inurba_marseille","lat":43.30459,"lon":5.37911,"is_reserved":false,"is_disabled":true,"rental_uris":{"android":"levelo://app?vid=ca87b72b-d55d-4908-a5ad-f1b11a6d909e","ios":"levelo://app?vid=ca87b72b-d55d-4908-a5ad-f1b11a6d909e"},"vehicle_type_id":"4","last_reported":1760681732,"current_range_meters":800,"station_id":"ce4bgup2rcd13ifvqcn0","pricing_plan_id":"cebpf4jnsgd1na2vs0mg"},{"bike_id":"24d9c63e-e14e-475e-b808-608bafd3289f","system_id":"levelo_inurba_marseille","lat":43.22428,"lon":5.34657,"is_reserved":false,"is_disabled":true,"rental_uris":{"android":"levelo://app?vid=24d9c63e-e14e-475e-b808-608bafd3289f","ios":"levelo://app?vid=24d9c63e-e14e-475e-b808-608bafd3289f"},"vehicle_type_id":"4","last_reported":1760681732,"current_range_meters":1200,"station_id":"","pricing_plan_id":"cebpf4jnsgd1na2vs0mg"},{"bike_id":"bd9e5ceb-1137-4ead-b29c-458daaa877c6","system_id":"levelo_inurba_marseille","lat":43.291717,"lon":5.371567,"is_reserved":false,"is_disabled":true,"rental_uris":{"android":"levelo://app?vid=bd9e5ceb-1137-4ead-b29c-458daaa877c6","ios":"levelo://app?vid=bd9e5ceb-1137-4ead-b29c-458daaa877c6"},"vehicle_type_id":"4","last_reported":1760681732,"current_range_meters":1200,"station_id":"","pricing_plan_id":"cebpf4jnsgd1na2vs0mg"},{"bike_id":"7a15c062-379b-4576-9883-8af464308471","system_id":"levelo_inurba_marseille","lat":43.291182,"lon":5.417437,"is_reserved":false,"is_disabled":true,"rental_uris":{"android":"levelo://app?vid=7a15c062-379b-4576-9883-8af464308471","ios":"levelo://app?vid=7a15c062-379b-4576-9883-8af464308471"},"vehicle_type_id":"4","last_reported":1760681732,"current_range_meters":1200,"station_id":"ce4bh392rcd13ifvqdm0","pricing_plan_id":"cebpf4jnsgd1na2vs0mg"},{"bike_id":"24ae3a7e-6aab-432b-8b51-88f9f97b9bf7","system_id":"levelo_inurba_marseille","lat":43.29007,"lon":5.35612,"is_reserved":false,"is_disabled":true,"rental_uris":{"android":"levelo://app?vid=24ae3a7e-6aab-432b-8b51-88f9f97b9bf7","ios":"levelo://app?vid=24ae3a7e-6aab-432b-8b51-88f9f97b9bf7"},"vehicle_type_id":"4","last_reported":1760681732,"current_range_meters":1200,"station_id":"ce4bhb92rcd13ifvqen0","pricing_plan_id":"cebpf4jnsgd1na2vs0mg"},{"bike_id":"0d51f9e9-5a6e-4085-a254-6842bfa3e544","system_id":"levelo_inurba_marseille","lat":43.267166,"lon":5.382699,"is_reserved":false,"is_disabled":true,"rental_uris":{"android":"levelo://app?vid=0d51f9e9-5a6e-4085-a254-6842bfa3e544","ios":"levelo://app?vid=0d51f9e9-5a6e-4085-a254-6842bfa3e544"},"vehicle_type_id":"4","last_reported":1760681732,"current_range_meters":1200,"station_id":"ce4bhg92rcd13ifvqf90","pricing_plan_id":"cebpf4jnsgd1na2vs0mg"},{"bike_id":"69c2f6cc-fa39-4fbe-8ff8-493faff25d65","system_id":"levelo_inurba_marseille","lat":43.31886,"lon":5.40739,"is_reserved":false,"is_disabled":true,"rental_uris":{"android":"levelo://app?vid=69c2f6cc-fa39-4fbe-8ff8-493faff25d65","ios":"levelo://app?vid=69c2f6cc-fa39-4fbe-8ff8-493faff25d65"},"vehicle_type_id":"4","last_reported":1760681732,"current_range_meters":1200,"station_id":"ce4bhq12rcd13ifvqhig","pricing_plan_id":"cebpf4jnsgd1na2vs0mg"},{"bike_id":"3b47cc01-183b-4afa-b04c-f1666fd16e3c","system_id":"levelo_inurba_marseille","lat":43.33209,"lon":5.39809,"is_reserved":false,"is_disabled":true,"rental_uris":{"android":"levelo://app?vid=3b47cc01-183b-4afa-b04c-f1666fd16e3c","ios":"levelo://app?vid=3b47cc01-183b-4afa-b04c-f1666fd16e3c"},"vehicle_type_id":"4","last_reported":1760681732,"current_range_meters":1600,"station_id":"","pricing_plan_id":"cebpf4jnsgd1na2vs0mg"},{"bike_id":"859dcf5c-2d93-4226-9c1e-3b58130126c5","system_id":"levelo_inurba_marseille","lat":43.29493,"lon":5.36169,"is_reserved":false,"is_disabled":true,"rental_uris":{"android":"levelo://app?vid=859dcf5c-2d93-4226-9c1e-3b58130126c5","ios":"levelo://app?vid=859dcf5c-2d93-4226-9c1e-3b58130126c5"},"vehicle_type_id":"4","last_reported":1760681732,"current_range_meters":1600,"station_id":"","pricing_plan_id":"cebpf4jnsgd1na2vs0mg"},{"bike_id":"e3a141cb-ceb0-4031-8c2f-84f8fe8b45df","system_id":"levelo_inurba_marseille","lat":43.314482,"lon":5.374016,"is_reserved":false,"is_disabled":true,"rental_uris":{"android":"levelo://app?vid=e3a141cb-ceb0-4031-8c2f-84f8fe8b45df","ios":"levelo://app?vid=e3a141cb-ceb0-4031-8c2f-84f8fe8b45df"},"vehicle_type_id":"4","last_reported":1760681732,"current_range_meters":1600,"station_id":"ce4bgt12rcd13ifvqcd0","pricing_plan_id":"cebpf4jnsgd1na2vs0mg"},{"bike_id":"2f6ad421-1a7d-444e-8580-9cb8091130a7","system_id":"levelo_inurba_marseille","lat":43.30594,"lon":5.39359,"is_reserved":false,"is_disabled":true,"rental_uris":{"android":"levelo://app?vid=2f6ad421-1a7d-444e-8580-9cb8091130a7","ios":"levelo://app?vid=2f6ad421-1a7d-444e-8580-9cb8091130a7"},"vehicle_type_id":"4","last_reported":1760681732,"current_range_meters":1600,"station_id":"ce4bh0p2rcd13ifvqd80","pricing_plan_id":"cebpf4jnsgd1na2vs0mg"},{"bike_id":"93d7d6dc-48ee-4900-937f-f69d98d7b472","system_id":"levelo_inurba_marseille","lat":43.28334,"lon":5.43328,"is_reserved":false,"is_disabled":true,"rental_uris":{"android":"levelo://app?vid=93d7d6dc-48ee-4900-937f-f69d98d7b472","ios":"levelo://app?vid=93d7d6dc-48ee-4900-937f-f69d98d7b472"},"vehicle_type_id":"4","last_reported":1760681732,"current_range_meters":2000,"station_id":"","pricing_plan_id":"cebpf4jnsgd1na2vs0mg"},{"bike_id":"b3c08bff-bd95-4471-b927-c79b79fc0579","system_id":"levelo_inurba_marseille","lat":43.26581,"lon":5.3908,"is_reserved":false,"is_disabled":true,"rental_uris":{"android":"levelo://app?vid=b3c08bff-bd95-4471-b927-c79b79fc0579","ios":"levelo://app?vid=b3c08bff-bd95-4471-b927-c79b79fc0579"},"vehicle_type_id":"4","last_reported":1760681732,"current_range_meters":2000,"station_id":"ce4bhe12rcd13ifvqf30","pricing_plan_id":"cebpf4jnsgd1na2vs0mg"},{"bike_id":"b4052f7a-27b6-479b-bdb3-900e233c35a7","system_id":"levelo_inurba_marseille","lat":43.295759,"lon":5.364054,"is_reserved":false,"is_disabled":false,"rental_uris":{"android":"levelo://app?vid=b4052f7a-27b6-479b-bdb3-900e233c35a7","ios":"levelo://app?vid=b4052f7a-27b6-479b-bdb3-900e233c35a7"},"vehicle_type_id":"4","last_reported":1760681732,"current_range_meters":3200,"station_id":"","pricing_plan_id":"cebpf4jnsgd1na2vs0mg"},{"bike_id":"c45ef27d-708c-40dd-b463-8daceee7ff54","system_id":"levelo_inurba_marseille","lat":43.29791,"lon":5.38109,"is_reserved":false,"is_disabled":false,"rental_uris":{"android":"levelo://app?vid=c45ef27d-708c-40dd-b463-8daceee7ff54","ios":"levelo://app?vid=c45ef27d-708c-40dd-b463-8daceee7ff54"},"vehicle_type_id":"4","last_reported":1760681732,"current_range_meters":3200,"station_id":"ce4bgip2rcd13ifvqbb0","pricing_plan_id":"cebpf4jnsgd1na2vs0mg"},{"bike_id":"79dc0db3-2dcd-4996-ad89-7b51865c87e0","system_id":"levelo_inurba_marseille","lat":43.313698,"lon":5.385038,"is_reserved":false,"is_disabled":false,"rental_uris":{"android":"levelo://app?vid=79dc0db3-2dcd-4996-ad89-7b51865c87e0","ios":"levelo://app?vid=79dc0db3-2dcd-4996-ad89-7b51865c87e0"},"vehicle_type_id":"4","last_reported":1760681732,"current_range_meters":3200,"station_id":"ce4bgt92rcd13ifvqcf0","pricing_plan_id":"cebpf4jnsgd1na2vs0mg"},{"bike_id":"9d8d3495-2a9b-4d72-a971-cd6ff2994d5a","system_id":"levelo_inurba_marseille","lat":43.301466,"lon":5.374246,"is_reserved":false,"is_disabled":false,"rental_uris":{"android":"levelo://app?vid=9d8d3495-2a9b-4d72-a971-cd6ff2994d5a","ios":"levelo://app?vid=9d8d3495-2a9b-4d72-a971-cd6ff2994d5a"},"vehicle_type_id":"4","last_reported":1760681732,"current_range_meters":3600,"station_id":"ce4bgs92rcd13ifvqcc0","pricing_plan_id":"cebpf4jnsgd1na2vs0mg"},{"bike_id":"8033a3cf-7eec-49f5-a7a5-e6e97ffbb9b8","system_id":"levelo_inurba_marseille","lat":43.28348,"lon":5.38103,"is_reserved":false,"is_disabled":false,"rental_uris":{"android":"levelo://app?vid=8033a3cf-7eec-49f5-a7a5-e6e97ffbb9b8","ios":"levelo://app?vid=8033a3cf-7eec-49f5-a7a5-e6e97ffbb9b8"},"vehicle_type_id":"4","last_reported":1760681732,"current_range_meters":3600,"station_id":"ce4bh412rcd13ifvqdr0","pricing_plan_id":"cebpf4jnsgd1na2vs0mg"},{"bike_id":"301521ef-80c3-4fe7-b3ea-1da797ff76e4","system_id":"levelo_inurba_marseille","lat":43.28662,"lon":5.3868,"is_reserved":false,"is_disabled":false,"rental_uris":{"android":"levelo://app?vid=301521ef-80c3-4fe7-b3ea-1da797ff76e4","ios":"levelo://app?vid=301521ef-80c3-4fe7-b3ea-1da797ff76e4"},"vehicle_type_id":"4","last_reported":1760681732,"current_range_meters":3600,"station_id":"ce4bh492rcd13ifvqdug","pricing_plan_id":"cebpf4jnsgd1na2vs0mg"},{"bike_id":"bb5d0c30-acfd-4f95-855a-ec4d8c9b7ea4","system_id":"levelo_inurba_marseille","lat":43.28368,"lon":5.38617,"is_reserved":false,"is_disabled":false,"rental_uris":{"android":"levelo://app?vid=bb5d0c30-acfd-4f95-855a-ec4d8c9b7ea4","ios":"levelo://app?vid=bb5d0c30-acfd-4f95-855a-ec4d8c9b7ea4"},"vehicle_type_id":"4","last_reported":1760681732,"current_range_meters":3600,"station_id":"ce4bh492rcd13ifvqdvg","pricing_plan_id":"cebpf4jnsgd1na2vs0mg"},{"bike_id":"2708cf99-40ae-4d54-a7b4-b89f2c3c4c2b","system_id":"levelo_inurba_marseille","lat":43.28725,"lon":5.36086,"is_reserved":false,"is_disabled":false,"rental_uris":{"android":"levelo://app?vid=2708cf99-40ae-4d54-a7b4-b89f2c3c4c2b","ios":"levelo://app?vid=2708cf99-40ae-4d54-a7b4-b89f2c3c4c2b"},"vehicle_type_id":"4","last_reported":1760681732,"current_range_meters":3600,"station_id":"cki0cbj6b192h4jlfktg","pricing_plan_id":"cebpf4jnsgd1na2vs0mg"},{"bike_id":"3cb5b848-2b77-445f-9436-55a5a252e776","system_id":"levelo_inurba_marseille","lat":43.30053,"lon":5.37716,"is_reserved":false,"is_disabled":false,"rental_uris":{"android":"levelo://app?vid=3cb5b848-2b77-445f-9436-55a5a252e776","ios":"levelo://app?vid=3cb5b848-2b77-445f-9436-55a5a252e776"},"vehicle_type_id":"4","last_reported":1760681732,"current_range_meters":4000,"station_id":"","pricing_plan_id":"cebpf4jnsgd1na2vs0mg"},{"bike_id":"26811e43-0064-4939-8c91-145b1801f202","system_id":"levelo_inurba_marseille","lat":43.32477,"lon":5.36565,"is_reserved":false,"is_disabled":false,"rental_uris":{"android":"levelo://app?vid=26811e43-0064-4939-8c91-145b1801f202","ios":"levelo://app?vid=26811e43-0064-4939-8c91-145b1801f202"},"vehicle_type_id":"4","last_reported":1760681732,"current_range_meters":4000,"station_id":"ce4bhs12rcd13ifvqhvg","pricing_plan_id":"cebpf4jnsgd1na2vs0mg"},{"bike_id":"56e8f168-0239-4dab-a231-9caf80fb776c","system_id":"levelo_inurba_marseille","lat":43.292676,"lon":5.376168,"is_reserved":false,"is_disabled":false,"rental_uris":{"android":"levelo://app?vid=56e8f168-0239-4dab-a231-9caf80fb776c","ios":"levelo://app?vid=56e8f168-0239-4dab-a231-9caf80fb776c"},"vehicle_type_id":"4","last_reported":1760681732,"current_range_meters":4400,"station_id":"","pricing_plan_id":"cebpf4jnsgd1na2vs0mg"},{"bike_id":"6b40d0a5-df74-488d-be11-d7af4f58e4f6","system_id":"levelo_inurba_marseille","lat":43.29276,"lon":5.40116,"is_reserved":false,"is_disabled":false,"rental_uris":{"android":"levelo://app?vid=6b40d0a5-df74-488d-be11-d7af4f58e4f6","ios":"levelo://app?vid=6b40d0a5-df74-488d-be11-d7af4f58e4f6"},"vehicle_type_id":"4","last_reported":1760681732,"current_range_meters":4400,"station_id":"ce4bh312rcd13ifvqdk0","pricing_plan_id":"cebpf4jnsgd1na2vs0mg"},{"bike_id":"350a5eef-4ca2-49b2-9f3e-4675dd41fcb3","system_id":"levelo_inurba_marseille","lat":43.27206,"lon":5.39188,"is_reserved":false,"is_disabled":false,"rental_uris":{"android":"levelo://app?vid=350a5eef-4ca2-49b2-9f3e-4675dd41fcb3","ios":"levelo://app?vid=350a5eef-4ca2-49b2-9f3e-4675dd41fcb3"},"vehicle_type_id":"4","last_reported":1760681732,"current_range_meters":4400,"station_id":"ce4bhhp2rcd13ifvqfm0","pricing_plan_id":"cebpf4jnsgd1na2vs0mg"},{"bike_id":"2bcac093-c3ff-4749-9008-9ce411d48f76","system_id":"levelo_inurba_marseille","lat":43.32049,"lon":5.41542,"is_reserved":false,"is_disabled":false,"rental_uris":{"android":"levelo://app?vid=2bcac093-c3ff-4749-9008-9ce411d48f76","ios":"levelo://app?vid=2bcac093-c3ff-4749-9008-9ce411d48f76"},"vehicle_type_id":"4","last_reported":1760681732,"current_range_meters":4400,"station_id":"ce4bhq92rcd13ifvqhkg","pricing_plan_id":"cebpf4jnsgd1na2vs0mg"},{"bike_id":"435007e7-00e7-449b-9401-1502a72a756a","system_id":"levelo_inurba_marseille","lat":43.23499,"lon":5.36022,"is_reserved":false,"is_disabled":false,"rental_uris":{"android":"levelo://app?vid=435007e7-00e7-449b-9401-1502a72a756a","ios":"levelo://app?vid=435007e7-00e7-449b-9401-1502a72a756a"},"vehicle_type_id":"4","last_reported":1760681732,"current_range_meters":4800,"station_id":"","pricing_plan_id":"cebpf4jnsgd1na2vs0mg"},{"bike_id":"edf1826d-4c94-41f7-b41b-9e4934e632f6","system_id":"levelo_inurba_marseille","lat":43.25209,"lon":5.3791,"is_reserved":false,"is_disabled":false,"rental_uris":{"android":"levelo://app?vid=edf1826d-4c94-41f7-b41b-9e4934e632f6","ios":"levelo://app?vid=edf1826d-4c94-41f7-b41b-9e4934e632f6"},"vehicle_type_id":"4","last_reported":1760681732,"current_range_meters":4800,"station_id":"","pricing_plan_id":"cebpf4jnsgd1na2vs0mg"},{"bike_id":"d1535785-517b-41ee-8ee0-1e9b8477afef","system_id":"levelo_inurba_marseille","lat":43.337444,"lon":5.374475,"is_reserved":false,"is_disabled":false,"rental_uris":{"android":"levelo://app?vid=d1535785-517b-41ee-8ee0-1e9b8477afef","ios":"levelo://app?vid=d1535785-517b-41ee-8ee0-1e9b8477afef"},"vehicle_type_id":"4","last_reported":1760681732,"current_range_meters":4800,"station_id":"","pricing_plan_id":"cebpf4jnsgd1na2vs0mg"},{"bike_id":"b0e3fac0-2cba-43db-8a27-05393f9977ec","system_id":"levelo_inurba_marseille","lat":43.297242,"lon":5.373265,"is_reserved":false,"is_disabled":false,"rental_uris":{"android":"levelo://app?vid=b0e3fac0-2cba-43db-8a27-05393f9977ec","ios":"levelo://app?vid=b0e3fac0-2cba-43db-8a27-05393f9977ec"},"vehicle_type_id":"4","last_reported":1760681732,"current_range_meters":4800,"station_id":"","pricing_plan_id":"cebpf4jnsgd1na2vs0mg"},{"bike_id":"a300b1e6-9a6c-4e87-9e7d-0a4361f444c8","system_id":"levelo_inurba_marseille","lat":43.33605,"lon":5.41037,"is_reserved":false,"is_disabled":false,"rental_uris":{"android":"levelo://app?vid=a300b1e6-9a6c-4e87-9e7d-0a4361f444c8","ios":"levelo://app?vid=a300b1e6-9a6c-4e87-9e7d-0a4361f444c8"},"vehicle_type_id":"4","last_reported":1760681732,"current_range_meters":4800,"station_id":"ce4bhqh2rcd13ifvqhmg","pricing_plan_id":"cebpf4jnsgd1na2vs0mg"},{"bike_id":"e0863f88-6065-41da-9ecd-468f1156f9d8","system_id":"levelo_inurba_marseille","lat":43.27344,"lon":5.41402,"is_reserved":false,"is_disabled":false,"rental_uris":{"android":"levelo://app?vid=e0863f88-6065-41da-9ecd-468f1156f9d8","ios":"levelo://app?vid=e0863f88-6065-41da-9ecd-468f1156f9d8"},"vehicle_type_id":"4","last_reported":1760681732,"current_range_meters":5600,"station_id":"","pricing_plan_id":"cebpf4jnsgd1na2vs0mg"},{"bike_id":"afd3a141-6f64-4928-ba91-fca21b7af038","system_id":"levelo_inurba_marseille","lat":43.29582,"lon":5.36422,"is_reserved":false,"is_disabled":false,"rental_uris":{"android":"levelo://app?vid=afd3a141-6f64-4928-ba91-fca21b7af038","ios":"levelo://app?vid=afd3a141-6f64-4928-ba91-fca21b7af038"},"vehicle_type_id":"4","last_reported":1760681732,"current_range_meters":5600,"station_id":"","pricing_plan_id":"cebpf4jnsgd1na2vs0mg"},{"bike_id":"c10806ec-6d45-481a-ae58-b2aac1e05e16","system_id":"levelo_inurba_marseille","lat":43.233609,"lon":5.405075,"is_reserved":false,"is_disabled":false,"rental_uris":{"android":"levelo://app?vid=c10806ec-6d45-481a-ae58-b2aac1e05e16","ios":"levelo://app?vid=c10806ec-6d45-481a-ae58-b2aac1e05e16"},"vehicle_type_id":"4","last_reported":1760681732,"current_range_meters":5600,"station_id":"","pricing_plan_id":"cebpf4jnsgd1na2vs0mg"},{"bike_id":"f0622547-115c-4aab-a330-c8c9f80dea9e","system_id":"levelo_inurba_marseille","lat":43.28087,"lon":5.35248,"is_reserved":false,"is_disabled":false,"rental_uris":{"android":"levelo://app?vid=f0622547-115c-4aab-a330-c8c9f80dea9e","ios":"levelo://app?vid=f0622547-115c-4aab-a330-c8c9f80dea9e"},"vehicle_type_id":"4","last_reported":1760681732,"current_range_meters":5600,"station_id":"","pricing_plan_id":"cebpf4jnsgd1na2vs0mg"},{"bike_id":"3cbe900f-f82f-406b-b679-20223c8de56d","system_id":"levelo_inurba_marseille","lat":43.268784,"lon":5.420675,"is_reserved":false,"is_disabled":false,"rental_uris":{"android":"levelo://app?vid=3cbe900f-f82f-406b-b679-20223c8de56d","ios":"levelo://app?vid=3cbe900f-f82f-406b-b679-20223c8de56d"},"vehicle_type_id":"4","last_reported":1760681732,"current_range_meters":5600,"station_id":"","pricing_plan_id":"cebpf4jnsgd1na2vs0mg"},{"bike_id":"d52c2759-b134-489d-ba3a-a22f20e62b00","system_id":"levelo_inurba_marseille","lat":43.33608,"lon":5.41036,"is_reserved":false,"is_disabled":false,"rental_uris":{"android":"levelo://app?vid=d52c2759-b134-489d-ba3a-a22f20e62b00","ios":"levelo://app?vid=d52c2759-b134-489d-ba3a-a22f20e62b00"},"vehicle_type_id":"4","last_reported":1760681732,"current_range_meters":5600,"station_id":"ce4bhqh2rcd13ifvqhmg","pricing_plan_id":"cebpf4jnsgd1na2vs0mg"},{"bike_id":"bab7c897-133e-4801-a770-b560149a39ec","system_id":"levelo_inurba_marseille","lat":43.22925,"lon":5.3539,"is_reserved":false,"is_disabled":false,"rental_uris":{"android":"levelo://app?vid=bab7c897-133e-4801-a770-b560149a39ec","ios":"levelo://app?vid=bab7c897-133e-4801-a770-b560149a39ec"},"vehicle_type_id":"4","last_reported":1760681732,"current_range_meters":5600,"station_id":"cpo3532slgdg3j2ikp40","pricing_plan_id":"cebpf4jnsgd1na2vs0mg"},{"bike_id":"19e18b8e-6e58-455b-a7d2-d9bae8097fa1","system_id":"levelo_inurba_marseille","lat":43.23786,"lon":5.36647,"is_reserved":false,"is_disabled":false,"rental_uris":{"android":"levelo://app?vid=19e18b8e-6e58-455b-a7d2-d9bae8097fa1","ios":"levelo://app?vid=19e18b8e-6e58-455b-a7d2-d9bae8097fa1"},"vehicle_type_id":"4","last_reported":1760681732,"current_range_meters":5600,"station_id":"st_d3nk18o9ro0c73en2l3g","pricing_plan_id":"cebpf4jnsgd1na2vs0mg"},{"bike_id":"01518c72-60cf-4142-b63f-0b7c57fbbe54","system_id":"levelo_inurba_marseille","lat":43.2902,"lon":5.399675,"is_reserved":false,"is_disabled":false,"rental_uris":{"android":"levelo://app?vid=01518c72-60cf-4142-b63f-0b7c57fbbe54","ios":"levelo://app?vid=01518c72-60cf-4142-b63f-0b7c57fbbe54"},"vehicle_type_id":"4","last_reported":1760681732,"current_range_meters":6000,"station_id":"ce4bh392rcd13ifvqdm0","pricing_plan_id":"cebpf4jnsgd1na2vs0mg"},{"bike_id":"f2f1fbf0-eb05-49c9-b3ec-7826112978b5","system_id":"levelo_inurba_marseille","lat":43.28475,"lon":5.38422,"is_reserved":false,"is_disabled":false,"rental_uris":{"android":"levelo://app?vid=f2f1fbf0-eb05-49c9-b3ec-7826112978b5","ios":"levelo://app?vid=f2f1fbf0-eb05-49c9-b3ec-7826112978b5"},"vehicle_type_id":"4","last_reported":1760681732,"current_range_meters":6000,"station_id":"ce4bh512rcd13ifvqe3g","pricing_plan_id":"cebpf4jnsgd1na2vs0mg"},{"bike_id":"2eb173c8-27af-4fbe-8151-71a791464cac","system_id":"levelo_inurba_marseille","lat":43.273739,"lon":5.362552,"is_reserved":false,"is_disabled":false,"rental_uris":{"android":"levelo://app?vid=2eb173c8-27af-4fbe-8151-71a791464cac","ios":"levelo://app?vid=2eb173c8-27af-4fbe-8151-71a791464cac"},"vehicle_type_id":"4","last_reported":1760681732,"current_range_meters":6000,"station_id":"ce4bhbh2rcd13ifvqeo0","pricing_plan_id":"cebpf4jnsgd1na2vs0mg"},{"bike_id":"76acc2e9-6dcf-44a8-b8c3-46b004e4856d","system_id":"levelo_inurba_marseille","lat":43.31543,"lon":5.40188,"is_reserved":false,"is_disabled":false,"rental_uris":{"android":"levelo://app?vid=76acc2e9-6dcf-44a8-b8c3-46b004e4856d","ios":"levelo://app?vid=76acc2e9-6dcf-44a8-b8c3-46b004e4856d"},"vehicle_type_id":"4","last_reported":1760681732,"current_range_meters":6400,"station_id":"","pricing_plan_id":"cebpf4jnsgd1na2vs0mg"},{"bike_id":"75e671d2-4d08-44c0-80b4-b9a63d2638d8","system_id":"levelo_inurba_marseille","lat":43.21739,"lon":5.34622,"is_reserved":false,"is_disabled":false,"rental_uris":{"android":"levelo://app?vid=75e671d2-4d08-44c0-80b4-b9a63d2638d8","ios":"levelo://app?vid=75e671d2-4d08-44c0-80b4-b9a63d2638d8"},"vehicle_type_id":"4","last_reported":1760681732,"current_range_meters":6400,"station_id":"","pricing_plan_id":"cebpf4jnsgd1na2vs0mg"},{"bike_id":"38f46298-816a-4519-ad40-c21896400bc9","system_id":"levelo_inurba_marseille","lat":43.29571,"lon":5.37488,"is_reserved":false,"is_disabled":false,"rental_uris":{"android":"levelo://app?vid=38f46298-816a-4519-ad40-c21896400bc9","ios":"levelo://app?vid=38f46298-816a-4519-ad40-c21896400bc9"},"vehicle_type_id":"4","last_reported":1760681732,"current_range_meters":6400,"station_id":"","pricing_plan_id":"cebpf4jnsgd1na2vs0mg"},{"bike_id":"98199da0-5345-4b74-96df-7b06e553872f","system_id":"levelo_inurba_marseille","lat":43.27206,"lon":5.3919,"is_reserved":false,"is_disabled":false,"rental_uris":{"android":"levelo://app?vid=98199da0-5345-4b74-96df-7b06e553872f","ios":"levelo://app?vid=98199da0-5345-4b74-96df-7b06e553872f"},"vehicle_type_id":"4","last_reported":1760681732,"current_range_meters":6400,"station_id":"ce4bhhp2rcd13ifvqfm0","pricing_plan_id":"cebpf4jnsgd1na2vs0mg"},{"bike_id":"7d038a42-8809-4887-9c1c-859dbe447072","system_id":"levelo_inurba_marseille","lat":43.25333,"lon":5.42177,"is_reserved":false,"is_disabled":false,"rental_uris":{"android":"levelo://app?vid=7d038a42-8809-4887-9c1c-859dbe447072","ios":"levelo://app?vid=7d038a42-8809-4887-9c1c-859dbe447072"},"vehicle_type_id":"4","last_reported":1760681732,"current_range_meters":6400,"station_id":"st_d2m65c5bi1j21697t3ng","pricing_plan_id":"cebpf4jnsgd1na2vs0mg"},{"bike_id":"a90a9605-898d-4b48-898d-d83df78ff9fe","system_id":"levelo_inurba_marseille","lat":43.28539,"lon":5.45036,"is_reserved":false,"is_disabled":false,"rental_uris":{"android":"levelo://app?vid=a90a9605-898d-4b48-898d-d83df78ff9fe","ios":"levelo://app?vid=a90a9605-898d-4b48-898d-d83df78ff9fe"},"vehicle_type_id":"4","last_reported":1760681732,"current_range_meters":6800,"station_id":"","pricing_plan_id":"cebpf4jnsgd1na2vs0mg"},{"bike_id":"6d02532e-4cb4-4048-bfac-6338972aaf99","system_id":"levelo_inurba_marseille","lat":43.34337,"lon":5.34988,"is_reserved":false,"is_disabled":false,"rental_uris":{"android":"levelo://app?vid=6d02532e-4cb4-4048-bfac-6338972aaf99","ios":"levelo://app?vid=6d02532e-4cb4-4048-bfac-6338972aaf99"},"vehicle_type_id":"4","last_reported":1760681732,"current_range_meters":6800,"station_id":"","pricing_plan_id":"cebpf4jnsgd1na2vs0mg"},{"bike_id":"b3410386-4ee8-47e6-8d2a-b02720b0c0c9","system_id":"levelo_inurba_marseille","lat":43.28484,"lon":5.37882,"is_reserved":false,"is_disabled":false,"rental_uris":{"android":"levelo://app?vid=b3410386-4ee8-47e6-8d2a-b02720b0c0c9","ios":"levelo://app?vid=b3410386-4ee8-47e6-8d2a-b02720b0c0c9"},"vehicle_type_id":"4","last_reported":1760681732,"current_range_meters":6800,"station_id":"","pricing_plan_id":"cebpf4jnsgd1na2vs0mg"},{"bike_id":"2688b223-29d8-4365-8f8f-a9a52c61ea9a","system_id":"levelo_inurba_marseille","lat":43.302452,"lon":5.400647,"is_reserved":false,"is_disabled":false,"rental_uris":{"android":"levelo://app?vid=2688b223-29d8-4365-8f8f-a9a52c61ea9a","ios":"levelo://app?vid=2688b223-29d8-4365-8f8f-a9a52c61ea9a"},"vehicle_type_id":"4","last_reported":1760681732,"current_range_meters":6800,"station_id":"ce4bgvh2rcd13ifvqcs0","pricing_plan_id":"cebpf4jnsgd1na2vs0mg"},{"bike_id":"f4635508-21bb-4a3d-9052-bc631d5ca1d3","system_id":"levelo_inurba_marseille","lat":43.240747,"lon":5.377784,"is_reserved":false,"is_disabled":false,"rental_uris":{"android":"levelo://app?vid=f4635508-21bb-4a3d-9052-bc631d5ca1d3","ios":"levelo://app?vid=f4635508-21bb-4a3d-9052-bc631d5ca1d3"},"vehicle_type_id":"4","last_reported":1760681732,"current_range_meters":6800,"station_id":"ce4bhnp2rcd13ifvqgvg","pricing_plan_id":"cebpf4jnsgd1na2vs0mg"},{"bike_id":"57b07e04-a5f7-4697-a2a6-9de309226626","system_id":"levelo_inurba_marseille","lat":43.2549,"lon":5.37652,"is_reserved":false,"is_disabled":false,"rental_uris":{"android":"levelo://app?vid=57b07e04-a5f7-4697-a2a6-9de309226626","ios":"levelo://app?vid=57b07e04-a5f7-4697-a2a6-9de309226626"},"vehicle_type_id":"4","last_reported":1760681732,"current_range_meters":7200,"station_id":"","pricing_plan_id":"cebpf4jnsgd1na2vs0mg"},{"bike_id":"7856590a-1572-412a-918e-77843d1b598a","system_id":"levelo_inurba_marseille","lat":43.28076,"lon":5.42191,"is_reserved":false,"is_disabled":false,"rental_uris":{"android":"levelo://app?vid=7856590a-1572-412a-918e-77843d1b598a","ios":"levelo://app?vid=7856590a-1572-412a-918e-77843d1b598a"},"vehicle_type_id":"4","last_reported":1760681732,"current_range_meters":7200,"station_id":"","pricing_plan_id":"cebpf4jnsgd1na2vs0mg"},{"bike_id":"a0042997-2079-4ebe-b073-006419ba76c9","system_id":"levelo_inurba_marseille","lat":43.30471,"lon":5.3791,"is_reserved":false,"is_disabled":false,"rental_uris":{"android":"levelo://app?vid=a0042997-2079-4ebe-b073-006419ba76c9","ios":"levelo://app?vid=a0042997-2079-4ebe-b073-006419ba76c9"},"vehicle_type_id":"4","last_reported":1760681732,"current_range_meters":7200,"station_id":"ce4bgup2rcd13ifvqcn0","pricing_plan_id":"cebpf4jnsgd1na2vs0mg"},{"bike_id":"b00db10a-cfef-454c-9b04-f764e95bc7d8","system_id":"levelo_inurba_marseille","lat":43.29258,"lon":5.40115,"is_reserved":false,"is_disabled":false,"rental_uris":{"android":"levelo://app?vid=b00db10a-cfef-454c-9b04-f764e95bc7d8","ios":"levelo://app?vid=b00db10a-cfef-454c-9b04-f764e95bc7d8"},"vehicle_type_id":"4","last_reported":1760681732,"current_range_meters":7200,"station_id":"ce4bh312rcd13ifvqdk0","pricing_plan_id":"cebpf4jnsgd1na2vs0mg"},{"bike_id":"d8e9b8f7-08e2-4408-ba5a-bf3e71307936","system_id":"levelo_inurba_marseille","lat":43.21189,"lon":5.35078,"is_reserved":false,"is_disabled":false,"rental_uris":{"android":"levelo://app?vid=d8e9b8f7-08e2-4408-ba5a-bf3e71307936","ios":"levelo://app?vid=d8e9b8f7-08e2-4408-ba5a-bf3e71307936"},"vehicle_type_id":"4","last_reported":1760681732,"current_range_meters":7200,"station_id":"st_cvj6sg6p6f1abm77japg","pricing_plan_id":"cebpf4jnsgd1na2vs0mg"},{"bike_id":"af95aefb-a131-494a-82a8-b6bb4971d516","system_id":"levelo_inurba_marseille","lat":43.270588,"lon":5.382989,"is_reserved":false,"is_disabled":false,"rental_uris":{"android":"levelo://app?vid=af95aefb-a131-494a-82a8-b6bb4971d516","ios":"levelo://app?vid=af95aefb-a131-494a-82a8-b6bb4971d516"},"vehicle_type_id":"4","last_reported":1760681732,"current_range_meters":7200,"station_id":"st_d3n2fo6cfp8s73cte1j0","pricing_plan_id":"cebpf4jnsgd1na2vs0mg"},{"bike_id":"d68b41be-366f-40d7-a414-434cfe0517a5","system_id":"levelo_inurba_marseille","lat":43.317639,"lon":5.422196,"is_reserved":false,"is_disabled":false,"rental_uris":{"android":"levelo://app?vid=d68b41be-366f-40d7-a414-434cfe0517a5","ios":"levelo://app?vid=d68b41be-366f-40d7-a414-434cfe0517a5"},"vehicle_type_id":"4","last_reported":1760681732,"current_range_meters":8000,"station_id":"","pricing_plan_id":"cebpf4jnsgd1na2vs0mg"},{"bike_id":"7a63795d-d6ae-4db3-866d-c16b2af002f1","system_id":"levelo_inurba_marseille","lat":43.29948,"lon":5.37539,"is_reserved":false,"is_disabled":false,"rental_uris":{"android":"levelo://app?vid=7a63795d-d6ae-4db3-866d-c16b2af002f1","ios":"levelo://app?vid=7a63795d-d6ae-4db3-866d-c16b2af002f1"},"vehicle_type_id":"4","last_reported":1760681732,"current_range_meters":8000,"station_id":"","pricing_plan_id":"cebpf4jnsgd1na2vs0mg"},{"bike_id":"1dc3768d-0b4e-4859-817c-5a4ee299d7ad","system_id":"levelo_inurba_marseille","lat":43.29741,"lon":5.378983,"is_reserved":false,"is_disabled":false,"rental_uris":{"android":"levelo://app?vid=1dc3768d-0b4e-4859-817c-5a4ee299d7ad","ios":"levelo://app?vid=1dc3768d-0b4e-4859-817c-5a4ee299d7ad"},"vehicle_type_id":"4","last_reported":1760681732,"current_range_meters":8000,"station_id":"","pricing_plan_id":"cebpf4jnsgd1na2vs0mg"},{"bike_id":"4c3f9a18-d683-4502-b2c6-ed0e9256a774","system_id":"levelo_inurba_marseille","lat":43.23189,"lon":5.35568,"is_reserved":false,"is_disabled":false,"rental_uris":{"android":"levelo://app?vid=4c3f9a18-d683-4502-b2c6-ed0e9256a774","ios":"levelo://app?vid=4c3f9a18-d683-4502-b2c6-ed0e9256a774"},"vehicle_type_id":"4","last_reported":1760681732,"current_range_meters":8000,"station_id":"ce4bhu92rcd13ifvqi70","pricing_plan_id":"cebpf4jnsgd1na2vs0mg"},{"bike_id":"662e034f-ec92-417c-a838-68762f3020bc","system_id":"levelo_inurba_marseille","lat":43.304962,"lon":5.368451,"is_reserved":false,"is_disabled":false,"rental_uris":{"android":"levelo://app?vid=662e034f-ec92-417c-a838-68762f3020bc","ios":"levelo://app?vid=662e034f-ec92-417c-a838-68762f3020bc"},"vehicle_type_id":"4","last_reported":1760681732,"current_range_meters":8400,"station_id":"","pricing_plan_id":"cebpf4jnsgd1na2vs0mg"},{"bike_id":"3281f868-a9a9-4767-ad49-5f01588ea078","system_id":"levelo_inurba_marseille","lat":43.301401,"lon":5.38075,"is_reserved":false,"is_disabled":false,"rental_uris":{"android":"levelo://app?vid=3281f868-a9a9-4767-ad49-5f01588ea078","ios":"levelo://app?vid=3281f868-a9a9-4767-ad49-5f01588ea078"},"vehicle_type_id":"4","last_reported":1760681732,"current_range_meters":8400,"station_id":"ce4bgjp2rcd13ifvqbh0","pricing_plan_id":"cebpf4jnsgd1na2vs0mg"},{"bike_id":"19117d97-2cfb-453d-ac56-023851cd46ae","system_id":"levelo_inurba_marseille","lat":43.30463,"lon":5.37908,"is_reserved":false,"is_disabled":false,"rental_uris":{"android":"levelo://app?vid=19117d97-2cfb-453d-ac56-023851cd46ae","ios":"levelo://app?vid=19117d97-2cfb-453d-ac56-023851cd46ae"},"vehicle_type_id":"4","last_reported":1760681732,"current_range_meters":8400,"station_id":"ce4bgup2rcd13ifvqcn0","pricing_plan_id":"cebpf4jnsgd1na2vs0mg"},{"bike_id":"24a2386f-4d7e-49b5-aa94-7892fee82ba6","system_id":"levelo_inurba_marseille","lat":43.26575,"lon":5.39017,"is_reserved":false,"is_disabled":false,"rental_uris":{"android":"levelo://app?vid=24a2386f-4d7e-49b5-aa94-7892fee82ba6","ios":"levelo://app?vid=24a2386f-4d7e-49b5-aa94-7892fee82ba6"},"vehicle_type_id":"4","last_reported":1760681732,"current_range_meters":8400,"station_id":"ce4bhe12rcd13ifvqf30","pricing_plan_id":"cebpf4jnsgd1na2vs0mg"},{"bike_id":"294a454d-36db-4f09-848a-02d0c39ea6d7","system_id":"levelo_inurba_marseille","lat":43.239679,"lon":5.366304,"is_reserved":false,"is_disabled":false,"rental_uris":{"android":"levelo://app?vid=294a454d-36db-4f09-848a-02d0c39ea6d7","ios":"levelo://app?vid=294a454d-36db-4f09-848a-02d0c39ea6d7"},"vehicle_type_id":"4","last_reported":1760681732,"current_range_meters":8400,"station_id":"ce4bhi12rcd13ifvqfp0","pricing_plan_id":"cebpf4jnsgd1na2vs0mg"},{"bike_id":"d1479d7e-d1ef-4f11-bbe2-b0517f9981b5","system_id":"levelo_inurba_marseille","lat":43.32101,"lon":5.36775,"is_reserved":false,"is_disabled":false,"rental_uris":{"android":"levelo://app?vid=d1479d7e-d1ef-4f11-bbe2-b0517f9981b5","ios":"levelo://app?vid=d1479d7e-d1ef-4f11-bbe2-b0517f9981b5"},"vehicle_type_id":"4","last_reported":1760681732,"current_range_meters":8400,"station_id":"ce4bhrh2rcd13ifvqhug","pricing_plan_id":"cebpf4jnsgd1na2vs0mg"},{"bike_id":"47b6a661-48b8-461f-9827-f48295e67bbf","system_id":"levelo_inurba_marseille","lat":43.26309,"lon":5.39869,"is_reserved":false,"is_disabled":false,"rental_uris":{"android":"levelo://app?vid=47b6a661-48b8-461f-9827-f48295e67bbf","ios":"levelo://app?vid=47b6a661-48b8-461f-9827-f48295e67bbf"},"vehicle_type_id":"4","last_reported":1760681732,"current_range_meters":8800,"station_id":"","pricing_plan_id":"cebpf4jnsgd1na2vs0mg"},{"bike_id":"c871ca87-9ea0-4c82-8f96-1d74fe568265","system_id":"levelo_inurba_marseille","lat":43.285748,"lon":5.414758,"is_reserved":false,"is_disabled":false,"rental_uris":{"android":"levelo://app?vid=c871ca87-9ea0-4c82-8f96-1d74fe568265","ios":"levelo://app?vid=c871ca87-9ea0-4c82-8f96-1d74fe568265"},"vehicle_type_id":"4","last_reported":1760681732,"current_range_meters":8800,"station_id":"","pricing_plan_id":"cebpf4jnsgd1na2vs0mg"},{"bike_id":"e70e35f1-bad5-4989-afc7-239c97f90a5f","system_id":"levelo_inurba_marseille","lat":43.30155,"lon":5.38098,"is_reserved":false,"is_disabled":false,"rental_uris":{"android":"levelo://app?vid=e70e35f1-bad5-4989-afc7-239c97f90a5f","ios":"levelo://app?vid=e70e35f1-bad5-4989-afc7-239c97f90a5f"},"vehicle_type_id":"4","last_reported":1760681732,"current_range_meters":8800,"station_id":"ce4bgjp2rcd13ifvqbh0","pricing_plan_id":"cebpf4jnsgd1na2vs0mg"},{"bike_id":"5e0fa208-2da7-403a-bacb-a3c569a321a0","system_id":"levelo_inurba_marseille","lat":43.28473,"lon":5.38424,"is_reserved":false,"is_disabled":false,"rental_uris":{"android":"levelo://app?vid=5e0fa208-2da7-403a-bacb-a3c569a321a0","ios":"levelo://app?vid=5e0fa208-2da7-403a-bacb-a3c569a321a0"},"vehicle_type_id":"4","last_reported":1760681732,"current_range_meters":8800,"station_id":"ce4bh512rcd13ifvqe3g","pricing_plan_id":"cebpf4jnsgd1na2vs0mg"},{"bike_id":"3dc3d127-0ac5-4aa7-9bfc-ff62168b6cd8","system_id":"levelo_inurba_marseille","lat":43.24074,"lon":5.37762,"is_reserved":false,"is_disabled":false,"rental_uris":{"android":"levelo://app?vid=3dc3d127-0ac5-4aa7-9bfc-ff62168b6cd8","ios":"levelo://app?vid=3dc3d127-0ac5-4aa7-9bfc-ff62168b6cd8"},"vehicle_type_id":"4","last_reported":1760681732,"current_range_meters":8800,"station_id":"ce4bhnp2rcd13ifvqgvg","pricing_plan_id":"cebpf4jnsgd1na2vs0mg"},{"bike_id":"13982c6a-7e65-42f5-8f40-394404e94543","system_id":"levelo_inurba_marseille","lat":43.2857,"lon":5.45058,"is_reserved":false,"is_disabled":false,"rental_uris":{"android":"levelo://app?vid=13982c6a-7e65-42f5-8f40-394404e94543","ios":"levelo://app?vid=13982c6a-7e65-42f5-8f40-394404e94543"},"vehicle_type_id":"4","last_reported":1760681732,"current_range_meters":9200,"station_id":"","pricing_plan_id":"cebpf4jnsgd1na2vs0mg"},{"bike_id":"a920179e-1f4e-4b2c-bca3-2e326ab9004d","system_id":"levelo_inurba_marseille","lat":43.30536,"lon":5.38424,"is_reserved":false,"is_disabled":false,"rental_uris":{"android":"levelo://app?vid=a920179e-1f4e-4b2c-bca3-2e326ab9004d","ios":"levelo://app?vid=a920179e-1f4e-4b2c-bca3-2e326ab9004d"},"vehicle_type_id":"4","last_reported":1760681732,"current_range_meters":9200,"station_id":"ce4bgg92rcd13ifvqb30","pricing_plan_id":"cebpf4jnsgd1na2vs0mg"},{"bike_id":"59aab5ad-3725-4c8a-b996-a5d58e872cdd","system_id":"levelo_inurba_marseille","lat":43.30466,"lon":5.37903,"is_reserved":false,"is_disabled":false,"rental_uris":{"android":"levelo://app?vid=59aab5ad-3725-4c8a-b996-a5d58e872cdd","ios":"levelo://app?vid=59aab5ad-3725-4c8a-b996-a5d58e872cdd"},"vehicle_type_id":"4","last_reported":1760681732,"current_range_meters":9200,"station_id":"ce4bgup2rcd13ifvqcn0","pricing_plan_id":"cebpf4jnsgd1na2vs0mg"},{"bike_id":"03255f31-275c-4289-8b45-c8e227db126b","system_id":"levelo_inurba_marseille","lat":43.28459,"lon":5.35914,"is_reserved":false,"is_disabled":false,"rental_uris":{"android":"levelo://app?vid=03255f31-275c-4289-8b45-c8e227db126b","ios":"levelo://app?vid=03255f31-275c-4289-8b45-c8e227db126b"},"vehicle_type_id":"4","last_reported":1760681732,"current_range_meters":9200,"station_id":"ce4bhah2rcd13ifvqei0","pricing_plan_id":"cebpf4jnsgd1na2vs0mg"},{"bike_id":"6a2a376a-00e6-4b40-8775-ed55d86d0127","system_id":"levelo_inurba_marseille","lat":43.27185,"lon":5.40985,"is_reserved":false,"is_disabled":false,"rental_uris":{"android":"levelo://app?vid=6a2a376a-00e6-4b40-8775-ed55d86d0127","ios":"levelo://app?vid=6a2a376a-00e6-4b40-8775-ed55d86d0127"},"vehicle_type_id":"4","last_reported":1760681732,"current_range_meters":9200,"station_id":"ce4bhl12rcd13ifvqgf0","pricing_plan_id":"cebpf4jnsgd1na2vs0mg"},{"bike_id":"75dfe6f5-11f6-4360-899f-5f3e3c2576d2","system_id":"levelo_inurba_marseille","lat":43.27995,"lon":5.41665,"is_reserved":false,"is_disabled":false,"rental_uris":{"android":"levelo://app?vid=75dfe6f5-11f6-4360-899f-5f3e3c2576d2","ios":"levelo://app?vid=75dfe6f5-11f6-4360-899f-5f3e3c2576d2"},"vehicle_type_id":"4","last_reported":1760681732,"current_range_meters":9200,"station_id":"ce4bho12rcd13ifvqh1g","pricing_plan_id":"cebpf4jnsgd1na2vs0mg"},{"bike_id":"2935fa5a-befe-4d3d-aa8a-64f80dc3a048","system_id":"levelo_inurba_marseille","lat":43.27455,"lon":5.40733,"is_reserved":false,"is_disabled":false,"rental_uris":{"android":"levelo://app?vid=2935fa5a-befe-4d3d-aa8a-64f80dc3a048","ios":"levelo://app?vid=2935fa5a-befe-4d3d-aa8a-64f80dc3a048"},"vehicle_type_id":"4","last_reported":1760681732,"current_range_meters":9600,"station_id":"","pricing_plan_id":"cebpf4jnsgd1na2vs0mg"},{"bike_id":"121f55c8-5a85-4142-a96c-bf52eb873442","system_id":"levelo_inurba_marseille","lat":43.304576,"lon":5.369117,"is_reserved":false,"is_disabled":false,"rental_uris":{"android":"levelo://app?vid=121f55c8-5a85-4142-a96c-bf52eb873442","ios":"levelo://app?vid=121f55c8-5a85-4142-a96c-bf52eb873442"},"vehicle_type_id":"4","last_reported":1760681732,"current_range_meters":9600,"station_id":"","pricing_plan_id":"cebpf4jnsgd1na2vs0mg"},{"bike_id":"0670def4-b15a-4c00-8829-0cd906a61bcb","system_id":"levelo_inurba_marseille","lat":43.337806,"lon":5.374285,"is_reserved":false,"is_disabled":false,"rental_uris":{"android":"levelo://app?vid=0670def4-b15a-4c00-8829-0cd906a61bcb","ios":"levelo://app?vid=0670def4-b15a-4c00-8829-0cd906a61bcb"},"vehicle_type_id":"4","last_reported":1760681732,"current_range_meters":9600,"station_id":"","pricing_plan_id":"cebpf4jnsgd1na2vs0mg"},{"bike_id":"661eea50-f9d7-42ce-8a65-73894c61902a","system_id":"levelo_inurba_marseille","lat":43.3093,"lon":5.36856,"is_reserved":false,"is_disabled":false,"rental_uris":{"android":"levelo://app?vid=661eea50-f9d7-42ce-8a65-73894c61902a","ios":"levelo://app?vid=661eea50-f9d7-42ce-8a65-73894c61902a"},"vehicle_type_id":"4","last_reported":1760681732,"current_range_meters":9600,"station_id":"ce4bgn92rcd13ifvqbvg","pricing_plan_id":"cebpf4jnsgd1na2vs0mg"},{"bike_id":"c69b0293-80d1-4d0c-a7a5-8400a4d2d44c","system_id":"levelo_inurba_marseille","lat":43.30592,"lon":5.39355,"is_reserved":false,"is_disabled":false,"rental_uris":{"android":"levelo://app?vid=c69b0293-80d1-4d0c-a7a5-8400a4d2d44c","ios":"levelo://app?vid=c69b0293-80d1-4d0c-a7a5-8400a4d2d44c"},"vehicle_type_id":"4","last_reported":1760681732,"current_range_meters":9600,"station_id":"ce4bh0p2rcd13ifvqd80","pricing_plan_id":"cebpf4jnsgd1na2vs0mg"},{"bike_id":"e7caa1eb-79c8-4134-a274-fd50cbfcdaf3","system_id":"levelo_inurba_marseille","lat":43.28331,"lon":5.38126,"is_reserved":false,"is_disabled":false,"rental_uris":{"android":"levelo://app?vid=e7caa1eb-79c8-4134-a274-fd50cbfcdaf3","ios":"levelo://app?vid=e7caa1eb-79c8-4134-a274-fd50cbfcdaf3"},"vehicle_type_id":"4","last_reported":1760681732,"current_range_meters":9600,"station_id":"ce4bh412rcd13ifvqdr0","pricing_plan_id":"cebpf4jnsgd1na2vs0mg"},{"bike_id":"efda557c-3f3e-4193-a349-42475e2f9bf6","system_id":"levelo_inurba_marseille","lat":43.2871,"lon":5.37947,"is_reserved":false,"is_disabled":false,"rental_uris":{"android":"levelo://app?vid=efda557c-3f3e-4193-a349-42475e2f9bf6","ios":"levelo://app?vid=efda557c-3f3e-4193-a349-42475e2f9bf6"},"vehicle_type_id":"4","last_reported":1760681732,"current_range_meters":9600,"station_id":"ce4bh9p2rcd13ifvqec0","pricing_plan_id":"cebpf4jnsgd1na2vs0mg"},{"bike_id":"b37034b0-e018-47f4-abba-6476122582bb","system_id":"levelo_inurba_marseille","lat":43.246395,"lon":5.389055,"is_reserved":false,"is_disabled":false,"rental_uris":{"android":"levelo://app?vid=b37034b0-e018-47f4-abba-6476122582bb","ios":"levelo://app?vid=b37034b0-e018-47f4-abba-6476122582bb"},"vehicle_type_id":"4","last_reported":1760681732,"current_range_meters":9600,"station_id":"ce4bhg12rcd13ifvqf60","pricing_plan_id":"cebpf4jnsgd1na2vs0mg"},{"bike_id":"b953b5b3-bbaf-44b0-80a6-4c91b38c25dc","system_id":"levelo_inurba_marseille","lat":43.231884,"lon":5.355561,"is_reserved":false,"is_disabled":false,"rental_uris":{"android":"levelo://app?vid=b953b5b3-bbaf-44b0-80a6-4c91b38c25dc","ios":"levelo://app?vid=b953b5b3-bbaf-44b0-80a6-4c91b38c25dc"},"vehicle_type_id":"4","last_reported":1760681732,"current_range_meters":9600,"station_id":"ce4bhu92rcd13ifvqi70","pricing_plan_id":"cebpf4jnsgd1na2vs0mg"},{"bike_id":"86907f51-b6ac-4d9f-aba0-65e0a3d00f25","system_id":"levelo_inurba_marseille","lat":43.211932,"lon":5.350787,"is_reserved":false,"is_disabled":false,"rental_uris":{"android":"levelo://app?vid=86907f51-b6ac-4d9f-aba0-65e0a3d00f25","ios":"levelo://app?vid=86907f51-b6ac-4d9f-aba0-65e0a3d00f25"},"vehicle_type_id":"4","last_reported":1760681732,"current_range_meters":9600,"station_id":"st_cvj6sg6p6f1abm77japg","pricing_plan_id":"cebpf4jnsgd1na2vs0mg"},{"bike_id":"342bbd7f-b89e-49c5-9d2b-3dc340ae6c2a","system_id":"levelo_inurba_marseille","lat":43.21187,"lon":5.35084,"is_reserved":false,"is_disabled":false,"rental_uris":{"android":"levelo://app?vid=342bbd7f-b89e-49c5-9d2b-3dc340ae6c2a","ios":"levelo://app?vid=342bbd7f-b89e-49c5-9d2b-3dc340ae6c2a"},"vehicle_type_id":"4","last_reported":1760681732,"current_range_meters":9600,"station_id":"st_cvj6sg6p6f1abm77japg","pricing_plan_id":"cebpf4jnsgd1na2vs0mg"},{"bike_id":"3e27eebe-f15c-4866-ae1b-84c39cda73e6","system_id":"levelo_inurba_marseille","lat":43.27936,"lon":5.39575,"is_reserved":false,"is_disabled":false,"rental_uris":{"android":"levelo://app?vid=3e27eebe-f15c-4866-ae1b-84c39cda73e6","ios":"levelo://app?vid=3e27eebe-f15c-4866-ae1b-84c39cda73e6"},"vehicle_type_id":"4","last_reported":1760681732,"current_range_meters":10000,"station_id":"","pricing_plan_id":"cebpf4jnsgd1na2vs0mg"},{"bike_id":"850a8e8d-fa0e-48a5-b348-fa42cc424429","system_id":"levelo_inurba_marseille","lat":43.29593,"lon":5.39595,"is_reserved":false,"is_disabled":false,"rental_uris":{"android":"levelo://app?vid=850a8e8d-fa0e-48a5-b348-fa42cc424429","ios":"levelo://app?vid=850a8e8d-fa0e-48a5-b348-fa42cc424429"},"vehicle_type_id":"4","last_reported":1760681732,"current_range_meters":10000,"station_id":"","pricing_plan_id":"cebpf4jnsgd1na2vs0mg"},{"bike_id":"cb12ac95-b112-40d8-8b7d-06759435ef6f","system_id":"levelo_inurba_marseille","lat":43.28549,"lon":5.44999,"is_reserved":false,"is_disabled":false,"rental_uris":{"android":"levelo://app?vid=cb12ac95-b112-40d8-8b7d-06759435ef6f","ios":"levelo://app?vid=cb12ac95-b112-40d8-8b7d-06759435ef6f"},"vehicle_type_id":"4","last_reported":1760681732,"current_range_meters":10000,"station_id":"","pricing_plan_id":"cebpf4jnsgd1na2vs0mg"},{"bike_id":"fa178e80-b17e-4c77-b9c1-abc82df0db97","system_id":"levelo_inurba_marseille","lat":43.30626,"lon":5.37344,"is_reserved":false,"is_disabled":false,"rental_uris":{"android":"levelo://app?vid=fa178e80-b17e-4c77-b9c1-abc82df0db97","ios":"levelo://app?vid=fa178e80-b17e-4c77-b9c1-abc82df0db97"},"vehicle_type_id":"4","last_reported":1760681732,"current_range_meters":10000,"station_id":"","pricing_plan_id":"cebpf4jnsgd1na2vs0mg"},{"bike_id":"21c3a9fe-adfc-4375-8283-33ee1b7e74f0","system_id":"levelo_inurba_marseille","lat":43.31331,"lon":5.36756,"is_reserved":false,"is_disabled":false,"rental_uris":{"android":"levelo://app?vid=21c3a9fe-adfc-4375-8283-33ee1b7e74f0","ios":"levelo://app?vid=21c3a9fe-adfc-4375-8283-33ee1b7e74f0"},"vehicle_type_id":"4","last_reported":1760681732,"current_range_meters":10000,"station_id":"ce4bgr92rcd13ifvqc6g","pricing_plan_id":"cebpf4jnsgd1na2vs0mg"},{"bike_id":"20983010-be61-4fb8-9b7c-75c58362840e","system_id":"levelo_inurba_marseille","lat":43.28335,"lon":5.43404,"is_reserved":false,"is_disabled":false,"rental_uris":{"android":"levelo://app?vid=20983010-be61-4fb8-9b7c-75c58362840e","ios":"levelo://app?vid=20983010-be61-4fb8-9b7c-75c58362840e"},"vehicle_type_id":"4","last_reported":1760681732,"current_range_meters":10800,"station_id":"","pricing_plan_id":"cebpf4jnsgd1na2vs0mg"},{"bike_id":"e257a5c9-b99e-4af1-ac4f-b017f1c8b418","system_id":"levelo_inurba_marseille","lat":43.33759,"lon":5.37438,"is_reserved":false,"is_disabled":false,"rental_uris":{"android":"levelo://app?vid=e257a5c9-b99e-4af1-ac4f-b017f1c8b418","ios":"levelo://app?vid=e257a5c9-b99e-4af1-ac4f-b017f1c8b418"},"vehicle_type_id":"4","last_reported":1760681732,"current_range_meters":10800,"station_id":"","pricing_plan_id":"cebpf4jnsgd1na2vs0mg"},{"bike_id":"94c96441-12fd-4963-a5d4-74a6a56599ce","system_id":"levelo_inurba_marseille","lat":43.26231,"lon":5.40454,"is_reserved":false,"is_disabled":false,"rental_uris":{"android":"levelo://app?vid=94c96441-12fd-4963-a5d4-74a6a56599ce","ios":"levelo://app?vid=94c96441-12fd-4963-a5d4-74a6a56599ce"},"vehicle_type_id":"4","last_reported":1760681732,"current_range_meters":10800,"station_id":"ce4bhmh2rcd13ifvqgmg","pricing_plan_id":"cebpf4jnsgd1na2vs0mg"},{"bike_id":"19c4b376-4a33-457b-806f-be31273b18b7","system_id":"levelo_inurba_marseille","lat":43.23189,"lon":5.35555,"is_reserved":false,"is_disabled":false,"rental_uris":{"android":"levelo://app?vid=19c4b376-4a33-457b-806f-be31273b18b7","ios":"levelo://app?vid=19c4b376-4a33-457b-806f-be31273b18b7"},"vehicle_type_id":"4","last_reported":1760681732,"current_range_meters":10800,"station_id":"ce4bhu92rcd13ifvqi70","pricing_plan_id":"cebpf4jnsgd1na2vs0mg"},{"bike_id":"598f72a7-d707-4d7b-a63a-32392cbed0c0","system_id":"levelo_inurba_marseille","lat":43.249465,"lon":5.405032,"is_reserved":false,"is_disabled":false,"rental_uris":{"android":"levelo://app?vid=598f72a7-d707-4d7b-a63a-32392cbed0c0","ios":"levelo://app?vid=598f72a7-d707-4d7b-a63a-32392cbed0c0"},"vehicle_type_id":"4","last_reported":1760681732,"current_range_meters":10800,"station_id":"st_d2ngiaodas8pm72gd1h0","pricing_plan_id":"cebpf4jnsgd1na2vs0mg"},{"bike_id":"93e7c9ba-b9ab-4e60-8ec0-335965b7b7da","system_id":"levelo_inurba_marseille","lat":43.25721,"lon":5.41105,"is_reserved":false,"is_disabled":false,"rental_uris":{"android":"levelo://app?vid=93e7c9ba-b9ab-4e60-8ec0-335965b7b7da","ios":"levelo://app?vid=93e7c9ba-b9ab-4e60-8ec0-335965b7b7da"},"vehicle_type_id":"4","last_reported":1760681732,"current_range_meters":11200,"station_id":"ce4bhkp2rcd13ifvqgd0","pricing_plan_id":"cebpf4jnsgd1na2vs0mg"},{"bike_id":"f3a172b2-1ae6-4d7c-af42-466e532ab144","system_id":"levelo_inurba_marseille","lat":43.27947,"lon":5.410412,"is_reserved":false,"is_disabled":false,"rental_uris":{"android":"levelo://app?vid=f3a172b2-1ae6-4d7c-af42-466e532ab144","ios":"levelo://app?vid=f3a172b2-1ae6-4d7c-af42-466e532ab144"},"vehicle_type_id":"4","last_reported":1760681732,"current_range_meters":11200,"station_id":"ce4bhnp2rcd13ifvqh0g","pricing_plan_id":"cebpf4jnsgd1na2vs0mg"},{"bike_id":"2a5498ee-d604-476f-a7c3-7260eebaa7f3","system_id":"levelo_inurba_marseille","lat":43.29571,"lon":5.37426,"is_reserved":false,"is_disabled":false,"rental_uris":{"android":"levelo://app?vid=2a5498ee-d604-476f-a7c3-7260eebaa7f3","ios":"levelo://app?vid=2a5498ee-d604-476f-a7c3-7260eebaa7f3"},"vehicle_type_id":"4","last_reported":1760681732,"current_range_meters":11600,"station_id":"","pricing_plan_id":"cebpf4jnsgd1na2vs0mg"},{"bike_id":"85fda4dd-332d-4f75-b747-ac566bf7a6b6","system_id":"levelo_inurba_marseille","lat":43.30166,"lon":5.38087,"is_reserved":false,"is_disabled":false,"rental_uris":{"android":"levelo://app?vid=85fda4dd-332d-4f75-b747-ac566bf7a6b6","ios":"levelo://app?vid=85fda4dd-332d-4f75-b747-ac566bf7a6b6"},"vehicle_type_id":"4","last_reported":1760681732,"current_range_meters":11600,"station_id":"ce4bgjp2rcd13ifvqbh0","pricing_plan_id":"cebpf4jnsgd1na2vs0mg"},{"bike_id":"be4118c3-e323-4009-a76a-6cd5080f740b","system_id":"levelo_inurba_marseille","lat":43.30653,"lon":5.40096,"is_reserved":false,"is_disabled":false,"rental_uris":{"android":"levelo://app?vid=be4118c3-e323-4009-a76a-6cd5080f740b","ios":"levelo://app?vid=be4118c3-e323-4009-a76a-6cd5080f740b"},"vehicle_type_id":"4","last_reported":1760681732,"current_range_meters":11600,"station_id":"ce4bh112rcd13ifvqda0","pricing_plan_id":"cebpf4jnsgd1na2vs0mg"},{"bike_id":"e2bbe7e9-99fa-4f1e-853c-571902a54148","system_id":"levelo_inurba_marseille","lat":43.27207,"lon":5.39178,"is_reserved":false,"is_disabled":false,"rental_uris":{"android":"levelo://app?vid=e2bbe7e9-99fa-4f1e-853c-571902a54148","ios":"levelo://app?vid=e2bbe7e9-99fa-4f1e-853c-571902a54148"},"vehicle_type_id":"4","last_reported":1760681732,"current_range_meters":11600,"station_id":"ce4bhhp2rcd13ifvqfm0","pricing_plan_id":"cebpf4jnsgd1na2vs0mg"},{"bike_id":"24d82d64-1145-442f-a9f5-19238b0b39ef","system_id":"levelo_inurba_marseille","lat":43.272133,"lon":5.391866,"is_reserved":false,"is_disabled":false,"rental_uris":{"android":"levelo://app?vid=24d82d64-1145-442f-a9f5-19238b0b39ef","ios":"levelo://app?vid=24d82d64-1145-442f-a9f5-19238b0b39ef"},"vehicle_type_id":"4","last_reported":1760681732,"current_range_meters":12000,"station_id":"","pricing_plan_id":"cebpf4jnsgd1na2vs0mg"},{"bike_id":"416f580b-31c7-4ade-8604-dbd86eb8155f","system_id":"levelo_inurba_marseille","lat":43.28167,"lon":5.42125,"is_reserved":false,"is_disabled":false,"rental_uris":{"android":"levelo://app?vid=416f580b-31c7-4ade-8604-dbd86eb8155f","ios":"levelo://app?vid=416f580b-31c7-4ade-8604-dbd86eb8155f"},"vehicle_type_id":"4","last_reported":1760681732,"current_range_meters":12000,"station_id":"","pricing_plan_id":"cebpf4jnsgd1na2vs0mg"},{"bike_id":"556c94cf-c276-4305-9540-fed70911da0a","system_id":"levelo_inurba_marseille","lat":43.301588,"lon":5.380817,"is_reserved":false,"is_disabled":false,"rental_uris":{"android":"levelo://app?vid=556c94cf-c276-4305-9540-fed70911da0a","ios":"levelo://app?vid=556c94cf-c276-4305-9540-fed70911da0a"},"vehicle_type_id":"4","last_reported":1760681732,"current_range_meters":12000,"station_id":"ce4bgjp2rcd13ifvqbh0","pricing_plan_id":"cebpf4jnsgd1na2vs0mg"},{"bike_id":"97f0971a-aaf2-46c2-aecc-1ab6152dfc71","system_id":"levelo_inurba_marseille","lat":43.2884,"lon":5.35855,"is_reserved":false,"is_disabled":false,"rental_uris":{"android":"levelo://app?vid=97f0971a-aaf2-46c2-aecc-1ab6152dfc71","ios":"levelo://app?vid=97f0971a-aaf2-46c2-aecc-1ab6152dfc71"},"vehicle_type_id":"4","last_reported":1760681732,"current_range_meters":12000,"station_id":"ce4bhb12rcd13ifvqem0","pricing_plan_id":"cebpf4jnsgd1na2vs0mg"},{"bike_id":"5e15eda3-2289-4c01-ad44-4bb0069a41ed","system_id":"levelo_inurba_marseille","lat":43.24079,"lon":5.3776,"is_reserved":false,"is_disabled":false,"rental_uris":{"android":"levelo://app?vid=5e15eda3-2289-4c01-ad44-4bb0069a41ed","ios":"levelo://app?vid=5e15eda3-2289-4c01-ad44-4bb0069a41ed"},"vehicle_type_id":"4","last_reported":1760681732,"current_range_meters":12000,"station_id":"ce4bhnp2rcd13ifvqgvg","pricing_plan_id":"cebpf4jnsgd1na2vs0mg"},{"bike_id":"f6fd5406-9f55-4abd-98cc-c7543c7dd5b5","system_id":"levelo_inurba_marseille","lat":43.323563,"lon":5.367423,"is_reserved":false,"is_disabled":false,"rental_uris":{"android":"levelo://app?vid=f6fd5406-9f55-4abd-98cc-c7543c7dd5b5","ios":"levelo://app?vid=f6fd5406-9f55-4abd-98cc-c7543c7dd5b5"},"vehicle_type_id":"4","last_reported":1760681732,"current_range_meters":12000,"station_id":"ce4bhsh2rcd13ifvqi2g","pricing_plan_id":"cebpf4jnsgd1na2vs0mg"},{"bike_id":"705c593f-abe0-4f08-b758-a363112007ff","system_id":"levelo_inurba_marseille","lat":43.23792,"lon":5.36626,"is_reserved":false,"is_disabled":false,"rental_uris":{"android":"levelo://app?vid=705c593f-abe0-4f08-b758-a363112007ff","ios":"levelo://app?vid=705c593f-abe0-4f08-b758-a363112007ff"},"vehicle_type_id":"4","last_reported":1760681732,"current_range_meters":12000,"station_id":"st_d3nk18o9ro0c73en2l3g","pricing_plan_id":"cebpf4jnsgd1na2vs0mg"},{"bike_id":"1c3664f0-daa7-4fd0-a6d8-42680b262940","system_id":"levelo_inurba_marseille","lat":43.30648,"lon":5.40082,"is_reserved":false,"is_disabled":false,"rental_uris":{"android":"levelo://app?vid=1c3664f0-daa7-4fd0-a6d8-42680b262940","ios":"levelo://app?vid=1c3664f0-daa7-4fd0-a6d8-42680b262940"},"vehicle_type_id":"4","last_reported":1760681732,"current_range_meters":12400,"station_id":"ce4bh112rcd13ifvqda0","pricing_plan_id":"cebpf4jnsgd1na2vs0mg"},{"bike_id":"2bf61754-2952-4001-8a66-9ac755e2d4b9","system_id":"levelo_inurba_marseille","lat":43.269779,"lon":5.386882,"is_reserved":false,"is_disabled":false,"rental_uris":{"android":"levelo://app?vid=2bf61754-2952-4001-8a66-9ac755e2d4b9","ios":"levelo://app?vid=2bf61754-2952-4001-8a66-9ac755e2d4b9"},"vehicle_type_id":"4","last_reported":1760681732,"current_range_meters":12400,"station_id":"ce4bhh92rcd13ifvqfh0","pricing_plan_id":"cebpf4jnsgd1na2vs0mg"},{"bike_id":"9e8d83a7-2cc2-4529-aff6-be354ee209bc","system_id":"levelo_inurba_marseille","lat":43.22564,"lon":5.41628,"is_reserved":false,"is_disabled":false,"rental_uris":{"android":"levelo://app?vid=9e8d83a7-2cc2-4529-aff6-be354ee209bc","ios":"levelo://app?vid=9e8d83a7-2cc2-4529-aff6-be354ee209bc"},"vehicle_type_id":"4","last_reported":1760681732,"current_range_meters":12400,"station_id":"st_d2o4gvlbi1j2169b742g","pricing_plan_id":"cebpf4jnsgd1na2vs0mg"},{"bike_id":"b6587072-26bc-4d24-bf89-46b83cab579b","system_id":"levelo_inurba_marseille","lat":43.29312,"lon":5.38664,"is_reserved":false,"is_disabled":false,"rental_uris":{"android":"levelo://app?vid=b6587072-26bc-4d24-bf89-46b83cab579b","ios":"levelo://app?vid=b6587072-26bc-4d24-bf89-46b83cab579b"},"vehicle_type_id":"4","last_reported":1760681732,"current_range_meters":12800,"station_id":"","pricing_plan_id":"cebpf4jnsgd1na2vs0mg"},{"bike_id":"5fe6e873-dba1-40dd-bc65-77de126f2710","system_id":"levelo_inurba_marseille","lat":43.332893,"lon":5.395256,"is_reserved":false,"is_disabled":false,"rental_uris":{"android":"levelo://app?vid=5fe6e873-dba1-40dd-bc65-77de126f2710","ios":"levelo://app?vid=5fe6e873-dba1-40dd-bc65-77de126f2710"},"vehicle_type_id":"4","last_reported":1760681732,"current_range_meters":12800,"station_id":"","pricing_plan_id":"cebpf4jnsgd1na2vs0mg"},{"bike_id":"42bc3f62-34df-4095-87cc-aeefd3ee2f7a","system_id":"levelo_inurba_marseille","lat":43.241696,"lon":5.364018,"is_reserved":false,"is_disabled":false,"rental_uris":{"android":"levelo://app?vid=42bc3f62-34df-4095-87cc-aeefd3ee2f7a","ios":"levelo://app?vid=42bc3f62-34df-4095-87cc-aeefd3ee2f7a"},"vehicle_type_id":"4","last_reported":1760681732,"current_range_meters":12800,"station_id":"cpo36qri1sfpv3e86is0","pricing_plan_id":"cebpf4jnsgd1na2vs0mg"},{"bike_id":"87807ea4-c0ed-4ac3-b868-352f1424db60","system_id":"levelo_inurba_marseille","lat":43.237785,"lon":5.366255,"is_reserved":false,"is_disabled":false,"rental_uris":{"android":"levelo://app?vid=87807ea4-c0ed-4ac3-b868-352f1424db60","ios":"levelo://app?vid=87807ea4-c0ed-4ac3-b868-352f1424db60"},"vehicle_type_id":"4","last_reported":1760681732,"current_range_meters":12800,"station_id":"st_d3nk18o9ro0c73en2l3g","pricing_plan_id":"cebpf4jnsgd1na2vs0mg"},{"bike_id":"ab8dbe06-49f3-423b-99b1-2274be7ed343","system_id":"levelo_inurba_marseille","lat":43.28673,"lon":5.3865,"is_reserved":false,"is_disabled":false,"rental_uris":{"android":"levelo://app?vid=ab8dbe06-49f3-423b-99b1-2274be7ed343","ios":"levelo://app?vid=ab8dbe06-49f3-423b-99b1-2274be7ed343"},"vehicle_type_id":"4","last_reported":1760681732,"current_range_meters":13600,"station_id":"","pricing_plan_id":"cebpf4jnsgd1na2vs0mg"},{"bike_id":"ad7925e4-e61a-4c95-aae6-fcbd9368ac97","system_id":"levelo_inurba_marseille","lat":43.30152,"lon":5.38079,"is_reserved":false,"is_disabled":false,"rental_uris":{"android":"levelo://app?vid=ad7925e4-e61a-4c95-aae6-fcbd9368ac97","ios":"levelo://app?vid=ad7925e4-e61a-4c95-aae6-fcbd9368ac97"},"vehicle_type_id":"4","last_reported":1760681732,"current_range_meters":13600,"station_id":"ce4bgjp2rcd13ifvqbh0","pricing_plan_id":"cebpf4jnsgd1na2vs0mg"},{"bike_id":"6c3b6664-e921-4ad1-8748-2c2667375d7b","system_id":"levelo_inurba_marseille","lat":43.26574,"lon":5.39035,"is_reserved":false,"is_disabled":false,"rental_uris":{"android":"levelo://app?vid=6c3b6664-e921-4ad1-8748-2c2667375d7b","ios":"levelo://app?vid=6c3b6664-e921-4ad1-8748-2c2667375d7b"},"vehicle_type_id":"4","last_reported":1760681732,"current_range_meters":13600,"station_id":"ce4bhe12rcd13ifvqf30","pricing_plan_id":"cebpf4jnsgd1na2vs0mg"},{"bike_id":"22dc6b48-f58d-4941-92ef-544176fd12a2","system_id":"levelo_inurba_marseille","lat":43.28525,"lon":5.44101,"is_reserved":false,"is_disabled":false,"rental_uris":{"android":"levelo://app?vid=22dc6b48-f58d-4941-92ef-544176fd12a2","ios":"levelo://app?vid=22dc6b48-f58d-4941-92ef-544176fd12a2"},"vehicle_type_id":"4","last_reported":1760681732,"current_range_meters":13600,"station_id":"st_d3j3df2ikq2c7380ej80","pricing_plan_id":"cebpf4jnsgd1na2vs0mg"},{"bike_id":"e8d02b3e-5749-4691-b9fb-819990cdfab3","system_id":"levelo_inurba_marseille","lat":43.239663,"lon":5.366299,"is_reserved":false,"is_disabled":false,"rental_uris":{"android":"levelo://app?vid=e8d02b3e-5749-4691-b9fb-819990cdfab3","ios":"levelo://app?vid=e8d02b3e-5749-4691-b9fb-819990cdfab3"},"vehicle_type_id":"4","last_reported":1760681732,"current_range_meters":14000,"station_id":"ce4bhi12rcd13ifvqfp0","pricing_plan_id":"cebpf4jnsgd1na2vs0mg"},{"bike_id":"5b8929d4-d2ac-464b-9a54-a03b4aef1cf5","system_id":"levelo_inurba_marseille","lat":43.23958,"lon":5.36642,"is_reserved":false,"is_disabled":false,"rental_uris":{"android":"levelo://app?vid=5b8929d4-d2ac-464b-9a54-a03b4aef1cf5","ios":"levelo://app?vid=5b8929d4-d2ac-464b-9a54-a03b4aef1cf5"},"vehicle_type_id":"4","last_reported":1760681732,"current_range_meters":14000,"station_id":"ce4bhi12rcd13ifvqfp0","pricing_plan_id":"cebpf4jnsgd1na2vs0mg"},{"bike_id":"e7a0de45-e44b-47bf-aa95-71faaf613e41","system_id":"levelo_inurba_marseille","lat":43.28313,"lon":5.43343,"is_reserved":false,"is_disabled":false,"rental_uris":{"android":"levelo://app?vid=e7a0de45-e44b-47bf-aa95-71faaf613e41","ios":"levelo://app?vid=e7a0de45-e44b-47bf-aa95-71faaf613e41"},"vehicle_type_id":"4","last_reported":1760681732,"current_range_meters":14400,"station_id":"","pricing_plan_id":"cebpf4jnsgd1na2vs0mg"},{"bike_id":"4232d71d-261a-4b0b-9b6b-22a3dedd2bfd","system_id":"levelo_inurba_marseille","lat":43.298,"lon":5.38108,"is_reserved":false,"is_disabled":false,"rental_uris":{"android":"levelo://app?vid=4232d71d-261a-4b0b-9b6b-22a3dedd2bfd","ios":"levelo://app?vid=4232d71d-261a-4b0b-9b6b-22a3dedd2bfd"},"vehicle_type_id":"4","last_reported":1760681732,"current_range_meters":14400,"station_id":"ce4bgip2rcd13ifvqbb0","pricing_plan_id":"cebpf4jnsgd1na2vs0mg"},{"bike_id":"4eb149aa-49eb-44bd-a8ac-65b8d141e771","system_id":"levelo_inurba_marseille","lat":43.2693,"lon":5.38916,"is_reserved":false,"is_disabled":false,"rental_uris":{"android":"levelo://app?vid=4eb149aa-49eb-44bd-a8ac-65b8d141e771","ios":"levelo://app?vid=4eb149aa-49eb-44bd-a8ac-65b8d141e771"},"vehicle_type_id":"4","last_reported":1760681732,"current_range_meters":14400,"station_id":"ce4bhhh2rcd13ifvqfl0","pricing_plan_id":"cebpf4jnsgd1na2vs0mg"},{"bike_id":"ce416436-2873-4b1a-8e85-1c946f3ae3dd","system_id":"levelo_inurba_marseille","lat":43.23158,"lon":5.43714,"is_reserved":false,"is_disabled":false,"rental_uris":{"android":"levelo://app?vid=ce416436-2873-4b1a-8e85-1c946f3ae3dd","ios":"levelo://app?vid=ce416436-2873-4b1a-8e85-1c946f3ae3dd"},"vehicle_type_id":"4","last_reported":1760681732,"current_range_meters":14400,"station_id":"ce4bhmp2rcd13ifvqgog","pricing_plan_id":"cebpf4jnsgd1na2vs0mg"},{"bike_id":"94f60e57-4ea5-4506-9b0b-d49e351bbd01","system_id":"levelo_inurba_marseille","lat":43.29383,"lon":5.3831,"is_reserved":false,"is_disabled":false,"rental_uris":{"android":"levelo://app?vid=94f60e57-4ea5-4506-9b0b-d49e351bbd01","ios":"levelo://app?vid=94f60e57-4ea5-4506-9b0b-d49e351bbd01"},"vehicle_type_id":"4","last_reported":1760681732,"current_range_meters":14800,"station_id":"","pricing_plan_id":"cebpf4jnsgd1na2vs0mg"},{"bike_id":"9474cd4a-cf02-4d93-9032-31bb7e8ae996","system_id":"levelo_inurba_marseille","lat":43.24377,"lon":5.37066,"is_reserved":false,"is_disabled":false,"rental_uris":{"android":"levelo://app?vid=9474cd4a-cf02-4d93-9032-31bb7e8ae996","ios":"levelo://app?vid=9474cd4a-cf02-4d93-9032-31bb7e8ae996"},"vehicle_type_id":"4","last_reported":1760681732,"current_range_meters":14800,"station_id":"ce4bhhh2rcd13ifvqfk0","pricing_plan_id":"cebpf4jnsgd1na2vs0mg"},{"bike_id":"5a3ff8f8-0f4c-4ad9-979c-a2a226ac1d30","system_id":"levelo_inurba_marseille","lat":43.279928,"lon":5.416594,"is_reserved":false,"is_disabled":false,"rental_uris":{"android":"levelo://app?vid=5a3ff8f8-0f4c-4ad9-979c-a2a226ac1d30","ios":"levelo://app?vid=5a3ff8f8-0f4c-4ad9-979c-a2a226ac1d30"},"vehicle_type_id":"4","last_reported":1760681732,"current_range_meters":14800,"station_id":"ce4bho12rcd13ifvqh1g","pricing_plan_id":"cebpf4jnsgd1na2vs0mg"},{"bike_id":"c4ed00de-3711-4102-92e5-72a600ff79ec","system_id":"levelo_inurba_marseille","lat":43.32361,"lon":5.36763,"is_reserved":false,"is_disabled":false,"rental_uris":{"android":"levelo://app?vid=c4ed00de-3711-4102-92e5-72a600ff79ec","ios":"levelo://app?vid=c4ed00de-3711-4102-92e5-72a600ff79ec"},"vehicle_type_id":"4","last_reported":1760681732,"current_range_meters":14800,"station_id":"ce4bhsh2rcd13ifvqi2g","pricing_plan_id":"cebpf4jnsgd1na2vs0mg"},{"bike_id":"0ed024ea-fcd9-4f6e-b4db-f2dbaa0accf4","system_id":"levelo_inurba_marseille","lat":43.31537,"lon":5.38033,"is_reserved":false,"is_disabled":false,"rental_uris":{"android":"levelo://app?vid=0ed024ea-fcd9-4f6e-b4db-f2dbaa0accf4","ios":"levelo://app?vid=0ed024ea-fcd9-4f6e-b4db-f2dbaa0accf4"},"vehicle_type_id":"4","last_reported":1760681732,"current_range_meters":14800,"station_id":"ce4bhsp2rcd13ifvqi50","pricing_plan_id":"cebpf4jnsgd1na2vs0mg"},{"bike_id":"a618d75f-c056-4d7b-8ccd-3fcd16a7d304","system_id":"levelo_inurba_marseille","lat":43.34146,"lon":5.409077,"is_reserved":false,"is_disabled":false,"rental_uris":{"android":"levelo://app?vid=a618d75f-c056-4d7b-8ccd-3fcd16a7d304","ios":"levelo://app?vid=a618d75f-c056-4d7b-8ccd-3fcd16a7d304"},"vehicle_type_id":"4","last_reported":1760681732,"current_range_meters":14800,"station_id":"cki0cbj6b192h4jlfktg","pricing_plan_id":"cebpf4jnsgd1na2vs0mg"},{"bike_id":"2df597f8-f20c-4e39-b65f-88f4f455957e","system_id":"levelo_inurba_marseille","lat":43.33756,"lon":5.37433,"is_reserved":false,"is_disabled":false,"rental_uris":{"android":"levelo://app?vid=2df597f8-f20c-4e39-b65f-88f4f455957e","ios":"levelo://app?vid=2df597f8-f20c-4e39-b65f-88f4f455957e"},"vehicle_type_id":"4","last_reported":1760681732,"current_range_meters":15200,"station_id":"","pricing_plan_id":"cebpf4jnsgd1na2vs0mg"},{"bike_id":"815cf213-d696-4613-a640-e85e311f0e63","system_id":"levelo_inurba_marseille","lat":43.31364,"lon":5.385,"is_reserved":false,"is_disabled":false,"rental_uris":{"android":"levelo://app?vid=815cf213-d696-4613-a640-e85e311f0e63","ios":"levelo://app?vid=815cf213-d696-4613-a640-e85e311f0e63"},"vehicle_type_id":"4","last_reported":1760681732,"current_range_meters":15200,"station_id":"ce4bgt92rcd13ifvqcf0","pricing_plan_id":"cebpf4jnsgd1na2vs0mg"},{"bike_id":"fea7c50b-4df2-441a-8d98-297e360610b6","system_id":"levelo_inurba_marseille","lat":43.269549,"lon":5.386321,"is_reserved":false,"is_disabled":false,"rental_uris":{"android":"levelo://app?vid=fea7c50b-4df2-441a-8d98-297e360610b6","ios":"levelo://app?vid=fea7c50b-4df2-441a-8d98-297e360610b6"},"vehicle_type_id":"4","last_reported":1760681732,"current_range_meters":15200,"station_id":"ce4bhh92rcd13ifvqfh0","pricing_plan_id":"cebpf4jnsgd1na2vs0mg"},{"bike_id":"15ac65cc-27be-4e48-ac71-399b2891fc08","system_id":"levelo_inurba_marseille","lat":43.23151,"lon":5.43716,"is_reserved":false,"is_disabled":false,"rental_uris":{"android":"levelo://app?vid=15ac65cc-27be-4e48-ac71-399b2891fc08","ios":"levelo://app?vid=15ac65cc-27be-4e48-ac71-399b2891fc08"},"vehicle_type_id":"4","last_reported":1760681732,"current_range_meters":15200,"station_id":"ce4bhmp2rcd13ifvqgog","pricing_plan_id":"cebpf4jnsgd1na2vs0mg"},{"bike_id":"2f427ffa-023f-4f18-948d-448a449d3df0","system_id":"levelo_inurba_marseille","lat":43.241674,"lon":5.364132,"is_reserved":false,"is_disabled":false,"rental_uris":{"android":"levelo://app?vid=2f427ffa-023f-4f18-948d-448a449d3df0","ios":"levelo://app?vid=2f427ffa-023f-4f18-948d-448a449d3df0"},"vehicle_type_id":"4","last_reported":1760681732,"current_range_meters":15200,"station_id":"cpo36qri1sfpv3e86is0","pricing_plan_id":"cebpf4jnsgd1na2vs0mg"},{"bike_id":"d7b2ebb5-725a-4859-b6a2-ccb4e4340b56","system_id":"levelo_inurba_marseille","lat":43.231755,"lon":5.437481,"is_reserved":false,"is_disabled":false,"rental_uris":{"android":"levelo://app?vid=d7b2ebb5-725a-4859-b6a2-ccb4e4340b56","ios":"levelo://app?vid=d7b2ebb5-725a-4859-b6a2-ccb4e4340b56"},"vehicle_type_id":"4","last_reported":1760681732,"current_range_meters":16000,"station_id":"ce4bhmp2rcd13ifvqgog","pricing_plan_id":"cebpf4jnsgd1na2vs0mg"},{"bike_id":"644a1934-712b-4ebe-9ac8-94b319009b0d","system_id":"levelo_inurba_marseille","lat":43.336057,"lon":5.410377,"is_reserved":false,"is_disabled":false,"rental_uris":{"android":"levelo://app?vid=644a1934-712b-4ebe-9ac8-94b319009b0d","ios":"levelo://app?vid=644a1934-712b-4ebe-9ac8-94b319009b0d"},"vehicle_type_id":"4","last_reported":1760681732,"current_range_meters":16000,"station_id":"ce4bhqh2rcd13ifvqhmg","pricing_plan_id":"cebpf4jnsgd1na2vs0mg"},{"bike_id":"53e45f66-6c88-47d1-a739-fad578ecef73","system_id":"levelo_inurba_marseille","lat":43.23786,"lon":5.36635,"is_reserved":false,"is_disabled":false,"rental_uris":{"android":"levelo://app?vid=53e45f66-6c88-47d1-a739-fad578ecef73","ios":"levelo://app?vid=53e45f66-6c88-47d1-a739-fad578ecef73"},"vehicle_type_id":"4","last_reported":1760681732,"current_range_meters":16000,"station_id":"st_d3nk18o9ro0c73en2l3g","pricing_plan_id":"cebpf4jnsgd1na2vs0mg"},{"bike_id":"ba2479bd-5a5a-46c2-83c3-00588f4cf74a","system_id":"levelo_inurba_marseille","lat":43.29791,"lon":5.36475,"is_reserved":false,"is_disabled":false,"rental_uris":{"android":"levelo://app?vid=ba2479bd-5a5a-46c2-83c3-00588f4cf74a","ios":"levelo://app?vid=ba2479bd-5a5a-46c2-83c3-00588f4cf74a"},"vehicle_type_id":"4","last_reported":1760681732,"current_range_meters":16400,"station_id":"","pricing_plan_id":"cebpf4jnsgd1na2vs0mg"},{"bike_id":"c5e45447-2956-450f-bd7e-88aaf308c04d","system_id":"levelo_inurba_marseille","lat":43.290008,"lon":5.365329,"is_reserved":false,"is_disabled":false,"rental_uris":{"android":"levelo://app?vid=c5e45447-2956-450f-bd7e-88aaf308c04d","ios":"levelo://app?vid=c5e45447-2956-450f-bd7e-88aaf308c04d"},"vehicle_type_id":"4","last_reported":1760681732,"current_range_meters":16400,"station_id":"","pricing_plan_id":"cebpf4jnsgd1na2vs0mg"},{"bike_id":"7d36990d-6fa0-4c9f-a025-bf8fdd5b089a","system_id":"levelo_inurba_marseille","lat":43.26503,"lon":5.39537,"is_reserved":false,"is_disabled":false,"rental_uris":{"android":"levelo://app?vid=7d36990d-6fa0-4c9f-a025-bf8fdd5b089a","ios":"levelo://app?vid=7d36990d-6fa0-4c9f-a025-bf8fdd5b089a"},"vehicle_type_id":"4","last_reported":1760681732,"current_range_meters":16400,"station_id":"ce4bhi12rcd13ifvqfq0","pricing_plan_id":"cebpf4jnsgd1na2vs0mg"},{"bike_id":"b514afbe-e7ec-4801-be68-5abb0c1209bf","system_id":"levelo_inurba_marseille","lat":43.2509,"lon":5.39515,"is_reserved":false,"is_disabled":false,"rental_uris":{"android":"levelo://app?vid=b514afbe-e7ec-4801-be68-5abb0c1209bf","ios":"levelo://app?vid=b514afbe-e7ec-4801-be68-5abb0c1209bf"},"vehicle_type_id":"4","last_reported":1760681732,"current_range_meters":16400,"station_id":"ce4bhm12rcd13ifvqgkg","pricing_plan_id":"cebpf4jnsgd1na2vs0mg"},{"bike_id":"aef9f7a5-00ac-4a5f-8418-2658f033aa26","system_id":"levelo_inurba_marseille","lat":43.229315,"lon":5.353831,"is_reserved":false,"is_disabled":false,"rental_uris":{"android":"levelo://app?vid=aef9f7a5-00ac-4a5f-8418-2658f033aa26","ios":"levelo://app?vid=aef9f7a5-00ac-4a5f-8418-2658f033aa26"},"vehicle_type_id":"4","last_reported":1760681732,"current_range_meters":16400,"station_id":"cpo3532slgdg3j2ikp40","pricing_plan_id":"cebpf4jnsgd1na2vs0mg"},{"bike_id":"b1f46002-3c4d-441d-8a6b-0ce0212f2024","system_id":"levelo_inurba_marseille","lat":43.24629,"lon":5.43149,"is_reserved":false,"is_disabled":false,"rental_uris":{"android":"levelo://app?vid=b1f46002-3c4d-441d-8a6b-0ce0212f2024","ios":"levelo://app?vid=b1f46002-3c4d-441d-8a6b-0ce0212f2024"},"vehicle_type_id":"4","last_reported":1760681732,"current_range_meters":16400,"station_id":"st_d2m6c4gdas8pm72e190g","pricing_plan_id":"cebpf4jnsgd1na2vs0mg"},{"bike_id":"27f36a79-d694-4f0b-9a16-5caf4fe79061","system_id":"levelo_inurba_marseille","lat":43.27429,"lon":5.41846,"is_reserved":false,"is_disabled":false,"rental_uris":{"android":"levelo://app?vid=27f36a79-d694-4f0b-9a16-5caf4fe79061","ios":"levelo://app?vid=27f36a79-d694-4f0b-9a16-5caf4fe79061"},"vehicle_type_id":"4","last_reported":1760681732,"current_range_meters":16800,"station_id":"","pricing_plan_id":"cebpf4jnsgd1na2vs0mg"},{"bike_id":"444f8eba-c6a1-4c9f-825f-d1d2cc7e90e9","system_id":"levelo_inurba_marseille","lat":43.3014,"lon":5.38091,"is_reserved":false,"is_disabled":false,"rental_uris":{"android":"levelo://app?vid=444f8eba-c6a1-4c9f-825f-d1d2cc7e90e9","ios":"levelo://app?vid=444f8eba-c6a1-4c9f-825f-d1d2cc7e90e9"},"vehicle_type_id":"4","last_reported":1760681732,"current_range_meters":16800,"station_id":"ce4bgjp2rcd13ifvqbh0","pricing_plan_id":"cebpf4jnsgd1na2vs0mg"},{"bike_id":"a520cee4-c55c-4c96-a147-e1f6f42d8947","system_id":"levelo_inurba_marseille","lat":43.301487,"lon":5.380804,"is_reserved":false,"is_disabled":false,"rental_uris":{"android":"levelo://app?vid=a520cee4-c55c-4c96-a147-e1f6f42d8947","ios":"levelo://app?vid=a520cee4-c55c-4c96-a147-e1f6f42d8947"},"vehicle_type_id":"4","last_reported":1760681732,"current_range_meters":16800,"station_id":"ce4bgjp2rcd13ifvqbh0","pricing_plan_id":"cebpf4jnsgd1na2vs0mg"},{"bike_id":"e019b955-aa76-42f5-b0e0-9eaee57b6e4c","system_id":"levelo_inurba_marseille","lat":43.29932,"lon":5.36552,"is_reserved":false,"is_disabled":false,"rental_uris":{"android":"levelo://app?vid=e019b955-aa76-42f5-b0e0-9eaee57b6e4c","ios":"levelo://app?vid=e019b955-aa76-42f5-b0e0-9eaee57b6e4c"},"vehicle_type_id":"4","last_reported":1760681732,"current_range_meters":16800,"station_id":"ce4bgm92rcd13ifvqbr0","pricing_plan_id":"cebpf4jnsgd1na2vs0mg"},{"bike_id":"6aac3333-3f81-4bf7-b9f9-3c76d36510a8","system_id":"levelo_inurba_marseille","lat":43.30276,"lon":5.37718,"is_reserved":false,"is_disabled":false,"rental_uris":{"android":"levelo://app?vid=6aac3333-3f81-4bf7-b9f9-3c76d36510a8","ios":"levelo://app?vid=6aac3333-3f81-4bf7-b9f9-3c76d36510a8"},"vehicle_type_id":"4","last_reported":1760681732,"current_range_meters":16800,"station_id":"ce4bguh2rcd13ifvqcj0","pricing_plan_id":"cebpf4jnsgd1na2vs0mg"},{"bike_id":"36574df9-d84a-4cbd-80f7-843098fa9f78","system_id":"levelo_inurba_marseille","lat":43.310705,"lon":5.383547,"is_reserved":false,"is_disabled":false,"rental_uris":{"android":"levelo://app?vid=36574df9-d84a-4cbd-80f7-843098fa9f78","ios":"levelo://app?vid=36574df9-d84a-4cbd-80f7-843098fa9f78"},"vehicle_type_id":"4","last_reported":1760681732,"current_range_meters":16800,"station_id":"ce4bgv92rcd13ifvqcr0","pricing_plan_id":"cebpf4jnsgd1na2vs0mg"},{"bike_id":"b4e7f2fc-fa4b-4e0d-9cde-150390efb5c3","system_id":"levelo_inurba_marseille","lat":43.240682,"lon":5.37758,"is_reserved":false,"is_disabled":false,"rental_uris":{"android":"levelo://app?vid=b4e7f2fc-fa4b-4e0d-9cde-150390efb5c3","ios":"levelo://app?vid=b4e7f2fc-fa4b-4e0d-9cde-150390efb5c3"},"vehicle_type_id":"4","last_reported":1760681732,"current_range_meters":16800,"station_id":"ce4bhnp2rcd13ifvqgvg","pricing_plan_id":"cebpf4jnsgd1na2vs0mg"},{"bike_id":"b98b3df6-0feb-4ceb-a29b-2dd040674e79","system_id":"levelo_inurba_marseille","lat":43.32041,"lon":5.41547,"is_reserved":false,"is_disabled":false,"rental_uris":{"android":"levelo://app?vid=b98b3df6-0feb-4ceb-a29b-2dd040674e79","ios":"levelo://app?vid=b98b3df6-0feb-4ceb-a29b-2dd040674e79"},"vehicle_type_id":"4","last_reported":1760681732,"current_range_meters":16800,"station_id":"ce4bhq92rcd13ifvqhkg","pricing_plan_id":"cebpf4jnsgd1na2vs0mg"},{"bike_id":"89c41095-1749-4d06-b8a0-ed875d72823e","system_id":"levelo_inurba_marseille","lat":43.321093,"lon":5.367619,"is_reserved":false,"is_disabled":false,"rental_uris":{"android":"levelo://app?vid=89c41095-1749-4d06-b8a0-ed875d72823e","ios":"levelo://app?vid=89c41095-1749-4d06-b8a0-ed875d72823e"},"vehicle_type_id":"4","last_reported":1760681732,"current_range_meters":16800,"station_id":"ce4bhrh2rcd13ifvqhug","pricing_plan_id":"cebpf4jnsgd1na2vs0mg"},{"bike_id":"27cfde0d-9837-4cc6-868b-4bdf488edb92","system_id":"levelo_inurba_marseille","lat":43.211906,"lon":5.350735,"is_reserved":false,"is_disabled":false,"rental_uris":{"android":"levelo://app?vid=27cfde0d-9837-4cc6-868b-4bdf488edb92","ios":"levelo://app?vid=27cfde0d-9837-4cc6-868b-4bdf488edb92"},"vehicle_type_id":"4","last_reported":1760681732,"current_range_meters":16800,"station_id":"st_cvj6sg6p6f1abm77japg","pricing_plan_id":"cebpf4jnsgd1na2vs0mg"},{"bike_id":"6eb2acec-d68e-4c9a-ad73-90879ab30bc2","system_id":"levelo_inurba_marseille","lat":43.31514,"lon":5.37417,"is_reserved":false,"is_disabled":false,"rental_uris":{"android":"levelo://app?vid=6eb2acec-d68e-4c9a-ad73-90879ab30bc2","ios":"levelo://app?vid=6eb2acec-d68e-4c9a-ad73-90879ab30bc2"},"vehicle_type_id":"4","last_reported":1760681732,"current_range_meters":17200,"station_id":"","pricing_plan_id":"cebpf4jnsgd1na2vs0mg"},{"bike_id":"54e9238c-0039-4a8e-81d3-a5c97611d0cf","system_id":"levelo_inurba_marseille","lat":43.29038,"lon":5.39943,"is_reserved":false,"is_disabled":false,"rental_uris":{"android":"levelo://app?vid=54e9238c-0039-4a8e-81d3-a5c97611d0cf","ios":"levelo://app?vid=54e9238c-0039-4a8e-81d3-a5c97611d0cf"},"vehicle_type_id":"4","last_reported":1760681732,"current_range_meters":17200,"station_id":"ce4bh392rcd13ifvqdm0","pricing_plan_id":"cebpf4jnsgd1na2vs0mg"},{"bike_id":"1a8859ce-bc64-4969-aadc-84fe7d6df618","system_id":"levelo_inurba_marseille","lat":43.279775,"lon":5.387441,"is_reserved":false,"is_disabled":false,"rental_uris":{"android":"levelo://app?vid=1a8859ce-bc64-4969-aadc-84fe7d6df618","ios":"levelo://app?vid=1a8859ce-bc64-4969-aadc-84fe7d6df618"},"vehicle_type_id":"4","last_reported":1760681732,"current_range_meters":17200,"station_id":"ce4bhg12rcd13ifvqf80","pricing_plan_id":"cebpf4jnsgd1na2vs0mg"},{"bike_id":"baf183fe-2e90-46ae-bdeb-ea110e828487","system_id":"levelo_inurba_marseille","lat":43.28533,"lon":5.44113,"is_reserved":false,"is_disabled":false,"rental_uris":{"android":"levelo://app?vid=baf183fe-2e90-46ae-bdeb-ea110e828487","ios":"levelo://app?vid=baf183fe-2e90-46ae-bdeb-ea110e828487"},"vehicle_type_id":"4","last_reported":1760681732,"current_range_meters":17200,"station_id":"st_d3j3df2ikq2c7380ej80","pricing_plan_id":"cebpf4jnsgd1na2vs0mg"},{"bike_id":"5e06a08e-d1f9-4894-b374-562690b50bb6","system_id":"levelo_inurba_marseille","lat":43.25009,"lon":5.38919,"is_reserved":false,"is_disabled":false,"rental_uris":{"android":"levelo://app?vid=5e06a08e-d1f9-4894-b374-562690b50bb6","ios":"levelo://app?vid=5e06a08e-d1f9-4894-b374-562690b50bb6"},"vehicle_type_id":"4","last_reported":1760681732,"current_range_meters":17600,"station_id":"","pricing_plan_id":"cebpf4jnsgd1na2vs0mg"},{"bike_id":"8c30526d-4d62-49e0-92a1-2ed039e24496","system_id":"levelo_inurba_marseille","lat":43.28706,"lon":5.38418,"is_reserved":false,"is_disabled":false,"rental_uris":{"android":"levelo://app?vid=8c30526d-4d62-49e0-92a1-2ed039e24496","ios":"levelo://app?vid=8c30526d-4d62-49e0-92a1-2ed039e24496"},"vehicle_type_id":"4","last_reported":1760681732,"current_range_meters":17600,"station_id":"","pricing_plan_id":"cebpf4jnsgd1na2vs0mg"},{"bike_id":"3b47a39d-6718-4a77-bd1e-2bc6d0dab7e3","system_id":"levelo_inurba_marseille","lat":43.288559,"lon":5.358561,"is_reserved":false,"is_disabled":false,"rental_uris":{"android":"levelo://app?vid=3b47a39d-6718-4a77-bd1e-2bc6d0dab7e3","ios":"levelo://app?vid=3b47a39d-6718-4a77-bd1e-2bc6d0dab7e3"},"vehicle_type_id":"4","last_reported":1760681732,"current_range_meters":17600,"station_id":"ce4bhb12rcd13ifvqem0","pricing_plan_id":"cebpf4jnsgd1na2vs0mg"},{"bike_id":"c335d91f-45bb-439c-be03-7bd1fa485cb0","system_id":"levelo_inurba_marseille","lat":43.28197,"lon":5.39048,"is_reserved":false,"is_disabled":false,"rental_uris":{"android":"levelo://app?vid=c335d91f-45bb-439c-be03-7bd1fa485cb0","ios":"levelo://app?vid=c335d91f-45bb-439c-be03-7bd1fa485cb0"},"vehicle_type_id":"4","last_reported":1760681732,"current_range_meters":17600,"station_id":"ce4bhn92rcd13ifvqgsg","pricing_plan_id":"cebpf4jnsgd1na2vs0mg"},{"bike_id":"b1f2a34d-7df9-40e1-bb7c-e77712ee0c8a","system_id":"levelo_inurba_marseille","lat":43.321009,"lon":5.367776,"is_reserved":false,"is_disabled":false,"rental_uris":{"android":"levelo://app?vid=b1f2a34d-7df9-40e1-bb7c-e77712ee0c8a","ios":"levelo://app?vid=b1f2a34d-7df9-40e1-bb7c-e77712ee0c8a"},"vehicle_type_id":"4","last_reported":1760681732,"current_range_meters":17600,"station_id":"ce4bhrh2rcd13ifvqhug","pricing_plan_id":"cebpf4jnsgd1na2vs0mg"},{"bike_id":"8aa3ec83-557d-4118-b42f-7e9ff74932f2","system_id":"levelo_inurba_marseille","lat":43.24164,"lon":5.364089,"is_reserved":false,"is_disabled":false,"rental_uris":{"android":"levelo://app?vid=8aa3ec83-557d-4118-b42f-7e9ff74932f2","ios":"levelo://app?vid=8aa3ec83-557d-4118-b42f-7e9ff74932f2"},"vehicle_type_id":"4","last_reported":1760681732,"current_range_meters":17600,"station_id":"cpo36qri1sfpv3e86is0","pricing_plan_id":"cebpf4jnsgd1na2vs0mg"},