{"last_updated":1758867326,"ttl":60,"version":"2.2","data":{"bikes":[{"bike_id":"cb3d83dd-8277-415b-bc5d-a118e1200728","system_id":"levelo_inurba_marseille","lat":43.30078,"lon":5.41,"is_reserved":false,"is_disabled":false,"rental_uris":{"android":"levelo://app?vid=cb3d83dd-8277-415b-bc5d-a118e1200728","ios":"levelo://app?vid=cb3d83dd-8277-415b-bc5d-a118e1200728"},"vehicle_type_id":"4","last_reported":1758867326,"current_range_meters":2800,"station_id":"","pricing_plan_id":"cebpf4jnsgd1na2vs0mg"},{"bike_id":"8d4fa089-90ff-4ef3-955c-de108e4e4122","system_id":"levelo_inurba_marseille","lat":43.30355,"lon":5.41914,"is_reserved":false,"is_disabled":false,"rental_uris":{"android":"levelo://app?vid=8d4fa089-90ff-4ef3-955c-de108e4e4122","ios":"levelo://app?vid=8d4fa089-90ff-4ef3-955c-de108e4e4122"},"vehicle_type_id":"4","last_reported":1758867326,"current_range_meters":3200,"station_id":"ce4bhop2rcd13ifvqh7g","pricing_plan_id":"cebpf4jnsgd1na2vs0mg"},{"bike_id":"c88ddbd8-e687-469d-b97a-63b521bd45ae","system_id":"levelo_inurba_marseille","lat":43.24809,"lon":5.37466,"is_reserved":false,"is_disabled":false,"rental_uris":{"android":"levelo://app?vid=c88ddbd8-e687-469d-b97a-63b521bd45ae","ios":"levelo://app?vid=c88ddbd8-e687-469d-b97a-63b521bd45ae"},"vehicle_type_id":"4","last_reported":1758867326,"current_range_meters":3200,"station_id":"ce4bhgh2rcd13ifvqfb0","pricing_plan_id":"cebpf4jnsgd1na2vs0mg"},{"bike_id":"689b0f0b-e22e-40f8-8570-680205dab7eb","system_id":"levelo_inurba_marseille","lat":43.28943,"lon":5.36652,"is_reserved":false,"is_disabled":false,"rental_uris":{"android":"levelo://app?vid=689b0f0b-e22e-40f8-8570-680205dab7eb","ios":"levelo://app?vid=689b0f0b-e22e-40f8-8570-680205dab7eb"},"vehicle_type_id":"4","last_reported":1758867326,"current_range_meters":3600,"station_id":"ce4bhap2rcd13ifvqek0","pricing_plan_id":"cebpf4jnsgd1na2vs0mg"},{"bike_id":"9c4a7bdb-c552-4dfd-8efb-40b9e0b0b147","system_id":"levelo_inurba_marseille","lat":43.30943,"lon":5.3675,"is_reserved":false,"is_disabled":false,"rental_uris":{"android":"levelo://app?vid=9c4a7bdb-c552-4dfd-8efb-40b9e0b0b147","ios":"levelo://app?vid=9c4a7bdb-c552-4dfd-8efb-40b9e0b0b147"},"vehicle_type_id":"4","last_reported":1758867326,"current_range_meters":3600,"station_id":"","pricing_plan_id":"cebpf4jnsgd1na2vs0mg"},{"bike_id":"7a0d4943-33c2-4d81-9678-94525d26d325","system_id":"levelo_inurba_marseille","lat":43.25585,"lon":5.38248,"is_reserved":false,"is_disabled":false,"rental_uris":{"android":"levelo://app?vid=7a0d4943-33c2-4d81-9678-94525d26d325","ios":"levelo://app?vid=7a0d4943-33c2-4d81-9678-94525d26d325"},"vehicle_type_id":"4","last_reported":1758867326,"current_range_meters":3600,"station_id":"ce4bhih2rcd13ifvqfs0","pricing_plan_id":"cebpf4jnsgd1na2vs0mg"},{"bike_id":"413bef96-886d-4b87-8951-5a4eff94d8d7","system_id":"levelo_inurba_marseille","lat":43.29304,"lon":5.3747,"is_reserved":false,"is_disabled":false,"rental_uris":{"android":"levelo://app?vid=413bef96-886d-4b87-8951-5a4eff94d8d7","ios":"levelo://app?vid=413bef96-886d-4b87-8951-5a4eff94d8d7"},"vehicle_type_id":"4","last_reported":1758867326,"current_range_meters":3600,"station_id":"ce4bgi12rcd13ifvqb70","pricing_plan_id":"cebpf4jnsgd1na2vs0mg"},{"bike_id":"136a707a-b224-4c44-8119-f846f7b7d0a7","system_id":"levelo_inurba_marseille","lat":43.29516,"lon":5.37375,"is_reserved":false,"is_disabled":false,"rental_uris":{"android":"levelo://app?vid=136a707a-b224-4c44-8119-f846f7b7d0a7","ios":"levelo://app?vid=136a707a-b224-4c44-8119-f846f7b7d0a7"},"vehicle_type_id":"4","last_reported":1758867326,"current_range_meters":4000,"station_id":"","pricing_plan_id":"cebpf4jnsgd1na2vs0mg"},{"bike_id":"4e737411-53ce-4bdf-9802-c3bc30d9bc94","system_id":"levelo_inurba_marseille","lat":43.29554,"lon":5.40633,"is_reserved":false,"is_disabled":false,"rental_uris":{"android":"levelo://app?vid=4e737411-53ce-4bdf-9802-c3bc30d9bc94","ios":"levelo://app?vid=4e737411-53ce-4bdf-9802-c3bc30d9bc94"},"vehicle_type_id":"4","last_reported":1758867326,"current_range_meters":4000,"station_id":"","pricing_plan_id":"cebpf4jnsgd1na2vs0mg"},{"bike_id":"8012b107-f797-4c30-8b4a-af5bb99d05c1","system_id":"levelo_inurba_marseille","lat":43.30473,"lon":5.379,"is_reserved":false,"is_disabled":false,"rental_uris":{"android":"levelo://app?vid=8012b107-f797-4c30-8b4a-af5bb99d05c1","ios":"levelo://app?vid=8012b107-f797-4c30-8b4a-af5bb99d05c1"},"vehicle_type_id":"4","last_reported":1758867326,"current_range_meters":4400,"station_id":"ce4bgup2rcd13ifvqcn0","pricing_plan_id":"cebpf4jnsgd1na2vs0mg"},{"bike_id":"58bcb43d-c000-4e3e-b004-30450f57645b","system_id":"levelo_inurba_marseille","lat":43.29527,"lon":5.37448,"is_reserved":false,"is_disabled":false,"rental_uris":{"android":"levelo://app?vid=58bcb43d-c000-4e3e-b004-30450f57645b","ios":"levelo://app?vid=58bcb43d-c000-4e3e-b004-30450f57645b"},"vehicle_type_id":"4","last_reported":1758867326,"current_range_meters":4400,"station_id":"","pricing_plan_id":"cebpf4jnsgd1na2vs0mg"},{"bike_id":"959c79e3-ba3c-450e-8602-bfda483b2b78","system_id":"levelo_inurba_marseille","lat":43.274973,"lon":5.424508,"is_reserved":false,"is_disabled":false,"rental_uris":{"android":"levelo://app?vid=959c79e3-ba3c-450e-8602-bfda483b2b78","ios":"levelo://app?vid=959c79e3-ba3c-450e-8602-bfda483b2b78"},"vehicle_type_id":"4","last_reported":1758867326,"current_range_meters":4400,"station_id":"ce4bhn92rcd13ifvqgrg","pricing_plan_id":"cebpf4jnsgd1na2vs0mg"},{"bike_id":"438ead59-de14-4fa0-a61d-03a70a4122ae","system_id":"levelo_inurba_marseille","lat":43.97269,"lon":4.89111,"is_reserved":false,"is_disabled":true,"rental_uris":{"android":"levelo://app?vid=438ead59-de14-4fa0-a61d-03a70a4122ae","ios":"levelo://app?vid=438ead59-de14-4fa0-a61d-03a70a4122ae"},"vehicle_type_id":"4","last_reported":1758867326,"current_range_meters":4800,"station_id":"","pricing_plan_id":"cebpf4jnsgd1na2vs0mg"},{"bike_id":"4fe0b6aa-d134-40dd-bf81-049f94bcdfc7","system_id":"levelo_inurba_marseille","lat":43.24073,"lon":5.37768,"is_reserved":false,"is_disabled":false,"rental_uris":{"android":"levelo://app?vid=4fe0b6aa-d134-40dd-bf81-049f94bcdfc7","ios":"levelo://app?vid=4fe0b6aa-d134-40dd-bf81-049f94bcdfc7"},"vehicle_type_id":"4","last_reported":1758867326,"current_range_meters":5600,"station_id":"ce4bhnp2rcd13ifvqgvg","pricing_plan_id":"cebpf4jnsgd1na2vs0mg"},{"bike_id":"d1bf5877-7433-4026-a1ea-b36c24e54045","system_id":"levelo_inurba_marseille","lat":43.21188,"lon":5.35089,"is_reserved":false,"is_disabled":false,"rental_uris":{"android":"levelo://app?vid=d1bf5877-7433-4026-a1ea-b36c24e54045","ios":"levelo://app?vid=d1bf5877-7433-4026-a1ea-b36c24e54045"},"vehicle_type_id":"4","last_reported":1758867326,"current_range_meters":5600,"station_id":"","pricing_plan_id":"cebpf4jnsgd1na2vs0mg"},{"bike_id":"2d5166e4-6f09-4c44-9846-4175958539a9","system_id":"levelo_inurba_marseille","lat":43.28345,"lon":5.3811,"is_reserved":false,"is_disabled":false,"rental_uris":{"android":"levelo://app?vid=2d5166e4-6f09-4c44-9846-4175958539a9","ios":"levelo://app?vid=2d5166e4-6f09-4c44-9846-4175958539a9"},"vehicle_type_id":"4","last_reported":1758867326,"current_range_meters":5600,"station_id":"ce4bh412rcd13ifvqdr0","pricing_plan_id":"cebpf4jnsgd1na2vs0mg"},{"bike_id":"c5a59a1a-3212-4a59-83c7-f0ca51c8eca1","system_id":"levelo_inurba_marseille","lat":43.30518,"lon":5.367878,"is_reserved":false,"is_disabled":false,"rental_uris":{"android":"levelo://app?vid=c5a59a1a-3212-4a59-83c7-f0ca51c8eca1","ios":"levelo://app?vid=c5a59a1a-3212-4a59-83c7-f0ca51c8eca1"},"vehicle_type_id":"4","last_reported":1758867326,"current_range_meters":5600,"station_id":"ce4bgrp2rcd13ifvqc9g","pricing_plan_id":"cebpf4jnsgd1na2vs0mg"},{"bike_id":"c757f4dc-b990-4385-aea4-0fe40d687c33","system_id":"levelo_inurba_marseille","lat":43.34141,"lon":5.40908,"is_reserved":false,"is_disabled":false,"rental_uris":{"android":"levelo://app?vid=c757f4dc-b990-4385-aea4-0fe40d687c33","ios":"levelo://app?vid=c757f4dc-b990-4385-aea4-0fe40d687c33"},"vehicle_type_id":"4","last_reported":1758867326,"current_range_meters":6000,"station_id":"ce4bhqh2rcd13ifvqhlg","pricing_plan_id":"cebpf4jnsgd1na2vs0mg"},{"bike_id":"2609a7f0-0058-4c97-96f5-49b71462094e","system_id":"levelo_inurba_marseille","lat":43.30543,"lon":5.36697,"is_reserved":false,"is_disabled":true,"rental_uris":{"android":"levelo://app?vid=2609a7f0-0058-4c97-96f5-49b71462094e","ios":"levelo://app?vid=2609a7f0-0058-4c97-96f5-49b71462094e"},"vehicle_type_id":"4","last_reported":1758867326,"current_range_meters":6000,"station_id":"ce4bgrp2rcd13ifvqc9g","pricing_plan_id":"cebpf4jnsgd1na2vs0mg"},{"bike_id":"c575721f-de31-4f0e-9dbf-4833e1affcb4","system_id":"levelo_inurba_marseille","lat":43.24071,"lon":5.37776,"is_reserved":false,"is_disabled":false,"rental_uris":{"android":"levelo://app?vid=c575721f-de31-4f0e-9dbf-4833e1affcb4","ios":"levelo://app?vid=c575721f-de31-4f0e-9dbf-4833e1affcb4"},"vehicle_type_id":"4","last_reported":1758867326,"current_range_meters":6400,"station_id":"ce4bhnp2rcd13ifvqgvg","pricing_plan_id":"cebpf4jnsgd1na2vs0mg"},{"bike_id":"6cd537e0-dbfc-4f59-b3b3-22491905826b","system_id":"levelo_inurba_marseille","lat":43.24628,"lon":5.38924,"is_reserved":false,"is_disabled":false,"rental_uris":{"android":"levelo://app?vid=6cd537e0-dbfc-4f59-b3b3-22491905826b","ios":"levelo://app?vid=6cd537e0-dbfc-4f59-b3b3-22491905826b"},"vehicle_type_id":"4","last_reported":1758867326,"current_range_meters":6400,"station_id":"ce4bhg12rcd13ifvqf60","pricing_plan_id":"cebpf4jnsgd1na2vs0mg"},{"bike_id":"94b2f036-4ca4-4693-89f2-72df2150ee98","system_id":"levelo_inurba_marseille","lat":43.258265,"lon":5.394374,"is_reserved":false,"is_disabled":true,"rental_uris":{"android":"levelo://app?vid=94b2f036-4ca4-4693-89f2-72df2150ee98","ios":"levelo://app?vid=94b2f036-4ca4-4693-89f2-72df2150ee98"},"vehicle_type_id":"4","last_reported":1758867326,"current_range_meters":6400,"station_id":"ce4bhip2rcd13ifvqft0","pricing_plan_id":"cebpf4jnsgd1na2vs0mg"},{"bike_id":"6c829d01-8eaf-4cf5-9677-36534c54844b","system_id":"levelo_inurba_marseille","lat":43.31713,"lon":5.43709,"is_reserved":false,"is_disabled":false,"rental_uris":{"android":"levelo://app?vid=6c829d01-8eaf-4cf5-9677-36534c54844b","ios":"levelo://app?vid=6c829d01-8eaf-4cf5-9677-36534c54844b"},"vehicle_type_id":"4","last_reported":1758867326,"current_range_meters":6400,"station_id":"ce4bhp92rcd13ifvqhcg","pricing_plan_id":"cebpf4jnsgd1na2vs0mg"},{"bike_id":"0990be76-87e4-41c2-8f82-e98391728ad8","system_id":"levelo_inurba_marseille","lat":43.27378,"lon":5.36262,"is_reserved":false,"is_disabled":false,"rental_uris":{"android":"levelo://app?vid=0990be76-87e4-41c2-8f82-e98391728ad8","ios":"levelo://app?vid=0990be76-87e4-41c2-8f82-e98391728ad8"},"vehicle_type_id":"4","last_reported":1758867326,"current_range_meters":6400,"station_id":"ce4bhbh2rcd13ifvqeo0","pricing_plan_id":"cebpf4jnsgd1na2vs0mg"},{"bike_id":"736ff02a-66d6-4f5e-865c-68fe9ab585da","system_id":"levelo_inurba_marseille","lat":43.316723,"lon":5.404621,"is_reserved":false,"is_disabled":false,"rental_uris":{"android":"levelo://app?vid=736ff02a-66d6-4f5e-865c-68fe9ab585da","ios":"levelo://app?vid=736ff02a-66d6-4f5e-865c-68fe9ab585da"},"vehicle_type_id":"4","last_reported":1758867326,"current_range_meters":6800,"station_id":"ce4bh012rcd13ifvqd00","pricing_plan_id":"cebpf4jnsgd1na2vs0mg"},{"bike_id":"e278ba37-5bcd-494c-8dee-7ee6b14675c3","system_id":"levelo_inurba_marseille","lat":43.27677,"lon":5.38872,"is_reserved":false,"is_disabled":false,"rental_uris":{"android":"levelo://app?vid=e278ba37-5bcd-494c-8dee-7ee6b14675c3","ios":"levelo://app?vid=e278ba37-5bcd-494c-8dee-7ee6b14675c3"},"vehicle_type_id":"4","last_reported":1758867326,"current_range_meters":6800,"station_id":"ce4bhi12rcd13ifvqfo0","pricing_plan_id":"cebpf4jnsgd1na2vs0mg"},{"bike_id":"4df577b4-4ac9-4fd5-8138-760b86769185","system_id":"levelo_inurba_marseille","lat":43.30418,"lon":5.39744,"is_reserved":false,"is_disabled":false,"rental_uris":{"android":"levelo://app?vid=4df577b4-4ac9-4fd5-8138-760b86769185","ios":"levelo://app?vid=4df577b4-4ac9-4fd5-8138-760b86769185"},"vehicle_type_id":"4","last_reported":1758867326,"current_range_meters":6800,"station_id":"ce4bh092rcd13ifvqd20","pricing_plan_id":"cebpf4jnsgd1na2vs0mg"},{"bike_id":"3bd489e5-2659-4c74-b36b-70a17cc86db1","system_id":"levelo_inurba_marseille","lat":43.23379,"lon":5.35996,"is_reserved":false,"is_disabled":false,"rental_uris":{"android":"levelo://app?vid=3bd489e5-2659-4c74-b36b-70a17cc86db1","ios":"levelo://app?vid=3bd489e5-2659-4c74-b36b-70a17cc86db1"},"vehicle_type_id":"4","last_reported":1758867326,"current_range_meters":6800,"station_id":"","pricing_plan_id":"cebpf4jnsgd1na2vs0mg"},{"bike_id":"48e5cf01-aef8-477f-b258-6fa57de46682","system_id":"levelo_inurba_marseille","lat":43.24064,"lon":5.37737,"is_reserved":false,"is_disabled":false,"rental_uris":{"android":"levelo://app?vid=48e5cf01-aef8-477f-b258-6fa57de46682","ios":"levelo://app?vid=48e5cf01-aef8-477f-b258-6fa57de46682"},"vehicle_type_id":"4","last_reported":1758867326,"current_range_meters":6800,"station_id":"ce4bhnp2rcd13ifvqgvg","pricing_plan_id":"cebpf4jnsgd1na2vs0mg"},{"bike_id":"069c8ec1-7c53-4460-b8e6-e24bca634e92","system_id":"levelo_inurba_marseille","lat":43.262274,"lon":5.404468,"is_reserved":false,"is_disabled":false,"rental_uris":{"android":"levelo://app?vid=069c8ec1-7c53-4460-b8e6-e24bca634e92","ios":"levelo://app?vid=069c8ec1-7c53-4460-b8e6-e24bca634e92"},"vehicle_type_id":"4","last_reported":1758867326,"current_range_meters":6800,"station_id":"ce4bhmh2rcd13ifvqgmg","pricing_plan_id":"cebpf4jnsgd1na2vs0mg"},{"bike_id":"651c2882-f6d6-48e5-b6a3-483a8a440de7","system_id":"levelo_inurba_marseille","lat":43.30168,"lon":5.38086,"is_reserved":false,"is_disabled":false,"rental_uris":{"android":"levelo://app?vid=651c2882-f6d6-48e5-b6a3-483a8a440de7","ios":"levelo://app?vid=651c2882-f6d6-48e5-b6a3-483a8a440de7"},"vehicle_type_id":"4","last_reported":1758867326,"current_range_meters":13600,"station_id":"ce4bgjp2rcd13ifvqbh0","pricing_plan_id":"cebpf4jnsgd1na2vs0mg"},{"bike_id":"cc505a19-f55b-41e5-83cb-0ac7aee95a1e","system_id":"levelo_inurba_marseille","lat":43.3107,"lon":5.38345,"is_reserved":false,"is_disabled":true,"rental_uris":{"android":"levelo://app?vid=cc505a19-f55b-41e5-83cb-0ac7aee95a1e","ios":"levelo://app?vid=cc505a19-f55b-41e5-83cb-0ac7aee95a1e"},"vehicle_type_id":"4","last_reported":1758867326,"current_range_meters":6800,"station_id":"ce4bgv92rcd13ifvqcr0","pricing_plan_id":"cebpf4jnsgd1na2vs0mg"},{"bike_id":"ddd8c0a7-a7ac-4c34-b48b-0710c492a44c","system_id":"levelo_inurba_marseille","lat":43.32329,"lon":5.39628,"is_reserved":false,"is_disabled":true,"rental_uris":{"android":"levelo://app?vid=ddd8c0a7-a7ac-4c34-b48b-0710c492a44c","ios":"levelo://app?vid=ddd8c0a7-a7ac-4c34-b48b-0710c492a44c"},"vehicle_type_id":"4","last_reported":1758867326,"current_range_meters":6800,"station_id":"","pricing_plan_id":"cebpf4jnsgd1na2vs0mg"},{"bike_id":"d633fcde-74bb-4aab-a53c-87ab8e6fdc35","system_id":"levelo_inurba_marseille","lat":43.24998,"lon":5.38937,"is_reserved":false,"is_disabled":false,"rental_uris":{"android":"levelo://app?vid=d633fcde-74bb-4aab-a53c-87ab8e6fdc35","ios":"levelo://app?vid=d633fcde-74bb-4aab-a53c-87ab8e6fdc35"},"vehicle_type_id":"4","last_reported":1758867326,"current_range_meters":7200,"station_id":"ce4bhgp2rcd13ifvqfd0","pricing_plan_id":"cebpf4jnsgd1na2vs0mg"},{"bike_id":"3a83ddcd-ce03-4ed4-a7fa-b273c2464f02","system_id":"levelo_inurba_marseille","lat":43.27956,"lon":5.36335,"is_reserved":false,"is_disabled":false,"rental_uris":{"android":"levelo://app?vid=3a83ddcd-ce03-4ed4-a7fa-b273c2464f02","ios":"levelo://app?vid=3a83ddcd-ce03-4ed4-a7fa-b273c2464f02"},"vehicle_type_id":"4","last_reported":1758867326,"current_range_meters":7200,"station_id":"","pricing_plan_id":"cebpf4jnsgd1na2vs0mg"},{"bike_id":"1300af60-fb92-43f5-b1c8-6deca14799f5","system_id":"levelo_inurba_marseille","lat":43.30647,"lon":5.40096,"is_reserved":false,"is_disabled":false,"rental_uris":{"android":"levelo://app?vid=1300af60-fb92-43f5-b1c8-6deca14799f5","ios":"levelo://app?vid=1300af60-fb92-43f5-b1c8-6deca14799f5"},"vehicle_type_id":"4","last_reported":1758867326,"current_range_meters":8000,"station_id":"ce4bh112rcd13ifvqda0","pricing_plan_id":"cebpf4jnsgd1na2vs0mg"},{"bike_id":"cfa462e1-a746-48ae-b405-0b9474d89333","system_id":"levelo_inurba_marseille","lat":43.28972,"lon":5.36398,"is_reserved":false,"is_disabled":false,"rental_uris":{"android":"levelo://app?vid=cfa462e1-a746-48ae-b405-0b9474d89333","ios":"levelo://app?vid=cfa462e1-a746-48ae-b405-0b9474d89333"},"vehicle_type_id":"4","last_reported":1758867326,"current_range_meters":8000,"station_id":"ce4bhc92rcd13ifvqetg","pricing_plan_id":"cebpf4jnsgd1na2vs0mg"},{"bike_id":"47eac1b1-0aea-4494-894c-f8c1d4aa844f","system_id":"levelo_inurba_marseille","lat":43.2815,"lon":5.42643,"is_reserved":false,"is_disabled":false,"rental_uris":{"android":"levelo://app?vid=47eac1b1-0aea-4494-894c-f8c1d4aa844f","ios":"levelo://app?vid=47eac1b1-0aea-4494-894c-f8c1d4aa844f"},"vehicle_type_id":"4","last_reported":1758867326,"current_range_meters":8000,"station_id":"ce4bhnh2rcd13ifvqgug","pricing_plan_id":"cebpf4jnsgd1na2vs0mg"},{"bike_id":"849a8fc7-2b1c-4b90-bfb5-b2edee505ed2","system_id":"levelo_inurba_marseille","lat":43.270714,"lon":5.422822,"is_reserved":false,"is_disabled":false,"rental_uris":{"android":"levelo://app?vid=849a8fc7-2b1c-4b90-bfb5-b2edee505ed2","ios":"levelo://app?vid=849a8fc7-2b1c-4b90-bfb5-b2edee505ed2"},"vehicle_type_id":"4","last_reported":1758867326,"current_range_meters":8000,"station_id":"ce4bhk92rcd13ifvqgb0","pricing_plan_id":"cebpf4jnsgd1na2vs0mg"},{"bike_id":"4035ffcf-62d8-4fb0-89da-8d7b6b41ef29","system_id":"levelo_inurba_marseille","lat":43.29449,"lon":5.39791,"is_reserved":false,"is_disabled":true,"rental_uris":{"android":"levelo://app?vid=4035ffcf-62d8-4fb0-89da-8d7b6b41ef29","ios":"levelo://app?vid=4035ffcf-62d8-4fb0-89da-8d7b6b41ef29"},"vehicle_type_id":"4","last_reported":1758867326,"current_range_meters":8000,"station_id":"ce4bh3h2rcd13ifvqdo0","pricing_plan_id":"cebpf4jnsgd1na2vs0mg"},{"bike_id":"117acf13-6b03-4ee3-b4a5-edb1f47e11bc","system_id":"levelo_inurba_marseille","lat":43.26831,"lon":5.38639,"is_reserved":false,"is_disabled":true,"rental_uris":{"android":"levelo://app?vid=117acf13-6b03-4ee3-b4a5-edb1f47e11bc","ios":"levelo://app?vid=117acf13-6b03-4ee3-b4a5-edb1f47e11bc"},"vehicle_type_id":"4","last_reported":1758867326,"current_range_meters":8000,"station_id":"","pricing_plan_id":"cebpf4jnsgd1na2vs0mg"},{"bike_id":"88d4f928-adea-4cc4-a244-e47fba7e11e6","system_id":"levelo_inurba_marseille","lat":43.23136,"lon":5.4371,"is_reserved":false,"is_disabled":false,"rental_uris":{"android":"levelo://app?vid=88d4f928-adea-4cc4-a244-e47fba7e11e6","ios":"levelo://app?vid=88d4f928-adea-4cc4-a244-e47fba7e11e6"},"vehicle_type_id":"4","last_reported":1758867326,"current_range_meters":8400,"station_id":"ce4bhmp2rcd13ifvqgog","pricing_plan_id":"cebpf4jnsgd1na2vs0mg"},{"bike_id":"4d6c46a7-2e40-4e0a-b12a-14a5ff645408","system_id":"levelo_inurba_marseille","lat":43.30472,"lon":5.37907,"is_reserved":false,"is_disabled":false,"rental_uris":{"android":"levelo://app?vid=4d6c46a7-2e40-4e0a-b12a-14a5ff645408","ios":"levelo://app?vid=4d6c46a7-2e40-4e0a-b12a-14a5ff645408"},"vehicle_type_id":"4","last_reported":1758867326,"current_range_meters":8400,"station_id":"ce4bgup2rcd13ifvqcn0","pricing_plan_id":"cebpf4jnsgd1na2vs0mg"},{"bike_id":"8065287f-cf1b-475c-8e3c-fd6340985d95","system_id":"levelo_inurba_marseille","lat":43.2841,"lon":5.37513,"is_reserved":false,"is_disabled":false,"rental_uris":{"android":"levelo://app?vid=8065287f-cf1b-475c-8e3c-fd6340985d95","ios":"levelo://app?vid=8065287f-cf1b-475c-8e3c-fd6340985d95"},"vehicle_type_id":"4","last_reported":1758867326,"current_range_meters":8400,"station_id":"ce4bh412rcd13ifvqds0","pricing_plan_id":"cebpf4jnsgd1na2vs0mg"},{"bike_id":"e4d2f999-94f3-4ed8-b19d-5dcefdd9771e","system_id":"levelo_inurba_marseille","lat":43.27495,"lon":5.42447,"is_reserved":false,"is_disabled":false,"rental_uris":{"android":"levelo://app?vid=e4d2f999-94f3-4ed8-b19d-5dcefdd9771e","ios":"levelo://app?vid=e4d2f999-94f3-4ed8-b19d-5dcefdd9771e"},"vehicle_type_id":"4","last_reported":1758867326,"current_range_meters":8000,"station_id":"ce4bhn92rcd13ifvqgrg","pricing_plan_id":"cebpf4jnsgd1na2vs0mg"},{"bike_id":"379911e0-a8b9-4b05-96ac-c75be54d3c45","system_id":"levelo_inurba_marseille","lat":43.28854,"lon":5.42515,"is_reserved":false,"is_disabled":false,"rental_uris":{"android":"levelo://app?vid=379911e0-a8b9-4b05-96ac-c75be54d3c45","ios":"levelo://app?vid=379911e0-a8b9-4b05-96ac-c75be54d3c45"},"vehicle_type_id":"4","last_reported":1758867326,"current_range_meters":8400,"station_id":"","pricing_plan_id":"cebpf4jnsgd1na2vs0mg"},{"bike_id":"d5632eaf-207f-4351-be9c-95c58bc9c538","system_id":"levelo_inurba_marseille","lat":43.2956,"lon":5.37509,"is_reserved":false,"is_disabled":true,"rental_uris":{"android":"levelo://app?vid=d5632eaf-207f-4351-be9c-95c58bc9c538","ios":"levelo://app?vid=d5632eaf-207f-4351-be9c-95c58bc9c538"},"vehicle_type_id":"4","last_reported":1758867326,"current_range_meters":8800,"station_id":"ce4bgh92rcd13ifvqb50","pricing_plan_id":"cebpf4jnsgd1na2vs0mg"},{"bike_id":"8eae954c-dab6-4303-94f5-569e1c483f62","system_id":"levelo_inurba_marseille","lat":43.29442,"lon":5.40759,"is_reserved":false,"is_disabled":false,"rental_uris":{"android":"levelo://app?vid=8eae954c-dab6-4303-94f5-569e1c483f62","ios":"levelo://app?vid=8eae954c-dab6-4303-94f5-569e1c483f62"},"vehicle_type_id":"4","last_reported":1758867326,"current_range_meters":8800,"station_id":"","pricing_plan_id":"cebpf4jnsgd1na2vs0mg"},{"bike_id":"e0451567-ead7-4a4f-8c97-c067dfb85452","system_id":"levelo_inurba_marseille","lat":43.30927,"lon":5.4017,"is_reserved":false,"is_disabled":true,"rental_uris":{"android":"levelo://app?vid=e0451567-ead7-4a4f-8c97-c067dfb85452","ios":"levelo://app?vid=e0451567-ead7-4a4f-8c97-c067dfb85452"},"vehicle_type_id":"4","last_reported":1758867326,"current_range_meters":8800,"station_id":"ce4bgvp2rcd13ifvqct0","pricing_plan_id":"cebpf4jnsgd1na2vs0mg"},{"bike_id":"7096101a-2b1f-4b2b-b1d2-b3c992cd3685","system_id":"levelo_inurba_marseille","lat":43.30739,"lon":5.42459,"is_reserved":false,"is_disabled":true,"rental_uris":{"android":"levelo://app?vid=7096101a-2b1f-4b2b-b1d2-b3c992cd3685","ios":"levelo://app?vid=7096101a-2b1f-4b2b-b1d2-b3c992cd3685"},"vehicle_type_id":"4","last_reported":1758867326,"current_range_meters":8800,"station_id":"st_cvj6ca6bvosntc0bfgr0","pricing_plan_id":"cebpf4jnsgd1na2vs0mg"},{"bike_id":"bdec3261-de13-477f-818b-7af8ae1d1f6a","system_id":"levelo_inurba_marseille","lat":43.24008,"lon":5.37706,"is_reserved":false,"is_disabled":false,"rental_uris":{"android":"levelo://app?vid=bdec3261-de13-477f-818b-7af8ae1d1f6a","ios":"levelo://app?vid=bdec3261-de13-477f-818b-7af8ae1d1f6a"},"vehicle_type_id":"4","last_reported":1758867326,"current_range_meters":8800,"station_id":"","pricing_plan_id":"cebpf4jnsgd1na2vs0mg"},{"bike_id":"d1110d75-68f1-46e1-ad68-b2f8ba59909b","system_id":"levelo_inurba_marseille","lat":43.29817,"lon":5.38112,"is_reserved":false,"is_disabled":false,"rental_uris":{"android":"levelo://app?vid=d1110d75-68f1-46e1-ad68-b2f8ba59909b","ios":"levelo://app?vid=d1110d75-68f1-46e1-ad68-b2f8ba59909b"},"vehicle_type_id":"4","last_reported":1758867326,"current_range_meters":8800,"station_id":"ce4bgip2rcd13ifvqbb0","pricing_plan_id":"cebpf4jnsgd1na2vs0mg"},{"bike_id":"7b5d279d-19e6-4c91-9c3b-3c0bd0e166d5","system_id":"levelo_inurba_marseille","lat":43.32343,"lon":5.40664,"is_reserved":false,"is_disabled":false,"rental_uris":{"android":"levelo://app?vid=7b5d279d-19e6-4c91-9c3b-3c0bd0e166d5","ios":"levelo://app?vid=7b5d279d-19e6-4c91-9c3b-3c0bd0e166d5"},"vehicle_type_id":"4","last_reported":1758867326,"current_range_meters":8800,"station_id":"ce4bhq92rcd13ifvqhjg","pricing_plan_id":"cebpf4jnsgd1na2vs0mg"},{"bike_id":"8584eb3e-f7b4-4300-97fe-005a37d8d75b","system_id":"levelo_inurba_marseille","lat":43.36777,"lon":5.3634,"is_reserved":false,"is_disabled":false,"rental_uris":{"android":"levelo://app?vid=8584eb3e-f7b4-4300-97fe-005a37d8d75b","ios":"levelo://app?vid=8584eb3e-f7b4-4300-97fe-005a37d8d75b"},"vehicle_type_id":"4","last_reported":1758867326,"current_range_meters":8800,"station_id":"","pricing_plan_id":"cebpf4jnsgd1na2vs0mg"},{"bike_id":"003515e8-8117-44bb-979d-5f47e8d50fda","system_id":"levelo_inurba_marseille","lat":43.30621,"lon":5.37568,"is_reserved":false,"is_disabled":false,"rental_uris":{"android":"levelo://app?vid=003515e8-8117-44bb-979d-5f47e8d50fda","ios":"levelo://app?vid=003515e8-8117-44bb-979d-5f47e8d50fda"},"vehicle_type_id":"4","last_reported":1758867326,"current_range_meters":9200,"station_id":"","pricing_plan_id":"cebpf4jnsgd1na2vs0mg"},{"bike_id":"5d386be3-e9d7-4db3-bda9-9ed5fc575891","system_id":"levelo_inurba_marseille","lat":43.30476,"lon":5.37909,"is_reserved":false,"is_disabled":false,"rental_uris":{"android":"levelo://app?vid=5d386be3-e9d7-4db3-bda9-9ed5fc575891","ios":"levelo://app?vid=5d386be3-e9d7-4db3-bda9-9ed5fc575891"},"vehicle_type_id":"4","last_reported":1758867326,"current_range_meters":9200,"station_id":"ce4bgup2rcd13ifvqcn0","pricing_plan_id":"cebpf4jnsgd1na2vs0mg"},{"bike_id":"58c058fe-8665-4db0-877e-f2c434f21192","system_id":"levelo_inurba_marseille","lat":43.30463,"lon":5.37909,"is_reserved":false,"is_disabled":false,"rental_uris":{"android":"levelo://app?vid=58c058fe-8665-4db0-877e-f2c434f21192","ios":"levelo://app?vid=58c058fe-8665-4db0-877e-f2c434f21192"},"vehicle_type_id":"4","last_reported":1758867326,"current_range_meters":9200,"station_id":"ce4bgup2rcd13ifvqcn0","pricing_plan_id":"cebpf4jnsgd1na2vs0mg"},{"bike_id":"212de2eb-8bbc-413c-b204-9fe1facd76e8","system_id":"levelo_inurba_marseille","lat":43.31291,"lon":5.37826,"is_reserved":false,"is_disabled":false,"rental_uris":{"android":"levelo://app?vid=212de2eb-8bbc-413c-b204-9fe1facd76e8","ios":"levelo://app?vid=212de2eb-8bbc-413c-b204-9fe1facd76e8"},"vehicle_type_id":"4","last_reported":1758867326,"current_range_meters":9200,"station_id":"","pricing_plan_id":"cebpf4jnsgd1na2vs0mg"},{"bike_id":"cb3139a4-f2d1-4c6a-bb07-a858c1fa1910","system_id":"levelo_inurba_marseille","lat":43.26567,"lon":5.39019,"is_reserved":false,"is_disabled":false,"rental_uris":{"android":"levelo://app?vid=cb3139a4-f2d1-4c6a-bb07-a858c1fa1910","ios":"levelo://app?vid=cb3139a4-f2d1-4c6a-bb07-a858c1fa1910"},"vehicle_type_id":"4","last_reported":1758867326,"current_range_meters":9200,"station_id":"ce4bhe12rcd13ifvqf30","pricing_plan_id":"cebpf4jnsgd1na2vs0mg"},{"bike_id":"4a1ba967-d1ba-4fb1-a03d-c710de85a175","system_id":"levelo_inurba_marseille","lat":43.26953,"lon":5.38644,"is_reserved":false,"is_disabled":false,"rental_uris":{"android":"levelo://app?vid=4a1ba967-d1ba-4fb1-a03d-c710de85a175","ios":"levelo://app?vid=4a1ba967-d1ba-4fb1-a03d-c710de85a175"},"vehicle_type_id":"4","last_reported":1758867326,"current_range_meters":9600,"station_id":"ce4bhh92rcd13ifvqfh0","pricing_plan_id":"cebpf4jnsgd1na2vs0mg"},{"bike_id":"b8f57efd-79df-49ff-950f-08d0874d290f","system_id":"levelo_inurba_marseille","lat":43.28437,"lon":5.39193,"is_reserved":false,"is_disabled":false,"rental_uris":{"android":"levelo://app?vid=b8f57efd-79df-49ff-950f-08d0874d290f","ios":"levelo://app?vid=b8f57efd-79df-49ff-950f-08d0874d290f"},"vehicle_type_id":"4","last_reported":1758867326,"current_range_meters":9600,"station_id":"ce4bhoh2rcd13ifvqh5g","pricing_plan_id":"cebpf4jnsgd1na2vs0mg"},{"bike_id":"2bd2a176-8590-4e06-8b8c-a96b49b7b36a","system_id":"levelo_inurba_marseille","lat":43.242409,"lon":5.41085,"is_reserved":false,"is_disabled":false,"rental_uris":{"android":"levelo://app?vid=2bd2a176-8590-4e06-8b8c-a96b49b7b36a","ios":"levelo://app?vid=2bd2a176-8590-4e06-8b8c-a96b49b7b36a"},"vehicle_type_id":"4","last_reported":1758867326,"current_range_meters":9600,"station_id":"","pricing_plan_id":"cebpf4jnsgd1na2vs0mg"},{"bike_id":"8fe6899c-f678-4f46-be40-9ca7596a0783","system_id":"levelo_inurba_marseille","lat":43.28936,"lon":5.38401,"is_reserved":false,"is_disabled":true,"rental_uris":{"android":"levelo://app?vid=8fe6899c-f678-4f46-be40-9ca7596a0783","ios":"levelo://app?vid=8fe6899c-f678-4f46-be40-9ca7596a0783"},"vehicle_type_id":"4","last_reported":1758867326,"current_range_meters":9600,"station_id":"ce4bh612rcd13ifvqe6g","pricing_plan_id":"cebpf4jnsgd1na2vs0mg"},{"bike_id":"d7f9e1df-8b0f-4a8d-ad58-d349030d8c25","system_id":"levelo_inurba_marseille","lat":43.29615,"lon":5.37809,"is_reserved":false,"is_disabled":false,"rental_uris":{"android":"levelo://app?vid=d7f9e1df-8b0f-4a8d-ad58-d349030d8c25","ios":"levelo://app?vid=d7f9e1df-8b0f-4a8d-ad58-d349030d8c25"},"vehicle_type_id":"4","last_reported":1758867326,"current_range_meters":9600,"station_id":"","pricing_plan_id":"cebpf4jnsgd1na2vs0mg"},{"bike_id":"8173222e-3db3-40b9-8d44-f0168231b337","system_id":"levelo_inurba_marseille","lat":43.30464,"lon":5.37905,"is_reserved":false,"is_disabled":false,"rental_uris":{"android":"levelo://app?vid=8173222e-3db3-40b9-8d44-f0168231b337","ios":"levelo://app?vid=8173222e-3db3-40b9-8d44-f0168231b337"},"vehicle_type_id":"4","last_reported":1758867326,"current_range_meters":9600,"station_id":"ce4bgup2rcd13ifvqcn0","pricing_plan_id":"cebpf4jnsgd1na2vs0mg"},{"bike_id":"3731e4b4-e57b-4ad8-affe-801decac42ca","system_id":"levelo_inurba_marseille","lat":43.24959,"lon":5.40508,"is_reserved":false,"is_disabled":false,"rental_uris":{"android":"levelo://app?vid=3731e4b4-e57b-4ad8-affe-801decac42ca","ios":"levelo://app?vid=3731e4b4-e57b-4ad8-affe-801decac42ca"},"vehicle_type_id":"4","last_reported":1758867326,"current_range_meters":9600,"station_id":"st_d2ngiaodas8pm72gd1h0","pricing_plan_id":"cebpf4jnsgd1na2vs0mg"},{"bike_id":"8844a9c4-131a-4f3b-adcd-805c7a156531","system_id":"levelo_inurba_marseille","lat":43.31564,"lon":5.38017,"is_reserved":false,"is_disabled":false,"rental_uris":{"android":"levelo://app?vid=8844a9c4-131a-4f3b-adcd-805c7a156531","ios":"levelo://app?vid=8844a9c4-131a-4f3b-adcd-805c7a156531"},"vehicle_type_id":"4","last_reported":1758867326,"current_range_meters":9600,"station_id":"ce4bhsp2rcd13ifvqi50","pricing_plan_id":"cebpf4jnsgd1na2vs0mg"},{"bike_id":"c4604838-c31e-4bdb-bde1-1f91f1e07cf6","system_id":"levelo_inurba_marseille","lat":43.28463,"lon":5.38401,"is_reserved":false,"is_disabled":false,"rental_uris":{"android":"levelo://app?vid=c4604838-c31e-4bdb-bde1-1f91f1e07cf6","ios":"levelo://app?vid=c4604838-c31e-4bdb-bde1-1f91f1e07cf6"},"vehicle_type_id":"4","last_reported":1758867326,"current_range_meters":9600,"station_id":"ce4bh512rcd13ifvqe3g","pricing_plan_id":"cebpf4jnsgd1na2vs0mg"},{"bike_id":"68141cbc-6b9c-49f4-b058-f4fb9b8677d3","system_id":"levelo_inurba_marseille","lat":43.23189,"lon":5.39993,"is_reserved":false,"is_disabled":false,"rental_uris":{"android":"levelo://app?vid=68141cbc-6b9c-49f4-b058-f4fb9b8677d3","ios":"levelo://app?vid=68141cbc-6b9c-49f4-b058-f4fb9b8677d3"},"vehicle_type_id":"4","last_reported":1758867326,"current_range_meters":9600,"station_id":"ce4bhn12rcd13ifvqgqg","pricing_plan_id":"cebpf4jnsgd1na2vs0mg"},{"bike_id":"d31d856a-933d-49cf-948f-ce03657dfc74","system_id":"levelo_inurba_marseille","lat":43.28427,"lon":5.34992,"is_reserved":false,"is_disabled":false,"rental_uris":{"android":"levelo://app?vid=d31d856a-933d-49cf-948f-ce03657dfc74","ios":"levelo://app?vid=d31d856a-933d-49cf-948f-ce03657dfc74"},"vehicle_type_id":"4","last_reported":1758867326,"current_range_meters":9600,"station_id":"ce4bhbh2rcd13ifvqepg","pricing_plan_id":"cebpf4jnsgd1na2vs0mg"},{"bike_id":"889259be-1a40-472d-babf-d9213822d385","system_id":"levelo_inurba_marseille","lat":43.24647,"lon":5.3889,"is_reserved":false,"is_disabled":false,"rental_uris":{"android":"levelo://app?vid=889259be-1a40-472d-babf-d9213822d385","ios":"levelo://app?vid=889259be-1a40-472d-babf-d9213822d385"},"vehicle_type_id":"4","last_reported":1758867326,"current_range_meters":9600,"station_id":"ce4bhg12rcd13ifvqf60","pricing_plan_id":"cebpf4jnsgd1na2vs0mg"},{"bike_id":"fc71c58a-0998-4ad7-adf3-f0dcb9e5585b","system_id":"levelo_inurba_marseille","lat":43.23192,"lon":5.40005,"is_reserved":false,"is_disabled":false,"rental_uris":{"android":"levelo://app?vid=fc71c58a-0998-4ad7-adf3-f0dcb9e5585b","ios":"levelo://app?vid=fc71c58a-0998-4ad7-adf3-f0dcb9e5585b"},"vehicle_type_id":"4","last_reported":1758867326,"current_range_meters":9600,"station_id":"ce4bhn12rcd13ifvqgqg","pricing_plan_id":"cebpf4jnsgd1na2vs0mg"},{"bike_id":"1dc7f111-b63a-4e12-b705-dbf428b5deda","system_id":"levelo_inurba_marseille","lat":43.301607,"lon":5.380717,"is_reserved":false,"is_disabled":false,"rental_uris":{"android":"levelo://app?vid=1dc7f111-b63a-4e12-b705-dbf428b5deda","ios":"levelo://app?vid=1dc7f111-b63a-4e12-b705-dbf428b5deda"},"vehicle_type_id":"4","last_reported":1758867326,"current_range_meters":9600,"station_id":"ce4bgjp2rcd13ifvqbh0","pricing_plan_id":"cebpf4jnsgd1na2vs0mg"},{"bike_id":"7ffd16fe-e13b-40cc-a3d7-f9bcb37e0c5d","system_id":"levelo_inurba_marseille","lat":43.26692,"lon":5.38279,"is_reserved":false,"is_disabled":true,"rental_uris":{"android":"levelo://app?vid=7ffd16fe-e13b-40cc-a3d7-f9bcb37e0c5d","ios":"levelo://app?vid=7ffd16fe-e13b-40cc-a3d7-f9bcb37e0c5d"},"vehicle_type_id":"4","last_reported":1758867326,"current_range_meters":9600,"station_id":"ce4bhg92rcd13ifvqf90","pricing_plan_id":"cebpf4jnsgd1na2vs0mg"},{"bike_id":"e1ef16e9-35b4-4c80-9e1e-5789cfc71614","system_id":"levelo_inurba_marseille","lat":43.26556,"lon":5.372816,"is_reserved":false,"is_disabled":false,"rental_uris":{"android":"levelo://app?vid=e1ef16e9-35b4-4c80-9e1e-5789cfc71614","ios":"levelo://app?vid=e1ef16e9-35b4-4c80-9e1e-5789cfc71614"},"vehicle_type_id":"4","last_reported":1758867326,"current_range_meters":10000,"station_id":"ce4bhg12rcd13ifvqf70","pricing_plan_id":"cebpf4jnsgd1na2vs0mg"},{"bike_id":"f897d300-643c-4c7a-951b-f56d70ef23ca","system_id":"levelo_inurba_marseille","lat":43.30327,"lon":5.39084,"is_reserved":false,"is_disabled":false,"rental_uris":{"android":"levelo://app?vid=f897d300-643c-4c7a-951b-f56d70ef23ca","ios":"levelo://app?vid=f897d300-643c-4c7a-951b-f56d70ef23ca"},"vehicle_type_id":"4","last_reported":1758867326,"current_range_meters":10000,"station_id":"","pricing_plan_id":"cebpf4jnsgd1na2vs0mg"},{"bike_id":"ce155bb4-33d9-4252-9e5f-f11d67da189f","system_id":"levelo_inurba_marseille","lat":43.289394,"lon":5.366409,"is_reserved":false,"is_disabled":false,"rental_uris":{"android":"levelo://app?vid=ce155bb4-33d9-4252-9e5f-f11d67da189f","ios":"levelo://app?vid=ce155bb4-33d9-4252-9e5f-f11d67da189f"},"vehicle_type_id":"4","last_reported":1758867326,"current_range_meters":9600,"station_id":"ce4bhap2rcd13ifvqek0","pricing_plan_id":"cebpf4jnsgd1na2vs0mg"},{"bike_id":"c95b597a-ec4c-4752-a9a0-47edfb859be4","system_id":"levelo_inurba_marseille","lat":43.316879,"lon":5.404794,"is_reserved":false,"is_disabled":false,"rental_uris":{"android":"levelo://app?vid=c95b597a-ec4c-4752-a9a0-47edfb859be4","ios":"levelo://app?vid=c95b597a-ec4c-4752-a9a0-47edfb859be4"},"vehicle_type_id":"4","last_reported":1758867326,"current_range_meters":10000,"station_id":"ce4bh012rcd13ifvqd00","pricing_plan_id":"cebpf4jnsgd1na2vs0mg"},{"bike_id":"b0663280-cfcf-40c6-a1ee-545d96d40b32","system_id":"levelo_inurba_marseille","lat":43.295556,"lon":5.422944,"is_reserved":false,"is_disabled":false,"rental_uris":{"android":"levelo://app?vid=b0663280-cfcf-40c6-a1ee-545d96d40b32","ios":"levelo://app?vid=b0663280-cfcf-40c6-a1ee-545d96d40b32"},"vehicle_type_id":"4","last_reported":1758867326,"current_range_meters":10000,"station_id":"ce4bhph2rcd13ifvqhdg","pricing_plan_id":"cebpf4jnsgd1na2vs0mg"},{"bike_id":"1c35bf83-ebdb-4c44-ba8d-eb30d817a599","system_id":"levelo_inurba_marseille","lat":43.304251,"lon":5.39741,"is_reserved":false,"is_disabled":true,"rental_uris":{"android":"levelo://app?vid=1c35bf83-ebdb-4c44-ba8d-eb30d817a599","ios":"levelo://app?vid=1c35bf83-ebdb-4c44-ba8d-eb30d817a599"},"vehicle_type_id":"4","last_reported":1758867326,"current_range_meters":10800,"station_id":"","pricing_plan_id":"cebpf4jnsgd1na2vs0mg"},{"bike_id":"69c6e41a-c91c-470f-929d-8b7b631ccc35","system_id":"levelo_inurba_marseille","lat":43.28487,"lon":5.38587,"is_reserved":false,"is_disabled":false,"rental_uris":{"android":"levelo://app?vid=69c6e41a-c91c-470f-929d-8b7b631ccc35","ios":"levelo://app?vid=69c6e41a-c91c-470f-929d-8b7b631ccc35"},"vehicle_type_id":"4","last_reported":1758867326,"current_range_meters":10000,"station_id":"ce4bh8p2rcd13ifvqeb0","pricing_plan_id":"cebpf4jnsgd1na2vs0mg"},{"bike_id":"7cda5cc8-118f-428e-9ba6-db3ba2c103f9","system_id":"levelo_inurba_marseille","lat":43.25687,"lon":5.41041,"is_reserved":false,"is_disabled":false,"rental_uris":{"android":"levelo://app?vid=7cda5cc8-118f-428e-9ba6-db3ba2c103f9","ios":"levelo://app?vid=7cda5cc8-118f-428e-9ba6-db3ba2c103f9"},"vehicle_type_id":"4","last_reported":1758867326,"current_range_meters":10800,"station_id":"","pricing_plan_id":"cebpf4jnsgd1na2vs0mg"},{"bike_id":"e5303607-da03-4ac7-b81e-b332ede84cf7","system_id":"levelo_inurba_marseille","lat":43.31302,"lon":5.37824,"is_reserved":false,"is_disabled":false,"rental_uris":{"android":"levelo://app?vid=e5303607-da03-4ac7-b81e-b332ede84cf7","ios":"levelo://app?vid=e5303607-da03-4ac7-b81e-b332ede84cf7"},"vehicle_type_id":"4","last_reported":1758867326,"current_range_meters":10800,"station_id":"","pricing_plan_id":"cebpf4jnsgd1na2vs0mg"},{"bike_id":"6c3f7908-cd3b-4b85-ae7c-6cad6e17039b","system_id":"levelo_inurba_marseille","lat":43.30139,"lon":5.39888,"is_reserved":false,"is_disabled":false,"rental_uris":{"android":"levelo://app?vid=6c3f7908-cd3b-4b85-ae7c-6cad6e17039b","ios":"levelo://app?vid=6c3f7908-cd3b-4b85-ae7c-6cad6e17039b"},"vehicle_type_id":"4","last_reported":1758867326,"current_range_meters":11200,"station_id":"ce4bh0h2rcd13ifvqd40","pricing_plan_id":"cebpf4jnsgd1na2vs0mg"},{"bike_id":"0d54f249-b891-4504-a5ff-687b2a4870e6","system_id":"levelo_inurba_marseille","lat":43.28623,"lon":5.35106,"is_reserved":false,"is_disabled":false,"rental_uris":{"android":"levelo://app?vid=0d54f249-b891-4504-a5ff-687b2a4870e6","ios":"levelo://app?vid=0d54f249-b891-4504-a5ff-687b2a4870e6"},"vehicle_type_id":"4","last_reported":1758867326,"current_range_meters":11200,"station_id":"ce4bhch2rcd13ifvqeug","pricing_plan_id":"cebpf4jnsgd1na2vs0mg"},{"bike_id":"f5a888db-229a-4246-81ee-0ff2a1bcfdfa","system_id":"levelo_inurba_marseille","lat":43.22922,"lon":5.35375,"is_reserved":false,"is_disabled":false,"rental_uris":{"android":"levelo://app?vid=f5a888db-229a-4246-81ee-0ff2a1bcfdfa","ios":"levelo://app?vid=f5a888db-229a-4246-81ee-0ff2a1bcfdfa"},"vehicle_type_id":"4","last_reported":1758867326,"current_range_meters":11200,"station_id":"cpo3532slgdg3j2ikp40","pricing_plan_id":"cebpf4jnsgd1na2vs0mg"},{"bike_id":"11a160ff-b883-4187-aac8-caac1341135a","system_id":"levelo_inurba_marseille","lat":43.24938,"lon":5.40541,"is_reserved":false,"is_disabled":false,"rental_uris":{"android":"levelo://app?vid=11a160ff-b883-4187-aac8-caac1341135a","ios":"levelo://app?vid=11a160ff-b883-4187-aac8-caac1341135a"},"vehicle_type_id":"4","last_reported":1758867326,"current_range_meters":11200,"station_id":"st_d2ngiaodas8pm72gd1h0","pricing_plan_id":"cebpf4jnsgd1na2vs0mg"},{"bike_id":"d4ff37ac-4b54-432d-a5da-4c0f4f93531f","system_id":"levelo_inurba_marseille","lat":43.24172,"lon":5.36378,"is_reserved":false,"is_disabled":false,"rental_uris":{"android":"levelo://app?vid=d4ff37ac-4b54-432d-a5da-4c0f4f93531f","ios":"levelo://app?vid=d4ff37ac-4b54-432d-a5da-4c0f4f93531f"},"vehicle_type_id":"4","last_reported":1758867326,"current_range_meters":11600,"station_id":"cpo36qri1sfpv3e86is0","pricing_plan_id":"cebpf4jnsgd1na2vs0mg"},{"bike_id":"0cee9f18-4e99-4e62-b7d2-871f901df145","system_id":"levelo_inurba_marseille","lat":43.29029,"lon":5.39971,"is_reserved":false,"is_disabled":false,"rental_uris":{"android":"levelo://app?vid=0cee9f18-4e99-4e62-b7d2-871f901df145","ios":"levelo://app?vid=0cee9f18-4e99-4e62-b7d2-871f901df145"},"vehicle_type_id":"4","last_reported":1758867326,"current_range_meters":11600,"station_id":"ce4bh392rcd13ifvqdm0","pricing_plan_id":"cebpf4jnsgd1na2vs0mg"},{"bike_id":"c6b3e536-9745-4760-93b7-a9b7697329d8","system_id":"levelo_inurba_marseille","lat":43.28424,"lon":5.34997,"is_reserved":false,"is_disabled":false,"rental_uris":{"android":"levelo://app?vid=c6b3e536-9745-4760-93b7-a9b7697329d8","ios":"levelo://app?vid=c6b3e536-9745-4760-93b7-a9b7697329d8"},"vehicle_type_id":"4","last_reported":1758867326,"current_range_meters":11600,"station_id":"ce4bhbh2rcd13ifvqepg","pricing_plan_id":"cebpf4jnsgd1na2vs0mg"},{"bike_id":"c7f6a08b-c655-4213-b2ba-7d02e7f382fe","system_id":"levelo_inurba_marseille","lat":43.27988,"lon":5.39483,"is_reserved":false,"is_disabled":false,"rental_uris":{"android":"levelo://app?vid=c7f6a08b-c655-4213-b2ba-7d02e7f382fe","ios":"levelo://app?vid=c7f6a08b-c655-4213-b2ba-7d02e7f382fe"},"vehicle_type_id":"4","last_reported":1758867326,"current_range_meters":11600,"station_id":"","pricing_plan_id":"cebpf4jnsgd1na2vs0mg"},{"bike_id":"b2b05317-5410-4dfd-9e85-4226a67481be","system_id":"levelo_inurba_marseille","lat":43.29036,"lon":5.39963,"is_reserved":false,"is_disabled":false,"rental_uris":{"android":"levelo://app?vid=b2b05317-5410-4dfd-9e85-4226a67481be","ios":"levelo://app?vid=b2b05317-5410-4dfd-9e85-4226a67481be"},"vehicle_type_id":"4","last_reported":1758867326,"current_range_meters":11200,"station_id":"ce4bh392rcd13ifvqdm0","pricing_plan_id":"cebpf4jnsgd1na2vs0mg"},{"bike_id":"58b76054-6cd9-4192-9c11-5558717b12e6","system_id":"levelo_inurba_marseille","lat":43.29794,"lon":5.39375,"is_reserved":false,"is_disabled":false,"rental_uris":{"android":"levelo://app?vid=58b76054-6cd9-4192-9c11-5558717b12e6","ios":"levelo://app?vid=58b76054-6cd9-4192-9c11-5558717b12e6"},"vehicle_type_id":"4","last_reported":1758867326,"current_range_meters":12000,"station_id":"chh1huq6cuj3fo74tm60","pricing_plan_id":"cebpf4jnsgd1na2vs0mg"},{"bike_id":"97a5ee76-2e0a-479d-a727-d5a9ad8fecb2","system_id":"levelo_inurba_marseille","lat":43.22935,"lon":5.35395,"is_reserved":false,"is_disabled":false,"rental_uris":{"android":"levelo://app?vid=97a5ee76-2e0a-479d-a727-d5a9ad8fecb2","ios":"levelo://app?vid=97a5ee76-2e0a-479d-a727-d5a9ad8fecb2"},"vehicle_type_id":"4","last_reported":1758867326,"current_range_meters":12000,"station_id":"cpo3532slgdg3j2ikp40","pricing_plan_id":"cebpf4jnsgd1na2vs0mg"},{"bike_id":"127a2772-9d59-4564-9afc-f6ddd422b53d","system_id":"levelo_inurba_marseille","lat":43.30474,"lon":5.37911,"is_reserved":false,"is_disabled":false,"rental_uris":{"android":"levelo://app?vid=127a2772-9d59-4564-9afc-f6ddd422b53d","ios":"levelo://app?vid=127a2772-9d59-4564-9afc-f6ddd422b53d"},"vehicle_type_id":"4","last_reported":1758867326,"current_range_meters":12000,"station_id":"ce4bgup2rcd13ifvqcn0","pricing_plan_id":"cebpf4jnsgd1na2vs0mg"},{"bike_id":"d734f0f7-bb82-4cbc-9571-824c32d91d22","system_id":"levelo_inurba_marseille","lat":43.24164,"lon":5.36405,"is_reserved":false,"is_disabled":false,"rental_uris":{"android":"levelo://app?vid=d734f0f7-bb82-4cbc-9571-824c32d91d22","ios":"levelo://app?vid=d734f0f7-bb82-4cbc-9571-824c32d91d22"},"vehicle_type_id":"4","last_reported":1758867326,"current_range_meters":12000,"station_id":"cpo36qri1sfpv3e86is0","pricing_plan_id":"cebpf4jnsgd1na2vs0mg"},{"bike_id":"c31c58ee-4e29-4ce3-bf0a-25ae5cf57cfc","system_id":"levelo_inurba_marseille","lat":43.24956,"lon":5.40536,"is_reserved":false,"is_disabled":false,"rental_uris":{"android":"levelo://app?vid=c31c58ee-4e29-4ce3-bf0a-25ae5cf57cfc","ios":"levelo://app?vid=c31c58ee-4e29-4ce3-bf0a-25ae5cf57cfc"},"vehicle_type_id":"4","last_reported":1758867326,"current_range_meters":12000,"station_id":"st_d2ngiaodas8pm72gd1h0","pricing_plan_id":"cebpf4jnsgd1na2vs0mg"},{"bike_id":"61c04c77-a5dd-4933-8859-cac7083c0bc9","system_id":"levelo_inurba_marseille","lat":43.30265,"lon":5.40133,"is_reserved":false,"is_disabled":false,"rental_uris":{"android":"levelo://app?vid=61c04c77-a5dd-4933-8859-cac7083c0bc9","ios":"levelo://app?vid=61c04c77-a5dd-4933-8859-cac7083c0bc9"},"vehicle_type_id":"4","last_reported":1758867326,"current_range_meters":12000,"station_id":"ce4bgvh2rcd13ifvqcs0","pricing_plan_id":"cebpf4jnsgd1na2vs0mg"},{"bike_id":"041cd397-24ab-4e04-af23-07b961e161f4","system_id":"levelo_inurba_marseille","lat":43.337444,"lon":5.374475,"is_reserved":false,"is_disabled":false,"rental_uris":{"android":"levelo://app?vid=041cd397-24ab-4e04-af23-07b961e161f4","ios":"levelo://app?vid=041cd397-24ab-4e04-af23-07b961e161f4"},"vehicle_type_id":"4","last_reported":1758867326,"current_range_meters":12000,"station_id":"","pricing_plan_id":"cebpf4jnsgd1na2vs0mg"},{"bike_id":"b6ff3672-4e7c-404c-ab2a-bd902cf95e14","system_id":"levelo_inurba_marseille","lat":43.2685,"lon":5.40671,"is_reserved":false,"is_disabled":false,"rental_uris":{"android":"levelo://app?vid=b6ff3672-4e7c-404c-ab2a-bd902cf95e14","ios":"levelo://app?vid=b6ff3672-4e7c-404c-ab2a-bd902cf95e14"},"vehicle_type_id":"4","last_reported":1758867326,"current_range_meters":12000,"station_id":"","pricing_plan_id":"cebpf4jnsgd1na2vs0mg"},{"bike_id":"499c9f86-cec4-4803-97cc-49a2d9102741","system_id":"levelo_inurba_marseille","lat":43.30249,"lon":5.40066,"is_reserved":false,"is_disabled":false,"rental_uris":{"android":"levelo://app?vid=499c9f86-cec4-4803-97cc-49a2d9102741","ios":"levelo://app?vid=499c9f86-cec4-4803-97cc-49a2d9102741"},"vehicle_type_id":"4","last_reported":1758867326,"current_range_meters":12000,"station_id":"ce4bgvh2rcd13ifvqcs0","pricing_plan_id":"cebpf4jnsgd1na2vs0mg"},{"bike_id":"1b95970f-42c4-4ab0-acc7-2baa194657cf","system_id":"levelo_inurba_marseille","lat":43.335908,"lon":5.40995,"is_reserved":false,"is_disabled":false,"rental_uris":{"android":"levelo://app?vid=1b95970f-42c4-4ab0-acc7-2baa194657cf","ios":"levelo://app?vid=1b95970f-42c4-4ab0-acc7-2baa194657cf"},"vehicle_type_id":"4","last_reported":1758867326,"current_range_meters":12400,"station_id":"ce4bhqh2rcd13ifvqhmg","pricing_plan_id":"cebpf4jnsgd1na2vs0mg"},{"bike_id":"232f7f05-11b0-4e83-87a0-d64195604901","system_id":"levelo_inurba_marseille","lat":43.27991,"lon":5.41666,"is_reserved":false,"is_disabled":false,"rental_uris":{"android":"levelo://app?vid=232f7f05-11b0-4e83-87a0-d64195604901","ios":"levelo://app?vid=232f7f05-11b0-4e83-87a0-d64195604901"},"vehicle_type_id":"4","last_reported":1758867326,"current_range_meters":12400,"station_id":"ce4bho12rcd13ifvqh1g","pricing_plan_id":"cebpf4jnsgd1na2vs0mg"},{"bike_id":"39e6b2d7-e7bc-4366-8a01-87bc46855564","system_id":"levelo_inurba_marseille","lat":43.32096,"lon":5.36791,"is_reserved":false,"is_disabled":false,"rental_uris":{"android":"levelo://app?vid=39e6b2d7-e7bc-4366-8a01-87bc46855564","ios":"levelo://app?vid=39e6b2d7-e7bc-4366-8a01-87bc46855564"},"vehicle_type_id":"4","last_reported":1758867326,"current_range_meters":12400,"station_id":"ce4bhrh2rcd13ifvqhug","pricing_plan_id":"cebpf4jnsgd1na2vs0mg"},{"bike_id":"f3c5f598-e12d-4211-b749-11b51d760ccb","system_id":"levelo_inurba_marseille","lat":43.30149,"lon":5.38086,"is_reserved":false,"is_disabled":false,"rental_uris":{"android":"levelo://app?vid=f3c5f598-e12d-4211-b749-11b51d760ccb","ios":"levelo://app?vid=f3c5f598-e12d-4211-b749-11b51d760ccb"},"vehicle_type_id":"4","last_reported":1758867326,"current_range_meters":12800,"station_id":"ce4bgjp2rcd13ifvqbh0","pricing_plan_id":"cebpf4jnsgd1na2vs0mg"},{"bike_id":"fe00f682-cca5-427d-a71d-4e3cd090cf19","system_id":"levelo_inurba_marseille","lat":43.24069,"lon":5.37765,"is_reserved":false,"is_disabled":false,"rental_uris":{"android":"levelo://app?vid=fe00f682-cca5-427d-a71d-4e3cd090cf19","ios":"levelo://app?vid=fe00f682-cca5-427d-a71d-4e3cd090cf19"},"vehicle_type_id":"4","last_reported":1758867326,"current_range_meters":12800,"station_id":"ce4bhnp2rcd13ifvqgvg","pricing_plan_id":"cebpf4jnsgd1na2vs0mg"},{"bike_id":"b0934032-3d3c-44e1-985e-e72b8cee3491","system_id":"levelo_inurba_marseille","lat":43.24636,"lon":5.43149,"is_reserved":false,"is_disabled":false,"rental_uris":{"android":"levelo://app?vid=b0934032-3d3c-44e1-985e-e72b8cee3491","ios":"levelo://app?vid=b0934032-3d3c-44e1-985e-e72b8cee3491"},"vehicle_type_id":"4","last_reported":1758867326,"current_range_meters":12800,"station_id":"st_d2m6c4gdas8pm72e190g","pricing_plan_id":"cebpf4jnsgd1na2vs0mg"},{"bike_id":"9811e1f7-6003-4f66-9587-6fdbbe85e0ed","system_id":"levelo_inurba_marseille","lat":43.29562,"lon":5.4227,"is_reserved":false,"is_disabled":false,"rental_uris":{"android":"levelo://app?vid=9811e1f7-6003-4f66-9587-6fdbbe85e0ed","ios":"levelo://app?vid=9811e1f7-6003-4f66-9587-6fdbbe85e0ed"},"vehicle_type_id":"4","last_reported":1758867326,"current_range_meters":12800,"station_id":"ce4bhph2rcd13ifvqhdg","pricing_plan_id":"cebpf4jnsgd1na2vs0mg"},{"bike_id":"c37a4fa9-8929-4812-9e52-967878d66fa4","system_id":"levelo_inurba_marseille","lat":43.27809,"lon":5.40716,"is_reserved":false,"is_disabled":false,"rental_uris":{"android":"levelo://app?vid=c37a4fa9-8929-4812-9e52-967878d66fa4","ios":"levelo://app?vid=c37a4fa9-8929-4812-9e52-967878d66fa4"},"vehicle_type_id":"4","last_reported":1758867326,"current_range_meters":12800,"station_id":"ce4bhnh2rcd13ifvqgtg","pricing_plan_id":"cebpf4jnsgd1na2vs0mg"},{"bike_id":"f9af076b-c426-46f0-97f6-f6a5a530c8e2","system_id":"levelo_inurba_marseille","lat":43.33052,"lon":5.39475,"is_reserved":false,"is_disabled":true,"rental_uris":{"android":"levelo://app?vid=f9af076b-c426-46f0-97f6-f6a5a530c8e2","ios":"levelo://app?vid=f9af076b-c426-46f0-97f6-f6a5a530c8e2"},"vehicle_type_id":"4","last_reported":1758867326,"current_range_meters":12800,"station_id":"","pricing_plan_id":"cebpf4jnsgd1na2vs0mg"},{"bike_id":"0ef81889-2d7f-4e70-b480-0b08f55cbfba","system_id":"levelo_inurba_marseille","lat":43.30871,"lon":5.36822,"is_reserved":false,"is_disabled":false,"rental_uris":{"android":"levelo://app?vid=0ef81889-2d7f-4e70-b480-0b08f55cbfba","ios":"levelo://app?vid=0ef81889-2d7f-4e70-b480-0b08f55cbfba"},"vehicle_type_id":"4","last_reported":1758867326,"current_range_meters":12800,"station_id":"ce4bgn92rcd13ifvqbvg","pricing_plan_id":"cebpf4jnsgd1na2vs0mg"},{"bike_id":"a867f295-7703-4307-b2f6-5d750ccf273e","system_id":"levelo_inurba_marseille","lat":43.259338,"lon":5.409145,"is_reserved":false,"is_disabled":false,"rental_uris":{"android":"levelo://app?vid=a867f295-7703-4307-b2f6-5d750ccf273e","ios":"levelo://app?vid=a867f295-7703-4307-b2f6-5d750ccf273e"},"vehicle_type_id":"4","last_reported":1758867326,"current_range_meters":12800,"station_id":"ce4bhm92rcd13ifvqglg","pricing_plan_id":"cebpf4jnsgd1na2vs0mg"},{"bike_id":"358b5bd0-bd1a-4b9c-b0d1-08dbb5ab85b3","system_id":"levelo_inurba_marseille","lat":43.270613,"lon":5.402408,"is_reserved":false,"is_disabled":false,"rental_uris":{"android":"levelo://app?vid=358b5bd0-bd1a-4b9c-b0d1-08dbb5ab85b3","ios":"levelo://app?vid=358b5bd0-bd1a-4b9c-b0d1-08dbb5ab85b3"},"vehicle_type_id":"4","last_reported":1758867326,"current_range_meters":13600,"station_id":"ce4bhk92rcd13ifvqgc0","pricing_plan_id":"cebpf4jnsgd1na2vs0mg"},{"bike_id":"b01b5bc6-6834-41fb-be97-f5b6fb7e9ec8","system_id":"levelo_inurba_marseille","lat":43.26317,"lon":5.39839,"is_reserved":false,"is_disabled":false,"rental_uris":{"android":"levelo://app?vid=b01b5bc6-6834-41fb-be97-f5b6fb7e9ec8","ios":"levelo://app?vid=b01b5bc6-6834-41fb-be97-f5b6fb7e9ec8"},"vehicle_type_id":"4","last_reported":1758867326,"current_range_meters":13600,"station_id":"","pricing_plan_id":"cebpf4jnsgd1na2vs0mg"},{"bike_id":"e77be6a3-b48d-45e2-bd38-1727f1d7d457","system_id":"levelo_inurba_marseille","lat":43.27982,"lon":5.38745,"is_reserved":false,"is_disabled":false,"rental_uris":{"android":"levelo://app?vid=e77be6a3-b48d-45e2-bd38-1727f1d7d457","ios":"levelo://app?vid=e77be6a3-b48d-45e2-bd38-1727f1d7d457"},"vehicle_type_id":"4","last_reported":1758867326,"current_range_meters":13600,"station_id":"ce4bhg12rcd13ifvqf80","pricing_plan_id":"cebpf4jnsgd1na2vs0mg"},{"bike_id":"a57b3feb-2354-42fe-87fd-e8fcee3a0260","system_id":"levelo_inurba_marseille","lat":43.26953,"lon":5.40241,"is_reserved":false,"is_disabled":false,"rental_uris":{"android":"levelo://app?vid=a57b3feb-2354-42fe-87fd-e8fcee3a0260","ios":"levelo://app?vid=a57b3feb-2354-42fe-87fd-e8fcee3a0260"},"vehicle_type_id":"4","last_reported":1758867326,"current_range_meters":13600,"station_id":"","pricing_plan_id":"cebpf4jnsgd1na2vs0mg"},{"bike_id":"6a5edbe2-66a8-4cc0-87c0-11d5220ca8c5","system_id":"levelo_inurba_marseille","lat":43.24162,"lon":5.36395,"is_reserved":false,"is_disabled":false,"rental_uris":{"android":"levelo://app?vid=6a5edbe2-66a8-4cc0-87c0-11d5220ca8c5","ios":"levelo://app?vid=6a5edbe2-66a8-4cc0-87c0-11d5220ca8c5"},"vehicle_type_id":"4","last_reported":1758867326,"current_range_meters":14000,"station_id":"cpo36qri1sfpv3e86is0","pricing_plan_id":"cebpf4jnsgd1na2vs0mg"},{"bike_id":"b4f47bc1-4d12-4541-a757-a859819c9d1c","system_id":"levelo_inurba_marseille","lat":43.276802,"lon":5.388803,"is_reserved":false,"is_disabled":true,"rental_uris":{"android":"levelo://app?vid=b4f47bc1-4d12-4541-a757-a859819c9d1c","ios":"levelo://app?vid=b4f47bc1-4d12-4541-a757-a859819c9d1c"},"vehicle_type_id":"4","last_reported":1758867326,"current_range_meters":14000,"station_id":"","pricing_plan_id":"cebpf4jnsgd1na2vs0mg"},{"bike_id":"057bba5a-4cb8-4c26-a0ba-cfb7049bca00","system_id":"levelo_inurba_marseille","lat":43.281573,"lon":5.426569,"is_reserved":false,"is_disabled":false,"rental_uris":{"android":"levelo://app?vid=057bba5a-4cb8-4c26-a0ba-cfb7049bca00","ios":"levelo://app?vid=057bba5a-4cb8-4c26-a0ba-cfb7049bca00"},"vehicle_type_id":"4","last_reported":1758867326,"current_range_meters":14000,"station_id":"ce4bhnh2rcd13ifvqgug","pricing_plan_id":"cebpf4jnsgd1na2vs0mg"},{"bike_id":"c0344c79-2ae5-4a66-b545-5235cbd72a4d","system_id":"levelo_inurba_marseille","lat":43.30468,"lon":5.37901,"is_reserved":false,"is_disabled":false,"rental_uris":{"android":"levelo://app?vid=c0344c79-2ae5-4a66-b545-5235cbd72a4d","ios":"levelo://app?vid=c0344c79-2ae5-4a66-b545-5235cbd72a4d"},"vehicle_type_id":"4","last_reported":1758867326,"current_range_meters":14000,"station_id":"","pricing_plan_id":"cebpf4jnsgd1na2vs0mg"},{"bike_id":"fec08481-c683-4f8d-8de9-462eff043834","system_id":"levelo_inurba_marseille","lat":43.27057,"lon":5.4027,"is_reserved":false,"is_disabled":false,"rental_uris":{"android":"levelo://app?vid=fec08481-c683-4f8d-8de9-462eff043834","ios":"levelo://app?vid=fec08481-c683-4f8d-8de9-462eff043834"},"vehicle_type_id":"4","last_reported":1758867326,"current_range_meters":14000,"station_id":"ce4bhk92rcd13ifvqgc0","pricing_plan_id":"cebpf4jnsgd1na2vs0mg"},{"bike_id":"262dc574-a1cb-4c72-8c4c-82b40860fa6d","system_id":"levelo_inurba_marseille","lat":43.29961,"lon":5.37485,"is_reserved":false,"is_disabled":true,"rental_uris":{"android":"levelo://app?vid=262dc574-a1cb-4c72-8c4c-82b40860fa6d","ios":"levelo://app?vid=262dc574-a1cb-4c72-8c4c-82b40860fa6d"},"vehicle_type_id":"4","last_reported":1758867326,"current_range_meters":14000,"station_id":"ce4bgjh2rcd13ifvqbg0","pricing_plan_id":"cebpf4jnsgd1na2vs0mg"},{"bike_id":"75611fb7-df45-4d9f-9db0-a181136cc424","system_id":"levelo_inurba_marseille","lat":43.21755,"lon":5.34593,"is_reserved":false,"is_disabled":true,"rental_uris":{"android":"levelo://app?vid=75611fb7-df45-4d9f-9db0-a181136cc424","ios":"levelo://app?vid=75611fb7-df45-4d9f-9db0-a181136cc424"},"vehicle_type_id":"4","last_reported":1758867326,"current_range_meters":14400,"station_id":"st_cvj6r9ubvosntc0bgbag","pricing_plan_id":"cebpf4jnsgd1na2vs0mg"},{"bike_id":"6f97756d-103a-472e-9ee0-e1b6357d8727","system_id":"levelo_inurba_marseille","lat":43.30858,"lon":5.39678,"is_reserved":false,"is_disabled":false,"rental_uris":{"android":"levelo://app?vid=6f97756d-103a-472e-9ee0-e1b6357d8727","ios":"levelo://app?vid=6f97756d-103a-472e-9ee0-e1b6357d8727"},"vehicle_type_id":"4","last_reported":1758867326,"current_range_meters":14400,"station_id":"","pricing_plan_id":"cebpf4jnsgd1na2vs0mg"},{"bike_id":"13be0879-670b-43f4-8fc1-8fbc1c4ccf9c","system_id":"levelo_inurba_marseille","lat":43.28428,"lon":5.34997,"is_reserved":false,"is_disabled":false,"rental_uris":{"android":"levelo://app?vid=13be0879-670b-43f4-8fc1-8fbc1c4ccf9c","ios":"levelo://app?vid=13be0879-670b-43f4-8fc1-8fbc1c4ccf9c"},"vehicle_type_id":"4","last_reported":1758867326,"current_range_meters":14400,"station_id":"ce4bhbh2rcd13ifvqepg","pricing_plan_id":"cebpf4jnsgd1na2vs0mg"},{"bike_id":"377142cb-267c-494b-99d9-6fe238c4e676","system_id":"levelo_inurba_marseille","lat":43.30995,"lon":5.40765,"is_reserved":false,"is_disabled":false,"rental_uris":{"android":"levelo://app?vid=377142cb-267c-494b-99d9-6fe238c4e676","ios":"levelo://app?vid=377142cb-267c-494b-99d9-6fe238c4e676"},"vehicle_type_id":"4","last_reported":1758867326,"current_range_meters":14400,"station_id":"","pricing_plan_id":"cebpf4jnsgd1na2vs0mg"},{"bike_id":"8baeac13-7e80-456d-83aa-12e0372d0df5","system_id":"levelo_inurba_marseille","lat":43.32459,"lon":5.37551,"is_reserved":false,"is_disabled":false,"rental_uris":{"android":"levelo://app?vid=8baeac13-7e80-456d-83aa-12e0372d0df5","ios":"levelo://app?vid=8baeac13-7e80-456d-83aa-12e0372d0df5"},"vehicle_type_id":"4","last_reported":1758867326,"current_range_meters":14400,"station_id":"","pricing_plan_id":"cebpf4jnsgd1na2vs0mg"},{"bike_id":"df649d25-1f44-4471-8cdd-9566da8ef9b9","system_id":"levelo_inurba_marseille","lat":43.32155,"lon":5.38803,"is_reserved":false,"is_disabled":false,"rental_uris":{"android":"levelo://app?vid=df649d25-1f44-4471-8cdd-9566da8ef9b9","ios":"levelo://app?vid=df649d25-1f44-4471-8cdd-9566da8ef9b9"},"vehicle_type_id":"4","last_reported":1758867326,"current_range_meters":14800,"station_id":"","pricing_plan_id":"cebpf4jnsgd1na2vs0mg"},{"bike_id":"280349c2-7d75-4732-844a-272770d12d07","system_id":"levelo_inurba_marseille","lat":43.2495,"lon":5.40497,"is_reserved":false,"is_disabled":false,"rental_uris":{"android":"levelo://app?vid=280349c2-7d75-4732-844a-272770d12d07","ios":"levelo://app?vid=280349c2-7d75-4732-844a-272770d12d07"},"vehicle_type_id":"4","last_reported":1758867326,"current_range_meters":14800,"station_id":"st_d2ngiaodas8pm72gd1h0","pricing_plan_id":"cebpf4jnsgd1na2vs0mg"},{"bike_id":"ddfc760f-fcb9-4a30-a293-16cfa589da65","system_id":"levelo_inurba_marseille","lat":43.27787,"lon":5.40687,"is_reserved":false,"is_disabled":false,"rental_uris":{"android":"levelo://app?vid=ddfc760f-fcb9-4a30-a293-16cfa589da65","ios":"levelo://app?vid=ddfc760f-fcb9-4a30-a293-16cfa589da65"},"vehicle_type_id":"4","last_reported":1758867326,"current_range_meters":14800,"station_id":"ce4bhnh2rcd13ifvqgtg","pricing_plan_id":"cebpf4jnsgd1na2vs0mg"},{"bike_id":"fcf7e7df-f7dc-4246-ba84-e79cd8540a7e","system_id":"levelo_inurba_marseille","lat":43.31889,"lon":5.40747,"is_reserved":false,"is_disabled":false,"rental_uris":{"android":"levelo://app?vid=fcf7e7df-f7dc-4246-ba84-e79cd8540a7e","ios":"levelo://app?vid=fcf7e7df-f7dc-4246-ba84-e79cd8540a7e"},"vehicle_type_id":"4","last_reported":1758867326,"current_range_meters":14400,"station_id":"ce4bhq12rcd13ifvqhig","pricing_plan_id":"cebpf4jnsgd1na2vs0mg"},{"bike_id":"85b590f3-687e-4935-828a-79318b28d595","system_id":"levelo_inurba_marseille","lat":43.296015,"lon":5.380993,"is_reserved":false,"is_disabled":false,"rental_uris":{"android":"levelo://app?vid=85b590f3-687e-4935-828a-79318b28d595","ios":"levelo://app?vid=85b590f3-687e-4935-828a-79318b28d595"},"vehicle_type_id":"4","last_reported":1758867326,"current_range_meters":14800,"station_id":"ce4bgl12rcd13ifvqbo0","pricing_plan_id":"cebpf4jnsgd1na2vs0mg"},{"bike_id":"08fe2b08-b3fa-43f8-ae73-04061f76318d","system_id":"levelo_inurba_marseille","lat":43.305552,"lon":5.365395,"is_reserved":false,"is_disabled":false,"rental_uris":{"android":"levelo://app?vid=08fe2b08-b3fa-43f8-ae73-04061f76318d","ios":"levelo://app?vid=08fe2b08-b3fa-43f8-ae73-04061f76318d"},"vehicle_type_id":"4","last_reported":1758867326,"current_range_meters":14800,"station_id":"","pricing_plan_id":"cebpf4jnsgd1na2vs0mg"},{"bike_id":"ee9dbae0-e0e6-4baf-a574-c8f5ce6f3027","system_id":"levelo_inurba_marseille","lat":43.27495,"lon":5.4245,"is_reserved":false,"is_disabled":false,"rental_uris":{"android":"levelo://app?vid=ee9dbae0-e0e6-4baf-a574-c8f5ce6f3027","ios":"levelo://app?vid=ee9dbae0-e0e6-4baf-a574-c8f5ce6f3027"},"vehicle_type_id":"4","last_reported":1758867326,"current_range_meters":14800,"station_id":"ce4bhn92rcd13ifvqgrg","pricing_plan_id":"cebpf4jnsgd1na2vs0mg"},{"bike_id":"c110996d-22e7-4035-9eef-b37954d27511","system_id":"levelo_inurba_marseille","lat":43.23205,"lon":5.3556,"is_reserved":false,"is_disabled":false,"rental_uris":{"android":"levelo://app?vid=c110996d-22e7-4035-9eef-b37954d27511","ios":"levelo://app?vid=c110996d-22e7-4035-9eef-b37954d27511"},"vehicle_type_id":"4","last_reported":1758867326,"current_range_meters":14800,"station_id":"ce4bhu92rcd13ifvqi70","pricing_plan_id":"cebpf4jnsgd1na2vs0mg"},{"bike_id":"1d548c7d-c37a-47a6-8cdb-19cbbdc3f13c","system_id":"levelo_inurba_marseille","lat":43.26951,"lon":5.38637,"is_reserved":false,"is_disabled":false,"rental_uris":{"android":"levelo://app?vid=1d548c7d-c37a-47a6-8cdb-19cbbdc3f13c","ios":"levelo://app?vid=1d548c7d-c37a-47a6-8cdb-19cbbdc3f13c"},"vehicle_type_id":"4","last_reported":1758867326,"current_range_meters":14800,"station_id":"ce4bhh92rcd13ifvqfh0","pricing_plan_id":"cebpf4jnsgd1na2vs0mg"},{"bike_id":"fa5dfbf7-619d-48ac-ba12-d32ef757eea0","system_id":"levelo_inurba_marseille","lat":43.27309,"lon":5.39072,"is_reserved":false,"is_disabled":false,"rental_uris":{"android":"levelo://app?vid=fa5dfbf7-619d-48ac-ba12-d32ef757eea0","ios":"levelo://app?vid=fa5dfbf7-619d-48ac-ba12-d32ef757eea0"},"vehicle_type_id":"4","last_reported":1758867326,"current_range_meters":15200,"station_id":"ce4bhgp2rcd13ifvqfe0","pricing_plan_id":"cebpf4jnsgd1na2vs0mg"},{"bike_id":"bb4dbffa-d5e5-4e4b-8d73-657c84f7e60b","system_id":"levelo_inurba_marseille","lat":43.24992,"lon":5.38935,"is_reserved":false,"is_disabled":false,"rental_uris":{"android":"levelo://app?vid=bb4dbffa-d5e5-4e4b-8d73-657c84f7e60b","ios":"levelo://app?vid=bb4dbffa-d5e5-4e4b-8d73-657c84f7e60b"},"vehicle_type_id":"4","last_reported":1758867326,"current_range_meters":15200,"station_id":"ce4bhgp2rcd13ifvqfd0","pricing_plan_id":"cebpf4jnsgd1na2vs0mg"},{"bike_id":"ee6fd5ba-0d32-4f71-aa20-6717bb3bccdd","system_id":"levelo_inurba_marseille","lat":43.30614,"lon":5.39458,"is_reserved":false,"is_disabled":false,"rental_uris":{"android":"levelo://app?vid=ee6fd5ba-0d32-4f71-aa20-6717bb3bccdd","ios":"levelo://app?vid=ee6fd5ba-0d32-4f71-aa20-6717bb3bccdd"},"vehicle_type_id":"4","last_reported":1758867326,"current_range_meters":15200,"station_id":"ce4bh0p2rcd13ifvqd80","pricing_plan_id":"cebpf4jnsgd1na2vs0mg"},{"bike_id":"1d5d14cf-15e7-4470-bff9-613bb9abe120","system_id":"levelo_inurba_marseille","lat":43.33488,"lon":5.4207,"is_reserved":false,"is_disabled":false,"rental_uris":{"android":"levelo://app?vid=1d5d14cf-15e7-4470-bff9-613bb9abe120","ios":"levelo://app?vid=1d5d14cf-15e7-4470-bff9-613bb9abe120"},"vehicle_type_id":"4","last_reported":1758867326,"current_range_meters":15200,"station_id":"","pricing_plan_id":"cebpf4jnsgd1na2vs0mg"},{"bike_id":"208d8654-3228-40c7-b9c8-8618c2e5fa52","system_id":"levelo_inurba_marseille","lat":43.2864,"lon":5.38257,"is_reserved":false,"is_disabled":false,"rental_uris":{"android":"levelo://app?vid=208d8654-3228-40c7-b9c8-8618c2e5fa52","ios":"levelo://app?vid=208d8654-3228-40c7-b9c8-8618c2e5fa52"},"vehicle_type_id":"4","last_reported":1758867326,"current_range_meters":15200,"station_id":"","pricing_plan_id":"cebpf4jnsgd1na2vs0mg"},{"bike_id":"10b8d871-07e9-4114-9eb9-6bcce40e7beb","system_id":"levelo_inurba_marseille","lat":43.27045,"lon":5.392226,"is_reserved":false,"is_disabled":false,"rental_uris":{"android":"levelo://app?vid=10b8d871-07e9-4114-9eb9-6bcce40e7beb","ios":"levelo://app?vid=10b8d871-07e9-4114-9eb9-6bcce40e7beb"},"vehicle_type_id":"4","last_reported":1758867326,"current_range_meters":15200,"station_id":"ce4bhe12rcd13ifvqf30","pricing_plan_id":"cebpf4jnsgd1na2vs0mg"},{"bike_id":"5d944089-7d4d-485d-8e5e-fe9c9b3dd7de","system_id":"levelo_inurba_marseille","lat":43.22563,"lon":5.41637,"is_reserved":false,"is_disabled":false,"rental_uris":{"android":"levelo://app?vid=5d944089-7d4d-485d-8e5e-fe9c9b3dd7de","ios":"levelo://app?vid=5d944089-7d4d-485d-8e5e-fe9c9b3dd7de"},"vehicle_type_id":"4","last_reported":1758867326,"current_range_meters":15200,"station_id":"st_d2o4gvlbi1j2169b742g","pricing_plan_id":"cebpf4jnsgd1na2vs0mg"},{"bike_id":"467b4306-5fd8-484e-9a4b-cf8eb50151ba","system_id":"levelo_inurba_marseille","lat":43.32298,"lon":5.38271,"is_reserved":false,"is_disabled":false,"rental_uris":{"android":"levelo://app?vid=467b4306-5fd8-484e-9a4b-cf8eb50151ba","ios":"levelo://app?vid=467b4306-5fd8-484e-9a4b-cf8eb50151ba"},"vehicle_type_id":"4","last_reported":1758867326,"current_range_meters":16000,"station_id":"ce4bhr12rcd13ifvqhqg","pricing_plan_id":"cebpf4jnsgd1na2vs0mg"},{"bike_id":"08292ac0-f4a0-4778-9703-5ac015ee1e3a","system_id":"levelo_inurba_marseille","lat":43.24604,"lon":5.43135,"is_reserved":false,"is_disabled":false,"rental_uris":{"android":"levelo://app?vid=08292ac0-f4a0-4778-9703-5ac015ee1e3a","ios":"levelo://app?vid=08292ac0-f4a0-4778-9703-5ac015ee1e3a"},"vehicle_type_id":"4","last_reported":1758867326,"current_range_meters":16000,"station_id":"st_d2m6c4gdas8pm72e190g","pricing_plan_id":"cebpf4jnsgd1na2vs0mg"},{"bike_id":"6ee917b5-7410-457c-9b85-88c720c02d38","system_id":"levelo_inurba_marseille","lat":43.30187,"lon":5.38075,"is_reserved":false,"is_disabled":false,"rental_uris":{"android":"levelo://app?vid=6ee917b5-7410-457c-9b85-88c720c02d38","ios":"levelo://app?vid=6ee917b5-7410-457c-9b85-88c720c02d38"},"vehicle_type_id":"4","last_reported":1758867326,"current_range_meters":16000,"station_id":"","pricing_plan_id":"cebpf4jnsgd1na2vs0mg"},{"bike_id":"9a4f92ed-e086-4038-a651-bbe0613f80bd","system_id":"levelo_inurba_marseille","lat":43.22579,"lon":5.41655,"is_reserved":false,"is_disabled":false,"rental_uris":{"android":"levelo://app?vid=9a4f92ed-e086-4038-a651-bbe0613f80bd","ios":"levelo://app?vid=9a4f92ed-e086-4038-a651-bbe0613f80bd"},"vehicle_type_id":"4","last_reported":1758867326,"current_range_meters":16000,"station_id":"st_d2o4gvlbi1j2169b742g","pricing_plan_id":"cebpf4jnsgd1na2vs0mg"},{"bike_id":"6ff62d79-81a4-487f-8694-4fb22f54a494","system_id":"levelo_inurba_marseille","lat":43.32474,"lon":5.39191,"is_reserved":false,"is_disabled":false,"rental_uris":{"android":"levelo://app?vid=6ff62d79-81a4-487f-8694-4fb22f54a494","ios":"levelo://app?vid=6ff62d79-81a4-487f-8694-4fb22f54a494"},"vehicle_type_id":"4","last_reported":1758867326,"current_range_meters":16000,"station_id":"","pricing_plan_id":"cebpf4jnsgd1na2vs0mg"},{"bike_id":"fc030496-0ba8-4422-b8c1-0200450056d7","system_id":"levelo_inurba_marseille","lat":43.27071,"lon":5.42273,"is_reserved":false,"is_disabled":false,"rental_uris":{"android":"levelo://app?vid=fc030496-0ba8-4422-b8c1-0200450056d7","ios":"levelo://app?vid=fc030496-0ba8-4422-b8c1-0200450056d7"},"vehicle_type_id":"4","last_reported":1758867326,"current_range_meters":16000,"station_id":"ce4bhk92rcd13ifvqgb0","pricing_plan_id":"cebpf4jnsgd1na2vs0mg"},{"bike_id":"c428f80b-bd6a-4e94-a7c9-eacff36a382d","system_id":"levelo_inurba_marseille","lat":43.28847,"lon":5.35864,"is_reserved":false,"is_disabled":false,"rental_uris":{"android":"levelo://app?vid=c428f80b-bd6a-4e94-a7c9-eacff36a382d","ios":"levelo://app?vid=c428f80b-bd6a-4e94-a7c9-eacff36a382d"},"vehicle_type_id":"4","last_reported":1758867326,"current_range_meters":16000,"station_id":"ce4bhb12rcd13ifvqem0","pricing_plan_id":"cebpf4jnsgd1na2vs0mg"},{"bike_id":"4010754a-8dff-468e-86f3-2dab2168ef2c","system_id":"levelo_inurba_marseille","lat":43.28479,"lon":5.38411,"is_reserved":false,"is_disabled":false,"rental_uris":{"android":"levelo://app?vid=4010754a-8dff-468e-86f3-2dab2168ef2c","ios":"levelo://app?vid=4010754a-8dff-468e-86f3-2dab2168ef2c"},"vehicle_type_id":"4","last_reported":1758867326,"current_range_meters":16000,"station_id":"ce4bh512rcd13ifvqe3g","pricing_plan_id":"cebpf4jnsgd1na2vs0mg"},{"bike_id":"47544eda-c7ea-45a4-9854-ba6c93aa5c46","system_id":"levelo_inurba_marseille","lat":43.24076,"lon":5.37755,"is_reserved":false,"is_disabled":false,"rental_uris":{"android":"levelo://app?vid=47544eda-c7ea-45a4-9854-ba6c93aa5c46","ios":"levelo://app?vid=47544eda-c7ea-45a4-9854-ba6c93aa5c46"},"vehicle_type_id":"4","last_reported":1758867326,"current_range_meters":16400,"station_id":"ce4bhnp2rcd13ifvqgvg","pricing_plan_id":"cebpf4jnsgd1na2vs0mg"},{"bike_id":"3f6b9bfb-64f4-45b4-b513-a44204aa7d08","system_id":"levelo_inurba_marseille","lat":43.23191,"lon":5.39983,"is_reserved":false,"is_disabled":false,"rental_uris":{"android":"levelo://app?vid=3f6b9bfb-64f4-45b4-b513-a44204aa7d08","ios":"levelo://app?vid=3f6b9bfb-64f4-45b4-b513-a44204aa7d08"},"vehicle_type_id":"4","last_reported":1758867326,"current_range_meters":16400,"station_id":"ce4bhn12rcd13ifvqgqg","pricing_plan_id":"cebpf4jnsgd1na2vs0mg"},{"bike_id":"47b9cece-62de-43f0-80d8-9147224e7ea6","system_id":"levelo_inurba_marseille","lat":43.301482,"lon":5.380763,"is_reserved":false,"is_disabled":false,"rental_uris":{"android":"levelo://app?vid=47b9cece-62de-43f0-80d8-9147224e7ea6","ios":"levelo://app?vid=47b9cece-62de-43f0-80d8-9147224e7ea6"},"vehicle_type_id":"4","last_reported":1758867326,"current_range_meters":16400,"station_id":"ce4bgjp2rcd13ifvqbh0","pricing_plan_id":"cebpf4jnsgd1na2vs0mg"},{"bike_id":"ed9cb993-e73e-4bf9-bde7-359909bd4edf","system_id":"levelo_inurba_marseille","lat":43.30535,"lon":5.36544,"is_reserved":false,"is_disabled":false,"rental_uris":{"android":"levelo://app?vid=ed9cb993-e73e-4bf9-bde7-359909bd4edf","ios":"levelo://app?vid=ed9cb993-e73e-4bf9-bde7-359909bd4edf"},"vehicle_type_id":"4","last_reported":1758867326,"current_range_meters":16400,"station_id":"ce4bgs12rcd13ifvqcag","pricing_plan_id":"cebpf4jnsgd1na2vs0mg"},{"bike_id":"ece36685-817e-47c1-b130-8af29913096b","system_id":"levelo_inurba_marseille","lat":43.292835,"lon":5.401144,"is_reserved":false,"is_disabled":false,"rental_uris":{"android":"levelo://app?vid=ece36685-817e-47c1-b130-8af29913096b","ios":"levelo://app?vid=ece36685-817e-47c1-b130-8af29913096b"},"vehicle_type_id":"4","last_reported":1758867326,"current_range_meters":16400,"station_id":"","pricing_plan_id":"cebpf4jnsgd1na2vs0mg"},{"bike_id":"37ecf219-142b-424d-a540-aaddf3ba94ba","system_id":"levelo_inurba_marseille","lat":43.28399,"lon":5.3752,"is_reserved":false,"is_disabled":false,"rental_uris":{"android":"levelo://app?vid=37ecf219-142b-424d-a540-aaddf3ba94ba","ios":"levelo://app?vid=37ecf219-142b-424d-a540-aaddf3ba94ba"},"vehicle_type_id":"4","last_reported":1758867326,"current_range_meters":16400,"station_id":"ce4bh412rcd13ifvqds0","pricing_plan_id":"cebpf4jnsgd1na2vs0mg"},{"bike_id":"46a648bf-42a5-4fc5-b881-b77e8e43b612","system_id":"levelo_inurba_marseille","lat":43.22963,"lon":5.35405,"is_reserved":false,"is_disabled":false,"rental_uris":{"android":"levelo://app?vid=46a648bf-42a5-4fc5-b881-b77e8e43b612","ios":"levelo://app?vid=46a648bf-42a5-4fc5-b881-b77e8e43b612"},"vehicle_type_id":"4","last_reported":1758867326,"current_range_meters":16400,"station_id":"cpo3532slgdg3j2ikp40","pricing_plan_id":"cebpf4jnsgd1na2vs0mg"},{"bike_id":"8a2ff7b9-c3b5-4eb1-85e8-fa1bb804805f","system_id":"levelo_inurba_marseille","lat":43.30469,"lon":5.37912,"is_reserved":false,"is_disabled":false,"rental_uris":{"android":"levelo://app?vid=8a2ff7b9-c3b5-4eb1-85e8-fa1bb804805f","ios":"levelo://app?vid=8a2ff7b9-c3b5-4eb1-85e8-fa1bb804805f"},"vehicle_type_id":"4","last_reported":1758867326,"current_range_meters":16400,"station_id":"ce4bgup2rcd13ifvqcn0","pricing_plan_id":"cebpf4jnsgd1na2vs0mg"},{"bike_id":"ca5b8071-3505-4e43-9710-fe6ca0bbf864","system_id":"levelo_inurba_marseille","lat":43.26562,"lon":5.40327,"is_reserved":false,"is_disabled":false,"rental_uris":{"android":"levelo://app?vid=ca5b8071-3505-4e43-9710-fe6ca0bbf864","ios":"levelo://app?vid=ca5b8071-3505-4e43-9710-fe6ca0bbf864"},"vehicle_type_id":"4","last_reported":1758867326,"current_range_meters":16400,"station_id":"ce4bhmp2rcd13ifvqgng","pricing_plan_id":"cebpf4jnsgd1na2vs0mg"},{"bike_id":"b2fc922b-ff47-4f68-9531-9abaa818a9ad","system_id":"levelo_inurba_marseille","lat":43.24963,"lon":5.40501,"is_reserved":false,"is_disabled":false,"rental_uris":{"android":"levelo://app?vid=b2fc922b-ff47-4f68-9531-9abaa818a9ad","ios":"levelo://app?vid=b2fc922b-ff47-4f68-9531-9abaa818a9ad"},"vehicle_type_id":"4","last_reported":1758867326,"current_range_meters":16400,"station_id":"st_d2ngiaodas8pm72gd1h0","pricing_plan_id":"cebpf4jnsgd1na2vs0mg"},{"bike_id":"50f77f59-3719-48a5-9af3-228bcc006dcf","system_id":"levelo_inurba_marseille","lat":43.289449,"lon":5.364039,"is_reserved":false,"is_disabled":false,"rental_uris":{"android":"levelo://app?vid=50f77f59-3719-48a5-9af3-228bcc006dcf","ios":"levelo://app?vid=50f77f59-3719-48a5-9af3-228bcc006dcf"},"vehicle_type_id":"4","last_reported":1758867326,"current_range_meters":16000,"station_id":"ce4bhc92rcd13ifvqetg","pricing_plan_id":"cebpf4jnsgd1na2vs0mg"},{"bike_id":"175ed984-4779-4b98-920a-039ca300eaa4","system_id":"levelo_inurba_marseille","lat":43.27291,"lon":5.40824,"is_reserved":false,"is_disabled":false,"rental_uris":{"android":"levelo://app?vid=175ed984-4779-4b98-920a-039ca300eaa4","ios":"levelo://app?vid=175ed984-4779-4b98-920a-039ca300eaa4"},"vehicle_type_id":"4","last_reported":1758867326,"current_range_meters":16800,"station_id":"","pricing_plan_id":"cebpf4jnsgd1na2vs0mg"},{"bike_id":"b3aa8554-294d-4ee6-b3d2-0db8f664991a","system_id":"levelo_inurba_marseille","lat":43.28925,"lon":5.38399,"is_reserved":false,"is_disabled":false,"rental_uris":{"android":"levelo://app?vid=b3aa8554-294d-4ee6-b3d2-0db8f664991a","ios":"levelo://app?vid=b3aa8554-294d-4ee6-b3d2-0db8f664991a"},"vehicle_type_id":"4","last_reported":1758867326,"current_range_meters":16800,"station_id":"ce4bh612rcd13ifvqe6g","pricing_plan_id":"cebpf4jnsgd1na2vs0mg"},{"bike_id":"1f06a3e3-12af-42ce-879d-764cd221ec77","system_id":"levelo_inurba_marseille","lat":43.28108,"lon":5.37845,"is_reserved":false,"is_disabled":false,"rental_uris":{"android":"levelo://app?vid=1f06a3e3-12af-42ce-879d-764cd221ec77","ios":"levelo://app?vid=1f06a3e3-12af-42ce-879d-764cd221ec77"},"vehicle_type_id":"4","last_reported":1758867326,"current_range_meters":16800,"station_id":"ce4bha12rcd13ifvqee0","pricing_plan_id":"cebpf4jnsgd1na2vs0mg"},{"bike_id":"03d0b2ac-e3dd-4bbc-936c-40e7e3a2fb57","system_id":"levelo_inurba_marseille","lat":43.2619,"lon":5.37449,"is_reserved":false,"is_disabled":false,"rental_uris":{"android":"levelo://app?vid=03d0b2ac-e3dd-4bbc-936c-40e7e3a2fb57","ios":"levelo://app?vid=03d0b2ac-e3dd-4bbc-936c-40e7e3a2fb57"},"vehicle_type_id":"4","last_reported":1758867326,"current_range_meters":16800,"station_id":"ce4bhgp2rcd13ifvqfc0","pricing_plan_id":"cebpf4jnsgd1na2vs0mg"},{"bike_id":"353d16a4-65e9-4896-ad53-df82bb14ace3","system_id":"levelo_inurba_marseille","lat":43.28435,"lon":5.34999,"is_reserved":false,"is_disabled":false,"rental_uris":{"android":"levelo://app?vid=353d16a4-65e9-4896-ad53-df82bb14ace3","ios":"levelo://app?vid=353d16a4-65e9-4896-ad53-df82bb14ace3"},"vehicle_type_id":"4","last_reported":1758867326,"current_range_meters":16800,"station_id":"ce4bhbh2rcd13ifvqepg","pricing_plan_id":"cebpf4jnsgd1na2vs0mg"},{"bike_id":"85782661-163d-4a8b-b5a4-1f0a766faaa2","system_id":"levelo_inurba_marseille","lat":43.2463,"lon":5.43148,"is_reserved":false,"is_disabled":false,"rental_uris":{"android":"levelo://app?vid=85782661-163d-4a8b-b5a4-1f0a766faaa2","ios":"levelo://app?vid=85782661-163d-4a8b-b5a4-1f0a766faaa2"},"vehicle_type_id":"4","last_reported":1758867326,"current_range_meters":16800,"station_id":"st_d2m6c4gdas8pm72e190g","pricing_plan_id":"cebpf4jnsgd1na2vs0mg"},{"bike_id":"3fc6698d-a4e5-4be5-8247-ee21233a204b","system_id":"levelo_inurba_marseille","lat":43.32545,"lon":5.41432,"is_reserved":false,"is_disabled":false,"rental_uris":{"android":"levelo://app?vid=3fc6698d-a4e5-4be5-8247-ee21233a204b","ios":"levelo://app?vid=3fc6698d-a4e5-4be5-8247-ee21233a204b"},"vehicle_type_id":"4","last_reported":1758867326,"current_range_meters":16800,"station_id":"ce4bhq12rcd13ifvqhhg","pricing_plan_id":"cebpf4jnsgd1na2vs0mg"},{"bike_id":"b5bbfa8d-a253-4024-a82b-a7cc298aeeaa","system_id":"levelo_inurba_marseille","lat":43.27493,"lon":5.42455,"is_reserved":false,"is_disabled":false,"rental_uris":{"android":"levelo://app?vid=b5bbfa8d-a253-4024-a82b-a7cc298aeeaa","ios":"levelo://app?vid=b5bbfa8d-a253-4024-a82b-a7cc298aeeaa"},"vehicle_type_id":"4","last_reported":1758867326,"current_range_meters":16800,"station_id":"ce4bhn92rcd13ifvqgrg","pricing_plan_id":"cebpf4jnsgd1na2vs0mg"},{"bike_id":"1c335028-d218-4631-ac68-b88b43598f36","system_id":"levelo_inurba_marseille","lat":43.290287,"lon":5.386313,"is_reserved":false,"is_disabled":false,"rental_uris":{"android":"levelo://app?vid=1c335028-d218-4631-ac68-b88b43598f36","ios":"levelo://app?vid=1c335028-d218-4631-ac68-b88b43598f36"},"vehicle_type_id":"4","last_reported":1758867326,"current_range_meters":16800,"station_id":"ce4bh4p2rcd13ifvqe0g","pricing_plan_id":"cebpf4jnsgd1na2vs0mg"},{"bike_id":"fee74e98-eb52-4f66-a612-109c75f34aa6","system_id":"levelo_inurba_marseille","lat":43.29599,"lon":5.37948,"is_reserved":false,"is_disabled":false,"rental_uris":{"android":"levelo://app?vid=fee74e98-eb52-4f66-a612-109c75f34aa6","ios":"levelo://app?vid=fee74e98-eb52-4f66-a612-109c75f34aa6"},"vehicle_type_id":"4","last_reported":1758867326,"current_range_meters":16800,"station_id":"","pricing_plan_id":"cebpf4jnsgd1na2vs0mg"},{"bike_id":"74a0cd52-f718-4bdb-9392-0d4318de3a49","system_id":"levelo_inurba_marseille","lat":43.32347,"lon":5.40628,"is_reserved":false,"is_disabled":false,"rental_uris":{"android":"levelo://app?vid=74a0cd52-f718-4bdb-9392-0d4318de3a49","ios":"levelo://app?vid=74a0cd52-f718-4bdb-9392-0d4318de3a49"},"vehicle_type_id":"4","last_reported":1758867326,"current_range_meters":16800,"station_id":"ce4bhq92rcd13ifvqhjg","pricing_plan_id":"cebpf4jnsgd1na2vs0mg"},{"bike_id":"2a416e7a-1803-402e-9523-74bfe690bd54","system_id":"levelo_inurba_marseille","lat":43.32365,"lon":5.36767,"is_reserved":false,"is_disabled":false,"rental_uris":{"android":"levelo://app?vid=2a416e7a-1803-402e-9523-74bfe690bd54","ios":"levelo://app?vid=2a416e7a-1803-402e-9523-74bfe690bd54"},"vehicle_type_id":"4","last_reported":1758867326,"current_range_meters":16800,"station_id":"ce4bhsh2rcd13ifvqi2g","pricing_plan_id":"cebpf4jnsgd1na2vs0mg"},{"bike_id":"ea0b1272-7d43-4c20-bfe3-bf152137cb8d","system_id":"levelo_inurba_marseille","lat":43.29026,"lon":5.38136,"is_reserved":false,"is_disabled":false,"rental_uris":{"android":"levelo://app?vid=ea0b1272-7d43-4c20-bfe3-bf152137cb8d","ios":"levelo://app?vid=ea0b1272-7d43-4c20-bfe3-bf152137cb8d"},"vehicle_type_id":"4","last_reported":1758867326,"current_range_meters":17200,"station_id":"ce4bh4p2rcd13ifvqe1g","pricing_plan_id":"cebpf4jnsgd1na2vs0mg"},{"bike_id":"921f5745-26f0-4730-989a-b294ef5221a0","system_id":"levelo_inurba_marseille","lat":43.28949,"lon":5.39635,"is_reserved":false,"is_disabled":false,"rental_uris":{"android":"levelo://app?vid=921f5745-26f0-4730-989a-b294ef5221a0","ios":"levelo://app?vid=921f5745-26f0-4730-989a-b294ef5221a0"},"vehicle_type_id":"4","last_reported":1758867326,"current_range_meters":17200,"station_id":"ce4bh3h2rcd13ifvqdn0","pricing_plan_id":"cebpf4jnsgd1na2vs0mg"},{"bike_id":"63d52c35-c9c9-44eb-9780-1b2f9145123b","system_id":"levelo_inurba_marseille","lat":43.29627,"lon":5.377037,"is_reserved":false,"is_disabled":false,"rental_uris":{"android":"levelo://app?vid=63d52c35-c9c9-44eb-9780-1b2f9145123b","ios":"levelo://app?vid=63d52c35-c9c9-44eb-9780-1b2f9145123b"},"vehicle_type_id":"4","last_reported":1758867326,"current_range_meters":17200,"station_id":"","pricing_plan_id":"cebpf4jnsgd1na2vs0mg"},{"bike_id":"4a134abe-eeb4-464d-9784-77fc57760245","system_id":"levelo_inurba_marseille","lat":43.29455,"lon":5.39752,"is_reserved":false,"is_disabled":false,"rental_uris":{"android":"levelo://app?vid=4a134abe-eeb4-464d-9784-77fc57760245","ios":"levelo://app?vid=4a134abe-eeb4-464d-9784-77fc57760245"},"vehicle_type_id":"4","last_reported":1758867326,"current_range_meters":17200,"station_id":"ce4bhmp2rcd13ifvqgng","pricing_plan_id":"cebpf4jnsgd1na2vs0mg"},{"bike_id":"01bf55f2-4ac6-46f6-8504-3267bf31e1a6","system_id":"levelo_inurba_marseille","lat":43.2973,"lon":5.381787,"is_reserved":false,"is_disabled":false,"rental_uris":{"android":"levelo://app?vid=01bf55f2-4ac6-46f6-8504-3267bf31e1a6","ios":"levelo://app?vid=01bf55f2-4ac6-46f6-8504-3267bf31e1a6"},"vehicle_type_id":"4","last_reported":1758867326,"current_range_meters":17200,"station_id":"","pricing_plan_id":"cebpf4jnsgd1na2vs0mg"},{"bike_id":"d2c76f28-de75-475b-a585-dd5fe8122538","system_id":"levelo_inurba_marseille","lat":43.240696,"lon":5.377659,"is_reserved":false,"is_disabled":false,"rental_uris":{"android":"levelo://app?vid=d2c76f28-de75-475b-a585-dd5fe8122538","ios":"levelo://app?vid=d2c76f28-de75-475b-a585-dd5fe8122538"},"vehicle_type_id":"4","last_reported":1758867326,"current_range_meters":18800,"station_id":"ce4bhnp2rcd13ifvqgvg","pricing_plan_id":"cebpf4jnsgd1na2vs0mg"},{"bike_id":"c973dbb4-81a7-4731-a850-2666ddbc48bd","system_id":"levelo_inurba_marseille","lat":43.28194,"lon":5.42661,"is_reserved":false,"is_disabled":false,"rental_uris":{"android":"levelo://app?vid=c973dbb4-81a7-4731-a850-2666ddbc48bd","ios":"levelo://app?vid=c973dbb4-81a7-4731-a850-2666ddbc48bd"},"vehicle_type_id":"4","last_reported":1758867326,"current_range_meters":17600,"station_id":"ce4bhnh2rcd13ifvqgug","pricing_plan_id":"cebpf4jnsgd1na2vs0mg"},{"bike_id":"43d3e43e-b792-4604-865a-4db1d5f5a46a","system_id":"levelo_inurba_marseille","lat":43.250903,"lon":5.395221,"is_reserved":false,"is_disabled":true,"rental_uris":{"android":"levelo://app?vid=43d3e43e-b792-4604-865a-4db1d5f5a46a","ios":"levelo://app?vid=43d3e43e-b792-4604-865a-4db1d5f5a46a"},"vehicle_type_id":"4","last_reported":1758867326,"current_range_meters":17600,"station_id":"ce4bhm12rcd13ifvqgkg","pricing_plan_id":"cebpf4jnsgd1na2vs0mg"},{"bike_id":"ed05e44f-85a7-45b7-8b3c-63b04374dbda","system_id":"levelo_inurba_marseille","lat":43.29006,"lon":5.35611,"is_reserved":false,"is_disabled":false,"rental_uris":{"android":"levelo://app?vid=ed05e44f-85a7-45b7-8b3c-63b04374dbda","ios":"levelo://app?vid=ed05e44f-85a7-45b7-8b3c-63b04374dbda"},"vehicle_type_id":"4","last_reported":1758867326,"current_range_meters":17200,"station_id":"ce4bhb92rcd13ifvqen0","pricing_plan_id":"cebpf4jnsgd1na2vs0mg"},{"bike_id":"3a722ba8-3e34-4960-a75b-22d080f8c311","system_id":"levelo_inurba_marseille","lat":43.24081,"lon":5.37774,"is_reserved":false,"is_disabled":false,"rental_uris":{"android":"levelo://app?vid=3a722ba8-3e34-4960-a75b-22d080f8c311","ios":"levelo://app?vid=3a722ba8-3e34-4960-a75b-22d080f8c311"},"vehicle_type_id":"4","last_reported":1758867326,"current_range_meters":17600,"station_id":"ce4bhnp2rcd13ifvqgvg","pricing_plan_id":"cebpf4jnsgd1na2vs0mg"},{"bike_id":"f7d02cdd-1af8-489d-84e6-2169828dbac6","system_id":"levelo_inurba_marseille","lat":43.30551,"lon":5.36716,"is_reserved":false,"is_disabled":false,"rental_uris":{"android":"levelo://app?vid=f7d02cdd-1af8-489d-84e6-2169828dbac6","ios":"levelo://app?vid=f7d02cdd-1af8-489d-84e6-2169828dbac6"},"vehicle_type_id":"4","last_reported":1758867326,"current_range_meters":17600,"station_id":"ce4bgrp2rcd13ifvqc9g","pricing_plan_id":"cebpf4jnsgd1na2vs0mg"},{"bike_id":"7f09bc43-02a6-468a-9182-731c83281b4a","system_id":"levelo_inurba_marseille","lat":43.26365,"lon":5.37506,"is_reserved":false,"is_disabled":false,"rental_uris":{"android":"levelo://app?vid=7f09bc43-02a6-468a-9182-731c83281b4a","ios":"levelo://app?vid=7f09bc43-02a6-468a-9182-731c83281b4a"},"vehicle_type_id":"4","last_reported":1758867326,"current_range_meters":17600,"station_id":"","pricing_plan_id":"cebpf4jnsgd1na2vs0mg"},{"bike_id":"20de3227-cd6e-45bd-a087-72c327ed4682","system_id":"levelo_inurba_marseille","lat":43.28158,"lon":5.42644,"is_reserved":false,"is_disabled":false,"rental_uris":{"android":"levelo://app?vid=20de3227-cd6e-45bd-a087-72c327ed4682","ios":"levelo://app?vid=20de3227-cd6e-45bd-a087-72c327ed4682"},"vehicle_type_id":"4","last_reported":1758867326,"current_range_meters":17600,"station_id":"ce4bhnh2rcd13ifvqgug","pricing_plan_id":"cebpf4jnsgd1na2vs0mg"},{"bike_id":"37c810c5-f9f3-4204-8f2a-22c392785077","system_id":"levelo_inurba_marseille","lat":43.27813,"lon":5.40719,"is_reserved":false,"is_disabled":false,"rental_uris":{"android":"levelo://app?vid=37c810c5-f9f3-4204-8f2a-22c392785077","ios":"levelo://app?vid=37c810c5-f9f3-4204-8f2a-22c392785077"},"vehicle_type_id":"4","last_reported":1758867326,"current_range_meters":17600,"station_id":"ce4bhnh2rcd13ifvqgtg","pricing_plan_id":"cebpf4jnsgd1na2vs0mg"},{"bike_id":"8cf842e4-76c1-4a82-ad31-66529da65dba","system_id":"levelo_inurba_marseille","lat":43.26721,"lon":5.40222,"is_reserved":false,"is_disabled":false,"rental_uris":{"android":"levelo://app?vid=8cf842e4-76c1-4a82-ad31-66529da65dba","ios":"levelo://app?vid=8cf842e4-76c1-4a82-ad31-66529da65dba"},"vehicle_type_id":"4","last_reported":1758867326,"current_range_meters":18000,"station_id":"","pricing_plan_id":"cebpf4jnsgd1na2vs0mg"},{"bike_id":"ff80ace9-5bb1-4400-92db-811f67417271","system_id":"levelo_inurba_marseille","lat":43.24952,"lon":5.40483,"is_reserved":false,"is_disabled":false,"rental_uris":{"android":"levelo://app?vid=ff80ace9-5bb1-4400-92db-811f67417271","ios":"levelo://app?vid=ff80ace9-5bb1-4400-92db-811f67417271"},"vehicle_type_id":"4","last_reported":1758867326,"current_range_meters":18000,"station_id":"st_d2ngiaodas8pm72gd1h0","pricing_plan_id":"cebpf4jnsgd1na2vs0mg"},{"bike_id":"cb158229-377d-45d3-9f9a-dfff8d06a673","system_id":"levelo_inurba_marseille","lat":43.28716,"lon":5.37935,"is_reserved":false,"is_disabled":false,"rental_uris":{"android":"levelo://app?vid=cb158229-377d-45d3-9f9a-dfff8d06a673","ios":"levelo://app?vid=cb158229-377d-45d3-9f9a-dfff8d06a673"},"vehicle_type_id":"4","last_reported":1758867326,"current_range_meters":17600,"station_id":"ce4bh9p2rcd13ifvqec0","pricing_plan_id":"cebpf4jnsgd1na2vs0mg"},{"bike_id":"74e80d7c-036c-4d08-a82d-3904c5e3b031","system_id":"levelo_inurba_marseille","lat":43.28275,"lon":5.35078,"is_reserved":false,"is_disabled":true,"rental_uris":{"android":"levelo://app?vid=74e80d7c-036c-4d08-a82d-3904c5e3b031","ios":"levelo://app?vid=74e80d7c-036c-4d08-a82d-3904c5e3b031"},"vehicle_type_id":"4","last_reported":1758867326,"current_range_meters":18000,"station_id":"ce4bhbp2rcd13ifvqerg","pricing_plan_id":"cebpf4jnsgd1na2vs0mg"},{"bike_id":"50403fee-05b6-4f96-a764-c3716edce5ad","system_id":"levelo_inurba_marseille","lat":43.24078,"lon":5.37757,"is_reserved":false,"is_disabled":false,"rental_uris":{"android":"levelo://app?vid=50403fee-05b6-4f96-a764-c3716edce5ad","ios":"levelo://app?vid=50403fee-05b6-4f96-a764-c3716edce5ad"},"vehicle_type_id":"4","last_reported":1758867326,"current_range_meters":18000,"station_id":"ce4bhnp2rcd13ifvqgvg","pricing_plan_id":"cebpf4jnsgd1na2vs0mg"},{"bike_id":"80bdba63-46f3-4274-b0d9-d9711409b6a8","system_id":"levelo_inurba_marseille","lat":43.270752,"lon":5.402497,"is_reserved":false,"is_disabled":false,"rental_uris":{"android":"levelo://app?vid=80bdba63-46f3-4274-b0d9-d9711409b6a8","ios":"levelo://app?vid=80bdba63-46f3-4274-b0d9-d9711409b6a8"},"vehicle_type_id":"4","last_reported":1758867326,"current_range_meters":18000,"station_id":"","pricing_plan_id":"cebpf4jnsgd1na2vs0mg"},{"bike_id":"144b4159-a90d-4920-935e-eb25c652b70d","system_id":"levelo_inurba_marseille","lat":43.24076,"lon":5.37792,"is_reserved":false,"is_disabled":false,"rental_uris":{"android":"levelo://app?vid=144b4159-a90d-4920-935e-eb25c652b70d","ios":"levelo://app?vid=144b4159-a90d-4920-935e-eb25c652b70d"},"vehicle_type_id":"4","last_reported":1758867326,"current_range_meters":18000,"station_id":"ce4bhnp2rcd13ifvqgvg","pricing_plan_id":"cebpf4jnsgd1na2vs0mg"},{"bike_id":"89486d6a-f02f-43a3-a0ba-1059b6b1fec2","system_id":"levelo_inurba_marseille","lat":43.343223,"lon":5.377898,"is_reserved":false,"is_disabled":false,"rental_uris":{"android":"levelo://app?vid=89486d6a-f02f-43a3-a0ba-1059b6b1fec2","ios":"levelo://app?vid=89486d6a-f02f-43a3-a0ba-1059b6b1fec2"},"vehicle_type_id":"4","last_reported":1758867326,"current_range_meters":18000,"station_id":"","pricing_plan_id":"cebpf4jnsgd1na2vs0mg"},{"bike_id":"ee925a9c-c600-454e-8837-0da5956fd25f","system_id":"levelo_inurba_marseille","lat":43.22936,"lon":5.35374,"is_reserved":false,"is_disabled":false,"rental_uris":{"android":"levelo://app?vid=ee925a9c-c600-454e-8837-0da5956fd25f","ios":"levelo://app?vid=ee925a9c-c600-454e-8837-0da5956fd25f"},"vehicle_type_id":"4","last_reported":1758867326,"current_range_meters":18000,"station_id":"cpo3532slgdg3j2ikp40","pricing_plan_id":"cebpf4jnsgd1na2vs0mg"},{"bike_id":"c3aaf357-dacd-44ee-849c-77627935c404","system_id":"levelo_inurba_marseille","lat":43.31227,"lon":5.36864,"is_reserved":false,"is_disabled":false,"rental_uris":{"android":"levelo://app?vid=c3aaf357-dacd-44ee-849c-77627935c404","ios":"levelo://app?vid=c3aaf357-dacd-44ee-849c-77627935c404"},"vehicle_type_id":"4","last_reported":1758867326,"current_range_meters":18800,"station_id":"ce4bgl92rcd13ifvqbq0","pricing_plan_id":"cebpf4jnsgd1na2vs0mg"},{"bike_id":"934ea1ec-b7f6-49a1-9efa-287317d4eb22","system_id":"levelo_inurba_marseille","lat":43.29048,"lon":5.35914,"is_reserved":false,"is_disabled":false,"rental_uris":{"android":"levelo://app?vid=934ea1ec-b7f6-49a1-9efa-287317d4eb22","ios":"levelo://app?vid=934ea1ec-b7f6-49a1-9efa-287317d4eb22"},"vehicle_type_id":"4","last_reported":1758867326,"current_range_meters":18800,"station_id":"","pricing_plan_id":"cebpf4jnsgd1na2vs0mg"},{"bike_id":"d6f6e8ce-e63b-4e33-aa59-5192ecae8cf3","system_id":"levelo_inurba_marseille","lat":43.30468,"lon":5.37908,"is_reserved":false,"is_disabled":false,"rental_uris":{"android":"levelo://app?vid=d6f6e8ce-e63b-4e33-aa59-5192ecae8cf3","ios":"levelo://app?vid=d6f6e8ce-e63b-4e33-aa59-5192ecae8cf3"},"vehicle_type_id":"4","last_reported":1758867326,"current_range_meters":18800,"station_id":"ce4bgup2rcd13ifvqcn0","pricing_plan_id":"cebpf4jnsgd1na2vs0mg"},{"bike_id":"2f213d6e-1e75-4005-b170-6c3cb20c20f9","system_id":"levelo_inurba_marseille","lat":43.2502,"lon":5.38925,"is_reserved":false,"is_disabled":true,"rental_uris":{"android":"levelo://app?vid=2f213d6e-1e75-4005-b170-6c3cb20c20f9","ios":"levelo://app?vid=2f213d6e-1e75-4005-b170-6c3cb20c20f9"},"vehicle_type_id":"4","last_reported":1758867326,"current_range_meters":18800,"station_id":"ce4bhgp2rcd13ifvqfd0","pricing_plan_id":"cebpf4jnsgd1na2vs0mg"},{"bike_id":"37707633-170b-4f52-8b6a-6909838a1ff8","system_id":"levelo_inurba_marseille","lat":43.29274,"lon":5.36851,"is_reserved":false,"is_disabled":false,"rental_uris":{"android":"levelo://app?vid=37707633-170b-4f52-8b6a-6909838a1ff8","ios":"levelo://app?vid=37707633-170b-4f52-8b6a-6909838a1ff8"},"vehicle_type_id":"4","last_reported":1758867326,"current_range_meters":18800,"station_id":"ce4bhbp2rcd13ifvqesg","pricing_plan_id":"cebpf4jnsgd1na2vs0mg"},{"bike_id":"649c9013-c16c-44c4-aca5-85ff6eb6a511","system_id":"levelo_inurba_marseille","lat":43.24946,"lon":5.40499,"is_reserved":false,"is_disabled":false,"rental_uris":{"android":"levelo://app?vid=649c9013-c16c-44c4-aca5-85ff6eb6a511","ios":"levelo://app?vid=649c9013-c16c-44c4-aca5-85ff6eb6a511"},"vehicle_type_id":"4","last_reported":1758867326,"current_range_meters":19200,"station_id":"st_d2ngiaodas8pm72gd1h0","pricing_plan_id":"cebpf4jnsgd1na2vs0mg"},{"bike_id":"8653a9f2-7966-48f0-8d3a-5a27fae5856c","system_id":"levelo_inurba_marseille","lat":43.24082,"lon":5.37757,"is_reserved":false,"is_disabled":false,"rental_uris":{"android":"levelo://app?vid=8653a9f2-7966-48f0-8d3a-5a27fae5856c","ios":"levelo://app?vid=8653a9f2-7966-48f0-8d3a-5a27fae5856c"},"vehicle_type_id":"4","last_reported":1758867326,"current_range_meters":19200,"station_id":"ce4bhnp2rcd13ifvqgvg","pricing_plan_id":"cebpf4jnsgd1na2vs0mg"},{"bike_id":"89ee2103-4913-40e6-aadf-8f023e4cfa22","system_id":"levelo_inurba_marseille","lat":43.23188,"lon":5.3553,"is_reserved":false,"is_disabled":false,"rental_uris":{"android":"levelo://app?vid=89ee2103-4913-40e6-aadf-8f023e4cfa22","ios":"levelo://app?vid=89ee2103-4913-40e6-aadf-8f023e4cfa22"},"vehicle_type_id":"4","last_reported":1758867326,"current_range_meters":19200,"station_id":"ce4bhu92rcd13ifvqi70","pricing_plan_id":"cebpf4jnsgd1na2vs0mg"},{"bike_id":"b6dfa93b-7fbb-4e8d-938c-4ef2776d5db2","system_id":"levelo_inurba_marseille","lat":43.24184,"lon":5.39728,"is_reserved":false,"is_disabled":false,"rental_uris":{"android":"levelo://app?vid=b6dfa93b-7fbb-4e8d-938c-4ef2776d5db2","ios":"levelo://app?vid=b6dfa93b-7fbb-4e8d-938c-4ef2776d5db2"},"vehicle_type_id":"4","last_reported":1758867326,"current_range_meters":19200,"station_id":"ce4bhn12rcd13ifvqgpg","pricing_plan_id":"cebpf4jnsgd1na2vs0mg"},{"bike_id":"bb81d282-6c0f-4589-a020-4d7a19ec5137","system_id":"levelo_inurba_marseille","lat":43.3115,"lon":5.39362,"is_reserved":false,"is_disabled":false,"rental_uris":{"android":"levelo://app?vid=bb81d282-6c0f-4589-a020-4d7a19ec5137","ios":"levelo://app?vid=bb81d282-6c0f-4589-a020-4d7a19ec5137"},"vehicle_type_id":"4","last_reported":1758867326,"current_range_meters":19200,"station_id":"","pricing_plan_id":"cebpf4jnsgd1na2vs0mg"},{"bike_id":"d447a6a7-2395-4231-8c24-7751783bf2d4","system_id":"levelo_inurba_marseille","lat":43.29969,"lon":5.38498,"is_reserved":false,"is_disabled":false,"rental_uris":{"android":"levelo://app?vid=d447a6a7-2395-4231-8c24-7751783bf2d4","ios":"levelo://app?vid=d447a6a7-2395-4231-8c24-7751783bf2d4"},"vehicle_type_id":"4","last_reported":1758867326,"current_range_meters":19200,"station_id":"ce4bgj92rcd13ifvqbd0","pricing_plan_id":"cebpf4jnsgd1na2vs0mg"},{"bike_id":"5393e408-2f70-40e3-a247-1b6315f01c4e","system_id":"levelo_inurba_marseille","lat":43.26949,"lon":5.38636,"is_reserved":false,"is_disabled":true,"rental_uris":{"android":"levelo://app?vid=5393e408-2f70-40e3-a247-1b6315f01c4e","ios":"levelo://app?vid=5393e408-2f70-40e3-a247-1b6315f01c4e"},"vehicle_type_id":"4","last_reported":1758867326,"current_range_meters":19200,"station_id":"ce4bhh92rcd13ifvqfh0","pricing_plan_id":"cebpf4jnsgd1na2vs0mg"},{"bike_id":"03350417-1098-4d6c-b8fe-9e64358744bf","system_id":"levelo_inurba_marseille","lat":43.31007,"lon":5.37552,"is_reserved":false,"is_disabled":false,"rental_uris":{"android":"levelo://app?vid=03350417-1098-4d6c-b8fe-9e64358744bf","ios":"levelo://app?vid=03350417-1098-4d6c-b8fe-9e64358744bf"},"vehicle_type_id":"4","last_reported":1758867326,"current_range_meters":19200,"station_id":"","pricing_plan_id":"cebpf4jnsgd1na2vs0mg"},{"bike_id":"d7e8b75e-a948-4a03-afcd-f4dda30ddf08","system_id":"levelo_inurba_marseille","lat":43.23154,"lon":5.43711,"is_reserved":false,"is_disabled":false,"rental_uris":{"android":"levelo://app?vid=d7e8b75e-a948-4a03-afcd-f4dda30ddf08","ios":"levelo://app?vid=d7e8b75e-a948-4a03-afcd-f4dda30ddf08"},"vehicle_type_id":"4","last_reported":1758867326,"current_range_meters":19200,"station_id":"","pricing_plan_id":"cebpf4jnsgd1na2vs0mg"},{"bike_id":"5c621095-8360-4508-bfef-82c2bc240c2d","system_id":"levelo_inurba_marseille","lat":43.305879,"lon":5.372289,"is_reserved":false,"is_disabled":false,"rental_uris":{"android":"levelo://app?vid=5c621095-8360-4508-bfef-82c2bc240c2d","ios":"levelo://app?vid=5c621095-8360-4508-bfef-82c2bc240c2d"},"vehicle_type_id":"4","last_reported":1758867326,"current_range_meters":19200,"station_id":"ce4bgqh2rcd13ifvqc4g","pricing_plan_id":"cebpf4jnsgd1na2vs0mg"},{"bike_id":"b49bc78d-7fcd-4c03-9f7c-2ece817f0b89","system_id":"levelo_inurba_marseille","lat":43.33608,"lon":5.41032,"is_reserved":false,"is_disabled":false,"rental_uris":{"android":"levelo://app?vid=b49bc78d-7fcd-4c03-9f7c-2ece817f0b89","ios":"levelo://app?vid=b49bc78d-7fcd-4c03-9f7c-2ece817f0b89"},"vehicle_type_id":"4","last_reported":1758867326,"current_range_meters":19600,"station_id":"ce4bhqh2rcd13ifvqhmg","pricing_plan_id":"cebpf4jnsgd1na2vs0mg"},{"bike_id":"5c035e3c-fb58-430f-9704-04d6cf4fee79","system_id":"levelo_inurba_marseille","lat":43.29716,"lon":5.37739,"is_reserved":false,"is_disabled":false,"rental_uris":{"android":"levelo://app?vid=5c035e3c-fb58-430f-9704-04d6cf4fee79","ios":"levelo://app?vid=5c035e3c-fb58-430f-9704-04d6cf4fee79"},"vehicle_type_id":"4","last_reported":1758867326,"current_range_meters":19600,"station_id":"ce4bgkh2rcd13ifvqbl0","pricing_plan_id":"cebpf4jnsgd1na2vs0mg"},{"bike_id":"26841ee7-1d21-4bc2-aa6b-5d777c351d94","system_id":"levelo_inurba_marseille","lat":43.31694,"lon":5.40482,"is_reserved":false,"is_disabled":false,"rental_uris":{"android":"levelo://app?vid=26841ee7-1d21-4bc2-aa6b-5d777c351d94","ios":"levelo://app?vid=26841ee7-1d21-4bc2-aa6b-5d777c351d94"},"vehicle_type_id":"4","last_reported":1758867326,"current_range_meters":19600,"station_id":"ce4bh012rcd13ifvqd00","pricing_plan_id":"cebpf4jnsgd1na2vs0mg"},{"bike_id":"3ebd312a-92fe-474b-8648-76694fe4e13f","system_id":"levelo_inurba_marseille","lat":43.26551,"lon":5.40325,"is_reserved":false,"is_disabled":false,"rental_uris":{"android":"levelo://app?vid=3ebd312a-92fe-474b-8648-76694fe4e13f","ios":"levelo://app?vid=3ebd312a-92fe-474b-8648-76694fe4e13f"},"vehicle_type_id":"4","last_reported":1758867326,"current_range_meters":19600,"station_id":"ce4bhmp2rcd13ifvqgng","pricing_plan_id":"cebpf4jnsgd1na2vs0mg"},{"bike_id":"6866e71a-5dcd-42be-ac63-bb674d3e10c2","system_id":"levelo_inurba_marseille","lat":43.24071,"lon":5.37765,"is_reserved":false,"is_disabled":false,"rental_uris":{"android":"levelo://app?vid=6866e71a-5dcd-42be-ac63-bb674d3e10c2","ios":"levelo://app?vid=6866e71a-5dcd-42be-ac63-bb674d3e10c2"},"vehicle_type_id":"4","last_reported":1758867326,"current_range_meters":19600,"station_id":"ce4bhnp2rcd13ifvqgvg","pricing_plan_id":"cebpf4jnsgd1na2vs0mg"},{"bike_id":"5bb42022-0e19-48bc-a5b4-218bb1d7482e","system_id":"levelo_inurba_marseille","lat":43.31277,"lon":5.37723,"is_reserved":false,"is_disabled":false,"rental_uris":{"android":"levelo://app?vid=5bb42022-0e19-48bc-a5b4-218bb1d7482e","ios":"levelo://app?vid=5bb42022-0e19-48bc-a5b4-218bb1d7482e"},"vehicle_type_id":"4","last_reported":1758867326,"current_range_meters":19600,"station_id":"","pricing_plan_id":"cebpf4jnsgd1na2vs0mg"},{"bike_id":"01f45480-95a4-4e5b-8360-a4f6ffe40fb0","system_id":"levelo_inurba_marseille","lat":43.2976,"lon":5.3712,"is_reserved":false,"is_disabled":true,"rental_uris":{"android":"levelo://app?vid=01f45480-95a4-4e5b-8360-a4f6ffe40fb0","ios":"levelo://app?vid=01f45480-95a4-4e5b-8360-a4f6ffe40fb0"},"vehicle_type_id":"4","last_reported":1758867326,"current_range_meters":19600,"station_id":"ce4bgop2rcd13ifvqc1g","pricing_plan_id":"cebpf4jnsgd1na2vs0mg"},{"bike_id":"8fefeb55-15f5-4ed9-a338-c44da45d0286","system_id":"levelo_inurba_marseille","lat":43.29278,"lon":5.36849,"is_reserved":false,"is_disabled":false,"rental_uris":{"android":"levelo://app?vid=8fefeb55-15f5-4ed9-a338-c44da45d0286","ios":"levelo://app?vid=8fefeb55-15f5-4ed9-a338-c44da45d0286"},"vehicle_type_id":"4","last_reported":1758867326,"current_range_meters":19600,"station_id":"ce4bhbp2rcd13ifvqesg","pricing_plan_id":"cebpf4jnsgd1na2vs0mg"},{"bike_id":"17d3cb87-a837-4da6-b0ac-543101e5eb45","system_id":"levelo_inurba_marseille","lat":43.30155,"lon":5.38083,"is_reserved":false,"is_disabled":false,"rental_uris":{"android":"levelo://app?vid=17d3cb87-a837-4da6-b0ac-543101e5eb45","ios":"levelo://app?vid=17d3cb87-a837-4da6-b0ac-543101e5eb45"},"vehicle_type_id":"4","last_reported":1758867326,"current_range_meters":19600,"station_id":"ce4bgjp2rcd13ifvqbh0","pricing_plan_id":"cebpf4jnsgd1na2vs0mg"},