{"last_updated":1750525678,"ttl":60,"version":"2.2","data":{"bikes":[{"bike_id":"3da29fb8-fc97-44c6-b9ac-31dd456b2fd4","system_id":"levelo_inurba_marseille","lat":43.33771,"lon":5.37424,"is_reserved":false,"is_disabled":true,"rental_uris":{"android":"levelo://app?vid=3da29fb8-fc97-44c6-b9ac-31dd456b2fd4","ios":"levelo://app?vid=3da29fb8-fc97-44c6-b9ac-31dd456b2fd4"},"vehicle_type_id":"4","last_reported":1750525678,"current_range_meters":0,"station_id":"","pricing_plan_id":"cebpf4jnsgd1na2vs0mg"},{"bike_id":"01861ad8-a8d7-4be6-816e-651927c87584","system_id":"levelo_inurba_marseille","lat":43.33751,"lon":5.37456,"is_reserved":false,"is_disabled":true,"rental_uris":{"android":"levelo://app?vid=01861ad8-a8d7-4be6-816e-651927c87584","ios":"levelo://app?vid=01861ad8-a8d7-4be6-816e-651927c87584"},"vehicle_type_id":"4","last_reported":1750525678,"current_range_meters":0,"station_id":"","pricing_plan_id":"cebpf4jnsgd1na2vs0mg"},{"bike_id":"62a493c7-4534-4419-ad43-0582de34a72a","system_id":"levelo_inurba_marseille","lat":43.21366,"lon":5.355183,"is_reserved":false,"is_disabled":true,"rental_uris":{"android":"levelo://app?vid=62a493c7-4534-4419-ad43-0582de34a72a","ios":"levelo://app?vid=62a493c7-4534-4419-ad43-0582de34a72a"},"vehicle_type_id":"4","last_reported":1750525678,"current_range_meters":0,"station_id":"","pricing_plan_id":"cebpf4jnsgd1na2vs0mg"},{"bike_id":"a85d1cbd-d782-40f2-9935-1c4c0af36539","system_id":"levelo_inurba_marseille","lat":43.292701,"lon":5.38442,"is_reserved":false,"is_disabled":true,"rental_uris":{"android":"levelo://app?vid=a85d1cbd-d782-40f2-9935-1c4c0af36539","ios":"levelo://app?vid=a85d1cbd-d782-40f2-9935-1c4c0af36539"},"vehicle_type_id":"4","last_reported":1750525678,"current_range_meters":0,"station_id":"","pricing_plan_id":"cebpf4jnsgd1na2vs0mg"},{"bike_id":"d6609b4f-333b-43c1-9ebe-8726f5e76e88","system_id":"levelo_inurba_marseille","lat":43.337444,"lon":5.374475,"is_reserved":false,"is_disabled":true,"rental_uris":{"android":"levelo://app?vid=d6609b4f-333b-43c1-9ebe-8726f5e76e88","ios":"levelo://app?vid=d6609b4f-333b-43c1-9ebe-8726f5e76e88"},"vehicle_type_id":"4","last_reported":1750525678,"current_range_meters":0,"station_id":"","pricing_plan_id":"cebpf4jnsgd1na2vs0mg"},{"bike_id":"ebf2b0f2-73a9-4b39-b5b1-d0bf6e18e671","system_id":"levelo_inurba_marseille","lat":43.3183,"lon":5.37404,"is_reserved":false,"is_disabled":true,"rental_uris":{"android":"levelo://app?vid=ebf2b0f2-73a9-4b39-b5b1-d0bf6e18e671","ios":"levelo://app?vid=ebf2b0f2-73a9-4b39-b5b1-d0bf6e18e671"},"vehicle_type_id":"4","last_reported":1750525678,"current_range_meters":0,"station_id":"","pricing_plan_id":"cebpf4jnsgd1na2vs0mg"},{"bike_id":"4cede4cf-7ca9-4e47-9559-f20c44cea124","system_id":"levelo_inurba_marseille","lat":43.24553,"lon":5.373,"is_reserved":false,"is_disabled":true,"rental_uris":{"android":"levelo://app?vid=4cede4cf-7ca9-4e47-9559-f20c44cea124","ios":"levelo://app?vid=4cede4cf-7ca9-4e47-9559-f20c44cea124"},"vehicle_type_id":"4","last_reported":1750525678,"current_range_meters":0,"station_id":"","pricing_plan_id":"cebpf4jnsgd1na2vs0mg"},{"bike_id":"45bbf0a9-fb71-4554-b265-a4213254df71","system_id":"levelo_inurba_marseille","lat":43.291958,"lon":5.357966,"is_reserved":false,"is_disabled":true,"rental_uris":{"android":"levelo://app?vid=45bbf0a9-fb71-4554-b265-a4213254df71","ios":"levelo://app?vid=45bbf0a9-fb71-4554-b265-a4213254df71"},"vehicle_type_id":"4","last_reported":1750525678,"current_range_meters":0,"station_id":"ce4bgip2rcd13ifvqbb0","pricing_plan_id":"cebpf4jnsgd1na2vs0mg"},{"bike_id":"99f46357-a2b6-4dc7-82b2-83433ca7736e","system_id":"levelo_inurba_marseille","lat":43.27616,"lon":5.3611,"is_reserved":false,"is_disabled":true,"rental_uris":{"android":"levelo://app?vid=99f46357-a2b6-4dc7-82b2-83433ca7736e","ios":"levelo://app?vid=99f46357-a2b6-4dc7-82b2-83433ca7736e"},"vehicle_type_id":"4","last_reported":1750525678,"current_range_meters":0,"station_id":"ce4bgj92rcd13ifvqbe0","pricing_plan_id":"cebpf4jnsgd1na2vs0mg"},{"bike_id":"11c108e5-79c3-486b-817a-ad76dfe7295a","system_id":"levelo_inurba_marseille","lat":43.294158,"lon":5.386009,"is_reserved":false,"is_disabled":true,"rental_uris":{"android":"levelo://app?vid=11c108e5-79c3-486b-817a-ad76dfe7295a","ios":"levelo://app?vid=11c108e5-79c3-486b-817a-ad76dfe7295a"},"vehicle_type_id":"4","last_reported":1750525678,"current_range_meters":0,"station_id":"ce4bgj92rcd13ifvqbe0","pricing_plan_id":"cebpf4jnsgd1na2vs0mg"},{"bike_id":"454ca336-5047-4412-8583-0f748ad8fac6","system_id":"levelo_inurba_marseille","lat":43.29678,"lon":5.37277,"is_reserved":false,"is_disabled":true,"rental_uris":{"android":"levelo://app?vid=454ca336-5047-4412-8583-0f748ad8fac6","ios":"levelo://app?vid=454ca336-5047-4412-8583-0f748ad8fac6"},"vehicle_type_id":"4","last_reported":1750525678,"current_range_meters":0,"station_id":"ce4bgk12rcd13ifvqbj0","pricing_plan_id":"cebpf4jnsgd1na2vs0mg"},{"bike_id":"15737ab0-df70-4bfc-838a-cb54cef109b2","system_id":"levelo_inurba_marseille","lat":43.30536,"lon":5.36558,"is_reserved":false,"is_disabled":true,"rental_uris":{"android":"levelo://app?vid=15737ab0-df70-4bfc-838a-cb54cef109b2","ios":"levelo://app?vid=15737ab0-df70-4bfc-838a-cb54cef109b2"},"vehicle_type_id":"4","last_reported":1750525678,"current_range_meters":0,"station_id":"ce4bgs12rcd13ifvqcag","pricing_plan_id":"cebpf4jnsgd1na2vs0mg"},{"bike_id":"b5ee2d60-4aba-4b06-985b-96b955125a41","system_id":"levelo_inurba_marseille","lat":43.29276,"lon":5.40117,"is_reserved":false,"is_disabled":true,"rental_uris":{"android":"levelo://app?vid=b5ee2d60-4aba-4b06-985b-96b955125a41","ios":"levelo://app?vid=b5ee2d60-4aba-4b06-985b-96b955125a41"},"vehicle_type_id":"4","last_reported":1750525678,"current_range_meters":0,"station_id":"ce4bh312rcd13ifvqdk0","pricing_plan_id":"cebpf4jnsgd1na2vs0mg"},{"bike_id":"04cd0979-f48b-4fdc-bba8-ec0ffcdcc012","system_id":"levelo_inurba_marseille","lat":43.29442,"lon":5.39747,"is_reserved":false,"is_disabled":true,"rental_uris":{"android":"levelo://app?vid=04cd0979-f48b-4fdc-bba8-ec0ffcdcc012","ios":"levelo://app?vid=04cd0979-f48b-4fdc-bba8-ec0ffcdcc012"},"vehicle_type_id":"4","last_reported":1750525678,"current_range_meters":0,"station_id":"ce4bh3h2rcd13ifvqdo0","pricing_plan_id":"cebpf4jnsgd1na2vs0mg"},{"bike_id":"381274a9-90b0-4ad3-87af-de83a2d46e40","system_id":"levelo_inurba_marseille","lat":43.29025,"lon":5.381293,"is_reserved":false,"is_disabled":true,"rental_uris":{"android":"levelo://app?vid=381274a9-90b0-4ad3-87af-de83a2d46e40","ios":"levelo://app?vid=381274a9-90b0-4ad3-87af-de83a2d46e40"},"vehicle_type_id":"4","last_reported":1750525678,"current_range_meters":0,"station_id":"ce4bh4p2rcd13ifvqe1g","pricing_plan_id":"cebpf4jnsgd1na2vs0mg"},{"bike_id":"a4c91e2f-6533-4a4f-af30-2be32cfdf8a4","system_id":"levelo_inurba_marseille","lat":43.27375,"lon":5.36257,"is_reserved":false,"is_disabled":true,"rental_uris":{"android":"levelo://app?vid=a4c91e2f-6533-4a4f-af30-2be32cfdf8a4","ios":"levelo://app?vid=a4c91e2f-6533-4a4f-af30-2be32cfdf8a4"},"vehicle_type_id":"4","last_reported":1750525678,"current_range_meters":0,"station_id":"ce4bhbh2rcd13ifvqeo0","pricing_plan_id":"cebpf4jnsgd1na2vs0mg"},{"bike_id":"7b130672-1136-47ab-ad61-90a865ea2cfd","system_id":"levelo_inurba_marseille","lat":43.29272,"lon":5.3685,"is_reserved":false,"is_disabled":true,"rental_uris":{"android":"levelo://app?vid=7b130672-1136-47ab-ad61-90a865ea2cfd","ios":"levelo://app?vid=7b130672-1136-47ab-ad61-90a865ea2cfd"},"vehicle_type_id":"4","last_reported":1750525678,"current_range_meters":0,"station_id":"ce4bhbp2rcd13ifvqesg","pricing_plan_id":"cebpf4jnsgd1na2vs0mg"},{"bike_id":"7f4a1e2c-01a0-451a-bd22-813b09d3b1a6","system_id":"levelo_inurba_marseille","lat":43.26553,"lon":5.37288,"is_reserved":false,"is_disabled":true,"rental_uris":{"android":"levelo://app?vid=7f4a1e2c-01a0-451a-bd22-813b09d3b1a6","ios":"levelo://app?vid=7f4a1e2c-01a0-451a-bd22-813b09d3b1a6"},"vehicle_type_id":"4","last_reported":1750525678,"current_range_meters":0,"station_id":"ce4bhg12rcd13ifvqf70","pricing_plan_id":"cebpf4jnsgd1na2vs0mg"},{"bike_id":"19b9a6e8-839f-418f-82cc-8d31728f5300","system_id":"levelo_inurba_marseille","lat":43.26215,"lon":5.37442,"is_reserved":false,"is_disabled":true,"rental_uris":{"android":"levelo://app?vid=19b9a6e8-839f-418f-82cc-8d31728f5300","ios":"levelo://app?vid=19b9a6e8-839f-418f-82cc-8d31728f5300"},"vehicle_type_id":"4","last_reported":1750525678,"current_range_meters":0,"station_id":"ce4bhgp2rcd13ifvqfc0","pricing_plan_id":"cebpf4jnsgd1na2vs0mg"},{"bike_id":"16d4830c-8472-4af3-9039-af39891a6820","system_id":"levelo_inurba_marseille","lat":43.24392,"lon":5.37067,"is_reserved":false,"is_disabled":true,"rental_uris":{"android":"levelo://app?vid=16d4830c-8472-4af3-9039-af39891a6820","ios":"levelo://app?vid=16d4830c-8472-4af3-9039-af39891a6820"},"vehicle_type_id":"4","last_reported":1750525678,"current_range_meters":0,"station_id":"ce4bhhh2rcd13ifvqfk0","pricing_plan_id":"cebpf4jnsgd1na2vs0mg"},{"bike_id":"411fb330-0e6d-486b-84f4-aa9daa0da215","system_id":"levelo_inurba_marseille","lat":43.255837,"lon":5.382378,"is_reserved":false,"is_disabled":true,"rental_uris":{"android":"levelo://app?vid=411fb330-0e6d-486b-84f4-aa9daa0da215","ios":"levelo://app?vid=411fb330-0e6d-486b-84f4-aa9daa0da215"},"vehicle_type_id":"4","last_reported":1750525678,"current_range_meters":0,"station_id":"ce4bhih2rcd13ifvqfs0","pricing_plan_id":"cebpf4jnsgd1na2vs0mg"},{"bike_id":"0ee9551f-ff81-4c80-aba7-0d986a764594","system_id":"levelo_inurba_marseille","lat":43.3235,"lon":5.36772,"is_reserved":false,"is_disabled":true,"rental_uris":{"android":"levelo://app?vid=0ee9551f-ff81-4c80-aba7-0d986a764594","ios":"levelo://app?vid=0ee9551f-ff81-4c80-aba7-0d986a764594"},"vehicle_type_id":"4","last_reported":1750525678,"current_range_meters":0,"station_id":"ce4bhsh2rcd13ifvqi2g","pricing_plan_id":"cebpf4jnsgd1na2vs0mg"},{"bike_id":"fe30892d-b848-41d0-810a-681e2cb10117","system_id":"levelo_inurba_marseille","lat":43.2861,"lon":5.370626,"is_reserved":false,"is_disabled":true,"rental_uris":{"android":"levelo://app?vid=fe30892d-b848-41d0-810a-681e2cb10117","ios":"levelo://app?vid=fe30892d-b848-41d0-810a-681e2cb10117"},"vehicle_type_id":"4","last_reported":1750525678,"current_range_meters":0,"station_id":"ce4bht12rcd13ifvqi60","pricing_plan_id":"cebpf4jnsgd1na2vs0mg"},{"bike_id":"632bd3fb-4113-4512-9db3-57d99bf4d8de","system_id":"levelo_inurba_marseille","lat":43.26944,"lon":5.40247,"is_reserved":false,"is_disabled":true,"rental_uris":{"android":"levelo://app?vid=632bd3fb-4113-4512-9db3-57d99bf4d8de","ios":"levelo://app?vid=632bd3fb-4113-4512-9db3-57d99bf4d8de"},"vehicle_type_id":"4","last_reported":1750525678,"current_range_meters":0,"station_id":"cjm6bp8fraef2m0cb0m0","pricing_plan_id":"cebpf4jnsgd1na2vs0mg"},{"bike_id":"4bc658a6-9ba9-406b-9d8b-1d772211d660","system_id":"levelo_inurba_marseille","lat":43.25499,"lon":5.37652,"is_reserved":false,"is_disabled":true,"rental_uris":{"android":"levelo://app?vid=4bc658a6-9ba9-406b-9d8b-1d772211d660","ios":"levelo://app?vid=4bc658a6-9ba9-406b-9d8b-1d772211d660"},"vehicle_type_id":"4","last_reported":1750525678,"current_range_meters":400,"station_id":"ce4bhh12rcd13ifvqff0","pricing_plan_id":"cebpf4jnsgd1na2vs0mg"},{"bike_id":"eb0e33b0-c011-464a-87f1-8cbf528c3a8f","system_id":"levelo_inurba_marseille","lat":43.28457,"lon":5.35899,"is_reserved":false,"is_disabled":true,"rental_uris":{"android":"levelo://app?vid=eb0e33b0-c011-464a-87f1-8cbf528c3a8f","ios":"levelo://app?vid=eb0e33b0-c011-464a-87f1-8cbf528c3a8f"},"vehicle_type_id":"4","last_reported":1750525678,"current_range_meters":800,"station_id":"ce4bhah2rcd13ifvqei0","pricing_plan_id":"cebpf4jnsgd1na2vs0mg"},{"bike_id":"21bfcefc-56ef-43e1-9f49-fa3e4b0dc74f","system_id":"levelo_inurba_marseille","lat":43.26557,"lon":5.37285,"is_reserved":false,"is_disabled":true,"rental_uris":{"android":"levelo://app?vid=21bfcefc-56ef-43e1-9f49-fa3e4b0dc74f","ios":"levelo://app?vid=21bfcefc-56ef-43e1-9f49-fa3e4b0dc74f"},"vehicle_type_id":"4","last_reported":1750525678,"current_range_meters":800,"station_id":"ce4bhg12rcd13ifvqf70","pricing_plan_id":"cebpf4jnsgd1na2vs0mg"},{"bike_id":"1b996d77-4cb8-45cc-b36d-d2cb82259a0c","system_id":"levelo_inurba_marseille","lat":43.265931,"lon":5.389943,"is_reserved":false,"is_disabled":true,"rental_uris":{"android":"levelo://app?vid=1b996d77-4cb8-45cc-b36d-d2cb82259a0c","ios":"levelo://app?vid=1b996d77-4cb8-45cc-b36d-d2cb82259a0c"},"vehicle_type_id":"4","last_reported":1750525678,"current_range_meters":800,"station_id":"ce4bhih2rcd13ifvqfs0","pricing_plan_id":"cebpf4jnsgd1na2vs0mg"},{"bike_id":"a60f5b90-0627-4822-92b9-00eacc76a604","system_id":"levelo_inurba_marseille","lat":43.25873,"lon":5.39897,"is_reserved":false,"is_disabled":true,"rental_uris":{"android":"levelo://app?vid=a60f5b90-0627-4822-92b9-00eacc76a604","ios":"levelo://app?vid=a60f5b90-0627-4822-92b9-00eacc76a604"},"vehicle_type_id":"4","last_reported":1750525678,"current_range_meters":800,"station_id":"ce4bhl92rcd13ifvqghg","pricing_plan_id":"cebpf4jnsgd1na2vs0mg"},{"bike_id":"92c2bdf1-2fbc-4923-988c-f5bd8a547c0b","system_id":"levelo_inurba_marseille","lat":43.269397,"lon":5.40245,"is_reserved":false,"is_disabled":true,"rental_uris":{"android":"levelo://app?vid=92c2bdf1-2fbc-4923-988c-f5bd8a547c0b","ios":"levelo://app?vid=92c2bdf1-2fbc-4923-988c-f5bd8a547c0b"},"vehicle_type_id":"4","last_reported":1750525678,"current_range_meters":800,"station_id":"cjm6bp8fraef2m0cb0m0","pricing_plan_id":"cebpf4jnsgd1na2vs0mg"},{"bike_id":"fcc0d248-6487-4fae-8ee7-f277a38f3302","system_id":"levelo_inurba_marseille","lat":43.21214,"lon":5.35074,"is_reserved":false,"is_disabled":true,"rental_uris":{"android":"levelo://app?vid=fcc0d248-6487-4fae-8ee7-f277a38f3302","ios":"levelo://app?vid=fcc0d248-6487-4fae-8ee7-f277a38f3302"},"vehicle_type_id":"4","last_reported":1750525678,"current_range_meters":800,"station_id":"st_cvj6sg6p6f1abm77japg","pricing_plan_id":"cebpf4jnsgd1na2vs0mg"},{"bike_id":"43f3207d-2a05-4f3a-81fd-4b72a345e0b7","system_id":"levelo_inurba_marseille","lat":43.28079,"lon":5.36649,"is_reserved":false,"is_disabled":true,"rental_uris":{"android":"levelo://app?vid=43f3207d-2a05-4f3a-81fd-4b72a345e0b7","ios":"levelo://app?vid=43f3207d-2a05-4f3a-81fd-4b72a345e0b7"},"vehicle_type_id":"4","last_reported":1750525678,"current_range_meters":1200,"station_id":"","pricing_plan_id":"cebpf4jnsgd1na2vs0mg"},{"bike_id":"2bd2d1a9-9359-4a74-9ddc-9d468e731979","system_id":"levelo_inurba_marseille","lat":43.29295,"lon":5.37448,"is_reserved":false,"is_disabled":true,"rental_uris":{"android":"levelo://app?vid=2bd2d1a9-9359-4a74-9ddc-9d468e731979","ios":"levelo://app?vid=2bd2d1a9-9359-4a74-9ddc-9d468e731979"},"vehicle_type_id":"4","last_reported":1750525678,"current_range_meters":1200,"station_id":"ce4bgi12rcd13ifvqb70","pricing_plan_id":"cebpf4jnsgd1na2vs0mg"},{"bike_id":"f3d73b5e-fbcf-442a-8c7c-d79b138af0ad","system_id":"levelo_inurba_marseille","lat":43.28932,"lon":5.36621,"is_reserved":false,"is_disabled":true,"rental_uris":{"android":"levelo://app?vid=f3d73b5e-fbcf-442a-8c7c-d79b138af0ad","ios":"levelo://app?vid=f3d73b5e-fbcf-442a-8c7c-d79b138af0ad"},"vehicle_type_id":"4","last_reported":1750525678,"current_range_meters":1200,"station_id":"ce4bhap2rcd13ifvqek0","pricing_plan_id":"cebpf4jnsgd1na2vs0mg"},{"bike_id":"dfc95747-906b-4839-aed9-6182ee5bbcee","system_id":"levelo_inurba_marseille","lat":43.27937,"lon":5.39581,"is_reserved":false,"is_disabled":true,"rental_uris":{"android":"levelo://app?vid=dfc95747-906b-4839-aed9-6182ee5bbcee","ios":"levelo://app?vid=dfc95747-906b-4839-aed9-6182ee5bbcee"},"vehicle_type_id":"4","last_reported":1750525678,"current_range_meters":1200,"station_id":"ce4bhf92rcd13ifvqf40","pricing_plan_id":"cebpf4jnsgd1na2vs0mg"},{"bike_id":"af721182-8a27-4a77-ac51-755dff54a180","system_id":"levelo_inurba_marseille","lat":43.26062,"lon":5.39401,"is_reserved":false,"is_disabled":true,"rental_uris":{"android":"levelo://app?vid=af721182-8a27-4a77-ac51-755dff54a180","ios":"levelo://app?vid=af721182-8a27-4a77-ac51-755dff54a180"},"vehicle_type_id":"4","last_reported":1750525678,"current_range_meters":1200,"station_id":"ce4bhh92rcd13ifvqfj0","pricing_plan_id":"cebpf4jnsgd1na2vs0mg"},{"bike_id":"33687bdd-227a-46e3-95a0-d0d9682e740b","system_id":"levelo_inurba_marseille","lat":43.29368,"lon":5.37845,"is_reserved":false,"is_disabled":true,"rental_uris":{"android":"levelo://app?vid=33687bdd-227a-46e3-95a0-d0d9682e740b","ios":"levelo://app?vid=33687bdd-227a-46e3-95a0-d0d9682e740b"},"vehicle_type_id":"4","last_reported":1750525678,"current_range_meters":1600,"station_id":"ce4bgjh2rcd13ifvqbf0","pricing_plan_id":"cebpf4jnsgd1na2vs0mg"},{"bike_id":"e8a03026-d6ad-4332-8235-6f158ba6f103","system_id":"levelo_inurba_marseille","lat":43.30943,"lon":5.39043,"is_reserved":false,"is_disabled":true,"rental_uris":{"android":"levelo://app?vid=e8a03026-d6ad-4332-8235-6f158ba6f103","ios":"levelo://app?vid=e8a03026-d6ad-4332-8235-6f158ba6f103"},"vehicle_type_id":"4","last_reported":1750525678,"current_range_meters":1600,"station_id":"ce4bgup2rcd13ifvqco0","pricing_plan_id":"cebpf4jnsgd1na2vs0mg"},{"bike_id":"21961644-01f6-4848-bb32-6e9637c94079","system_id":"levelo_inurba_marseille","lat":43.270546,"lon":5.423005,"is_reserved":false,"is_disabled":true,"rental_uris":{"android":"levelo://app?vid=21961644-01f6-4848-bb32-6e9637c94079","ios":"levelo://app?vid=21961644-01f6-4848-bb32-6e9637c94079"},"vehicle_type_id":"4","last_reported":1750525678,"current_range_meters":1600,"station_id":"ce4bhk92rcd13ifvqgb0","pricing_plan_id":"cebpf4jnsgd1na2vs0mg"},{"bike_id":"856ff143-4ed8-4edb-9f15-76d920e6106e","system_id":"levelo_inurba_marseille","lat":43.25866,"lon":5.39903,"is_reserved":false,"is_disabled":true,"rental_uris":{"android":"levelo://app?vid=856ff143-4ed8-4edb-9f15-76d920e6106e","ios":"levelo://app?vid=856ff143-4ed8-4edb-9f15-76d920e6106e"},"vehicle_type_id":"4","last_reported":1750525678,"current_range_meters":1600,"station_id":"ce4bhl92rcd13ifvqghg","pricing_plan_id":"cebpf4jnsgd1na2vs0mg"},{"bike_id":"e8b2899a-4211-4f31-b803-6ec5b4d26202","system_id":"levelo_inurba_marseille","lat":43.27592,"lon":5.39691,"is_reserved":false,"is_disabled":true,"rental_uris":{"android":"levelo://app?vid=e8b2899a-4211-4f31-b803-6ec5b4d26202","ios":"levelo://app?vid=e8b2899a-4211-4f31-b803-6ec5b4d26202"},"vehicle_type_id":"4","last_reported":1750525678,"current_range_meters":2000,"station_id":"","pricing_plan_id":"cebpf4jnsgd1na2vs0mg"},{"bike_id":"7b7fa96b-d4fa-43c4-bb6e-c9460e37a2f4","system_id":"levelo_inurba_marseille","lat":43.29189,"lon":5.35809,"is_reserved":false,"is_disabled":true,"rental_uris":{"android":"levelo://app?vid=7b7fa96b-d4fa-43c4-bb6e-c9460e37a2f4","ios":"levelo://app?vid=7b7fa96b-d4fa-43c4-bb6e-c9460e37a2f4"},"vehicle_type_id":"4","last_reported":1750525678,"current_range_meters":2000,"station_id":"ce4bhb12rcd13ifvqel0","pricing_plan_id":"cebpf4jnsgd1na2vs0mg"},{"bike_id":"0183650a-1a9f-4726-bd15-878bef7cc7e3","system_id":"levelo_inurba_marseille","lat":43.23957,"lon":5.36641,"is_reserved":false,"is_disabled":true,"rental_uris":{"android":"levelo://app?vid=0183650a-1a9f-4726-bd15-878bef7cc7e3","ios":"levelo://app?vid=0183650a-1a9f-4726-bd15-878bef7cc7e3"},"vehicle_type_id":"4","last_reported":1750525678,"current_range_meters":2000,"station_id":"ce4bhi12rcd13ifvqfp0","pricing_plan_id":"cebpf4jnsgd1na2vs0mg"},{"bike_id":"c03d7e9e-3fb0-4b2a-ac1c-eebe61c1dcce","system_id":"levelo_inurba_marseille","lat":43.22928,"lon":5.35377,"is_reserved":false,"is_disabled":true,"rental_uris":{"android":"levelo://app?vid=c03d7e9e-3fb0-4b2a-ac1c-eebe61c1dcce","ios":"levelo://app?vid=c03d7e9e-3fb0-4b2a-ac1c-eebe61c1dcce"},"vehicle_type_id":"4","last_reported":1750525678,"current_range_meters":2000,"station_id":"cpo3532slgdg3j2ikp40","pricing_plan_id":"cebpf4jnsgd1na2vs0mg"},{"bike_id":"35cb0325-70f2-4890-bc7f-a374885a6065","system_id":"levelo_inurba_marseille","lat":43.24579,"lon":5.37379,"is_reserved":false,"is_disabled":false,"rental_uris":{"android":"levelo://app?vid=35cb0325-70f2-4890-bc7f-a374885a6065","ios":"levelo://app?vid=35cb0325-70f2-4890-bc7f-a374885a6065"},"vehicle_type_id":"4","last_reported":1750525678,"current_range_meters":2800,"station_id":"","pricing_plan_id":"cebpf4jnsgd1na2vs0mg"},{"bike_id":"7aae5ceb-2c68-4f26-bdec-d3b6a7d4a02a","system_id":"levelo_inurba_marseille","lat":43.30299,"lon":5.39217,"is_reserved":false,"is_disabled":false,"rental_uris":{"android":"levelo://app?vid=7aae5ceb-2c68-4f26-bdec-d3b6a7d4a02a","ios":"levelo://app?vid=7aae5ceb-2c68-4f26-bdec-d3b6a7d4a02a"},"vehicle_type_id":"4","last_reported":1750525678,"current_range_meters":2800,"station_id":"ce4bgkh2rcd13ifvqbk0","pricing_plan_id":"cebpf4jnsgd1na2vs0mg"},{"bike_id":"c7db9465-0156-4f03-8777-853627570f6e","system_id":"levelo_inurba_marseille","lat":43.28667,"lon":5.38674,"is_reserved":false,"is_disabled":false,"rental_uris":{"android":"levelo://app?vid=c7db9465-0156-4f03-8777-853627570f6e","ios":"levelo://app?vid=c7db9465-0156-4f03-8777-853627570f6e"},"vehicle_type_id":"4","last_reported":1750525678,"current_range_meters":2800,"station_id":"ce4bh492rcd13ifvqdug","pricing_plan_id":"cebpf4jnsgd1na2vs0mg"},{"bike_id":"97cee987-98e8-4bde-bd33-2934d5b7ec95","system_id":"levelo_inurba_marseille","lat":43.28497,"lon":5.38563,"is_reserved":false,"is_disabled":false,"rental_uris":{"android":"levelo://app?vid=97cee987-98e8-4bde-bd33-2934d5b7ec95","ios":"levelo://app?vid=97cee987-98e8-4bde-bd33-2934d5b7ec95"},"vehicle_type_id":"4","last_reported":1750525678,"current_range_meters":2800,"station_id":"ce4bh8p2rcd13ifvqeb0","pricing_plan_id":"cebpf4jnsgd1na2vs0mg"},{"bike_id":"846e9dc6-72a5-4ba8-9e19-74933e7355f9","system_id":"levelo_inurba_marseille","lat":43.25858,"lon":5.39905,"is_reserved":false,"is_disabled":false,"rental_uris":{"android":"levelo://app?vid=846e9dc6-72a5-4ba8-9e19-74933e7355f9","ios":"levelo://app?vid=846e9dc6-72a5-4ba8-9e19-74933e7355f9"},"vehicle_type_id":"4","last_reported":1750525678,"current_range_meters":2800,"station_id":"ce4bhl92rcd13ifvqghg","pricing_plan_id":"cebpf4jnsgd1na2vs0mg"},{"bike_id":"ddc14ce5-8fc7-4754-b2aa-14e5d954ff85","system_id":"levelo_inurba_marseille","lat":43.29023,"lon":5.38631,"is_reserved":false,"is_disabled":false,"rental_uris":{"android":"levelo://app?vid=ddc14ce5-8fc7-4754-b2aa-14e5d954ff85","ios":"levelo://app?vid=ddc14ce5-8fc7-4754-b2aa-14e5d954ff85"},"vehicle_type_id":"4","last_reported":1750525678,"current_range_meters":3200,"station_id":"ce4bh4p2rcd13ifvqe0g","pricing_plan_id":"cebpf4jnsgd1na2vs0mg"},{"bike_id":"ca5bc38f-b1d8-47d6-8c63-aa65f9fb3b0c","system_id":"levelo_inurba_marseille","lat":43.30604,"lon":5.37229,"is_reserved":false,"is_disabled":false,"rental_uris":{"android":"levelo://app?vid=ca5bc38f-b1d8-47d6-8c63-aa65f9fb3b0c","ios":"levelo://app?vid=ca5bc38f-b1d8-47d6-8c63-aa65f9fb3b0c"},"vehicle_type_id":"4","last_reported":1750525678,"current_range_meters":3600,"station_id":"ce4bgqh2rcd13ifvqc4g","pricing_plan_id":"cebpf4jnsgd1na2vs0mg"},{"bike_id":"8125d1ba-ad61-4e14-832f-0d1fcc5a8e07","system_id":"levelo_inurba_marseille","lat":43.273073,"lon":5.3909,"is_reserved":false,"is_disabled":false,"rental_uris":{"android":"levelo://app?vid=8125d1ba-ad61-4e14-832f-0d1fcc5a8e07","ios":"levelo://app?vid=8125d1ba-ad61-4e14-832f-0d1fcc5a8e07"},"vehicle_type_id":"4","last_reported":1750525678,"current_range_meters":3600,"station_id":"ce4bhgp2rcd13ifvqfe0","pricing_plan_id":"cebpf4jnsgd1na2vs0mg"},{"bike_id":"ac02291e-c257-4295-8ae3-7b4e8ffc33f3","system_id":"levelo_inurba_marseille","lat":43.301392,"lon":5.374224,"is_reserved":false,"is_disabled":false,"rental_uris":{"android":"levelo://app?vid=ac02291e-c257-4295-8ae3-7b4e8ffc33f3","ios":"levelo://app?vid=ac02291e-c257-4295-8ae3-7b4e8ffc33f3"},"vehicle_type_id":"4","last_reported":1750525678,"current_range_meters":4000,"station_id":"ce4bgs92rcd13ifvqcc0","pricing_plan_id":"cebpf4jnsgd1na2vs0mg"},{"bike_id":"4c06c3b8-3e0d-46c7-bff2-d9b39bcce855","system_id":"levelo_inurba_marseille","lat":43.29876,"lon":5.38906,"is_reserved":false,"is_disabled":false,"rental_uris":{"android":"levelo://app?vid=4c06c3b8-3e0d-46c7-bff2-d9b39bcce855","ios":"levelo://app?vid=4c06c3b8-3e0d-46c7-bff2-d9b39bcce855"},"vehicle_type_id":"4","last_reported":1750525678,"current_range_meters":4000,"station_id":"ce4bh392rcd13ifvqdl0","pricing_plan_id":"cebpf4jnsgd1na2vs0mg"},{"bike_id":"b49963f7-6781-4349-8f4a-3d2b1b033932","system_id":"levelo_inurba_marseille","lat":43.28624,"lon":5.351,"is_reserved":false,"is_disabled":false,"rental_uris":{"android":"levelo://app?vid=b49963f7-6781-4349-8f4a-3d2b1b033932","ios":"levelo://app?vid=b49963f7-6781-4349-8f4a-3d2b1b033932"},"vehicle_type_id":"4","last_reported":1750525678,"current_range_meters":4000,"station_id":"ce4bhch2rcd13ifvqeug","pricing_plan_id":"cebpf4jnsgd1na2vs0mg"},{"bike_id":"218ac477-0da6-4130-9914-e91a4c50224e","system_id":"levelo_inurba_marseille","lat":43.28476,"lon":5.38431,"is_reserved":false,"is_disabled":false,"rental_uris":{"android":"levelo://app?vid=218ac477-0da6-4130-9914-e91a4c50224e","ios":"levelo://app?vid=218ac477-0da6-4130-9914-e91a4c50224e"},"vehicle_type_id":"4","last_reported":1750525678,"current_range_meters":4400,"station_id":"ce4bh512rcd13ifvqe3g","pricing_plan_id":"cebpf4jnsgd1na2vs0mg"},{"bike_id":"ed552c5c-43c0-436b-8fb7-706b9262f922","system_id":"levelo_inurba_marseille","lat":43.27073,"lon":5.40275,"is_reserved":false,"is_disabled":false,"rental_uris":{"android":"levelo://app?vid=ed552c5c-43c0-436b-8fb7-706b9262f922","ios":"levelo://app?vid=ed552c5c-43c0-436b-8fb7-706b9262f922"},"vehicle_type_id":"4","last_reported":1750525678,"current_range_meters":4400,"station_id":"ce4bhk92rcd13ifvqgc0","pricing_plan_id":"cebpf4jnsgd1na2vs0mg"},{"bike_id":"fbe532e7-2f52-46dc-822c-1466686be8c5","system_id":"levelo_inurba_marseille","lat":43.300925,"lon":5.405488,"is_reserved":false,"is_disabled":false,"rental_uris":{"android":"levelo://app?vid=fbe532e7-2f52-46dc-822c-1466686be8c5","ios":"levelo://app?vid=fbe532e7-2f52-46dc-822c-1466686be8c5"},"vehicle_type_id":"4","last_reported":1750525678,"current_range_meters":4800,"station_id":"","pricing_plan_id":"cebpf4jnsgd1na2vs0mg"},{"bike_id":"2804a2b7-5bb5-4583-af7e-8a0f2d7f63ad","system_id":"levelo_inurba_marseille","lat":43.29976,"lon":5.385,"is_reserved":false,"is_disabled":false,"rental_uris":{"android":"levelo://app?vid=2804a2b7-5bb5-4583-af7e-8a0f2d7f63ad","ios":"levelo://app?vid=2804a2b7-5bb5-4583-af7e-8a0f2d7f63ad"},"vehicle_type_id":"4","last_reported":1750525678,"current_range_meters":4800,"station_id":"ce4bgj92rcd13ifvqbd0","pricing_plan_id":"cebpf4jnsgd1na2vs0mg"},{"bike_id":"0f93a235-36d1-4640-8848-cd5e379c34c3","system_id":"levelo_inurba_marseille","lat":43.30134,"lon":5.39873,"is_reserved":false,"is_disabled":false,"rental_uris":{"android":"levelo://app?vid=0f93a235-36d1-4640-8848-cd5e379c34c3","ios":"levelo://app?vid=0f93a235-36d1-4640-8848-cd5e379c34c3"},"vehicle_type_id":"4","last_reported":1750525678,"current_range_meters":4800,"station_id":"ce4bh0h2rcd13ifvqd40","pricing_plan_id":"cebpf4jnsgd1na2vs0mg"},{"bike_id":"eb71ae7c-251b-436e-bdbe-e1dd131999c6","system_id":"levelo_inurba_marseille","lat":43.2926,"lon":5.38438,"is_reserved":false,"is_disabled":false,"rental_uris":{"android":"levelo://app?vid=eb71ae7c-251b-436e-bdbe-e1dd131999c6","ios":"levelo://app?vid=eb71ae7c-251b-436e-bdbe-e1dd131999c6"},"vehicle_type_id":"4","last_reported":1750525678,"current_range_meters":4800,"station_id":"ce4bh692rcd13ifvqea0","pricing_plan_id":"cebpf4jnsgd1na2vs0mg"},{"bike_id":"620fab10-7d39-4912-88b2-74b9b82e7076","system_id":"levelo_inurba_marseille","lat":43.26681,"lon":5.38267,"is_reserved":false,"is_disabled":false,"rental_uris":{"android":"levelo://app?vid=620fab10-7d39-4912-88b2-74b9b82e7076","ios":"levelo://app?vid=620fab10-7d39-4912-88b2-74b9b82e7076"},"vehicle_type_id":"4","last_reported":1750525678,"current_range_meters":4800,"station_id":"ce4bhg92rcd13ifvqf90","pricing_plan_id":"cebpf4jnsgd1na2vs0mg"},{"bike_id":"b429ee27-b250-4c06-95c5-e30a8fb7bd0f","system_id":"levelo_inurba_marseille","lat":43.270713,"lon":5.422797,"is_reserved":false,"is_disabled":false,"rental_uris":{"android":"levelo://app?vid=b429ee27-b250-4c06-95c5-e30a8fb7bd0f","ios":"levelo://app?vid=b429ee27-b250-4c06-95c5-e30a8fb7bd0f"},"vehicle_type_id":"4","last_reported":1750525678,"current_range_meters":4800,"station_id":"ce4bhk92rcd13ifvqgb0","pricing_plan_id":"cebpf4jnsgd1na2vs0mg"},{"bike_id":"7c023672-c9a3-4adf-a1eb-bd08c18b006c","system_id":"levelo_inurba_marseille","lat":43.27074,"lon":5.42281,"is_reserved":false,"is_disabled":false,"rental_uris":{"android":"levelo://app?vid=7c023672-c9a3-4adf-a1eb-bd08c18b006c","ios":"levelo://app?vid=7c023672-c9a3-4adf-a1eb-bd08c18b006c"},"vehicle_type_id":"4","last_reported":1750525678,"current_range_meters":4800,"station_id":"ce4bhk92rcd13ifvqgb0","pricing_plan_id":"cebpf4jnsgd1na2vs0mg"},{"bike_id":"aa78c37c-62e2-4c87-8df8-6c638ab0eb51","system_id":"levelo_inurba_marseille","lat":43.31882,"lon":5.40738,"is_reserved":false,"is_disabled":false,"rental_uris":{"android":"levelo://app?vid=aa78c37c-62e2-4c87-8df8-6c638ab0eb51","ios":"levelo://app?vid=aa78c37c-62e2-4c87-8df8-6c638ab0eb51"},"vehicle_type_id":"4","last_reported":1750525678,"current_range_meters":4800,"station_id":"ce4bhq12rcd13ifvqhig","pricing_plan_id":"cebpf4jnsgd1na2vs0mg"},{"bike_id":"3b37c758-ee15-4ae3-bffc-4baa10dc212a","system_id":"levelo_inurba_marseille","lat":43.29535,"lon":5.3855,"is_reserved":false,"is_disabled":false,"rental_uris":{"android":"levelo://app?vid=3b37c758-ee15-4ae3-bffc-4baa10dc212a","ios":"levelo://app?vid=3b37c758-ee15-4ae3-bffc-4baa10dc212a"},"vehicle_type_id":"4","last_reported":1750525678,"current_range_meters":5600,"station_id":"","pricing_plan_id":"cebpf4jnsgd1na2vs0mg"},{"bike_id":"08cd7086-88d1-4ca5-ac90-6a5a0a884ce4","system_id":"levelo_inurba_marseille","lat":43.29882,"lon":5.389,"is_reserved":false,"is_disabled":false,"rental_uris":{"android":"levelo://app?vid=08cd7086-88d1-4ca5-ac90-6a5a0a884ce4","ios":"levelo://app?vid=08cd7086-88d1-4ca5-ac90-6a5a0a884ce4"},"vehicle_type_id":"4","last_reported":1750525678,"current_range_meters":5600,"station_id":"ce4bh392rcd13ifvqdl0","pricing_plan_id":"cebpf4jnsgd1na2vs0mg"},{"bike_id":"d1202198-ba59-49b2-b3a2-cd45b43b5c10","system_id":"levelo_inurba_marseille","lat":43.25827,"lon":5.39441,"is_reserved":false,"is_disabled":false,"rental_uris":{"android":"levelo://app?vid=d1202198-ba59-49b2-b3a2-cd45b43b5c10","ios":"levelo://app?vid=d1202198-ba59-49b2-b3a2-cd45b43b5c10"},"vehicle_type_id":"4","last_reported":1750525678,"current_range_meters":5600,"station_id":"ce4bhip2rcd13ifvqft0","pricing_plan_id":"cebpf4jnsgd1na2vs0mg"},{"bike_id":"576187c2-8fe5-4805-a161-2566916e8cf5","system_id":"levelo_inurba_marseille","lat":43.30327,"lon":5.36608,"is_reserved":false,"is_disabled":false,"rental_uris":{"android":"levelo://app?vid=576187c2-8fe5-4805-a161-2566916e8cf5","ios":"levelo://app?vid=576187c2-8fe5-4805-a161-2566916e8cf5"},"vehicle_type_id":"4","last_reported":1750525678,"current_range_meters":6400,"station_id":"","pricing_plan_id":"cebpf4jnsgd1na2vs0mg"},{"bike_id":"fd566e21-e5ae-409a-83a5-048e5642b641","system_id":"levelo_inurba_marseille","lat":43.31569,"lon":5.38912,"is_reserved":false,"is_disabled":false,"rental_uris":{"android":"levelo://app?vid=fd566e21-e5ae-409a-83a5-048e5642b641","ios":"levelo://app?vid=fd566e21-e5ae-409a-83a5-048e5642b641"},"vehicle_type_id":"4","last_reported":1750525678,"current_range_meters":6400,"station_id":"","pricing_plan_id":"cebpf4jnsgd1na2vs0mg"},{"bike_id":"b1ed7186-28e2-4d8b-8d85-19ed6cd143f5","system_id":"levelo_inurba_marseille","lat":43.29528,"lon":5.38541,"is_reserved":false,"is_disabled":false,"rental_uris":{"android":"levelo://app?vid=b1ed7186-28e2-4d8b-8d85-19ed6cd143f5","ios":"levelo://app?vid=b1ed7186-28e2-4d8b-8d85-19ed6cd143f5"},"vehicle_type_id":"4","last_reported":1750525678,"current_range_meters":6400,"station_id":"ce4bgih2rcd13ifvqba0","pricing_plan_id":"cebpf4jnsgd1na2vs0mg"},{"bike_id":"a43cb46e-0f08-4bf2-9627-775af9cc6bcb","system_id":"levelo_inurba_marseille","lat":43.31266,"lon":5.40173,"is_reserved":false,"is_disabled":false,"rental_uris":{"android":"levelo://app?vid=a43cb46e-0f08-4bf2-9627-775af9cc6bcb","ios":"levelo://app?vid=a43cb46e-0f08-4bf2-9627-775af9cc6bcb"},"vehicle_type_id":"4","last_reported":1750525678,"current_range_meters":6400,"station_id":"ce4bh092rcd13ifvqd30","pricing_plan_id":"cebpf4jnsgd1na2vs0mg"},{"bike_id":"3a95767c-8b89-4b3c-ad77-aff28a0aedce","system_id":"levelo_inurba_marseille","lat":43.28356,"lon":5.38643,"is_reserved":false,"is_disabled":false,"rental_uris":{"android":"levelo://app?vid=3a95767c-8b89-4b3c-ad77-aff28a0aedce","ios":"levelo://app?vid=3a95767c-8b89-4b3c-ad77-aff28a0aedce"},"vehicle_type_id":"4","last_reported":1750525678,"current_range_meters":6400,"station_id":"ce4bh492rcd13ifvqdvg","pricing_plan_id":"cebpf4jnsgd1na2vs0mg"},{"bike_id":"ec2d30ae-ae95-4298-880d-6ff8c537d713","system_id":"levelo_inurba_marseille","lat":43.29092,"lon":5.38142,"is_reserved":false,"is_disabled":false,"rental_uris":{"android":"levelo://app?vid=ec2d30ae-ae95-4298-880d-6ff8c537d713","ios":"levelo://app?vid=ec2d30ae-ae95-4298-880d-6ff8c537d713"},"vehicle_type_id":"4","last_reported":1750525678,"current_range_meters":6400,"station_id":"ce4bh512rcd13ifvqe2g","pricing_plan_id":"cebpf4jnsgd1na2vs0mg"},{"bike_id":"f2746597-5ffd-4c1b-a8bc-b67841c11012","system_id":"levelo_inurba_marseille","lat":43.2603,"lon":5.37556,"is_reserved":false,"is_disabled":false,"rental_uris":{"android":"levelo://app?vid=f2746597-5ffd-4c1b-a8bc-b67841c11012","ios":"levelo://app?vid=f2746597-5ffd-4c1b-a8bc-b67841c11012"},"vehicle_type_id":"4","last_reported":1750525678,"current_range_meters":6400,"station_id":"ce4bhgh2rcd13ifvqfa0","pricing_plan_id":"cebpf4jnsgd1na2vs0mg"},{"bike_id":"1efbad94-14ba-411f-9935-293abfa4f949","system_id":"levelo_inurba_marseille","lat":43.26191,"lon":5.374505,"is_reserved":false,"is_disabled":false,"rental_uris":{"android":"levelo://app?vid=1efbad94-14ba-411f-9935-293abfa4f949","ios":"levelo://app?vid=1efbad94-14ba-411f-9935-293abfa4f949"},"vehicle_type_id":"4","last_reported":1750525678,"current_range_meters":6400,"station_id":"ce4bhgp2rcd13ifvqfc0","pricing_plan_id":"cebpf4jnsgd1na2vs0mg"},{"bike_id":"4d71b6c6-cc08-4531-8779-125c53dc53ff","system_id":"levelo_inurba_marseille","lat":43.31997,"lon":5.3816,"is_reserved":false,"is_disabled":false,"rental_uris":{"android":"levelo://app?vid=4d71b6c6-cc08-4531-8779-125c53dc53ff","ios":"levelo://app?vid=4d71b6c6-cc08-4531-8779-125c53dc53ff"},"vehicle_type_id":"4","last_reported":1750525678,"current_range_meters":6400,"station_id":"ce4bhr12rcd13ifvqhpg","pricing_plan_id":"cebpf4jnsgd1na2vs0mg"},{"bike_id":"68b0a320-aa97-4c77-a84d-bdcdfc4e0ab5","system_id":"levelo_inurba_marseille","lat":43.24164,"lon":5.36412,"is_reserved":false,"is_disabled":false,"rental_uris":{"android":"levelo://app?vid=68b0a320-aa97-4c77-a84d-bdcdfc4e0ab5","ios":"levelo://app?vid=68b0a320-aa97-4c77-a84d-bdcdfc4e0ab5"},"vehicle_type_id":"4","last_reported":1750525678,"current_range_meters":6400,"station_id":"cpo36qri1sfpv3e86is0","pricing_plan_id":"cebpf4jnsgd1na2vs0mg"},{"bike_id":"a8403eca-5d41-409e-afa5-28d38223ae55","system_id":"levelo_inurba_marseille","lat":43.29531,"lon":5.38556,"is_reserved":false,"is_disabled":false,"rental_uris":{"android":"levelo://app?vid=a8403eca-5d41-409e-afa5-28d38223ae55","ios":"levelo://app?vid=a8403eca-5d41-409e-afa5-28d38223ae55"},"vehicle_type_id":"4","last_reported":1750525678,"current_range_meters":6800,"station_id":"ce4bgih2rcd13ifvqba0","pricing_plan_id":"cebpf4jnsgd1na2vs0mg"},{"bike_id":"caa1124b-898b-4d1d-9045-29f0981b63a7","system_id":"levelo_inurba_marseille","lat":43.28663,"lon":5.38672,"is_reserved":false,"is_disabled":false,"rental_uris":{"android":"levelo://app?vid=caa1124b-898b-4d1d-9045-29f0981b63a7","ios":"levelo://app?vid=caa1124b-898b-4d1d-9045-29f0981b63a7"},"vehicle_type_id":"4","last_reported":1750525678,"current_range_meters":6800,"station_id":"ce4bh492rcd13ifvqdug","pricing_plan_id":"cebpf4jnsgd1na2vs0mg"},{"bike_id":"040977a8-13c0-45f8-878b-41dbebdc1a7e","system_id":"levelo_inurba_marseille","lat":43.29899,"lon":5.43679,"is_reserved":false,"is_disabled":false,"rental_uris":{"android":"levelo://app?vid=040977a8-13c0-45f8-878b-41dbebdc1a7e","ios":"levelo://app?vid=040977a8-13c0-45f8-878b-41dbebdc1a7e"},"vehicle_type_id":"4","last_reported":1750525678,"current_range_meters":6800,"station_id":"ce4bhpp2rcd13ifvqhfg","pricing_plan_id":"cebpf4jnsgd1na2vs0mg"},{"bike_id":"185a8cf3-16bf-496e-94d3-64640a9f84af","system_id":"levelo_inurba_marseille","lat":43.32106,"lon":5.36774,"is_reserved":false,"is_disabled":false,"rental_uris":{"android":"levelo://app?vid=185a8cf3-16bf-496e-94d3-64640a9f84af","ios":"levelo://app?vid=185a8cf3-16bf-496e-94d3-64640a9f84af"},"vehicle_type_id":"4","last_reported":1750525678,"current_range_meters":6800,"station_id":"ce4bhrh2rcd13ifvqhug","pricing_plan_id":"cebpf4jnsgd1na2vs0mg"},{"bike_id":"08c73f7b-0002-4ab3-b04e-abe7743ff3c8","system_id":"levelo_inurba_marseille","lat":43.298629,"lon":5.384148,"is_reserved":false,"is_disabled":false,"rental_uris":{"android":"levelo://app?vid=08c73f7b-0002-4ab3-b04e-abe7743ff3c8","ios":"levelo://app?vid=08c73f7b-0002-4ab3-b04e-abe7743ff3c8"},"vehicle_type_id":"4","last_reported":1750525678,"current_range_meters":7200,"station_id":"","pricing_plan_id":"cebpf4jnsgd1na2vs0mg"},{"bike_id":"52520cdc-7e0f-4c79-9b7b-8b6d5e3926ff","system_id":"levelo_inurba_marseille","lat":43.26558,"lon":5.3729,"is_reserved":false,"is_disabled":false,"rental_uris":{"android":"levelo://app?vid=52520cdc-7e0f-4c79-9b7b-8b6d5e3926ff","ios":"levelo://app?vid=52520cdc-7e0f-4c79-9b7b-8b6d5e3926ff"},"vehicle_type_id":"4","last_reported":1750525678,"current_range_meters":7200,"station_id":"ce4bhg12rcd13ifvqf70","pricing_plan_id":"cebpf4jnsgd1na2vs0mg"},{"bike_id":"49d1085f-6fc7-40c2-be72-4374f99774b8","system_id":"levelo_inurba_marseille","lat":43.2622,"lon":5.37439,"is_reserved":false,"is_disabled":false,"rental_uris":{"android":"levelo://app?vid=49d1085f-6fc7-40c2-be72-4374f99774b8","ios":"levelo://app?vid=49d1085f-6fc7-40c2-be72-4374f99774b8"},"vehicle_type_id":"4","last_reported":1750525678,"current_range_meters":7200,"station_id":"ce4bhgp2rcd13ifvqfc0","pricing_plan_id":"cebpf4jnsgd1na2vs0mg"},{"bike_id":"8f1841e4-01dd-4539-827b-96f8b5fb0215","system_id":"levelo_inurba_marseille","lat":43.25498,"lon":5.3765,"is_reserved":false,"is_disabled":false,"rental_uris":{"android":"levelo://app?vid=8f1841e4-01dd-4539-827b-96f8b5fb0215","ios":"levelo://app?vid=8f1841e4-01dd-4539-827b-96f8b5fb0215"},"vehicle_type_id":"4","last_reported":1750525678,"current_range_meters":7200,"station_id":"ce4bhh12rcd13ifvqff0","pricing_plan_id":"cebpf4jnsgd1na2vs0mg"},{"bike_id":"9c892bc7-8c6c-422f-852f-45bb0162d4b5","system_id":"levelo_inurba_marseille","lat":43.32064,"lon":5.41564,"is_reserved":false,"is_disabled":false,"rental_uris":{"android":"levelo://app?vid=9c892bc7-8c6c-422f-852f-45bb0162d4b5","ios":"levelo://app?vid=9c892bc7-8c6c-422f-852f-45bb0162d4b5"},"vehicle_type_id":"4","last_reported":1750525678,"current_range_meters":7200,"station_id":"ce4bhq92rcd13ifvqhkg","pricing_plan_id":"cebpf4jnsgd1na2vs0mg"},{"bike_id":"f018850f-f904-4ae0-ac1f-1273c5e7897c","system_id":"levelo_inurba_marseille","lat":43.324815,"lon":5.365705,"is_reserved":false,"is_disabled":false,"rental_uris":{"android":"levelo://app?vid=f018850f-f904-4ae0-ac1f-1273c5e7897c","ios":"levelo://app?vid=f018850f-f904-4ae0-ac1f-1273c5e7897c"},"vehicle_type_id":"4","last_reported":1750525678,"current_range_meters":7200,"station_id":"ce4bhs12rcd13ifvqhvg","pricing_plan_id":"cebpf4jnsgd1na2vs0mg"},{"bike_id":"eb708a20-d1b9-4d97-9e32-c1ba7d416bea","system_id":"levelo_inurba_marseille","lat":43.23064,"lon":5.35497,"is_reserved":false,"is_disabled":false,"rental_uris":{"android":"levelo://app?vid=eb708a20-d1b9-4d97-9e32-c1ba7d416bea","ios":"levelo://app?vid=eb708a20-d1b9-4d97-9e32-c1ba7d416bea"},"vehicle_type_id":"4","last_reported":1750525678,"current_range_meters":7200,"station_id":"cpo3342slgdg3j2ifvpg","pricing_plan_id":"cebpf4jnsgd1na2vs0mg"},{"bike_id":"b7e753a6-a215-49f7-95ae-9a0c2beb1382","system_id":"levelo_inurba_marseille","lat":43.33205,"lon":5.38218,"is_reserved":false,"is_disabled":false,"rental_uris":{"android":"levelo://app?vid=b7e753a6-a215-49f7-95ae-9a0c2beb1382","ios":"levelo://app?vid=b7e753a6-a215-49f7-95ae-9a0c2beb1382"},"vehicle_type_id":"4","last_reported":1750525678,"current_range_meters":8000,"station_id":"","pricing_plan_id":"cebpf4jnsgd1na2vs0mg"},{"bike_id":"c595d0e1-c778-4abe-9c79-a9dd74f54e27","system_id":"levelo_inurba_marseille","lat":43.24477,"lon":5.37227,"is_reserved":false,"is_disabled":false,"rental_uris":{"android":"levelo://app?vid=c595d0e1-c778-4abe-9c79-a9dd74f54e27","ios":"levelo://app?vid=c595d0e1-c778-4abe-9c79-a9dd74f54e27"},"vehicle_type_id":"4","last_reported":1750525678,"current_range_meters":8000,"station_id":"","pricing_plan_id":"cebpf4jnsgd1na2vs0mg"},{"bike_id":"80483877-2fea-4ed7-8a73-7ae2ee1145fe","system_id":"levelo_inurba_marseille","lat":43.29598,"lon":5.38108,"is_reserved":false,"is_disabled":false,"rental_uris":{"android":"levelo://app?vid=80483877-2fea-4ed7-8a73-7ae2ee1145fe","ios":"levelo://app?vid=80483877-2fea-4ed7-8a73-7ae2ee1145fe"},"vehicle_type_id":"4","last_reported":1750525678,"current_range_meters":8000,"station_id":"ce4bgl12rcd13ifvqbo0","pricing_plan_id":"cebpf4jnsgd1na2vs0mg"},{"bike_id":"85715c23-1527-4589-be23-88dd2bdf3da3","system_id":"levelo_inurba_marseille","lat":43.28688,"lon":5.38674,"is_reserved":false,"is_disabled":false,"rental_uris":{"android":"levelo://app?vid=85715c23-1527-4589-be23-88dd2bdf3da3","ios":"levelo://app?vid=85715c23-1527-4589-be23-88dd2bdf3da3"},"vehicle_type_id":"4","last_reported":1750525678,"current_range_meters":8000,"station_id":"ce4bh492rcd13ifvqdug","pricing_plan_id":"cebpf4jnsgd1na2vs0mg"},{"bike_id":"24f842ad-68f3-43cf-8c85-f271b8146fcb","system_id":"levelo_inurba_marseille","lat":43.25088,"lon":5.39526,"is_reserved":false,"is_disabled":false,"rental_uris":{"android":"levelo://app?vid=24f842ad-68f3-43cf-8c85-f271b8146fcb","ios":"levelo://app?vid=24f842ad-68f3-43cf-8c85-f271b8146fcb"},"vehicle_type_id":"4","last_reported":1750525678,"current_range_meters":8000,"station_id":"ce4bhm12rcd13ifvqgkg","pricing_plan_id":"cebpf4jnsgd1na2vs0mg"},{"bike_id":"16dc22db-6c10-4dc2-ab7b-cc4c6596d23d","system_id":"levelo_inurba_marseille","lat":43.225075,"lon":5.347879,"is_reserved":false,"is_disabled":false,"rental_uris":{"android":"levelo://app?vid=16dc22db-6c10-4dc2-ab7b-cc4c6596d23d","ios":"levelo://app?vid=16dc22db-6c10-4dc2-ab7b-cc4c6596d23d"},"vehicle_type_id":"4","last_reported":1750525678,"current_range_meters":8000,"station_id":"st_cvj5dfep6f1abm77gieg","pricing_plan_id":"cebpf4jnsgd1na2vs0mg"},{"bike_id":"428fcb0b-c3aa-4119-aa12-cd281cc585d2","system_id":"levelo_inurba_marseille","lat":43.27915,"lon":5.4226,"is_reserved":false,"is_disabled":false,"rental_uris":{"android":"levelo://app?vid=428fcb0b-c3aa-4119-aa12-cd281cc585d2","ios":"levelo://app?vid=428fcb0b-c3aa-4119-aa12-cd281cc585d2"},"vehicle_type_id":"4","last_reported":1750525678,"current_range_meters":8400,"station_id":"","pricing_plan_id":"cebpf4jnsgd1na2vs0mg"},{"bike_id":"92d5f319-bafc-4e23-89e6-7b522f89ec7e","system_id":"levelo_inurba_marseille","lat":43.27638,"lon":5.42211,"is_reserved":false,"is_disabled":false,"rental_uris":{"android":"levelo://app?vid=92d5f319-bafc-4e23-89e6-7b522f89ec7e","ios":"levelo://app?vid=92d5f319-bafc-4e23-89e6-7b522f89ec7e"},"vehicle_type_id":"4","last_reported":1750525678,"current_range_meters":8400,"station_id":"","pricing_plan_id":"cebpf4jnsgd1na2vs0mg"},{"bike_id":"9642d9be-fb57-425a-a704-61103299951d","system_id":"levelo_inurba_marseille","lat":43.29924,"lon":5.37474,"is_reserved":false,"is_disabled":false,"rental_uris":{"android":"levelo://app?vid=9642d9be-fb57-425a-a704-61103299951d","ios":"levelo://app?vid=9642d9be-fb57-425a-a704-61103299951d"},"vehicle_type_id":"4","last_reported":1750525678,"current_range_meters":8400,"station_id":"ce4bgjh2rcd13ifvqbg0","pricing_plan_id":"cebpf4jnsgd1na2vs0mg"},{"bike_id":"b5d3775f-5006-4b16-b6ad-c93a4b863260","system_id":"levelo_inurba_marseille","lat":43.3111,"lon":5.37771,"is_reserved":false,"is_disabled":false,"rental_uris":{"android":"levelo://app?vid=b5d3775f-5006-4b16-b6ad-c93a4b863260","ios":"levelo://app?vid=b5d3775f-5006-4b16-b6ad-c93a4b863260"},"vehicle_type_id":"4","last_reported":1750525678,"current_range_meters":8400,"station_id":"ce4bgt92rcd13ifvqcg0","pricing_plan_id":"cebpf4jnsgd1na2vs0mg"},{"bike_id":"b461f96f-1e5d-4ccf-ae2c-49b383fb1de4","system_id":"levelo_inurba_marseille","lat":43.29028,"lon":5.38652,"is_reserved":false,"is_disabled":false,"rental_uris":{"android":"levelo://app?vid=b461f96f-1e5d-4ccf-ae2c-49b383fb1de4","ios":"levelo://app?vid=b461f96f-1e5d-4ccf-ae2c-49b383fb1de4"},"vehicle_type_id":"4","last_reported":1750525678,"current_range_meters":8400,"station_id":"ce4bh4p2rcd13ifvqe0g","pricing_plan_id":"cebpf4jnsgd1na2vs0mg"},{"bike_id":"e8367500-1700-46e3-9a64-c49fdae274f8","system_id":"levelo_inurba_marseille","lat":43.27207,"lon":5.39179,"is_reserved":false,"is_disabled":false,"rental_uris":{"android":"levelo://app?vid=e8367500-1700-46e3-9a64-c49fdae274f8","ios":"levelo://app?vid=e8367500-1700-46e3-9a64-c49fdae274f8"},"vehicle_type_id":"4","last_reported":1750525678,"current_range_meters":8400,"station_id":"ce4bhhp2rcd13ifvqfm0","pricing_plan_id":"cebpf4jnsgd1na2vs0mg"},{"bike_id":"8cf1627c-84e2-4bc2-a8b0-bbb553e4aa1e","system_id":"levelo_inurba_marseille","lat":43.30375,"lon":5.42494,"is_reserved":false,"is_disabled":false,"rental_uris":{"android":"levelo://app?vid=8cf1627c-84e2-4bc2-a8b0-bbb553e4aa1e","ios":"levelo://app?vid=8cf1627c-84e2-4bc2-a8b0-bbb553e4aa1e"},"vehicle_type_id":"4","last_reported":1750525678,"current_range_meters":8400,"station_id":"ce4bhoh2rcd13ifvqh6g","pricing_plan_id":"cebpf4jnsgd1na2vs0mg"},{"bike_id":"c679fd72-06b6-4f0e-a502-2e9bea523cd9","system_id":"levelo_inurba_marseille","lat":43.24177,"lon":5.36388,"is_reserved":false,"is_disabled":false,"rental_uris":{"android":"levelo://app?vid=c679fd72-06b6-4f0e-a502-2e9bea523cd9","ios":"levelo://app?vid=c679fd72-06b6-4f0e-a502-2e9bea523cd9"},"vehicle_type_id":"4","last_reported":1750525678,"current_range_meters":8400,"station_id":"cpo36qri1sfpv3e86is0","pricing_plan_id":"cebpf4jnsgd1na2vs0mg"},{"bike_id":"199c2831-e081-4bc0-9b94-19503817091d","system_id":"levelo_inurba_marseille","lat":43.24896,"lon":5.40669,"is_reserved":false,"is_disabled":false,"rental_uris":{"android":"levelo://app?vid=199c2831-e081-4bc0-9b94-19503817091d","ios":"levelo://app?vid=199c2831-e081-4bc0-9b94-19503817091d"},"vehicle_type_id":"4","last_reported":1750525678,"current_range_meters":8800,"station_id":"","pricing_plan_id":"cebpf4jnsgd1na2vs0mg"},{"bike_id":"8be0c02a-5082-4d4a-992d-6f6e6c3a99b9","system_id":"levelo_inurba_marseille","lat":43.26032,"lon":5.37552,"is_reserved":false,"is_disabled":false,"rental_uris":{"android":"levelo://app?vid=8be0c02a-5082-4d4a-992d-6f6e6c3a99b9","ios":"levelo://app?vid=8be0c02a-5082-4d4a-992d-6f6e6c3a99b9"},"vehicle_type_id":"4","last_reported":1750525678,"current_range_meters":8800,"station_id":"ce4bhgh2rcd13ifvqfa0","pricing_plan_id":"cebpf4jnsgd1na2vs0mg"},{"bike_id":"713b88bc-b042-4456-a1f3-9872beb3ae8c","system_id":"levelo_inurba_marseille","lat":43.25495,"lon":5.37652,"is_reserved":false,"is_disabled":false,"rental_uris":{"android":"levelo://app?vid=713b88bc-b042-4456-a1f3-9872beb3ae8c","ios":"levelo://app?vid=713b88bc-b042-4456-a1f3-9872beb3ae8c"},"vehicle_type_id":"4","last_reported":1750525678,"current_range_meters":8800,"station_id":"ce4bhh12rcd13ifvqff0","pricing_plan_id":"cebpf4jnsgd1na2vs0mg"},{"bike_id":"39e4db6c-39a1-42ec-a398-0dd1c3dbac9f","system_id":"levelo_inurba_marseille","lat":43.25498,"lon":5.3765,"is_reserved":false,"is_disabled":false,"rental_uris":{"android":"levelo://app?vid=39e4db6c-39a1-42ec-a398-0dd1c3dbac9f","ios":"levelo://app?vid=39e4db6c-39a1-42ec-a398-0dd1c3dbac9f"},"vehicle_type_id":"4","last_reported":1750525678,"current_range_meters":8800,"station_id":"ce4bhh12rcd13ifvqff0","pricing_plan_id":"cebpf4jnsgd1na2vs0mg"},{"bike_id":"83e0933c-f1d4-42c9-8da5-8ac14b7076b7","system_id":"levelo_inurba_marseille","lat":43.25574,"lon":5.38232,"is_reserved":false,"is_disabled":false,"rental_uris":{"android":"levelo://app?vid=83e0933c-f1d4-42c9-8da5-8ac14b7076b7","ios":"levelo://app?vid=83e0933c-f1d4-42c9-8da5-8ac14b7076b7"},"vehicle_type_id":"4","last_reported":1750525678,"current_range_meters":8800,"station_id":"ce4bhih2rcd13ifvqfs0","pricing_plan_id":"cebpf4jnsgd1na2vs0mg"},{"bike_id":"c646b072-2ebf-48ef-938d-86d8785b74ec","system_id":"levelo_inurba_marseille","lat":43.24176,"lon":5.3639,"is_reserved":false,"is_disabled":false,"rental_uris":{"android":"levelo://app?vid=c646b072-2ebf-48ef-938d-86d8785b74ec","ios":"levelo://app?vid=c646b072-2ebf-48ef-938d-86d8785b74ec"},"vehicle_type_id":"4","last_reported":1750525678,"current_range_meters":8800,"station_id":"cpo36qri1sfpv3e86is0","pricing_plan_id":"cebpf4jnsgd1na2vs0mg"},{"bike_id":"8300812b-c3f4-4460-a462-0c10590e5460","system_id":"levelo_inurba_marseille","lat":43.32981,"lon":5.40553,"is_reserved":false,"is_disabled":false,"rental_uris":{"android":"levelo://app?vid=8300812b-c3f4-4460-a462-0c10590e5460","ios":"levelo://app?vid=8300812b-c3f4-4460-a462-0c10590e5460"},"vehicle_type_id":"4","last_reported":1750525678,"current_range_meters":9200,"station_id":"","pricing_plan_id":"cebpf4jnsgd1na2vs0mg"},{"bike_id":"ab83e2d1-e436-414b-aeb4-ca1d9d5cc17d","system_id":"levelo_inurba_marseille","lat":43.30797,"lon":5.38163,"is_reserved":false,"is_disabled":false,"rental_uris":{"android":"levelo://app?vid=ab83e2d1-e436-414b-aeb4-ca1d9d5cc17d","ios":"levelo://app?vid=ab83e2d1-e436-414b-aeb4-ca1d9d5cc17d"},"vehicle_type_id":"4","last_reported":1750525678,"current_range_meters":9200,"station_id":"ce4bgt12rcd13ifvqce0","pricing_plan_id":"cebpf4jnsgd1na2vs0mg"},{"bike_id":"891cf0c8-56f2-4114-9273-addaa27e027b","system_id":"levelo_inurba_marseille","lat":43.29527,"lon":5.39037,"is_reserved":false,"is_disabled":false,"rental_uris":{"android":"levelo://app?vid=891cf0c8-56f2-4114-9273-addaa27e027b","ios":"levelo://app?vid=891cf0c8-56f2-4114-9273-addaa27e027b"},"vehicle_type_id":"4","last_reported":1750525678,"current_range_meters":9200,"station_id":"ce4bh3p2rcd13ifvqdp0","pricing_plan_id":"cebpf4jnsgd1na2vs0mg"},{"bike_id":"886344b9-e915-467d-84db-7c3fdfbd3e37","system_id":"levelo_inurba_marseille","lat":43.29027,"lon":5.38648,"is_reserved":false,"is_disabled":false,"rental_uris":{"android":"levelo://app?vid=886344b9-e915-467d-84db-7c3fdfbd3e37","ios":"levelo://app?vid=886344b9-e915-467d-84db-7c3fdfbd3e37"},"vehicle_type_id":"4","last_reported":1750525678,"current_range_meters":9200,"station_id":"ce4bh4p2rcd13ifvqe0g","pricing_plan_id":"cebpf4jnsgd1na2vs0mg"},{"bike_id":"2953e096-82c3-4ac6-9705-c8661fcf7878","system_id":"levelo_inurba_marseille","lat":43.254973,"lon":5.37656,"is_reserved":false,"is_disabled":false,"rental_uris":{"android":"levelo://app?vid=2953e096-82c3-4ac6-9705-c8661fcf7878","ios":"levelo://app?vid=2953e096-82c3-4ac6-9705-c8661fcf7878"},"vehicle_type_id":"4","last_reported":1750525678,"current_range_meters":9200,"station_id":"ce4bhh12rcd13ifvqff0","pricing_plan_id":"cebpf4jnsgd1na2vs0mg"},{"bike_id":"b7d02bb2-079b-445d-92a9-064d9e4ba583","system_id":"levelo_inurba_marseille","lat":43.272155,"lon":5.391793,"is_reserved":false,"is_disabled":false,"rental_uris":{"android":"levelo://app?vid=b7d02bb2-079b-445d-92a9-064d9e4ba583","ios":"levelo://app?vid=b7d02bb2-079b-445d-92a9-064d9e4ba583"},"vehicle_type_id":"4","last_reported":1750525678,"current_range_meters":9200,"station_id":"ce4bhhp2rcd13ifvqfm0","pricing_plan_id":"cebpf4jnsgd1na2vs0mg"},{"bike_id":"466322f5-f1fd-48b3-b275-82b5e7aa3b2a","system_id":"levelo_inurba_marseille","lat":43.317268,"lon":5.423953,"is_reserved":false,"is_disabled":false,"rental_uris":{"android":"levelo://app?vid=466322f5-f1fd-48b3-b275-82b5e7aa3b2a","ios":"levelo://app?vid=466322f5-f1fd-48b3-b275-82b5e7aa3b2a"},"vehicle_type_id":"4","last_reported":1750525678,"current_range_meters":9200,"station_id":"ce4bhp92rcd13ifvqhbg","pricing_plan_id":"cebpf4jnsgd1na2vs0mg"},{"bike_id":"9962e0a9-3bda-4420-97cb-18bb66db3759","system_id":"levelo_inurba_marseille","lat":43.32114,"lon":5.36771,"is_reserved":false,"is_disabled":false,"rental_uris":{"android":"levelo://app?vid=9962e0a9-3bda-4420-97cb-18bb66db3759","ios":"levelo://app?vid=9962e0a9-3bda-4420-97cb-18bb66db3759"},"vehicle_type_id":"4","last_reported":1750525678,"current_range_meters":9200,"station_id":"ce4bhrh2rcd13ifvqhug","pricing_plan_id":"cebpf4jnsgd1na2vs0mg"},{"bike_id":"cdad3616-6d2a-4c29-a0b8-b5bc84209c59","system_id":"levelo_inurba_marseille","lat":43.3273,"lon":5.39199,"is_reserved":false,"is_disabled":false,"rental_uris":{"android":"levelo://app?vid=cdad3616-6d2a-4c29-a0b8-b5bc84209c59","ios":"levelo://app?vid=cdad3616-6d2a-4c29-a0b8-b5bc84209c59"},"vehicle_type_id":"4","last_reported":1750525678,"current_range_meters":9600,"station_id":"","pricing_plan_id":"cebpf4jnsgd1na2vs0mg"},{"bike_id":"b43dd87e-b296-4299-8374-eb747fb46bf2","system_id":"levelo_inurba_marseille","lat":43.26223,"lon":5.37482,"is_reserved":false,"is_disabled":false,"rental_uris":{"android":"levelo://app?vid=b43dd87e-b296-4299-8374-eb747fb46bf2","ios":"levelo://app?vid=b43dd87e-b296-4299-8374-eb747fb46bf2"},"vehicle_type_id":"4","last_reported":1750525678,"current_range_meters":9600,"station_id":"","pricing_plan_id":"cebpf4jnsgd1na2vs0mg"},{"bike_id":"d5a70806-23b9-41b2-ae90-c702b6ff3b25","system_id":"levelo_inurba_marseille","lat":43.29928,"lon":5.3812,"is_reserved":false,"is_disabled":false,"rental_uris":{"android":"levelo://app?vid=d5a70806-23b9-41b2-ae90-c702b6ff3b25","ios":"levelo://app?vid=d5a70806-23b9-41b2-ae90-c702b6ff3b25"},"vehicle_type_id":"4","last_reported":1750525678,"current_range_meters":9600,"station_id":"ce4bgj12rcd13ifvqbc0","pricing_plan_id":"cebpf4jnsgd1na2vs0mg"},{"bike_id":"09844fea-a373-4a97-aa2e-0078b9d9f188","system_id":"levelo_inurba_marseille","lat":43.29261,"lon":5.3845,"is_reserved":false,"is_disabled":false,"rental_uris":{"android":"levelo://app?vid=09844fea-a373-4a97-aa2e-0078b9d9f188","ios":"levelo://app?vid=09844fea-a373-4a97-aa2e-0078b9d9f188"},"vehicle_type_id":"4","last_reported":1750525678,"current_range_meters":9600,"station_id":"ce4bh692rcd13ifvqea0","pricing_plan_id":"cebpf4jnsgd1na2vs0mg"},{"bike_id":"d6a3ced1-9f18-4836-87ac-9549b121c2a8","system_id":"levelo_inurba_marseille","lat":43.29259,"lon":5.38444,"is_reserved":false,"is_disabled":false,"rental_uris":{"android":"levelo://app?vid=d6a3ced1-9f18-4836-87ac-9549b121c2a8","ios":"levelo://app?vid=d6a3ced1-9f18-4836-87ac-9549b121c2a8"},"vehicle_type_id":"4","last_reported":1750525678,"current_range_meters":9600,"station_id":"ce4bh692rcd13ifvqea0","pricing_plan_id":"cebpf4jnsgd1na2vs0mg"},{"bike_id":"e9d8873e-d9d6-4f3e-af7f-3c8ddf587956","system_id":"levelo_inurba_marseille","lat":43.26555,"lon":5.37283,"is_reserved":false,"is_disabled":false,"rental_uris":{"android":"levelo://app?vid=e9d8873e-d9d6-4f3e-af7f-3c8ddf587956","ios":"levelo://app?vid=e9d8873e-d9d6-4f3e-af7f-3c8ddf587956"},"vehicle_type_id":"4","last_reported":1750525678,"current_range_meters":9600,"station_id":"ce4bhg12rcd13ifvqf70","pricing_plan_id":"cebpf4jnsgd1na2vs0mg"},{"bike_id":"acc7cb2b-3ff8-4bd0-9225-36c20b25a152","system_id":"levelo_inurba_marseille","lat":43.25505,"lon":5.37646,"is_reserved":false,"is_disabled":false,"rental_uris":{"android":"levelo://app?vid=acc7cb2b-3ff8-4bd0-9225-36c20b25a152","ios":"levelo://app?vid=acc7cb2b-3ff8-4bd0-9225-36c20b25a152"},"vehicle_type_id":"4","last_reported":1750525678,"current_range_meters":9600,"station_id":"ce4bhh12rcd13ifvqff0","pricing_plan_id":"cebpf4jnsgd1na2vs0mg"},{"bike_id":"dc540ba2-fb63-45eb-b83a-1826fb3d30b7","system_id":"levelo_inurba_marseille","lat":43.245934,"lon":5.392508,"is_reserved":false,"is_disabled":false,"rental_uris":{"android":"levelo://app?vid=dc540ba2-fb63-45eb-b83a-1826fb3d30b7","ios":"levelo://app?vid=dc540ba2-fb63-45eb-b83a-1826fb3d30b7"},"vehicle_type_id":"4","last_reported":1750525678,"current_range_meters":10000,"station_id":"","pricing_plan_id":"cebpf4jnsgd1na2vs0mg"},{"bike_id":"bd27fe72-6fbc-453f-8b77-bee10ab3b13c","system_id":"levelo_inurba_marseille","lat":43.29531,"lon":5.42361,"is_reserved":false,"is_disabled":false,"rental_uris":{"android":"levelo://app?vid=bd27fe72-6fbc-453f-8b77-bee10ab3b13c","ios":"levelo://app?vid=bd27fe72-6fbc-453f-8b77-bee10ab3b13c"},"vehicle_type_id":"4","last_reported":1750525678,"current_range_meters":10000,"station_id":"","pricing_plan_id":"cebpf4jnsgd1na2vs0mg"},{"bike_id":"cdb515f8-a8a1-42f1-92fe-524134722412","system_id":"levelo_inurba_marseille","lat":43.24072,"lon":5.37769,"is_reserved":false,"is_disabled":false,"rental_uris":{"android":"levelo://app?vid=cdb515f8-a8a1-42f1-92fe-524134722412","ios":"levelo://app?vid=cdb515f8-a8a1-42f1-92fe-524134722412"},"vehicle_type_id":"4","last_reported":1750525678,"current_range_meters":10000,"station_id":"ce4bhnp2rcd13ifvqgvg","pricing_plan_id":"cebpf4jnsgd1na2vs0mg"},{"bike_id":"8d5eeb77-60a3-4d69-9687-b8e6b551b11c","system_id":"levelo_inurba_marseille","lat":43.27825,"lon":5.41456,"is_reserved":false,"is_disabled":false,"rental_uris":{"android":"levelo://app?vid=8d5eeb77-60a3-4d69-9687-b8e6b551b11c","ios":"levelo://app?vid=8d5eeb77-60a3-4d69-9687-b8e6b551b11c"},"vehicle_type_id":"4","last_reported":1750525678,"current_range_meters":10800,"station_id":"","pricing_plan_id":"cebpf4jnsgd1na2vs0mg"},{"bike_id":"8ef11a45-504d-45b0-a2b5-97fef9594218","system_id":"levelo_inurba_marseille","lat":43.29566,"lon":5.38156,"is_reserved":false,"is_disabled":false,"rental_uris":{"android":"levelo://app?vid=8ef11a45-504d-45b0-a2b5-97fef9594218","ios":"levelo://app?vid=8ef11a45-504d-45b0-a2b5-97fef9594218"},"vehicle_type_id":"4","last_reported":1750525678,"current_range_meters":10800,"station_id":"","pricing_plan_id":"cebpf4jnsgd1na2vs0mg"},{"bike_id":"43336385-9998-40c0-ba4e-7131ba6d9180","system_id":"levelo_inurba_marseille","lat":43.29266,"lon":5.38426,"is_reserved":false,"is_disabled":false,"rental_uris":{"android":"levelo://app?vid=43336385-9998-40c0-ba4e-7131ba6d9180","ios":"levelo://app?vid=43336385-9998-40c0-ba4e-7131ba6d9180"},"vehicle_type_id":"4","last_reported":1750525678,"current_range_meters":10800,"station_id":"ce4bh692rcd13ifvqea0","pricing_plan_id":"cebpf4jnsgd1na2vs0mg"},{"bike_id":"f366ae90-4b34-4a15-a88b-10aee5446ef5","system_id":"levelo_inurba_marseille","lat":43.26213,"lon":5.37442,"is_reserved":false,"is_disabled":false,"rental_uris":{"android":"levelo://app?vid=f366ae90-4b34-4a15-a88b-10aee5446ef5","ios":"levelo://app?vid=f366ae90-4b34-4a15-a88b-10aee5446ef5"},"vehicle_type_id":"4","last_reported":1750525678,"current_range_meters":10800,"station_id":"ce4bhgp2rcd13ifvqfc0","pricing_plan_id":"cebpf4jnsgd1na2vs0mg"},{"bike_id":"b96dfba6-cd64-42ae-b561-205e310dea85","system_id":"levelo_inurba_marseille","lat":43.254973,"lon":5.376483,"is_reserved":false,"is_disabled":false,"rental_uris":{"android":"levelo://app?vid=b96dfba6-cd64-42ae-b561-205e310dea85","ios":"levelo://app?vid=b96dfba6-cd64-42ae-b561-205e310dea85"},"vehicle_type_id":"4","last_reported":1750525678,"current_range_meters":10800,"station_id":"ce4bhh12rcd13ifvqff0","pricing_plan_id":"cebpf4jnsgd1na2vs0mg"},{"bike_id":"70d5c458-b994-476f-aca6-276122300b7d","system_id":"levelo_inurba_marseille","lat":43.25107,"lon":5.40321,"is_reserved":false,"is_disabled":false,"rental_uris":{"android":"levelo://app?vid=70d5c458-b994-476f-aca6-276122300b7d","ios":"levelo://app?vid=70d5c458-b994-476f-aca6-276122300b7d"},"vehicle_type_id":"4","last_reported":1750525678,"current_range_meters":10800,"station_id":"ce4bhlh2rcd13ifvqgig","pricing_plan_id":"cebpf4jnsgd1na2vs0mg"},{"bike_id":"36c1f534-b292-4f36-8f3f-545f393a9f92","system_id":"levelo_inurba_marseille","lat":43.29573,"lon":5.37525,"is_reserved":false,"is_disabled":false,"rental_uris":{"android":"levelo://app?vid=36c1f534-b292-4f36-8f3f-545f393a9f92","ios":"levelo://app?vid=36c1f534-b292-4f36-8f3f-545f393a9f92"},"vehicle_type_id":"4","last_reported":1750525678,"current_range_meters":11200,"station_id":"ce4bgh92rcd13ifvqb50","pricing_plan_id":"cebpf4jnsgd1na2vs0mg"},{"bike_id":"458adab4-483c-4e1c-8aa5-896c53493fd8","system_id":"levelo_inurba_marseille","lat":43.25719,"lon":5.41114,"is_reserved":false,"is_disabled":false,"rental_uris":{"android":"levelo://app?vid=458adab4-483c-4e1c-8aa5-896c53493fd8","ios":"levelo://app?vid=458adab4-483c-4e1c-8aa5-896c53493fd8"},"vehicle_type_id":"4","last_reported":1750525678,"current_range_meters":11200,"station_id":"ce4bhkp2rcd13ifvqgd0","pricing_plan_id":"cebpf4jnsgd1na2vs0mg"},{"bike_id":"416eb0a1-af9a-48e2-9a81-27d7af4bb04f","system_id":"levelo_inurba_marseille","lat":43.314714,"lon":5.370564,"is_reserved":false,"is_disabled":false,"rental_uris":{"android":"levelo://app?vid=416eb0a1-af9a-48e2-9a81-27d7af4bb04f","ios":"levelo://app?vid=416eb0a1-af9a-48e2-9a81-27d7af4bb04f"},"vehicle_type_id":"4","last_reported":1750525678,"current_range_meters":11200,"station_id":"ce4bhrh2rcd13ifvqhug","pricing_plan_id":"cebpf4jnsgd1na2vs0mg"},{"bike_id":"b3d35200-8d0e-4d90-a072-e223d857a9e1","system_id":"levelo_inurba_marseille","lat":43.29787,"lon":5.39334,"is_reserved":false,"is_disabled":false,"rental_uris":{"android":"levelo://app?vid=b3d35200-8d0e-4d90-a072-e223d857a9e1","ios":"levelo://app?vid=b3d35200-8d0e-4d90-a072-e223d857a9e1"},"vehicle_type_id":"4","last_reported":1750525678,"current_range_meters":11200,"station_id":"chh1huq6cuj3fo74tm60","pricing_plan_id":"cebpf4jnsgd1na2vs0mg"},{"bike_id":"d40af265-11b5-43a6-9bb6-f910f57901ba","system_id":"levelo_inurba_marseille","lat":43.33033,"lon":5.38002,"is_reserved":false,"is_disabled":false,"rental_uris":{"android":"levelo://app?vid=d40af265-11b5-43a6-9bb6-f910f57901ba","ios":"levelo://app?vid=d40af265-11b5-43a6-9bb6-f910f57901ba"},"vehicle_type_id":"4","last_reported":1750525678,"current_range_meters":11600,"station_id":"","pricing_plan_id":"cebpf4jnsgd1na2vs0mg"},{"bike_id":"f4b7b561-4b6b-496d-8d4a-d2323c55bbc0","system_id":"levelo_inurba_marseille","lat":43.28917,"lon":5.3841,"is_reserved":false,"is_disabled":false,"rental_uris":{"android":"levelo://app?vid=f4b7b561-4b6b-496d-8d4a-d2323c55bbc0","ios":"levelo://app?vid=f4b7b561-4b6b-496d-8d4a-d2323c55bbc0"},"vehicle_type_id":"4","last_reported":1750525678,"current_range_meters":11600,"station_id":"ce4bh612rcd13ifvqe6g","pricing_plan_id":"cebpf4jnsgd1na2vs0mg"},{"bike_id":"3e58649e-5c00-425c-8b29-6224f6474a33","system_id":"levelo_inurba_marseille","lat":43.24401,"lon":5.37053,"is_reserved":false,"is_disabled":false,"rental_uris":{"android":"levelo://app?vid=3e58649e-5c00-425c-8b29-6224f6474a33","ios":"levelo://app?vid=3e58649e-5c00-425c-8b29-6224f6474a33"},"vehicle_type_id":"4","last_reported":1750525678,"current_range_meters":11600,"station_id":"ce4bhhh2rcd13ifvqfk0","pricing_plan_id":"cebpf4jnsgd1na2vs0mg"},{"bike_id":"4643bc90-1bac-4c4b-98b1-e2d500830573","system_id":"levelo_inurba_marseille","lat":43.31412,"lon":5.37633,"is_reserved":false,"is_disabled":false,"rental_uris":{"android":"levelo://app?vid=4643bc90-1bac-4c4b-98b1-e2d500830573","ios":"levelo://app?vid=4643bc90-1bac-4c4b-98b1-e2d500830573"},"vehicle_type_id":"4","last_reported":1750525678,"current_range_meters":12000,"station_id":"","pricing_plan_id":"cebpf4jnsgd1na2vs0mg"},{"bike_id":"a22aa312-0025-4f42-88e2-b1e95e79340f","system_id":"levelo_inurba_marseille","lat":43.31654,"lon":5.38337,"is_reserved":false,"is_disabled":false,"rental_uris":{"android":"levelo://app?vid=a22aa312-0025-4f42-88e2-b1e95e79340f","ios":"levelo://app?vid=a22aa312-0025-4f42-88e2-b1e95e79340f"},"vehicle_type_id":"4","last_reported":1750525678,"current_range_meters":12000,"station_id":"","pricing_plan_id":"cebpf4jnsgd1na2vs0mg"},{"bike_id":"05a7790f-8506-4822-a71c-618989b1a8f7","system_id":"levelo_inurba_marseille","lat":43.29534,"lon":5.38548,"is_reserved":false,"is_disabled":false,"rental_uris":{"android":"levelo://app?vid=05a7790f-8506-4822-a71c-618989b1a8f7","ios":"levelo://app?vid=05a7790f-8506-4822-a71c-618989b1a8f7"},"vehicle_type_id":"4","last_reported":1750525678,"current_range_meters":12000,"station_id":"ce4bgih2rcd13ifvqba0","pricing_plan_id":"cebpf4jnsgd1na2vs0mg"},{"bike_id":"1bb318eb-23b5-4b86-881c-47a6799711e1","system_id":"levelo_inurba_marseille","lat":43.28681,"lon":5.38667,"is_reserved":false,"is_disabled":false,"rental_uris":{"android":"levelo://app?vid=1bb318eb-23b5-4b86-881c-47a6799711e1","ios":"levelo://app?vid=1bb318eb-23b5-4b86-881c-47a6799711e1"},"vehicle_type_id":"4","last_reported":1750525678,"current_range_meters":12000,"station_id":"ce4bh492rcd13ifvqdug","pricing_plan_id":"cebpf4jnsgd1na2vs0mg"},{"bike_id":"abe40419-5919-426b-81cd-93e7c41814b1","system_id":"levelo_inurba_marseille","lat":43.29022,"lon":5.38642,"is_reserved":false,"is_disabled":false,"rental_uris":{"android":"levelo://app?vid=abe40419-5919-426b-81cd-93e7c41814b1","ios":"levelo://app?vid=abe40419-5919-426b-81cd-93e7c41814b1"},"vehicle_type_id":"4","last_reported":1750525678,"current_range_meters":12000,"station_id":"ce4bh4p2rcd13ifvqe0g","pricing_plan_id":"cebpf4jnsgd1na2vs0mg"},{"bike_id":"247b80b7-10fe-40f5-848b-d8ff192ca5b8","system_id":"levelo_inurba_marseille","lat":43.28039,"lon":5.36942,"is_reserved":false,"is_disabled":false,"rental_uris":{"android":"levelo://app?vid=247b80b7-10fe-40f5-848b-d8ff192ca5b8","ios":"levelo://app?vid=247b80b7-10fe-40f5-848b-d8ff192ca5b8"},"vehicle_type_id":"4","last_reported":1750525678,"current_range_meters":12000,"station_id":"ce4bha12rcd13ifvqef0","pricing_plan_id":"cebpf4jnsgd1na2vs0mg"},{"bike_id":"273f3904-bf29-4421-b9b7-10fb6b0b0f45","system_id":"levelo_inurba_marseille","lat":43.307353,"lon":5.42435,"is_reserved":false,"is_disabled":false,"rental_uris":{"android":"levelo://app?vid=273f3904-bf29-4421-b9b7-10fb6b0b0f45","ios":"levelo://app?vid=273f3904-bf29-4421-b9b7-10fb6b0b0f45"},"vehicle_type_id":"4","last_reported":1750525678,"current_range_meters":12000,"station_id":"st_cvj6ca6bvosntc0bfgr0","pricing_plan_id":"cebpf4jnsgd1na2vs0mg"},{"bike_id":"db990531-dd7d-416e-bf66-32c2a8eedfd0","system_id":"levelo_inurba_marseille","lat":43.30419,"lon":5.39745,"is_reserved":false,"is_disabled":false,"rental_uris":{"android":"levelo://app?vid=db990531-dd7d-416e-bf66-32c2a8eedfd0","ios":"levelo://app?vid=db990531-dd7d-416e-bf66-32c2a8eedfd0"},"vehicle_type_id":"4","last_reported":1750525678,"current_range_meters":12400,"station_id":"ce4bh092rcd13ifvqd20","pricing_plan_id":"cebpf4jnsgd1na2vs0mg"},{"bike_id":"aa5769d7-c43e-4bb2-b3a5-f81f29dc96d1","system_id":"levelo_inurba_marseille","lat":43.296081,"lon":5.370092,"is_reserved":false,"is_disabled":false,"rental_uris":{"android":"levelo://app?vid=aa5769d7-c43e-4bb2-b3a5-f81f29dc96d1","ios":"levelo://app?vid=aa5769d7-c43e-4bb2-b3a5-f81f29dc96d1"},"vehicle_type_id":"4","last_reported":1750525678,"current_range_meters":12800,"station_id":"","pricing_plan_id":"cebpf4jnsgd1na2vs0mg"},{"bike_id":"42508b69-e12c-4989-8013-4508e061d6db","system_id":"levelo_inurba_marseille","lat":43.29258,"lon":5.38433,"is_reserved":false,"is_disabled":false,"rental_uris":{"android":"levelo://app?vid=42508b69-e12c-4989-8013-4508e061d6db","ios":"levelo://app?vid=42508b69-e12c-4989-8013-4508e061d6db"},"vehicle_type_id":"4","last_reported":1750525678,"current_range_meters":12800,"station_id":"ce4bh692rcd13ifvqea0","pricing_plan_id":"cebpf4jnsgd1na2vs0mg"},{"bike_id":"efa700f5-e165-4da6-ac05-13986f90463a","system_id":"levelo_inurba_marseille","lat":43.26948,"lon":5.38623,"is_reserved":false,"is_disabled":false,"rental_uris":{"android":"levelo://app?vid=efa700f5-e165-4da6-ac05-13986f90463a","ios":"levelo://app?vid=efa700f5-e165-4da6-ac05-13986f90463a"},"vehicle_type_id":"4","last_reported":1750525678,"current_range_meters":12800,"station_id":"ce4bhh92rcd13ifvqfh0","pricing_plan_id":"cebpf4jnsgd1na2vs0mg"},{"bike_id":"88bf09e4-3a7d-4ae6-9054-21701bd604b0","system_id":"levelo_inurba_marseille","lat":43.26935,"lon":5.40262,"is_reserved":false,"is_disabled":false,"rental_uris":{"android":"levelo://app?vid=88bf09e4-3a7d-4ae6-9054-21701bd604b0","ios":"levelo://app?vid=88bf09e4-3a7d-4ae6-9054-21701bd604b0"},"vehicle_type_id":"4","last_reported":1750525678,"current_range_meters":12800,"station_id":"cjm6bp8fraef2m0cb0m0","pricing_plan_id":"cebpf4jnsgd1na2vs0mg"},{"bike_id":"1da03d90-504e-41e6-80bc-36be949b4457","system_id":"levelo_inurba_marseille","lat":43.21747,"lon":5.34604,"is_reserved":false,"is_disabled":false,"rental_uris":{"android":"levelo://app?vid=1da03d90-504e-41e6-80bc-36be949b4457","ios":"levelo://app?vid=1da03d90-504e-41e6-80bc-36be949b4457"},"vehicle_type_id":"4","last_reported":1750525678,"current_range_meters":12800,"station_id":"st_cvj6r9ubvosntc0bgbag","pricing_plan_id":"cebpf4jnsgd1na2vs0mg"},{"bike_id":"8ad554d8-80ad-41c6-83f7-fe210ab88a9d","system_id":"levelo_inurba_marseille","lat":43.2996,"lon":5.38502,"is_reserved":false,"is_disabled":false,"rental_uris":{"android":"levelo://app?vid=8ad554d8-80ad-41c6-83f7-fe210ab88a9d","ios":"levelo://app?vid=8ad554d8-80ad-41c6-83f7-fe210ab88a9d"},"vehicle_type_id":"4","last_reported":1750525678,"current_range_meters":13600,"station_id":"ce4bgj92rcd13ifvqbd0","pricing_plan_id":"cebpf4jnsgd1na2vs0mg"},{"bike_id":"47b0e8ed-1505-41e8-9bb6-271f11e0cd62","system_id":"levelo_inurba_marseille","lat":43.28021,"lon":5.36919,"is_reserved":false,"is_disabled":false,"rental_uris":{"android":"levelo://app?vid=47b0e8ed-1505-41e8-9bb6-271f11e0cd62","ios":"levelo://app?vid=47b0e8ed-1505-41e8-9bb6-271f11e0cd62"},"vehicle_type_id":"4","last_reported":1750525678,"current_range_meters":13600,"station_id":"ce4bha12rcd13ifvqef0","pricing_plan_id":"cebpf4jnsgd1na2vs0mg"},{"bike_id":"14e5a118-9329-49b0-9f0b-29d4986d8e88","system_id":"levelo_inurba_marseille","lat":43.32326,"lon":5.36584,"is_reserved":false,"is_disabled":false,"rental_uris":{"android":"levelo://app?vid=14e5a118-9329-49b0-9f0b-29d4986d8e88","ios":"levelo://app?vid=14e5a118-9329-49b0-9f0b-29d4986d8e88"},"vehicle_type_id":"4","last_reported":1750525678,"current_range_meters":13600,"station_id":"ce4bhsh2rcd13ifvqi2g","pricing_plan_id":"cebpf4jnsgd1na2vs0mg"},{"bike_id":"6e50dd28-102c-44c9-bc9c-5bfbce786422","system_id":"levelo_inurba_marseille","lat":43.29259,"lon":5.38442,"is_reserved":false,"is_disabled":false,"rental_uris":{"android":"levelo://app?vid=6e50dd28-102c-44c9-bc9c-5bfbce786422","ios":"levelo://app?vid=6e50dd28-102c-44c9-bc9c-5bfbce786422"},"vehicle_type_id":"4","last_reported":1750525678,"current_range_meters":14000,"station_id":"ce4bh692rcd13ifvqea0","pricing_plan_id":"cebpf4jnsgd1na2vs0mg"},{"bike_id":"8b499c04-8dde-4c05-8dcf-01ce074f9af5","system_id":"levelo_inurba_marseille","lat":43.26193,"lon":5.374553,"is_reserved":false,"is_disabled":false,"rental_uris":{"android":"levelo://app?vid=8b499c04-8dde-4c05-8dcf-01ce074f9af5","ios":"levelo://app?vid=8b499c04-8dde-4c05-8dcf-01ce074f9af5"},"vehicle_type_id":"4","last_reported":1750525678,"current_range_meters":14000,"station_id":"ce4bhgp2rcd13ifvqfc0","pricing_plan_id":"cebpf4jnsgd1na2vs0mg"},{"bike_id":"7a0dc686-c833-4dc9-a931-b344eaac2c82","system_id":"levelo_inurba_marseille","lat":43.29534,"lon":5.38544,"is_reserved":false,"is_disabled":false,"rental_uris":{"android":"levelo://app?vid=7a0dc686-c833-4dc9-a931-b344eaac2c82","ios":"levelo://app?vid=7a0dc686-c833-4dc9-a931-b344eaac2c82"},"vehicle_type_id":"4","last_reported":1750525678,"current_range_meters":14400,"station_id":"ce4bgih2rcd13ifvqba0","pricing_plan_id":"cebpf4jnsgd1na2vs0mg"},{"bike_id":"96cbb3de-d669-4ca6-83d2-6fb1f57473e6","system_id":"levelo_inurba_marseille","lat":43.30427,"lon":5.38891,"is_reserved":false,"is_disabled":false,"rental_uris":{"android":"levelo://app?vid=96cbb3de-d669-4ca6-83d2-6fb1f57473e6","ios":"levelo://app?vid=96cbb3de-d669-4ca6-83d2-6fb1f57473e6"},"vehicle_type_id":"4","last_reported":1750525678,"current_range_meters":14400,"station_id":"ce4bgk12rcd13ifvqbi0","pricing_plan_id":"cebpf4jnsgd1na2vs0mg"},{"bike_id":"72f177c1-b133-47b9-879e-e90fc19d6aa2","system_id":"levelo_inurba_marseille","lat":43.30302,"lon":5.39208,"is_reserved":false,"is_disabled":false,"rental_uris":{"android":"levelo://app?vid=72f177c1-b133-47b9-879e-e90fc19d6aa2","ios":"levelo://app?vid=72f177c1-b133-47b9-879e-e90fc19d6aa2"},"vehicle_type_id":"4","last_reported":1750525678,"current_range_meters":14400,"station_id":"ce4bgkh2rcd13ifvqbk0","pricing_plan_id":"cebpf4jnsgd1na2vs0mg"},{"bike_id":"903a7bc2-af61-4cff-a24e-7733c1689bf6","system_id":"levelo_inurba_marseille","lat":43.29267,"lon":5.3845,"is_reserved":false,"is_disabled":false,"rental_uris":{"android":"levelo://app?vid=903a7bc2-af61-4cff-a24e-7733c1689bf6","ios":"levelo://app?vid=903a7bc2-af61-4cff-a24e-7733c1689bf6"},"vehicle_type_id":"4","last_reported":1750525678,"current_range_meters":14400,"station_id":"ce4bh692rcd13ifvqea0","pricing_plan_id":"cebpf4jnsgd1na2vs0mg"},{"bike_id":"6f3e4415-cdf7-46b3-bb46-b987418d5d69","system_id":"levelo_inurba_marseille","lat":43.25493,"lon":5.37647,"is_reserved":false,"is_disabled":false,"rental_uris":{"android":"levelo://app?vid=6f3e4415-cdf7-46b3-bb46-b987418d5d69","ios":"levelo://app?vid=6f3e4415-cdf7-46b3-bb46-b987418d5d69"},"vehicle_type_id":"4","last_reported":1750525678,"current_range_meters":14400,"station_id":"ce4bhh12rcd13ifvqff0","pricing_plan_id":"cebpf4jnsgd1na2vs0mg"},{"bike_id":"f7add716-e748-42bd-aef8-433f1d742f43","system_id":"levelo_inurba_marseille","lat":43.27063,"lon":5.40263,"is_reserved":false,"is_disabled":false,"rental_uris":{"android":"levelo://app?vid=f7add716-e748-42bd-aef8-433f1d742f43","ios":"levelo://app?vid=f7add716-e748-42bd-aef8-433f1d742f43"},"vehicle_type_id":"4","last_reported":1750525678,"current_range_meters":14400,"station_id":"ce4bhk92rcd13ifvqgc0","pricing_plan_id":"cebpf4jnsgd1na2vs0mg"},{"bike_id":"c2d93414-1408-42f5-bffb-c909689f2329","system_id":"levelo_inurba_marseille","lat":43.31103,"lon":5.3777,"is_reserved":false,"is_disabled":false,"rental_uris":{"android":"levelo://app?vid=c2d93414-1408-42f5-bffb-c909689f2329","ios":"levelo://app?vid=c2d93414-1408-42f5-bffb-c909689f2329"},"vehicle_type_id":"4","last_reported":1750525678,"current_range_meters":14800,"station_id":"ce4bgt92rcd13ifvqcg0","pricing_plan_id":"cebpf4jnsgd1na2vs0mg"},{"bike_id":"f88f66c2-a73e-4c0b-90f9-8ebddb3e3b73","system_id":"levelo_inurba_marseille","lat":43.26206,"lon":5.37451,"is_reserved":false,"is_disabled":false,"rental_uris":{"android":"levelo://app?vid=f88f66c2-a73e-4c0b-90f9-8ebddb3e3b73","ios":"levelo://app?vid=f88f66c2-a73e-4c0b-90f9-8ebddb3e3b73"},"vehicle_type_id":"4","last_reported":1750525678,"current_range_meters":14800,"station_id":"ce4bhgp2rcd13ifvqfc0","pricing_plan_id":"cebpf4jnsgd1na2vs0mg"},{"bike_id":"9a8de4f3-8323-4654-a5ab-1d863263f174","system_id":"levelo_inurba_marseille","lat":43.26188,"lon":5.37452,"is_reserved":false,"is_disabled":false,"rental_uris":{"android":"levelo://app?vid=9a8de4f3-8323-4654-a5ab-1d863263f174","ios":"levelo://app?vid=9a8de4f3-8323-4654-a5ab-1d863263f174"},"vehicle_type_id":"4","last_reported":1750525678,"current_range_meters":14800,"station_id":"ce4bhgp2rcd13ifvqfc0","pricing_plan_id":"cebpf4jnsgd1na2vs0mg"},{"bike_id":"442b870b-26c2-45ed-8757-2a114115e8ca","system_id":"levelo_inurba_marseille","lat":43.250908,"lon":5.39515,"is_reserved":false,"is_disabled":false,"rental_uris":{"android":"levelo://app?vid=442b870b-26c2-45ed-8757-2a114115e8ca","ios":"levelo://app?vid=442b870b-26c2-45ed-8757-2a114115e8ca"},"vehicle_type_id":"4","last_reported":1750525678,"current_range_meters":14800,"station_id":"ce4bhm12rcd13ifvqgkg","pricing_plan_id":"cebpf4jnsgd1na2vs0mg"},{"bike_id":"df90dc53-0dd8-49eb-8401-34e729d46ae7","system_id":"levelo_inurba_marseille","lat":43.29795,"lon":5.38099,"is_reserved":false,"is_disabled":false,"rental_uris":{"android":"levelo://app?vid=df90dc53-0dd8-49eb-8401-34e729d46ae7","ios":"levelo://app?vid=df90dc53-0dd8-49eb-8401-34e729d46ae7"},"vehicle_type_id":"4","last_reported":1750525678,"current_range_meters":15200,"station_id":"ce4bgip2rcd13ifvqbb0","pricing_plan_id":"cebpf4jnsgd1na2vs0mg"},{"bike_id":"d521bdd5-15c5-445d-8b36-9a7b570f884c","system_id":"levelo_inurba_marseille","lat":43.29604,"lon":5.38096,"is_reserved":false,"is_disabled":false,"rental_uris":{"android":"levelo://app?vid=d521bdd5-15c5-445d-8b36-9a7b570f884c","ios":"levelo://app?vid=d521bdd5-15c5-445d-8b36-9a7b570f884c"},"vehicle_type_id":"4","last_reported":1750525678,"current_range_meters":15200,"station_id":"ce4bgl12rcd13ifvqbo0","pricing_plan_id":"cebpf4jnsgd1na2vs0mg"},{"bike_id":"8ea794be-1318-43b3-a01b-b3170a98e79c","system_id":"levelo_inurba_marseille","lat":43.26481,"lon":5.39543,"is_reserved":false,"is_disabled":false,"rental_uris":{"android":"levelo://app?vid=8ea794be-1318-43b3-a01b-b3170a98e79c","ios":"levelo://app?vid=8ea794be-1318-43b3-a01b-b3170a98e79c"},"vehicle_type_id":"4","last_reported":1750525678,"current_range_meters":15200,"station_id":"ce4bhi12rcd13ifvqfq0","pricing_plan_id":"cebpf4jnsgd1na2vs0mg"},{"bike_id":"65215dd7-078a-4174-a6a5-b9550bf1febc","system_id":"levelo_inurba_marseille","lat":43.23154,"lon":5.4372,"is_reserved":false,"is_disabled":false,"rental_uris":{"android":"levelo://app?vid=65215dd7-078a-4174-a6a5-b9550bf1febc","ios":"levelo://app?vid=65215dd7-078a-4174-a6a5-b9550bf1febc"},"vehicle_type_id":"4","last_reported":1750525678,"current_range_meters":15200,"station_id":"ce4bhmp2rcd13ifvqgog","pricing_plan_id":"cebpf4jnsgd1na2vs0mg"},{"bike_id":"ac0497cd-363b-4f99-90b2-3c46be49ffb0","system_id":"levelo_inurba_marseille","lat":43.2318,"lon":5.39996,"is_reserved":false,"is_disabled":false,"rental_uris":{"android":"levelo://app?vid=ac0497cd-363b-4f99-90b2-3c46be49ffb0","ios":"levelo://app?vid=ac0497cd-363b-4f99-90b2-3c46be49ffb0"},"vehicle_type_id":"4","last_reported":1750525678,"current_range_meters":15200,"station_id":"ce4bhn12rcd13ifvqgqg","pricing_plan_id":"cebpf4jnsgd1na2vs0mg"},{"bike_id":"cc41180d-6b86-40bf-91c0-b83cb21b8b49","system_id":"levelo_inurba_marseille","lat":43.26941,"lon":5.40252,"is_reserved":false,"is_disabled":false,"rental_uris":{"android":"levelo://app?vid=cc41180d-6b86-40bf-91c0-b83cb21b8b49","ios":"levelo://app?vid=cc41180d-6b86-40bf-91c0-b83cb21b8b49"},"vehicle_type_id":"4","last_reported":1750525678,"current_range_meters":15200,"station_id":"cjm6bp8fraef2m0cb0m0","pricing_plan_id":"cebpf4jnsgd1na2vs0mg"},{"bike_id":"6a4b59b0-64b7-4950-ae73-2324ba55dcce","system_id":"levelo_inurba_marseille","lat":43.3302,"lon":5.38155,"is_reserved":false,"is_disabled":false,"rental_uris":{"android":"levelo://app?vid=6a4b59b0-64b7-4950-ae73-2324ba55dcce","ios":"levelo://app?vid=6a4b59b0-64b7-4950-ae73-2324ba55dcce"},"vehicle_type_id":"4","last_reported":1750525678,"current_range_meters":16000,"station_id":"","pricing_plan_id":"cebpf4jnsgd1na2vs0mg"},{"bike_id":"562c525e-da28-45b6-b9a0-97aac8bca779","system_id":"levelo_inurba_marseille","lat":43.295307,"lon":5.385457,"is_reserved":false,"is_disabled":false,"rental_uris":{"android":"levelo://app?vid=562c525e-da28-45b6-b9a0-97aac8bca779","ios":"levelo://app?vid=562c525e-da28-45b6-b9a0-97aac8bca779"},"vehicle_type_id":"4","last_reported":1750525678,"current_range_meters":16000,"station_id":"ce4bgih2rcd13ifvqba0","pricing_plan_id":"cebpf4jnsgd1na2vs0mg"},{"bike_id":"32ce7720-880c-469d-8048-027c8631c176","system_id":"levelo_inurba_marseille","lat":43.25504,"lon":5.3765,"is_reserved":false,"is_disabled":false,"rental_uris":{"android":"levelo://app?vid=32ce7720-880c-469d-8048-027c8631c176","ios":"levelo://app?vid=32ce7720-880c-469d-8048-027c8631c176"},"vehicle_type_id":"4","last_reported":1750525678,"current_range_meters":16000,"station_id":"ce4bhh12rcd13ifvqff0","pricing_plan_id":"cebpf4jnsgd1na2vs0mg"},{"bike_id":"ee3026d9-e826-4f6d-afda-d2f4bce88d52","system_id":"levelo_inurba_marseille","lat":43.22501,"lon":5.34787,"is_reserved":false,"is_disabled":false,"rental_uris":{"android":"levelo://app?vid=ee3026d9-e826-4f6d-afda-d2f4bce88d52","ios":"levelo://app?vid=ee3026d9-e826-4f6d-afda-d2f4bce88d52"},"vehicle_type_id":"4","last_reported":1750525678,"current_range_meters":16000,"station_id":"st_cvj5dfep6f1abm77gieg","pricing_plan_id":"cebpf4jnsgd1na2vs0mg"},{"bike_id":"db76ccd8-7907-4d3d-8ebd-ea0cdadbca52","system_id":"levelo_inurba_marseille","lat":43.27281,"lon":5.39142,"is_reserved":false,"is_disabled":false,"rental_uris":{"android":"levelo://app?vid=db76ccd8-7907-4d3d-8ebd-ea0cdadbca52","ios":"levelo://app?vid=db76ccd8-7907-4d3d-8ebd-ea0cdadbca52"},"vehicle_type_id":"4","last_reported":1750525678,"current_range_meters":16400,"station_id":"","pricing_plan_id":"cebpf4jnsgd1na2vs0mg"},{"bike_id":"fb9553bb-eea9-4e1c-bcda-712fd355410e","system_id":"levelo_inurba_marseille","lat":43.2953,"lon":5.38546,"is_reserved":false,"is_disabled":false,"rental_uris":{"android":"levelo://app?vid=fb9553bb-eea9-4e1c-bcda-712fd355410e","ios":"levelo://app?vid=fb9553bb-eea9-4e1c-bcda-712fd355410e"},"vehicle_type_id":"4","last_reported":1750525678,"current_range_meters":16400,"station_id":"ce4bgih2rcd13ifvqba0","pricing_plan_id":"cebpf4jnsgd1na2vs0mg"},{"bike_id":"d930679f-d79c-4aeb-933b-5c8d4a8c7449","system_id":"levelo_inurba_marseille","lat":43.298642,"lon":5.383944,"is_reserved":false,"is_disabled":false,"rental_uris":{"android":"levelo://app?vid=d930679f-d79c-4aeb-933b-5c8d4a8c7449","ios":"levelo://app?vid=d930679f-d79c-4aeb-933b-5c8d4a8c7449"},"vehicle_type_id":"4","last_reported":1750525678,"current_range_meters":16400,"station_id":"ce4bgj92rcd13ifvqbd0","pricing_plan_id":"cebpf4jnsgd1na2vs0mg"},{"bike_id":"8508f004-c0c2-4c2a-b590-f229d356df21","system_id":"levelo_inurba_marseille","lat":43.29421,"lon":5.38613,"is_reserved":false,"is_disabled":false,"rental_uris":{"android":"levelo://app?vid=8508f004-c0c2-4c2a-b590-f229d356df21","ios":"levelo://app?vid=8508f004-c0c2-4c2a-b590-f229d356df21"},"vehicle_type_id":"4","last_reported":1750525678,"current_range_meters":16400,"station_id":"ce4bh2h2rcd13ifvqdh0","pricing_plan_id":"cebpf4jnsgd1na2vs0mg"},{"bike_id":"4da08389-e2ac-4f48-9534-a6e6aee3e0c6","system_id":"levelo_inurba_marseille","lat":43.29034,"lon":5.38646,"is_reserved":false,"is_disabled":false,"rental_uris":{"android":"levelo://app?vid=4da08389-e2ac-4f48-9534-a6e6aee3e0c6","ios":"levelo://app?vid=4da08389-e2ac-4f48-9534-a6e6aee3e0c6"},"vehicle_type_id":"4","last_reported":1750525678,"current_range_meters":16400,"station_id":"ce4bh4p2rcd13ifvqe0g","pricing_plan_id":"cebpf4jnsgd1na2vs0mg"},{"bike_id":"98b0b57b-54e0-4eb5-b8cb-290a61d5f61e","system_id":"levelo_inurba_marseille","lat":43.30377,"lon":5.42492,"is_reserved":false,"is_disabled":false,"rental_uris":{"android":"levelo://app?vid=98b0b57b-54e0-4eb5-b8cb-290a61d5f61e","ios":"levelo://app?vid=98b0b57b-54e0-4eb5-b8cb-290a61d5f61e"},"vehicle_type_id":"4","last_reported":1750525678,"current_range_meters":16400,"station_id":"ce4bhoh2rcd13ifvqh6g","pricing_plan_id":"cebpf4jnsgd1na2vs0mg"},{"bike_id":"1c6eee43-889f-4cff-bc8c-307447a31830","system_id":"levelo_inurba_marseille","lat":43.30788,"lon":5.43534,"is_reserved":false,"is_disabled":false,"rental_uris":{"android":"levelo://app?vid=1c6eee43-889f-4cff-bc8c-307447a31830","ios":"levelo://app?vid=1c6eee43-889f-4cff-bc8c-307447a31830"},"vehicle_type_id":"4","last_reported":1750525678,"current_range_meters":16400,"station_id":"ce4bhph2rcd13ifvqheg","pricing_plan_id":"cebpf4jnsgd1na2vs0mg"},{"bike_id":"7c3434e7-ecd7-4565-9a0f-952b018128a9","system_id":"levelo_inurba_marseille","lat":43.21203,"lon":5.35064,"is_reserved":false,"is_disabled":false,"rental_uris":{"android":"levelo://app?vid=7c3434e7-ecd7-4565-9a0f-952b018128a9","ios":"levelo://app?vid=7c3434e7-ecd7-4565-9a0f-952b018128a9"},"vehicle_type_id":"4","last_reported":1750525678,"current_range_meters":16400,"station_id":"st_cvj6sg6p6f1abm77japg","pricing_plan_id":"cebpf4jnsgd1na2vs0mg"},{"bike_id":"4d80d21e-3dc9-4004-a3c0-eb7b371a8ccf","system_id":"levelo_inurba_marseille","lat":43.330307,"lon":5.39326,"is_reserved":false,"is_disabled":false,"rental_uris":{"android":"levelo://app?vid=4d80d21e-3dc9-4004-a3c0-eb7b371a8ccf","ios":"levelo://app?vid=4d80d21e-3dc9-4004-a3c0-eb7b371a8ccf"},"vehicle_type_id":"4","last_reported":1750525678,"current_range_meters":16800,"station_id":"","pricing_plan_id":"cebpf4jnsgd1na2vs0mg"},{"bike_id":"ffbb0c22-3f4e-4cdb-a0e5-79e3b9f3e1a2","system_id":"levelo_inurba_marseille","lat":43.33769,"lon":5.37469,"is_reserved":false,"is_disabled":false,"rental_uris":{"android":"levelo://app?vid=ffbb0c22-3f4e-4cdb-a0e5-79e3b9f3e1a2","ios":"levelo://app?vid=ffbb0c22-3f4e-4cdb-a0e5-79e3b9f3e1a2"},"vehicle_type_id":"4","last_reported":1750525678,"current_range_meters":16800,"station_id":"","pricing_plan_id":"cebpf4jnsgd1na2vs0mg"},{"bike_id":"9d6fdec3-c981-45be-9101-bafc8f047bd8","system_id":"levelo_inurba_marseille","lat":43.295302,"lon":5.385427,"is_reserved":false,"is_disabled":false,"rental_uris":{"android":"levelo://app?vid=9d6fdec3-c981-45be-9101-bafc8f047bd8","ios":"levelo://app?vid=9d6fdec3-c981-45be-9101-bafc8f047bd8"},"vehicle_type_id":"4","last_reported":1750525678,"current_range_meters":16800,"station_id":"ce4bgih2rcd13ifvqba0","pricing_plan_id":"cebpf4jnsgd1na2vs0mg"},{"bike_id":"0398e201-4527-45b4-b854-e4705a925504","system_id":"levelo_inurba_marseille","lat":43.298496,"lon":5.362881,"is_reserved":false,"is_disabled":false,"rental_uris":{"android":"levelo://app?vid=0398e201-4527-45b4-b854-e4705a925504","ios":"levelo://app?vid=0398e201-4527-45b4-b854-e4705a925504"},"vehicle_type_id":"4","last_reported":1750525678,"current_range_meters":16800,"station_id":"ce4bgpp2rcd13ifvqc3g","pricing_plan_id":"cebpf4jnsgd1na2vs0mg"},{"bike_id":"6c7d6944-0ba9-47bb-806f-f847d27a0d63","system_id":"levelo_inurba_marseille","lat":43.30564,"lon":5.36557,"is_reserved":false,"is_disabled":false,"rental_uris":{"android":"levelo://app?vid=6c7d6944-0ba9-47bb-806f-f847d27a0d63","ios":"levelo://app?vid=6c7d6944-0ba9-47bb-806f-f847d27a0d63"},"vehicle_type_id":"4","last_reported":1750525678,"current_range_meters":16800,"station_id":"ce4bgs12rcd13ifvqcag","pricing_plan_id":"cebpf4jnsgd1na2vs0mg"},{"bike_id":"da3b539f-6219-477b-aa77-292de60991cf","system_id":"levelo_inurba_marseille","lat":43.29257,"lon":5.3845,"is_reserved":false,"is_disabled":false,"rental_uris":{"android":"levelo://app?vid=da3b539f-6219-477b-aa77-292de60991cf","ios":"levelo://app?vid=da3b539f-6219-477b-aa77-292de60991cf"},"vehicle_type_id":"4","last_reported":1750525678,"current_range_meters":16800,"station_id":"ce4bh692rcd13ifvqea0","pricing_plan_id":"cebpf4jnsgd1na2vs0mg"},{"bike_id":"f9c996cc-0bf5-45c9-b0ec-d0b25f72dfff","system_id":"levelo_inurba_marseille","lat":43.272057,"lon":5.391877,"is_reserved":false,"is_disabled":false,"rental_uris":{"android":"levelo://app?vid=f9c996cc-0bf5-45c9-b0ec-d0b25f72dfff","ios":"levelo://app?vid=f9c996cc-0bf5-45c9-b0ec-d0b25f72dfff"},"vehicle_type_id":"4","last_reported":1750525678,"current_range_meters":16800,"station_id":"ce4bhhp2rcd13ifvqfm0","pricing_plan_id":"cebpf4jnsgd1na2vs0mg"},{"bike_id":"27a7c221-1579-4969-aad5-6db9840b00a8","system_id":"levelo_inurba_marseille","lat":43.280704,"lon":5.39661,"is_reserved":false,"is_disabled":false,"rental_uris":{"android":"levelo://app?vid=27a7c221-1579-4969-aad5-6db9840b00a8","ios":"levelo://app?vid=27a7c221-1579-4969-aad5-6db9840b00a8"},"vehicle_type_id":"4","last_reported":1750525678,"current_range_meters":16800,"station_id":"ce4bho12rcd13ifvqh2g","pricing_plan_id":"cebpf4jnsgd1na2vs0mg"},{"bike_id":"447a1e21-3774-44bf-8a25-0d41ffdf0cc8","system_id":"levelo_inurba_marseille","lat":43.29301,"lon":5.37462,"is_reserved":false,"is_disabled":false,"rental_uris":{"android":"levelo://app?vid=447a1e21-3774-44bf-8a25-0d41ffdf0cc8","ios":"levelo://app?vid=447a1e21-3774-44bf-8a25-0d41ffdf0cc8"},"vehicle_type_id":"4","last_reported":1750525678,"current_range_meters":17200,"station_id":"ce4bgi12rcd13ifvqb70","pricing_plan_id":"cebpf4jnsgd1na2vs0mg"},{"bike_id":"29b04f9a-da24-46cf-bc2e-eba7ce44f07e","system_id":"levelo_inurba_marseille","lat":43.29029,"lon":5.38634,"is_reserved":false,"is_disabled":false,"rental_uris":{"android":"levelo://app?vid=29b04f9a-da24-46cf-bc2e-eba7ce44f07e","ios":"levelo://app?vid=29b04f9a-da24-46cf-bc2e-eba7ce44f07e"},"vehicle_type_id":"4","last_reported":1750525678,"current_range_meters":17200,"station_id":"ce4bh4p2rcd13ifvqe0g","pricing_plan_id":"cebpf4jnsgd1na2vs0mg"},{"bike_id":"da4e6891-dc15-45f1-b2dc-07f82743c65f","system_id":"levelo_inurba_marseille","lat":43.26187,"lon":5.37444,"is_reserved":false,"is_disabled":false,"rental_uris":{"android":"levelo://app?vid=da4e6891-dc15-45f1-b2dc-07f82743c65f","ios":"levelo://app?vid=da4e6891-dc15-45f1-b2dc-07f82743c65f"},"vehicle_type_id":"4","last_reported":1750525678,"current_range_meters":17200,"station_id":"ce4bhgp2rcd13ifvqfc0","pricing_plan_id":"cebpf4jnsgd1na2vs0mg"},{"bike_id":"22174934-12b8-4eb3-8d3a-c6adcc86bacf","system_id":"levelo_inurba_marseille","lat":43.26196,"lon":5.37457,"is_reserved":false,"is_disabled":false,"rental_uris":{"android":"levelo://app?vid=22174934-12b8-4eb3-8d3a-c6adcc86bacf","ios":"levelo://app?vid=22174934-12b8-4eb3-8d3a-c6adcc86bacf"},"vehicle_type_id":"4","last_reported":1750525678,"current_range_meters":17200,"station_id":"ce4bhgp2rcd13ifvqfc0","pricing_plan_id":"cebpf4jnsgd1na2vs0mg"},{"bike_id":"89ac06b5-f022-49b7-90f5-aa29dd87b063","system_id":"levelo_inurba_marseille","lat":43.258265,"lon":5.394415,"is_reserved":false,"is_disabled":false,"rental_uris":{"android":"levelo://app?vid=89ac06b5-f022-49b7-90f5-aa29dd87b063","ios":"levelo://app?vid=89ac06b5-f022-49b7-90f5-aa29dd87b063"},"vehicle_type_id":"4","last_reported":1750525678,"current_range_meters":17200,"station_id":"ce4bhip2rcd13ifvqft0","pricing_plan_id":"cebpf4jnsgd1na2vs0mg"},{"bike_id":"4d4df371-4a07-4078-b66c-0646e04ad4bf","system_id":"levelo_inurba_marseille","lat":43.29911,"lon":5.43674,"is_reserved":false,"is_disabled":false,"rental_uris":{"android":"levelo://app?vid=4d4df371-4a07-4078-b66c-0646e04ad4bf","ios":"levelo://app?vid=4d4df371-4a07-4078-b66c-0646e04ad4bf"},"vehicle_type_id":"4","last_reported":1750525678,"current_range_meters":17200,"station_id":"ce4bhpp2rcd13ifvqhfg","pricing_plan_id":"cebpf4jnsgd1na2vs0mg"},{"bike_id":"42275107-b881-4e4b-b528-893f7bd027f1","system_id":"levelo_inurba_marseille","lat":43.24164,"lon":5.36393,"is_reserved":false,"is_disabled":false,"rental_uris":{"android":"levelo://app?vid=42275107-b881-4e4b-b528-893f7bd027f1","ios":"levelo://app?vid=42275107-b881-4e4b-b528-893f7bd027f1"},"vehicle_type_id":"4","last_reported":1750525678,"current_range_meters":17200,"station_id":"cpo36qri1sfpv3e86is0","pricing_plan_id":"cebpf4jnsgd1na2vs0mg"},{"bike_id":"a9e5e555-fdaf-49c0-b286-f0f2659b17d0","system_id":"levelo_inurba_marseille","lat":43.28324,"lon":5.43221,"is_reserved":false,"is_disabled":false,"rental_uris":{"android":"levelo://app?vid=a9e5e555-fdaf-49c0-b286-f0f2659b17d0","ios":"levelo://app?vid=a9e5e555-fdaf-49c0-b286-f0f2659b17d0"},"vehicle_type_id":"4","last_reported":1750525678,"current_range_meters":17600,"station_id":"","pricing_plan_id":"cebpf4jnsgd1na2vs0mg"},{"bike_id":"e5eb72ee-b8f1-4193-9fb0-38440df3d7c8","system_id":"levelo_inurba_marseille","lat":43.29573,"lon":5.3752,"is_reserved":false,"is_disabled":false,"rental_uris":{"android":"levelo://app?vid=e5eb72ee-b8f1-4193-9fb0-38440df3d7c8","ios":"levelo://app?vid=e5eb72ee-b8f1-4193-9fb0-38440df3d7c8"},"vehicle_type_id":"4","last_reported":1750525678,"current_range_meters":17600,"station_id":"ce4bgh92rcd13ifvqb50","pricing_plan_id":"cebpf4jnsgd1na2vs0mg"},{"bike_id":"beddf8df-4df6-4600-a3d3-dad5543c09fd","system_id":"levelo_inurba_marseille","lat":43.29527,"lon":5.38554,"is_reserved":false,"is_disabled":false,"rental_uris":{"android":"levelo://app?vid=beddf8df-4df6-4600-a3d3-dad5543c09fd","ios":"levelo://app?vid=beddf8df-4df6-4600-a3d3-dad5543c09fd"},"vehicle_type_id":"4","last_reported":1750525678,"current_range_meters":17600,"station_id":"ce4bgih2rcd13ifvqba0","pricing_plan_id":"cebpf4jnsgd1na2vs0mg"},{"bike_id":"7a239109-06fe-49f0-b74f-e06693dc9ddd","system_id":"levelo_inurba_marseille","lat":43.29022,"lon":5.38652,"is_reserved":false,"is_disabled":false,"rental_uris":{"android":"levelo://app?vid=7a239109-06fe-49f0-b74f-e06693dc9ddd","ios":"levelo://app?vid=7a239109-06fe-49f0-b74f-e06693dc9ddd"},"vehicle_type_id":"4","last_reported":1750525678,"current_range_meters":17600,"station_id":"ce4bh4p2rcd13ifvqe0g","pricing_plan_id":"cebpf4jnsgd1na2vs0mg"},{"bike_id":"fcf3b0a1-fc86-4e43-965a-13c538ab8f45","system_id":"levelo_inurba_marseille","lat":43.262,"lon":5.37936,"is_reserved":false,"is_disabled":false,"rental_uris":{"android":"levelo://app?vid=fcf3b0a1-fc86-4e43-965a-13c538ab8f45","ios":"levelo://app?vid=fcf3b0a1-fc86-4e43-965a-13c538ab8f45"},"vehicle_type_id":"4","last_reported":1750525678,"current_range_meters":17600,"station_id":"ce4bhjp2rcd13ifvqg90","pricing_plan_id":"cebpf4jnsgd1na2vs0mg"},{"bike_id":"a1d9b9e4-7a89-458b-aba2-bb83ee93d746","system_id":"levelo_inurba_marseille","lat":43.26965,"lon":5.40241,"is_reserved":false,"is_disabled":false,"rental_uris":{"android":"levelo://app?vid=a1d9b9e4-7a89-458b-aba2-bb83ee93d746","ios":"levelo://app?vid=a1d9b9e4-7a89-458b-aba2-bb83ee93d746"},"vehicle_type_id":"4","last_reported":1750525678,"current_range_meters":17600,"station_id":"cjm6bp8fraef2m0cb0m0","pricing_plan_id":"cebpf4jnsgd1na2vs0mg"},{"bike_id":"ee6fddf9-6863-4a13-a31b-2f3228223d7e","system_id":"levelo_inurba_marseille","lat":43.21193,"lon":5.35097,"is_reserved":false,"is_disabled":false,"rental_uris":{"android":"levelo://app?vid=ee6fddf9-6863-4a13-a31b-2f3228223d7e","ios":"levelo://app?vid=ee6fddf9-6863-4a13-a31b-2f3228223d7e"},"vehicle_type_id":"4","last_reported":1750525678,"current_range_meters":17600,"station_id":"st_cvj6sg6p6f1abm77japg","pricing_plan_id":"cebpf4jnsgd1na2vs0mg"},{"bike_id":"138e36bb-aca2-4604-9e15-ae015bf802b5","system_id":"levelo_inurba_marseille","lat":43.31491,"lon":5.39148,"is_reserved":false,"is_disabled":false,"rental_uris":{"android":"levelo://app?vid=138e36bb-aca2-4604-9e15-ae015bf802b5","ios":"levelo://app?vid=138e36bb-aca2-4604-9e15-ae015bf802b5"},"vehicle_type_id":"4","last_reported":1750525678,"current_range_meters":18000,"station_id":"","pricing_plan_id":"cebpf4jnsgd1na2vs0mg"},{"bike_id":"377ec864-6a07-4987-8844-392b5fb8234b","system_id":"levelo_inurba_marseille","lat":43.317663,"lon":5.388111,"is_reserved":false,"is_disabled":false,"rental_uris":{"android":"levelo://app?vid=377ec864-6a07-4987-8844-392b5fb8234b","ios":"levelo://app?vid=377ec864-6a07-4987-8844-392b5fb8234b"},"vehicle_type_id":"4","last_reported":1750525678,"current_range_meters":18000,"station_id":"","pricing_plan_id":"cebpf4jnsgd1na2vs0mg"},{"bike_id":"ea477d02-1a05-40ee-b0f7-c54b6d090918","system_id":"levelo_inurba_marseille","lat":43.2953,"lon":5.38548,"is_reserved":false,"is_disabled":false,"rental_uris":{"android":"levelo://app?vid=ea477d02-1a05-40ee-b0f7-c54b6d090918","ios":"levelo://app?vid=ea477d02-1a05-40ee-b0f7-c54b6d090918"},"vehicle_type_id":"4","last_reported":1750525678,"current_range_meters":18000,"station_id":"ce4bgih2rcd13ifvqba0","pricing_plan_id":"cebpf4jnsgd1na2vs0mg"},{"bike_id":"ab043746-4e74-462f-b8b2-341662779a34","system_id":"levelo_inurba_marseille","lat":43.30788,"lon":5.3765,"is_reserved":false,"is_disabled":false,"rental_uris":{"android":"levelo://app?vid=ab043746-4e74-462f-b8b2-341662779a34","ios":"levelo://app?vid=ab043746-4e74-462f-b8b2-341662779a34"},"vehicle_type_id":"4","last_reported":1750525678,"current_range_meters":18000,"station_id":"ce4bgv92rcd13ifvqcq0","pricing_plan_id":"cebpf4jnsgd1na2vs0mg"},{"bike_id":"510f8fa3-2756-448c-b5a5-c362402356da","system_id":"levelo_inurba_marseille","lat":43.306392,"lon":5.401022,"is_reserved":false,"is_disabled":false,"rental_uris":{"android":"levelo://app?vid=510f8fa3-2756-448c-b5a5-c362402356da","ios":"levelo://app?vid=510f8fa3-2756-448c-b5a5-c362402356da"},"vehicle_type_id":"4","last_reported":1750525678,"current_range_meters":18000,"station_id":"ce4bh112rcd13ifvqda0","pricing_plan_id":"cebpf4jnsgd1na2vs0mg"},{"bike_id":"53fd2212-e37c-48fa-96ff-e8e48915075b","system_id":"levelo_inurba_marseille","lat":43.29264,"lon":5.38437,"is_reserved":false,"is_disabled":false,"rental_uris":{"android":"levelo://app?vid=53fd2212-e37c-48fa-96ff-e8e48915075b","ios":"levelo://app?vid=53fd2212-e37c-48fa-96ff-e8e48915075b"},"vehicle_type_id":"4","last_reported":1750525678,"current_range_meters":18000,"station_id":"ce4bh692rcd13ifvqea0","pricing_plan_id":"cebpf4jnsgd1na2vs0mg"},{"bike_id":"d386e0a9-80dc-4ddc-bb4c-7ff82fa0b222","system_id":"levelo_inurba_marseille","lat":43.2481,"lon":5.37463,"is_reserved":false,"is_disabled":false,"rental_uris":{"android":"levelo://app?vid=d386e0a9-80dc-4ddc-bb4c-7ff82fa0b222","ios":"levelo://app?vid=d386e0a9-80dc-4ddc-bb4c-7ff82fa0b222"},"vehicle_type_id":"4","last_reported":1750525678,"current_range_meters":18000,"station_id":"ce4bhgh2rcd13ifvqfb0","pricing_plan_id":"cebpf4jnsgd1na2vs0mg"},{"bike_id":"9b2a96a9-a93f-4a80-bfda-36abe26ceca5","system_id":"levelo_inurba_marseille","lat":43.25518,"lon":5.37644,"is_reserved":false,"is_disabled":false,"rental_uris":{"android":"levelo://app?vid=9b2a96a9-a93f-4a80-bfda-36abe26ceca5","ios":"levelo://app?vid=9b2a96a9-a93f-4a80-bfda-36abe26ceca5"},"vehicle_type_id":"4","last_reported":1750525678,"current_range_meters":18000,"station_id":"ce4bhh12rcd13ifvqff0","pricing_plan_id":"cebpf4jnsgd1na2vs0mg"},{"bike_id":"9e882054-a28a-4905-97e5-a3e516c15a2a","system_id":"levelo_inurba_marseille","lat":43.26205,"lon":5.37929,"is_reserved":false,"is_disabled":false,"rental_uris":{"android":"levelo://app?vid=9e882054-a28a-4905-97e5-a3e516c15a2a","ios":"levelo://app?vid=9e882054-a28a-4905-97e5-a3e516c15a2a"},"vehicle_type_id":"4","last_reported":1750525678,"current_range_meters":18000,"station_id":"ce4bhjp2rcd13ifvqg90","pricing_plan_id":"cebpf4jnsgd1na2vs0mg"},{"bike_id":"41a13689-1551-462e-9642-5422b01b3ba8","system_id":"levelo_inurba_marseille","lat":43.32006,"lon":5.3817,"is_reserved":false,"is_disabled":false,"rental_uris":{"android":"levelo://app?vid=41a13689-1551-462e-9642-5422b01b3ba8","ios":"levelo://app?vid=41a13689-1551-462e-9642-5422b01b3ba8"},"vehicle_type_id":"4","last_reported":1750525678,"current_range_meters":18000,"station_id":"ce4bhr12rcd13ifvqhpg","pricing_plan_id":"cebpf4jnsgd1na2vs0mg"},{"bike_id":"b954ad20-8866-4808-9736-0e481591598c","system_id":"levelo_inurba_marseille","lat":43.326034,"lon":5.377625,"is_reserved":false,"is_disabled":false,"rental_uris":{"android":"levelo://app?vid=b954ad20-8866-4808-9736-0e481591598c","ios":"levelo://app?vid=b954ad20-8866-4808-9736-0e481591598c"},"vehicle_type_id":"4","last_reported":1750525678,"current_range_meters":18800,"station_id":"","pricing_plan_id":"cebpf4jnsgd1na2vs0mg"},{"bike_id":"a9259cc4-9e33-4a7a-9831-8adcc22a55e6","system_id":"levelo_inurba_marseille","lat":43.26234,"lon":5.37423,"is_reserved":false,"is_disabled":false,"rental_uris":{"android":"levelo://app?vid=a9259cc4-9e33-4a7a-9831-8adcc22a55e6","ios":"levelo://app?vid=a9259cc4-9e33-4a7a-9831-8adcc22a55e6"},"vehicle_type_id":"4","last_reported":1750525678,"current_range_meters":18800,"station_id":"","pricing_plan_id":"cebpf4jnsgd1na2vs0mg"},{"bike_id":"f35aae6a-130e-40d5-bd79-1b46f0fa45a6","system_id":"levelo_inurba_marseille","lat":43.30539,"lon":5.36566,"is_reserved":false,"is_disabled":false,"rental_uris":{"android":"levelo://app?vid=f35aae6a-130e-40d5-bd79-1b46f0fa45a6","ios":"levelo://app?vid=f35aae6a-130e-40d5-bd79-1b46f0fa45a6"},