{"last_updated":1770882651,"ttl":60,"version":"2.2","data":{"bikes":[{"bike_id":"6f6a04ad-dd00-4f4a-bdfd-a835cfa0cc11","system_id":"levelo_inurba_marseille","lat":43.27076,"lon":5.38323,"is_reserved":false,"is_disabled":false,"rental_uris":{"android":"levelo://app?vid=6f6a04ad-dd00-4f4a-bdfd-a835cfa0cc11","ios":"levelo://app?vid=6f6a04ad-dd00-4f4a-bdfd-a835cfa0cc11"},"vehicle_type_id":"4","last_reported":1770882652,"current_range_meters":2800,"station_id":"st_d3n2fo6cfp8s73cte1j0","pricing_plan_id":"cebpf4jnsgd1na2vs0mg"},{"bike_id":"a6943d09-3de1-473f-8504-0e6aa6ee9f3a","system_id":"levelo_inurba_marseille","lat":43.244664,"lon":5.425278,"is_reserved":false,"is_disabled":false,"rental_uris":{"android":"levelo://app?vid=a6943d09-3de1-473f-8504-0e6aa6ee9f3a","ios":"levelo://app?vid=a6943d09-3de1-473f-8504-0e6aa6ee9f3a"},"vehicle_type_id":"4","last_reported":1770882652,"current_range_meters":2800,"station_id":"st_d4a3vfp97mjs738cd8kg","pricing_plan_id":"cebpf4jnsgd1na2vs0mg"},{"bike_id":"d6b9d7ff-4ec2-4ca9-ba28-5a5dad54cfd3","system_id":"levelo_inurba_marseille","lat":43.28465,"lon":5.48391,"is_reserved":false,"is_disabled":false,"rental_uris":{"android":"levelo://app?vid=d6b9d7ff-4ec2-4ca9-ba28-5a5dad54cfd3","ios":"levelo://app?vid=d6b9d7ff-4ec2-4ca9-ba28-5a5dad54cfd3"},"vehicle_type_id":"4","last_reported":1770882652,"current_range_meters":2800,"station_id":"","pricing_plan_id":"cebpf4jnsgd1na2vs0mg"},{"bike_id":"93b00136-09fe-4a17-8fb6-8d647dc37c64","system_id":"levelo_inurba_marseille","lat":43.26207,"lon":5.37931,"is_reserved":false,"is_disabled":false,"rental_uris":{"android":"levelo://app?vid=93b00136-09fe-4a17-8fb6-8d647dc37c64","ios":"levelo://app?vid=93b00136-09fe-4a17-8fb6-8d647dc37c64"},"vehicle_type_id":"4","last_reported":1770882652,"current_range_meters":2800,"station_id":"ce4bhjp2rcd13ifvqg90","pricing_plan_id":"cebpf4jnsgd1na2vs0mg"},{"bike_id":"740ebed6-ac24-4369-806c-b05c82ca3db5","system_id":"levelo_inurba_marseille","lat":43.29962,"lon":5.37175,"is_reserved":false,"is_disabled":false,"rental_uris":{"android":"levelo://app?vid=740ebed6-ac24-4369-806c-b05c82ca3db5","ios":"levelo://app?vid=740ebed6-ac24-4369-806c-b05c82ca3db5"},"vehicle_type_id":"4","last_reported":1770882652,"current_range_meters":2800,"station_id":"ce4bgr92rcd13ifvqc7g","pricing_plan_id":"cebpf4jnsgd1na2vs0mg"},{"bike_id":"832198b2-2c9e-48d4-8c71-a2b3ad90e639","system_id":"levelo_inurba_marseille","lat":43.30122,"lon":5.39921,"is_reserved":false,"is_disabled":false,"rental_uris":{"android":"levelo://app?vid=832198b2-2c9e-48d4-8c71-a2b3ad90e639","ios":"levelo://app?vid=832198b2-2c9e-48d4-8c71-a2b3ad90e639"},"vehicle_type_id":"4","last_reported":1770882652,"current_range_meters":2800,"station_id":"ce4bh0h2rcd13ifvqd40","pricing_plan_id":"cebpf4jnsgd1na2vs0mg"},{"bike_id":"f48bd293-c074-4925-8aae-b36da4cadab9","system_id":"levelo_inurba_marseille","lat":43.24689,"lon":5.3815,"is_reserved":false,"is_disabled":false,"rental_uris":{"android":"levelo://app?vid=f48bd293-c074-4925-8aae-b36da4cadab9","ios":"levelo://app?vid=f48bd293-c074-4925-8aae-b36da4cadab9"},"vehicle_type_id":"4","last_reported":1770882652,"current_range_meters":2800,"station_id":"ce4bhih2rcd13ifvqfr0","pricing_plan_id":"cebpf4jnsgd1na2vs0mg"},{"bike_id":"dd22f7c1-4100-417a-b9f3-9e200b3058b1","system_id":"levelo_inurba_marseille","lat":43.30747,"lon":5.42429,"is_reserved":false,"is_disabled":false,"rental_uris":{"android":"levelo://app?vid=dd22f7c1-4100-417a-b9f3-9e200b3058b1","ios":"levelo://app?vid=dd22f7c1-4100-417a-b9f3-9e200b3058b1"},"vehicle_type_id":"4","last_reported":1770882652,"current_range_meters":2800,"station_id":"st_cvj6ca6bvosntc0bfgr0","pricing_plan_id":"cebpf4jnsgd1na2vs0mg"},{"bike_id":"03c22168-23b9-4a4c-a686-068379a03132","system_id":"levelo_inurba_marseille","lat":43.31336,"lon":5.36711,"is_reserved":false,"is_disabled":false,"rental_uris":{"android":"levelo://app?vid=03c22168-23b9-4a4c-a686-068379a03132","ios":"levelo://app?vid=03c22168-23b9-4a4c-a686-068379a03132"},"vehicle_type_id":"4","last_reported":1770882652,"current_range_meters":2800,"station_id":"ce4bgr92rcd13ifvqc6g","pricing_plan_id":"cebpf4jnsgd1na2vs0mg"},{"bike_id":"4b9871c7-5c39-4b17-a1ab-7466a2e49c3f","system_id":"levelo_inurba_marseille","lat":43.25933,"lon":5.40909,"is_reserved":false,"is_disabled":false,"rental_uris":{"android":"levelo://app?vid=4b9871c7-5c39-4b17-a1ab-7466a2e49c3f","ios":"levelo://app?vid=4b9871c7-5c39-4b17-a1ab-7466a2e49c3f"},"vehicle_type_id":"4","last_reported":1770882652,"current_range_meters":3200,"station_id":"ce4bhm92rcd13ifvqglg","pricing_plan_id":"cebpf4jnsgd1na2vs0mg"},{"bike_id":"c6176d61-506f-4755-a0d6-6ccb9566f89a","system_id":"levelo_inurba_marseille","lat":43.2563,"lon":5.41098,"is_reserved":false,"is_disabled":false,"rental_uris":{"android":"levelo://app?vid=c6176d61-506f-4755-a0d6-6ccb9566f89a","ios":"levelo://app?vid=c6176d61-506f-4755-a0d6-6ccb9566f89a"},"vehicle_type_id":"4","last_reported":1770882652,"current_range_meters":3200,"station_id":"","pricing_plan_id":"cebpf4jnsgd1na2vs0mg"},{"bike_id":"1c120683-67bc-428a-aa0f-bec572dfb863","system_id":"levelo_inurba_marseille","lat":43.25574,"lon":5.38245,"is_reserved":false,"is_disabled":false,"rental_uris":{"android":"levelo://app?vid=1c120683-67bc-428a-aa0f-bec572dfb863","ios":"levelo://app?vid=1c120683-67bc-428a-aa0f-bec572dfb863"},"vehicle_type_id":"4","last_reported":1770882652,"current_range_meters":3200,"station_id":"ce4bhih2rcd13ifvqfs0","pricing_plan_id":"cebpf4jnsgd1na2vs0mg"},{"bike_id":"68436fc7-aad0-465d-a1eb-d153a2c2801a","system_id":"levelo_inurba_marseille","lat":43.33111,"lon":5.37736,"is_reserved":false,"is_disabled":false,"rental_uris":{"android":"levelo://app?vid=68436fc7-aad0-465d-a1eb-d153a2c2801a","ios":"levelo://app?vid=68436fc7-aad0-465d-a1eb-d153a2c2801a"},"vehicle_type_id":"4","last_reported":1770882652,"current_range_meters":3200,"station_id":"","pricing_plan_id":"cebpf4jnsgd1na2vs0mg"},{"bike_id":"0254cdef-a3c2-49c3-b30c-3944bc7ae111","system_id":"levelo_inurba_marseille","lat":43.32489,"lon":5.38305,"is_reserved":false,"is_disabled":false,"rental_uris":{"android":"levelo://app?vid=0254cdef-a3c2-49c3-b30c-3944bc7ae111","ios":"levelo://app?vid=0254cdef-a3c2-49c3-b30c-3944bc7ae111"},"vehicle_type_id":"4","last_reported":1770882652,"current_range_meters":3200,"station_id":"st_d4asgbiv49dc73anf9m0","pricing_plan_id":"cebpf4jnsgd1na2vs0mg"},{"bike_id":"44c6aa93-1f46-4cbd-a298-6cd74e811e92","system_id":"levelo_inurba_marseille","lat":43.217588,"lon":5.34619,"is_reserved":false,"is_disabled":false,"rental_uris":{"android":"levelo://app?vid=44c6aa93-1f46-4cbd-a298-6cd74e811e92","ios":"levelo://app?vid=44c6aa93-1f46-4cbd-a298-6cd74e811e92"},"vehicle_type_id":"4","last_reported":1770882652,"current_range_meters":3200,"station_id":"st_cvj6r9ubvosntc0bgbag","pricing_plan_id":"cebpf4jnsgd1na2vs0mg"},{"bike_id":"2d4aa5d2-3372-425b-afc3-1131a013b68f","system_id":"levelo_inurba_marseille","lat":43.31657,"lon":5.40478,"is_reserved":false,"is_disabled":false,"rental_uris":{"android":"levelo://app?vid=2d4aa5d2-3372-425b-afc3-1131a013b68f","ios":"levelo://app?vid=2d4aa5d2-3372-425b-afc3-1131a013b68f"},"vehicle_type_id":"4","last_reported":1770882652,"current_range_meters":3200,"station_id":"ce4bh012rcd13ifvqd00","pricing_plan_id":"cebpf4jnsgd1na2vs0mg"},{"bike_id":"a31e3a62-daaa-40b9-b387-ad4e9c80162a","system_id":"levelo_inurba_marseille","lat":43.23149,"lon":5.43724,"is_reserved":false,"is_disabled":false,"rental_uris":{"android":"levelo://app?vid=a31e3a62-daaa-40b9-b387-ad4e9c80162a","ios":"levelo://app?vid=a31e3a62-daaa-40b9-b387-ad4e9c80162a"},"vehicle_type_id":"4","last_reported":1770882652,"current_range_meters":3200,"station_id":"ce4bhmp2rcd13ifvqgog","pricing_plan_id":"cebpf4jnsgd1na2vs0mg"},{"bike_id":"caca33be-e15c-4bfb-b63a-d99631bdec75","system_id":"levelo_inurba_marseille","lat":43.26539,"lon":5.39036,"is_reserved":false,"is_disabled":false,"rental_uris":{"android":"levelo://app?vid=caca33be-e15c-4bfb-b63a-d99631bdec75","ios":"levelo://app?vid=caca33be-e15c-4bfb-b63a-d99631bdec75"},"vehicle_type_id":"4","last_reported":1770882652,"current_range_meters":3200,"station_id":"ce4bhe12rcd13ifvqf30","pricing_plan_id":"cebpf4jnsgd1na2vs0mg"},{"bike_id":"ce4065bc-907f-4234-91c0-6a2a4d6cf0f7","system_id":"levelo_inurba_marseille","lat":43.2875,"lon":5.36102,"is_reserved":false,"is_disabled":true,"rental_uris":{"android":"levelo://app?vid=ce4065bc-907f-4234-91c0-6a2a4d6cf0f7","ios":"levelo://app?vid=ce4065bc-907f-4234-91c0-6a2a4d6cf0f7"},"vehicle_type_id":"4","last_reported":1770882652,"current_range_meters":3200,"station_id":"cki0cbj6b192h4jlfktg","pricing_plan_id":"cebpf4jnsgd1na2vs0mg"},{"bike_id":"c5905c63-82ea-4157-aaa6-22b59855d28f","system_id":"levelo_inurba_marseille","lat":43.23193,"lon":5.3998,"is_reserved":false,"is_disabled":false,"rental_uris":{"android":"levelo://app?vid=c5905c63-82ea-4157-aaa6-22b59855d28f","ios":"levelo://app?vid=c5905c63-82ea-4157-aaa6-22b59855d28f"},"vehicle_type_id":"4","last_reported":1770882652,"current_range_meters":3200,"station_id":"ce4bhn12rcd13ifvqgqg","pricing_plan_id":"cebpf4jnsgd1na2vs0mg"},{"bike_id":"5ac31228-bee1-4ade-8264-e446f9ba36e7","system_id":"levelo_inurba_marseille","lat":43.24943,"lon":5.40501,"is_reserved":false,"is_disabled":false,"rental_uris":{"android":"levelo://app?vid=5ac31228-bee1-4ade-8264-e446f9ba36e7","ios":"levelo://app?vid=5ac31228-bee1-4ade-8264-e446f9ba36e7"},"vehicle_type_id":"4","last_reported":1770882652,"current_range_meters":3600,"station_id":"st_d2ngiaodas8pm72gd1h0","pricing_plan_id":"cebpf4jnsgd1na2vs0mg"},{"bike_id":"1fed4add-aae6-45dc-a8f1-a0c848be9f5d","system_id":"levelo_inurba_marseille","lat":43.26189,"lon":5.37952,"is_reserved":false,"is_disabled":false,"rental_uris":{"android":"levelo://app?vid=1fed4add-aae6-45dc-a8f1-a0c848be9f5d","ios":"levelo://app?vid=1fed4add-aae6-45dc-a8f1-a0c848be9f5d"},"vehicle_type_id":"4","last_reported":1770882652,"current_range_meters":3600,"station_id":"ce4bhjp2rcd13ifvqg90","pricing_plan_id":"cebpf4jnsgd1na2vs0mg"},{"bike_id":"0ef78b6e-8559-43ba-8d8d-862e2747f540","system_id":"levelo_inurba_marseille","lat":43.3047,"lon":5.37915,"is_reserved":false,"is_disabled":false,"rental_uris":{"android":"levelo://app?vid=0ef78b6e-8559-43ba-8d8d-862e2747f540","ios":"levelo://app?vid=0ef78b6e-8559-43ba-8d8d-862e2747f540"},"vehicle_type_id":"4","last_reported":1770882652,"current_range_meters":3600,"station_id":"ce4bgup2rcd13ifvqcn0","pricing_plan_id":"cebpf4jnsgd1na2vs0mg"},{"bike_id":"94a4e1f3-a8e3-4e58-9a7c-83701131f7da","system_id":"levelo_inurba_marseille","lat":43.25821,"lon":5.3945,"is_reserved":false,"is_disabled":false,"rental_uris":{"android":"levelo://app?vid=94a4e1f3-a8e3-4e58-9a7c-83701131f7da","ios":"levelo://app?vid=94a4e1f3-a8e3-4e58-9a7c-83701131f7da"},"vehicle_type_id":"4","last_reported":1770882652,"current_range_meters":3600,"station_id":"","pricing_plan_id":"cebpf4jnsgd1na2vs0mg"},{"bike_id":"7e3ab4cc-f1d0-40c5-93c0-f0b43c67658b","system_id":"levelo_inurba_marseille","lat":43.25342,"lon":5.4217,"is_reserved":false,"is_disabled":false,"rental_uris":{"android":"levelo://app?vid=7e3ab4cc-f1d0-40c5-93c0-f0b43c67658b","ios":"levelo://app?vid=7e3ab4cc-f1d0-40c5-93c0-f0b43c67658b"},"vehicle_type_id":"4","last_reported":1770882652,"current_range_meters":3600,"station_id":"st_d2m65c5bi1j21697t3ng","pricing_plan_id":"cebpf4jnsgd1na2vs0mg"},{"bike_id":"4659f5f2-43a6-4213-b84f-184d5dec64b3","system_id":"levelo_inurba_marseille","lat":43.335512,"lon":5.374736,"is_reserved":false,"is_disabled":false,"rental_uris":{"android":"levelo://app?vid=4659f5f2-43a6-4213-b84f-184d5dec64b3","ios":"levelo://app?vid=4659f5f2-43a6-4213-b84f-184d5dec64b3"},"vehicle_type_id":"4","last_reported":1770882652,"current_range_meters":3600,"station_id":"st_d46tts09ee8s73dlu43g","pricing_plan_id":"cebpf4jnsgd1na2vs0mg"},{"bike_id":"d5d656ce-6d10-446b-83e4-01e50cae5e79","system_id":"levelo_inurba_marseille","lat":43.31064,"lon":5.37165,"is_reserved":false,"is_disabled":false,"rental_uris":{"android":"levelo://app?vid=d5d656ce-6d10-446b-83e4-01e50cae5e79","ios":"levelo://app?vid=d5d656ce-6d10-446b-83e4-01e50cae5e79"},"vehicle_type_id":"4","last_reported":1770882652,"current_range_meters":3600,"station_id":"st_d4kl2rp97mjs73e7tdfg","pricing_plan_id":"cebpf4jnsgd1na2vs0mg"},{"bike_id":"bdde70ef-70ce-4d41-a03b-1cac73853d63","system_id":"levelo_inurba_marseille","lat":43.24177,"lon":5.36459,"is_reserved":false,"is_disabled":false,"rental_uris":{"android":"levelo://app?vid=bdde70ef-70ce-4d41-a03b-1cac73853d63","ios":"levelo://app?vid=bdde70ef-70ce-4d41-a03b-1cac73853d63"},"vehicle_type_id":"4","last_reported":1770882652,"current_range_meters":3600,"station_id":"","pricing_plan_id":"cebpf4jnsgd1na2vs0mg"},{"bike_id":"0f2cc21d-ee8f-40cf-940c-bb6b1ccfe1b0","system_id":"levelo_inurba_marseille","lat":43.2891,"lon":5.38408,"is_reserved":false,"is_disabled":true,"rental_uris":{"android":"levelo://app?vid=0f2cc21d-ee8f-40cf-940c-bb6b1ccfe1b0","ios":"levelo://app?vid=0f2cc21d-ee8f-40cf-940c-bb6b1ccfe1b0"},"vehicle_type_id":"4","last_reported":1770882652,"current_range_meters":3600,"station_id":"ce4bh612rcd13ifvqe6g","pricing_plan_id":"cebpf4jnsgd1na2vs0mg"},{"bike_id":"15ba1070-6691-47bc-92d0-28964408b5ae","system_id":"levelo_inurba_marseille","lat":43.32533,"lon":5.41437,"is_reserved":false,"is_disabled":false,"rental_uris":{"android":"levelo://app?vid=15ba1070-6691-47bc-92d0-28964408b5ae","ios":"levelo://app?vid=15ba1070-6691-47bc-92d0-28964408b5ae"},"vehicle_type_id":"4","last_reported":1770882652,"current_range_meters":3600,"station_id":"ce4bhq12rcd13ifvqhhg","pricing_plan_id":"cebpf4jnsgd1na2vs0mg"},{"bike_id":"a05b422a-95a3-4880-a8be-5840943a5bab","system_id":"levelo_inurba_marseille","lat":43.22552,"lon":5.41644,"is_reserved":false,"is_disabled":false,"rental_uris":{"android":"levelo://app?vid=a05b422a-95a3-4880-a8be-5840943a5bab","ios":"levelo://app?vid=a05b422a-95a3-4880-a8be-5840943a5bab"},"vehicle_type_id":"4","last_reported":1770882652,"current_range_meters":3600,"station_id":"st_d2o4gvlbi1j2169b742g","pricing_plan_id":"cebpf4jnsgd1na2vs0mg"},{"bike_id":"238249fa-46de-416c-b2d1-b229a6220ad5","system_id":"levelo_inurba_marseille","lat":43.26549,"lon":5.39029,"is_reserved":false,"is_disabled":false,"rental_uris":{"android":"levelo://app?vid=238249fa-46de-416c-b2d1-b229a6220ad5","ios":"levelo://app?vid=238249fa-46de-416c-b2d1-b229a6220ad5"},"vehicle_type_id":"4","last_reported":1770882652,"current_range_meters":3600,"station_id":"ce4bhe12rcd13ifvqf30","pricing_plan_id":"cebpf4jnsgd1na2vs0mg"},{"bike_id":"8b4263f7-2795-486a-b290-22850f34f9ba","system_id":"levelo_inurba_marseille","lat":43.25003,"lon":5.38928,"is_reserved":false,"is_disabled":false,"rental_uris":{"android":"levelo://app?vid=8b4263f7-2795-486a-b290-22850f34f9ba","ios":"levelo://app?vid=8b4263f7-2795-486a-b290-22850f34f9ba"},"vehicle_type_id":"4","last_reported":1770882652,"current_range_meters":3600,"station_id":"ce4bhgp2rcd13ifvqfd0","pricing_plan_id":"cebpf4jnsgd1na2vs0mg"},{"bike_id":"beb10f14-7ed0-4995-b64f-8f818f81f8e5","system_id":"levelo_inurba_marseille","lat":43.3025,"lon":5.40082,"is_reserved":false,"is_disabled":false,"rental_uris":{"android":"levelo://app?vid=beb10f14-7ed0-4995-b64f-8f818f81f8e5","ios":"levelo://app?vid=beb10f14-7ed0-4995-b64f-8f818f81f8e5"},"vehicle_type_id":"4","last_reported":1770882652,"current_range_meters":4000,"station_id":"ce4bgvh2rcd13ifvqcs0","pricing_plan_id":"cebpf4jnsgd1na2vs0mg"},{"bike_id":"78fe6c10-9708-4494-9743-a392dee1b30b","system_id":"levelo_inurba_marseille","lat":43.26955,"lon":5.38624,"is_reserved":false,"is_disabled":false,"rental_uris":{"android":"levelo://app?vid=78fe6c10-9708-4494-9743-a392dee1b30b","ios":"levelo://app?vid=78fe6c10-9708-4494-9743-a392dee1b30b"},"vehicle_type_id":"4","last_reported":1770882652,"current_range_meters":4000,"station_id":"ce4bhh92rcd13ifvqfh0","pricing_plan_id":"cebpf4jnsgd1na2vs0mg"},{"bike_id":"17783245-5831-4045-8165-8e88fd2d1fd1","system_id":"levelo_inurba_marseille","lat":43.29171,"lon":5.37156,"is_reserved":false,"is_disabled":false,"rental_uris":{"android":"levelo://app?vid=17783245-5831-4045-8165-8e88fd2d1fd1","ios":"levelo://app?vid=17783245-5831-4045-8165-8e88fd2d1fd1"},"vehicle_type_id":"4","last_reported":1770882652,"current_range_meters":4000,"station_id":"ce4bha92rcd13ifvqeh0","pricing_plan_id":"cebpf4jnsgd1na2vs0mg"},{"bike_id":"070e6942-f4e8-46ac-9fa8-9860b9182619","system_id":"levelo_inurba_marseille","lat":43.28548,"lon":5.39424,"is_reserved":false,"is_disabled":false,"rental_uris":{"android":"levelo://app?vid=070e6942-f4e8-46ac-9fa8-9860b9182619","ios":"levelo://app?vid=070e6942-f4e8-46ac-9fa8-9860b9182619"},"vehicle_type_id":"4","last_reported":1770882652,"current_range_meters":4000,"station_id":"","pricing_plan_id":"cebpf4jnsgd1na2vs0mg"},{"bike_id":"a22d2b78-6e26-4e23-8335-717b610f7865","system_id":"levelo_inurba_marseille","lat":43.24808,"lon":5.3745,"is_reserved":false,"is_disabled":false,"rental_uris":{"android":"levelo://app?vid=a22d2b78-6e26-4e23-8335-717b610f7865","ios":"levelo://app?vid=a22d2b78-6e26-4e23-8335-717b610f7865"},"vehicle_type_id":"4","last_reported":1770882652,"current_range_meters":4000,"station_id":"ce4bhgh2rcd13ifvqfb0","pricing_plan_id":"cebpf4jnsgd1na2vs0mg"},{"bike_id":"890d666c-9da6-4153-bd7e-60e53c0ee9bf","system_id":"levelo_inurba_marseille","lat":43.33773,"lon":5.37482,"is_reserved":false,"is_disabled":true,"rental_uris":{"android":"levelo://app?vid=890d666c-9da6-4153-bd7e-60e53c0ee9bf","ios":"levelo://app?vid=890d666c-9da6-4153-bd7e-60e53c0ee9bf"},"vehicle_type_id":"4","last_reported":1770882652,"current_range_meters":4400,"station_id":"","pricing_plan_id":"cebpf4jnsgd1na2vs0mg"},{"bike_id":"fe86c9ba-789d-48cb-b139-57215407552e","system_id":"levelo_inurba_marseille","lat":43.33757,"lon":5.37443,"is_reserved":false,"is_disabled":false,"rental_uris":{"android":"levelo://app?vid=fe86c9ba-789d-48cb-b139-57215407552e","ios":"levelo://app?vid=fe86c9ba-789d-48cb-b139-57215407552e"},"vehicle_type_id":"4","last_reported":1770882652,"current_range_meters":4400,"station_id":"","pricing_plan_id":"cebpf4jnsgd1na2vs0mg"},{"bike_id":"44e5f3fd-a88f-438c-8fce-63d975db57e0","system_id":"levelo_inurba_marseille","lat":43.29598,"lon":5.375,"is_reserved":false,"is_disabled":false,"rental_uris":{"android":"levelo://app?vid=44e5f3fd-a88f-438c-8fce-63d975db57e0","ios":"levelo://app?vid=44e5f3fd-a88f-438c-8fce-63d975db57e0"},"vehicle_type_id":"4","last_reported":1770882652,"current_range_meters":4400,"station_id":"ce4bgh92rcd13ifvqb50","pricing_plan_id":"cebpf4jnsgd1na2vs0mg"},{"bike_id":"ab7260d3-0b60-4920-bd6e-553838fbba97","system_id":"levelo_inurba_marseille","lat":43.30435,"lon":5.40253,"is_reserved":false,"is_disabled":false,"rental_uris":{"android":"levelo://app?vid=ab7260d3-0b60-4920-bd6e-553838fbba97","ios":"levelo://app?vid=ab7260d3-0b60-4920-bd6e-553838fbba97"},"vehicle_type_id":"4","last_reported":1770882652,"current_range_meters":4400,"station_id":"","pricing_plan_id":"cebpf4jnsgd1na2vs0mg"},{"bike_id":"b817fba3-000a-48b8-bd0c-18af3fedb1c6","system_id":"levelo_inurba_marseille","lat":43.231377,"lon":5.437455,"is_reserved":false,"is_disabled":false,"rental_uris":{"android":"levelo://app?vid=b817fba3-000a-48b8-bd0c-18af3fedb1c6","ios":"levelo://app?vid=b817fba3-000a-48b8-bd0c-18af3fedb1c6"},"vehicle_type_id":"4","last_reported":1770882652,"current_range_meters":4400,"station_id":"ce4bhmp2rcd13ifvqgog","pricing_plan_id":"cebpf4jnsgd1na2vs0mg"},{"bike_id":"cdb5c25c-a15a-4142-a44d-9f93b3d885b7","system_id":"levelo_inurba_marseille","lat":43.28899,"lon":5.4315,"is_reserved":false,"is_disabled":true,"rental_uris":{"android":"levelo://app?vid=cdb5c25c-a15a-4142-a44d-9f93b3d885b7","ios":"levelo://app?vid=cdb5c25c-a15a-4142-a44d-9f93b3d885b7"},"vehicle_type_id":"4","last_reported":1770882652,"current_range_meters":4400,"station_id":"","pricing_plan_id":"cebpf4jnsgd1na2vs0mg"},{"bike_id":"80402ecf-b8d7-4b37-a51b-bc25571b17fe","system_id":"levelo_inurba_marseille","lat":43.26212,"lon":5.40436,"is_reserved":false,"is_disabled":true,"rental_uris":{"android":"levelo://app?vid=80402ecf-b8d7-4b37-a51b-bc25571b17fe","ios":"levelo://app?vid=80402ecf-b8d7-4b37-a51b-bc25571b17fe"},"vehicle_type_id":"4","last_reported":1770882652,"current_range_meters":4400,"station_id":"ce4bhmh2rcd13ifvqgmg","pricing_plan_id":"cebpf4jnsgd1na2vs0mg"},{"bike_id":"0e5b4a52-62b0-4b98-96f2-0fa05957b52f","system_id":"levelo_inurba_marseille","lat":43.25723,"lon":5.41118,"is_reserved":false,"is_disabled":false,"rental_uris":{"android":"levelo://app?vid=0e5b4a52-62b0-4b98-96f2-0fa05957b52f","ios":"levelo://app?vid=0e5b4a52-62b0-4b98-96f2-0fa05957b52f"},"vehicle_type_id":"4","last_reported":1770882652,"current_range_meters":4400,"station_id":"ce4bhkp2rcd13ifvqgd0","pricing_plan_id":"cebpf4jnsgd1na2vs0mg"},{"bike_id":"f522a37b-7b1a-4bf2-902e-61d1ad81f21a","system_id":"levelo_inurba_marseille","lat":43.31191,"lon":5.36843,"is_reserved":false,"is_disabled":false,"rental_uris":{"android":"levelo://app?vid=f522a37b-7b1a-4bf2-902e-61d1ad81f21a","ios":"levelo://app?vid=f522a37b-7b1a-4bf2-902e-61d1ad81f21a"},"vehicle_type_id":"4","last_reported":1770882652,"current_range_meters":4800,"station_id":"ce4bgl92rcd13ifvqbq0","pricing_plan_id":"cebpf4jnsgd1na2vs0mg"},{"bike_id":"bb22b417-2211-49a2-8f12-7d2df92428b1","system_id":"levelo_inurba_marseille","lat":43.311724,"lon":5.387249,"is_reserved":false,"is_disabled":false,"rental_uris":{"android":"levelo://app?vid=bb22b417-2211-49a2-8f12-7d2df92428b1","ios":"levelo://app?vid=bb22b417-2211-49a2-8f12-7d2df92428b1"},"vehicle_type_id":"4","last_reported":1770882652,"current_range_meters":4800,"station_id":"","pricing_plan_id":"cebpf4jnsgd1na2vs0mg"},{"bike_id":"c10d59ef-6b38-405e-be61-8581d7f577f3","system_id":"levelo_inurba_marseille","lat":43.31321,"lon":5.39698,"is_reserved":false,"is_disabled":false,"rental_uris":{"android":"levelo://app?vid=c10d59ef-6b38-405e-be61-8581d7f577f3","ios":"levelo://app?vid=c10d59ef-6b38-405e-be61-8581d7f577f3"},"vehicle_type_id":"4","last_reported":1770882652,"current_range_meters":4800,"station_id":"ce4bgvp2rcd13ifvqcu0","pricing_plan_id":"cebpf4jnsgd1na2vs0mg"},{"bike_id":"18796eab-fe45-4f4b-bdfb-2e239d056735","system_id":"levelo_inurba_marseille","lat":43.29043,"lon":5.39968,"is_reserved":false,"is_disabled":false,"rental_uris":{"android":"levelo://app?vid=18796eab-fe45-4f4b-bdfb-2e239d056735","ios":"levelo://app?vid=18796eab-fe45-4f4b-bdfb-2e239d056735"},"vehicle_type_id":"4","last_reported":1770882652,"current_range_meters":4800,"station_id":"ce4bh392rcd13ifvqdm0","pricing_plan_id":"cebpf4jnsgd1na2vs0mg"},{"bike_id":"ff4469bd-d00a-46cf-9010-6410b3c67e79","system_id":"levelo_inurba_marseille","lat":43.25334,"lon":5.42172,"is_reserved":false,"is_disabled":false,"rental_uris":{"android":"levelo://app?vid=ff4469bd-d00a-46cf-9010-6410b3c67e79","ios":"levelo://app?vid=ff4469bd-d00a-46cf-9010-6410b3c67e79"},"vehicle_type_id":"4","last_reported":1770882652,"current_range_meters":4800,"station_id":"st_d2m65c5bi1j21697t3ng","pricing_plan_id":"cebpf4jnsgd1na2vs0mg"},{"bike_id":"430dc05f-8024-479b-b99f-5d1145b19e00","system_id":"levelo_inurba_marseille","lat":43.28472,"lon":5.38416,"is_reserved":false,"is_disabled":false,"rental_uris":{"android":"levelo://app?vid=430dc05f-8024-479b-b99f-5d1145b19e00","ios":"levelo://app?vid=430dc05f-8024-479b-b99f-5d1145b19e00"},"vehicle_type_id":"4","last_reported":1770882652,"current_range_meters":4800,"station_id":"ce4bh512rcd13ifvqe3g","pricing_plan_id":"cebpf4jnsgd1na2vs0mg"},{"bike_id":"ae861497-9a22-4231-afa9-8238d5c5713c","system_id":"levelo_inurba_marseille","lat":43.241771,"lon":5.363787,"is_reserved":false,"is_disabled":false,"rental_uris":{"android":"levelo://app?vid=ae861497-9a22-4231-afa9-8238d5c5713c","ios":"levelo://app?vid=ae861497-9a22-4231-afa9-8238d5c5713c"},"vehicle_type_id":"4","last_reported":1770882652,"current_range_meters":4800,"station_id":"cpo36qri1sfpv3e86is0","pricing_plan_id":"cebpf4jnsgd1na2vs0mg"},{"bike_id":"9b586055-3525-4e43-ae53-8d6c2fff45ed","system_id":"levelo_inurba_marseille","lat":43.24166,"lon":5.364034,"is_reserved":false,"is_disabled":false,"rental_uris":{"android":"levelo://app?vid=9b586055-3525-4e43-ae53-8d6c2fff45ed","ios":"levelo://app?vid=9b586055-3525-4e43-ae53-8d6c2fff45ed"},"vehicle_type_id":"4","last_reported":1770882652,"current_range_meters":4800,"station_id":"cpo36qri1sfpv3e86is0","pricing_plan_id":"cebpf4jnsgd1na2vs0mg"},{"bike_id":"39f9b61e-9e27-467c-b081-5b6c22a6c92f","system_id":"levelo_inurba_marseille","lat":43.26547,"lon":5.37299,"is_reserved":false,"is_disabled":true,"rental_uris":{"android":"levelo://app?vid=39f9b61e-9e27-467c-b081-5b6c22a6c92f","ios":"levelo://app?vid=39f9b61e-9e27-467c-b081-5b6c22a6c92f"},"vehicle_type_id":"4","last_reported":1770882652,"current_range_meters":4800,"station_id":"ce4bhg12rcd13ifvqf70","pricing_plan_id":"cebpf4jnsgd1na2vs0mg"},{"bike_id":"65a187f5-e917-465d-bcda-9164a2714032","system_id":"levelo_inurba_marseille","lat":43.31057,"lon":5.37171,"is_reserved":false,"is_disabled":false,"rental_uris":{"android":"levelo://app?vid=65a187f5-e917-465d-bcda-9164a2714032","ios":"levelo://app?vid=65a187f5-e917-465d-bcda-9164a2714032"},"vehicle_type_id":"4","last_reported":1770882652,"current_range_meters":4800,"station_id":"st_d4kl2rp97mjs73e7tdfg","pricing_plan_id":"cebpf4jnsgd1na2vs0mg"},{"bike_id":"6efe5f0a-6c4f-403e-907f-5428484845d2","system_id":"levelo_inurba_marseille","lat":43.31695,"lon":5.40391,"is_reserved":false,"is_disabled":false,"rental_uris":{"android":"levelo://app?vid=6efe5f0a-6c4f-403e-907f-5428484845d2","ios":"levelo://app?vid=6efe5f0a-6c4f-403e-907f-5428484845d2"},"vehicle_type_id":"4","last_reported":1770882652,"current_range_meters":4800,"station_id":"","pricing_plan_id":"cebpf4jnsgd1na2vs0mg"},{"bike_id":"33352d89-c7bd-4d2f-8796-2f3b2fb0783e","system_id":"levelo_inurba_marseille","lat":43.28172,"lon":5.42703,"is_reserved":false,"is_disabled":false,"rental_uris":{"android":"levelo://app?vid=33352d89-c7bd-4d2f-8796-2f3b2fb0783e","ios":"levelo://app?vid=33352d89-c7bd-4d2f-8796-2f3b2fb0783e"},"vehicle_type_id":"4","last_reported":1770882652,"current_range_meters":4800,"station_id":"","pricing_plan_id":"cebpf4jnsgd1na2vs0mg"},{"bike_id":"2ad099f2-2b4e-4d46-bda1-4aa88ab18228","system_id":"levelo_inurba_marseille","lat":43.26909,"lon":5.40259,"is_reserved":false,"is_disabled":false,"rental_uris":{"android":"levelo://app?vid=2ad099f2-2b4e-4d46-bda1-4aa88ab18228","ios":"levelo://app?vid=2ad099f2-2b4e-4d46-bda1-4aa88ab18228"},"vehicle_type_id":"4","last_reported":1770882652,"current_range_meters":5600,"station_id":"cjm6bp8fraef2m0cb0m0","pricing_plan_id":"cebpf4jnsgd1na2vs0mg"},{"bike_id":"1a0d99f0-ee74-4956-bad4-992b0789ccc7","system_id":"levelo_inurba_marseille","lat":43.211944,"lon":5.350778,"is_reserved":false,"is_disabled":false,"rental_uris":{"android":"levelo://app?vid=1a0d99f0-ee74-4956-bad4-992b0789ccc7","ios":"levelo://app?vid=1a0d99f0-ee74-4956-bad4-992b0789ccc7"},"vehicle_type_id":"4","last_reported":1770882652,"current_range_meters":5600,"station_id":"st_cvj6sg6p6f1abm77japg","pricing_plan_id":"cebpf4jnsgd1na2vs0mg"},{"bike_id":"ed5f093d-1aa3-4ff9-ab82-20bb031f1bc6","system_id":"levelo_inurba_marseille","lat":43.28533,"lon":5.44096,"is_reserved":false,"is_disabled":true,"rental_uris":{"android":"levelo://app?vid=ed5f093d-1aa3-4ff9-ab82-20bb031f1bc6","ios":"levelo://app?vid=ed5f093d-1aa3-4ff9-ab82-20bb031f1bc6"},"vehicle_type_id":"4","last_reported":1770882652,"current_range_meters":5600,"station_id":"","pricing_plan_id":"cebpf4jnsgd1na2vs0mg"},{"bike_id":"aa81d971-4385-4dcd-9547-5ba1f251ead7","system_id":"levelo_inurba_marseille","lat":43.30147,"lon":5.39832,"is_reserved":false,"is_disabled":false,"rental_uris":{"android":"levelo://app?vid=aa81d971-4385-4dcd-9547-5ba1f251ead7","ios":"levelo://app?vid=aa81d971-4385-4dcd-9547-5ba1f251ead7"},"vehicle_type_id":"4","last_reported":1770882652,"current_range_meters":5600,"station_id":"ce4bh0h2rcd13ifvqd40","pricing_plan_id":"cebpf4jnsgd1na2vs0mg"},{"bike_id":"ac9a885a-fe7d-4871-905c-95e91acf3aa8","system_id":"levelo_inurba_marseille","lat":43.2256,"lon":5.41635,"is_reserved":false,"is_disabled":false,"rental_uris":{"android":"levelo://app?vid=ac9a885a-fe7d-4871-905c-95e91acf3aa8","ios":"levelo://app?vid=ac9a885a-fe7d-4871-905c-95e91acf3aa8"},"vehicle_type_id":"4","last_reported":1770882652,"current_range_meters":5600,"station_id":"st_d2o4gvlbi1j2169b742g","pricing_plan_id":"cebpf4jnsgd1na2vs0mg"},{"bike_id":"feb45ceb-96a9-4bff-9be4-8ff810580e9f","system_id":"levelo_inurba_marseille","lat":43.29967,"lon":5.38493,"is_reserved":false,"is_disabled":false,"rental_uris":{"android":"levelo://app?vid=feb45ceb-96a9-4bff-9be4-8ff810580e9f","ios":"levelo://app?vid=feb45ceb-96a9-4bff-9be4-8ff810580e9f"},"vehicle_type_id":"4","last_reported":1770882652,"current_range_meters":5600,"station_id":"ce4bgj92rcd13ifvqbd0","pricing_plan_id":"cebpf4jnsgd1na2vs0mg"},{"bike_id":"71606aa2-ac39-42c7-8697-5b85fbef9df8","system_id":"levelo_inurba_marseille","lat":43.23138,"lon":5.43732,"is_reserved":false,"is_disabled":false,"rental_uris":{"android":"levelo://app?vid=71606aa2-ac39-42c7-8697-5b85fbef9df8","ios":"levelo://app?vid=71606aa2-ac39-42c7-8697-5b85fbef9df8"},"vehicle_type_id":"4","last_reported":1770882652,"current_range_meters":5600,"station_id":"ce4bhmp2rcd13ifvqgog","pricing_plan_id":"cebpf4jnsgd1na2vs0mg"},{"bike_id":"a64f1051-a316-44ad-9fb5-5f1868af907b","system_id":"levelo_inurba_marseille","lat":43.260555,"lon":5.406743,"is_reserved":false,"is_disabled":false,"rental_uris":{"android":"levelo://app?vid=a64f1051-a316-44ad-9fb5-5f1868af907b","ios":"levelo://app?vid=a64f1051-a316-44ad-9fb5-5f1868af907b"},"vehicle_type_id":"4","last_reported":1770882652,"current_range_meters":5600,"station_id":"ce4bhm92rcd13ifvqglg","pricing_plan_id":"cebpf4jnsgd1na2vs0mg"},{"bike_id":"fe85a283-164e-4135-8ab7-7e2210250f6e","system_id":"levelo_inurba_marseille","lat":43.26042,"lon":5.39434,"is_reserved":false,"is_disabled":false,"rental_uris":{"android":"levelo://app?vid=fe85a283-164e-4135-8ab7-7e2210250f6e","ios":"levelo://app?vid=fe85a283-164e-4135-8ab7-7e2210250f6e"},"vehicle_type_id":"4","last_reported":1770882652,"current_range_meters":6000,"station_id":"ce4bhh92rcd13ifvqfj0","pricing_plan_id":"cebpf4jnsgd1na2vs0mg"},{"bike_id":"0d60f49b-2168-485f-9c8c-8bf326d0ba55","system_id":"levelo_inurba_marseille","lat":43.24505,"lon":5.42456,"is_reserved":false,"is_disabled":false,"rental_uris":{"android":"levelo://app?vid=0d60f49b-2168-485f-9c8c-8bf326d0ba55","ios":"levelo://app?vid=0d60f49b-2168-485f-9c8c-8bf326d0ba55"},"vehicle_type_id":"4","last_reported":1770882652,"current_range_meters":6000,"station_id":"","pricing_plan_id":"cebpf4jnsgd1na2vs0mg"},{"bike_id":"f4548a4a-dac8-478b-b4ac-1b0e221b119a","system_id":"levelo_inurba_marseille","lat":43.24687,"lon":5.3814,"is_reserved":false,"is_disabled":false,"rental_uris":{"android":"levelo://app?vid=f4548a4a-dac8-478b-b4ac-1b0e221b119a","ios":"levelo://app?vid=f4548a4a-dac8-478b-b4ac-1b0e221b119a"},"vehicle_type_id":"4","last_reported":1770882652,"current_range_meters":6000,"station_id":"ce4bhih2rcd13ifvqfr0","pricing_plan_id":"cebpf4jnsgd1na2vs0mg"},{"bike_id":"dc0bbbef-469e-4852-b275-445893c3bbfc","system_id":"levelo_inurba_marseille","lat":43.31217,"lon":5.36836,"is_reserved":false,"is_disabled":false,"rental_uris":{"android":"levelo://app?vid=dc0bbbef-469e-4852-b275-445893c3bbfc","ios":"levelo://app?vid=dc0bbbef-469e-4852-b275-445893c3bbfc"},"vehicle_type_id":"4","last_reported":1770882652,"current_range_meters":6000,"station_id":"ce4bgl92rcd13ifvqbq0","pricing_plan_id":"cebpf4jnsgd1na2vs0mg"},{"bike_id":"149a6406-4d9d-4e0a-8b0b-7fd42df9ac88","system_id":"levelo_inurba_marseille","lat":43.31234,"lon":5.40196,"is_reserved":false,"is_disabled":false,"rental_uris":{"android":"levelo://app?vid=149a6406-4d9d-4e0a-8b0b-7fd42df9ac88","ios":"levelo://app?vid=149a6406-4d9d-4e0a-8b0b-7fd42df9ac88"},"vehicle_type_id":"4","last_reported":1770882652,"current_range_meters":6000,"station_id":"ce4bh092rcd13ifvqd30","pricing_plan_id":"cebpf4jnsgd1na2vs0mg"},{"bike_id":"9e3bc487-b0e5-43b2-98b8-caa6f87f206e","system_id":"levelo_inurba_marseille","lat":43.31722,"lon":5.37767,"is_reserved":false,"is_disabled":false,"rental_uris":{"android":"levelo://app?vid=9e3bc487-b0e5-43b2-98b8-caa6f87f206e","ios":"levelo://app?vid=9e3bc487-b0e5-43b2-98b8-caa6f87f206e"},"vehicle_type_id":"4","last_reported":1770882652,"current_range_meters":6000,"station_id":"ce4bgth2rcd13ifvqch0","pricing_plan_id":"cebpf4jnsgd1na2vs0mg"},{"bike_id":"df851928-0210-44aa-9b6b-dae103965811","system_id":"levelo_inurba_marseille","lat":43.2402,"lon":5.36247,"is_reserved":false,"is_disabled":false,"rental_uris":{"android":"levelo://app?vid=df851928-0210-44aa-9b6b-dae103965811","ios":"levelo://app?vid=df851928-0210-44aa-9b6b-dae103965811"},"vehicle_type_id":"4","last_reported":1770882652,"current_range_meters":6000,"station_id":"","pricing_plan_id":"cebpf4jnsgd1na2vs0mg"},{"bike_id":"8b4b38ac-f6cb-48ed-90a4-30149ea67fd7","system_id":"levelo_inurba_marseille","lat":43.29228,"lon":5.3961,"is_reserved":false,"is_disabled":false,"rental_uris":{"android":"levelo://app?vid=8b4b38ac-f6cb-48ed-90a4-30149ea67fd7","ios":"levelo://app?vid=8b4b38ac-f6cb-48ed-90a4-30149ea67fd7"},"vehicle_type_id":"4","last_reported":1770882652,"current_range_meters":6000,"station_id":"","pricing_plan_id":"cebpf4jnsgd1na2vs0mg"},{"bike_id":"3459ccef-2414-463a-bdb0-352ec2e48f58","system_id":"levelo_inurba_marseille","lat":43.26227,"lon":5.40477,"is_reserved":false,"is_disabled":false,"rental_uris":{"android":"levelo://app?vid=3459ccef-2414-463a-bdb0-352ec2e48f58","ios":"levelo://app?vid=3459ccef-2414-463a-bdb0-352ec2e48f58"},"vehicle_type_id":"4","last_reported":1770882652,"current_range_meters":6000,"station_id":"ce4bhmh2rcd13ifvqgmg","pricing_plan_id":"cebpf4jnsgd1na2vs0mg"},{"bike_id":"96a5180e-538d-4568-84fb-b36504b56fbe","system_id":"levelo_inurba_marseille","lat":43.30135,"lon":5.38779,"is_reserved":false,"is_disabled":false,"rental_uris":{"android":"levelo://app?vid=96a5180e-538d-4568-84fb-b36504b56fbe","ios":"levelo://app?vid=96a5180e-538d-4568-84fb-b36504b56fbe"},"vehicle_type_id":"4","last_reported":1770882652,"current_range_meters":6000,"station_id":"ce4bghh2rcd13ifvqb60","pricing_plan_id":"cebpf4jnsgd1na2vs0mg"},{"bike_id":"babdcd4a-655b-4e95-88f5-77a8529739da","system_id":"levelo_inurba_marseille","lat":43.22559,"lon":5.4164,"is_reserved":false,"is_disabled":false,"rental_uris":{"android":"levelo://app?vid=babdcd4a-655b-4e95-88f5-77a8529739da","ios":"levelo://app?vid=babdcd4a-655b-4e95-88f5-77a8529739da"},"vehicle_type_id":"4","last_reported":1770882652,"current_range_meters":6000,"station_id":"st_d2o4gvlbi1j2169b742g","pricing_plan_id":"cebpf4jnsgd1na2vs0mg"},{"bike_id":"b1db8e44-4028-41d4-bde1-fa73a873ec0a","system_id":"levelo_inurba_marseille","lat":43.24996,"lon":5.38932,"is_reserved":false,"is_disabled":false,"rental_uris":{"android":"levelo://app?vid=b1db8e44-4028-41d4-bde1-fa73a873ec0a","ios":"levelo://app?vid=b1db8e44-4028-41d4-bde1-fa73a873ec0a"},"vehicle_type_id":"4","last_reported":1770882652,"current_range_meters":6000,"station_id":"ce4bhgp2rcd13ifvqfd0","pricing_plan_id":"cebpf4jnsgd1na2vs0mg"},{"bike_id":"cc43a2a6-4df1-46ee-89a5-e5908a5338ed","system_id":"levelo_inurba_marseille","lat":43.28475,"lon":5.48393,"is_reserved":false,"is_disabled":false,"rental_uris":{"android":"levelo://app?vid=cc43a2a6-4df1-46ee-89a5-e5908a5338ed","ios":"levelo://app?vid=cc43a2a6-4df1-46ee-89a5-e5908a5338ed"},"vehicle_type_id":"4","last_reported":1770882652,"current_range_meters":6000,"station_id":"st_d3svhcjqgbts73a3dn0g","pricing_plan_id":"cebpf4jnsgd1na2vs0mg"},{"bike_id":"647a1652-6fe3-4f62-84e0-345c49e7ef27","system_id":"levelo_inurba_marseille","lat":43.30931,"lon":5.38491,"is_reserved":false,"is_disabled":false,"rental_uris":{"android":"levelo://app?vid=647a1652-6fe3-4f62-84e0-345c49e7ef27","ios":"levelo://app?vid=647a1652-6fe3-4f62-84e0-345c49e7ef27"},"vehicle_type_id":"4","last_reported":1770882652,"current_range_meters":6000,"station_id":"","pricing_plan_id":"cebpf4jnsgd1na2vs0mg"},{"bike_id":"705379f0-9f22-461e-8900-3556f13ec82c","system_id":"levelo_inurba_marseille","lat":43.317186,"lon":5.377647,"is_reserved":false,"is_disabled":false,"rental_uris":{"android":"levelo://app?vid=705379f0-9f22-461e-8900-3556f13ec82c","ios":"levelo://app?vid=705379f0-9f22-461e-8900-3556f13ec82c"},"vehicle_type_id":"4","last_reported":1770882652,"current_range_meters":6400,"station_id":"ce4bgth2rcd13ifvqch0","pricing_plan_id":"cebpf4jnsgd1na2vs0mg"},{"bike_id":"9df34885-ac04-43a6-b4c2-df2cea230626","system_id":"levelo_inurba_marseille","lat":43.31273,"lon":5.36818,"is_reserved":false,"is_disabled":false,"rental_uris":{"android":"levelo://app?vid=9df34885-ac04-43a6-b4c2-df2cea230626","ios":"levelo://app?vid=9df34885-ac04-43a6-b4c2-df2cea230626"},"vehicle_type_id":"4","last_reported":1770882652,"current_range_meters":6400,"station_id":"","pricing_plan_id":"cebpf4jnsgd1na2vs0mg"},{"bike_id":"834da72d-2e32-479e-bc3f-592da1e51209","system_id":"levelo_inurba_marseille","lat":43.27084,"lon":5.42269,"is_reserved":false,"is_disabled":false,"rental_uris":{"android":"levelo://app?vid=834da72d-2e32-479e-bc3f-592da1e51209","ios":"levelo://app?vid=834da72d-2e32-479e-bc3f-592da1e51209"},"vehicle_type_id":"4","last_reported":1770882652,"current_range_meters":6400,"station_id":"ce4bhk92rcd13ifvqgb0","pricing_plan_id":"cebpf4jnsgd1na2vs0mg"},{"bike_id":"2e5550f9-f008-4237-8bd6-122cbd7ea3cb","system_id":"levelo_inurba_marseille","lat":43.263727,"lon":5.410747,"is_reserved":false,"is_disabled":false,"rental_uris":{"android":"levelo://app?vid=2e5550f9-f008-4237-8bd6-122cbd7ea3cb","ios":"levelo://app?vid=2e5550f9-f008-4237-8bd6-122cbd7ea3cb"},"vehicle_type_id":"4","last_reported":1770882652,"current_range_meters":6400,"station_id":"st_d4e5ca6na9uc73bfl5fg","pricing_plan_id":"cebpf4jnsgd1na2vs0mg"},{"bike_id":"4878db2c-1746-4e84-a2dc-9ef31135b542","system_id":"levelo_inurba_marseille","lat":43.2586,"lon":5.39911,"is_reserved":false,"is_disabled":false,"rental_uris":{"android":"levelo://app?vid=4878db2c-1746-4e84-a2dc-9ef31135b542","ios":"levelo://app?vid=4878db2c-1746-4e84-a2dc-9ef31135b542"},"vehicle_type_id":"4","last_reported":1770882652,"current_range_meters":6400,"station_id":"ce4bhl92rcd13ifvqghg","pricing_plan_id":"cebpf4jnsgd1na2vs0mg"},{"bike_id":"fdcca747-1f0c-4265-9d25-6a349973ec5d","system_id":"levelo_inurba_marseille","lat":43.33156,"lon":5.37709,"is_reserved":false,"is_disabled":false,"rental_uris":{"android":"levelo://app?vid=fdcca747-1f0c-4265-9d25-6a349973ec5d","ios":"levelo://app?vid=fdcca747-1f0c-4265-9d25-6a349973ec5d"},"vehicle_type_id":"4","last_reported":1770882652,"current_range_meters":6400,"station_id":"st_d46cu089ee8s73dldbu0","pricing_plan_id":"cebpf4jnsgd1na2vs0mg"},{"bike_id":"602b1aa7-ae78-4f99-bdeb-c1fa3809495e","system_id":"levelo_inurba_marseille","lat":43.24375,"lon":5.37068,"is_reserved":false,"is_disabled":false,"rental_uris":{"android":"levelo://app?vid=602b1aa7-ae78-4f99-bdeb-c1fa3809495e","ios":"levelo://app?vid=602b1aa7-ae78-4f99-bdeb-c1fa3809495e"},"vehicle_type_id":"4","last_reported":1770882652,"current_range_meters":6400,"station_id":"ce4bhhh2rcd13ifvqfk0","pricing_plan_id":"cebpf4jnsgd1na2vs0mg"},{"bike_id":"14a768c2-1fce-4402-bbfe-c5205b5ca5bc","system_id":"levelo_inurba_marseille","lat":43.27947,"lon":5.41056,"is_reserved":false,"is_disabled":false,"rental_uris":{"android":"levelo://app?vid=14a768c2-1fce-4402-bbfe-c5205b5ca5bc","ios":"levelo://app?vid=14a768c2-1fce-4402-bbfe-c5205b5ca5bc"},"vehicle_type_id":"4","last_reported":1770882652,"current_range_meters":6400,"station_id":"ce4bhnp2rcd13ifvqh0g","pricing_plan_id":"cebpf4jnsgd1na2vs0mg"},{"bike_id":"1c8ad576-b604-4822-b51b-92bbf6fee65c","system_id":"levelo_inurba_marseille","lat":43.26581,"lon":5.38982,"is_reserved":false,"is_disabled":false,"rental_uris":{"android":"levelo://app?vid=1c8ad576-b604-4822-b51b-92bbf6fee65c","ios":"levelo://app?vid=1c8ad576-b604-4822-b51b-92bbf6fee65c"},"vehicle_type_id":"4","last_reported":1770882652,"current_range_meters":6400,"station_id":"ce4bhe12rcd13ifvqf30","pricing_plan_id":"cebpf4jnsgd1na2vs0mg"},{"bike_id":"60144355-c5a2-4b27-9517-15dba4ba79a0","system_id":"levelo_inurba_marseille","lat":43.25568,"lon":5.38248,"is_reserved":false,"is_disabled":true,"rental_uris":{"android":"levelo://app?vid=60144355-c5a2-4b27-9517-15dba4ba79a0","ios":"levelo://app?vid=60144355-c5a2-4b27-9517-15dba4ba79a0"},"vehicle_type_id":"4","last_reported":1770882652,"current_range_meters":6400,"station_id":"ce4bhih2rcd13ifvqfs0","pricing_plan_id":"cebpf4jnsgd1na2vs0mg"},{"bike_id":"af69bb70-6bb2-49f9-9497-4437f2685d6f","system_id":"levelo_inurba_marseille","lat":43.299161,"lon":5.374825,"is_reserved":false,"is_disabled":false,"rental_uris":{"android":"levelo://app?vid=af69bb70-6bb2-49f9-9497-4437f2685d6f","ios":"levelo://app?vid=af69bb70-6bb2-49f9-9497-4437f2685d6f"},"vehicle_type_id":"4","last_reported":1770882652,"current_range_meters":6400,"station_id":"ce4bgjh2rcd13ifvqbg0","pricing_plan_id":"cebpf4jnsgd1na2vs0mg"},{"bike_id":"9c4fa197-e784-47a1-9a3e-1e64aa186f14","system_id":"levelo_inurba_marseille","lat":43.25934,"lon":5.40913,"is_reserved":false,"is_disabled":false,"rental_uris":{"android":"levelo://app?vid=9c4fa197-e784-47a1-9a3e-1e64aa186f14","ios":"levelo://app?vid=9c4fa197-e784-47a1-9a3e-1e64aa186f14"},"vehicle_type_id":"4","last_reported":1770882652,"current_range_meters":6800,"station_id":"ce4bhm92rcd13ifvqglg","pricing_plan_id":"cebpf4jnsgd1na2vs0mg"},{"bike_id":"14ee209d-c046-40be-81f7-160a502d2b4f","system_id":"levelo_inurba_marseille","lat":43.26556,"lon":5.39041,"is_reserved":false,"is_disabled":false,"rental_uris":{"android":"levelo://app?vid=14ee209d-c046-40be-81f7-160a502d2b4f","ios":"levelo://app?vid=14ee209d-c046-40be-81f7-160a502d2b4f"},"vehicle_type_id":"4","last_reported":1770882652,"current_range_meters":6800,"station_id":"ce4bhe12rcd13ifvqf30","pricing_plan_id":"cebpf4jnsgd1na2vs0mg"},{"bike_id":"a95bcbb6-9652-453d-a5aa-66a13cd5401c","system_id":"levelo_inurba_marseille","lat":43.25938,"lon":5.409,"is_reserved":false,"is_disabled":false,"rental_uris":{"android":"levelo://app?vid=a95bcbb6-9652-453d-a5aa-66a13cd5401c","ios":"levelo://app?vid=a95bcbb6-9652-453d-a5aa-66a13cd5401c"},"vehicle_type_id":"4","last_reported":1770882652,"current_range_meters":6800,"station_id":"ce4bhm92rcd13ifvqglg","pricing_plan_id":"cebpf4jnsgd1na2vs0mg"},{"bike_id":"d997c6b7-acb1-4efa-ae35-2d8c161e2e69","system_id":"levelo_inurba_marseille","lat":43.23175,"lon":5.35576,"is_reserved":false,"is_disabled":false,"rental_uris":{"android":"levelo://app?vid=d997c6b7-acb1-4efa-ae35-2d8c161e2e69","ios":"levelo://app?vid=d997c6b7-acb1-4efa-ae35-2d8c161e2e69"},"vehicle_type_id":"4","last_reported":1770882652,"current_range_meters":6800,"station_id":"ce4bhu92rcd13ifvqi70","pricing_plan_id":"cebpf4jnsgd1na2vs0mg"},{"bike_id":"6096df27-e3a3-45f3-8ea6-75144ef6859c","system_id":"levelo_inurba_marseille","lat":43.29634,"lon":5.40613,"is_reserved":false,"is_disabled":false,"rental_uris":{"android":"levelo://app?vid=6096df27-e3a3-45f3-8ea6-75144ef6859c","ios":"levelo://app?vid=6096df27-e3a3-45f3-8ea6-75144ef6859c"},"vehicle_type_id":"4","last_reported":1770882652,"current_range_meters":6800,"station_id":"ce4bh0h2rcd13ifvqd60","pricing_plan_id":"cebpf4jnsgd1na2vs0mg"},{"bike_id":"df15c576-fb6d-4d04-ae5c-9f90a70bc826","system_id":"levelo_inurba_marseille","lat":43.30143,"lon":5.3809,"is_reserved":false,"is_disabled":false,"rental_uris":{"android":"levelo://app?vid=df15c576-fb6d-4d04-ae5c-9f90a70bc826","ios":"levelo://app?vid=df15c576-fb6d-4d04-ae5c-9f90a70bc826"},"vehicle_type_id":"4","last_reported":1770882652,"current_range_meters":6800,"station_id":"ce4bgjp2rcd13ifvqbh0","pricing_plan_id":"cebpf4jnsgd1na2vs0mg"},{"bike_id":"8eacced8-272b-41d9-9397-61b329ca6fac","system_id":"levelo_inurba_marseille","lat":43.259,"lon":5.40912,"is_reserved":false,"is_disabled":false,"rental_uris":{"android":"levelo://app?vid=8eacced8-272b-41d9-9397-61b329ca6fac","ios":"levelo://app?vid=8eacced8-272b-41d9-9397-61b329ca6fac"},"vehicle_type_id":"4","last_reported":1770882652,"current_range_meters":6800,"station_id":"ce4bhm92rcd13ifvqglg","pricing_plan_id":"cebpf4jnsgd1na2vs0mg"},{"bike_id":"5fda65b6-7f98-4bf6-b2de-a2c95ed917cc","system_id":"levelo_inurba_marseille","lat":43.25432,"lon":5.38455,"is_reserved":false,"is_disabled":false,"rental_uris":{"android":"levelo://app?vid=5fda65b6-7f98-4bf6-b2de-a2c95ed917cc","ios":"levelo://app?vid=5fda65b6-7f98-4bf6-b2de-a2c95ed917cc"},"vehicle_type_id":"4","last_reported":1770882652,"current_range_meters":6800,"station_id":"","pricing_plan_id":"cebpf4jnsgd1na2vs0mg"},{"bike_id":"75ae7e56-e2d5-4caa-b027-309faf585654","system_id":"levelo_inurba_marseille","lat":43.26196,"lon":5.4048,"is_reserved":false,"is_disabled":false,"rental_uris":{"android":"levelo://app?vid=75ae7e56-e2d5-4caa-b027-309faf585654","ios":"levelo://app?vid=75ae7e56-e2d5-4caa-b027-309faf585654"},"vehicle_type_id":"4","last_reported":1770882652,"current_range_meters":6800,"station_id":"ce4bhmh2rcd13ifvqgmg","pricing_plan_id":"cebpf4jnsgd1na2vs0mg"},{"bike_id":"eb9d66ff-a612-4121-8b67-1d84deda7e3a","system_id":"levelo_inurba_marseille","lat":43.3313,"lon":5.377304,"is_reserved":false,"is_disabled":false,"rental_uris":{"android":"levelo://app?vid=eb9d66ff-a612-4121-8b67-1d84deda7e3a","ios":"levelo://app?vid=eb9d66ff-a612-4121-8b67-1d84deda7e3a"},"vehicle_type_id":"4","last_reported":1770882652,"current_range_meters":6800,"station_id":"st_d46cu089ee8s73dldbu0","pricing_plan_id":"cebpf4jnsgd1na2vs0mg"},{"bike_id":"dfdd0e3c-11c6-4913-9543-5881f4630dcb","system_id":"levelo_inurba_marseille","lat":43.26964,"lon":5.38608,"is_reserved":false,"is_disabled":false,"rental_uris":{"android":"levelo://app?vid=dfdd0e3c-11c6-4913-9543-5881f4630dcb","ios":"levelo://app?vid=dfdd0e3c-11c6-4913-9543-5881f4630dcb"},"vehicle_type_id":"4","last_reported":1770882652,"current_range_meters":6800,"station_id":"ce4bhh92rcd13ifvqfh0","pricing_plan_id":"cebpf4jnsgd1na2vs0mg"},{"bike_id":"a1db546c-a97e-4591-aafd-91b5e1930b56","system_id":"levelo_inurba_marseille","lat":43.30731,"lon":5.42462,"is_reserved":false,"is_disabled":false,"rental_uris":{"android":"levelo://app?vid=a1db546c-a97e-4591-aafd-91b5e1930b56","ios":"levelo://app?vid=a1db546c-a97e-4591-aafd-91b5e1930b56"},"vehicle_type_id":"4","last_reported":1770882652,"current_range_meters":6800,"station_id":"st_cvj6ca6bvosntc0bfgr0","pricing_plan_id":"cebpf4jnsgd1na2vs0mg"},{"bike_id":"0fa01bf6-c0cf-4d45-bada-5c78b14a8559","system_id":"levelo_inurba_marseille","lat":43.3253,"lon":5.41459,"is_reserved":false,"is_disabled":false,"rental_uris":{"android":"levelo://app?vid=0fa01bf6-c0cf-4d45-bada-5c78b14a8559","ios":"levelo://app?vid=0fa01bf6-c0cf-4d45-bada-5c78b14a8559"},"vehicle_type_id":"4","last_reported":1770882652,"current_range_meters":6800,"station_id":"ce4bhq12rcd13ifvqhhg","pricing_plan_id":"cebpf4jnsgd1na2vs0mg"},{"bike_id":"7f81578b-0d14-4ab3-bd77-b458f52731c6","system_id":"levelo_inurba_marseille","lat":43.30258,"lon":5.37745,"is_reserved":false,"is_disabled":false,"rental_uris":{"android":"levelo://app?vid=7f81578b-0d14-4ab3-bd77-b458f52731c6","ios":"levelo://app?vid=7f81578b-0d14-4ab3-bd77-b458f52731c6"},"vehicle_type_id":"4","last_reported":1770882652,"current_range_meters":7200,"station_id":"ce4bguh2rcd13ifvqcj0","pricing_plan_id":"cebpf4jnsgd1na2vs0mg"},{"bike_id":"f80528f9-6bb1-4b22-a63c-5e57ad403fb2","system_id":"levelo_inurba_marseille","lat":43.24671,"lon":5.38164,"is_reserved":false,"is_disabled":false,"rental_uris":{"android":"levelo://app?vid=f80528f9-6bb1-4b22-a63c-5e57ad403fb2","ios":"levelo://app?vid=f80528f9-6bb1-4b22-a63c-5e57ad403fb2"},"vehicle_type_id":"4","last_reported":1770882652,"current_range_meters":7200,"station_id":"ce4bhih2rcd13ifvqfr0","pricing_plan_id":"cebpf4jnsgd1na2vs0mg"},{"bike_id":"6673ac44-296d-4959-9b90-4bd46007de83","system_id":"levelo_inurba_marseille","lat":43.24391,"lon":5.37067,"is_reserved":false,"is_disabled":false,"rental_uris":{"android":"levelo://app?vid=6673ac44-296d-4959-9b90-4bd46007de83","ios":"levelo://app?vid=6673ac44-296d-4959-9b90-4bd46007de83"},"vehicle_type_id":"4","last_reported":1770882652,"current_range_meters":7200,"station_id":"ce4bhhh2rcd13ifvqfk0","pricing_plan_id":"cebpf4jnsgd1na2vs0mg"},{"bike_id":"406b8143-680c-411e-8da6-8818c609b259","system_id":"levelo_inurba_marseille","lat":43.22924,"lon":5.35385,"is_reserved":false,"is_disabled":false,"rental_uris":{"android":"levelo://app?vid=406b8143-680c-411e-8da6-8818c609b259","ios":"levelo://app?vid=406b8143-680c-411e-8da6-8818c609b259"},"vehicle_type_id":"4","last_reported":1770882652,"current_range_meters":7200,"station_id":"cpo3532slgdg3j2ikp40","pricing_plan_id":"cebpf4jnsgd1na2vs0mg"},{"bike_id":"99d0dcd5-3e1f-465b-8c51-ce2cad82ccfe","system_id":"levelo_inurba_marseille","lat":43.23097,"lon":5.40165,"is_reserved":false,"is_disabled":false,"rental_uris":{"android":"levelo://app?vid=99d0dcd5-3e1f-465b-8c51-ce2cad82ccfe","ios":"levelo://app?vid=99d0dcd5-3e1f-465b-8c51-ce2cad82ccfe"},"vehicle_type_id":"4","last_reported":1770882652,"current_range_meters":7200,"station_id":"","pricing_plan_id":"cebpf4jnsgd1na2vs0mg"},{"bike_id":"274ea62a-e153-4e2c-bdee-a88aa40b9a8e","system_id":"levelo_inurba_marseille","lat":43.2481,"lon":5.37468,"is_reserved":false,"is_disabled":false,"rental_uris":{"android":"levelo://app?vid=274ea62a-e153-4e2c-bdee-a88aa40b9a8e","ios":"levelo://app?vid=274ea62a-e153-4e2c-bdee-a88aa40b9a8e"},"vehicle_type_id":"4","last_reported":1770882652,"current_range_meters":7200,"station_id":"ce4bhgh2rcd13ifvqfb0","pricing_plan_id":"cebpf4jnsgd1na2vs0mg"},{"bike_id":"c7a86946-4dac-4b89-af48-74bbef51066f","system_id":"levelo_inurba_marseille","lat":43.31887,"lon":5.4073,"is_reserved":false,"is_disabled":false,"rental_uris":{"android":"levelo://app?vid=c7a86946-4dac-4b89-af48-74bbef51066f","ios":"levelo://app?vid=c7a86946-4dac-4b89-af48-74bbef51066f"},"vehicle_type_id":"4","last_reported":1770882652,"current_range_meters":8000,"station_id":"ce4bhq12rcd13ifvqhig","pricing_plan_id":"cebpf4jnsgd1na2vs0mg"},{"bike_id":"eb153995-5d33-4b1d-a5c0-ee8cc4302ea8","system_id":"levelo_inurba_marseille","lat":43.26536,"lon":5.39046,"is_reserved":false,"is_disabled":false,"rental_uris":{"android":"levelo://app?vid=eb153995-5d33-4b1d-a5c0-ee8cc4302ea8","ios":"levelo://app?vid=eb153995-5d33-4b1d-a5c0-ee8cc4302ea8"},"vehicle_type_id":"4","last_reported":1770882652,"current_range_meters":8000,"station_id":"ce4bhe12rcd13ifvqf30","pricing_plan_id":"cebpf4jnsgd1na2vs0mg"},{"bike_id":"adedccca-d77d-4967-91ed-2661b5b510ba","system_id":"levelo_inurba_marseille","lat":43.22555,"lon":5.4164,"is_reserved":false,"is_disabled":false,"rental_uris":{"android":"levelo://app?vid=adedccca-d77d-4967-91ed-2661b5b510ba","ios":"levelo://app?vid=adedccca-d77d-4967-91ed-2661b5b510ba"},"vehicle_type_id":"4","last_reported":1770882652,"current_range_meters":8000,"station_id":"st_d2o4gvlbi1j2169b742g","pricing_plan_id":"cebpf4jnsgd1na2vs0mg"},{"bike_id":"73022bc6-390d-4043-a19d-d1ca32a8b2f8","system_id":"levelo_inurba_marseille","lat":43.25349,"lon":5.42195,"is_reserved":false,"is_disabled":false,"rental_uris":{"android":"levelo://app?vid=73022bc6-390d-4043-a19d-d1ca32a8b2f8","ios":"levelo://app?vid=73022bc6-390d-4043-a19d-d1ca32a8b2f8"},"vehicle_type_id":"4","last_reported":1770882652,"current_range_meters":8000,"station_id":"st_d2m65c5bi1j21697t3ng","pricing_plan_id":"cebpf4jnsgd1na2vs0mg"},{"bike_id":"46bd018f-3ddc-47ce-9b3f-33f22f379846","system_id":"levelo_inurba_marseille","lat":43.30536,"lon":5.38444,"is_reserved":false,"is_disabled":false,"rental_uris":{"android":"levelo://app?vid=46bd018f-3ddc-47ce-9b3f-33f22f379846","ios":"levelo://app?vid=46bd018f-3ddc-47ce-9b3f-33f22f379846"},"vehicle_type_id":"4","last_reported":1770882652,"current_range_meters":8000,"station_id":"ce4bgg92rcd13ifvqb30","pricing_plan_id":"cebpf4jnsgd1na2vs0mg"},{"bike_id":"b502c1a0-f2d2-403e-95c4-21eae53b01c3","system_id":"levelo_inurba_marseille","lat":43.31325,"lon":5.39698,"is_reserved":false,"is_disabled":false,"rental_uris":{"android":"levelo://app?vid=b502c1a0-f2d2-403e-95c4-21eae53b01c3","ios":"levelo://app?vid=b502c1a0-f2d2-403e-95c4-21eae53b01c3"},"vehicle_type_id":"4","last_reported":1770882652,"current_range_meters":8000,"station_id":"ce4bgvp2rcd13ifvqcu0","pricing_plan_id":"cebpf4jnsgd1na2vs0mg"},{"bike_id":"d6ac2655-5d13-492c-96b2-0753705b3ccf","system_id":"levelo_inurba_marseille","lat":43.30137,"lon":5.37396,"is_reserved":false,"is_disabled":false,"rental_uris":{"android":"levelo://app?vid=d6ac2655-5d13-492c-96b2-0753705b3ccf","ios":"levelo://app?vid=d6ac2655-5d13-492c-96b2-0753705b3ccf"},"vehicle_type_id":"4","last_reported":1770882652,"current_range_meters":8000,"station_id":"ce4bgs92rcd13ifvqcc0","pricing_plan_id":"cebpf4jnsgd1na2vs0mg"},{"bike_id":"c835ce8e-8660-4ed9-9328-d9079c99b542","system_id":"levelo_inurba_marseille","lat":43.296,"lon":5.38111,"is_reserved":false,"is_disabled":false,"rental_uris":{"android":"levelo://app?vid=c835ce8e-8660-4ed9-9328-d9079c99b542","ios":"levelo://app?vid=c835ce8e-8660-4ed9-9328-d9079c99b542"},"vehicle_type_id":"4","last_reported":1770882652,"current_range_meters":8000,"station_id":"ce4bgl12rcd13ifvqbo0","pricing_plan_id":"cebpf4jnsgd1na2vs0mg"},{"bike_id":"2518c716-7459-44d5-a01a-d486cf875e8a","system_id":"levelo_inurba_marseille","lat":43.23151,"lon":5.4371,"is_reserved":false,"is_disabled":false,"rental_uris":{"android":"levelo://app?vid=2518c716-7459-44d5-a01a-d486cf875e8a","ios":"levelo://app?vid=2518c716-7459-44d5-a01a-d486cf875e8a"},"vehicle_type_id":"4","last_reported":1770882652,"current_range_meters":8000,"station_id":"ce4bhmp2rcd13ifvqgog","pricing_plan_id":"cebpf4jnsgd1na2vs0mg"},{"bike_id":"43dde8b4-0fb7-4149-a928-ee1cef6b60f0","system_id":"levelo_inurba_marseille","lat":43.34038,"lon":5.36109,"is_reserved":false,"is_disabled":false,"rental_uris":{"android":"levelo://app?vid=43dde8b4-0fb7-4149-a928-ee1cef6b60f0","ios":"levelo://app?vid=43dde8b4-0fb7-4149-a928-ee1cef6b60f0"},"vehicle_type_id":"4","last_reported":1770882652,"current_range_meters":8000,"station_id":"","pricing_plan_id":"cebpf4jnsgd1na2vs0mg"},{"bike_id":"c772da13-b4b1-44b9-bcfb-3c047af94144","system_id":"levelo_inurba_marseille","lat":43.30498,"lon":5.37906,"is_reserved":false,"is_disabled":false,"rental_uris":{"android":"levelo://app?vid=c772da13-b4b1-44b9-bcfb-3c047af94144","ios":"levelo://app?vid=c772da13-b4b1-44b9-bcfb-3c047af94144"},"vehicle_type_id":"4","last_reported":1770882652,"current_range_meters":8000,"station_id":"ce4bgup2rcd13ifvqcn0","pricing_plan_id":"cebpf4jnsgd1na2vs0mg"},{"bike_id":"8f6b4977-c372-461d-bafb-b1e5cde75c02","system_id":"levelo_inurba_marseille","lat":43.27498,"lon":5.42471,"is_reserved":false,"is_disabled":false,"rental_uris":{"android":"levelo://app?vid=8f6b4977-c372-461d-bafb-b1e5cde75c02","ios":"levelo://app?vid=8f6b4977-c372-461d-bafb-b1e5cde75c02"},"vehicle_type_id":"4","last_reported":1770882652,"current_range_meters":8000,"station_id":"ce4bhn92rcd13ifvqgrg","pricing_plan_id":"cebpf4jnsgd1na2vs0mg"},{"bike_id":"2ef83d60-3093-41f6-8db9-e64cad44aa7b","system_id":"levelo_inurba_marseille","lat":43.27287,"lon":5.39131,"is_reserved":false,"is_disabled":false,"rental_uris":{"android":"levelo://app?vid=2ef83d60-3093-41f6-8db9-e64cad44aa7b","ios":"levelo://app?vid=2ef83d60-3093-41f6-8db9-e64cad44aa7b"},"vehicle_type_id":"4","last_reported":1770882652,"current_range_meters":8000,"station_id":"","pricing_plan_id":"cebpf4jnsgd1na2vs0mg"},{"bike_id":"1666b265-643d-41e7-bcc3-6167a6d49f91","system_id":"levelo_inurba_marseille","lat":43.22533,"lon":5.34847,"is_reserved":false,"is_disabled":false,"rental_uris":{"android":"levelo://app?vid=1666b265-643d-41e7-bcc3-6167a6d49f91","ios":"levelo://app?vid=1666b265-643d-41e7-bcc3-6167a6d49f91"},"vehicle_type_id":"4","last_reported":1770882652,"current_range_meters":8400,"station_id":"","pricing_plan_id":"cebpf4jnsgd1na2vs0mg"},{"bike_id":"f3640d2f-d396-4ee0-9652-453ad22676a3","system_id":"levelo_inurba_marseille","lat":43.31114,"lon":5.37776,"is_reserved":false,"is_disabled":false,"rental_uris":{"android":"levelo://app?vid=f3640d2f-d396-4ee0-9652-453ad22676a3","ios":"levelo://app?vid=f3640d2f-d396-4ee0-9652-453ad22676a3"},"vehicle_type_id":"4","last_reported":1770882652,"current_range_meters":8400,"station_id":"ce4bgt92rcd13ifvqcg0","pricing_plan_id":"cebpf4jnsgd1na2vs0mg"},{"bike_id":"062188ea-bb7c-4305-9db6-8d3c62c894c4","system_id":"levelo_inurba_marseille","lat":43.30251,"lon":5.40068,"is_reserved":false,"is_disabled":false,"rental_uris":{"android":"levelo://app?vid=062188ea-bb7c-4305-9db6-8d3c62c894c4","ios":"levelo://app?vid=062188ea-bb7c-4305-9db6-8d3c62c894c4"},"vehicle_type_id":"4","last_reported":1770882652,"current_range_meters":8400,"station_id":"ce4bgvh2rcd13ifvqcs0","pricing_plan_id":"cebpf4jnsgd1na2vs0mg"},{"bike_id":"661c1ad9-8e78-490b-aa77-0dd317a910f6","system_id":"levelo_inurba_marseille","lat":43.27213,"lon":5.39194,"is_reserved":false,"is_disabled":true,"rental_uris":{"android":"levelo://app?vid=661c1ad9-8e78-490b-aa77-0dd317a910f6","ios":"levelo://app?vid=661c1ad9-8e78-490b-aa77-0dd317a910f6"},"vehicle_type_id":"4","last_reported":1770882652,"current_range_meters":8400,"station_id":"ce4bhhp2rcd13ifvqfm0","pricing_plan_id":"cebpf4jnsgd1na2vs0mg"},{"bike_id":"ce71dd22-bdbd-4c26-b532-621af75318ca","system_id":"levelo_inurba_marseille","lat":43.29256,"lon":5.40907,"is_reserved":false,"is_disabled":false,"rental_uris":{"android":"levelo://app?vid=ce71dd22-bdbd-4c26-b532-621af75318ca","ios":"levelo://app?vid=ce71dd22-bdbd-4c26-b532-621af75318ca"},"vehicle_type_id":"4","last_reported":1770882652,"current_range_meters":8400,"station_id":"ce4bh192rcd13ifvqdc0","pricing_plan_id":"cebpf4jnsgd1na2vs0mg"},{"bike_id":"65105307-5cc2-4d11-b2c7-4fc5135f2c9f","system_id":"levelo_inurba_marseille","lat":43.31329,"lon":5.39712,"is_reserved":false,"is_disabled":false,"rental_uris":{"android":"levelo://app?vid=65105307-5cc2-4d11-b2c7-4fc5135f2c9f","ios":"levelo://app?vid=65105307-5cc2-4d11-b2c7-4fc5135f2c9f"},"vehicle_type_id":"4","last_reported":1770882652,"current_range_meters":8400,"station_id":"ce4bgvp2rcd13ifvqcu0","pricing_plan_id":"cebpf4jnsgd1na2vs0mg"},{"bike_id":"dc039333-62ce-44cd-8879-57d9df1c8034","system_id":"levelo_inurba_marseille","lat":43.3054,"lon":5.36727,"is_reserved":false,"is_disabled":false,"rental_uris":{"android":"levelo://app?vid=dc039333-62ce-44cd-8879-57d9df1c8034","ios":"levelo://app?vid=dc039333-62ce-44cd-8879-57d9df1c8034"},"vehicle_type_id":"4","last_reported":1770882652,"current_range_meters":8400,"station_id":"ce4bgrp2rcd13ifvqc9g","pricing_plan_id":"cebpf4jnsgd1na2vs0mg"},{"bike_id":"820102d8-4bf3-43d0-bf33-9724fbbf610e","system_id":"levelo_inurba_marseille","lat":43.28164,"lon":5.42657,"is_reserved":false,"is_disabled":false,"rental_uris":{"android":"levelo://app?vid=820102d8-4bf3-43d0-bf33-9724fbbf610e","ios":"levelo://app?vid=820102d8-4bf3-43d0-bf33-9724fbbf610e"},"vehicle_type_id":"4","last_reported":1770882652,"current_range_meters":8400,"station_id":"ce4bhnh2rcd13ifvqgug","pricing_plan_id":"cebpf4jnsgd1na2vs0mg"},{"bike_id":"cb9be5fc-0f8f-4012-b222-62b158765b42","system_id":"levelo_inurba_marseille","lat":43.22926,"lon":5.35397,"is_reserved":false,"is_disabled":false,"rental_uris":{"android":"levelo://app?vid=cb9be5fc-0f8f-4012-b222-62b158765b42","ios":"levelo://app?vid=cb9be5fc-0f8f-4012-b222-62b158765b42"},"vehicle_type_id":"4","last_reported":1770882652,"current_range_meters":8400,"station_id":"cpo3532slgdg3j2ikp40","pricing_plan_id":"cebpf4jnsgd1na2vs0mg"},{"bike_id":"31a7a706-1ff4-486d-b0ea-aa0afb881a3f","system_id":"levelo_inurba_marseille","lat":43.31068,"lon":5.38504,"is_reserved":false,"is_disabled":false,"rental_uris":{"android":"levelo://app?vid=31a7a706-1ff4-486d-b0ea-aa0afb881a3f","ios":"levelo://app?vid=31a7a706-1ff4-486d-b0ea-aa0afb881a3f"},"vehicle_type_id":"4","last_reported":1770882652,"current_range_meters":8400,"station_id":"","pricing_plan_id":"cebpf4jnsgd1na2vs0mg"},{"bike_id":"989b5b08-d948-4be9-bc29-7318c8ff2142","system_id":"levelo_inurba_marseille","lat":43.24628,"lon":5.43155,"is_reserved":false,"is_disabled":false,"rental_uris":{"android":"levelo://app?vid=989b5b08-d948-4be9-bc29-7318c8ff2142","ios":"levelo://app?vid=989b5b08-d948-4be9-bc29-7318c8ff2142"},"vehicle_type_id":"4","last_reported":1770882652,"current_range_meters":8400,"station_id":"st_d2m6c4gdas8pm72e190g","pricing_plan_id":"cebpf4jnsgd1na2vs0mg"},{"bike_id":"361a77a5-5dd1-408f-951c-b20c6988c8bd","system_id":"levelo_inurba_marseille","lat":43.28432,"lon":5.35014,"is_reserved":false,"is_disabled":false,"rental_uris":{"android":"levelo://app?vid=361a77a5-5dd1-408f-951c-b20c6988c8bd","ios":"levelo://app?vid=361a77a5-5dd1-408f-951c-b20c6988c8bd"},"vehicle_type_id":"4","last_reported":1770882652,"current_range_meters":8400,"station_id":"ce4bhbh2rcd13ifvqepg","pricing_plan_id":"cebpf4jnsgd1na2vs0mg"},{"bike_id":"3159301f-1013-4443-9e9c-959090e8db43","system_id":"levelo_inurba_marseille","lat":43.2927,"lon":5.36837,"is_reserved":false,"is_disabled":true,"rental_uris":{"android":"levelo://app?vid=3159301f-1013-4443-9e9c-959090e8db43","ios":"levelo://app?vid=3159301f-1013-4443-9e9c-959090e8db43"},"vehicle_type_id":"4","last_reported":1770882652,"current_range_meters":8400,"station_id":"ce4bhbp2rcd13ifvqesg","pricing_plan_id":"cebpf4jnsgd1na2vs0mg"},{"bike_id":"1b1311b7-d46b-4d4a-ae2f-5adc6a002717","system_id":"levelo_inurba_marseille","lat":43.24057,"lon":5.37779,"is_reserved":false,"is_disabled":false,"rental_uris":{"android":"levelo://app?vid=1b1311b7-d46b-4d4a-ae2f-5adc6a002717","ios":"levelo://app?vid=1b1311b7-d46b-4d4a-ae2f-5adc6a002717"},"vehicle_type_id":"4","last_reported":1770882652,"current_range_meters":8400,"station_id":"ce4bhnp2rcd13ifvqgvg","pricing_plan_id":"cebpf4jnsgd1na2vs0mg"},{"bike_id":"5f6ae4c8-a7cd-4f3b-9adf-671bbd618c70","system_id":"levelo_inurba_marseille","lat":43.2557,"lon":5.3824,"is_reserved":false,"is_disabled":false,"rental_uris":{"android":"levelo://app?vid=5f6ae4c8-a7cd-4f3b-9adf-671bbd618c70","ios":"levelo://app?vid=5f6ae4c8-a7cd-4f3b-9adf-671bbd618c70"},"vehicle_type_id":"4","last_reported":1770882652,"current_range_meters":8800,"station_id":"ce4bhih2rcd13ifvqfs0","pricing_plan_id":"cebpf4jnsgd1na2vs0mg"},{"bike_id":"4e0f9367-7bac-4416-a504-19f0c84a5aa3","system_id":"levelo_inurba_marseille","lat":43.28165,"lon":5.42642,"is_reserved":false,"is_disabled":false,"rental_uris":{"android":"levelo://app?vid=4e0f9367-7bac-4416-a504-19f0c84a5aa3","ios":"levelo://app?vid=4e0f9367-7bac-4416-a504-19f0c84a5aa3"},"vehicle_type_id":"4","last_reported":1770882652,"current_range_meters":8800,"station_id":"ce4bhnh2rcd13ifvqgug","pricing_plan_id":"cebpf4jnsgd1na2vs0mg"},{"bike_id":"52c5007b-88c9-4d1c-9fe2-488c4cdcfbef","system_id":"levelo_inurba_marseille","lat":43.25868,"lon":5.39888,"is_reserved":false,"is_disabled":false,"rental_uris":{"android":"levelo://app?vid=52c5007b-88c9-4d1c-9fe2-488c4cdcfbef","ios":"levelo://app?vid=52c5007b-88c9-4d1c-9fe2-488c4cdcfbef"},"vehicle_type_id":"4","last_reported":1770882652,"current_range_meters":8800,"station_id":"ce4bhl92rcd13ifvqghg","pricing_plan_id":"cebpf4jnsgd1na2vs0mg"},{"bike_id":"e44df137-3a9f-4865-a2d3-769a6f5bfc14","system_id":"levelo_inurba_marseille","lat":43.30921,"lon":5.3686,"is_reserved":false,"is_disabled":false,"rental_uris":{"android":"levelo://app?vid=e44df137-3a9f-4865-a2d3-769a6f5bfc14","ios":"levelo://app?vid=e44df137-3a9f-4865-a2d3-769a6f5bfc14"},"vehicle_type_id":"4","last_reported":1770882652,"current_range_meters":8800,"station_id":"ce4bgn92rcd13ifvqbvg","pricing_plan_id":"cebpf4jnsgd1na2vs0mg"},{"bike_id":"6d146b90-da11-4bbb-b527-7da7e2561db2","system_id":"levelo_inurba_marseille","lat":43.28458,"lon":5.48419,"is_reserved":false,"is_disabled":false,"rental_uris":{"android":"levelo://app?vid=6d146b90-da11-4bbb-b527-7da7e2561db2","ios":"levelo://app?vid=6d146b90-da11-4bbb-b527-7da7e2561db2"},"vehicle_type_id":"4","last_reported":1770882652,"current_range_meters":8800,"station_id":"st_d3svhcjqgbts73a3dn0g","pricing_plan_id":"cebpf4jnsgd1na2vs0mg"},{"bike_id":"020a02e4-b882-43a5-b13b-098b3f1416a7","system_id":"levelo_inurba_marseille","lat":43.3054,"lon":5.38432,"is_reserved":false,"is_disabled":false,"rental_uris":{"android":"levelo://app?vid=020a02e4-b882-43a5-b13b-098b3f1416a7","ios":"levelo://app?vid=020a02e4-b882-43a5-b13b-098b3f1416a7"},"vehicle_type_id":"4","last_reported":1770882652,"current_range_meters":8800,"station_id":"ce4bgg92rcd13ifvqb30","pricing_plan_id":"cebpf4jnsgd1na2vs0mg"},{"bike_id":"8f3a9ea3-3d5f-4beb-8e6c-40222b0c90d4","system_id":"levelo_inurba_marseille","lat":43.28371,"lon":5.35341,"is_reserved":false,"is_disabled":false,"rental_uris":{"android":"levelo://app?vid=8f3a9ea3-3d5f-4beb-8e6c-40222b0c90d4","ios":"levelo://app?vid=8f3a9ea3-3d5f-4beb-8e6c-40222b0c90d4"},"vehicle_type_id":"4","last_reported":1770882652,"current_range_meters":8800,"station_id":"","pricing_plan_id":"cebpf4jnsgd1na2vs0mg"},{"bike_id":"bc2eeff4-6b8b-4fcb-811a-db184e6922de","system_id":"levelo_inurba_marseille","lat":43.26566,"lon":5.39041,"is_reserved":false,"is_disabled":false,"rental_uris":{"android":"levelo://app?vid=bc2eeff4-6b8b-4fcb-811a-db184e6922de","ios":"levelo://app?vid=bc2eeff4-6b8b-4fcb-811a-db184e6922de"},"vehicle_type_id":"4","last_reported":1770882652,"current_range_meters":8800,"station_id":"ce4bhe12rcd13ifvqf30","pricing_plan_id":"cebpf4jnsgd1na2vs0mg"},{"bike_id":"d98f09ff-8b59-4519-baee-c61bc86adc1e","system_id":"levelo_inurba_marseille","lat":43.29483,"lon":5.43304,"is_reserved":false,"is_disabled":false,"rental_uris":{"android":"levelo://app?vid=d98f09ff-8b59-4519-baee-c61bc86adc1e","ios":"levelo://app?vid=d98f09ff-8b59-4519-baee-c61bc86adc1e"},"vehicle_type_id":"4","last_reported":1770882652,"current_range_meters":8800,"station_id":"st_d3j5ugp08ojc73fj9d10","pricing_plan_id":"cebpf4jnsgd1na2vs0mg"},{"bike_id":"19202c5c-dcee-4fd8-b2b5-1b1f4f4a5eb8","system_id":"levelo_inurba_marseille","lat":43.2407,"lon":5.37771,"is_reserved":false,"is_disabled":false,"rental_uris":{"android":"levelo://app?vid=19202c5c-dcee-4fd8-b2b5-1b1f4f4a5eb8","ios":"levelo://app?vid=19202c5c-dcee-4fd8-b2b5-1b1f4f4a5eb8"},"vehicle_type_id":"4","last_reported":1770882652,"current_range_meters":8800,"station_id":"ce4bhnp2rcd13ifvqgvg","pricing_plan_id":"cebpf4jnsgd1na2vs0mg"},{"bike_id":"e445083d-45a8-4d25-90af-ae9e33eb6abe","system_id":"levelo_inurba_marseille","lat":43.3055,"lon":5.38431,"is_reserved":false,"is_disabled":false,"rental_uris":{"android":"levelo://app?vid=e445083d-45a8-4d25-90af-ae9e33eb6abe","ios":"levelo://app?vid=e445083d-45a8-4d25-90af-ae9e33eb6abe"},"vehicle_type_id":"4","last_reported":1770882652,"current_range_meters":8800,"station_id":"ce4bgg92rcd13ifvqb30","pricing_plan_id":"cebpf4jnsgd1na2vs0mg"},{"bike_id":"c63de082-b362-476e-89a1-bbd83d2baeac","system_id":"levelo_inurba_marseille","lat":43.26542,"lon":5.3734,"is_reserved":false,"is_disabled":true,"rental_uris":{"android":"levelo://app?vid=c63de082-b362-476e-89a1-bbd83d2baeac","ios":"levelo://app?vid=c63de082-b362-476e-89a1-bbd83d2baeac"},"vehicle_type_id":"4","last_reported":1770882652,"current_range_meters":8800,"station_id":"","pricing_plan_id":"cebpf4jnsgd1na2vs0mg"},{"bike_id":"f5dfc69a-605e-4870-9f15-288a758bb79e","system_id":"levelo_inurba_marseille","lat":43.29768,"lon":5.42783,"is_reserved":false,"is_disabled":false,"rental_uris":{"android":"levelo://app?vid=f5dfc69a-605e-4870-9f15-288a758bb79e","ios":"levelo://app?vid=f5dfc69a-605e-4870-9f15-288a758bb79e"},"vehicle_type_id":"4","last_reported":1770882652,"current_range_meters":8800,"station_id":"st_d3md5207bmas73dh9klg","pricing_plan_id":"cebpf4jnsgd1na2vs0mg"},{"bike_id":"a8cd9642-47c6-4401-90a5-20d1b59e685c","system_id":"levelo_inurba_marseille","lat":43.28861,"lon":5.42524,"is_reserved":false,"is_disabled":false,"rental_uris":{"android":"levelo://app?vid=a8cd9642-47c6-4401-90a5-20d1b59e685c","ios":"levelo://app?vid=a8cd9642-47c6-4401-90a5-20d1b59e685c"},"vehicle_type_id":"4","last_reported":1770882652,"current_range_meters":8800,"station_id":"st_d3b462108ojc7389ooeg","pricing_plan_id":"cebpf4jnsgd1na2vs0mg"},{"bike_id":"a0f00b77-3668-4cb1-9cb3-dbbe136dba2b","system_id":"levelo_inurba_marseille","lat":43.25576,"lon":5.38261,"is_reserved":false,"is_disabled":false,"rental_uris":{"android":"levelo://app?vid=a0f00b77-3668-4cb1-9cb3-dbbe136dba2b","ios":"levelo://app?vid=a0f00b77-3668-4cb1-9cb3-dbbe136dba2b"},"vehicle_type_id":"4","last_reported":1770882652,"current_range_meters":8800,"station_id":"ce4bhih2rcd13ifvqfs0","pricing_plan_id":"cebpf4jnsgd1na2vs0mg"},{"bike_id":"1c5ed284-2e6b-4181-af64-a156d1f37255","system_id":"levelo_inurba_marseille","lat":43.29284,"lon":5.4012,"is_reserved":false,"is_disabled":false,"rental_uris":{"android":"levelo://app?vid=1c5ed284-2e6b-4181-af64-a156d1f37255","ios":"levelo://app?vid=1c5ed284-2e6b-4181-af64-a156d1f37255"},"vehicle_type_id":"4","last_reported":1770882652,"current_range_meters":8800,"station_id":"ce4bh312rcd13ifvqdk0","pricing_plan_id":"cebpf4jnsgd1na2vs0mg"},{"bike_id":"46795c32-d155-4823-a0f3-872b06d1e11d","system_id":"levelo_inurba_marseille","lat":43.21746,"lon":5.34627,"is_reserved":false,"is_disabled":false,"rental_uris":{"android":"levelo://app?vid=46795c32-d155-4823-a0f3-872b06d1e11d","ios":"levelo://app?vid=46795c32-d155-4823-a0f3-872b06d1e11d"},"vehicle_type_id":"4","last_reported":1770882652,"current_range_meters":8800,"station_id":"","pricing_plan_id":"cebpf4jnsgd1na2vs0mg"},{"bike_id":"3d3d88ee-ed7c-4568-9649-490d356c279b","system_id":"levelo_inurba_marseille","lat":43.29252,"lon":5.36064,"is_reserved":false,"is_disabled":false,"rental_uris":{"android":"levelo://app?vid=3d3d88ee-ed7c-4568-9649-490d356c279b","ios":"levelo://app?vid=3d3d88ee-ed7c-4568-9649-490d356c279b"},"vehicle_type_id":"4","last_reported":1770882652,"current_range_meters":8800,"station_id":"ce4bhbh2rcd13ifvqeqg","pricing_plan_id":"cebpf4jnsgd1na2vs0mg"},{"bike_id":"2da32715-91d7-4dc2-bd96-0baee08ab0c9","system_id":"levelo_inurba_marseille","lat":43.24179,"lon":5.39745,"is_reserved":false,"is_disabled":false,"rental_uris":{"android":"levelo://app?vid=2da32715-91d7-4dc2-bd96-0baee08ab0c9","ios":"levelo://app?vid=2da32715-91d7-4dc2-bd96-0baee08ab0c9"},"vehicle_type_id":"4","last_reported":1770882652,"current_range_meters":8800,"station_id":"ce4bhn12rcd13ifvqgpg","pricing_plan_id":"cebpf4jnsgd1na2vs0mg"},{"bike_id":"5da50086-d24d-4952-9bf7-01da820751c1","system_id":"levelo_inurba_marseille","lat":43.29266,"lon":5.37631,"is_reserved":false,"is_disabled":false,"rental_uris":{"android":"levelo://app?vid=5da50086-d24d-4952-9bf7-01da820751c1","ios":"levelo://app?vid=5da50086-d24d-4952-9bf7-01da820751c1"},"vehicle_type_id":"4","last_reported":1770882652,"current_range_meters":9200,"station_id":"ce4bgi12rcd13ifvqb80","pricing_plan_id":"cebpf4jnsgd1na2vs0mg"},{"bike_id":"e42620f4-183e-485a-af88-c36a22e64d51","system_id":"levelo_inurba_marseille","lat":43.23157,"lon":5.40011,"is_reserved":false,"is_disabled":false,"rental_uris":{"android":"levelo://app?vid=e42620f4-183e-485a-af88-c36a22e64d51","ios":"levelo://app?vid=e42620f4-183e-485a-af88-c36a22e64d51"},"vehicle_type_id":"4","last_reported":1770882652,"current_range_meters":9200,"station_id":"ce4bhn12rcd13ifvqgqg","pricing_plan_id":"cebpf4jnsgd1na2vs0mg"},{"bike_id":"8ed87586-dad5-4852-a9e4-08b525111006","system_id":"levelo_inurba_marseille","lat":43.29859,"lon":5.3629,"is_reserved":false,"is_disabled":false,"rental_uris":{"android":"levelo://app?vid=8ed87586-dad5-4852-a9e4-08b525111006","ios":"levelo://app?vid=8ed87586-dad5-4852-a9e4-08b525111006"},"vehicle_type_id":"4","last_reported":1770882652,"current_range_meters":9200,"station_id":"ce4bgpp2rcd13ifvqc3g","pricing_plan_id":"cebpf4jnsgd1na2vs0mg"},{"bike_id":"3ad331d6-b4d1-49c7-b940-96959fff84a3","system_id":"levelo_inurba_marseille","lat":43.28627,"lon":5.35095,"is_reserved":false,"is_disabled":false,"rental_uris":{"android":"levelo://app?vid=3ad331d6-b4d1-49c7-b940-96959fff84a3","ios":"levelo://app?vid=3ad331d6-b4d1-49c7-b940-96959fff84a3"},"vehicle_type_id":"4","last_reported":1770882652,"current_range_meters":9200,"station_id":"ce4bhch2rcd13ifvqeug","pricing_plan_id":"cebpf4jnsgd1na2vs0mg"},{"bike_id":"bb6faa0c-4182-45af-b174-e42f3eae8837","system_id":"levelo_inurba_marseille","lat":43.24632,"lon":5.3894,"is_reserved":false,"is_disabled":false,"rental_uris":{"android":"levelo://app?vid=bb6faa0c-4182-45af-b174-e42f3eae8837","ios":"levelo://app?vid=bb6faa0c-4182-45af-b174-e42f3eae8837"},"vehicle_type_id":"4","last_reported":1770882652,"current_range_meters":9200,"station_id":"ce4bhg12rcd13ifvqf60","pricing_plan_id":"cebpf4jnsgd1na2vs0mg"},{"bike_id":"e61f8348-ac76-4cea-92f8-334c0273949b","system_id":"levelo_inurba_marseille","lat":43.24633,"lon":5.43134,"is_reserved":false,"is_disabled":false,"rental_uris":{"android":"levelo://app?vid=e61f8348-ac76-4cea-92f8-334c0273949b","ios":"levelo://app?vid=e61f8348-ac76-4cea-92f8-334c0273949b"},"vehicle_type_id":"4","last_reported":1770882652,"current_range_meters":9200,"station_id":"st_d2m6c4gdas8pm72e190g","pricing_plan_id":"cebpf4jnsgd1na2vs0mg"},{"bike_id":"48ef2e5e-395e-487a-9e41-360aad012a1f","system_id":"levelo_inurba_marseille","lat":43.26201,"lon":5.37473,"is_reserved":false,"is_disabled":false,"rental_uris":{"android":"levelo://app?vid=48ef2e5e-395e-487a-9e41-360aad012a1f","ios":"levelo://app?vid=48ef2e5e-395e-487a-9e41-360aad012a1f"},"vehicle_type_id":"4","last_reported":1770882652,"current_range_meters":9200,"station_id":"ce4bhgp2rcd13ifvqfc0","pricing_plan_id":"cebpf4jnsgd1na2vs0mg"},{"bike_id":"e26b96cf-d7ac-4254-b976-65dc3b2294cc","system_id":"levelo_inurba_marseille","lat":43.25497,"lon":5.37647,"is_reserved":false,"is_disabled":false,"rental_uris":{"android":"levelo://app?vid=e26b96cf-d7ac-4254-b976-65dc3b2294cc","ios":"levelo://app?vid=e26b96cf-d7ac-4254-b976-65dc3b2294cc"},"vehicle_type_id":"4","last_reported":1770882652,"current_range_meters":9200,"station_id":"ce4bhh12rcd13ifvqff0","pricing_plan_id":"cebpf4jnsgd1na2vs0mg"},{"bike_id":"d93d3188-8c13-4332-8204-5b263813a916","system_id":"levelo_inurba_marseille","lat":43.25582,"lon":5.38242,"is_reserved":false,"is_disabled":false,"rental_uris":{"android":"levelo://app?vid=d93d3188-8c13-4332-8204-5b263813a916","ios":"levelo://app?vid=d93d3188-8c13-4332-8204-5b263813a916"},"vehicle_type_id":"4","last_reported":1770882652,"current_range_meters":9200,"station_id":"ce4bhih2rcd13ifvqfs0","pricing_plan_id":"cebpf4jnsgd1na2vs0mg"},{"bike_id":"f80d80b1-fd6c-49d0-a946-3b95b1b8c004","system_id":"levelo_inurba_marseille","lat":43.29025,"lon":5.39998,"is_reserved":false,"is_disabled":false,"rental_uris":{"android":"levelo://app?vid=f80d80b1-fd6c-49d0-a946-3b95b1b8c004","ios":"levelo://app?vid=f80d80b1-fd6c-49d0-a946-3b95b1b8c004"},"vehicle_type_id":"4","last_reported":1770882652,"current_range_meters":9200,"station_id":"ce4bh392rcd13ifvqdm0","pricing_plan_id":"cebpf4jnsgd1na2vs0mg"},{"bike_id":"05797971-b1fa-4e10-9a08-cd7f223bbe55","system_id":"levelo_inurba_marseille","lat":43.2174,"lon":5.34615,"is_reserved":false,"is_disabled":false,"rental_uris":{"android":"levelo://app?vid=05797971-b1fa-4e10-9a08-cd7f223bbe55","ios":"levelo://app?vid=05797971-b1fa-4e10-9a08-cd7f223bbe55"},"vehicle_type_id":"4","last_reported":1770882652,"current_range_meters":9200,"station_id":"st_cvj6r9ubvosntc0bgbag","pricing_plan_id":"cebpf4jnsgd1na2vs0mg"},{"bike_id":"e6803627-acaa-4970-9ece-cd2f35ecf017","system_id":"levelo_inurba_marseille","lat":43.26679,"lon":5.38279,"is_reserved":false,"is_disabled":false,"rental_uris":{"android":"levelo://app?vid=e6803627-acaa-4970-9ece-cd2f35ecf017","ios":"levelo://app?vid=e6803627-acaa-4970-9ece-cd2f35ecf017"},"vehicle_type_id":"4","last_reported":1770882652,"current_range_meters":9200,"station_id":"ce4bhg92rcd13ifvqf90","pricing_plan_id":"cebpf4jnsgd1na2vs0mg"},{"bike_id":"aa0ea3f1-5845-4f06-b142-0eaff38301a8","system_id":"levelo_inurba_marseille","lat":43.25564,"lon":5.38272,"is_reserved":false,"is_disabled":false,"rental_uris":{"android":"levelo://app?vid=aa0ea3f1-5845-4f06-b142-0eaff38301a8","ios":"levelo://app?vid=aa0ea3f1-5845-4f06-b142-0eaff38301a8"},"vehicle_type_id":"4","last_reported":1770882652,"current_range_meters":9200,"station_id":"ce4bhih2rcd13ifvqfs0","pricing_plan_id":"cebpf4jnsgd1na2vs0mg"},{"bike_id":"f5e82031-62e2-40e2-8c7c-5edec33c9e91","system_id":"levelo_inurba_marseille","lat":43.26274,"lon":5.40382,"is_reserved":false,"is_disabled":false,"rental_uris":{"android":"levelo://app?vid=f5e82031-62e2-40e2-8c7c-5edec33c9e91","ios":"levelo://app?vid=f5e82031-62e2-40e2-8c7c-5edec33c9e91"},"vehicle_type_id":"4","last_reported":1770882652,"current_range_meters":9200,"station_id":"","pricing_plan_id":"cebpf4jnsgd1na2vs0mg"},{"bike_id":"70e591b0-f2cc-4dab-99cf-08bb3c1008b4","system_id":"levelo_inurba_marseille","lat":43.2738,"lon":5.42726,"is_reserved":false,"is_disabled":false,"rental_uris":{"android":"levelo://app?vid=70e591b0-f2cc-4dab-99cf-08bb3c1008b4","ios":"levelo://app?vid=70e591b0-f2cc-4dab-99cf-08bb3c1008b4"},"vehicle_type_id":"4","last_reported":1770882652,"current_range_meters":9200,"station_id":"","pricing_plan_id":"cebpf4jnsgd1na2vs0mg"},{"bike_id":"791cfe6e-b600-4713-b2d6-5c9796bd9648","system_id":"levelo_inurba_marseille","lat":43.3316,"lon":5.37688,"is_reserved":false,"is_disabled":false,"rental_uris":{"android":"levelo://app?vid=791cfe6e-b600-4713-b2d6-5c9796bd9648","ios":"levelo://app?vid=791cfe6e-b600-4713-b2d6-5c9796bd9648"},"vehicle_type_id":"4","last_reported":1770882652,"current_range_meters":9200,"station_id":"st_d46cu089ee8s73dldbu0","pricing_plan_id":"cebpf4jnsgd1na2vs0mg"},{"bike_id":"ab2b49aa-7574-41ea-aafd-20e44f598b0a","system_id":"levelo_inurba_marseille","lat":43.33177,"lon":5.37683,"is_reserved":false,"is_disabled":false,"rental_uris":{"android":"levelo://app?vid=ab2b49aa-7574-41ea-aafd-20e44f598b0a","ios":"levelo://app?vid=ab2b49aa-7574-41ea-aafd-20e44f598b0a"},"vehicle_type_id":"4","last_reported":1770882652,"current_range_meters":9200,"station_id":"st_d46cu089ee8s73dldbu0","pricing_plan_id":"cebpf4jnsgd1na2vs0mg"},{"bike_id":"91d659aa-c51f-44a7-992c-67dfd00fd041","system_id":"levelo_inurba_marseille","lat":43.2861,"lon":5.37071,"is_reserved":false,"is_disabled":false,"rental_uris":{"android":"levelo://app?vid=91d659aa-c51f-44a7-992c-67dfd00fd041","ios":"levelo://app?vid=91d659aa-c51f-44a7-992c-67dfd00fd041"},"vehicle_type_id":"4","last_reported":1770882652,"current_range_meters":9200,"station_id":"ce4bht12rcd13ifvqi60","pricing_plan_id":"cebpf4jnsgd1na2vs0mg"},{"bike_id":"2966434a-921f-4f6a-8543-92544bd2c40c","system_id":"levelo_inurba_marseille","lat":43.29843,"lon":5.36251,"is_reserved":false,"is_disabled":false,"rental_uris":{"android":"levelo://app?vid=2966434a-921f-4f6a-8543-92544bd2c40c","ios":"levelo://app?vid=2966434a-921f-4f6a-8543-92544bd2c40c"},"vehicle_type_id":"4","last_reported":1770882652,"current_range_meters":9200,"station_id":"ce4bgpp2rcd13ifvqc3g","pricing_plan_id":"cebpf4jnsgd1na2vs0mg"},{"bike_id":"639394f3-3d7d-49a9-8b1d-8c0b0b440847","system_id":"levelo_inurba_marseille","lat":43.29255,"lon":5.40907,"is_reserved":false,"is_disabled":false,"rental_uris":{"android":"levelo://app?vid=639394f3-3d7d-49a9-8b1d-8c0b0b440847","ios":"levelo://app?vid=639394f3-3d7d-49a9-8b1d-8c0b0b440847"},"vehicle_type_id":"4","last_reported":1770882652,"current_range_meters":9200,"station_id":"ce4bh192rcd13ifvqdc0","pricing_plan_id":"cebpf4jnsgd1na2vs0mg"},{"bike_id":"22215d70-d56b-4e54-8078-ea1e3bd0b3d5","system_id":"levelo_inurba_marseille","lat":43.28153,"lon":5.42646,"is_reserved":false,"is_disabled":false,"rental_uris":{"android":"levelo://app?vid=22215d70-d56b-4e54-8078-ea1e3bd0b3d5","ios":"levelo://app?vid=22215d70-d56b-4e54-8078-ea1e3bd0b3d5"},"vehicle_type_id":"4","last_reported":1770882652,"current_range_meters":9600,"station_id":"ce4bhnh2rcd13ifvqgug","pricing_plan_id":"cebpf4jnsgd1na2vs0mg"},{"bike_id":"85ca329a-9c55-4be1-b2da-c3d917ed6363","system_id":"levelo_inurba_marseille","lat":43.24546,"lon":5.39546,"is_reserved":false,"is_disabled":true,"rental_uris":{"android":"levelo://app?vid=85ca329a-9c55-4be1-b2da-c3d917ed6363","ios":"levelo://app?vid=85ca329a-9c55-4be1-b2da-c3d917ed6363"},"vehicle_type_id":"4","last_reported":1770882652,"current_range_meters":9600,"station_id":"ce4bhlp2rcd13ifvqgjg","pricing_plan_id":"cebpf4jnsgd1na2vs0mg"},{"bike_id":"558b0286-85fc-49cb-b13d-aa40847d1ce9","system_id":"levelo_inurba_marseille","lat":43.25002,"lon":5.3893,"is_reserved":false,"is_disabled":false,"rental_uris":{"android":"levelo://app?vid=558b0286-85fc-49cb-b13d-aa40847d1ce9","ios":"levelo://app?vid=558b0286-85fc-49cb-b13d-aa40847d1ce9"},"vehicle_type_id":"4","last_reported":1770882652,"current_range_meters":9600,"station_id":"ce4bhgp2rcd13ifvqfd0","pricing_plan_id":"cebpf4jnsgd1na2vs0mg"},{"bike_id":"2c5e5671-dbab-4a02-bb0a-e45b56b198e6","system_id":"levelo_inurba_marseille","lat":43.313229,"lon":5.397059,"is_reserved":false,"is_disabled":false,"rental_uris":{"android":"levelo://app?vid=2c5e5671-dbab-4a02-bb0a-e45b56b198e6","ios":"levelo://app?vid=2c5e5671-dbab-4a02-bb0a-e45b56b198e6"},"vehicle_type_id":"4","last_reported":1770882652,"current_range_meters":9600,"station_id":"ce4bgvp2rcd13ifvqcu0","pricing_plan_id":"cebpf4jnsgd1na2vs0mg"},{"bike_id":"5bedc8bc-97e5-4d15-9187-f5bfba57e305","system_id":"levelo_inurba_marseille","lat":43.31117,"lon":5.37776,"is_reserved":false,"is_disabled":false,"rental_uris":{"android":"levelo://app?vid=5bedc8bc-97e5-4d15-9187-f5bfba57e305","ios":"levelo://app?vid=5bedc8bc-97e5-4d15-9187-f5bfba57e305"},"vehicle_type_id":"4","last_reported":1770882652,"current_range_meters":9600,"station_id":"ce4bgt92rcd13ifvqcg0","pricing_plan_id":"cebpf4jnsgd1na2vs0mg"},{"bike_id":"5ff157dc-e3aa-4305-ad39-dfa58cf64b9c","system_id":"levelo_inurba_marseille","lat":43.24078,"lon":5.37736,"is_reserved":false,"is_disabled":false,"rental_uris":{"android":"levelo://app?vid=5ff157dc-e3aa-4305-ad39-dfa58cf64b9c","ios":"levelo://app?vid=5ff157dc-e3aa-4305-ad39-dfa58cf64b9c"},"vehicle_type_id":"4","last_reported":1770882652,"current_range_meters":9600,"station_id":"ce4bhnp2rcd13ifvqgvg","pricing_plan_id":"cebpf4jnsgd1na2vs0mg"},{"bike_id":"471b8135-bd4d-4960-99ae-7db80eaff7f4","system_id":"levelo_inurba_marseille","lat":43.29257,"lon":5.37629,"is_reserved":false,"is_disabled":false,"rental_uris":{"android":"levelo://app?vid=471b8135-bd4d-4960-99ae-7db80eaff7f4","ios":"levelo://app?vid=471b8135-bd4d-4960-99ae-7db80eaff7f4"},"vehicle_type_id":"4","last_reported":1770882652,"current_range_meters":9600,"station_id":"ce4bgi12rcd13ifvqb80","pricing_plan_id":"cebpf4jnsgd1na2vs0mg"},{"bike_id":"b5cfe035-0ac5-4157-91b6-fb5d92305462","system_id":"levelo_inurba_marseille","lat":43.28145,"lon":5.42645,"is_reserved":false,"is_disabled":false,"rental_uris":{"android":"levelo://app?vid=b5cfe035-0ac5-4157-91b6-fb5d92305462","ios":"levelo://app?vid=b5cfe035-0ac5-4157-91b6-fb5d92305462"},"vehicle_type_id":"4","last_reported":1770882652,"current_range_meters":9600,"station_id":"ce4bhnh2rcd13ifvqgug","pricing_plan_id":"cebpf4jnsgd1na2vs0mg"},{"bike_id":"76ea5260-ff82-43e8-a377-4f3ddffee2c7","system_id":"levelo_inurba_marseille","lat":43.297545,"lon":5.427699,"is_reserved":false,"is_disabled":false,"rental_uris":{"android":"levelo://app?vid=76ea5260-ff82-43e8-a377-4f3ddffee2c7","ios":"levelo://app?vid=76ea5260-ff82-43e8-a377-4f3ddffee2c7"},"vehicle_type_id":"4","last_reported":1770882652,"current_range_meters":9600,"station_id":"st_d3md5207bmas73dh9klg","pricing_plan_id":"cebpf4jnsgd1na2vs0mg"},{"bike_id":"c9be108b-acd0-4ecc-8564-d23f0037aa49","system_id":"levelo_inurba_marseille","lat":43.27376,"lon":5.36256,"is_reserved":false,"is_disabled":false,"rental_uris":{"android":"levelo://app?vid=c9be108b-acd0-4ecc-8564-d23f0037aa49","ios":"levelo://app?vid=c9be108b-acd0-4ecc-8564-d23f0037aa49"},"vehicle_type_id":"4","last_reported":1770882652,"current_range_meters":9600,"station_id":"ce4bhbh2rcd13ifvqeo0","pricing_plan_id":"cebpf4jnsgd1na2vs0mg"},{"bike_id":"c8146efe-1259-49ad-8200-aa0acd849ec8","system_id":"levelo_inurba_marseille","lat":43.29481,"lon":5.43304,"is_reserved":false,"is_disabled":true,"rental_uris":{"android":"levelo://app?vid=c8146efe-1259-49ad-8200-aa0acd849ec8","ios":"levelo://app?vid=c8146efe-1259-49ad-8200-aa0acd849ec8"},"vehicle_type_id":"4","last_reported":1770882652,"current_range_meters":9600,"station_id":"st_d3j5ugp08ojc73fj9d10","pricing_plan_id":"cebpf4jnsgd1na2vs0mg"},{"bike_id":"0bc07830-0409-4321-bb8f-799189c580fa","system_id":"levelo_inurba_marseille","lat":43.30162,"lon":5.38102,"is_reserved":false,"is_disabled":false,"rental_uris":{"android":"levelo://app?vid=0bc07830-0409-4321-bb8f-799189c580fa","ios":"levelo://app?vid=0bc07830-0409-4321-bb8f-799189c580fa"},"vehicle_type_id":"4","last_reported":1770882652,"current_range_meters":9600,"station_id":"ce4bgjp2rcd13ifvqbh0","pricing_plan_id":"cebpf4jnsgd1na2vs0mg"},{"bike_id":"fd31773e-44fc-47ab-99e4-141b85b22fc5","system_id":"levelo_inurba_marseille","lat":43.29257,"lon":5.38434,"is_reserved":false,"is_disabled":true,"rental_uris":{"android":"levelo://app?vid=fd31773e-44fc-47ab-99e4-141b85b22fc5","ios":"levelo://app?vid=fd31773e-44fc-47ab-99e4-141b85b22fc5"},"vehicle_type_id":"4","last_reported":1770882652,"current_range_meters":10000,"station_id":"ce4bh692rcd13ifvqea0","pricing_plan_id":"cebpf4jnsgd1na2vs0mg"},{"bike_id":"bc757259-3231-42fc-84f1-e4b3f0804f84","system_id":"levelo_inurba_marseille","lat":43.25932,"lon":5.40881,"is_reserved":false,"is_disabled":false,"rental_uris":{"android":"levelo://app?vid=bc757259-3231-42fc-84f1-e4b3f0804f84","ios":"levelo://app?vid=bc757259-3231-42fc-84f1-e4b3f0804f84"},"vehicle_type_id":"4","last_reported":1770882652,"current_range_meters":10000,"station_id":"ce4bhm92rcd13ifvqglg","pricing_plan_id":"cebpf4jnsgd1na2vs0mg"},{"bike_id":"51ad0198-092e-4860-b994-3420575955f1","system_id":"levelo_inurba_marseille","lat":43.225306,"lon":5.348323,"is_reserved":false,"is_disabled":false,"rental_uris":{"android":"levelo://app?vid=51ad0198-092e-4860-b994-3420575955f1","ios":"levelo://app?vid=51ad0198-092e-4860-b994-3420575955f1"},"vehicle_type_id":"4","last_reported":1770882652,"current_range_meters":10000,"station_id":"st_cvj5dfep6f1abm77gieg","pricing_plan_id":"cebpf4jnsgd1na2vs0mg"},{"bike_id":"806dba28-6b5b-471d-afa9-5e9335f17ebb","system_id":"levelo_inurba_marseille","lat":43.29272,"lon":5.40932,"is_reserved":false,"is_disabled":true,"rental_uris":{"android":"levelo://app?vid=806dba28-6b5b-471d-afa9-5e9335f17ebb","ios":"levelo://app?vid=806dba28-6b5b-471d-afa9-5e9335f17ebb"},"vehicle_type_id":"4","last_reported":1770882652,"current_range_meters":10000,"station_id":"ce4bh192rcd13ifvqdc0","pricing_plan_id":"cebpf4jnsgd1na2vs0mg"},{"bike_id":"9e49c384-30c1-4f45-a8df-9663175b8696","system_id":"levelo_inurba_marseille","lat":43.24475,"lon":5.42545,"is_reserved":false,"is_disabled":false,"rental_uris":{"android":"levelo://app?vid=9e49c384-30c1-4f45-a8df-9663175b8696","ios":"levelo://app?vid=9e49c384-30c1-4f45-a8df-9663175b8696"},"vehicle_type_id":"4","last_reported":1770882652,"current_range_meters":10000,"station_id":"st_d4a3vfp97mjs738cd8kg","pricing_plan_id":"cebpf4jnsgd1na2vs0mg"},{"bike_id":"6194a442-1a8b-411c-838b-59bdfa469ad1","system_id":"levelo_inurba_marseille","lat":43.33763,"lon":5.37471,"is_reserved":false,"is_disabled":false,"rental_uris":{"android":"levelo://app?vid=6194a442-1a8b-411c-838b-59bdfa469ad1","ios":"levelo://app?vid=6194a442-1a8b-411c-838b-59bdfa469ad1"},"vehicle_type_id":"4","last_reported":1770882652,"current_range_meters":10000,"station_id":"","pricing_plan_id":"cebpf4jnsgd1na2vs0mg"},{"bike_id":"1666a0e7-ccfb-4a46-816c-bd1b996f577e","system_id":"levelo_inurba_marseille","lat":43.2857,"lon":5.3838,"is_reserved":false,"is_disabled":false,"rental_uris":{"android":"levelo://app?vid=1666a0e7-ccfb-4a46-816c-bd1b996f577e","ios":"levelo://app?vid=1666a0e7-ccfb-4a46-816c-bd1b996f577e"},"vehicle_type_id":"4","last_reported":1770882652,"current_range_meters":10000,"station_id":"","pricing_plan_id":"cebpf4jnsgd1na2vs0mg"},{"bike_id":"40452636-8d5c-4483-9aa3-a6ea0d66c3ee","system_id":"levelo_inurba_marseille","lat":43.31059,"lon":5.39332,"is_reserved":false,"is_disabled":false,"rental_uris":{"android":"levelo://app?vid=40452636-8d5c-4483-9aa3-a6ea0d66c3ee","ios":"levelo://app?vid=40452636-8d5c-4483-9aa3-a6ea0d66c3ee"},"vehicle_type_id":"4","last_reported":1770882652,"current_range_meters":10000,"station_id":"","pricing_plan_id":"cebpf4jnsgd1na2vs0mg"},{"bike_id":"1c5a2ea6-8ba2-476e-a079-3fef41d25b48","system_id":"levelo_inurba_marseille","lat":43.30458,"lon":5.37926,"is_reserved":false,"is_disabled":false,"rental_uris":{"android":"levelo://app?vid=1c5a2ea6-8ba2-476e-a079-3fef41d25b48","ios":"levelo://app?vid=1c5a2ea6-8ba2-476e-a079-3fef41d25b48"},"vehicle_type_id":"4","last_reported":1770882652,"current_range_meters":10000,"station_id":"ce4bgup2rcd13ifvqcn0","pricing_plan_id":"cebpf4jnsgd1na2vs0mg"},{"bike_id":"dddd8dae-2150-40e8-9b96-7bf9dacad978","system_id":"levelo_inurba_marseille","lat":43.29871,"lon":5.43659,"is_reserved":false,"is_disabled":false,"rental_uris":{"android":"levelo://app?vid=dddd8dae-2150-40e8-9b96-7bf9dacad978","ios":"levelo://app?vid=dddd8dae-2150-40e8-9b96-7bf9dacad978"},"vehicle_type_id":"4","last_reported":1770882652,"current_range_meters":10000,"station_id":"ce4bhpp2rcd13ifvqhfg","pricing_plan_id":"cebpf4jnsgd1na2vs0mg"},{"bike_id":"c0d21250-70f7-405b-91f7-061919265b15","system_id":"levelo_inurba_marseille","lat":43.337444,"lon":5.374475,"is_reserved":false,"is_disabled":false,"rental_uris":{"android":"levelo://app?vid=c0d21250-70f7-405b-91f7-061919265b15","ios":"levelo://app?vid=c0d21250-70f7-405b-91f7-061919265b15"},"vehicle_type_id":"4","last_reported":1770882652,"current_range_meters":10000,"station_id":"","pricing_plan_id":"cebpf4jnsgd1na2vs0mg"},{"bike_id":"f28ee724-6771-4020-9ab3-7deb12288357","system_id":"levelo_inurba_marseille","lat":43.3105,"lon":5.37149,"is_reserved":false,"is_disabled":false,"rental_uris":{"android":"levelo://app?vid=f28ee724-6771-4020-9ab3-7deb12288357","ios":"levelo://app?vid=f28ee724-6771-4020-9ab3-7deb12288357"},"vehicle_type_id":"4","last_reported":1770882652,"current_range_meters":10000,"station_id":"st_d4kl2rp97mjs73e7tdfg","pricing_plan_id":"cebpf4jnsgd1na2vs0mg"},{"bike_id":"1d2595e7-24ec-4837-ac2e-333261d8dae0","system_id":"levelo_inurba_marseille","lat":43.225543,"lon":5.41638,"is_reserved":false,"is_disabled":false,"rental_uris":{"android":"levelo://app?vid=1d2595e7-24ec-4837-ac2e-333261d8dae0","ios":"levelo://app?vid=1d2595e7-24ec-4837-ac2e-333261d8dae0"},"vehicle_type_id":"4","last_reported":1770882652,"current_range_meters":10000,"station_id":"st_d2o4gvlbi1j2169b742g","pricing_plan_id":"cebpf4jnsgd1na2vs0mg"},{"bike_id":"ee27a5d2-298d-4b5e-8f70-04bb7f38d10a","system_id":"levelo_inurba_marseille","lat":43.28468,"lon":5.35909,"is_reserved":false,"is_disabled":false,"rental_uris":{"android":"levelo://app?vid=ee27a5d2-298d-4b5e-8f70-04bb7f38d10a","ios":"levelo://app?vid=ee27a5d2-298d-4b5e-8f70-04bb7f38d10a"},"vehicle_type_id":"4","last_reported":1770882652,"current_range_meters":10000,"station_id":"ce4bhah2rcd13ifvqei0","pricing_plan_id":"cebpf4jnsgd1na2vs0mg"},{"bike_id":"7578ca6a-41b9-4d16-80d9-987a7c1630a9","system_id":"levelo_inurba_marseille","lat":43.24637,"lon":5.38906,"is_reserved":false,"is_disabled":false,"rental_uris":{"android":"levelo://app?vid=7578ca6a-41b9-4d16-80d9-987a7c1630a9","ios":"levelo://app?vid=7578ca6a-41b9-4d16-80d9-987a7c1630a9"},"vehicle_type_id":"4","last_reported":1770882652,"current_range_meters":10000,"station_id":"ce4bhg12rcd13ifvqf60","pricing_plan_id":"cebpf4jnsgd1na2vs0mg"},{"bike_id":"2cdaaecc-f3f1-45ea-a338-8e3592ee7872","system_id":"levelo_inurba_marseille","lat":43.319941,"lon":5.381658,"is_reserved":false,"is_disabled":false,"rental_uris":{"android":"levelo://app?vid=2cdaaecc-f3f1-45ea-a338-8e3592ee7872","ios":"levelo://app?vid=2cdaaecc-f3f1-45ea-a338-8e3592ee7872"},"vehicle_type_id":"4","last_reported":1770882652,"current_range_meters":10000,"station_id":"ce4bhbh2rcd13ifvqeqg","pricing_plan_id":"cebpf4jnsgd1na2vs0mg"},{"bike_id":"ba7d5086-526f-401d-b86d-eb9414a58cb1","system_id":"levelo_inurba_marseille","lat":43.2593,"lon":5.40898,"is_reserved":false,"is_disabled":false,"rental_uris":{"android":"levelo://app?vid=ba7d5086-526f-401d-b86d-eb9414a58cb1","ios":"levelo://app?vid=ba7d5086-526f-401d-b86d-eb9414a58cb1"},"vehicle_type_id":"4","last_reported":1770882652,"current_range_meters":10000,"station_id":"ce4bhm92rcd13ifvqglg","pricing_plan_id":"cebpf4jnsgd1na2vs0mg"},{"bike_id":"1eeb203d-94a4-4e81-983e-c4f77d33105c","system_id":"levelo_inurba_marseille","lat":43.28433,"lon":5.39197,"is_reserved":false,"is_disabled":false,"rental_uris":{"android":"levelo://app?vid=1eeb203d-94a4-4e81-983e-c4f77d33105c","ios":"levelo://app?vid=1eeb203d-94a4-4e81-983e-c4f77d33105c"},"vehicle_type_id":"4","last_reported":1770882652,"current_range_meters":10000,"station_id":"ce4bhoh2rcd13ifvqh5g","pricing_plan_id":"cebpf4jnsgd1na2vs0mg"},{"bike_id":"be9ce5a5-49b5-4418-ad93-37c258cd15de","system_id":"levelo_inurba_marseille","lat":43.230766,"lon":5.403224,"is_reserved":false,"is_disabled":false,"rental_uris":{"android":"levelo://app?vid=be9ce5a5-49b5-4418-ad93-37c258cd15de","ios":"levelo://app?vid=be9ce5a5-49b5-4418-ad93-37c258cd15de"},"vehicle_type_id":"4","last_reported":1770882652,"current_range_meters":10000,"station_id":"","pricing_plan_id":"cebpf4jnsgd1na2vs0mg"},{"bike_id":"93cb7815-ba9a-4ed4-824c-7ab446ba045f","system_id":"levelo_inurba_marseille","lat":43.28219,"lon":5.39074,"is_reserved":false,"is_disabled":false,"rental_uris":{"android":"levelo://app?vid=93cb7815-ba9a-4ed4-824c-7ab446ba045f","ios":"levelo://app?vid=93cb7815-ba9a-4ed4-824c-7ab446ba045f"},"vehicle_type_id":"4","last_reported":1770882652,"current_range_meters":10800,"station_id":"ce4bhn92rcd13ifvqgsg","pricing_plan_id":"cebpf4jnsgd1na2vs0mg"},{"bike_id":"014613de-69aa-4aca-9291-67750cce2e69","system_id":"levelo_inurba_marseille","lat":43.284842,"lon":5.483976,"is_reserved":false,"is_disabled":false,"rental_uris":{"android":"levelo://app?vid=014613de-69aa-4aca-9291-67750cce2e69","ios":"levelo://app?vid=014613de-69aa-4aca-9291-67750cce2e69"},"vehicle_type_id":"4","last_reported":1770882652,"current_range_meters":10800,"station_id":"","pricing_plan_id":"cebpf4jnsgd1na2vs0mg"},{"bike_id":"2f4fd4b5-3284-4a67-b9d3-e114aa3afdc5","system_id":"levelo_inurba_marseille","lat":43.3024,"lon":5.40095,"is_reserved":false,"is_disabled":true,"rental_uris":{"android":"levelo://app?vid=2f4fd4b5-3284-4a67-b9d3-e114aa3afdc5","ios":"levelo://app?vid=2f4fd4b5-3284-4a67-b9d3-e114aa3afdc5"},"vehicle_type_id":"4","last_reported":1770882652,"current_range_meters":10800,"station_id":"ce4bgvh2rcd13ifvqcs0","pricing_plan_id":"cebpf4jnsgd1na2vs0mg"},{"bike_id":"cb2bcb24-1c3f-4f48-a6ce-4caf16fce4cb","system_id":"levelo_inurba_marseille","lat":43.31768,"lon":5.40508,"is_reserved":false,"is_disabled":false,"rental_uris":{"android":"levelo://app?vid=cb2bcb24-1c3f-4f48-a6ce-4caf16fce4cb","ios":"levelo://app?vid=cb2bcb24-1c3f-4f48-a6ce-4caf16fce4cb"},"vehicle_type_id":"4","last_reported":1770882652,"current_range_meters":10800,"station_id":"ce4bh012rcd13ifvqd00","pricing_plan_id":"cebpf4jnsgd1na2vs0mg"},{"bike_id":"171b62e2-ba7e-4159-8190-27c62681b21e","system_id":"levelo_inurba_marseille","lat":43.27066,"lon":5.42282,"is_reserved":false,"is_disabled":false,"rental_uris":{"android":"levelo://app?vid=171b62e2-ba7e-4159-8190-27c62681b21e","ios":"levelo://app?vid=171b62e2-ba7e-4159-8190-27c62681b21e"},"vehicle_type_id":"4","last_reported":1770882652,"current_range_meters":10800,"station_id":"ce4bhk92rcd13ifvqgb0","pricing_plan_id":"cebpf4jnsgd1na2vs0mg"},{"bike_id":"14bf843d-8092-4baf-b7f7-417fdf2903e5","system_id":"levelo_inurba_marseille","lat":43.31466,"lon":5.37334,"is_reserved":false,"is_disabled":false,"rental_uris":{"android":"levelo://app?vid=14bf843d-8092-4baf-b7f7-417fdf2903e5","ios":"levelo://app?vid=14bf843d-8092-4baf-b7f7-417fdf2903e5"},"vehicle_type_id":"4","last_reported":1770882652,"current_range_meters":10800,"station_id":"ce4bgt12rcd13ifvqcd0","pricing_plan_id":"cebpf4jnsgd1na2vs0mg"},{"bike_id":"8b6c6055-11c8-47ef-a755-295c17d6052d","system_id":"levelo_inurba_marseille","lat":43.28148,"lon":5.42658,"is_reserved":false,"is_disabled":false,"rental_uris":{"android":"levelo://app?vid=8b6c6055-11c8-47ef-a755-295c17d6052d","ios":"levelo://app?vid=8b6c6055-11c8-47ef-a755-295c17d6052d"},"vehicle_type_id":"4","last_reported":1770882652,"current_range_meters":10800,"station_id":"ce4bhnh2rcd13ifvqgug","pricing_plan_id":"cebpf4jnsgd1na2vs0mg"},{"bike_id":"8d8582f3-6232-4e22-afa9-da2484a7dcc0","system_id":"levelo_inurba_marseille","lat":43.25063,"lon":5.39528,"is_reserved":false,"is_disabled":true,"rental_uris":{"android":"levelo://app?vid=8d8582f3-6232-4e22-afa9-da2484a7dcc0","ios":"levelo://app?vid=8d8582f3-6232-4e22-afa9-da2484a7dcc0"},"vehicle_type_id":"4","last_reported":1770882652,"current_range_meters":10800,"station_id":"ce4bhm12rcd13ifvqgkg","pricing_plan_id":"cebpf4jnsgd1na2vs0mg"},{"bike_id":"5e6b363c-3285-4065-aa55-8f6ad4524674","system_id":"levelo_inurba_marseille","lat":43.21181,"lon":5.35091,"is_reserved":false,"is_disabled":false,"rental_uris":{"android":"levelo://app?vid=5e6b363c-3285-4065-aa55-8f6ad4524674","ios":"levelo://app?vid=5e6b363c-3285-4065-aa55-8f6ad4524674"},"vehicle_type_id":"4","last_reported":1770882652,"current_range_meters":10800,"station_id":"st_cvj6sg6p6f1abm77japg","pricing_plan_id":"cebpf4jnsgd1na2vs0mg"},{"bike_id":"2ddb74e5-6790-45b0-ae81-55d53893d2bd","system_id":"levelo_inurba_marseille","lat":43.26361,"lon":5.41083,"is_reserved":false,"is_disabled":false,"rental_uris":{"android":"levelo://app?vid=2ddb74e5-6790-45b0-ae81-55d53893d2bd","ios":"levelo://app?vid=2ddb74e5-6790-45b0-ae81-55d53893d2bd"},"vehicle_type_id":"4","last_reported":1770882652,"current_range_meters":10800,"station_id":"st_d4e5ca6na9uc73bfl5fg","pricing_plan_id":"cebpf4jnsgd1na2vs0mg"},{"bike_id":"b0e50c58-1b8e-4057-9a76-3574d6015041","system_id":"levelo_inurba_marseille","lat":43.313663,"lon":5.366199,"is_reserved":false,"is_disabled":false,"rental_uris":{"android":"levelo://app?vid=b0e50c58-1b8e-4057-9a76-3574d6015041","ios":"levelo://app?vid=b0e50c58-1b8e-4057-9a76-3574d6015041"},"vehicle_type_id":"4","last_reported":1770882652,"current_range_meters":10800,"station_id":"ce4bgr92rcd13ifvqc6g","pricing_plan_id":"cebpf4jnsgd1na2vs0mg"},{"bike_id":"7ebaa038-f7e8-4cf9-aac2-b18fb424d74a","system_id":"levelo_inurba_marseille","lat":43.27635,"lon":5.39564,"is_reserved":false,"is_disabled":false,"rental_uris":{"android":"levelo://app?vid=7ebaa038-f7e8-4cf9-aac2-b18fb424d74a","ios":"levelo://app?vid=7ebaa038-f7e8-4cf9-aac2-b18fb424d74a"},"vehicle_type_id":"4","last_reported":1770882652,"current_range_meters":10800,"station_id":"","pricing_plan_id":"cebpf4jnsgd1na2vs0mg"},{"bike_id":"5effb89f-1d70-4615-a4b6-1dc3bfffaecb","system_id":"levelo_inurba_marseille","lat":43.29209,"lon":5.36068,"is_reserved":false,"is_disabled":false,"rental_uris":{"android":"levelo://app?vid=5effb89f-1d70-4615-a4b6-1dc3bfffaecb","ios":"levelo://app?vid=5effb89f-1d70-4615-a4b6-1dc3bfffaecb"},"vehicle_type_id":"4","last_reported":1770882652,"current_range_meters":10800,"station_id":"ce4bhbh2rcd13ifvqeqg","pricing_plan_id":"cebpf4jnsgd1na2vs0mg"},