{"last_updated":1698163726,"ttl":30,"version":"2.2","data":{"bikes":[{"bike_id":"9afc1e3e-cf70-46ee-8621-6fe366fe2684","system_id":"levelo_inurba_marseille","lat":43.31341,"lon":5.367098,"is_reserved":false,"is_disabled":false,"rental_uris":{"android":"levelo://app?vid=9afc1e3e-cf70-46ee-8621-6fe366fe2684","ios":"levelo://app?vid=9afc1e3e-cf70-46ee-8621-6fe366fe2684"},"vehicle_type_id":"4","last_reported":1698163726,"current_range_meters":14400,"station_id":"ce4bgr92rcd13ifvqc6g","pricing_plan_id":"free"},{"bike_id":"f5c58904-aeb7-4548-b4b5-9f5e83f269ce","system_id":"levelo_inurba_marseille","lat":43.309797,"lon":5.368093,"is_reserved":false,"is_disabled":false,"rental_uris":{"android":"levelo://app?vid=f5c58904-aeb7-4548-b4b5-9f5e83f269ce","ios":"levelo://app?vid=f5c58904-aeb7-4548-b4b5-9f5e83f269ce"},"vehicle_type_id":"4","last_reported":1698163726,"current_range_meters":7200,"station_id":"ce4bgn92rcd13ifvqbvg","pricing_plan_id":"free"},{"bike_id":"dbbdea51-7e3d-4271-bd96-c3aabecbd7e2","system_id":"levelo_inurba_marseille","lat":43.315783,"lon":5.372523,"is_reserved":false,"is_disabled":false,"rental_uris":{"android":"levelo://app?vid=dbbdea51-7e3d-4271-bd96-c3aabecbd7e2","ios":"levelo://app?vid=dbbdea51-7e3d-4271-bd96-c3aabecbd7e2"},"vehicle_type_id":"4","last_reported":1698163726,"current_range_meters":23200,"station_id":"","pricing_plan_id":"free"},{"bike_id":"4f50741d-f696-477c-bec0-268d1817dbde","system_id":"levelo_inurba_marseille","lat":43.30537,"lon":5.367345,"is_reserved":false,"is_disabled":false,"rental_uris":{"android":"levelo://app?vid=4f50741d-f696-477c-bec0-268d1817dbde","ios":"levelo://app?vid=4f50741d-f696-477c-bec0-268d1817dbde"},"vehicle_type_id":"4","last_reported":1698163726,"current_range_meters":3600,"station_id":"ce4bgrp2rcd13ifvqc9g","pricing_plan_id":"free"},{"bike_id":"8133906f-be2e-4a84-ae75-0a3707d8e8d3","system_id":"levelo_inurba_marseille","lat":43.305533,"lon":5.365273,"is_reserved":false,"is_disabled":false,"rental_uris":{"android":"levelo://app?vid=8133906f-be2e-4a84-ae75-0a3707d8e8d3","ios":"levelo://app?vid=8133906f-be2e-4a84-ae75-0a3707d8e8d3"},"vehicle_type_id":"4","last_reported":1698163726,"current_range_meters":0,"station_id":"ce4bgs12rcd13ifvqcag","pricing_plan_id":"free"},{"bike_id":"b28f2d04-3314-42ad-8f58-526f2576d8d3","system_id":"levelo_inurba_marseille","lat":43.30551,"lon":5.36529,"is_reserved":false,"is_disabled":false,"rental_uris":{"android":"levelo://app?vid=b28f2d04-3314-42ad-8f58-526f2576d8d3","ios":"levelo://app?vid=b28f2d04-3314-42ad-8f58-526f2576d8d3"},"vehicle_type_id":"4","last_reported":1698163726,"current_range_meters":11600,"station_id":"ce4bgs12rcd13ifvqcag","pricing_plan_id":"free"},{"bike_id":"f252b071-dddd-4e5f-ad07-506846af6d1a","system_id":"levelo_inurba_marseille","lat":43.305714,"lon":5.365633,"is_reserved":false,"is_disabled":false,"rental_uris":{"android":"levelo://app?vid=f252b071-dddd-4e5f-ad07-506846af6d1a","ios":"levelo://app?vid=f252b071-dddd-4e5f-ad07-506846af6d1a"},"vehicle_type_id":"4","last_reported":1698163726,"current_range_meters":16000,"station_id":"ce4bgs12rcd13ifvqcag","pricing_plan_id":"free"},{"bike_id":"475dd9f3-f9b9-43c6-ae87-20ef9e1f1d7c","system_id":"levelo_inurba_marseille","lat":43.31952,"lon":5.371993,"is_reserved":false,"is_disabled":false,"rental_uris":{"android":"levelo://app?vid=475dd9f3-f9b9-43c6-ae87-20ef9e1f1d7c","ios":"levelo://app?vid=475dd9f3-f9b9-43c6-ae87-20ef9e1f1d7c"},"vehicle_type_id":"4","last_reported":1698163726,"current_range_meters":13600,"station_id":"","pricing_plan_id":"free"},{"bike_id":"b93bdb24-ca01-43ca-969d-daa8cd8fb06d","system_id":"levelo_inurba_marseille","lat":43.303046,"lon":5.368981,"is_reserved":false,"is_disabled":false,"rental_uris":{"android":"levelo://app?vid=b93bdb24-ca01-43ca-969d-daa8cd8fb06d","ios":"levelo://app?vid=b93bdb24-ca01-43ca-969d-daa8cd8fb06d"},"vehicle_type_id":"4","last_reported":1698163726,"current_range_meters":18000,"station_id":"ce4bgqh2rcd13ifvqc5g","pricing_plan_id":"free"},{"bike_id":"3c3f3e2c-6dd7-4861-8c1a-f3587965440f","system_id":"levelo_inurba_marseille","lat":43.31533,"lon":5.38038,"is_reserved":false,"is_disabled":false,"rental_uris":{"android":"levelo://app?vid=3c3f3e2c-6dd7-4861-8c1a-f3587965440f","ios":"levelo://app?vid=3c3f3e2c-6dd7-4861-8c1a-f3587965440f"},"vehicle_type_id":"4","last_reported":1698163726,"current_range_meters":20800,"station_id":"ce4bhsp2rcd13ifvqi50","pricing_plan_id":"free"},{"bike_id":"ded613bf-ab05-448b-923d-915c869b25da","system_id":"levelo_inurba_marseille","lat":43.301939,"lon":5.366286,"is_reserved":false,"is_disabled":false,"rental_uris":{"android":"levelo://app?vid=ded613bf-ab05-448b-923d-915c869b25da","ios":"levelo://app?vid=ded613bf-ab05-448b-923d-915c869b25da"},"vehicle_type_id":"4","last_reported":1698163726,"current_range_meters":16000,"station_id":"ce4bgrh2rcd13ifvqc8g","pricing_plan_id":"free"},{"bike_id":"1a7e583e-b462-4313-bf4b-d0077aeb2ac6","system_id":"levelo_inurba_marseille","lat":43.30791,"lon":5.38158,"is_reserved":false,"is_disabled":false,"rental_uris":{"android":"levelo://app?vid=1a7e583e-b462-4313-bf4b-d0077aeb2ac6","ios":"levelo://app?vid=1a7e583e-b462-4313-bf4b-d0077aeb2ac6"},"vehicle_type_id":"4","last_reported":1698163726,"current_range_meters":10800,"station_id":"ce4bgt12rcd13ifvqce0","pricing_plan_id":"free"},{"bike_id":"21e32aae-9881-4c78-8a93-65a6bca4c557","system_id":"levelo_inurba_marseille","lat":43.304606,"lon":5.379026,"is_reserved":false,"is_disabled":false,"rental_uris":{"android":"levelo://app?vid=21e32aae-9881-4c78-8a93-65a6bca4c557","ios":"levelo://app?vid=21e32aae-9881-4c78-8a93-65a6bca4c557"},"vehicle_type_id":"4","last_reported":1698163726,"current_range_meters":25200,"station_id":"ce4bgup2rcd13ifvqcn0","pricing_plan_id":"free"},{"bike_id":"2bc1338c-60c2-4a48-b366-911250fcd6be","system_id":"levelo_inurba_marseille","lat":43.30447,"lon":5.379054,"is_reserved":false,"is_disabled":false,"rental_uris":{"android":"levelo://app?vid=2bc1338c-60c2-4a48-b366-911250fcd6be","ios":"levelo://app?vid=2bc1338c-60c2-4a48-b366-911250fcd6be"},"vehicle_type_id":"4","last_reported":1698163726,"current_range_meters":22000,"station_id":"","pricing_plan_id":"free"},{"bike_id":"1047bcc5-10ff-460b-bd6f-eac1d4a67db4","system_id":"levelo_inurba_marseille","lat":43.31745,"lon":5.382537,"is_reserved":false,"is_disabled":false,"rental_uris":{"android":"levelo://app?vid=1047bcc5-10ff-460b-bd6f-eac1d4a67db4","ios":"levelo://app?vid=1047bcc5-10ff-460b-bd6f-eac1d4a67db4"},"vehicle_type_id":"4","last_reported":1698163726,"current_range_meters":7600,"station_id":"","pricing_plan_id":"free"},{"bike_id":"4c5dc60d-553c-4fa5-81c1-470d5abd0ead","system_id":"levelo_inurba_marseille","lat":43.31974,"lon":5.38128,"is_reserved":false,"is_disabled":false,"rental_uris":{"android":"levelo://app?vid=4c5dc60d-553c-4fa5-81c1-470d5abd0ead","ios":"levelo://app?vid=4c5dc60d-553c-4fa5-81c1-470d5abd0ead"},"vehicle_type_id":"4","last_reported":1698163726,"current_range_meters":23200,"station_id":"ce4bhr12rcd13ifvqhpg","pricing_plan_id":"free"},{"bike_id":"355f0366-7542-4784-a6b6-3201ae34790c","system_id":"levelo_inurba_marseille","lat":43.29985,"lon":5.366135,"is_reserved":false,"is_disabled":false,"rental_uris":{"android":"levelo://app?vid=355f0366-7542-4784-a6b6-3201ae34790c","ios":"levelo://app?vid=355f0366-7542-4784-a6b6-3201ae34790c"},"vehicle_type_id":"4","last_reported":1698163726,"current_range_meters":24800,"station_id":"ce4bgm92rcd13ifvqbr0","pricing_plan_id":"free"},{"bike_id":"64a63afc-5581-41a9-941f-41b9b3ed6ce0","system_id":"levelo_inurba_marseille","lat":43.31998,"lon":5.38165,"is_reserved":false,"is_disabled":false,"rental_uris":{"android":"levelo://app?vid=64a63afc-5581-41a9-941f-41b9b3ed6ce0","ios":"levelo://app?vid=64a63afc-5581-41a9-941f-41b9b3ed6ce0"},"vehicle_type_id":"4","last_reported":1698163726,"current_range_meters":14000,"station_id":"ce4bhr12rcd13ifvqhpg","pricing_plan_id":"free"},{"bike_id":"a05326c3-cb18-407e-ac67-45d6c54580d9","system_id":"levelo_inurba_marseille","lat":43.32022,"lon":5.38154,"is_reserved":false,"is_disabled":false,"rental_uris":{"android":"levelo://app?vid=a05326c3-cb18-407e-ac67-45d6c54580d9","ios":"levelo://app?vid=a05326c3-cb18-407e-ac67-45d6c54580d9"},"vehicle_type_id":"4","last_reported":1698163726,"current_range_meters":20400,"station_id":"ce4bhr12rcd13ifvqhpg","pricing_plan_id":"free"},{"bike_id":"e0d8a403-0733-43ec-a7ca-6a569dd9c5b8","system_id":"levelo_inurba_marseille","lat":43.313571,"lon":5.384829,"is_reserved":false,"is_disabled":false,"rental_uris":{"android":"levelo://app?vid=e0d8a403-0733-43ec-a7ca-6a569dd9c5b8","ios":"levelo://app?vid=e0d8a403-0733-43ec-a7ca-6a569dd9c5b8"},"vehicle_type_id":"4","last_reported":1698163726,"current_range_meters":20800,"station_id":"ce4bgt92rcd13ifvqcf0","pricing_plan_id":"free"},{"bike_id":"2e67187a-dc0c-45e8-9b3d-ca2cff10a7ae","system_id":"levelo_inurba_marseille","lat":43.299724,"lon":5.371829,"is_reserved":false,"is_disabled":false,"rental_uris":{"android":"levelo://app?vid=2e67187a-dc0c-45e8-9b3d-ca2cff10a7ae","ios":"levelo://app?vid=2e67187a-dc0c-45e8-9b3d-ca2cff10a7ae"},"vehicle_type_id":"4","last_reported":1698163726,"current_range_meters":12400,"station_id":"ce4bgr92rcd13ifvqc7g","pricing_plan_id":"free"},{"bike_id":"9c2cca3d-0a3a-49d9-9d94-55dff3fc4dc5","system_id":"levelo_inurba_marseille","lat":43.29976,"lon":5.37181,"is_reserved":false,"is_disabled":false,"rental_uris":{"android":"levelo://app?vid=9c2cca3d-0a3a-49d9-9d94-55dff3fc4dc5","ios":"levelo://app?vid=9c2cca3d-0a3a-49d9-9d94-55dff3fc4dc5"},"vehicle_type_id":"4","last_reported":1698163726,"current_range_meters":9600,"station_id":"ce4bgr92rcd13ifvqc7g","pricing_plan_id":"free"},{"bike_id":"03c268b1-77ff-4649-9d21-aff18e90eda2","system_id":"levelo_inurba_marseille","lat":43.299724,"lon":5.371829,"is_reserved":false,"is_disabled":false,"rental_uris":{"android":"levelo://app?vid=03c268b1-77ff-4649-9d21-aff18e90eda2","ios":"levelo://app?vid=03c268b1-77ff-4649-9d21-aff18e90eda2"},"vehicle_type_id":"4","last_reported":1698163726,"current_range_meters":10400,"station_id":"ce4bgr92rcd13ifvqc7g","pricing_plan_id":"free"},{"bike_id":"97997ef7-b347-4148-ba57-9a15ecc4912d","system_id":"levelo_inurba_marseille","lat":43.320945,"lon":5.38306,"is_reserved":false,"is_disabled":false,"rental_uris":{"android":"levelo://app?vid=97997ef7-b347-4148-ba57-9a15ecc4912d","ios":"levelo://app?vid=97997ef7-b347-4148-ba57-9a15ecc4912d"},"vehicle_type_id":"4","last_reported":1698163726,"current_range_meters":8000,"station_id":"","pricing_plan_id":"free"},{"bike_id":"a2939155-515a-4b5e-85d6-a479d7a632fd","system_id":"levelo_inurba_marseille","lat":43.298433,"lon":5.362774,"is_reserved":false,"is_disabled":false,"rental_uris":{"android":"levelo://app?vid=a2939155-515a-4b5e-85d6-a479d7a632fd","ios":"levelo://app?vid=a2939155-515a-4b5e-85d6-a479d7a632fd"},"vehicle_type_id":"4","last_reported":1698163726,"current_range_meters":11600,"station_id":"ce4bgpp2rcd13ifvqc3g","pricing_plan_id":"free"},{"bike_id":"56a514d6-dad9-4424-89ab-ea3a869b75d0","system_id":"levelo_inurba_marseille","lat":43.298433,"lon":5.362774,"is_reserved":false,"is_disabled":false,"rental_uris":{"android":"levelo://app?vid=56a514d6-dad9-4424-89ab-ea3a869b75d0","ios":"levelo://app?vid=56a514d6-dad9-4424-89ab-ea3a869b75d0"},"vehicle_type_id":"4","last_reported":1698163726,"current_range_meters":2000,"station_id":"ce4bgpp2rcd13ifvqc3g","pricing_plan_id":"free"},{"bike_id":"00e98207-9fce-4992-91fa-b47911fa13a4","system_id":"levelo_inurba_marseille","lat":43.305364,"lon":5.384119,"is_reserved":false,"is_disabled":false,"rental_uris":{"android":"levelo://app?vid=00e98207-9fce-4992-91fa-b47911fa13a4","ios":"levelo://app?vid=00e98207-9fce-4992-91fa-b47911fa13a4"},"vehicle_type_id":"4","last_reported":1698163726,"current_range_meters":0,"station_id":"ce4bgg92rcd13ifvqb30","pricing_plan_id":"free"},{"bike_id":"5d69bc21-ddc7-46d6-b2fd-6faef0d3a410","system_id":"levelo_inurba_marseille","lat":43.298435,"lon":5.362674,"is_reserved":false,"is_disabled":false,"rental_uris":{"android":"levelo://app?vid=5d69bc21-ddc7-46d6-b2fd-6faef0d3a410","ios":"levelo://app?vid=5d69bc21-ddc7-46d6-b2fd-6faef0d3a410"},"vehicle_type_id":"4","last_reported":1698163726,"current_range_meters":30800,"station_id":"ce4bgpp2rcd13ifvqc3g","pricing_plan_id":"free"},{"bike_id":"f345c621-a21b-4d1b-bfcb-8ccc32887cc2","system_id":"levelo_inurba_marseille","lat":43.29842,"lon":5.36266,"is_reserved":false,"is_disabled":false,"rental_uris":{"android":"levelo://app?vid=f345c621-a21b-4d1b-bfcb-8ccc32887cc2","ios":"levelo://app?vid=f345c621-a21b-4d1b-bfcb-8ccc32887cc2"},"vehicle_type_id":"4","last_reported":1698163726,"current_range_meters":27600,"station_id":"ce4bgpp2rcd13ifvqc3g","pricing_plan_id":"free"},{"bike_id":"df11aae1-31ca-4af3-88f6-8ecf96d026c1","system_id":"levelo_inurba_marseille","lat":43.29841,"lon":5.36267,"is_reserved":false,"is_disabled":false,"rental_uris":{"android":"levelo://app?vid=df11aae1-31ca-4af3-88f6-8ecf96d026c1","ios":"levelo://app?vid=df11aae1-31ca-4af3-88f6-8ecf96d026c1"},"vehicle_type_id":"4","last_reported":1698163726,"current_range_meters":29600,"station_id":"ce4bgpp2rcd13ifvqc3g","pricing_plan_id":"free"},{"bike_id":"ba5e5221-89ab-4f13-a107-7a1af42a6769","system_id":"levelo_inurba_marseille","lat":43.2984,"lon":5.36266,"is_reserved":false,"is_disabled":false,"rental_uris":{"android":"levelo://app?vid=ba5e5221-89ab-4f13-a107-7a1af42a6769","ios":"levelo://app?vid=ba5e5221-89ab-4f13-a107-7a1af42a6769"},"vehicle_type_id":"4","last_reported":1698163726,"current_range_meters":30000,"station_id":"ce4bgpp2rcd13ifvqc3g","pricing_plan_id":"free"},{"bike_id":"ac460e59-bf49-4f70-8b89-1e521722744c","system_id":"levelo_inurba_marseille","lat":43.299243,"lon":5.37481,"is_reserved":false,"is_disabled":false,"rental_uris":{"android":"levelo://app?vid=ac460e59-bf49-4f70-8b89-1e521722744c","ios":"levelo://app?vid=ac460e59-bf49-4f70-8b89-1e521722744c"},"vehicle_type_id":"4","last_reported":1698163726,"current_range_meters":16000,"station_id":"ce4bgjh2rcd13ifvqbg0","pricing_plan_id":"free"},{"bike_id":"089a01ca-b2b7-4b49-a216-f45592776d30","system_id":"levelo_inurba_marseille","lat":43.32783,"lon":5.36694,"is_reserved":false,"is_disabled":false,"rental_uris":{"android":"levelo://app?vid=089a01ca-b2b7-4b49-a216-f45592776d30","ios":"levelo://app?vid=089a01ca-b2b7-4b49-a216-f45592776d30"},"vehicle_type_id":"4","last_reported":1698163726,"current_range_meters":22800,"station_id":"ce4bhs92rcd13ifvqi0g","pricing_plan_id":"free"},{"bike_id":"fc7a197f-6ee4-4af4-a204-d1d788332795","system_id":"levelo_inurba_marseille","lat":43.328123,"lon":5.366893,"is_reserved":false,"is_disabled":false,"rental_uris":{"android":"levelo://app?vid=fc7a197f-6ee4-4af4-a204-d1d788332795","ios":"levelo://app?vid=fc7a197f-6ee4-4af4-a204-d1d788332795"},"vehicle_type_id":"4","last_reported":1698163726,"current_range_meters":2000,"station_id":"","pricing_plan_id":"free"},{"bike_id":"2cb55403-67fb-4dc4-a23d-ed44a0a6b4f7","system_id":"levelo_inurba_marseille","lat":43.32827,"lon":5.36679,"is_reserved":false,"is_disabled":false,"rental_uris":{"android":"levelo://app?vid=2cb55403-67fb-4dc4-a23d-ed44a0a6b4f7","ios":"levelo://app?vid=2cb55403-67fb-4dc4-a23d-ed44a0a6b4f7"},"vehicle_type_id":"4","last_reported":1698163726,"current_range_meters":2800,"station_id":"","pricing_plan_id":"free"},{"bike_id":"7e26d0f0-cf63-4015-94a5-d04a962dcda3","system_id":"levelo_inurba_marseille","lat":43.32828,"lon":5.36685,"is_reserved":false,"is_disabled":false,"rental_uris":{"android":"levelo://app?vid=7e26d0f0-cf63-4015-94a5-d04a962dcda3","ios":"levelo://app?vid=7e26d0f0-cf63-4015-94a5-d04a962dcda3"},"vehicle_type_id":"4","last_reported":1698163726,"current_range_meters":26000,"station_id":"","pricing_plan_id":"free"},{"bike_id":"2bf09692-7151-4aba-9fa7-8ce1d6106004","system_id":"levelo_inurba_marseille","lat":43.328303,"lon":5.366873,"is_reserved":false,"is_disabled":false,"rental_uris":{"android":"levelo://app?vid=2bf09692-7151-4aba-9fa7-8ce1d6106004","ios":"levelo://app?vid=2bf09692-7151-4aba-9fa7-8ce1d6106004"},"vehicle_type_id":"4","last_reported":1698163726,"current_range_meters":28000,"station_id":"ce4bhs92rcd13ifvqi0g","pricing_plan_id":"free"},{"bike_id":"d0fb070c-906b-44c4-81e5-ca5996ab0a04","system_id":"levelo_inurba_marseille","lat":43.29714,"lon":5.36613,"is_reserved":false,"is_disabled":false,"rental_uris":{"android":"levelo://app?vid=d0fb070c-906b-44c4-81e5-ca5996ab0a04","ios":"levelo://app?vid=d0fb070c-906b-44c4-81e5-ca5996ab0a04"},"vehicle_type_id":"4","last_reported":1698163726,"current_range_meters":0,"station_id":"ce4bgn12rcd13ifvqbt0","pricing_plan_id":"free"},{"bike_id":"418b9286-fd98-4cfa-ae60-81075ffc2682","system_id":"levelo_inurba_marseille","lat":43.32884,"lon":5.36392,"is_reserved":false,"is_disabled":false,"rental_uris":{"android":"levelo://app?vid=418b9286-fd98-4cfa-ae60-81075ffc2682","ios":"levelo://app?vid=418b9286-fd98-4cfa-ae60-81075ffc2682"},"vehicle_type_id":"4","last_reported":1698163726,"current_range_meters":0,"station_id":"","pricing_plan_id":"free"},{"bike_id":"cb03817c-8dfe-4866-821f-3763dff0f466","system_id":"levelo_inurba_marseille","lat":43.296131,"lon":5.370773,"is_reserved":false,"is_disabled":false,"rental_uris":{"android":"levelo://app?vid=cb03817c-8dfe-4866-821f-3763dff0f466","ios":"levelo://app?vid=cb03817c-8dfe-4866-821f-3763dff0f466"},"vehicle_type_id":"4","last_reported":1698163726,"current_range_meters":11200,"station_id":"ce4bgnh2rcd13ifvqc0g","pricing_plan_id":"free"},{"bike_id":"0d198335-0878-4a5c-9a82-7cea07150d98","system_id":"levelo_inurba_marseille","lat":43.296129,"lon":5.370777,"is_reserved":false,"is_disabled":false,"rental_uris":{"android":"levelo://app?vid=0d198335-0878-4a5c-9a82-7cea07150d98","ios":"levelo://app?vid=0d198335-0878-4a5c-9a82-7cea07150d98"},"vehicle_type_id":"4","last_reported":1698163726,"current_range_meters":15600,"station_id":"ce4bgnh2rcd13ifvqc0g","pricing_plan_id":"free"},{"bike_id":"e4160cd8-60b8-4090-b4b9-f51779102ccd","system_id":"levelo_inurba_marseille","lat":43.296129,"lon":5.370777,"is_reserved":false,"is_disabled":false,"rental_uris":{"android":"levelo://app?vid=e4160cd8-60b8-4090-b4b9-f51779102ccd","ios":"levelo://app?vid=e4160cd8-60b8-4090-b4b9-f51779102ccd"},"vehicle_type_id":"4","last_reported":1698163726,"current_range_meters":15600,"station_id":"ce4bgnh2rcd13ifvqc0g","pricing_plan_id":"free"},{"bike_id":"f3d0381f-7a2d-409e-a12f-bd3d9095653d","system_id":"levelo_inurba_marseille","lat":43.329673,"lon":5.365468,"is_reserved":false,"is_disabled":false,"rental_uris":{"android":"levelo://app?vid=f3d0381f-7a2d-409e-a12f-bd3d9095653d","ios":"levelo://app?vid=f3d0381f-7a2d-409e-a12f-bd3d9095653d"},"vehicle_type_id":"4","last_reported":1698163726,"current_range_meters":20000,"station_id":"","pricing_plan_id":"free"},{"bike_id":"40c08d0b-0107-4b0b-b634-4dd2cebbfda3","system_id":"levelo_inurba_marseille","lat":43.299028,"lon":5.381509,"is_reserved":false,"is_disabled":false,"rental_uris":{"android":"levelo://app?vid=40c08d0b-0107-4b0b-b634-4dd2cebbfda3","ios":"levelo://app?vid=40c08d0b-0107-4b0b-b634-4dd2cebbfda3"},"vehicle_type_id":"4","last_reported":1698163726,"current_range_meters":16400,"station_id":"ce4bgj12rcd13ifvqbc0","pricing_plan_id":"free"},{"bike_id":"bada0b0c-0605-49f3-8f9a-ec9d803c00c7","system_id":"levelo_inurba_marseille","lat":43.296935,"lon":5.376544,"is_reserved":false,"is_disabled":false,"rental_uris":{"android":"levelo://app?vid=bada0b0c-0605-49f3-8f9a-ec9d803c00c7","ios":"levelo://app?vid=bada0b0c-0605-49f3-8f9a-ec9d803c00c7"},"vehicle_type_id":"4","last_reported":1698163726,"current_range_meters":0,"station_id":"ce4bgkh2rcd13ifvqbl0","pricing_plan_id":"free"},{"bike_id":"06966241-addb-4d6e-a388-07c339a39fe4","system_id":"levelo_inurba_marseille","lat":43.299028,"lon":5.381509,"is_reserved":false,"is_disabled":false,"rental_uris":{"android":"levelo://app?vid=06966241-addb-4d6e-a388-07c339a39fe4","ios":"levelo://app?vid=06966241-addb-4d6e-a388-07c339a39fe4"},"vehicle_type_id":"4","last_reported":1698163726,"current_range_meters":28400,"station_id":"ce4bgj12rcd13ifvqbc0","pricing_plan_id":"free"},{"bike_id":"17a89b38-77ce-4cc8-ae9f-46c12cad55eb","system_id":"levelo_inurba_marseille","lat":43.317557,"lon":5.390173,"is_reserved":false,"is_disabled":false,"rental_uris":{"android":"levelo://app?vid=17a89b38-77ce-4cc8-ae9f-46c12cad55eb","ios":"levelo://app?vid=17a89b38-77ce-4cc8-ae9f-46c12cad55eb"},"vehicle_type_id":"4","last_reported":1698163726,"current_range_meters":14800,"station_id":"ce4bhqp2rcd13ifvqhng","pricing_plan_id":"free"},{"bike_id":"b1f27723-daa4-4d01-bbe6-cf46d934bd7c","system_id":"levelo_inurba_marseille","lat":43.284793,"lon":5.384113,"is_reserved":false,"is_disabled":false,"rental_uris":{"android":"levelo://app?vid=b1f27723-daa4-4d01-bbe6-cf46d934bd7c","ios":"levelo://app?vid=b1f27723-daa4-4d01-bbe6-cf46d934bd7c"},"vehicle_type_id":"4","last_reported":1698163726,"current_range_meters":2000,"station_id":"ce4bh512rcd13ifvqe3g","pricing_plan_id":"free"},{"bike_id":"0ca2d476-f796-4d8e-8eff-edcc51588c58","system_id":"levelo_inurba_marseille","lat":43.304274,"lon":5.388873,"is_reserved":false,"is_disabled":false,"rental_uris":{"android":"levelo://app?vid=0ca2d476-f796-4d8e-8eff-edcc51588c58","ios":"levelo://app?vid=0ca2d476-f796-4d8e-8eff-edcc51588c58"},"vehicle_type_id":"4","last_reported":1698163726,"current_range_meters":3200,"station_id":"ce4bgk12rcd13ifvqbi0","pricing_plan_id":"free"},{"bike_id":"0a0b2e7a-de19-48d5-a584-b752b98587bd","system_id":"levelo_inurba_marseille","lat":43.295748,"lon":5.37522,"is_reserved":false,"is_disabled":false,"rental_uris":{"android":"levelo://app?vid=0a0b2e7a-de19-48d5-a584-b752b98587bd","ios":"levelo://app?vid=0a0b2e7a-de19-48d5-a584-b752b98587bd"},"vehicle_type_id":"4","last_reported":1698163726,"current_range_meters":18800,"station_id":"ce4bgh92rcd13ifvqb50","pricing_plan_id":"free"},{"bike_id":"6714b8a3-62ee-481f-85b5-810a107ece83","system_id":"levelo_inurba_marseille","lat":43.296263,"lon":5.377094,"is_reserved":false,"is_disabled":false,"rental_uris":{"android":"levelo://app?vid=6714b8a3-62ee-481f-85b5-810a107ece83","ios":"levelo://app?vid=6714b8a3-62ee-481f-85b5-810a107ece83"},"vehicle_type_id":"4","last_reported":1698163726,"current_range_meters":27200,"station_id":"ce4bgi92rcd13ifvqb90","pricing_plan_id":"free"},{"bike_id":"0ec1f39c-2309-4437-a2b9-6b5f70d74eb3","system_id":"levelo_inurba_marseille","lat":43.299717,"lon":5.384845,"is_reserved":false,"is_disabled":false,"rental_uris":{"android":"levelo://app?vid=0ec1f39c-2309-4437-a2b9-6b5f70d74eb3","ios":"levelo://app?vid=0ec1f39c-2309-4437-a2b9-6b5f70d74eb3"},"vehicle_type_id":"4","last_reported":1698163726,"current_range_meters":18800,"station_id":"ce4bgj92rcd13ifvqbd0","pricing_plan_id":"free"},{"bike_id":"50ba0a4e-dc52-4b36-bbea-ef74378b458b","system_id":"levelo_inurba_marseille","lat":43.29698,"lon":5.3812,"is_reserved":false,"is_disabled":false,"rental_uris":{"android":"levelo://app?vid=50ba0a4e-dc52-4b36-bbea-ef74378b458b","ios":"levelo://app?vid=50ba0a4e-dc52-4b36-bbea-ef74378b458b"},"vehicle_type_id":"4","last_reported":1698163726,"current_range_meters":9200,"station_id":"","pricing_plan_id":"free"},{"bike_id":"884ccf19-32a0-4348-916f-1871cf5499e0","system_id":"levelo_inurba_marseille","lat":43.29602,"lon":5.381084,"is_reserved":false,"is_disabled":false,"rental_uris":{"android":"levelo://app?vid=884ccf19-32a0-4348-916f-1871cf5499e0","ios":"levelo://app?vid=884ccf19-32a0-4348-916f-1871cf5499e0"},"vehicle_type_id":"4","last_reported":1698163726,"current_range_meters":11200,"station_id":"ce4bgl12rcd13ifvqbo0","pricing_plan_id":"free"},{"bike_id":"3d290409-82af-4dd1-a2ca-5cfc0e0573cb","system_id":"levelo_inurba_marseille","lat":43.304278,"lon":5.388868,"is_reserved":false,"is_disabled":false,"rental_uris":{"android":"levelo://app?vid=3d290409-82af-4dd1-a2ca-5cfc0e0573cb","ios":"levelo://app?vid=3d290409-82af-4dd1-a2ca-5cfc0e0573cb"},"vehicle_type_id":"4","last_reported":1698163726,"current_range_meters":800,"station_id":"ce4bgk12rcd13ifvqbi0","pricing_plan_id":"free"},{"bike_id":"4a32c53a-6845-4656-b5b2-674d5ab557de","system_id":"levelo_inurba_marseille","lat":43.29602,"lon":5.381084,"is_reserved":false,"is_disabled":false,"rental_uris":{"android":"levelo://app?vid=4a32c53a-6845-4656-b5b2-674d5ab557de","ios":"levelo://app?vid=4a32c53a-6845-4656-b5b2-674d5ab557de"},"vehicle_type_id":"4","last_reported":1698163726,"current_range_meters":21600,"station_id":"ce4bgl12rcd13ifvqbo0","pricing_plan_id":"free"},{"bike_id":"bbab7e28-ee01-4080-b12e-dd8baccd43d0","system_id":"levelo_inurba_marseille","lat":43.32394,"lon":5.389747,"is_reserved":false,"is_disabled":false,"rental_uris":{"android":"levelo://app?vid=bbab7e28-ee01-4080-b12e-dd8baccd43d0","ios":"levelo://app?vid=bbab7e28-ee01-4080-b12e-dd8baccd43d0"},"vehicle_type_id":"4","last_reported":1698163726,"current_range_meters":24000,"station_id":"ce4bhqp2rcd13ifvqhog","pricing_plan_id":"free"},{"bike_id":"cd13a05d-b4a1-4ba1-8b83-ecafd05d04c4","system_id":"levelo_inurba_marseille","lat":43.293259,"lon":5.371586,"is_reserved":false,"is_disabled":false,"rental_uris":{"android":"levelo://app?vid=cd13a05d-b4a1-4ba1-8b83-ecafd05d04c4","ios":"levelo://app?vid=cd13a05d-b4a1-4ba1-8b83-ecafd05d04c4"},"vehicle_type_id":"4","last_reported":1698163726,"current_range_meters":6400,"station_id":"ce4bgh92rcd13ifvqb40","pricing_plan_id":"free"},{"bike_id":"2e2dc9e5-c4c0-477a-a1f4-b49bc6894812","system_id":"levelo_inurba_marseille","lat":43.29272,"lon":5.36841,"is_reserved":false,"is_disabled":false,"rental_uris":{"android":"levelo://app?vid=2e2dc9e5-c4c0-477a-a1f4-b49bc6894812","ios":"levelo://app?vid=2e2dc9e5-c4c0-477a-a1f4-b49bc6894812"},"vehicle_type_id":"4","last_reported":1698163726,"current_range_meters":0,"station_id":"ce4bhbp2rcd13ifvqesg","pricing_plan_id":"free"},{"bike_id":"7bfac049-edc9-4d3a-9b96-fa773851f14a","system_id":"levelo_inurba_marseille","lat":43.330632,"lon":5.379508,"is_reserved":false,"is_disabled":false,"rental_uris":{"android":"levelo://app?vid=7bfac049-edc9-4d3a-9b96-fa773851f14a","ios":"levelo://app?vid=7bfac049-edc9-4d3a-9b96-fa773851f14a"},"vehicle_type_id":"4","last_reported":1698163726,"current_range_meters":10000,"station_id":"","pricing_plan_id":"free"},{"bike_id":"ffebba53-e85e-4008-a519-df094ebfa74a","system_id":"levelo_inurba_marseille","lat":43.306,"lon":5.39368,"is_reserved":false,"is_disabled":false,"rental_uris":{"android":"levelo://app?vid=ffebba53-e85e-4008-a519-df094ebfa74a","ios":"levelo://app?vid=ffebba53-e85e-4008-a519-df094ebfa74a"},"vehicle_type_id":"4","last_reported":1698163726,"current_range_meters":30000,"station_id":"ce4bh0p2rcd13ifvqd80","pricing_plan_id":"free"},{"bike_id":"a80ddc82-9e82-44a4-83f9-2f4fa96bfce2","system_id":"levelo_inurba_marseille","lat":43.30306,"lon":5.39211,"is_reserved":false,"is_disabled":false,"rental_uris":{"android":"levelo://app?vid=a80ddc82-9e82-44a4-83f9-2f4fa96bfce2","ios":"levelo://app?vid=a80ddc82-9e82-44a4-83f9-2f4fa96bfce2"},"vehicle_type_id":"4","last_reported":1698163726,"current_range_meters":28400,"station_id":"ce4bgkh2rcd13ifvqbk0","pricing_plan_id":"free"},{"bike_id":"b37d2d16-ec80-4797-a8af-7c57d4e0714f","system_id":"levelo_inurba_marseille","lat":43.302997,"lon":5.392143,"is_reserved":false,"is_disabled":false,"rental_uris":{"android":"levelo://app?vid=b37d2d16-ec80-4797-a8af-7c57d4e0714f","ios":"levelo://app?vid=b37d2d16-ec80-4797-a8af-7c57d4e0714f"},"vehicle_type_id":"4","last_reported":1698163726,"current_range_meters":0,"station_id":"ce4bgkh2rcd13ifvqbk0","pricing_plan_id":"free"},{"bike_id":"6b0c93de-ddc7-40e3-b8af-17e043ee8560","system_id":"levelo_inurba_marseille","lat":43.302992,"lon":5.392136,"is_reserved":false,"is_disabled":false,"rental_uris":{"android":"levelo://app?vid=6b0c93de-ddc7-40e3-b8af-17e043ee8560","ios":"levelo://app?vid=6b0c93de-ddc7-40e3-b8af-17e043ee8560"},"vehicle_type_id":"4","last_reported":1698163726,"current_range_meters":5200,"station_id":"ce4bgkh2rcd13ifvqbk0","pricing_plan_id":"free"},{"bike_id":"c8f6f85f-7f5b-4ac9-95ea-03b9bf5a7778","system_id":"levelo_inurba_marseille","lat":43.2936,"lon":5.37835,"is_reserved":false,"is_disabled":false,"rental_uris":{"android":"levelo://app?vid=c8f6f85f-7f5b-4ac9-95ea-03b9bf5a7778","ios":"levelo://app?vid=c8f6f85f-7f5b-4ac9-95ea-03b9bf5a7778"},"vehicle_type_id":"4","last_reported":1698163726,"current_range_meters":29200,"station_id":"ce4bgjh2rcd13ifvqbf0","pricing_plan_id":"free"},{"bike_id":"3e55107f-c4ba-4076-be54-05089c14b50c","system_id":"levelo_inurba_marseille","lat":43.33016,"lon":5.38294,"is_reserved":false,"is_disabled":false,"rental_uris":{"android":"levelo://app?vid=3e55107f-c4ba-4076-be54-05089c14b50c","ios":"levelo://app?vid=3e55107f-c4ba-4076-be54-05089c14b50c"},"vehicle_type_id":"4","last_reported":1698163726,"current_range_meters":4800,"station_id":"","pricing_plan_id":"free"},{"bike_id":"f524b460-1581-4989-b933-426af28002d9","system_id":"levelo_inurba_marseille","lat":43.292311,"lon":5.360731,"is_reserved":false,"is_disabled":false,"rental_uris":{"android":"levelo://app?vid=f524b460-1581-4989-b933-426af28002d9","ios":"levelo://app?vid=f524b460-1581-4989-b933-426af28002d9"},"vehicle_type_id":"4","last_reported":1698163726,"current_range_meters":14800,"station_id":"ce4bhbh2rcd13ifvqeqg","pricing_plan_id":"free"},{"bike_id":"0aeb6908-823c-4f0a-80cf-a78a67ece417","system_id":"levelo_inurba_marseille","lat":43.298764,"lon":5.388973,"is_reserved":false,"is_disabled":false,"rental_uris":{"android":"levelo://app?vid=0aeb6908-823c-4f0a-80cf-a78a67ece417","ios":"levelo://app?vid=0aeb6908-823c-4f0a-80cf-a78a67ece417"},"vehicle_type_id":"4","last_reported":1698163726,"current_range_meters":14000,"station_id":"ce4bh392rcd13ifvqdl0","pricing_plan_id":"free"},{"bike_id":"2a37723c-d561-43df-a973-dfd6c23c9fc4","system_id":"levelo_inurba_marseille","lat":43.313291,"lon":5.396838,"is_reserved":false,"is_disabled":false,"rental_uris":{"android":"levelo://app?vid=2a37723c-d561-43df-a973-dfd6c23c9fc4","ios":"levelo://app?vid=2a37723c-d561-43df-a973-dfd6c23c9fc4"},"vehicle_type_id":"4","last_reported":1698163726,"current_range_meters":31200,"station_id":"ce4bgvp2rcd13ifvqcu0","pricing_plan_id":"free"},{"bike_id":"87b02baa-3cd8-4260-a406-626afb5b751c","system_id":"levelo_inurba_marseille","lat":43.31327,"lon":5.39689,"is_reserved":false,"is_disabled":false,"rental_uris":{"android":"levelo://app?vid=87b02baa-3cd8-4260-a406-626afb5b751c","ios":"levelo://app?vid=87b02baa-3cd8-4260-a406-626afb5b751c"},"vehicle_type_id":"4","last_reported":1698163726,"current_range_meters":18800,"station_id":"ce4bgvp2rcd13ifvqcu0","pricing_plan_id":"free"},{"bike_id":"4a473779-0d87-4056-9648-969568aad5f5","system_id":"levelo_inurba_marseille","lat":43.313291,"lon":5.396838,"is_reserved":false,"is_disabled":false,"rental_uris":{"android":"levelo://app?vid=4a473779-0d87-4056-9648-969568aad5f5","ios":"levelo://app?vid=4a473779-0d87-4056-9648-969568aad5f5"},"vehicle_type_id":"4","last_reported":1698163726,"current_range_meters":20000,"station_id":"ce4bgvp2rcd13ifvqcu0","pricing_plan_id":"free"},{"bike_id":"b5d28559-0106-4420-a7bc-3f601ff89616","system_id":"levelo_inurba_marseille","lat":43.31324,"lon":5.39694,"is_reserved":false,"is_disabled":false,"rental_uris":{"android":"levelo://app?vid=b5d28559-0106-4420-a7bc-3f601ff89616","ios":"levelo://app?vid=b5d28559-0106-4420-a7bc-3f601ff89616"},"vehicle_type_id":"4","last_reported":1698163726,"current_range_meters":18400,"station_id":"ce4bgvp2rcd13ifvqcu0","pricing_plan_id":"free"},{"bike_id":"57aaa56f-adb8-4dbf-aa4a-1594cae54afe","system_id":"levelo_inurba_marseille","lat":43.309047,"lon":5.396551,"is_reserved":false,"is_disabled":false,"rental_uris":{"android":"levelo://app?vid=57aaa56f-adb8-4dbf-aa4a-1594cae54afe","ios":"levelo://app?vid=57aaa56f-adb8-4dbf-aa4a-1594cae54afe"},"vehicle_type_id":"4","last_reported":1698163726,"current_range_meters":18400,"station_id":"ce4bh012rcd13ifvqcv0","pricing_plan_id":"free"},{"bike_id":"8c3d4c58-3497-412b-8441-784d10bbe5f1","system_id":"levelo_inurba_marseille","lat":43.29529,"lon":5.385581,"is_reserved":false,"is_disabled":false,"rental_uris":{"android":"levelo://app?vid=8c3d4c58-3497-412b-8441-784d10bbe5f1","ios":"levelo://app?vid=8c3d4c58-3497-412b-8441-784d10bbe5f1"},"vehicle_type_id":"4","last_reported":1698163726,"current_range_meters":4800,"station_id":"ce4bgih2rcd13ifvqba0","pricing_plan_id":"free"},{"bike_id":"d42a9ae7-2286-45f6-a3bf-eca1894d68d1","system_id":"levelo_inurba_marseille","lat":43.29532,"lon":5.38593,"is_reserved":false,"is_disabled":false,"rental_uris":{"android":"levelo://app?vid=d42a9ae7-2286-45f6-a3bf-eca1894d68d1","ios":"levelo://app?vid=d42a9ae7-2286-45f6-a3bf-eca1894d68d1"},"vehicle_type_id":"4","last_reported":1698163726,"current_range_meters":12800,"station_id":"ce4bgih2rcd13ifvqba0","pricing_plan_id":"free"},{"bike_id":"281686c7-9fae-45c7-8628-f434705a78df","system_id":"levelo_inurba_marseille","lat":43.302008,"lon":5.394694,"is_reserved":false,"is_disabled":false,"rental_uris":{"android":"levelo://app?vid=281686c7-9fae-45c7-8628-f434705a78df","ios":"levelo://app?vid=281686c7-9fae-45c7-8628-f434705a78df"},"vehicle_type_id":"4","last_reported":1698163726,"current_range_meters":9600,"station_id":"ce4bh0p2rcd13ifvqd70","pricing_plan_id":"free"},{"bike_id":"d445e7dc-8f39-4198-8d15-1838ad42556e","system_id":"levelo_inurba_marseille","lat":43.30208,"lon":5.3947,"is_reserved":false,"is_disabled":false,"rental_uris":{"android":"levelo://app?vid=d445e7dc-8f39-4198-8d15-1838ad42556e","ios":"levelo://app?vid=d445e7dc-8f39-4198-8d15-1838ad42556e"},"vehicle_type_id":"4","last_reported":1698163726,"current_range_meters":18800,"station_id":"ce4bh0p2rcd13ifvqd70","pricing_plan_id":"free"},{"bike_id":"2f26dd1c-2c13-4e04-a7ff-b7d3137357f9","system_id":"levelo_inurba_marseille","lat":43.302008,"lon":5.394694,"is_reserved":false,"is_disabled":false,"rental_uris":{"android":"levelo://app?vid=2f26dd1c-2c13-4e04-a7ff-b7d3137357f9","ios":"levelo://app?vid=2f26dd1c-2c13-4e04-a7ff-b7d3137357f9"},"vehicle_type_id":"4","last_reported":1698163726,"current_range_meters":22000,"station_id":"ce4bh0p2rcd13ifvqd70","pricing_plan_id":"free"},{"bike_id":"61aec19b-edf2-4883-96b4-e2398b7165e2","system_id":"levelo_inurba_marseille","lat":43.30218,"lon":5.39484,"is_reserved":false,"is_disabled":false,"rental_uris":{"android":"levelo://app?vid=61aec19b-edf2-4883-96b4-e2398b7165e2","ios":"levelo://app?vid=61aec19b-edf2-4883-96b4-e2398b7165e2"},"vehicle_type_id":"4","last_reported":1698163726,"current_range_meters":0,"station_id":"ce4bh0p2rcd13ifvqd70","pricing_plan_id":"free"},{"bike_id":"3ba9337c-3a4c-4b79-bb22-9c08f678ee27","system_id":"levelo_inurba_marseille","lat":43.3339,"lon":5.37907,"is_reserved":false,"is_disabled":false,"rental_uris":{"android":"levelo://app?vid=3ba9337c-3a4c-4b79-bb22-9c08f678ee27","ios":"levelo://app?vid=3ba9337c-3a4c-4b79-bb22-9c08f678ee27"},"vehicle_type_id":"4","last_reported":1698163726,"current_range_meters":29600,"station_id":"","pricing_plan_id":"free"},{"bike_id":"9af8d56b-c221-4a23-a1c6-14e3dd6c7f19","system_id":"levelo_inurba_marseille","lat":43.290624,"lon":5.359245,"is_reserved":false,"is_disabled":false,"rental_uris":{"android":"levelo://app?vid=9af8d56b-c221-4a23-a1c6-14e3dd6c7f19","ios":"levelo://app?vid=9af8d56b-c221-4a23-a1c6-14e3dd6c7f19"},"vehicle_type_id":"4","last_reported":1698163726,"current_range_meters":30000,"station_id":"ce4bha92rcd13ifvqeg0","pricing_plan_id":"free"},{"bike_id":"56b5bae6-c503-4ed2-b9dc-544bc6ef233b","system_id":"levelo_inurba_marseille","lat":43.294153,"lon":5.386305,"is_reserved":false,"is_disabled":false,"rental_uris":{"android":"levelo://app?vid=56b5bae6-c503-4ed2-b9dc-544bc6ef233b","ios":"levelo://app?vid=56b5bae6-c503-4ed2-b9dc-544bc6ef233b"},"vehicle_type_id":"4","last_reported":1698163726,"current_range_meters":30400,"station_id":"ce4bh2h2rcd13ifvqdh0","pricing_plan_id":"free"},{"bike_id":"a59fc37e-bf22-45d0-ba45-54951a2892d2","system_id":"levelo_inurba_marseille","lat":43.294162,"lon":5.386292,"is_reserved":false,"is_disabled":false,"rental_uris":{"android":"levelo://app?vid=a59fc37e-bf22-45d0-ba45-54951a2892d2","ios":"levelo://app?vid=a59fc37e-bf22-45d0-ba45-54951a2892d2"},"vehicle_type_id":"4","last_reported":1698163726,"current_range_meters":3600,"station_id":"ce4bh2h2rcd13ifvqdh0","pricing_plan_id":"free"},{"bike_id":"5c6b4f4c-8209-4006-89b8-9f2ee77b26fa","system_id":"levelo_inurba_marseille","lat":43.289184,"lon":5.366408,"is_reserved":false,"is_disabled":false,"rental_uris":{"android":"levelo://app?vid=5c6b4f4c-8209-4006-89b8-9f2ee77b26fa","ios":"levelo://app?vid=5c6b4f4c-8209-4006-89b8-9f2ee77b26fa"},"vehicle_type_id":"4","last_reported":1698163726,"current_range_meters":28000,"station_id":"ce4bhap2rcd13ifvqek0","pricing_plan_id":"free"},{"bike_id":"69f75596-477c-42fb-aa9a-a2b02d6a4eb5","system_id":"levelo_inurba_marseille","lat":43.294162,"lon":5.386292,"is_reserved":false,"is_disabled":false,"rental_uris":{"android":"levelo://app?vid=69f75596-477c-42fb-aa9a-a2b02d6a4eb5","ios":"levelo://app?vid=69f75596-477c-42fb-aa9a-a2b02d6a4eb5"},"vehicle_type_id":"4","last_reported":1698163726,"current_range_meters":13200,"station_id":"ce4bh2h2rcd13ifvqdh0","pricing_plan_id":"free"},{"bike_id":"68f851d9-cd0b-4cb0-b4a4-588855ac0cb1","system_id":"levelo_inurba_marseille","lat":43.289184,"lon":5.366408,"is_reserved":false,"is_disabled":false,"rental_uris":{"android":"levelo://app?vid=68f851d9-cd0b-4cb0-b4a4-588855ac0cb1","ios":"levelo://app?vid=68f851d9-cd0b-4cb0-b4a4-588855ac0cb1"},"vehicle_type_id":"4","last_reported":1698163726,"current_range_meters":14000,"station_id":"ce4bhap2rcd13ifvqek0","pricing_plan_id":"free"},{"bike_id":"d6502be3-9a1f-4c0f-9f68-a9fe450262ec","system_id":"levelo_inurba_marseille","lat":43.289184,"lon":5.366408,"is_reserved":false,"is_disabled":false,"rental_uris":{"android":"levelo://app?vid=d6502be3-9a1f-4c0f-9f68-a9fe450262ec","ios":"levelo://app?vid=d6502be3-9a1f-4c0f-9f68-a9fe450262ec"},"vehicle_type_id":"4","last_reported":1698163726,"current_range_meters":18000,"station_id":"ce4bhap2rcd13ifvqek0","pricing_plan_id":"free"},{"bike_id":"d1ea41b5-7f70-48c1-b2c6-e8f68fd6b283","system_id":"levelo_inurba_marseille","lat":43.292642,"lon":5.384254,"is_reserved":false,"is_disabled":false,"rental_uris":{"android":"levelo://app?vid=d1ea41b5-7f70-48c1-b2c6-e8f68fd6b283","ios":"levelo://app?vid=d1ea41b5-7f70-48c1-b2c6-e8f68fd6b283"},"vehicle_type_id":"4","last_reported":1698163726,"current_range_meters":22800,"station_id":"ce4bh692rcd13ifvqea0","pricing_plan_id":"free"},{"bike_id":"5ddeff90-1405-4b04-a18c-ce5ff02ff145","system_id":"levelo_inurba_marseille","lat":43.296129,"lon":5.370777,"is_reserved":false,"is_disabled":false,"rental_uris":{"android":"levelo://app?vid=5ddeff90-1405-4b04-a18c-ce5ff02ff145","ios":"levelo://app?vid=5ddeff90-1405-4b04-a18c-ce5ff02ff145"},"vehicle_type_id":"4","last_reported":1698163726,"current_range_meters":20400,"station_id":"ce4bgnh2rcd13ifvqc0g","pricing_plan_id":"free"},{"bike_id":"b91145eb-ccd9-4fa4-81d4-33683e94b4a3","system_id":"levelo_inurba_marseille","lat":43.292644,"lon":5.384257,"is_reserved":false,"is_disabled":false,"rental_uris":{"android":"levelo://app?vid=b91145eb-ccd9-4fa4-81d4-33683e94b4a3","ios":"levelo://app?vid=b91145eb-ccd9-4fa4-81d4-33683e94b4a3"},"vehicle_type_id":"4","last_reported":1698163726,"current_range_meters":21200,"station_id":"ce4bh692rcd13ifvqea0","pricing_plan_id":"free"},{"bike_id":"bfaf221b-779d-4b78-8820-64b9ee4b5d06","system_id":"levelo_inurba_marseille","lat":43.292644,"lon":5.384257,"is_reserved":false,"is_disabled":false,"rental_uris":{"android":"levelo://app?vid=bfaf221b-779d-4b78-8820-64b9ee4b5d06","ios":"levelo://app?vid=bfaf221b-779d-4b78-8820-64b9ee4b5d06"},"vehicle_type_id":"4","last_reported":1698163726,"current_range_meters":20000,"station_id":"ce4bh692rcd13ifvqea0","pricing_plan_id":"free"},{"bike_id":"cebf3eb1-cc02-4bab-a838-96dfae04fb4c","system_id":"levelo_inurba_marseille","lat":43.304274,"lon":5.397513,"is_reserved":false,"is_disabled":false,"rental_uris":{"android":"levelo://app?vid=cebf3eb1-cc02-4bab-a838-96dfae04fb4c","ios":"levelo://app?vid=cebf3eb1-cc02-4bab-a838-96dfae04fb4c"},"vehicle_type_id":"4","last_reported":1698163726,"current_range_meters":800,"station_id":"ce4bh092rcd13ifvqd20","pricing_plan_id":"free"},{"bike_id":"c5bd6acc-324a-4013-a8a0-d0dfcdf952a5","system_id":"levelo_inurba_marseille","lat":43.292644,"lon":5.384257,"is_reserved":false,"is_disabled":false,"rental_uris":{"android":"levelo://app?vid=c5bd6acc-324a-4013-a8a0-d0dfcdf952a5","ios":"levelo://app?vid=c5bd6acc-324a-4013-a8a0-d0dfcdf952a5"},"vehicle_type_id":"4","last_reported":1698163726,"current_range_meters":24400,"station_id":"ce4bh692rcd13ifvqea0","pricing_plan_id":"free"},{"bike_id":"e54fcfa2-df39-490f-8c38-417f3a80f3e4","system_id":"levelo_inurba_marseille","lat":43.292642,"lon":5.384254,"is_reserved":false,"is_disabled":false,"rental_uris":{"android":"levelo://app?vid=e54fcfa2-df39-490f-8c38-417f3a80f3e4","ios":"levelo://app?vid=e54fcfa2-df39-490f-8c38-417f3a80f3e4"},"vehicle_type_id":"4","last_reported":1698163726,"current_range_meters":16400,"station_id":"ce4bh692rcd13ifvqea0","pricing_plan_id":"free"},{"bike_id":"45c1d6aa-1af1-481d-b3f7-8ef5349d5fae","system_id":"levelo_inurba_marseille","lat":43.292644,"lon":5.384257,"is_reserved":false,"is_disabled":false,"rental_uris":{"android":"levelo://app?vid=45c1d6aa-1af1-481d-b3f7-8ef5349d5fae","ios":"levelo://app?vid=45c1d6aa-1af1-481d-b3f7-8ef5349d5fae"},"vehicle_type_id":"4","last_reported":1698163726,"current_range_meters":26400,"station_id":"ce4bh692rcd13ifvqea0","pricing_plan_id":"free"},{"bike_id":"6f39feae-ed18-4a9a-912a-9592d729ae5d","system_id":"levelo_inurba_marseille","lat":43.290095,"lon":5.356323,"is_reserved":false,"is_disabled":false,"rental_uris":{"android":"levelo://app?vid=6f39feae-ed18-4a9a-912a-9592d729ae5d","ios":"levelo://app?vid=6f39feae-ed18-4a9a-912a-9592d729ae5d"},"vehicle_type_id":"4","last_reported":1698163726,"current_range_meters":18400,"station_id":"ce4bhb92rcd13ifvqen0","pricing_plan_id":"free"},{"bike_id":"87321bca-816b-47b9-be28-87e2688fbbe6","system_id":"levelo_inurba_marseille","lat":43.290103,"lon":5.356114,"is_reserved":false,"is_disabled":false,"rental_uris":{"android":"levelo://app?vid=87321bca-816b-47b9-be28-87e2688fbbe6","ios":"levelo://app?vid=87321bca-816b-47b9-be28-87e2688fbbe6"},"vehicle_type_id":"4","last_reported":1698163726,"current_range_meters":28400,"station_id":"ce4bhb92rcd13ifvqen0","pricing_plan_id":"free"},{"bike_id":"77d1fa79-ad27-470f-8af9-5bcd33f8b82c","system_id":"levelo_inurba_marseille","lat":43.290104,"lon":5.356111,"is_reserved":false,"is_disabled":false,"rental_uris":{"android":"levelo://app?vid=77d1fa79-ad27-470f-8af9-5bcd33f8b82c","ios":"levelo://app?vid=77d1fa79-ad27-470f-8af9-5bcd33f8b82c"},"vehicle_type_id":"4","last_reported":1698163726,"current_range_meters":22400,"station_id":"ce4bhb92rcd13ifvqen0","pricing_plan_id":"free"},{"bike_id":"b083ddf6-5079-4270-8168-7fd10e4ead4b","system_id":"levelo_inurba_marseille","lat":43.290104,"lon":5.356111,"is_reserved":false,"is_disabled":false,"rental_uris":{"android":"levelo://app?vid=b083ddf6-5079-4270-8168-7fd10e4ead4b","ios":"levelo://app?vid=b083ddf6-5079-4270-8168-7fd10e4ead4b"},"vehicle_type_id":"4","last_reported":1698163726,"current_range_meters":22800,"station_id":"ce4bhb92rcd13ifvqen0","pricing_plan_id":"free"},{"bike_id":"88c3ac28-8419-4b95-9f62-4a540dbc6f99","system_id":"levelo_inurba_marseille","lat":43.29006,"lon":5.3561,"is_reserved":false,"is_disabled":false,"rental_uris":{"android":"levelo://app?vid=88c3ac28-8419-4b95-9f62-4a540dbc6f99","ios":"levelo://app?vid=88c3ac28-8419-4b95-9f62-4a540dbc6f99"},"vehicle_type_id":"4","last_reported":1698163726,"current_range_meters":26800,"station_id":"ce4bhb92rcd13ifvqen0","pricing_plan_id":"free"},{"bike_id":"541e9c40-1cbc-4d1c-8a62-163e9dfc3dfe","system_id":"levelo_inurba_marseille","lat":43.290104,"lon":5.356111,"is_reserved":false,"is_disabled":false,"rental_uris":{"android":"levelo://app?vid=541e9c40-1cbc-4d1c-8a62-163e9dfc3dfe","ios":"levelo://app?vid=541e9c40-1cbc-4d1c-8a62-163e9dfc3dfe"},"vehicle_type_id":"4","last_reported":1698163726,"current_range_meters":2000,"station_id":"ce4bhb92rcd13ifvqen0","pricing_plan_id":"free"},{"bike_id":"eff970c6-aa58-46d5-8d53-4b16fb7313e8","system_id":"levelo_inurba_marseille","lat":43.290103,"lon":5.356114,"is_reserved":false,"is_disabled":false,"rental_uris":{"android":"levelo://app?vid=eff970c6-aa58-46d5-8d53-4b16fb7313e8","ios":"levelo://app?vid=eff970c6-aa58-46d5-8d53-4b16fb7313e8"},"vehicle_type_id":"4","last_reported":1698163726,"current_range_meters":31600,"station_id":"ce4bhb92rcd13ifvqen0","pricing_plan_id":"free"},{"bike_id":"df0aeacd-eba4-453f-8bd0-bb88e36e69ba","system_id":"levelo_inurba_marseille","lat":43.290995,"lon":5.381361,"is_reserved":false,"is_disabled":false,"rental_uris":{"android":"levelo://app?vid=df0aeacd-eba4-453f-8bd0-bb88e36e69ba","ios":"levelo://app?vid=df0aeacd-eba4-453f-8bd0-bb88e36e69ba"},"vehicle_type_id":"4","last_reported":1698163726,"current_range_meters":22400,"station_id":"ce4bh512rcd13ifvqe2g","pricing_plan_id":"free"},{"bike_id":"80e58fee-6b83-49ea-acd0-ccb5cf26100e","system_id":"levelo_inurba_marseille","lat":43.331817,"lon":5.387247,"is_reserved":false,"is_disabled":false,"rental_uris":{"android":"levelo://app?vid=80e58fee-6b83-49ea-acd0-ccb5cf26100e","ios":"levelo://app?vid=80e58fee-6b83-49ea-acd0-ccb5cf26100e"},"vehicle_type_id":"4","last_reported":1698163726,"current_range_meters":15200,"station_id":"ce4bhr92rcd13ifvqhrg","pricing_plan_id":"free"},{"bike_id":"141dee6d-4b0a-4aae-bdf8-608e5f6bf256","system_id":"levelo_inurba_marseille","lat":43.331293,"lon":5.388527,"is_reserved":false,"is_disabled":false,"rental_uris":{"android":"levelo://app?vid=141dee6d-4b0a-4aae-bdf8-608e5f6bf256","ios":"levelo://app?vid=141dee6d-4b0a-4aae-bdf8-608e5f6bf256"},"vehicle_type_id":"4","last_reported":1698163726,"current_range_meters":0,"station_id":"","pricing_plan_id":"free"},{"bike_id":"bc8b8814-721d-46e3-8657-9c790a914979","system_id":"levelo_inurba_marseille","lat":43.29519,"lon":5.3904,"is_reserved":false,"is_disabled":false,"rental_uris":{"android":"levelo://app?vid=bc8b8814-721d-46e3-8657-9c790a914979","ios":"levelo://app?vid=bc8b8814-721d-46e3-8657-9c790a914979"},"vehicle_type_id":"4","last_reported":1698163726,"current_range_meters":2400,"station_id":"ce4bh3p2rcd13ifvqdp0","pricing_plan_id":"free"},{"bike_id":"2866c103-566b-4fe2-bdf9-cbfa202a4088","system_id":"levelo_inurba_marseille","lat":43.311073,"lon":5.400895,"is_reserved":false,"is_disabled":false,"rental_uris":{"android":"levelo://app?vid=2866c103-566b-4fe2-bdf9-cbfa202a4088","ios":"levelo://app?vid=2866c103-566b-4fe2-bdf9-cbfa202a4088"},"vehicle_type_id":"4","last_reported":1698163726,"current_range_meters":2800,"station_id":"ce4bh092rcd13ifvqd30","pricing_plan_id":"free"},{"bike_id":"03c91184-6962-4055-8c83-5385c8edb01d","system_id":"levelo_inurba_marseille","lat":43.28856,"lon":5.358371,"is_reserved":false,"is_disabled":false,"rental_uris":{"android":"levelo://app?vid=03c91184-6962-4055-8c83-5385c8edb01d","ios":"levelo://app?vid=03c91184-6962-4055-8c83-5385c8edb01d"},"vehicle_type_id":"4","last_reported":1698163726,"current_range_meters":400,"station_id":"ce4bhb12rcd13ifvqem0","pricing_plan_id":"free"},{"bike_id":"1a0057d4-43ab-4f74-ba9b-d5cb582239ca","system_id":"levelo_inurba_marseille","lat":43.28856,"lon":5.358371,"is_reserved":false,"is_disabled":false,"rental_uris":{"android":"levelo://app?vid=1a0057d4-43ab-4f74-ba9b-d5cb582239ca","ios":"levelo://app?vid=1a0057d4-43ab-4f74-ba9b-d5cb582239ca"},"vehicle_type_id":"4","last_reported":1698163726,"current_range_meters":17600,"station_id":"ce4bhb12rcd13ifvqem0","pricing_plan_id":"free"},{"bike_id":"512574d9-13d8-402b-ab2c-229f307d2a03","system_id":"levelo_inurba_marseille","lat":43.28856,"lon":5.358371,"is_reserved":false,"is_disabled":false,"rental_uris":{"android":"levelo://app?vid=512574d9-13d8-402b-ab2c-229f307d2a03","ios":"levelo://app?vid=512574d9-13d8-402b-ab2c-229f307d2a03"},"vehicle_type_id":"4","last_reported":1698163726,"current_range_meters":14400,"station_id":"ce4bhb12rcd13ifvqem0","pricing_plan_id":"free"},{"bike_id":"d62ce109-3a0b-4298-869f-977c6b4bef4d","system_id":"levelo_inurba_marseille","lat":43.2885,"lon":5.35847,"is_reserved":false,"is_disabled":false,"rental_uris":{"android":"levelo://app?vid=d62ce109-3a0b-4298-869f-977c6b4bef4d","ios":"levelo://app?vid=d62ce109-3a0b-4298-869f-977c6b4bef4d"},"vehicle_type_id":"4","last_reported":1698163726,"current_range_meters":0,"station_id":"ce4bhb12rcd13ifvqem0","pricing_plan_id":"free"},{"bike_id":"f1a34db8-5764-4e00-9e60-e2bd8e86bbda","system_id":"levelo_inurba_marseille","lat":43.31273,"lon":5.40171,"is_reserved":false,"is_disabled":false,"rental_uris":{"android":"levelo://app?vid=f1a34db8-5764-4e00-9e60-e2bd8e86bbda","ios":"levelo://app?vid=f1a34db8-5764-4e00-9e60-e2bd8e86bbda"},"vehicle_type_id":"4","last_reported":1698163726,"current_range_meters":12000,"station_id":"ce4bh092rcd13ifvqd30","pricing_plan_id":"free"},{"bike_id":"5456a95e-f3fd-4cfe-bede-04a541903b38","system_id":"levelo_inurba_marseille","lat":43.306412,"lon":5.401035,"is_reserved":false,"is_disabled":false,"rental_uris":{"android":"levelo://app?vid=5456a95e-f3fd-4cfe-bede-04a541903b38","ios":"levelo://app?vid=5456a95e-f3fd-4cfe-bede-04a541903b38"},"vehicle_type_id":"4","last_reported":1698163726,"current_range_meters":29200,"station_id":"ce4bh112rcd13ifvqda0","pricing_plan_id":"free"},{"bike_id":"bc2fc237-a60b-4152-85ea-8852669ed9cb","system_id":"levelo_inurba_marseille","lat":43.33761,"lon":5.37473,"is_reserved":false,"is_disabled":false,"rental_uris":{"android":"levelo://app?vid=bc2fc237-a60b-4152-85ea-8852669ed9cb","ios":"levelo://app?vid=bc2fc237-a60b-4152-85ea-8852669ed9cb"},"vehicle_type_id":"4","last_reported":1698163726,"current_range_meters":27200,"station_id":"","pricing_plan_id":"free"},{"bike_id":"2124da3a-f98f-42ee-8484-c5691686b12b","system_id":"levelo_inurba_marseille","lat":43.306412,"lon":5.401035,"is_reserved":false,"is_disabled":false,"rental_uris":{"android":"levelo://app?vid=2124da3a-f98f-42ee-8484-c5691686b12b","ios":"levelo://app?vid=2124da3a-f98f-42ee-8484-c5691686b12b"},"vehicle_type_id":"4","last_reported":1698163726,"current_range_meters":14800,"station_id":"ce4bh112rcd13ifvqda0","pricing_plan_id":"free"},{"bike_id":"e3af6d91-a01a-4d38-bd35-b3397e3b4870","system_id":"levelo_inurba_marseille","lat":43.30642,"lon":5.401031,"is_reserved":false,"is_disabled":false,"rental_uris":{"android":"levelo://app?vid=e3af6d91-a01a-4d38-bd35-b3397e3b4870","ios":"levelo://app?vid=e3af6d91-a01a-4d38-bd35-b3397e3b4870"},"vehicle_type_id":"4","last_reported":1698163726,"current_range_meters":4800,"station_id":"ce4bh112rcd13ifvqda0","pricing_plan_id":"free"},{"bike_id":"64d57716-4fe3-42f0-8b5d-6d49e58314de","system_id":"levelo_inurba_marseille","lat":43.30642,"lon":5.401031,"is_reserved":false,"is_disabled":false,"rental_uris":{"android":"levelo://app?vid=64d57716-4fe3-42f0-8b5d-6d49e58314de","ios":"levelo://app?vid=64d57716-4fe3-42f0-8b5d-6d49e58314de"},"vehicle_type_id":"4","last_reported":1698163726,"current_range_meters":20400,"station_id":"ce4bh112rcd13ifvqda0","pricing_plan_id":"free"},{"bike_id":"41f06375-b244-4d1c-9f29-959bd855658b","system_id":"levelo_inurba_marseille","lat":43.301117,"lon":5.398795,"is_reserved":false,"is_disabled":false,"rental_uris":{"android":"levelo://app?vid=41f06375-b244-4d1c-9f29-959bd855658b","ios":"levelo://app?vid=41f06375-b244-4d1c-9f29-959bd855658b"},"vehicle_type_id":"4","last_reported":1698163726,"current_range_meters":28400,"station_id":"ce4bh0h2rcd13ifvqd40","pricing_plan_id":"free"},{"bike_id":"1eccf490-1135-4151-89af-b081e6bfadf6","system_id":"levelo_inurba_marseille","lat":43.301117,"lon":5.398795,"is_reserved":false,"is_disabled":false,"rental_uris":{"android":"levelo://app?vid=1eccf490-1135-4151-89af-b081e6bfadf6","ios":"levelo://app?vid=1eccf490-1135-4151-89af-b081e6bfadf6"},"vehicle_type_id":"4","last_reported":1698163726,"current_range_meters":21200,"station_id":"ce4bh0h2rcd13ifvqd40","pricing_plan_id":"free"},{"bike_id":"c8f23979-debb-454f-89b4-29963ef1c7a1","system_id":"levelo_inurba_marseille","lat":43.301117,"lon":5.398795,"is_reserved":false,"is_disabled":false,"rental_uris":{"android":"levelo://app?vid=c8f23979-debb-454f-89b4-29963ef1c7a1","ios":"levelo://app?vid=c8f23979-debb-454f-89b4-29963ef1c7a1"},"vehicle_type_id":"4","last_reported":1698163726,"current_range_meters":4800,"station_id":"ce4bh0h2rcd13ifvqd40","pricing_plan_id":"free"},{"bike_id":"33e71c22-f7f3-4efb-97ed-dcc52c3fc3e3","system_id":"levelo_inurba_marseille","lat":43.301117,"lon":5.398795,"is_reserved":false,"is_disabled":false,"rental_uris":{"android":"levelo://app?vid=33e71c22-f7f3-4efb-97ed-dcc52c3fc3e3","ios":"levelo://app?vid=33e71c22-f7f3-4efb-97ed-dcc52c3fc3e3"},"vehicle_type_id":"4","last_reported":1698163726,"current_range_meters":4800,"station_id":"ce4bh0h2rcd13ifvqd40","pricing_plan_id":"free"},{"bike_id":"bbd6bb8b-a040-4e66-8401-69724308853d","system_id":"levelo_inurba_marseille","lat":43.286591,"lon":5.363346,"is_reserved":false,"is_disabled":false,"rental_uris":{"android":"levelo://app?vid=bbd6bb8b-a040-4e66-8401-69724308853d","ios":"levelo://app?vid=bbd6bb8b-a040-4e66-8401-69724308853d"},"vehicle_type_id":"4","last_reported":1698163726,"current_range_meters":8000,"station_id":"ce4bhah2rcd13ifvqej0","pricing_plan_id":"free"},{"bike_id":"c70d0a92-ad68-4468-83fa-ba0a86c60a15","system_id":"levelo_inurba_marseille","lat":43.286591,"lon":5.363346,"is_reserved":false,"is_disabled":false,"rental_uris":{"android":"levelo://app?vid=c70d0a92-ad68-4468-83fa-ba0a86c60a15","ios":"levelo://app?vid=c70d0a92-ad68-4468-83fa-ba0a86c60a15"},"vehicle_type_id":"4","last_reported":1698163726,"current_range_meters":12000,"station_id":"ce4bhah2rcd13ifvqej0","pricing_plan_id":"free"},{"bike_id":"3714d22d-6e3c-4e2f-a701-63d7c0257074","system_id":"levelo_inurba_marseille","lat":43.298681,"lon":5.397225,"is_reserved":false,"is_disabled":false,"rental_uris":{"android":"levelo://app?vid=3714d22d-6e3c-4e2f-a701-63d7c0257074","ios":"levelo://app?vid=3714d22d-6e3c-4e2f-a701-63d7c0257074"},"vehicle_type_id":"4","last_reported":1698163726,"current_range_meters":19200,"station_id":"ce4bh0h2rcd13ifvqd50","pricing_plan_id":"free"},{"bike_id":"f9a81d86-32d5-4767-bac9-b09afe6169e8","system_id":"levelo_inurba_marseille","lat":43.286591,"lon":5.363346,"is_reserved":false,"is_disabled":false,"rental_uris":{"android":"levelo://app?vid=f9a81d86-32d5-4767-bac9-b09afe6169e8","ios":"levelo://app?vid=f9a81d86-32d5-4767-bac9-b09afe6169e8"},"vehicle_type_id":"4","last_reported":1698163726,"current_range_meters":26400,"station_id":"ce4bhah2rcd13ifvqej0","pricing_plan_id":"free"},{"bike_id":"afb0f7d8-6e40-4d34-aadf-c27f32372bb7","system_id":"levelo_inurba_marseille","lat":43.298681,"lon":5.397225,"is_reserved":false,"is_disabled":false,"rental_uris":{"android":"levelo://app?vid=afb0f7d8-6e40-4d34-aadf-c27f32372bb7","ios":"levelo://app?vid=afb0f7d8-6e40-4d34-aadf-c27f32372bb7"},"vehicle_type_id":"4","last_reported":1698163726,"current_range_meters":20800,"station_id":"ce4bh0h2rcd13ifvqd50","pricing_plan_id":"free"},{"bike_id":"1a2f7885-c242-4ea5-b0ba-953cd5cd0808","system_id":"levelo_inurba_marseille","lat":43.286591,"lon":5.363346,"is_reserved":false,"is_disabled":false,"rental_uris":{"android":"levelo://app?vid=1a2f7885-c242-4ea5-b0ba-953cd5cd0808","ios":"levelo://app?vid=1a2f7885-c242-4ea5-b0ba-953cd5cd0808"},"vehicle_type_id":"4","last_reported":1698163726,"current_range_meters":7600,"station_id":"ce4bhah2rcd13ifvqej0","pricing_plan_id":"free"},{"bike_id":"d4aaece7-3866-4482-bdf5-810b5e1bd208","system_id":"levelo_inurba_marseille","lat":43.286591,"lon":5.363346,"is_reserved":false,"is_disabled":false,"rental_uris":{"android":"levelo://app?vid=d4aaece7-3866-4482-bdf5-810b5e1bd208","ios":"levelo://app?vid=d4aaece7-3866-4482-bdf5-810b5e1bd208"},"vehicle_type_id":"4","last_reported":1698163726,"current_range_meters":12800,"station_id":"ce4bhah2rcd13ifvqej0","pricing_plan_id":"free"},{"bike_id":"c6a8497b-38e9-4d3c-8349-d5d3b5191854","system_id":"levelo_inurba_marseille","lat":43.298681,"lon":5.397225,"is_reserved":false,"is_disabled":false,"rental_uris":{"android":"levelo://app?vid=c6a8497b-38e9-4d3c-8349-d5d3b5191854","ios":"levelo://app?vid=c6a8497b-38e9-4d3c-8349-d5d3b5191854"},"vehicle_type_id":"4","last_reported":1698163726,"current_range_meters":28400,"station_id":"ce4bh0h2rcd13ifvqd50","pricing_plan_id":"free"},{"bike_id":"385c8e50-0121-4882-b7c1-36e21edc9509","system_id":"levelo_inurba_marseille","lat":43.314245,"lon":5.402918,"is_reserved":false,"is_disabled":false,"rental_uris":{"android":"levelo://app?vid=385c8e50-0121-4882-b7c1-36e21edc9509","ios":"levelo://app?vid=385c8e50-0121-4882-b7c1-36e21edc9509"},"vehicle_type_id":"4","last_reported":1698163726,"current_range_meters":18400,"station_id":"","pricing_plan_id":"free"},{"bike_id":"60f4c02e-c97f-4d19-9048-96d30ec96b18","system_id":"levelo_inurba_marseille","lat":43.28698,"lon":5.37386,"is_reserved":false,"is_disabled":false,"rental_uris":{"android":"levelo://app?vid=60f4c02e-c97f-4d19-9048-96d30ec96b18","ios":"levelo://app?vid=60f4c02e-c97f-4d19-9048-96d30ec96b18"},"vehicle_type_id":"4","last_reported":1698163726,"current_range_meters":0,"station_id":"ce4bh3p2rcd13ifvqdq0","pricing_plan_id":"free"},{"bike_id":"eeb2c55f-7ded-4341-87a6-171755c530b1","system_id":"levelo_inurba_marseille","lat":43.298681,"lon":5.397225,"is_reserved":false,"is_disabled":false,"rental_uris":{"android":"levelo://app?vid=eeb2c55f-7ded-4341-87a6-171755c530b1","ios":"levelo://app?vid=eeb2c55f-7ded-4341-87a6-171755c530b1"},"vehicle_type_id":"4","last_reported":1698163726,"current_range_meters":14800,"station_id":"ce4bh0h2rcd13ifvqd50","pricing_plan_id":"free"},{"bike_id":"afbb5052-b365-4778-9c01-d81aa1105d72","system_id":"levelo_inurba_marseille","lat":43.295196,"lon":5.39397,"is_reserved":false,"is_disabled":false,"rental_uris":{"android":"levelo://app?vid=afbb5052-b365-4778-9c01-d81aa1105d72","ios":"levelo://app?vid=afbb5052-b365-4778-9c01-d81aa1105d72"},"vehicle_type_id":"4","last_reported":1698163726,"current_range_meters":16000,"station_id":"ce4bh292rcd13ifvqdf0","pricing_plan_id":"free"},{"bike_id":"8f39fe04-52c1-4e52-adb8-a871e435e676","system_id":"levelo_inurba_marseille","lat":43.28658,"lon":5.363605,"is_reserved":false,"is_disabled":false,"rental_uris":{"android":"levelo://app?vid=8f39fe04-52c1-4e52-adb8-a871e435e676","ios":"levelo://app?vid=8f39fe04-52c1-4e52-adb8-a871e435e676"},"vehicle_type_id":"4","last_reported":1698163726,"current_range_meters":9200,"station_id":"ce4bhah2rcd13ifvqej0","pricing_plan_id":"free"},{"bike_id":"c0417b2b-33a7-4f7a-90c4-5836e758d7e2","system_id":"levelo_inurba_marseille","lat":43.286961,"lon":5.373785,"is_reserved":false,"is_disabled":false,"rental_uris":{"android":"levelo://app?vid=c0417b2b-33a7-4f7a-90c4-5836e758d7e2","ios":"levelo://app?vid=c0417b2b-33a7-4f7a-90c4-5836e758d7e2"},"vehicle_type_id":"4","last_reported":1698163726,"current_range_meters":28800,"station_id":"ce4bh3p2rcd13ifvqdq0","pricing_plan_id":"free"},{"bike_id":"56b31a5c-2c53-4c55-82d9-c2724d698c3a","system_id":"levelo_inurba_marseille","lat":43.295196,"lon":5.39397,"is_reserved":false,"is_disabled":false,"rental_uris":{"android":"levelo://app?vid=56b31a5c-2c53-4c55-82d9-c2724d698c3a","ios":"levelo://app?vid=56b31a5c-2c53-4c55-82d9-c2724d698c3a"},"vehicle_type_id":"4","last_reported":1698163726,"current_range_meters":18800,"station_id":"ce4bh292rcd13ifvqdf0","pricing_plan_id":"free"},{"bike_id":"46ea3a7c-5075-44f9-920d-53dfa44a3dbb","system_id":"levelo_inurba_marseille","lat":43.295194,"lon":5.39397,"is_reserved":false,"is_disabled":false,"rental_uris":{"android":"levelo://app?vid=46ea3a7c-5075-44f9-920d-53dfa44a3dbb","ios":"levelo://app?vid=46ea3a7c-5075-44f9-920d-53dfa44a3dbb"},"vehicle_type_id":"4","last_reported":1698163726,"current_range_meters":0,"station_id":"ce4bh292rcd13ifvqdf0","pricing_plan_id":"free"},{"bike_id":"90f5f118-e96b-4516-8c69-358b1697735b","system_id":"levelo_inurba_marseille","lat":43.295194,"lon":5.39397,"is_reserved":false,"is_disabled":false,"rental_uris":{"android":"levelo://app?vid=90f5f118-e96b-4516-8c69-358b1697735b","ios":"levelo://app?vid=90f5f118-e96b-4516-8c69-358b1697735b"},"vehicle_type_id":"4","last_reported":1698163726,"current_range_meters":4000,"station_id":"ce4bh292rcd13ifvqdf0","pricing_plan_id":"free"},{"bike_id":"b0801fca-d07a-4b5e-bbe8-3a01c7d4104c","system_id":"levelo_inurba_marseille","lat":43.29037,"lon":5.38645,"is_reserved":false,"is_disabled":false,"rental_uris":{"android":"levelo://app?vid=b0801fca-d07a-4b5e-bbe8-3a01c7d4104c","ios":"levelo://app?vid=b0801fca-d07a-4b5e-bbe8-3a01c7d4104c"},"vehicle_type_id":"4","last_reported":1698163726,"current_range_meters":21200,"station_id":"","pricing_plan_id":"free"},{"bike_id":"602cb6ee-9a2f-4915-ac56-ddb421263505","system_id":"levelo_inurba_marseille","lat":43.29031,"lon":5.38636,"is_reserved":false,"is_disabled":false,"rental_uris":{"android":"levelo://app?vid=602cb6ee-9a2f-4915-ac56-ddb421263505","ios":"levelo://app?vid=602cb6ee-9a2f-4915-ac56-ddb421263505"},"vehicle_type_id":"4","last_reported":1698163726,"current_range_meters":15200,"station_id":"","pricing_plan_id":"free"},{"bike_id":"95d6f617-44a5-4343-a6d3-ff19199bf87f","system_id":"levelo_inurba_marseille","lat":43.290346,"lon":5.386456,"is_reserved":false,"is_disabled":false,"rental_uris":{"android":"levelo://app?vid=95d6f617-44a5-4343-a6d3-ff19199bf87f","ios":"levelo://app?vid=95d6f617-44a5-4343-a6d3-ff19199bf87f"},"vehicle_type_id":"4","last_reported":1698163726,"current_range_meters":27200,"station_id":"","pricing_plan_id":"free"},{"bike_id":"0536652f-e152-4d56-a69b-eab121fb304a","system_id":"levelo_inurba_marseille","lat":43.290313,"lon":5.386437,"is_reserved":false,"is_disabled":false,"rental_uris":{"android":"levelo://app?vid=0536652f-e152-4d56-a69b-eab121fb304a","ios":"levelo://app?vid=0536652f-e152-4d56-a69b-eab121fb304a"},"vehicle_type_id":"4","last_reported":1698163726,"current_range_meters":15200,"station_id":"","pricing_plan_id":"free"},{"bike_id":"4b5d691e-5713-414c-9ddf-1fafa6074d45","system_id":"levelo_inurba_marseille","lat":43.2903,"lon":5.38643,"is_reserved":false,"is_disabled":false,"rental_uris":{"android":"levelo://app?vid=4b5d691e-5713-414c-9ddf-1fafa6074d45","ios":"levelo://app?vid=4b5d691e-5713-414c-9ddf-1fafa6074d45"},"vehicle_type_id":"4","last_reported":1698163726,"current_range_meters":15200,"station_id":"","pricing_plan_id":"free"},{"bike_id":"97d4500b-3b5d-4f56-8568-01bf79a1eb5a","system_id":"levelo_inurba_marseille","lat":43.302759,"lon":5.400793,"is_reserved":false,"is_disabled":false,"rental_uris":{"android":"levelo://app?vid=97d4500b-3b5d-4f56-8568-01bf79a1eb5a","ios":"levelo://app?vid=97d4500b-3b5d-4f56-8568-01bf79a1eb5a"},"vehicle_type_id":"4","last_reported":1698163726,"current_range_meters":7600,"station_id":"ce4bgvh2rcd13ifvqcs0","pricing_plan_id":"free"},{"bike_id":"933fd909-5464-437e-ad44-5f6e892d893d","system_id":"levelo_inurba_marseille","lat":43.289307,"lon":5.38406,"is_reserved":false,"is_disabled":false,"rental_uris":{"android":"levelo://app?vid=933fd909-5464-437e-ad44-5f6e892d893d","ios":"levelo://app?vid=933fd909-5464-437e-ad44-5f6e892d893d"},"vehicle_type_id":"4","last_reported":1698163726,"current_range_meters":4400,"station_id":"ce4bh612rcd13ifvqe6g","pricing_plan_id":"free"},{"bike_id":"56a69679-d871-4a74-8344-193ec797aa46","system_id":"levelo_inurba_marseille","lat":43.290189,"lon":5.386266,"is_reserved":false,"is_disabled":false,"rental_uris":{"android":"levelo://app?vid=56a69679-d871-4a74-8344-193ec797aa46","ios":"levelo://app?vid=56a69679-d871-4a74-8344-193ec797aa46"},"vehicle_type_id":"4","last_reported":1698163726,"current_range_meters":22000,"station_id":"","pricing_plan_id":"free"},{"bike_id":"edb2bba5-98ae-4096-9594-c08128664cbe","system_id":"levelo_inurba_marseille","lat":43.29029,"lon":5.38652,"is_reserved":false,"is_disabled":false,"rental_uris":{"android":"levelo://app?vid=edb2bba5-98ae-4096-9594-c08128664cbe","ios":"levelo://app?vid=edb2bba5-98ae-4096-9594-c08128664cbe"},"vehicle_type_id":"4","last_reported":1698163726,"current_range_meters":7600,"station_id":"ce4bh4p2rcd13ifvqe0g","pricing_plan_id":"free"},{"bike_id":"b58d1543-8801-4c3e-966b-267d4d9594b9","system_id":"levelo_inurba_marseille","lat":43.29024,"lon":5.38645,"is_reserved":false,"is_disabled":false,"rental_uris":{"android":"levelo://app?vid=b58d1543-8801-4c3e-966b-267d4d9594b9","ios":"levelo://app?vid=b58d1543-8801-4c3e-966b-267d4d9594b9"},"vehicle_type_id":"4","last_reported":1698163726,"current_range_meters":7200,"station_id":"","pricing_plan_id":"free"},{"bike_id":"2129bab3-dd67-4fa6-8e39-60d56645b5cd","system_id":"levelo_inurba_marseille","lat":43.290285,"lon":5.386725,"is_reserved":false,"is_disabled":false,"rental_uris":{"android":"levelo://app?vid=2129bab3-dd67-4fa6-8e39-60d56645b5cd","ios":"levelo://app?vid=2129bab3-dd67-4fa6-8e39-60d56645b5cd"},"vehicle_type_id":"4","last_reported":1698163726,"current_range_meters":24800,"station_id":"","pricing_plan_id":"free"},{"bike_id":"d132f792-0c1c-432e-b7dd-3103f86ed2a1","system_id":"levelo_inurba_marseille","lat":43.28611,"lon":5.37063,"is_reserved":false,"is_disabled":false,"rental_uris":{"android":"levelo://app?vid=d132f792-0c1c-432e-b7dd-3103f86ed2a1","ios":"levelo://app?vid=d132f792-0c1c-432e-b7dd-3103f86ed2a1"},"vehicle_type_id":"4","last_reported":1698163726,"current_range_meters":18800,"station_id":"ce4bht12rcd13ifvqi60","pricing_plan_id":"free"},{"bike_id":"fdbe140b-1d88-47f1-8a6a-e3be4dfcdf01","system_id":"levelo_inurba_marseille","lat":43.286039,"lon":5.370679,"is_reserved":false,"is_disabled":false,"rental_uris":{"android":"levelo://app?vid=fdbe140b-1d88-47f1-8a6a-e3be4dfcdf01","ios":"levelo://app?vid=fdbe140b-1d88-47f1-8a6a-e3be4dfcdf01"},"vehicle_type_id":"4","last_reported":1698163726,"current_range_meters":13200,"station_id":"ce4bht12rcd13ifvqi60","pricing_plan_id":"free"},{"bike_id":"06457552-07a1-41f2-b92b-f626116039c9","system_id":"levelo_inurba_marseille","lat":43.28606,"lon":5.37062,"is_reserved":false,"is_disabled":false,"rental_uris":{"android":"levelo://app?vid=06457552-07a1-41f2-b92b-f626116039c9","ios":"levelo://app?vid=06457552-07a1-41f2-b92b-f626116039c9"},"vehicle_type_id":"4","last_reported":1698163726,"current_range_meters":6400,"station_id":"ce4bht12rcd13ifvqi60","pricing_plan_id":"free"},{"bike_id":"bc368e20-93c0-495a-bb4f-cd8ed7ee7f0d","system_id":"levelo_inurba_marseille","lat":43.335307,"lon":5.388143,"is_reserved":false,"is_disabled":false,"rental_uris":{"android":"levelo://app?vid=bc368e20-93c0-495a-bb4f-cd8ed7ee7f0d","ios":"levelo://app?vid=bc368e20-93c0-495a-bb4f-cd8ed7ee7f0d"},"vehicle_type_id":"4","last_reported":1698163726,"current_range_meters":6400,"station_id":"","pricing_plan_id":"free"},{"bike_id":"4554ace8-dfb7-44cb-9be2-f5d69f750c8c","system_id":"levelo_inurba_marseille","lat":43.285438,"lon":5.369933,"is_reserved":false,"is_disabled":false,"rental_uris":{"android":"levelo://app?vid=4554ace8-dfb7-44cb-9be2-f5d69f750c8c","ios":"levelo://app?vid=4554ace8-dfb7-44cb-9be2-f5d69f750c8c"},"vehicle_type_id":"4","last_reported":1698163726,"current_range_meters":3600,"station_id":"","pricing_plan_id":"free"},{"bike_id":"e5d6fe47-603a-45da-bbb8-12323984de14","system_id":"levelo_inurba_marseille","lat":43.299847,"lon":5.400937,"is_reserved":false,"is_disabled":false,"rental_uris":{"android":"levelo://app?vid=e5d6fe47-603a-45da-bbb8-12323984de14","ios":"levelo://app?vid=e5d6fe47-603a-45da-bbb8-12323984de14"},"vehicle_type_id":"4","last_reported":1698163726,"current_range_meters":21200,"station_id":"","pricing_plan_id":"free"},{"bike_id":"8ef4cc98-e9a8-414f-adad-8ebb34e3e6e0","system_id":"levelo_inurba_marseille","lat":43.294314,"lon":5.397498,"is_reserved":false,"is_disabled":false,"rental_uris":{"android":"levelo://app?vid=8ef4cc98-e9a8-414f-adad-8ebb34e3e6e0","ios":"levelo://app?vid=8ef4cc98-e9a8-414f-adad-8ebb34e3e6e0"},"vehicle_type_id":"4","last_reported":1698163726,"current_range_meters":4400,"station_id":"ce4bh3h2rcd13ifvqdo0","pricing_plan_id":"free"},{"bike_id":"0a746174-770f-4e82-8152-9894f8e74fa3","system_id":"levelo_inurba_marseille","lat":43.28617,"lon":5.35105,"is_reserved":false,"is_disabled":false,"rental_uris":{"android":"levelo://app?vid=0a746174-770f-4e82-8152-9894f8e74fa3","ios":"levelo://app?vid=0a746174-770f-4e82-8152-9894f8e74fa3"},"vehicle_type_id":"4","last_reported":1698163726,"current_range_meters":11600,"station_id":"ce4bhch2rcd13ifvqeug","pricing_plan_id":"free"},{"bike_id":"6b53e31c-16d2-4234-8adb-7536df1d5674","system_id":"levelo_inurba_marseille","lat":43.28616,"lon":5.35107,"is_reserved":false,"is_disabled":false,"rental_uris":{"android":"levelo://app?vid=6b53e31c-16d2-4234-8adb-7536df1d5674","ios":"levelo://app?vid=6b53e31c-16d2-4234-8adb-7536df1d5674"},"vehicle_type_id":"4","last_reported":1698163726,"current_range_meters":19200,"station_id":"ce4bhch2rcd13ifvqeug","pricing_plan_id":"free"},{"bike_id":"b0d6e17c-ae7d-4e09-91a2-c7264c167d3a","system_id":"levelo_inurba_marseille","lat":43.286162,"lon":5.351029,"is_reserved":false,"is_disabled":false,"rental_uris":{"android":"levelo://app?vid=b0d6e17c-ae7d-4e09-91a2-c7264c167d3a","ios":"levelo://app?vid=b0d6e17c-ae7d-4e09-91a2-c7264c167d3a"},"vehicle_type_id":"4","last_reported":1698163726,"current_range_meters":11600,"station_id":"ce4bhch2rcd13ifvqeug","pricing_plan_id":"free"},{"bike_id":"440b7a07-aad9-46a4-9f13-77b1f07d0a5b","system_id":"levelo_inurba_marseille","lat":43.285848,"lon":5.350787,"is_reserved":false,"is_disabled":false,"rental_uris":{"android":"levelo://app?vid=440b7a07-aad9-46a4-9f13-77b1f07d0a5b","ios":"levelo://app?vid=440b7a07-aad9-46a4-9f13-77b1f07d0a5b"},"vehicle_type_id":"4","last_reported":1698163726,"current_range_meters":28800,"station_id":"ce4bhch2rcd13ifvqeug","pricing_plan_id":"free"},{"bike_id":"7275282d-7d76-49ef-9f7d-80c92199f9f9","system_id":"levelo_inurba_marseille","lat":43.28611,"lon":5.351003,"is_reserved":false,"is_disabled":false,"rental_uris":{"android":"levelo://app?vid=7275282d-7d76-49ef-9f7d-80c92199f9f9","ios":"levelo://app?vid=7275282d-7d76-49ef-9f7d-80c92199f9f9"},"vehicle_type_id":"4","last_reported":1698163726,"current_range_meters":3600,"station_id":"ce4bhch2rcd13ifvqeug","pricing_plan_id":"free"},{"bike_id":"8e65db2a-c044-49ac-9799-01361e10ccbb","system_id":"levelo_inurba_marseille","lat":43.283998,"lon":5.375062,"is_reserved":false,"is_disabled":false,"rental_uris":{"android":"levelo://app?vid=8e65db2a-c044-49ac-9799-01361e10ccbb","ios":"levelo://app?vid=8e65db2a-c044-49ac-9799-01361e10ccbb"},"vehicle_type_id":"4","last_reported":1698163726,"current_range_meters":20000,"station_id":"ce4bh412rcd13ifvqds0","pricing_plan_id":"free"},{"bike_id":"f0c9ce12-8774-4fb5-991d-675ae79d770d","system_id":"levelo_inurba_marseille","lat":43.283998,"lon":5.375062,"is_reserved":false,"is_disabled":false,"rental_uris":{"android":"levelo://app?vid=f0c9ce12-8774-4fb5-991d-675ae79d770d","ios":"levelo://app?vid=f0c9ce12-8774-4fb5-991d-675ae79d770d"},"vehicle_type_id":"4","last_reported":1698163726,"current_range_meters":22400,"station_id":"ce4bh412rcd13ifvqds0","pricing_plan_id":"free"},{"bike_id":"31bebf29-5825-42b0-9397-d373fa78a25a","system_id":"levelo_inurba_marseille","lat":43.283998,"lon":5.375062,"is_reserved":false,"is_disabled":false,"rental_uris":{"android":"levelo://app?vid=31bebf29-5825-42b0-9397-d373fa78a25a","ios":"levelo://app?vid=31bebf29-5825-42b0-9397-d373fa78a25a"},"vehicle_type_id":"4","last_reported":1698163726,"current_range_meters":20400,"station_id":"ce4bh412rcd13ifvqds0","pricing_plan_id":"free"},{"bike_id":"0439c5e9-9afa-42fa-829a-a09246f3aa76","system_id":"levelo_inurba_marseille","lat":43.295713,"lon":5.399639,"is_reserved":false,"is_disabled":false,"rental_uris":{"android":"levelo://app?vid=0439c5e9-9afa-42fa-829a-a09246f3aa76","ios":"levelo://app?vid=0439c5e9-9afa-42fa-829a-a09246f3aa76"},"vehicle_type_id":"4","last_reported":1698163726,"current_range_meters":14800,"station_id":"ce4bh312rcd13ifvqdj0","pricing_plan_id":"free"},{"bike_id":"a04dca67-8317-445e-90d6-5788929468fd","system_id":"levelo_inurba_marseille","lat":43.33674,"lon":5.39198,"is_reserved":false,"is_disabled":false,"rental_uris":{"android":"levelo://app?vid=a04dca67-8317-445e-90d6-5788929468fd","ios":"levelo://app?vid=a04dca67-8317-445e-90d6-5788929468fd"},"vehicle_type_id":"4","last_reported":1698163726,"current_range_meters":20800,"station_id":"","pricing_plan_id":"free"},{"bike_id":"6cae8b70-bfd4-48f9-a478-11769dd6f5b4","system_id":"levelo_inurba_marseille","lat":43.284793,"lon":5.384113,"is_reserved":false,"is_disabled":false,"rental_uris":{"android":"levelo://app?vid=6cae8b70-bfd4-48f9-a478-11769dd6f5b4","ios":"levelo://app?vid=6cae8b70-bfd4-48f9-a478-11769dd6f5b4"},"vehicle_type_id":"4","last_reported":1698163726,"current_range_meters":3600,"station_id":"ce4bh512rcd13ifvqe3g","pricing_plan_id":"free"},{"bike_id":"1af3621d-736c-45c4-9f71-010793bccb63","system_id":"levelo_inurba_marseille","lat":43.284793,"lon":5.384119,"is_reserved":false,"is_disabled":false,"rental_uris":{"android":"levelo://app?vid=1af3621d-736c-45c4-9f71-010793bccb63","ios":"levelo://app?vid=1af3621d-736c-45c4-9f71-010793bccb63"},"vehicle_type_id":"4","last_reported":1698163726,"current_range_meters":10800,"station_id":"ce4bh512rcd13ifvqe3g","pricing_plan_id":"free"},{"bike_id":"ed447ea9-d032-459b-949e-0e3271eea40c","system_id":"levelo_inurba_marseille","lat":43.284793,"lon":5.384119,"is_reserved":false,"is_disabled":false,"rental_uris":{"android":"levelo://app?vid=ed447ea9-d032-459b-949e-0e3271eea40c","ios":"levelo://app?vid=ed447ea9-d032-459b-949e-0e3271eea40c"},"vehicle_type_id":"4","last_reported":1698163726,"current_range_meters":26400,"station_id":"ce4bh512rcd13ifvqe3g","pricing_plan_id":"free"},{"bike_id":"ae9f9153-62ee-4b3d-bfd3-3e90f95319c3","system_id":"levelo_inurba_marseille","lat":43.297946,"lon":5.404063,"is_reserved":false,"is_disabled":false,"rental_uris":{"android":"levelo://app?vid=ae9f9153-62ee-4b3d-bfd3-3e90f95319c3","ios":"levelo://app?vid=ae9f9153-62ee-4b3d-bfd3-3e90f95319c3"},"vehicle_type_id":"4","last_reported":1698163726,"current_range_meters":23200,"station_id":"ce4bh112rcd13ifvqd90","pricing_plan_id":"free"},{"bike_id":"00e7c116-3b76-485c-ade2-6fc2ccf26d84","system_id":"levelo_inurba_marseille","lat":43.297946,"lon":5.404063,"is_reserved":false,"is_disabled":false,"rental_uris":{"android":"levelo://app?vid=00e7c116-3b76-485c-ade2-6fc2ccf26d84","ios":"levelo://app?vid=00e7c116-3b76-485c-ade2-6fc2ccf26d84"},"vehicle_type_id":"4","last_reported":1698163726,"current_range_meters":2000,"station_id":"ce4bh112rcd13ifvqd90","pricing_plan_id":"free"},{"bike_id":"d6e0f25c-aaad-4436-9a20-7d785d7e759e","system_id":"levelo_inurba_marseille","lat":43.32521,"lon":5.40572,"is_reserved":false,"is_disabled":false,"rental_uris":{"android":"levelo://app?vid=d6e0f25c-aaad-4436-9a20-7d785d7e759e","ios":"levelo://app?vid=d6e0f25c-aaad-4436-9a20-7d785d7e759e"},"vehicle_type_id":"4","last_reported":1698163726,"current_range_meters":8000,"station_id":"","pricing_plan_id":"free"},{"bike_id":"b23384a6-e8b7-4529-a779-194dadf77347","system_id":"levelo_inurba_marseille","lat":43.283494,"lon":5.380945,"is_reserved":false,"is_disabled":false,"rental_uris":{"android":"levelo://app?vid=b23384a6-e8b7-4529-a779-194dadf77347","ios":"levelo://app?vid=b23384a6-e8b7-4529-a779-194dadf77347"},"vehicle_type_id":"4","last_reported":1698163726,"current_range_meters":16800,"station_id":"ce4bh412rcd13ifvqdr0","pricing_plan_id":"free"},{"bike_id":"e9bf4c1d-877b-476c-9fc5-28fe83b22a46","system_id":"levelo_inurba_marseille","lat":43.284219,"lon":5.3497,"is_reserved":false,"is_disabled":false,"rental_uris":{"android":"levelo://app?vid=e9bf4c1d-877b-476c-9fc5-28fe83b22a46","ios":"levelo://app?vid=e9bf4c1d-877b-476c-9fc5-28fe83b22a46"},"vehicle_type_id":"4","last_reported":1698163726,"current_range_meters":26000,"station_id":"ce4bhbh2rcd13ifvqepg","pricing_plan_id":"free"},{"bike_id":"957d8292-cad5-4bc9-a1f5-43353ff04e50","system_id":"levelo_inurba_marseille","lat":43.284219,"lon":5.3497,"is_reserved":false,"is_disabled":false,"rental_uris":{"android":"levelo://app?vid=957d8292-cad5-4bc9-a1f5-43353ff04e50","ios":"levelo://app?vid=957d8292-cad5-4bc9-a1f5-43353ff04e50"},"vehicle_type_id":"4","last_reported":1698163726,"current_range_meters":18400,"station_id":"ce4bhbh2rcd13ifvqepg","pricing_plan_id":"free"},{"bike_id":"5ebe061c-e169-4c4d-85a9-22ef6b4e7f06","system_id":"levelo_inurba_marseille","lat":43.292805,"lon":5.401095,"is_reserved":false,"is_disabled":false,"rental_uris":{"android":"levelo://app?vid=5ebe061c-e169-4c4d-85a9-22ef6b4e7f06","ios":"levelo://app?vid=5ebe061c-e169-4c4d-85a9-22ef6b4e7f06"},"vehicle_type_id":"4","last_reported":1698163726,"current_range_meters":0,"station_id":"ce4bh312rcd13ifvqdk0","pricing_plan_id":"free"},{"bike_id":"f26a0aab-c341-4e5b-bcdf-76a4c06c7ee9","system_id":"levelo_inurba_marseille","lat":43.292724,"lon":5.401131,"is_reserved":false,"is_disabled":false,"rental_uris":{"android":"levelo://app?vid=f26a0aab-c341-4e5b-bcdf-76a4c06c7ee9","ios":"levelo://app?vid=f26a0aab-c341-4e5b-bcdf-76a4c06c7ee9"},"vehicle_type_id":"4","last_reported":1698163726,"current_range_meters":17600,"station_id":"ce4bh312rcd13ifvqdk0","pricing_plan_id":"free"},{"bike_id":"89855110-af72-409e-a481-fab6d058dfbd","system_id":"levelo_inurba_marseille","lat":43.29199,"lon":5.40052,"is_reserved":false,"is_disabled":false,"rental_uris":{"android":"levelo://app?vid=89855110-af72-409e-a481-fab6d058dfbd","ios":"levelo://app?vid=89855110-af72-409e-a481-fab6d058dfbd"},"vehicle_type_id":"4","last_reported":1698163726,"current_range_meters":7600,"station_id":"","pricing_plan_id":"free"},{"bike_id":"7c97ef5d-10fd-4772-b4e8-cf813b645af9","system_id":"levelo_inurba_marseille","lat":43.283502,"lon":5.386471,"is_reserved":false,"is_disabled":false,"rental_uris":{"android":"levelo://app?vid=7c97ef5d-10fd-4772-b4e8-cf813b645af9","ios":"levelo://app?vid=7c97ef5d-10fd-4772-b4e8-cf813b645af9"},"vehicle_type_id":"4","last_reported":1698163726,"current_range_meters":28400,"station_id":"ce4bh492rcd13ifvqdvg","pricing_plan_id":"free"},{"bike_id":"76678d83-48f7-4546-bf43-70656b224626","system_id":"levelo_inurba_marseille","lat":43.282754,"lon":5.350519,"is_reserved":false,"is_disabled":false,"rental_uris":{"android":"levelo://app?vid=76678d83-48f7-4546-bf43-70656b224626","ios":"levelo://app?vid=76678d83-48f7-4546-bf43-70656b224626"},"vehicle_type_id":"4","last_reported":1698163726,"current_range_meters":25200,"station_id":"ce4bhbp2rcd13ifvqerg","pricing_plan_id":"free"},{"bike_id":"73c0bc75-0c9b-4320-a1e1-46dc48455d4a","system_id":"levelo_inurba_marseille","lat":43.28039,"lon":5.369297,"is_reserved":false,"is_disabled":false,"rental_uris":{"android":"levelo://app?vid=73c0bc75-0c9b-4320-a1e1-46dc48455d4a","ios":"levelo://app?vid=73c0bc75-0c9b-4320-a1e1-46dc48455d4a"},"vehicle_type_id":"4","last_reported":1698163726,"current_range_meters":6400,"station_id":"ce4bha12rcd13ifvqef0","pricing_plan_id":"free"},{"bike_id":"1ca242fe-6084-4f9b-8b54-35d465872844","system_id":"levelo_inurba_marseille","lat":43.290412,"lon":5.399633,"is_reserved":false,"is_disabled":false,"rental_uris":{"android":"levelo://app?vid=1ca242fe-6084-4f9b-8b54-35d465872844","ios":"levelo://app?vid=1ca242fe-6084-4f9b-8b54-35d465872844"},"vehicle_type_id":"4","last_reported":1698163726,"current_range_meters":22800,"station_id":"ce4bh392rcd13ifvqdm0","pricing_plan_id":"free"},{"bike_id":"a0661e0a-0207-43bb-8ce4-7c0327795625","system_id":"levelo_inurba_marseille","lat":43.303693,"lon":5.409997,"is_reserved":false,"is_disabled":false,"rental_uris":{"android":"levelo://app?vid=a0661e0a-0207-43bb-8ce4-7c0327795625","ios":"levelo://app?vid=a0661e0a-0207-43bb-8ce4-7c0327795625"},"vehicle_type_id":"4","last_reported":1698163726,"current_range_meters":4800,"station_id":"ce4bhop2rcd13ifvqh8g","pricing_plan_id":"free"},{"bike_id":"cfa3f811-5df0-431e-a3ce-c814c162bc35","system_id":"levelo_inurba_marseille","lat":43.296263,"lon":5.40601,"is_reserved":false,"is_disabled":false,"rental_uris":{"android":"levelo://app?vid=cfa3f811-5df0-431e-a3ce-c814c162bc35","ios":"levelo://app?vid=cfa3f811-5df0-431e-a3ce-c814c162bc35"},"vehicle_type_id":"4","last_reported":1698163726,"current_range_meters":8000,"station_id":"ce4bh0h2rcd13ifvqd60","pricing_plan_id":"free"},{"bike_id":"8dbef7f6-3e70-4bb6-b99b-0f7fb6205d2e","system_id":"levelo_inurba_marseille","lat":43.281044,"lon":5.378308,"is_reserved":false,"is_disabled":false,"rental_uris":{"android":"levelo://app?vid=8dbef7f6-3e70-4bb6-b99b-0f7fb6205d2e","ios":"levelo://app?vid=8dbef7f6-3e70-4bb6-b99b-0f7fb6205d2e"},"vehicle_type_id":"4","last_reported":1698163726,"current_range_meters":22400,"station_id":"ce4bha12rcd13ifvqee0","pricing_plan_id":"free"},{"bike_id":"22eee7cb-b263-4840-8871-fb8e35f17e36","system_id":"levelo_inurba_marseille","lat":43.296263,"lon":5.40601,"is_reserved":false,"is_disabled":false,"rental_uris":{"android":"levelo://app?vid=22eee7cb-b263-4840-8871-fb8e35f17e36","ios":"levelo://app?vid=22eee7cb-b263-4840-8871-fb8e35f17e36"},"vehicle_type_id":"4","last_reported":1698163726,"current_range_meters":15200,"station_id":"ce4bh0h2rcd13ifvqd60","pricing_plan_id":"free"},{"bike_id":"4343b1fd-a9da-482f-8a4e-930916a207a9","system_id":"levelo_inurba_marseille","lat":43.296263,"lon":5.40601,"is_reserved":false,"is_disabled":false,"rental_uris":{"android":"levelo://app?vid=4343b1fd-a9da-482f-8a4e-930916a207a9","ios":"levelo://app?vid=4343b1fd-a9da-482f-8a4e-930916a207a9"},"vehicle_type_id":"4","last_reported":1698163726,"current_range_meters":4000,"station_id":"ce4bh0h2rcd13ifvqd60","pricing_plan_id":"free"},{"bike_id":"2b262778-20e6-4d9d-b3ea-b45d87dfa8d4","system_id":"levelo_inurba_marseille","lat":43.296263,"lon":5.40601,"is_reserved":false,"is_disabled":false,"rental_uris":{"android":"levelo://app?vid=2b262778-20e6-4d9d-b3ea-b45d87dfa8d4","ios":"levelo://app?vid=2b262778-20e6-4d9d-b3ea-b45d87dfa8d4"},"vehicle_type_id":"4","last_reported":1698163726,"current_range_meters":14000,"station_id":"ce4bh0h2rcd13ifvqd60","pricing_plan_id":"free"},{"bike_id":"a57d0fdb-b213-4e44-87aa-9e931832f41a","system_id":"levelo_inurba_marseille","lat":43.336569,"lon":5.398701,"is_reserved":false,"is_disabled":false,"rental_uris":{"android":"levelo://app?vid=a57d0fdb-b213-4e44-87aa-9e931832f41a","ios":"levelo://app?vid=a57d0fdb-b213-4e44-87aa-9e931832f41a"},"vehicle_type_id":"4","last_reported":1698163726,"current_range_meters":2400,"station_id":"","pricing_plan_id":"free"},{"bike_id":"283efb1d-8fb1-40f7-86b7-5f31e1061b04","system_id":"levelo_inurba_marseille","lat":43.284462,"lon":5.392121,"is_reserved":false,"is_disabled":false,"rental_uris":{"android":"levelo://app?vid=283efb1d-8fb1-40f7-86b7-5f31e1061b04","ios":"levelo://app?vid=283efb1d-8fb1-40f7-86b7-5f31e1061b04"},"vehicle_type_id":"4","last_reported":1698163726,"current_range_meters":23200,"station_id":"ce4bhoh2rcd13ifvqh5g","pricing_plan_id":"free"},{"bike_id":"2e9d686a-ad8b-4350-8ca8-44191a322ecc","system_id":"levelo_inurba_marseille","lat":43.326085,"lon":5.409688,"is_reserved":false,"is_disabled":false,"rental_uris":{"android":"levelo://app?vid=2e9d686a-ad8b-4350-8ca8-44191a322ecc","ios":"levelo://app?vid=2e9d686a-ad8b-4350-8ca8-44191a322ecc"},"vehicle_type_id":"4","last_reported":1698163726,"current_range_meters":0,"station_id":"","pricing_plan_id":"free"},{"bike_id":"f85cf246-db9e-4344-a95b-e0cfa2705a31","system_id":"levelo_inurba_marseille","lat":43.304188,"lon":5.412904,"is_reserved":false,"is_disabled":false,"rental_uris":{"android":"levelo://app?vid=f85cf246-db9e-4344-a95b-e0cfa2705a31","ios":"levelo://app?vid=f85cf246-db9e-4344-a95b-e0cfa2705a31"},"vehicle_type_id":"4","last_reported":1698163726,"current_range_meters":26800,"station_id":"ce4bhop2rcd13ifvqh8g","pricing_plan_id":"free"},{"bike_id":"7175a07f-aef6-4a92-9e5c-5b39df5ae774","system_id":"levelo_inurba_marseille","lat":43.304188,"lon":5.412904,"is_reserved":false,"is_disabled":false,"rental_uris":{"android":"levelo://app?vid=7175a07f-aef6-4a92-9e5c-5b39df5ae774","ios":"levelo://app?vid=7175a07f-aef6-4a92-9e5c-5b39df5ae774"},"vehicle_type_id":"4","last_reported":1698163726,"current_range_meters":21200,"station_id":"ce4bhop2rcd13ifvqh8g","pricing_plan_id":"free"},{"bike_id":"af1aa51a-47e4-4253-8b58-e9cac431ffaa","system_id":"levelo_inurba_marseille","lat":43.304188,"lon":5.412904,"is_reserved":false,"is_disabled":false,"rental_uris":{"android":"levelo://app?vid=af1aa51a-47e4-4253-8b58-e9cac431ffaa","ios":"levelo://app?vid=af1aa51a-47e4-4253-8b58-e9cac431ffaa"},"vehicle_type_id":"4","last_reported":1698163726,"current_range_meters":12400,"station_id":"ce4bhop2rcd13ifvqh8g","pricing_plan_id":"free"},{"bike_id":"bad64b71-18b3-4450-bfce-4e806f408bb2","system_id":"levelo_inurba_marseille","lat":43.28709,"lon":5.39973,"is_reserved":false,"is_disabled":false,"rental_uris":{"android":"levelo://app?vid=bad64b71-18b3-4450-bfce-4e806f408bb2","ios":"levelo://app?vid=bad64b71-18b3-4450-bfce-4e806f408bb2"},"vehicle_type_id":"4","last_reported":1698163726,"current_range_meters":20400,"station_id":"ce4bho92rcd13ifvqh3g","pricing_plan_id":"free"},{"bike_id":"45cf3051-0f79-43e1-be35-3d1654632c68","system_id":"levelo_inurba_marseille","lat":43.287154,"lon":5.399979,"is_reserved":false,"is_disabled":false,"rental_uris":{"android":"levelo://app?vid=45cf3051-0f79-43e1-be35-3d1654632c68","ios":"levelo://app?vid=45cf3051-0f79-43e1-be35-3d1654632c68"},"vehicle_type_id":"4","last_reported":1698163726,"current_range_meters":28400,"station_id":"ce4bho92rcd13ifvqh3g","pricing_plan_id":"free"},{"bike_id":"ac108b8f-45a0-49a3-8a5d-e8deebe074ac","system_id":"levelo_inurba_marseille","lat":43.328815,"lon":5.410728,"is_reserved":false,"is_disabled":false,"rental_uris":{"android":"levelo://app?vid=ac108b8f-45a0-49a3-8a5d-e8deebe074ac","ios":"levelo://app?vid=ac108b8f-45a0-49a3-8a5d-e8deebe074ac"},"vehicle_type_id":"4","last_reported":1698163726,"current_range_meters":0,"station_id":"","pricing_plan_id":"free"},{"bike_id":"0f744bea-3382-41bf-a99e-6fff3a61f781","system_id":"levelo_inurba_marseille","lat":43.299579,"lon":5.413255,"is_reserved":false,"is_disabled":false,"rental_uris":{"android":"levelo://app?vid=0f744bea-3382-41bf-a99e-6fff3a61f781","ios":"levelo://app?vid=0f744bea-3382-41bf-a99e-6fff3a61f781"},"vehicle_type_id":"4","last_reported":1698163726,"current_range_meters":30000,"station_id":"ce4bhp12rcd13ifvqh9g","pricing_plan_id":"free"},{"bike_id":"c22b86ee-fffd-40d9-94a4-d99c42df7894","system_id":"levelo_inurba_marseille","lat":43.292571,"lon":5.409107,"is_reserved":false,"is_disabled":false,"rental_uris":{"android":"levelo://app?vid=c22b86ee-fffd-40d9-94a4-d99c42df7894","ios":"levelo://app?vid=c22b86ee-fffd-40d9-94a4-d99c42df7894"},"vehicle_type_id":"4","last_reported":1698163726,"current_range_meters":4800,"station_id":"ce4bh192rcd13ifvqdc0","pricing_plan_id":"free"},{"bike_id":"65940716-789b-4e29-ad4b-2e4a60fa0dbe","system_id":"levelo_inurba_marseille","lat":43.29258,"lon":5.40919,"is_reserved":false,"is_disabled":false,"rental_uris":{"android":"levelo://app?vid=65940716-789b-4e29-ad4b-2e4a60fa0dbe","ios":"levelo://app?vid=65940716-789b-4e29-ad4b-2e4a60fa0dbe"},"vehicle_type_id":"4","last_reported":1698163726,"current_range_meters":20000,"station_id":"ce4bh192rcd13ifvqdc0","pricing_plan_id":"free"},{"bike_id":"7a085ef7-c0ae-4305-8cde-801cc1dabff4","system_id":"levelo_inurba_marseille","lat":43.280784,"lon":5.396622,"is_reserved":false,"is_disabled":false,"rental_uris":{"android":"levelo://app?vid=7a085ef7-c0ae-4305-8cde-801cc1dabff4","ios":"levelo://app?vid=7a085ef7-c0ae-4305-8cde-801cc1dabff4"},"vehicle_type_id":"4","last_reported":1698163726,"current_range_meters":26400,"station_id":"ce4bho12rcd13ifvqh2g","pricing_plan_id":"free"},{"bike_id":"fa077c3e-118f-447a-b089-a454bf419f7a","system_id":"levelo_inurba_marseille","lat":43.280784,"lon":5.396622,"is_reserved":false,"is_disabled":false,"rental_uris":{"android":"levelo://app?vid=fa077c3e-118f-447a-b089-a454bf419f7a","ios":"levelo://app?vid=fa077c3e-118f-447a-b089-a454bf419f7a"},"vehicle_type_id":"4","last_reported":1698163726,"current_range_meters":20000,"station_id":"ce4bho12rcd13ifvqh2g","pricing_plan_id":"free"},{"bike_id":"b5bf2707-9b95-48ca-a5c9-60105b1d2104","system_id":"levelo_inurba_marseille","lat":43.303837,"lon":5.418724,"is_reserved":false,"is_disabled":false,"rental_uris":{"android":"levelo://app?vid=b5bf2707-9b95-48ca-a5c9-60105b1d2104","ios":"levelo://app?vid=b5bf2707-9b95-48ca-a5c9-60105b1d2104"},"vehicle_type_id":"4","last_reported":1698163726,"current_range_meters":22800,"station_id":"ce4bhop2rcd13ifvqh7g","pricing_plan_id":"free"},{"bike_id":"ee1184fc-ee05-4ae0-977e-a5a16cbb6344","system_id":"levelo_inurba_marseille","lat":43.303837,"lon":5.418724,"is_reserved":false,"is_disabled":false,"rental_uris":{"android":"levelo://app?vid=ee1184fc-ee05-4ae0-977e-a5a16cbb6344","ios":"levelo://app?vid=ee1184fc-ee05-4ae0-977e-a5a16cbb6344"},"vehicle_type_id":"4","last_reported":1698163726,"current_range_meters":31600,"station_id":"ce4bhop2rcd13ifvqh7g","pricing_plan_id":"free"},{"bike_id":"c36a6d7d-a10e-48f7-bec3-4088b8a42208","system_id":"levelo_inurba_marseille","lat":43.303837,"lon":5.418724,"is_reserved":false,"is_disabled":false,"rental_uris":{"android":"levelo://app?vid=c36a6d7d-a10e-48f7-bec3-4088b8a42208","ios":"levelo://app?vid=c36a6d7d-a10e-48f7-bec3-4088b8a42208"},"vehicle_type_id":"4","last_reported":1698163726,"current_range_meters":0,"station_id":"ce4bhop2rcd13ifvqh7g","pricing_plan_id":"free"},{"bike_id":"4a9d218d-0b01-49d9-a131-f0a29bf428de","system_id":"levelo_inurba_marseille","lat":43.303837,"lon":5.418724,"is_reserved":false,"is_disabled":false,"rental_uris":{"android":"levelo://app?vid=4a9d218d-0b01-49d9-a131-f0a29bf428de","ios":"levelo://app?vid=4a9d218d-0b01-49d9-a131-f0a29bf428de"},"vehicle_type_id":"4","last_reported":1698163726,"current_range_meters":10000,"station_id":"ce4bhop2rcd13ifvqh7g","pricing_plan_id":"free"},{"bike_id":"6f934581-e0ae-4016-a049-054602082875","system_id":"levelo_inurba_marseille","lat":43.278401,"lon":5.392152,"is_reserved":false,"is_disabled":false,"rental_uris":{"android":"levelo://app?vid=6f934581-e0ae-4016-a049-054602082875","ios":"levelo://app?vid=6f934581-e0ae-4016-a049-054602082875"},"vehicle_type_id":"4","last_reported":1698163726,"current_range_meters":24000,"station_id":"ce4bhjp2rcd13ifvqga0","pricing_plan_id":"free"},{"bike_id":"cfc9c4a4-8420-4324-9da1-1b0e433fa79b","system_id":"levelo_inurba_marseille","lat":43.278399,"lon":5.392139,"is_reserved":false,"is_disabled":false,"rental_uris":{"android":"levelo://app?vid=cfc9c4a4-8420-4324-9da1-1b0e433fa79b","ios":"levelo://app?vid=cfc9c4a4-8420-4324-9da1-1b0e433fa79b"},"vehicle_type_id":"4","last_reported":1698163726,"current_range_meters":23600,"station_id":"ce4bhjp2rcd13ifvqga0","pricing_plan_id":"free"},{"bike_id":"513e4580-cf3b-4849-82d0-2b4efa90d488","system_id":"levelo_inurba_marseille","lat":43.278399,"lon":5.392139,"is_reserved":false,"is_disabled":false,"rental_uris":{"android":"levelo://app?vid=513e4580-cf3b-4849-82d0-2b4efa90d488","ios":"levelo://app?vid=513e4580-cf3b-4849-82d0-2b4efa90d488"},"vehicle_type_id":"4","last_reported":1698163726,"current_range_meters":19600,"station_id":"ce4bhjp2rcd13ifvqga0","pricing_plan_id":"free"},{"bike_id":"1136a3e5-8627-47b4-8dde-ea29bc98cc0f","system_id":"levelo_inurba_marseille","lat":43.278401,"lon":5.392152,"is_reserved":false,"is_disabled":false,"rental_uris":{"android":"levelo://app?vid=1136a3e5-8627-47b4-8dde-ea29bc98cc0f","ios":"levelo://app?vid=1136a3e5-8627-47b4-8dde-ea29bc98cc0f"},"vehicle_type_id":"4","last_reported":1698163726,"current_range_meters":18000,"station_id":"ce4bhjp2rcd13ifvqga0","pricing_plan_id":"free"},{"bike_id":"67d7f11d-7378-4a1b-b0e3-464e50247ac6","system_id":"levelo_inurba_marseille","lat":43.27832,"lon":5.39207,"is_reserved":false,"is_disabled":false,"rental_uris":{"android":"levelo://app?vid=67d7f11d-7378-4a1b-b0e3-464e50247ac6","ios":"levelo://app?vid=67d7f11d-7378-4a1b-b0e3-464e50247ac6"},"vehicle_type_id":"4","last_reported":1698163726,"current_range_meters":25600,"station_id":"ce4bhjp2rcd13ifvqga0","pricing_plan_id":"free"},{"bike_id":"f57e0146-97ed-486b-b01b-9d4b784415f0","system_id":"levelo_inurba_marseille","lat":43.27823,"lon":5.39212,"is_reserved":false,"is_disabled":false,"rental_uris":{"android":"levelo://app?vid=f57e0146-97ed-486b-b01b-9d4b784415f0","ios":"levelo://app?vid=f57e0146-97ed-486b-b01b-9d4b784415f0"},"vehicle_type_id":"4","last_reported":1698163726,"current_range_meters":20800,"station_id":"ce4bhjp2rcd13ifvqga0","pricing_plan_id":"free"},{"bike_id":"d80caaf4-176d-43af-9959-4301c6926bf7","system_id":"levelo_inurba_marseille","lat":43.27379,"lon":5.36253,"is_reserved":false,"is_disabled":false,"rental_uris":{"android":"levelo://app?vid=d80caaf4-176d-43af-9959-4301c6926bf7","ios":"levelo://app?vid=d80caaf4-176d-43af-9959-4301c6926bf7"},"vehicle_type_id":"4","last_reported":1698163726,"current_range_meters":31200,"station_id":"ce4bhbh2rcd13ifvqeo0","pricing_plan_id":"free"},{"bike_id":"5fd2a31d-0b3b-4385-8095-7989be217a76","system_id":"levelo_inurba_marseille","lat":43.273613,"lon":5.362705,"is_reserved":false,"is_disabled":false,"rental_uris":{"android":"levelo://app?vid=5fd2a31d-0b3b-4385-8095-7989be217a76","ios":"levelo://app?vid=5fd2a31d-0b3b-4385-8095-7989be217a76"},"vehicle_type_id":"4","last_reported":1698163726,"current_range_meters":0,"station_id":"ce4bhbh2rcd13ifvqeo0","pricing_plan_id":"free"},{"bike_id":"4cca61b2-0f37-4d8a-b9d7-076abd21d0da","system_id":"levelo_inurba_marseille","lat":43.273613,"lon":5.362705,"is_reserved":false,"is_disabled":false,"rental_uris":{"android":"levelo://app?vid=4cca61b2-0f37-4d8a-b9d7-076abd21d0da","ios":"levelo://app?vid=4cca61b2-0f37-4d8a-b9d7-076abd21d0da"},"vehicle_type_id":"4","last_reported":1698163726,"current_range_meters":0,"station_id":"ce4bhbh2rcd13ifvqeo0","pricing_plan_id":"free"},{"bike_id":"3a9a6bc1-3336-4cb5-a17c-8e09dd6bac9c","system_id":"levelo_inurba_marseille","lat":43.28005,"lon":5.40006,"is_reserved":false,"is_disabled":false,"rental_uris":{"android":"levelo://app?vid=3a9a6bc1-3336-4cb5-a17c-8e09dd6bac9c","ios":"levelo://app?vid=3a9a6bc1-3336-4cb5-a17c-8e09dd6bac9c"},"vehicle_type_id":"4","last_reported":1698163726,"current_range_meters":14000,"station_id":"ce4bho92rcd13ifvqh4g","pricing_plan_id":"free"},{"bike_id":"ce1c47ad-b959-4c6f-9847-128b374cd133","system_id":"levelo_inurba_marseille","lat":43.31721,"lon":5.42393,"is_reserved":false,"is_disabled":false,"rental_uris":{"android":"levelo://app?vid=ce1c47ad-b959-4c6f-9847-128b374cd133","ios":"levelo://app?vid=ce1c47ad-b959-4c6f-9847-128b374cd133"},"vehicle_type_id":"4","last_reported":1698163726,"current_range_meters":29600,"station_id":"ce4bhp92rcd13ifvqhbg","pricing_plan_id":"free"},{"bike_id":"479a30a2-8897-4ee8-9689-b0ae7795823e","system_id":"levelo_inurba_marseille","lat":43.31721,"lon":5.42398,"is_reserved":false,"is_disabled":false,"rental_uris":{"android":"levelo://app?vid=479a30a2-8897-4ee8-9689-b0ae7795823e","ios":"levelo://app?vid=479a30a2-8897-4ee8-9689-b0ae7795823e"},"vehicle_type_id":"4","last_reported":1698163726,"current_range_meters":17200,"station_id":"ce4bhp92rcd13ifvqhbg","pricing_plan_id":"free"},{"bike_id":"a091030b-e9b0-4e92-8807-928158a1a9e0","system_id":"levelo_inurba_marseille","lat":43.31725,"lon":5.42398,"is_reserved":false,"is_disabled":false,"rental_uris":{"android":"levelo://app?vid=a091030b-e9b0-4e92-8807-928158a1a9e0","ios":"levelo://app?vid=a091030b-e9b0-4e92-8807-928158a1a9e0"},"vehicle_type_id":"4","last_reported":1698163726,"current_range_meters":31200,"station_id":"ce4bhp92rcd13ifvqhbg","pricing_plan_id":"free"},{"bike_id":"31f3916a-58f4-477b-9cb8-714a980c944e","system_id":"levelo_inurba_marseille","lat":43.31085,"lon":5.42428,"is_reserved":false,"is_disabled":false,"rental_uris":{"android":"levelo://app?vid=31f3916a-58f4-477b-9cb8-714a980c944e","ios":"levelo://app?vid=31f3916a-58f4-477b-9cb8-714a980c944e"},"vehicle_type_id":"4","last_reported":1698163726,"current_range_meters":29200,"station_id":"ce4bhp92rcd13ifvqhag","pricing_plan_id":"free"},{"bike_id":"e9b0d128-0a4a-426f-908d-d011551546fc","system_id":"levelo_inurba_marseille","lat":43.310785,"lon":5.424305,"is_reserved":false,"is_disabled":false,"rental_uris":{"android":"levelo://app?vid=e9b0d128-0a4a-426f-908d-d011551546fc","ios":"levelo://app?vid=e9b0d128-0a4a-426f-908d-d011551546fc"},"vehicle_type_id":"4","last_reported":1698163726,"current_range_meters":31200,"station_id":"ce4bhp92rcd13ifvqhag","pricing_plan_id":"free"},{"bike_id":"4a25b340-0e4a-4a7f-9f5c-fcb8d90ceafc","system_id":"levelo_inurba_marseille","lat":43.310785,"lon":5.424305,"is_reserved":false,"is_disabled":false,"rental_uris":{"android":"levelo://app?vid=4a25b340-0e4a-4a7f-9f5c-fcb8d90ceafc","ios":"levelo://app?vid=4a25b340-0e4a-4a7f-9f5c-fcb8d90ceafc"},"vehicle_type_id":"4","last_reported":1698163726,"current_range_meters":31200,"station_id":"ce4bhp92rcd13ifvqhag","pricing_plan_id":"free"},{"bike_id":"5a10331c-549d-4b5f-88ef-07eee97806b4","system_id":"levelo_inurba_marseille","lat":43.31001,"lon":5.42506,"is_reserved":false,"is_disabled":false,"rental_uris":{"android":"levelo://app?vid=5a10331c-549d-4b5f-88ef-07eee97806b4","ios":"levelo://app?vid=5a10331c-549d-4b5f-88ef-07eee97806b4"},"vehicle_type_id":"4","last_reported":1698163726,"current_range_meters":0,"station_id":"ce4bhp92rcd13ifvqhag","pricing_plan_id":"free"},{"bike_id":"98502e4d-8226-4a00-9eb4-960e08307295","system_id":"levelo_inurba_marseille","lat":43.273125,"lon":5.390731,"is_reserved":false,"is_disabled":false,"rental_uris":{"android":"levelo://app?vid=98502e4d-8226-4a00-9eb4-960e08307295","ios":"levelo://app?vid=98502e4d-8226-4a00-9eb4-960e08307295"},"vehicle_type_id":"4","last_reported":1698163726,"current_range_meters":4000,"station_id":"ce4bhgp2rcd13ifvqfe0","pricing_plan_id":"free"},{"bike_id":"8bec6189-81e9-4a1f-b43f-80db64e9d13c","system_id":"levelo_inurba_marseille","lat":43.273125,"lon":5.390731,"is_reserved":false,"is_disabled":false,"rental_uris":{"android":"levelo://app?vid=8bec6189-81e9-4a1f-b43f-80db64e9d13c","ios":"levelo://app?vid=8bec6189-81e9-4a1f-b43f-80db64e9d13c"},"vehicle_type_id":"4","last_reported":1698163726,"current_range_meters":800,"station_id":"ce4bhgp2rcd13ifvqfe0","pricing_plan_id":"free"},{"bike_id":"491992b2-4c7d-4213-8271-e89ee5d3667a","system_id":"levelo_inurba_marseille","lat":43.27314,"lon":5.39075,"is_reserved":false,"is_disabled":false,"rental_uris":{"android":"levelo://app?vid=491992b2-4c7d-4213-8271-e89ee5d3667a","ios":"levelo://app?vid=491992b2-4c7d-4213-8271-e89ee5d3667a"},"vehicle_type_id":"4","last_reported":1698163726,"current_range_meters":0,"station_id":"ce4bhgp2rcd13ifvqfe0","pricing_plan_id":"free"},{"bike_id":"36d50915-2af2-4a62-825c-e5db16961f2f","system_id":"levelo_inurba_marseille","lat":43.30414,"lon":5.425441,"is_reserved":false,"is_disabled":false,"rental_uris":{"android":"levelo://app?vid=36d50915-2af2-4a62-825c-e5db16961f2f","ios":"levelo://app?vid=36d50915-2af2-4a62-825c-e5db16961f2f"},"vehicle_type_id":"4","last_reported":1698163726,"current_range_meters":27600,"station_id":"ce4bhoh2rcd13ifvqh6g","pricing_plan_id":"free"},{"bike_id":"62266ec3-8a7d-451e-9b7a-db91cabbbf4b","system_id":"levelo_inurba_marseille","lat":43.295523,"lon":5.422926,"is_reserved":false,"is_disabled":false,"rental_uris":{"android":"levelo://app?vid=62266ec3-8a7d-451e-9b7a-db91cabbbf4b","ios":"levelo://app?vid=62266ec3-8a7d-451e-9b7a-db91cabbbf4b"},