{"last_updated":1753283543,"ttl":60,"version":"2.2","data":{"bikes":[{"bike_id":"b6449433-8dd1-4183-ba70-4d70c751a8a8","system_id":"levelo_inurba_marseille","lat":43.24075,"lon":5.37761,"is_reserved":false,"is_disabled":false,"rental_uris":{"android":"levelo://app?vid=b6449433-8dd1-4183-ba70-4d70c751a8a8","ios":"levelo://app?vid=b6449433-8dd1-4183-ba70-4d70c751a8a8"},"vehicle_type_id":"4","last_reported":1753283543,"current_range_meters":2800,"station_id":"ce4bhnp2rcd13ifvqgvg","pricing_plan_id":"cebpf4jnsgd1na2vs0mg"},{"bike_id":"42413a25-16d1-4419-b44a-45580e0c6ac6","system_id":"levelo_inurba_marseille","lat":43.337621,"lon":5.374879,"is_reserved":false,"is_disabled":false,"rental_uris":{"android":"levelo://app?vid=42413a25-16d1-4419-b44a-45580e0c6ac6","ios":"levelo://app?vid=42413a25-16d1-4419-b44a-45580e0c6ac6"},"vehicle_type_id":"4","last_reported":1753283543,"current_range_meters":3200,"station_id":"","pricing_plan_id":"cebpf4jnsgd1na2vs0mg"},{"bike_id":"a35e0d3b-7b45-4544-b22a-dfb6ea3016e8","system_id":"levelo_inurba_marseille","lat":43.29484,"lon":5.38176,"is_reserved":false,"is_disabled":false,"rental_uris":{"android":"levelo://app?vid=a35e0d3b-7b45-4544-b22a-dfb6ea3016e8","ios":"levelo://app?vid=a35e0d3b-7b45-4544-b22a-dfb6ea3016e8"},"vehicle_type_id":"4","last_reported":1753283543,"current_range_meters":3200,"station_id":"","pricing_plan_id":"cebpf4jnsgd1na2vs0mg"},{"bike_id":"338d5c8c-c201-4687-b356-7cfe48872beb","system_id":"levelo_inurba_marseille","lat":43.28604,"lon":5.35089,"is_reserved":false,"is_disabled":true,"rental_uris":{"android":"levelo://app?vid=338d5c8c-c201-4687-b356-7cfe48872beb","ios":"levelo://app?vid=338d5c8c-c201-4687-b356-7cfe48872beb"},"vehicle_type_id":"4","last_reported":1753283543,"current_range_meters":3200,"station_id":"ce4bhch2rcd13ifvqeug","pricing_plan_id":"cebpf4jnsgd1na2vs0mg"},{"bike_id":"c87549fe-6ffd-4ce5-96b2-866b697e3b87","system_id":"levelo_inurba_marseille","lat":43.29847,"lon":5.38065,"is_reserved":false,"is_disabled":false,"rental_uris":{"android":"levelo://app?vid=c87549fe-6ffd-4ce5-96b2-866b697e3b87","ios":"levelo://app?vid=c87549fe-6ffd-4ce5-96b2-866b697e3b87"},"vehicle_type_id":"4","last_reported":1753283543,"current_range_meters":3600,"station_id":"","pricing_plan_id":"cebpf4jnsgd1na2vs0mg"},{"bike_id":"ef3e2867-ab1f-4444-9934-a4bf252cf8d3","system_id":"levelo_inurba_marseille","lat":43.2481,"lon":5.37458,"is_reserved":false,"is_disabled":false,"rental_uris":{"android":"levelo://app?vid=ef3e2867-ab1f-4444-9934-a4bf252cf8d3","ios":"levelo://app?vid=ef3e2867-ab1f-4444-9934-a4bf252cf8d3"},"vehicle_type_id":"4","last_reported":1753283543,"current_range_meters":4000,"station_id":"ce4bhgh2rcd13ifvqfb0","pricing_plan_id":"cebpf4jnsgd1na2vs0mg"},{"bike_id":"1437f7ce-c5bd-42dd-8ac5-37183329147d","system_id":"levelo_inurba_marseille","lat":43.29961,"lon":5.38499,"is_reserved":false,"is_disabled":false,"rental_uris":{"android":"levelo://app?vid=1437f7ce-c5bd-42dd-8ac5-37183329147d","ios":"levelo://app?vid=1437f7ce-c5bd-42dd-8ac5-37183329147d"},"vehicle_type_id":"4","last_reported":1753283543,"current_range_meters":4000,"station_id":"ce4bgj92rcd13ifvqbd0","pricing_plan_id":"cebpf4jnsgd1na2vs0mg"},{"bike_id":"4658e0f4-211f-46da-b2c6-73190a676f43","system_id":"levelo_inurba_marseille","lat":43.296187,"lon":5.371542,"is_reserved":false,"is_disabled":false,"rental_uris":{"android":"levelo://app?vid=4658e0f4-211f-46da-b2c6-73190a676f43","ios":"levelo://app?vid=4658e0f4-211f-46da-b2c6-73190a676f43"},"vehicle_type_id":"4","last_reported":1753283543,"current_range_meters":3200,"station_id":"ce4bgnh2rcd13ifvqc0g","pricing_plan_id":"cebpf4jnsgd1na2vs0mg"},{"bike_id":"93e7a39d-5e28-48ef-9c27-cb9adb51009f","system_id":"levelo_inurba_marseille","lat":43.24169,"lon":5.36392,"is_reserved":false,"is_disabled":false,"rental_uris":{"android":"levelo://app?vid=93e7a39d-5e28-48ef-9c27-cb9adb51009f","ios":"levelo://app?vid=93e7a39d-5e28-48ef-9c27-cb9adb51009f"},"vehicle_type_id":"4","last_reported":1753283543,"current_range_meters":4000,"station_id":"cpo36qri1sfpv3e86is0","pricing_plan_id":"cebpf4jnsgd1na2vs0mg"},{"bike_id":"15ff425d-fe24-40b3-8033-ef488d4c4a2c","system_id":"levelo_inurba_marseille","lat":43.27496,"lon":5.42448,"is_reserved":false,"is_disabled":false,"rental_uris":{"android":"levelo://app?vid=15ff425d-fe24-40b3-8033-ef488d4c4a2c","ios":"levelo://app?vid=15ff425d-fe24-40b3-8033-ef488d4c4a2c"},"vehicle_type_id":"4","last_reported":1753283543,"current_range_meters":4800,"station_id":"ce4bhn92rcd13ifvqgrg","pricing_plan_id":"cebpf4jnsgd1na2vs0mg"},{"bike_id":"58f38db5-97c6-4746-9487-0fc492b8330f","system_id":"levelo_inurba_marseille","lat":43.29529,"lon":5.38548,"is_reserved":false,"is_disabled":false,"rental_uris":{"android":"levelo://app?vid=58f38db5-97c6-4746-9487-0fc492b8330f","ios":"levelo://app?vid=58f38db5-97c6-4746-9487-0fc492b8330f"},"vehicle_type_id":"4","last_reported":1753283543,"current_range_meters":4800,"station_id":"ce4bgih2rcd13ifvqba0","pricing_plan_id":"cebpf4jnsgd1na2vs0mg"},{"bike_id":"590e0cbc-2632-460e-8ee2-ae8252db3577","system_id":"levelo_inurba_marseille","lat":43.25715,"lon":5.4112,"is_reserved":false,"is_disabled":false,"rental_uris":{"android":"levelo://app?vid=590e0cbc-2632-460e-8ee2-ae8252db3577","ios":"levelo://app?vid=590e0cbc-2632-460e-8ee2-ae8252db3577"},"vehicle_type_id":"4","last_reported":1753283543,"current_range_meters":4800,"station_id":"ce4bhkp2rcd13ifvqgd0","pricing_plan_id":"cebpf4jnsgd1na2vs0mg"},{"bike_id":"ae30ae69-4975-49b1-bca4-838d6f8dd828","system_id":"levelo_inurba_marseille","lat":43.290253,"lon":5.38643,"is_reserved":false,"is_disabled":false,"rental_uris":{"android":"levelo://app?vid=ae30ae69-4975-49b1-bca4-838d6f8dd828","ios":"levelo://app?vid=ae30ae69-4975-49b1-bca4-838d6f8dd828"},"vehicle_type_id":"4","last_reported":1753283543,"current_range_meters":4800,"station_id":"ce4bh4p2rcd13ifvqe0g","pricing_plan_id":"cebpf4jnsgd1na2vs0mg"},{"bike_id":"42e0fe4e-d55f-4c40-9710-4d02675f7bbb","system_id":"levelo_inurba_marseille","lat":43.30094,"lon":5.39081,"is_reserved":false,"is_disabled":false,"rental_uris":{"android":"levelo://app?vid=42e0fe4e-d55f-4c40-9710-4d02675f7bbb","ios":"levelo://app?vid=42e0fe4e-d55f-4c40-9710-4d02675f7bbb"},"vehicle_type_id":"4","last_reported":1753283543,"current_range_meters":4400,"station_id":"ce4bh192rcd13ifvqdb0","pricing_plan_id":"cebpf4jnsgd1na2vs0mg"},{"bike_id":"f30a3bfc-5c44-41cd-827f-f2d87e8efa86","system_id":"levelo_inurba_marseille","lat":43.30206,"lon":5.39468,"is_reserved":false,"is_disabled":false,"rental_uris":{"android":"levelo://app?vid=f30a3bfc-5c44-41cd-827f-f2d87e8efa86","ios":"levelo://app?vid=f30a3bfc-5c44-41cd-827f-f2d87e8efa86"},"vehicle_type_id":"4","last_reported":1753283543,"current_range_meters":4800,"station_id":"ce4bh0p2rcd13ifvqd70","pricing_plan_id":"cebpf4jnsgd1na2vs0mg"},{"bike_id":"39eba769-f1d8-4f70-830c-040915f497ea","system_id":"levelo_inurba_marseille","lat":43.30249,"lon":5.4006,"is_reserved":false,"is_disabled":false,"rental_uris":{"android":"levelo://app?vid=39eba769-f1d8-4f70-830c-040915f497ea","ios":"levelo://app?vid=39eba769-f1d8-4f70-830c-040915f497ea"},"vehicle_type_id":"4","last_reported":1753283543,"current_range_meters":5600,"station_id":"ce4bgvh2rcd13ifvqcs0","pricing_plan_id":"cebpf4jnsgd1na2vs0mg"},{"bike_id":"c52f4a0b-4ad9-4bd3-ab6e-9e44fc526d15","system_id":"levelo_inurba_marseille","lat":43.27067,"lon":5.4228,"is_reserved":false,"is_disabled":false,"rental_uris":{"android":"levelo://app?vid=c52f4a0b-4ad9-4bd3-ab6e-9e44fc526d15","ios":"levelo://app?vid=c52f4a0b-4ad9-4bd3-ab6e-9e44fc526d15"},"vehicle_type_id":"4","last_reported":1753283543,"current_range_meters":5600,"station_id":"ce4bhk92rcd13ifvqgb0","pricing_plan_id":"cebpf4jnsgd1na2vs0mg"},{"bike_id":"6363a14e-eb37-460f-9bd0-789c0dfaeb5e","system_id":"levelo_inurba_marseille","lat":43.295196,"lon":5.394061,"is_reserved":false,"is_disabled":false,"rental_uris":{"android":"levelo://app?vid=6363a14e-eb37-460f-9bd0-789c0dfaeb5e","ios":"levelo://app?vid=6363a14e-eb37-460f-9bd0-789c0dfaeb5e"},"vehicle_type_id":"4","last_reported":1753283543,"current_range_meters":5600,"station_id":"ce4bh292rcd13ifvqdf0","pricing_plan_id":"cebpf4jnsgd1na2vs0mg"},{"bike_id":"3ed35e5a-2ead-40c4-bb74-06a67bd3b445","system_id":"levelo_inurba_marseille","lat":43.30102,"lon":5.39069,"is_reserved":false,"is_disabled":false,"rental_uris":{"android":"levelo://app?vid=3ed35e5a-2ead-40c4-bb74-06a67bd3b445","ios":"levelo://app?vid=3ed35e5a-2ead-40c4-bb74-06a67bd3b445"},"vehicle_type_id":"4","last_reported":1753283543,"current_range_meters":6400,"station_id":"ce4bh192rcd13ifvqdb0","pricing_plan_id":"cebpf4jnsgd1na2vs0mg"},{"bike_id":"98824140-0084-4982-92ea-b6a010d63074","system_id":"levelo_inurba_marseille","lat":43.28398,"lon":5.37526,"is_reserved":false,"is_disabled":false,"rental_uris":{"android":"levelo://app?vid=98824140-0084-4982-92ea-b6a010d63074","ios":"levelo://app?vid=98824140-0084-4982-92ea-b6a010d63074"},"vehicle_type_id":"4","last_reported":1753283543,"current_range_meters":6400,"station_id":"ce4bh412rcd13ifvqds0","pricing_plan_id":"cebpf4jnsgd1na2vs0mg"},{"bike_id":"6676cc85-dc5e-47ad-9c5a-84e3628326f3","system_id":"levelo_inurba_marseille","lat":43.30524,"lon":5.38435,"is_reserved":false,"is_disabled":false,"rental_uris":{"android":"levelo://app?vid=6676cc85-dc5e-47ad-9c5a-84e3628326f3","ios":"levelo://app?vid=6676cc85-dc5e-47ad-9c5a-84e3628326f3"},"vehicle_type_id":"4","last_reported":1753283543,"current_range_meters":6400,"station_id":"ce4bgg92rcd13ifvqb30","pricing_plan_id":"cebpf4jnsgd1na2vs0mg"},{"bike_id":"f3ad7f3f-05ef-4976-a8bd-7743271afd02","system_id":"levelo_inurba_marseille","lat":43.23148,"lon":5.43721,"is_reserved":false,"is_disabled":false,"rental_uris":{"android":"levelo://app?vid=f3ad7f3f-05ef-4976-a8bd-7743271afd02","ios":"levelo://app?vid=f3ad7f3f-05ef-4976-a8bd-7743271afd02"},"vehicle_type_id":"4","last_reported":1753283543,"current_range_meters":6800,"station_id":"ce4bhmp2rcd13ifvqgog","pricing_plan_id":"cebpf4jnsgd1na2vs0mg"},{"bike_id":"83766871-d64f-4fc8-9d3b-2ceaf03b1036","system_id":"levelo_inurba_marseille","lat":43.21208,"lon":5.35061,"is_reserved":false,"is_disabled":false,"rental_uris":{"android":"levelo://app?vid=83766871-d64f-4fc8-9d3b-2ceaf03b1036","ios":"levelo://app?vid=83766871-d64f-4fc8-9d3b-2ceaf03b1036"},"vehicle_type_id":"4","last_reported":1753283543,"current_range_meters":6800,"station_id":"st_cvj6sg6p6f1abm77japg","pricing_plan_id":"cebpf4jnsgd1na2vs0mg"},{"bike_id":"8e0de611-381e-4033-aa29-6d83b246ca34","system_id":"levelo_inurba_marseille","lat":43.29567,"lon":5.37499,"is_reserved":false,"is_disabled":true,"rental_uris":{"android":"levelo://app?vid=8e0de611-381e-4033-aa29-6d83b246ca34","ios":"levelo://app?vid=8e0de611-381e-4033-aa29-6d83b246ca34"},"vehicle_type_id":"4","last_reported":1753283543,"current_range_meters":6800,"station_id":"ce4bgh92rcd13ifvqb50","pricing_plan_id":"cebpf4jnsgd1na2vs0mg"},{"bike_id":"b1dab757-9db1-4330-b99e-ef20d2024542","system_id":"levelo_inurba_marseille","lat":43.21187,"lon":5.35071,"is_reserved":false,"is_disabled":false,"rental_uris":{"android":"levelo://app?vid=b1dab757-9db1-4330-b99e-ef20d2024542","ios":"levelo://app?vid=b1dab757-9db1-4330-b99e-ef20d2024542"},"vehicle_type_id":"4","last_reported":1753283543,"current_range_meters":7200,"station_id":"st_cvj6sg6p6f1abm77japg","pricing_plan_id":"cebpf4jnsgd1na2vs0mg"},{"bike_id":"246a6d93-5b27-4179-91cd-5e53b4d6152d","system_id":"levelo_inurba_marseille","lat":43.29513,"lon":5.375102,"is_reserved":false,"is_disabled":false,"rental_uris":{"android":"levelo://app?vid=246a6d93-5b27-4179-91cd-5e53b4d6152d","ios":"levelo://app?vid=246a6d93-5b27-4179-91cd-5e53b4d6152d"},"vehicle_type_id":"4","last_reported":1753283543,"current_range_meters":7200,"station_id":"ce4bgkp2rcd13ifvqbmg","pricing_plan_id":"cebpf4jnsgd1na2vs0mg"},{"bike_id":"d7c0a6f2-a306-44a1-b277-dfd48906a28e","system_id":"levelo_inurba_marseille","lat":43.28936,"lon":5.36637,"is_reserved":false,"is_disabled":false,"rental_uris":{"android":"levelo://app?vid=d7c0a6f2-a306-44a1-b277-dfd48906a28e","ios":"levelo://app?vid=d7c0a6f2-a306-44a1-b277-dfd48906a28e"},"vehicle_type_id":"4","last_reported":1753283543,"current_range_meters":7200,"station_id":"ce4bhap2rcd13ifvqek0","pricing_plan_id":"cebpf4jnsgd1na2vs0mg"},{"bike_id":"ec0adf83-6184-4d63-a8bd-8a4c46331101","system_id":"levelo_inurba_marseille","lat":43.26069,"lon":5.39392,"is_reserved":false,"is_disabled":true,"rental_uris":{"android":"levelo://app?vid=ec0adf83-6184-4d63-a8bd-8a4c46331101","ios":"levelo://app?vid=ec0adf83-6184-4d63-a8bd-8a4c46331101"},"vehicle_type_id":"4","last_reported":1753283543,"current_range_meters":7200,"station_id":"ce4bhh92rcd13ifvqfj0","pricing_plan_id":"cebpf4jnsgd1na2vs0mg"},{"bike_id":"d2348285-4ebf-4e30-8841-8eebd86d7384","system_id":"levelo_inurba_marseille","lat":43.23538,"lon":5.36008,"is_reserved":false,"is_disabled":false,"rental_uris":{"android":"levelo://app?vid=d2348285-4ebf-4e30-8841-8eebd86d7384","ios":"levelo://app?vid=d2348285-4ebf-4e30-8841-8eebd86d7384"},"vehicle_type_id":"4","last_reported":1753283543,"current_range_meters":7200,"station_id":"","pricing_plan_id":"cebpf4jnsgd1na2vs0mg"},{"bike_id":"bd7a1645-738f-48c8-ab53-488da510e2e2","system_id":"levelo_inurba_marseille","lat":43.28477,"lon":5.38432,"is_reserved":false,"is_disabled":false,"rental_uris":{"android":"levelo://app?vid=bd7a1645-738f-48c8-ab53-488da510e2e2","ios":"levelo://app?vid=bd7a1645-738f-48c8-ab53-488da510e2e2"},"vehicle_type_id":"4","last_reported":1753283543,"current_range_meters":7200,"station_id":"ce4bh512rcd13ifvqe3g","pricing_plan_id":"cebpf4jnsgd1na2vs0mg"},{"bike_id":"125964e7-5e31-4fdf-972d-691d9c75737f","system_id":"levelo_inurba_marseille","lat":43.29568,"lon":5.42321,"is_reserved":false,"is_disabled":false,"rental_uris":{"android":"levelo://app?vid=125964e7-5e31-4fdf-972d-691d9c75737f","ios":"levelo://app?vid=125964e7-5e31-4fdf-972d-691d9c75737f"},"vehicle_type_id":"4","last_reported":1753283543,"current_range_meters":7200,"station_id":"ce4bhph2rcd13ifvqhdg","pricing_plan_id":"cebpf4jnsgd1na2vs0mg"},{"bike_id":"116252f9-434e-4a58-aeb5-653906f42362","system_id":"levelo_inurba_marseille","lat":43.293684,"lon":5.37854,"is_reserved":false,"is_disabled":false,"rental_uris":{"android":"levelo://app?vid=116252f9-434e-4a58-aeb5-653906f42362","ios":"levelo://app?vid=116252f9-434e-4a58-aeb5-653906f42362"},"vehicle_type_id":"4","last_reported":1753283543,"current_range_meters":7200,"station_id":"ce4bgjh2rcd13ifvqbf0","pricing_plan_id":"cebpf4jnsgd1na2vs0mg"},{"bike_id":"24633471-dfc3-4909-9dd8-a0a924dbc46d","system_id":"levelo_inurba_marseille","lat":43.29931,"lon":5.36552,"is_reserved":false,"is_disabled":false,"rental_uris":{"android":"levelo://app?vid=24633471-dfc3-4909-9dd8-a0a924dbc46d","ios":"levelo://app?vid=24633471-dfc3-4909-9dd8-a0a924dbc46d"},"vehicle_type_id":"4","last_reported":1753283543,"current_range_meters":8000,"station_id":"ce4bgm92rcd13ifvqbr0","pricing_plan_id":"cebpf4jnsgd1na2vs0mg"},{"bike_id":"de88c032-c770-443c-aff2-cb540348de91","system_id":"levelo_inurba_marseille","lat":43.28454,"lon":5.39191,"is_reserved":false,"is_disabled":false,"rental_uris":{"android":"levelo://app?vid=de88c032-c770-443c-aff2-cb540348de91","ios":"levelo://app?vid=de88c032-c770-443c-aff2-cb540348de91"},"vehicle_type_id":"4","last_reported":1753283543,"current_range_meters":7200,"station_id":"ce4bhoh2rcd13ifvqh5g","pricing_plan_id":"cebpf4jnsgd1na2vs0mg"},{"bike_id":"cda344ef-01ea-478f-ae78-0bfa84de69a7","system_id":"levelo_inurba_marseille","lat":43.28947,"lon":5.36409,"is_reserved":false,"is_disabled":false,"rental_uris":{"android":"levelo://app?vid=cda344ef-01ea-478f-ae78-0bfa84de69a7","ios":"levelo://app?vid=cda344ef-01ea-478f-ae78-0bfa84de69a7"},"vehicle_type_id":"4","last_reported":1753283543,"current_range_meters":8400,"station_id":"ce4bhc92rcd13ifvqetg","pricing_plan_id":"cebpf4jnsgd1na2vs0mg"},{"bike_id":"9ae7d50c-a3ea-4136-8080-315c191e000a","system_id":"levelo_inurba_marseille","lat":43.28735,"lon":5.38422,"is_reserved":false,"is_disabled":false,"rental_uris":{"android":"levelo://app?vid=9ae7d50c-a3ea-4136-8080-315c191e000a","ios":"levelo://app?vid=9ae7d50c-a3ea-4136-8080-315c191e000a"},"vehicle_type_id":"4","last_reported":1753283543,"current_range_meters":8400,"station_id":"","pricing_plan_id":"cebpf4jnsgd1na2vs0mg"},{"bike_id":"5eed9fa5-5444-4e01-9ca6-2f35add3d73a","system_id":"levelo_inurba_marseille","lat":43.30819,"lon":5.38143,"is_reserved":false,"is_disabled":true,"rental_uris":{"android":"levelo://app?vid=5eed9fa5-5444-4e01-9ca6-2f35add3d73a","ios":"levelo://app?vid=5eed9fa5-5444-4e01-9ca6-2f35add3d73a"},"vehicle_type_id":"4","last_reported":1753283543,"current_range_meters":8400,"station_id":"ce4bgt12rcd13ifvqce0","pricing_plan_id":"cebpf4jnsgd1na2vs0mg"},{"bike_id":"81f48beb-cba8-4a10-929a-d7834448108c","system_id":"levelo_inurba_marseille","lat":43.33263,"lon":5.399,"is_reserved":false,"is_disabled":false,"rental_uris":{"android":"levelo://app?vid=81f48beb-cba8-4a10-929a-d7834448108c","ios":"levelo://app?vid=81f48beb-cba8-4a10-929a-d7834448108c"},"vehicle_type_id":"4","last_reported":1753283543,"current_range_meters":8400,"station_id":"","pricing_plan_id":"cebpf4jnsgd1na2vs0mg"},{"bike_id":"e1a0fd87-39a3-42c5-a64d-3dd7b3a1941d","system_id":"levelo_inurba_marseille","lat":43.29747,"lon":5.37686,"is_reserved":false,"is_disabled":false,"rental_uris":{"android":"levelo://app?vid=e1a0fd87-39a3-42c5-a64d-3dd7b3a1941d","ios":"levelo://app?vid=e1a0fd87-39a3-42c5-a64d-3dd7b3a1941d"},"vehicle_type_id":"4","last_reported":1753283543,"current_range_meters":8400,"station_id":"ce4bgkh2rcd13ifvqbl0","pricing_plan_id":"cebpf4jnsgd1na2vs0mg"},{"bike_id":"5c8f418f-8fff-47bf-9b6d-58b8a3e50264","system_id":"levelo_inurba_marseille","lat":43.29571,"lon":5.37501,"is_reserved":false,"is_disabled":false,"rental_uris":{"android":"levelo://app?vid=5c8f418f-8fff-47bf-9b6d-58b8a3e50264","ios":"levelo://app?vid=5c8f418f-8fff-47bf-9b6d-58b8a3e50264"},"vehicle_type_id":"4","last_reported":1753283543,"current_range_meters":8800,"station_id":"ce4bgh92rcd13ifvqb50","pricing_plan_id":"cebpf4jnsgd1na2vs0mg"},{"bike_id":"0404844d-a577-4b66-a81a-62288fdbb44f","system_id":"levelo_inurba_marseille","lat":43.2798,"lon":5.38738,"is_reserved":false,"is_disabled":false,"rental_uris":{"android":"levelo://app?vid=0404844d-a577-4b66-a81a-62288fdbb44f","ios":"levelo://app?vid=0404844d-a577-4b66-a81a-62288fdbb44f"},"vehicle_type_id":"4","last_reported":1753283543,"current_range_meters":8800,"station_id":"ce4bhg12rcd13ifvqf80","pricing_plan_id":"cebpf4jnsgd1na2vs0mg"},{"bike_id":"a5f1f0d6-c678-45f4-9b29-96eaa29a3e36","system_id":"levelo_inurba_marseille","lat":43.25137,"lon":5.37334,"is_reserved":false,"is_disabled":true,"rental_uris":{"android":"levelo://app?vid=a5f1f0d6-c678-45f4-9b29-96eaa29a3e36","ios":"levelo://app?vid=a5f1f0d6-c678-45f4-9b29-96eaa29a3e36"},"vehicle_type_id":"4","last_reported":1753283543,"current_range_meters":8800,"station_id":"","pricing_plan_id":"cebpf4jnsgd1na2vs0mg"},{"bike_id":"f239c4bc-fd86-4a03-9bc3-b9d89d5ff89c","system_id":"levelo_inurba_marseille","lat":43.30155,"lon":5.38086,"is_reserved":false,"is_disabled":false,"rental_uris":{"android":"levelo://app?vid=f239c4bc-fd86-4a03-9bc3-b9d89d5ff89c","ios":"levelo://app?vid=f239c4bc-fd86-4a03-9bc3-b9d89d5ff89c"},"vehicle_type_id":"4","last_reported":1753283543,"current_range_meters":9200,"station_id":"ce4bgjp2rcd13ifvqbh0","pricing_plan_id":"cebpf4jnsgd1na2vs0mg"},{"bike_id":"74e393ed-6ce4-456d-a8c9-fc0d8b1a6071","system_id":"levelo_inurba_marseille","lat":43.2706,"lon":5.40262,"is_reserved":false,"is_disabled":false,"rental_uris":{"android":"levelo://app?vid=74e393ed-6ce4-456d-a8c9-fc0d8b1a6071","ios":"levelo://app?vid=74e393ed-6ce4-456d-a8c9-fc0d8b1a6071"},"vehicle_type_id":"4","last_reported":1753283543,"current_range_meters":9200,"station_id":"ce4bhk92rcd13ifvqgc0","pricing_plan_id":"cebpf4jnsgd1na2vs0mg"},{"bike_id":"e4761578-ae86-4dfa-b146-0428e5d8cca7","system_id":"levelo_inurba_marseille","lat":43.24172,"lon":5.36419,"is_reserved":false,"is_disabled":true,"rental_uris":{"android":"levelo://app?vid=e4761578-ae86-4dfa-b146-0428e5d8cca7","ios":"levelo://app?vid=e4761578-ae86-4dfa-b146-0428e5d8cca7"},"vehicle_type_id":"4","last_reported":1753283543,"current_range_meters":9600,"station_id":"cpo36qri1sfpv3e86is0","pricing_plan_id":"cebpf4jnsgd1na2vs0mg"},{"bike_id":"2a80872e-7e5b-4008-9d0d-d9849fbdaad9","system_id":"levelo_inurba_marseille","lat":43.29269,"lon":5.38447,"is_reserved":false,"is_disabled":false,"rental_uris":{"android":"levelo://app?vid=2a80872e-7e5b-4008-9d0d-d9849fbdaad9","ios":"levelo://app?vid=2a80872e-7e5b-4008-9d0d-d9849fbdaad9"},"vehicle_type_id":"4","last_reported":1753283543,"current_range_meters":9600,"station_id":"ce4bh692rcd13ifvqea0","pricing_plan_id":"cebpf4jnsgd1na2vs0mg"},{"bike_id":"f09179f1-7b3c-48ae-b397-692a1f6eeb87","system_id":"levelo_inurba_marseille","lat":43.27966,"lon":5.41035,"is_reserved":false,"is_disabled":false,"rental_uris":{"android":"levelo://app?vid=f09179f1-7b3c-48ae-b397-692a1f6eeb87","ios":"levelo://app?vid=f09179f1-7b3c-48ae-b397-692a1f6eeb87"},"vehicle_type_id":"4","last_reported":1753283543,"current_range_meters":9600,"station_id":"ce4bhnp2rcd13ifvqh0g","pricing_plan_id":"cebpf4jnsgd1na2vs0mg"},{"bike_id":"ee140c9e-d375-46df-a0b9-4b16f5ec3762","system_id":"levelo_inurba_marseille","lat":43.32362,"lon":5.36764,"is_reserved":false,"is_disabled":false,"rental_uris":{"android":"levelo://app?vid=ee140c9e-d375-46df-a0b9-4b16f5ec3762","ios":"levelo://app?vid=ee140c9e-d375-46df-a0b9-4b16f5ec3762"},"vehicle_type_id":"4","last_reported":1753283543,"current_range_meters":9600,"station_id":"ce4bhsh2rcd13ifvqi2g","pricing_plan_id":"cebpf4jnsgd1na2vs0mg"},{"bike_id":"3c21b9e1-b296-4844-a6d5-b8d19c7f36c9","system_id":"levelo_inurba_marseille","lat":43.2919,"lon":5.38447,"is_reserved":false,"is_disabled":false,"rental_uris":{"android":"levelo://app?vid=3c21b9e1-b296-4844-a6d5-b8d19c7f36c9","ios":"levelo://app?vid=3c21b9e1-b296-4844-a6d5-b8d19c7f36c9"},"vehicle_type_id":"4","last_reported":1753283543,"current_range_meters":9600,"station_id":"","pricing_plan_id":"cebpf4jnsgd1na2vs0mg"},{"bike_id":"aa5097b6-6968-4aec-b711-e7780938924b","system_id":"levelo_inurba_marseille","lat":43.32958,"lon":5.35899,"is_reserved":false,"is_disabled":false,"rental_uris":{"android":"levelo://app?vid=aa5097b6-6968-4aec-b711-e7780938924b","ios":"levelo://app?vid=aa5097b6-6968-4aec-b711-e7780938924b"},"vehicle_type_id":"4","last_reported":1753283543,"current_range_meters":9600,"station_id":"","pricing_plan_id":"cebpf4jnsgd1na2vs0mg"},{"bike_id":"c9dbd36b-479c-4a5c-b200-3aa7673340d9","system_id":"levelo_inurba_marseille","lat":43.241448,"lon":5.363743,"is_reserved":false,"is_disabled":true,"rental_uris":{"android":"levelo://app?vid=c9dbd36b-479c-4a5c-b200-3aa7673340d9","ios":"levelo://app?vid=c9dbd36b-479c-4a5c-b200-3aa7673340d9"},"vehicle_type_id":"4","last_reported":1753283543,"current_range_meters":10000,"station_id":"","pricing_plan_id":"cebpf4jnsgd1na2vs0mg"},{"bike_id":"eb10a168-f272-4ccc-83f2-aa9341f541ad","system_id":"levelo_inurba_marseille","lat":43.30315,"lon":5.40447,"is_reserved":false,"is_disabled":false,"rental_uris":{"android":"levelo://app?vid=eb10a168-f272-4ccc-83f2-aa9341f541ad","ios":"levelo://app?vid=eb10a168-f272-4ccc-83f2-aa9341f541ad"},"vehicle_type_id":"4","last_reported":1753283543,"current_range_meters":10000,"station_id":"ce4bh012rcd13ifvqd10","pricing_plan_id":"cebpf4jnsgd1na2vs0mg"},{"bike_id":"baca8154-7e82-4bd8-a0cb-6a4d79f767f0","system_id":"levelo_inurba_marseille","lat":43.29058,"lon":5.3717,"is_reserved":false,"is_disabled":false,"rental_uris":{"android":"levelo://app?vid=baca8154-7e82-4bd8-a0cb-6a4d79f767f0","ios":"levelo://app?vid=baca8154-7e82-4bd8-a0cb-6a4d79f767f0"},"vehicle_type_id":"4","last_reported":1753283543,"current_range_meters":10000,"station_id":"ce4bgh92rcd13ifvqb40","pricing_plan_id":"cebpf4jnsgd1na2vs0mg"},{"bike_id":"7a10bb17-bba6-4099-a515-71b68b3217b5","system_id":"levelo_inurba_marseille","lat":43.23973,"lon":5.36592,"is_reserved":false,"is_disabled":true,"rental_uris":{"android":"levelo://app?vid=7a10bb17-bba6-4099-a515-71b68b3217b5","ios":"levelo://app?vid=7a10bb17-bba6-4099-a515-71b68b3217b5"},"vehicle_type_id":"4","last_reported":1753283543,"current_range_meters":10000,"station_id":"ce4bhi12rcd13ifvqfp0","pricing_plan_id":"cebpf4jnsgd1na2vs0mg"},{"bike_id":"8ad9373f-1e64-4e47-a7d7-1142480c28ef","system_id":"levelo_inurba_marseille","lat":43.27066,"lon":5.42264,"is_reserved":false,"is_disabled":false,"rental_uris":{"android":"levelo://app?vid=8ad9373f-1e64-4e47-a7d7-1142480c28ef","ios":"levelo://app?vid=8ad9373f-1e64-4e47-a7d7-1142480c28ef"},"vehicle_type_id":"4","last_reported":1753283543,"current_range_meters":10800,"station_id":"ce4bhk92rcd13ifvqgb0","pricing_plan_id":"cebpf4jnsgd1na2vs0mg"},{"bike_id":"ba1fdaeb-f713-4a97-852d-7ed6e7385b60","system_id":"levelo_inurba_marseille","lat":43.23968,"lon":5.36629,"is_reserved":false,"is_disabled":false,"rental_uris":{"android":"levelo://app?vid=ba1fdaeb-f713-4a97-852d-7ed6e7385b60","ios":"levelo://app?vid=ba1fdaeb-f713-4a97-852d-7ed6e7385b60"},"vehicle_type_id":"4","last_reported":1753283543,"current_range_meters":10800,"station_id":"ce4bhi12rcd13ifvqfp0","pricing_plan_id":"cebpf4jnsgd1na2vs0mg"},{"bike_id":"39c3499e-3189-4c51-ac00-2a8303740d88","system_id":"levelo_inurba_marseille","lat":43.2943,"lon":5.39752,"is_reserved":false,"is_disabled":false,"rental_uris":{"android":"levelo://app?vid=39c3499e-3189-4c51-ac00-2a8303740d88","ios":"levelo://app?vid=39c3499e-3189-4c51-ac00-2a8303740d88"},"vehicle_type_id":"4","last_reported":1753283543,"current_range_meters":10000,"station_id":"ce4bh3h2rcd13ifvqdo0","pricing_plan_id":"cebpf4jnsgd1na2vs0mg"},{"bike_id":"4446b800-0b9c-460e-8bfa-18c7d3d08f97","system_id":"levelo_inurba_marseille","lat":43.28938,"lon":5.36634,"is_reserved":false,"is_disabled":false,"rental_uris":{"android":"levelo://app?vid=4446b800-0b9c-460e-8bfa-18c7d3d08f97","ios":"levelo://app?vid=4446b800-0b9c-460e-8bfa-18c7d3d08f97"},"vehicle_type_id":"4","last_reported":1753283543,"current_range_meters":11200,"station_id":"ce4bhap2rcd13ifvqek0","pricing_plan_id":"cebpf4jnsgd1na2vs0mg"},{"bike_id":"a0a0482f-75fd-47fc-afb3-628b031f2c7f","system_id":"levelo_inurba_marseille","lat":43.24652,"lon":5.38898,"is_reserved":false,"is_disabled":false,"rental_uris":{"android":"levelo://app?vid=a0a0482f-75fd-47fc-afb3-628b031f2c7f","ios":"levelo://app?vid=a0a0482f-75fd-47fc-afb3-628b031f2c7f"},"vehicle_type_id":"4","last_reported":1753283543,"current_range_meters":11200,"station_id":"ce4bhg12rcd13ifvqf60","pricing_plan_id":"cebpf4jnsgd1na2vs0mg"},{"bike_id":"9392933d-844f-47d8-a706-cd2961451cec","system_id":"levelo_inurba_marseille","lat":43.216565,"lon":5.345999,"is_reserved":false,"is_disabled":false,"rental_uris":{"android":"levelo://app?vid=9392933d-844f-47d8-a706-cd2961451cec","ios":"levelo://app?vid=9392933d-844f-47d8-a706-cd2961451cec"},"vehicle_type_id":"4","last_reported":1753283543,"current_range_meters":11200,"station_id":"st_cvj6r9ubvosntc0bgbag","pricing_plan_id":"cebpf4jnsgd1na2vs0mg"},{"bike_id":"3290632a-984a-44ca-932b-f59292c19eda","system_id":"levelo_inurba_marseille","lat":43.27377,"lon":5.36251,"is_reserved":false,"is_disabled":false,"rental_uris":{"android":"levelo://app?vid=3290632a-984a-44ca-932b-f59292c19eda","ios":"levelo://app?vid=3290632a-984a-44ca-932b-f59292c19eda"},"vehicle_type_id":"4","last_reported":1753283543,"current_range_meters":11600,"station_id":"ce4bhbh2rcd13ifvqeo0","pricing_plan_id":"cebpf4jnsgd1na2vs0mg"},{"bike_id":"73f6cc2d-4cd1-46e9-94bc-8e320196d150","system_id":"levelo_inurba_marseille","lat":43.29438,"lon":5.39763,"is_reserved":false,"is_disabled":false,"rental_uris":{"android":"levelo://app?vid=73f6cc2d-4cd1-46e9-94bc-8e320196d150","ios":"levelo://app?vid=73f6cc2d-4cd1-46e9-94bc-8e320196d150"},"vehicle_type_id":"4","last_reported":1753283543,"current_range_meters":11600,"station_id":"ce4bh3h2rcd13ifvqdo0","pricing_plan_id":"cebpf4jnsgd1na2vs0mg"},{"bike_id":"b5ebf779-b851-43be-98cb-d41f4966fc6c","system_id":"levelo_inurba_marseille","lat":43.296921,"lon":5.379285,"is_reserved":false,"is_disabled":false,"rental_uris":{"android":"levelo://app?vid=b5ebf779-b851-43be-98cb-d41f4966fc6c","ios":"levelo://app?vid=b5ebf779-b851-43be-98cb-d41f4966fc6c"},"vehicle_type_id":"4","last_reported":1753283543,"current_range_meters":11200,"station_id":"ce4bgup2rcd13ifvqco0","pricing_plan_id":"cebpf4jnsgd1na2vs0mg"},{"bike_id":"b83bc0c6-f051-4634-b4ca-eaf2f7b36a44","system_id":"levelo_inurba_marseille","lat":43.28155,"lon":5.4264,"is_reserved":false,"is_disabled":false,"rental_uris":{"android":"levelo://app?vid=b83bc0c6-f051-4634-b4ca-eaf2f7b36a44","ios":"levelo://app?vid=b83bc0c6-f051-4634-b4ca-eaf2f7b36a44"},"vehicle_type_id":"4","last_reported":1753283543,"current_range_meters":11600,"station_id":"ce4bhnh2rcd13ifvqgug","pricing_plan_id":"cebpf4jnsgd1na2vs0mg"},{"bike_id":"0ea7a10a-9a1f-48d6-ba0c-cd300cee1999","system_id":"levelo_inurba_marseille","lat":43.27074,"lon":5.42269,"is_reserved":false,"is_disabled":false,"rental_uris":{"android":"levelo://app?vid=0ea7a10a-9a1f-48d6-ba0c-cd300cee1999","ios":"levelo://app?vid=0ea7a10a-9a1f-48d6-ba0c-cd300cee1999"},"vehicle_type_id":"4","last_reported":1753283543,"current_range_meters":11600,"station_id":"ce4bhk92rcd13ifvqgb0","pricing_plan_id":"cebpf4jnsgd1na2vs0mg"},{"bike_id":"7f63f9a0-7ea4-40f1-844d-1425837a99f2","system_id":"levelo_inurba_marseille","lat":43.296464,"lon":5.380221,"is_reserved":false,"is_disabled":false,"rental_uris":{"android":"levelo://app?vid=7f63f9a0-7ea4-40f1-844d-1425837a99f2","ios":"levelo://app?vid=7f63f9a0-7ea4-40f1-844d-1425837a99f2"},"vehicle_type_id":"4","last_reported":1753283543,"current_range_meters":12000,"station_id":"","pricing_plan_id":"cebpf4jnsgd1na2vs0mg"},{"bike_id":"391099e0-7ca1-42c2-82cf-6cd665f9fa4c","system_id":"levelo_inurba_marseille","lat":43.23153,"lon":5.43715,"is_reserved":false,"is_disabled":false,"rental_uris":{"android":"levelo://app?vid=391099e0-7ca1-42c2-82cf-6cd665f9fa4c","ios":"levelo://app?vid=391099e0-7ca1-42c2-82cf-6cd665f9fa4c"},"vehicle_type_id":"4","last_reported":1753283543,"current_range_meters":11600,"station_id":"ce4bhmp2rcd13ifvqgog","pricing_plan_id":"cebpf4jnsgd1na2vs0mg"},{"bike_id":"f9062784-0417-4840-bb15-81c56a64826f","system_id":"levelo_inurba_marseille","lat":43.22504,"lon":5.3478,"is_reserved":false,"is_disabled":false,"rental_uris":{"android":"levelo://app?vid=f9062784-0417-4840-bb15-81c56a64826f","ios":"levelo://app?vid=f9062784-0417-4840-bb15-81c56a64826f"},"vehicle_type_id":"4","last_reported":1753283543,"current_range_meters":12000,"station_id":"","pricing_plan_id":"cebpf4jnsgd1na2vs0mg"},{"bike_id":"63673fc6-be42-409f-bb9f-0cca6053dfaf","system_id":"levelo_inurba_marseille","lat":43.33026,"lon":5.3904,"is_reserved":false,"is_disabled":false,"rental_uris":{"android":"levelo://app?vid=63673fc6-be42-409f-bb9f-0cca6053dfaf","ios":"levelo://app?vid=63673fc6-be42-409f-bb9f-0cca6053dfaf"},"vehicle_type_id":"4","last_reported":1753283543,"current_range_meters":12000,"station_id":"ce4bhr92rcd13ifvqhrg","pricing_plan_id":"cebpf4jnsgd1na2vs0mg"},{"bike_id":"6dac881b-4249-426b-84b1-8c930a6dbf8a","system_id":"levelo_inurba_marseille","lat":43.29197,"lon":5.35807,"is_reserved":false,"is_disabled":false,"rental_uris":{"android":"levelo://app?vid=6dac881b-4249-426b-84b1-8c930a6dbf8a","ios":"levelo://app?vid=6dac881b-4249-426b-84b1-8c930a6dbf8a"},"vehicle_type_id":"4","last_reported":1753283543,"current_range_meters":12000,"station_id":"ce4bhb12rcd13ifvqel0","pricing_plan_id":"cebpf4jnsgd1na2vs0mg"},{"bike_id":"c3b4c842-89f1-49ff-abb9-fc4b30df4519","system_id":"levelo_inurba_marseille","lat":43.2557,"lon":5.38224,"is_reserved":false,"is_disabled":false,"rental_uris":{"android":"levelo://app?vid=c3b4c842-89f1-49ff-abb9-fc4b30df4519","ios":"levelo://app?vid=c3b4c842-89f1-49ff-abb9-fc4b30df4519"},"vehicle_type_id":"4","last_reported":1753283543,"current_range_meters":12000,"station_id":"ce4bhih2rcd13ifvqfs0","pricing_plan_id":"cebpf4jnsgd1na2vs0mg"},{"bike_id":"3adf0811-c876-4b39-8637-3a0ad86842f0","system_id":"levelo_inurba_marseille","lat":43.286711,"lon":5.386669,"is_reserved":false,"is_disabled":false,"rental_uris":{"android":"levelo://app?vid=3adf0811-c876-4b39-8637-3a0ad86842f0","ios":"levelo://app?vid=3adf0811-c876-4b39-8637-3a0ad86842f0"},"vehicle_type_id":"4","last_reported":1753283543,"current_range_meters":12000,"station_id":"ce4bh492rcd13ifvqdug","pricing_plan_id":"cebpf4jnsgd1na2vs0mg"},{"bike_id":"2f3ebf0a-62bd-4c79-92ad-36ec6f1eda53","system_id":"levelo_inurba_marseille","lat":43.30888,"lon":5.37202,"is_reserved":false,"is_disabled":false,"rental_uris":{"android":"levelo://app?vid=2f3ebf0a-62bd-4c79-92ad-36ec6f1eda53","ios":"levelo://app?vid=2f3ebf0a-62bd-4c79-92ad-36ec6f1eda53"},"vehicle_type_id":"4","last_reported":1753283543,"current_range_meters":11600,"station_id":"ce4bguh2rcd13ifvqckg","pricing_plan_id":"cebpf4jnsgd1na2vs0mg"},{"bike_id":"4363800f-1e1b-4fc1-a6c1-6a1af720d432","system_id":"levelo_inurba_marseille","lat":43.254998,"lon":5.376512,"is_reserved":false,"is_disabled":false,"rental_uris":{"android":"levelo://app?vid=4363800f-1e1b-4fc1-a6c1-6a1af720d432","ios":"levelo://app?vid=4363800f-1e1b-4fc1-a6c1-6a1af720d432"},"vehicle_type_id":"4","last_reported":1753283543,"current_range_meters":12000,"station_id":"ce4bhh12rcd13ifvqff0","pricing_plan_id":"cebpf4jnsgd1na2vs0mg"},{"bike_id":"ec15ad8a-0ea3-4f63-83be-f6aec521d9e5","system_id":"levelo_inurba_marseille","lat":43.27955,"lon":5.41036,"is_reserved":false,"is_disabled":false,"rental_uris":{"android":"levelo://app?vid=ec15ad8a-0ea3-4f63-83be-f6aec521d9e5","ios":"levelo://app?vid=ec15ad8a-0ea3-4f63-83be-f6aec521d9e5"},"vehicle_type_id":"4","last_reported":1753283543,"current_range_meters":12000,"station_id":"ce4bhnp2rcd13ifvqh0g","pricing_plan_id":"cebpf4jnsgd1na2vs0mg"},{"bike_id":"d12805d7-1662-4dbb-9a04-c031f34d470a","system_id":"levelo_inurba_marseille","lat":43.30603,"lon":5.37224,"is_reserved":false,"is_disabled":false,"rental_uris":{"android":"levelo://app?vid=d12805d7-1662-4dbb-9a04-c031f34d470a","ios":"levelo://app?vid=d12805d7-1662-4dbb-9a04-c031f34d470a"},"vehicle_type_id":"4","last_reported":1753283543,"current_range_meters":12400,"station_id":"ce4bgqh2rcd13ifvqc4g","pricing_plan_id":"cebpf4jnsgd1na2vs0mg"},{"bike_id":"d761a512-fae7-4f23-b7d5-be03154ef2b3","system_id":"levelo_inurba_marseille","lat":43.281442,"lon":5.402628,"is_reserved":false,"is_disabled":false,"rental_uris":{"android":"levelo://app?vid=d761a512-fae7-4f23-b7d5-be03154ef2b3","ios":"levelo://app?vid=d761a512-fae7-4f23-b7d5-be03154ef2b3"},"vehicle_type_id":"4","last_reported":1753283543,"current_range_meters":12400,"station_id":"ce4bho12rcd13ifvqh2g","pricing_plan_id":"cebpf4jnsgd1na2vs0mg"},{"bike_id":"01a20f23-350a-4138-8c69-aaec4b110b02","system_id":"levelo_inurba_marseille","lat":43.31487,"lon":5.37304,"is_reserved":false,"is_disabled":false,"rental_uris":{"android":"levelo://app?vid=01a20f23-350a-4138-8c69-aaec4b110b02","ios":"levelo://app?vid=01a20f23-350a-4138-8c69-aaec4b110b02"},"vehicle_type_id":"4","last_reported":1753283543,"current_range_meters":12400,"station_id":"ce4bgt12rcd13ifvqcd0","pricing_plan_id":"cebpf4jnsgd1na2vs0mg"},{"bike_id":"91d191f9-2f66-4874-a4b3-aee1b7b96113","system_id":"levelo_inurba_marseille","lat":43.2926,"lon":5.37643,"is_reserved":false,"is_disabled":false,"rental_uris":{"android":"levelo://app?vid=91d191f9-2f66-4874-a4b3-aee1b7b96113","ios":"levelo://app?vid=91d191f9-2f66-4874-a4b3-aee1b7b96113"},"vehicle_type_id":"4","last_reported":1753283543,"current_range_meters":12400,"station_id":"ce4bgi12rcd13ifvqb80","pricing_plan_id":"cebpf4jnsgd1na2vs0mg"},{"bike_id":"cc926983-7496-48df-9677-b8723ddc96b9","system_id":"levelo_inurba_marseille","lat":43.22936,"lon":5.35378,"is_reserved":false,"is_disabled":false,"rental_uris":{"android":"levelo://app?vid=cc926983-7496-48df-9677-b8723ddc96b9","ios":"levelo://app?vid=cc926983-7496-48df-9677-b8723ddc96b9"},"vehicle_type_id":"4","last_reported":1753283543,"current_range_meters":12800,"station_id":"cpo3532slgdg3j2ikp40","pricing_plan_id":"cebpf4jnsgd1na2vs0mg"},{"bike_id":"db4f7d16-4447-4752-b9fa-314b60a317e8","system_id":"levelo_inurba_marseille","lat":43.29897,"lon":5.37929,"is_reserved":false,"is_disabled":false,"rental_uris":{"android":"levelo://app?vid=db4f7d16-4447-4752-b9fa-314b60a317e8","ios":"levelo://app?vid=db4f7d16-4447-4752-b9fa-314b60a317e8"},"vehicle_type_id":"4","last_reported":1753283543,"current_range_meters":12800,"station_id":"","pricing_plan_id":"cebpf4jnsgd1na2vs0mg"},{"bike_id":"9f0b9377-833a-4674-acf0-0d82eccc6199","system_id":"levelo_inurba_marseille","lat":43.25493,"lon":5.37649,"is_reserved":false,"is_disabled":false,"rental_uris":{"android":"levelo://app?vid=9f0b9377-833a-4674-acf0-0d82eccc6199","ios":"levelo://app?vid=9f0b9377-833a-4674-acf0-0d82eccc6199"},"vehicle_type_id":"4","last_reported":1753283543,"current_range_meters":12800,"station_id":"ce4bhh12rcd13ifvqff0","pricing_plan_id":"cebpf4jnsgd1na2vs0mg"},{"bike_id":"5ea636b6-7db1-45f7-ab7b-2f73f0e49681","system_id":"levelo_inurba_marseille","lat":43.21192,"lon":5.35074,"is_reserved":false,"is_disabled":false,"rental_uris":{"android":"levelo://app?vid=5ea636b6-7db1-45f7-ab7b-2f73f0e49681","ios":"levelo://app?vid=5ea636b6-7db1-45f7-ab7b-2f73f0e49681"},"vehicle_type_id":"4","last_reported":1753283543,"current_range_meters":12800,"station_id":"st_cvj6sg6p6f1abm77japg","pricing_plan_id":"cebpf4jnsgd1na2vs0mg"},{"bike_id":"b02bc6ac-b338-4c06-9c01-be1a89ac67c7","system_id":"levelo_inurba_marseille","lat":43.31355,"lon":5.36717,"is_reserved":false,"is_disabled":false,"rental_uris":{"android":"levelo://app?vid=b02bc6ac-b338-4c06-9c01-be1a89ac67c7","ios":"levelo://app?vid=b02bc6ac-b338-4c06-9c01-be1a89ac67c7"},"vehicle_type_id":"4","last_reported":1753283543,"current_range_meters":13600,"station_id":"ce4bgr92rcd13ifvqc6g","pricing_plan_id":"cebpf4jnsgd1na2vs0mg"},{"bike_id":"bd4053fb-a507-47f8-b050-a61dab05872e","system_id":"levelo_inurba_marseille","lat":43.25585,"lon":5.38223,"is_reserved":false,"is_disabled":false,"rental_uris":{"android":"levelo://app?vid=bd4053fb-a507-47f8-b050-a61dab05872e","ios":"levelo://app?vid=bd4053fb-a507-47f8-b050-a61dab05872e"},"vehicle_type_id":"4","last_reported":1753283543,"current_range_meters":13600,"station_id":"ce4bhih2rcd13ifvqfs0","pricing_plan_id":"cebpf4jnsgd1na2vs0mg"},{"bike_id":"bd40ea35-b7fe-4790-b07a-e882f844f378","system_id":"levelo_inurba_marseille","lat":43.29969,"lon":5.3849,"is_reserved":false,"is_disabled":false,"rental_uris":{"android":"levelo://app?vid=bd40ea35-b7fe-4790-b07a-e882f844f378","ios":"levelo://app?vid=bd40ea35-b7fe-4790-b07a-e882f844f378"},"vehicle_type_id":"4","last_reported":1753283543,"current_range_meters":13600,"station_id":"ce4bgj92rcd13ifvqbd0","pricing_plan_id":"cebpf4jnsgd1na2vs0mg"},{"bike_id":"7043ffc1-f009-4a11-9535-d686f966e0f8","system_id":"levelo_inurba_marseille","lat":43.28284,"lon":5.35084,"is_reserved":false,"is_disabled":false,"rental_uris":{"android":"levelo://app?vid=7043ffc1-f009-4a11-9535-d686f966e0f8","ios":"levelo://app?vid=7043ffc1-f009-4a11-9535-d686f966e0f8"},"vehicle_type_id":"4","last_reported":1753283543,"current_range_meters":13600,"station_id":"ce4bhbp2rcd13ifvqerg","pricing_plan_id":"cebpf4jnsgd1na2vs0mg"},{"bike_id":"a0a70710-c376-4e22-b5f7-a1fdebe529c4","system_id":"levelo_inurba_marseille","lat":43.28936,"lon":5.38406,"is_reserved":false,"is_disabled":false,"rental_uris":{"android":"levelo://app?vid=a0a70710-c376-4e22-b5f7-a1fdebe529c4","ios":"levelo://app?vid=a0a70710-c376-4e22-b5f7-a1fdebe529c4"},"vehicle_type_id":"4","last_reported":1753283543,"current_range_meters":13600,"station_id":"ce4bh612rcd13ifvqe6g","pricing_plan_id":"cebpf4jnsgd1na2vs0mg"},{"bike_id":"59e37f8d-feb2-4b60-a502-882f2bb6a41a","system_id":"levelo_inurba_marseille","lat":43.24807,"lon":5.37456,"is_reserved":false,"is_disabled":false,"rental_uris":{"android":"levelo://app?vid=59e37f8d-feb2-4b60-a502-882f2bb6a41a","ios":"levelo://app?vid=59e37f8d-feb2-4b60-a502-882f2bb6a41a"},"vehicle_type_id":"4","last_reported":1753283543,"current_range_meters":13600,"station_id":"ce4bhgh2rcd13ifvqfb0","pricing_plan_id":"cebpf4jnsgd1na2vs0mg"},{"bike_id":"93d25330-b3c3-49a3-a675-36fb38b4a8dd","system_id":"levelo_inurba_marseille","lat":43.288758,"lon":5.359495,"is_reserved":false,"is_disabled":false,"rental_uris":{"android":"levelo://app?vid=93d25330-b3c3-49a3-a675-36fb38b4a8dd","ios":"levelo://app?vid=93d25330-b3c3-49a3-a675-36fb38b4a8dd"},"vehicle_type_id":"4","last_reported":1753283543,"current_range_meters":13600,"station_id":"ce4bha92rcd13ifvqeg0","pricing_plan_id":"cebpf4jnsgd1na2vs0mg"},{"bike_id":"bbc2b271-396f-4875-9f1d-0fcc163d87b6","system_id":"levelo_inurba_marseille","lat":43.29047,"lon":5.39891,"is_reserved":false,"is_disabled":false,"rental_uris":{"android":"levelo://app?vid=bbc2b271-396f-4875-9f1d-0fcc163d87b6","ios":"levelo://app?vid=bbc2b271-396f-4875-9f1d-0fcc163d87b6"},"vehicle_type_id":"4","last_reported":1753283543,"current_range_meters":14000,"station_id":"","pricing_plan_id":"cebpf4jnsgd1na2vs0mg"},{"bike_id":"4b28725f-bff9-4cc6-84c0-18e38f9b9609","system_id":"levelo_inurba_marseille","lat":43.25869,"lon":5.39896,"is_reserved":false,"is_disabled":false,"rental_uris":{"android":"levelo://app?vid=4b28725f-bff9-4cc6-84c0-18e38f9b9609","ios":"levelo://app?vid=4b28725f-bff9-4cc6-84c0-18e38f9b9609"},"vehicle_type_id":"4","last_reported":1753283543,"current_range_meters":14000,"station_id":"ce4bhl92rcd13ifvqghg","pricing_plan_id":"cebpf4jnsgd1na2vs0mg"},{"bike_id":"b147d87d-ad6b-4ee0-89e1-f2e85a2edd30","system_id":"levelo_inurba_marseille","lat":43.32123,"lon":5.36775,"is_reserved":false,"is_disabled":false,"rental_uris":{"android":"levelo://app?vid=b147d87d-ad6b-4ee0-89e1-f2e85a2edd30","ios":"levelo://app?vid=b147d87d-ad6b-4ee0-89e1-f2e85a2edd30"},"vehicle_type_id":"4","last_reported":1753283543,"current_range_meters":14000,"station_id":"ce4bhrh2rcd13ifvqhug","pricing_plan_id":"cebpf4jnsgd1na2vs0mg"},{"bike_id":"a9758b99-efca-483c-81a9-9a7b5ddae7e6","system_id":"levelo_inurba_marseille","lat":43.24183,"lon":5.39726,"is_reserved":false,"is_disabled":false,"rental_uris":{"android":"levelo://app?vid=a9758b99-efca-483c-81a9-9a7b5ddae7e6","ios":"levelo://app?vid=a9758b99-efca-483c-81a9-9a7b5ddae7e6"},"vehicle_type_id":"4","last_reported":1753283543,"current_range_meters":14400,"station_id":"ce4bhn12rcd13ifvqgpg","pricing_plan_id":"cebpf4jnsgd1na2vs0mg"},{"bike_id":"3c8c8450-a767-4a89-b895-39c7e1d469a3","system_id":"levelo_inurba_marseille","lat":43.25501,"lon":5.37646,"is_reserved":false,"is_disabled":false,"rental_uris":{"android":"levelo://app?vid=3c8c8450-a767-4a89-b895-39c7e1d469a3","ios":"levelo://app?vid=3c8c8450-a767-4a89-b895-39c7e1d469a3"},"vehicle_type_id":"4","last_reported":1753283543,"current_range_meters":14400,"station_id":"ce4bhh12rcd13ifvqff0","pricing_plan_id":"cebpf4jnsgd1na2vs0mg"},{"bike_id":"830e678a-f1a4-4258-89a4-9be4db5634b0","system_id":"levelo_inurba_marseille","lat":43.282653,"lon":5.35068,"is_reserved":false,"is_disabled":false,"rental_uris":{"android":"levelo://app?vid=830e678a-f1a4-4258-89a4-9be4db5634b0","ios":"levelo://app?vid=830e678a-f1a4-4258-89a4-9be4db5634b0"},"vehicle_type_id":"4","last_reported":1753283543,"current_range_meters":14400,"station_id":"ce4bhbp2rcd13ifvqerg","pricing_plan_id":"cebpf4jnsgd1na2vs0mg"},{"bike_id":"4ab27091-1662-4811-87b9-a886b076324d","system_id":"levelo_inurba_marseille","lat":43.32482,"lon":5.36552,"is_reserved":false,"is_disabled":false,"rental_uris":{"android":"levelo://app?vid=4ab27091-1662-4811-87b9-a886b076324d","ios":"levelo://app?vid=4ab27091-1662-4811-87b9-a886b076324d"},"vehicle_type_id":"4","last_reported":1753283543,"current_range_meters":14800,"station_id":"ce4bhs12rcd13ifvqhvg","pricing_plan_id":"cebpf4jnsgd1na2vs0mg"},{"bike_id":"541e3f7a-640b-4d8c-977d-949ca2a087ab","system_id":"levelo_inurba_marseille","lat":43.30796,"lon":5.379577,"is_reserved":false,"is_disabled":true,"rental_uris":{"android":"levelo://app?vid=541e3f7a-640b-4d8c-977d-949ca2a087ab","ios":"levelo://app?vid=541e3f7a-640b-4d8c-977d-949ca2a087ab"},"vehicle_type_id":"4","last_reported":1753283543,"current_range_meters":14800,"station_id":"ce4bgt12rcd13ifvqce0","pricing_plan_id":"cebpf4jnsgd1na2vs0mg"},{"bike_id":"f6561103-efbc-4b01-ab6d-c91474ab8e7d","system_id":"levelo_inurba_marseille","lat":43.29847,"lon":5.36276,"is_reserved":false,"is_disabled":false,"rental_uris":{"android":"levelo://app?vid=f6561103-efbc-4b01-ab6d-c91474ab8e7d","ios":"levelo://app?vid=f6561103-efbc-4b01-ab6d-c91474ab8e7d"},"vehicle_type_id":"4","last_reported":1753283543,"current_range_meters":15200,"station_id":"ce4bgpp2rcd13ifvqc3g","pricing_plan_id":"cebpf4jnsgd1na2vs0mg"},{"bike_id":"2704fd55-0669-4cd3-a002-e3ba2e827fa5","system_id":"levelo_inurba_marseille","lat":43.29852,"lon":5.36294,"is_reserved":false,"is_disabled":false,"rental_uris":{"android":"levelo://app?vid=2704fd55-0669-4cd3-a002-e3ba2e827fa5","ios":"levelo://app?vid=2704fd55-0669-4cd3-a002-e3ba2e827fa5"},"vehicle_type_id":"4","last_reported":1753283543,"current_range_meters":15200,"station_id":"ce4bgpp2rcd13ifvqc3g","pricing_plan_id":"cebpf4jnsgd1na2vs0mg"},{"bike_id":"f9c9ff83-8548-4acb-a33b-495af4adeef4","system_id":"levelo_inurba_marseille","lat":43.3236,"lon":5.367596,"is_reserved":false,"is_disabled":false,"rental_uris":{"android":"levelo://app?vid=f9c9ff83-8548-4acb-a33b-495af4adeef4","ios":"levelo://app?vid=f9c9ff83-8548-4acb-a33b-495af4adeef4"},"vehicle_type_id":"4","last_reported":1753283543,"current_range_meters":15200,"station_id":"ce4bhsh2rcd13ifvqi2g","pricing_plan_id":"cebpf4jnsgd1na2vs0mg"},{"bike_id":"d9d607f1-dc74-4c2b-b08b-f46fc640b199","system_id":"levelo_inurba_marseille","lat":43.241666,"lon":5.36393,"is_reserved":false,"is_disabled":false,"rental_uris":{"android":"levelo://app?vid=d9d607f1-dc74-4c2b-b08b-f46fc640b199","ios":"levelo://app?vid=d9d607f1-dc74-4c2b-b08b-f46fc640b199"},"vehicle_type_id":"4","last_reported":1753283543,"current_range_meters":15200,"station_id":"cpo36qri1sfpv3e86is0","pricing_plan_id":"cebpf4jnsgd1na2vs0mg"},{"bike_id":"f72a66a5-b1fa-4d9d-a928-39acc7defa8f","system_id":"levelo_inurba_marseille","lat":43.29375,"lon":5.37863,"is_reserved":false,"is_disabled":false,"rental_uris":{"android":"levelo://app?vid=f72a66a5-b1fa-4d9d-a928-39acc7defa8f","ios":"levelo://app?vid=f72a66a5-b1fa-4d9d-a928-39acc7defa8f"},"vehicle_type_id":"4","last_reported":1753283543,"current_range_meters":15200,"station_id":"ce4bgjh2rcd13ifvqbf0","pricing_plan_id":"cebpf4jnsgd1na2vs0mg"},{"bike_id":"f26ebe3d-5edb-4a07-bae4-db0a72794a66","system_id":"levelo_inurba_marseille","lat":43.282697,"lon":5.350652,"is_reserved":false,"is_disabled":false,"rental_uris":{"android":"levelo://app?vid=f26ebe3d-5edb-4a07-bae4-db0a72794a66","ios":"levelo://app?vid=f26ebe3d-5edb-4a07-bae4-db0a72794a66"},"vehicle_type_id":"4","last_reported":1753283543,"current_range_meters":15200,"station_id":"ce4bhbp2rcd13ifvqerg","pricing_plan_id":"cebpf4jnsgd1na2vs0mg"},{"bike_id":"8ebe434f-5d79-4aab-96e5-a8436d434fd7","system_id":"levelo_inurba_marseille","lat":43.323394,"lon":5.40618,"is_reserved":false,"is_disabled":false,"rental_uris":{"android":"levelo://app?vid=8ebe434f-5d79-4aab-96e5-a8436d434fd7","ios":"levelo://app?vid=8ebe434f-5d79-4aab-96e5-a8436d434fd7"},"vehicle_type_id":"4","last_reported":1753283543,"current_range_meters":15200,"station_id":"ce4bhq92rcd13ifvqhjg","pricing_plan_id":"cebpf4jnsgd1na2vs0mg"},{"bike_id":"6ba8bf23-faf4-4e7f-a0da-6f0984da5df1","system_id":"levelo_inurba_marseille","lat":43.26245,"lon":5.37405,"is_reserved":false,"is_disabled":false,"rental_uris":{"android":"levelo://app?vid=6ba8bf23-faf4-4e7f-a0da-6f0984da5df1","ios":"levelo://app?vid=6ba8bf23-faf4-4e7f-a0da-6f0984da5df1"},"vehicle_type_id":"4","last_reported":1753283543,"current_range_meters":15200,"station_id":"ce4bhgp2rcd13ifvqfc0","pricing_plan_id":"cebpf4jnsgd1na2vs0mg"},{"bike_id":"e02c7e84-478b-4396-88dd-2640f9765250","system_id":"levelo_inurba_marseille","lat":43.28421,"lon":5.35005,"is_reserved":false,"is_disabled":false,"rental_uris":{"android":"levelo://app?vid=e02c7e84-478b-4396-88dd-2640f9765250","ios":"levelo://app?vid=e02c7e84-478b-4396-88dd-2640f9765250"},"vehicle_type_id":"4","last_reported":1753283543,"current_range_meters":16000,"station_id":"ce4bhbh2rcd13ifvqepg","pricing_plan_id":"cebpf4jnsgd1na2vs0mg"},{"bike_id":"f3217e35-0bb5-43ab-beb0-dd5e233a7114","system_id":"levelo_inurba_marseille","lat":43.25587,"lon":5.38236,"is_reserved":false,"is_disabled":false,"rental_uris":{"android":"levelo://app?vid=f3217e35-0bb5-43ab-beb0-dd5e233a7114","ios":"levelo://app?vid=f3217e35-0bb5-43ab-beb0-dd5e233a7114"},"vehicle_type_id":"4","last_reported":1753283543,"current_range_meters":16000,"station_id":"ce4bhih2rcd13ifvqfs0","pricing_plan_id":"cebpf4jnsgd1na2vs0mg"},{"bike_id":"b5ce8d93-17c0-45a5-b2b1-eefce45c2d79","system_id":"levelo_inurba_marseille","lat":43.31813,"lon":5.435303,"is_reserved":false,"is_disabled":false,"rental_uris":{"android":"levelo://app?vid=b5ce8d93-17c0-45a5-b2b1-eefce45c2d79","ios":"levelo://app?vid=b5ce8d93-17c0-45a5-b2b1-eefce45c2d79"},"vehicle_type_id":"4","last_reported":1753283543,"current_range_meters":16000,"station_id":"","pricing_plan_id":"cebpf4jnsgd1na2vs0mg"},{"bike_id":"33f6aa60-2c09-45d1-a178-5815033ed9c8","system_id":"levelo_inurba_marseille","lat":43.2709,"lon":5.42272,"is_reserved":false,"is_disabled":false,"rental_uris":{"android":"levelo://app?vid=33f6aa60-2c09-45d1-a178-5815033ed9c8","ios":"levelo://app?vid=33f6aa60-2c09-45d1-a178-5815033ed9c8"},"vehicle_type_id":"4","last_reported":1753283543,"current_range_meters":16000,"station_id":"ce4bhk92rcd13ifvqgb0","pricing_plan_id":"cebpf4jnsgd1na2vs0mg"},{"bike_id":"a0de01aa-cd68-4a4d-8bab-65fa167b8610","system_id":"levelo_inurba_marseille","lat":43.23215,"lon":5.35559,"is_reserved":false,"is_disabled":false,"rental_uris":{"android":"levelo://app?vid=a0de01aa-cd68-4a4d-8bab-65fa167b8610","ios":"levelo://app?vid=a0de01aa-cd68-4a4d-8bab-65fa167b8610"},"vehicle_type_id":"4","last_reported":1753283543,"current_range_meters":16000,"station_id":"ce4bhu92rcd13ifvqi70","pricing_plan_id":"cebpf4jnsgd1na2vs0mg"},{"bike_id":"3b4dc901-337d-441f-a3a9-d89cc9e7723d","system_id":"levelo_inurba_marseille","lat":43.27069,"lon":5.42277,"is_reserved":false,"is_disabled":false,"rental_uris":{"android":"levelo://app?vid=3b4dc901-337d-441f-a3a9-d89cc9e7723d","ios":"levelo://app?vid=3b4dc901-337d-441f-a3a9-d89cc9e7723d"},"vehicle_type_id":"4","last_reported":1753283543,"current_range_meters":15200,"station_id":"ce4bhk92rcd13ifvqgb0","pricing_plan_id":"cebpf4jnsgd1na2vs0mg"},{"bike_id":"9ce312f1-cb07-4159-91d6-c11a68a5ee71","system_id":"levelo_inurba_marseille","lat":43.2124,"lon":5.35053,"is_reserved":false,"is_disabled":false,"rental_uris":{"android":"levelo://app?vid=9ce312f1-cb07-4159-91d6-c11a68a5ee71","ios":"levelo://app?vid=9ce312f1-cb07-4159-91d6-c11a68a5ee71"},"vehicle_type_id":"4","last_reported":1753283543,"current_range_meters":16000,"station_id":"","pricing_plan_id":"cebpf4jnsgd1na2vs0mg"},{"bike_id":"33c9d8e5-794b-4b94-b6ef-43274ee029fe","system_id":"levelo_inurba_marseille","lat":43.3081,"lon":5.38155,"is_reserved":false,"is_disabled":false,"rental_uris":{"android":"levelo://app?vid=33c9d8e5-794b-4b94-b6ef-43274ee029fe","ios":"levelo://app?vid=33c9d8e5-794b-4b94-b6ef-43274ee029fe"},"vehicle_type_id":"4","last_reported":1753283543,"current_range_meters":16400,"station_id":"ce4bgt12rcd13ifvqce0","pricing_plan_id":"cebpf4jnsgd1na2vs0mg"},{"bike_id":"81b0e34b-2387-437d-bf6d-c8fe7026471c","system_id":"levelo_inurba_marseille","lat":43.28935,"lon":5.384065,"is_reserved":false,"is_disabled":false,"rental_uris":{"android":"levelo://app?vid=81b0e34b-2387-437d-bf6d-c8fe7026471c","ios":"levelo://app?vid=81b0e34b-2387-437d-bf6d-c8fe7026471c"},"vehicle_type_id":"4","last_reported":1753283543,"current_range_meters":16400,"station_id":"ce4bh612rcd13ifvqe6g","pricing_plan_id":"cebpf4jnsgd1na2vs0mg"},{"bike_id":"8006020a-6cfe-4131-82ca-a6c8f07671d2","system_id":"levelo_inurba_marseille","lat":43.31176,"lon":5.37706,"is_reserved":false,"is_disabled":false,"rental_uris":{"android":"levelo://app?vid=8006020a-6cfe-4131-82ca-a6c8f07671d2","ios":"levelo://app?vid=8006020a-6cfe-4131-82ca-a6c8f07671d2"},"vehicle_type_id":"4","last_reported":1753283543,"current_range_meters":16400,"station_id":"","pricing_plan_id":"cebpf4jnsgd1na2vs0mg"},{"bike_id":"0afb13c4-b1f9-4699-9ae1-c78c9e65966a","system_id":"levelo_inurba_marseille","lat":43.295331,"lon":5.385369,"is_reserved":false,"is_disabled":false,"rental_uris":{"android":"levelo://app?vid=0afb13c4-b1f9-4699-9ae1-c78c9e65966a","ios":"levelo://app?vid=0afb13c4-b1f9-4699-9ae1-c78c9e65966a"},"vehicle_type_id":"4","last_reported":1753283543,"current_range_meters":16400,"station_id":"","pricing_plan_id":"cebpf4jnsgd1na2vs0mg"},{"bike_id":"9e7bef7c-53f8-4848-95ce-ebad9a02dd2f","system_id":"levelo_inurba_marseille","lat":43.258553,"lon":5.398881,"is_reserved":false,"is_disabled":false,"rental_uris":{"android":"levelo://app?vid=9e7bef7c-53f8-4848-95ce-ebad9a02dd2f","ios":"levelo://app?vid=9e7bef7c-53f8-4848-95ce-ebad9a02dd2f"},"vehicle_type_id":"4","last_reported":1753283543,"current_range_meters":16400,"station_id":"ce4bhl92rcd13ifvqghg","pricing_plan_id":"cebpf4jnsgd1na2vs0mg"},{"bike_id":"872d6688-34e9-4e87-9a71-30f9e710a775","system_id":"levelo_inurba_marseille","lat":43.26564,"lon":5.37284,"is_reserved":false,"is_disabled":false,"rental_uris":{"android":"levelo://app?vid=872d6688-34e9-4e87-9a71-30f9e710a775","ios":"levelo://app?vid=872d6688-34e9-4e87-9a71-30f9e710a775"},"vehicle_type_id":"4","last_reported":1753283543,"current_range_meters":16400,"station_id":"ce4bhg12rcd13ifvqf70","pricing_plan_id":"cebpf4jnsgd1na2vs0mg"},{"bike_id":"75921511-23bf-408f-9470-1062209789d6","system_id":"levelo_inurba_marseille","lat":43.25585,"lon":5.38231,"is_reserved":false,"is_disabled":false,"rental_uris":{"android":"levelo://app?vid=75921511-23bf-408f-9470-1062209789d6","ios":"levelo://app?vid=75921511-23bf-408f-9470-1062209789d6"},"vehicle_type_id":"4","last_reported":1753283543,"current_range_meters":16800,"station_id":"ce4bhih2rcd13ifvqfs0","pricing_plan_id":"cebpf4jnsgd1na2vs0mg"},{"bike_id":"7e7f0fe1-be26-4471-8257-922dbc407504","system_id":"levelo_inurba_marseille","lat":43.26562,"lon":5.37294,"is_reserved":false,"is_disabled":false,"rental_uris":{"android":"levelo://app?vid=7e7f0fe1-be26-4471-8257-922dbc407504","ios":"levelo://app?vid=7e7f0fe1-be26-4471-8257-922dbc407504"},"vehicle_type_id":"4","last_reported":1753283543,"current_range_meters":16800,"station_id":"ce4bhg12rcd13ifvqf70","pricing_plan_id":"cebpf4jnsgd1na2vs0mg"},{"bike_id":"623e5b4b-b4ce-46ee-becb-59e3b3735edf","system_id":"levelo_inurba_marseille","lat":43.28697,"lon":5.37403,"is_reserved":false,"is_disabled":false,"rental_uris":{"android":"levelo://app?vid=623e5b4b-b4ce-46ee-becb-59e3b3735edf","ios":"levelo://app?vid=623e5b4b-b4ce-46ee-becb-59e3b3735edf"},"vehicle_type_id":"4","last_reported":1753283543,"current_range_meters":16800,"station_id":"ce4bh3p2rcd13ifvqdq0","pricing_plan_id":"cebpf4jnsgd1na2vs0mg"},{"bike_id":"aacd237f-7cc2-4023-acdd-438bc68d14fa","system_id":"levelo_inurba_marseille","lat":43.28429,"lon":5.37496,"is_reserved":false,"is_disabled":false,"rental_uris":{"android":"levelo://app?vid=aacd237f-7cc2-4023-acdd-438bc68d14fa","ios":"levelo://app?vid=aacd237f-7cc2-4023-acdd-438bc68d14fa"},"vehicle_type_id":"4","last_reported":1753283543,"current_range_meters":16800,"station_id":"ce4bh412rcd13ifvqds0","pricing_plan_id":"cebpf4jnsgd1na2vs0mg"},{"bike_id":"ccbcedb2-9dbc-4ee9-8baa-a4e195d13cdd","system_id":"levelo_inurba_marseille","lat":43.24166,"lon":5.36401,"is_reserved":false,"is_disabled":false,"rental_uris":{"android":"levelo://app?vid=ccbcedb2-9dbc-4ee9-8baa-a4e195d13cdd","ios":"levelo://app?vid=ccbcedb2-9dbc-4ee9-8baa-a4e195d13cdd"},"vehicle_type_id":"4","last_reported":1753283543,"current_range_meters":16800,"station_id":"cpo36qri1sfpv3e86is0","pricing_plan_id":"cebpf4jnsgd1na2vs0mg"},{"bike_id":"7efcf337-4140-49e9-92b0-3f0aa143c851","system_id":"levelo_inurba_marseille","lat":43.298458,"lon":5.362629,"is_reserved":false,"is_disabled":false,"rental_uris":{"android":"levelo://app?vid=7efcf337-4140-49e9-92b0-3f0aa143c851","ios":"levelo://app?vid=7efcf337-4140-49e9-92b0-3f0aa143c851"},"vehicle_type_id":"4","last_reported":1753283543,"current_range_meters":16800,"station_id":"ce4bgpp2rcd13ifvqc3g","pricing_plan_id":"cebpf4jnsgd1na2vs0mg"},{"bike_id":"1c49cc0d-1a2f-4adb-9c9b-f826e5dd24e2","system_id":"levelo_inurba_marseille","lat":43.29233,"lon":5.38361,"is_reserved":false,"is_disabled":false,"rental_uris":{"android":"levelo://app?vid=1c49cc0d-1a2f-4adb-9c9b-f826e5dd24e2","ios":"levelo://app?vid=1c49cc0d-1a2f-4adb-9c9b-f826e5dd24e2"},"vehicle_type_id":"4","last_reported":1753283543,"current_range_meters":16800,"station_id":"","pricing_plan_id":"cebpf4jnsgd1na2vs0mg"},{"bike_id":"7d67ad99-f009-48ab-9749-604525e15458","system_id":"levelo_inurba_marseille","lat":43.29801,"lon":5.40389,"is_reserved":false,"is_disabled":false,"rental_uris":{"android":"levelo://app?vid=7d67ad99-f009-48ab-9749-604525e15458","ios":"levelo://app?vid=7d67ad99-f009-48ab-9749-604525e15458"},"vehicle_type_id":"4","last_reported":1753283543,"current_range_meters":16800,"station_id":"ce4bh112rcd13ifvqd90","pricing_plan_id":"cebpf4jnsgd1na2vs0mg"},{"bike_id":"b2b7f5e4-9a64-46ef-9d20-104d4c275bfa","system_id":"levelo_inurba_marseille","lat":43.21193,"lon":5.35071,"is_reserved":false,"is_disabled":false,"rental_uris":{"android":"levelo://app?vid=b2b7f5e4-9a64-46ef-9d20-104d4c275bfa","ios":"levelo://app?vid=b2b7f5e4-9a64-46ef-9d20-104d4c275bfa"},"vehicle_type_id":"4","last_reported":1753283543,"current_range_meters":16800,"station_id":"st_cvj6sg6p6f1abm77japg","pricing_plan_id":"cebpf4jnsgd1na2vs0mg"},{"bike_id":"f493a3a9-7f6b-470e-bce7-7019418af039","system_id":"levelo_inurba_marseille","lat":43.27911,"lon":5.38016,"is_reserved":false,"is_disabled":false,"rental_uris":{"android":"levelo://app?vid=f493a3a9-7f6b-470e-bce7-7019418af039","ios":"levelo://app?vid=f493a3a9-7f6b-470e-bce7-7019418af039"},"vehicle_type_id":"4","last_reported":1753283543,"current_range_meters":16800,"station_id":"ce4bhf92rcd13ifvqf50","pricing_plan_id":"cebpf4jnsgd1na2vs0mg"},{"bike_id":"79fc54a6-4e62-4196-b67e-09a12c7f82a8","system_id":"levelo_inurba_marseille","lat":43.30082,"lon":5.39077,"is_reserved":false,"is_disabled":false,"rental_uris":{"android":"levelo://app?vid=79fc54a6-4e62-4196-b67e-09a12c7f82a8","ios":"levelo://app?vid=79fc54a6-4e62-4196-b67e-09a12c7f82a8"},"vehicle_type_id":"4","last_reported":1753283543,"current_range_meters":16800,"station_id":"ce4bh192rcd13ifvqdb0","pricing_plan_id":"cebpf4jnsgd1na2vs0mg"},{"bike_id":"0a7e2862-d8ec-4c77-89d9-cfcdd51f8d75","system_id":"levelo_inurba_marseille","lat":43.31825,"lon":5.37368,"is_reserved":false,"is_disabled":false,"rental_uris":{"android":"levelo://app?vid=0a7e2862-d8ec-4c77-89d9-cfcdd51f8d75","ios":"levelo://app?vid=0a7e2862-d8ec-4c77-89d9-cfcdd51f8d75"},"vehicle_type_id":"4","last_reported":1753283543,"current_range_meters":16800,"station_id":"","pricing_plan_id":"cebpf4jnsgd1na2vs0mg"},{"bike_id":"154945dd-1343-4542-9a09-86ba80b94c4a","system_id":"levelo_inurba_marseille","lat":43.282663,"lon":5.350616,"is_reserved":false,"is_disabled":false,"rental_uris":{"android":"levelo://app?vid=154945dd-1343-4542-9a09-86ba80b94c4a","ios":"levelo://app?vid=154945dd-1343-4542-9a09-86ba80b94c4a"},"vehicle_type_id":"4","last_reported":1753283543,"current_range_meters":17200,"station_id":"ce4bhbp2rcd13ifvqerg","pricing_plan_id":"cebpf4jnsgd1na2vs0mg"},{"bike_id":"f842fdf6-95fe-4b37-8600-b468542720f1","system_id":"levelo_inurba_marseille","lat":43.25931,"lon":5.40924,"is_reserved":false,"is_disabled":false,"rental_uris":{"android":"levelo://app?vid=f842fdf6-95fe-4b37-8600-b468542720f1","ios":"levelo://app?vid=f842fdf6-95fe-4b37-8600-b468542720f1"},"vehicle_type_id":"4","last_reported":1753283543,"current_range_meters":17200,"station_id":"ce4bhm92rcd13ifvqglg","pricing_plan_id":"cebpf4jnsgd1na2vs0mg"},{"bike_id":"5ac85406-65d0-4336-aa89-4b04b2e6689e","system_id":"levelo_inurba_marseille","lat":43.33269,"lon":5.42009,"is_reserved":false,"is_disabled":false,"rental_uris":{"android":"levelo://app?vid=5ac85406-65d0-4336-aa89-4b04b2e6689e","ios":"levelo://app?vid=5ac85406-65d0-4336-aa89-4b04b2e6689e"},"vehicle_type_id":"4","last_reported":1753283543,"current_range_meters":17200,"station_id":"","pricing_plan_id":"cebpf4jnsgd1na2vs0mg"},{"bike_id":"496cac02-0e91-4f64-97b9-cb34cf0ab931","system_id":"levelo_inurba_marseille","lat":43.22512,"lon":5.34795,"is_reserved":false,"is_disabled":false,"rental_uris":{"android":"levelo://app?vid=496cac02-0e91-4f64-97b9-cb34cf0ab931","ios":"levelo://app?vid=496cac02-0e91-4f64-97b9-cb34cf0ab931"},"vehicle_type_id":"4","last_reported":1753283543,"current_range_meters":17200,"station_id":"st_cvj5dfep6f1abm77gieg","pricing_plan_id":"cebpf4jnsgd1na2vs0mg"},{"bike_id":"42476d8c-cf4e-4a2e-a9de-0c9025ca6d0b","system_id":"levelo_inurba_marseille","lat":43.28718,"lon":5.36093,"is_reserved":false,"is_disabled":false,"rental_uris":{"android":"levelo://app?vid=42476d8c-cf4e-4a2e-a9de-0c9025ca6d0b","ios":"levelo://app?vid=42476d8c-cf4e-4a2e-a9de-0c9025ca6d0b"},"vehicle_type_id":"4","last_reported":1753283543,"current_range_meters":17200,"station_id":"cki0cbj6b192h4jlfktg","pricing_plan_id":"cebpf4jnsgd1na2vs0mg"},{"bike_id":"ae131367-d818-44a0-9e1d-4aa65dcdb16a","system_id":"levelo_inurba_marseille","lat":43.27558,"lon":5.3966,"is_reserved":false,"is_disabled":false,"rental_uris":{"android":"levelo://app?vid=ae131367-d818-44a0-9e1d-4aa65dcdb16a","ios":"levelo://app?vid=ae131367-d818-44a0-9e1d-4aa65dcdb16a"},"vehicle_type_id":"4","last_reported":1753283543,"current_range_meters":17200,"station_id":"","pricing_plan_id":"cebpf4jnsgd1na2vs0mg"},{"bike_id":"eabf8af7-0ba6-4ed7-9dc1-8770e1d0db11","system_id":"levelo_inurba_marseille","lat":43.305287,"lon":5.367015,"is_reserved":false,"is_disabled":false,"rental_uris":{"android":"levelo://app?vid=eabf8af7-0ba6-4ed7-9dc1-8770e1d0db11","ios":"levelo://app?vid=eabf8af7-0ba6-4ed7-9dc1-8770e1d0db11"},"vehicle_type_id":"4","last_reported":1753283543,"current_range_meters":17200,"station_id":"ce4bgrp2rcd13ifvqc9g","pricing_plan_id":"cebpf4jnsgd1na2vs0mg"},{"bike_id":"3cd09fc8-9554-4236-8496-0931a7be09d1","system_id":"levelo_inurba_marseille","lat":43.21216,"lon":5.35072,"is_reserved":false,"is_disabled":false,"rental_uris":{"android":"levelo://app?vid=3cd09fc8-9554-4236-8496-0931a7be09d1","ios":"levelo://app?vid=3cd09fc8-9554-4236-8496-0931a7be09d1"},"vehicle_type_id":"4","last_reported":1753283543,"current_range_meters":17200,"station_id":"st_cvj6sg6p6f1abm77japg","pricing_plan_id":"cebpf4jnsgd1na2vs0mg"},{"bike_id":"6bb1f31c-9335-4f39-9585-31374a4775f9","system_id":"levelo_inurba_marseille","lat":43.325583,"lon":5.379059,"is_reserved":false,"is_disabled":false,"rental_uris":{"android":"levelo://app?vid=6bb1f31c-9335-4f39-9585-31374a4775f9","ios":"levelo://app?vid=6bb1f31c-9335-4f39-9585-31374a4775f9"},"vehicle_type_id":"4","last_reported":1753283543,"current_range_meters":17200,"station_id":"","pricing_plan_id":"cebpf4jnsgd1na2vs0mg"},{"bike_id":"908a65a2-61a6-4bc8-baac-11bc4d5e1e65","system_id":"levelo_inurba_marseille","lat":43.28283,"lon":5.35069,"is_reserved":false,"is_disabled":false,"rental_uris":{"android":"levelo://app?vid=908a65a2-61a6-4bc8-baac-11bc4d5e1e65","ios":"levelo://app?vid=908a65a2-61a6-4bc8-baac-11bc4d5e1e65"},"vehicle_type_id":"4","last_reported":1753283543,"current_range_meters":17200,"station_id":"ce4bhbp2rcd13ifvqerg","pricing_plan_id":"cebpf4jnsgd1na2vs0mg"},{"bike_id":"dd761ec4-01e5-4144-a46c-689b9433ac2a","system_id":"levelo_inurba_marseille","lat":43.2737,"lon":5.3626,"is_reserved":false,"is_disabled":false,"rental_uris":{"android":"levelo://app?vid=dd761ec4-01e5-4144-a46c-689b9433ac2a","ios":"levelo://app?vid=dd761ec4-01e5-4144-a46c-689b9433ac2a"},"vehicle_type_id":"4","last_reported":1753283543,"current_range_meters":17200,"station_id":"ce4bhbh2rcd13ifvqeo0","pricing_plan_id":"cebpf4jnsgd1na2vs0mg"},{"bike_id":"54943e91-61ee-496b-9667-a7c6c3a25bb5","system_id":"levelo_inurba_marseille","lat":43.26229,"lon":5.37469,"is_reserved":false,"is_disabled":false,"rental_uris":{"android":"levelo://app?vid=54943e91-61ee-496b-9667-a7c6c3a25bb5","ios":"levelo://app?vid=54943e91-61ee-496b-9667-a7c6c3a25bb5"},"vehicle_type_id":"4","last_reported":1753283543,"current_range_meters":17200,"station_id":"ce4bhgp2rcd13ifvqfc0","pricing_plan_id":"cebpf4jnsgd1na2vs0mg"},{"bike_id":"14168552-349d-439d-960a-cfdd0a062c30","system_id":"levelo_inurba_marseille","lat":43.31501,"lon":5.37271,"is_reserved":false,"is_disabled":false,"rental_uris":{"android":"levelo://app?vid=14168552-349d-439d-960a-cfdd0a062c30","ios":"levelo://app?vid=14168552-349d-439d-960a-cfdd0a062c30"},"vehicle_type_id":"4","last_reported":1753283543,"current_range_meters":17600,"station_id":"ce4bgt12rcd13ifvqcd0","pricing_plan_id":"cebpf4jnsgd1na2vs0mg"},{"bike_id":"fbddd004-1838-4307-a8ad-60b409ae6901","system_id":"levelo_inurba_marseille","lat":43.26791,"lon":5.39419,"is_reserved":false,"is_disabled":false,"rental_uris":{"android":"levelo://app?vid=fbddd004-1838-4307-a8ad-60b409ae6901","ios":"levelo://app?vid=fbddd004-1838-4307-a8ad-60b409ae6901"},"vehicle_type_id":"4","last_reported":1753283543,"current_range_meters":17600,"station_id":"ce4bhh12rcd13ifvqfg0","pricing_plan_id":"cebpf4jnsgd1na2vs0mg"},{"bike_id":"c1ad694f-f0bf-44a1-bf5e-ca8fec9cc1a3","system_id":"levelo_inurba_marseille","lat":43.30541,"lon":5.36552,"is_reserved":false,"is_disabled":false,"rental_uris":{"android":"levelo://app?vid=c1ad694f-f0bf-44a1-bf5e-ca8fec9cc1a3","ios":"levelo://app?vid=c1ad694f-f0bf-44a1-bf5e-ca8fec9cc1a3"},"vehicle_type_id":"4","last_reported":1753283543,"current_range_meters":17600,"station_id":"ce4bgs12rcd13ifvqcag","pricing_plan_id":"cebpf4jnsgd1na2vs0mg"},{"bike_id":"c056311f-78c9-4e18-8685-91c659ddb125","system_id":"levelo_inurba_marseille","lat":43.31601,"lon":5.38964,"is_reserved":false,"is_disabled":false,"rental_uris":{"android":"levelo://app?vid=c056311f-78c9-4e18-8685-91c659ddb125","ios":"levelo://app?vid=c056311f-78c9-4e18-8685-91c659ddb125"},"vehicle_type_id":"4","last_reported":1753283543,"current_range_meters":17600,"station_id":"","pricing_plan_id":"cebpf4jnsgd1na2vs0mg"},{"bike_id":"1699da3b-157a-4d07-ba4d-8fe9df7d93c7","system_id":"levelo_inurba_marseille","lat":43.30375,"lon":5.41931,"is_reserved":false,"is_disabled":false,"rental_uris":{"android":"levelo://app?vid=1699da3b-157a-4d07-ba4d-8fe9df7d93c7","ios":"levelo://app?vid=1699da3b-157a-4d07-ba4d-8fe9df7d93c7"},"vehicle_type_id":"4","last_reported":1753283543,"current_range_meters":17600,"station_id":"","pricing_plan_id":"cebpf4jnsgd1na2vs0mg"},{"bike_id":"70737bad-8214-4681-8a7d-fa98042cf105","system_id":"levelo_inurba_marseille","lat":43.29043,"lon":5.40011,"is_reserved":false,"is_disabled":false,"rental_uris":{"android":"levelo://app?vid=70737bad-8214-4681-8a7d-fa98042cf105","ios":"levelo://app?vid=70737bad-8214-4681-8a7d-fa98042cf105"},"vehicle_type_id":"4","last_reported":1753283543,"current_range_meters":17600,"station_id":"ce4bh392rcd13ifvqdm0","pricing_plan_id":"cebpf4jnsgd1na2vs0mg"},{"bike_id":"b6b8c031-0609-4230-b642-25bc0ff457a7","system_id":"levelo_inurba_marseille","lat":43.26554,"lon":5.3729,"is_reserved":false,"is_disabled":false,"rental_uris":{"android":"levelo://app?vid=b6b8c031-0609-4230-b642-25bc0ff457a7","ios":"levelo://app?vid=b6b8c031-0609-4230-b642-25bc0ff457a7"},"vehicle_type_id":"4","last_reported":1753283543,"current_range_meters":17600,"station_id":"ce4bhg12rcd13ifvqf70","pricing_plan_id":"cebpf4jnsgd1na2vs0mg"},{"bike_id":"4852a019-2197-44fd-85ee-327b99a06bbf","system_id":"levelo_inurba_marseille","lat":43.30597,"lon":5.37214,"is_reserved":false,"is_disabled":false,"rental_uris":{"android":"levelo://app?vid=4852a019-2197-44fd-85ee-327b99a06bbf","ios":"levelo://app?vid=4852a019-2197-44fd-85ee-327b99a06bbf"},"vehicle_type_id":"4","last_reported":1753283543,"current_range_meters":17600,"station_id":"ce4bgqh2rcd13ifvqc4g","pricing_plan_id":"cebpf4jnsgd1na2vs0mg"},{"bike_id":"b52e74cd-ff69-4417-b50e-80e0e49ad997","system_id":"levelo_inurba_marseille","lat":43.22499,"lon":5.3477,"is_reserved":false,"is_disabled":false,"rental_uris":{"android":"levelo://app?vid=b52e74cd-ff69-4417-b50e-80e0e49ad997","ios":"levelo://app?vid=b52e74cd-ff69-4417-b50e-80e0e49ad997"},"vehicle_type_id":"4","last_reported":1753283543,"current_range_meters":17600,"station_id":"st_cvj5dfep6f1abm77gieg","pricing_plan_id":"cebpf4jnsgd1na2vs0mg"},{"bike_id":"6a79a396-2f47-4b1c-9dce-b0d5464f72e4","system_id":"levelo_inurba_marseille","lat":43.22925,"lon":5.35374,"is_reserved":false,"is_disabled":false,"rental_uris":{"android":"levelo://app?vid=6a79a396-2f47-4b1c-9dce-b0d5464f72e4","ios":"levelo://app?vid=6a79a396-2f47-4b1c-9dce-b0d5464f72e4"},"vehicle_type_id":"4","last_reported":1753283543,"current_range_meters":17600,"station_id":"cpo3532slgdg3j2ikp40","pricing_plan_id":"cebpf4jnsgd1na2vs0mg"},{"bike_id":"bdafccd1-657b-4b53-9c64-16c0d7f6175c","system_id":"levelo_inurba_marseille","lat":43.31496,"lon":5.37299,"is_reserved":false,"is_disabled":false,"rental_uris":{"android":"levelo://app?vid=bdafccd1-657b-4b53-9c64-16c0d7f6175c","ios":"levelo://app?vid=bdafccd1-657b-4b53-9c64-16c0d7f6175c"},"vehicle_type_id":"4","last_reported":1753283543,"current_range_meters":17600,"station_id":"ce4bgt12rcd13ifvqcd0","pricing_plan_id":"cebpf4jnsgd1na2vs0mg"},{"bike_id":"ee305197-0e2f-43ac-9164-ef1f8fdb9938","system_id":"levelo_inurba_marseille","lat":43.29718,"lon":5.37694,"is_reserved":false,"is_disabled":false,"rental_uris":{"android":"levelo://app?vid=ee305197-0e2f-43ac-9164-ef1f8fdb9938","ios":"levelo://app?vid=ee305197-0e2f-43ac-9164-ef1f8fdb9938"},"vehicle_type_id":"4","last_reported":1753283543,"current_range_meters":17600,"station_id":"ce4bgkh2rcd13ifvqbl0","pricing_plan_id":"cebpf4jnsgd1na2vs0mg"},{"bike_id":"d33a195d-1aba-4725-a7a9-74d21f9597a0","system_id":"levelo_inurba_marseille","lat":43.26207,"lon":5.37439,"is_reserved":false,"is_disabled":false,"rental_uris":{"android":"levelo://app?vid=d33a195d-1aba-4725-a7a9-74d21f9597a0","ios":"levelo://app?vid=d33a195d-1aba-4725-a7a9-74d21f9597a0"},"vehicle_type_id":"4","last_reported":1753283543,"current_range_meters":18000,"station_id":"ce4bhgp2rcd13ifvqfc0","pricing_plan_id":"cebpf4jnsgd1na2vs0mg"},{"bike_id":"4336d285-d886-4251-b292-89f8030f7097","system_id":"levelo_inurba_marseille","lat":43.3078,"lon":5.376511,"is_reserved":false,"is_disabled":false,"rental_uris":{"android":"levelo://app?vid=4336d285-d886-4251-b292-89f8030f7097","ios":"levelo://app?vid=4336d285-d886-4251-b292-89f8030f7097"},"vehicle_type_id":"4","last_reported":1753283543,"current_range_meters":18000,"station_id":"ce4bgv92rcd13ifvqcq0","pricing_plan_id":"cebpf4jnsgd1na2vs0mg"},{"bike_id":"d30f66f5-9995-4a0a-832b-41fe2c74d0c0","system_id":"levelo_inurba_marseille","lat":43.22506,"lon":5.34785,"is_reserved":false,"is_disabled":false,"rental_uris":{"android":"levelo://app?vid=d30f66f5-9995-4a0a-832b-41fe2c74d0c0","ios":"levelo://app?vid=d30f66f5-9995-4a0a-832b-41fe2c74d0c0"},"vehicle_type_id":"4","last_reported":1753283543,"current_range_meters":18000,"station_id":"st_cvj5dfep6f1abm77gieg","pricing_plan_id":"cebpf4jnsgd1na2vs0mg"},{"bike_id":"61cb5b9a-9cee-4d3f-8bba-365148ee2e42","system_id":"levelo_inurba_marseille","lat":43.25873,"lon":5.39904,"is_reserved":false,"is_disabled":false,"rental_uris":{"android":"levelo://app?vid=61cb5b9a-9cee-4d3f-8bba-365148ee2e42","ios":"levelo://app?vid=61cb5b9a-9cee-4d3f-8bba-365148ee2e42"},"vehicle_type_id":"4","last_reported":1753283543,"current_range_meters":18800,"station_id":"ce4bhl92rcd13ifvqghg","pricing_plan_id":"cebpf4jnsgd1na2vs0mg"},{"bike_id":"10b39294-0258-4036-9489-67465e0a138b","system_id":"levelo_inurba_marseille","lat":43.29446,"lon":5.39734,"is_reserved":false,"is_disabled":false,"rental_uris":{"android":"levelo://app?vid=10b39294-0258-4036-9489-67465e0a138b","ios":"levelo://app?vid=10b39294-0258-4036-9489-67465e0a138b"},"vehicle_type_id":"4","last_reported":1753283543,"current_range_meters":18000,"station_id":"ce4bh3h2rcd13ifvqdo0","pricing_plan_id":"cebpf4jnsgd1na2vs0mg"},{"bike_id":"a5c474fd-2247-4651-8125-cd6e486d34d9","system_id":"levelo_inurba_marseille","lat":43.3215,"lon":5.38455,"is_reserved":false,"is_disabled":false,"rental_uris":{"android":"levelo://app?vid=a5c474fd-2247-4651-8125-cd6e486d34d9","ios":"levelo://app?vid=a5c474fd-2247-4651-8125-cd6e486d34d9"},"vehicle_type_id":"4","last_reported":1753283543,"current_range_meters":18000,"station_id":"","pricing_plan_id":"cebpf4jnsgd1na2vs0mg"},{"bike_id":"88ba686c-e916-48b4-a187-3089cccb5922","system_id":"levelo_inurba_marseille","lat":43.31506,"lon":5.37285,"is_reserved":false,"is_disabled":false,"rental_uris":{"android":"levelo://app?vid=88ba686c-e916-48b4-a187-3089cccb5922","ios":"levelo://app?vid=88ba686c-e916-48b4-a187-3089cccb5922"},"vehicle_type_id":"4","last_reported":1753283543,"current_range_meters":18000,"station_id":"ce4bgt12rcd13ifvqcd0","pricing_plan_id":"cebpf4jnsgd1na2vs0mg"},{"bike_id":"18b86593-4f21-41ed-81b3-f3a5b378dc91","system_id":"levelo_inurba_marseille","lat":43.312339,"lon":5.381309,"is_reserved":false,"is_disabled":false,"rental_uris":{"android":"levelo://app?vid=18b86593-4f21-41ed-81b3-f3a5b378dc91","ios":"levelo://app?vid=18b86593-4f21-41ed-81b3-f3a5b378dc91"},"vehicle_type_id":"4","last_reported":1753283543,"current_range_meters":18000,"station_id":"","pricing_plan_id":"cebpf4jnsgd1na2vs0mg"},{"bike_id":"135ba0c2-833a-45da-b054-49a6c3f3f3a8","system_id":"levelo_inurba_marseille","lat":43.27054,"lon":5.40265,"is_reserved":false,"is_disabled":false,"rental_uris":{"android":"levelo://app?vid=135ba0c2-833a-45da-b054-49a6c3f3f3a8","ios":"levelo://app?vid=135ba0c2-833a-45da-b054-49a6c3f3f3a8"},"vehicle_type_id":"4","last_reported":1753283543,"current_range_meters":18000,"station_id":"ce4bhk92rcd13ifvqgc0","pricing_plan_id":"cebpf4jnsgd1na2vs0mg"},{"bike_id":"663e3869-13e1-4b8d-8d66-911d619296cd","system_id":"levelo_inurba_marseille","lat":43.26216,"lon":5.37442,"is_reserved":false,"is_disabled":false,"rental_uris":{"android":"levelo://app?vid=663e3869-13e1-4b8d-8d66-911d619296cd","ios":"levelo://app?vid=663e3869-13e1-4b8d-8d66-911d619296cd"},"vehicle_type_id":"4","last_reported":1753283543,"current_range_meters":18000,"station_id":"ce4bhgp2rcd13ifvqfc0","pricing_plan_id":"cebpf4jnsgd1na2vs0mg"},{"bike_id":"f0f73c71-7331-4628-b623-754b73a8546a","system_id":"levelo_inurba_marseille","lat":43.30151,"lon":5.39878,"is_reserved":false,"is_disabled":true,"rental_uris":{"android":"levelo://app?vid=f0f73c71-7331-4628-b623-754b73a8546a","ios":"levelo://app?vid=f0f73c71-7331-4628-b623-754b73a8546a"},"vehicle_type_id":"4","last_reported":1753283543,"current_range_meters":18000,"station_id":"ce4bh0h2rcd13ifvqd40","pricing_plan_id":"cebpf4jnsgd1na2vs0mg"},{"bike_id":"76c65f84-3b49-4269-890c-8259fe6ade74","system_id":"levelo_inurba_marseille","lat":43.323661,"lon":5.36767,"is_reserved":false,"is_disabled":false,"rental_uris":{"android":"levelo://app?vid=76c65f84-3b49-4269-890c-8259fe6ade74","ios":"levelo://app?vid=76c65f84-3b49-4269-890c-8259fe6ade74"},"vehicle_type_id":"4","last_reported":1753283543,"current_range_meters":18000,"station_id":"ce4bhsh2rcd13ifvqi2g","pricing_plan_id":"cebpf4jnsgd1na2vs0mg"},{"bike_id":"4af52a5e-2e17-45a4-af2d-b0a1abc38a86","system_id":"levelo_inurba_marseille","lat":43.23065,"lon":5.35479,"is_reserved":false,"is_disabled":false,"rental_uris":{"android":"levelo://app?vid=4af52a5e-2e17-45a4-af2d-b0a1abc38a86","ios":"levelo://app?vid=4af52a5e-2e17-45a4-af2d-b0a1abc38a86"},"vehicle_type_id":"4","last_reported":1753283543,"current_range_meters":18000,"station_id":"cpo3342slgdg3j2ifvpg","pricing_plan_id":"cebpf4jnsgd1na2vs0mg"},{"bike_id":"1ad257b5-7f83-42c1-867f-92635ff1abbf","system_id":"levelo_inurba_marseille","lat":43.229324,"lon":5.353812,"is_reserved":false,"is_disabled":false,"rental_uris":{"android":"levelo://app?vid=1ad257b5-7f83-42c1-867f-92635ff1abbf","ios":"levelo://app?vid=1ad257b5-7f83-42c1-867f-92635ff1abbf"},"vehicle_type_id":"4","last_reported":1753283543,"current_range_meters":18000,"station_id":"cpo3532slgdg3j2ikp40","pricing_plan_id":"cebpf4jnsgd1na2vs0mg"},{"bike_id":"6bbcb3b2-c3d1-40eb-a700-f33e55f41542","system_id":"levelo_inurba_marseille","lat":43.24802,"lon":5.37458,"is_reserved":false,"is_disabled":false,"rental_uris":{"android":"levelo://app?vid=6bbcb3b2-c3d1-40eb-a700-f33e55f41542","ios":"levelo://app?vid=6bbcb3b2-c3d1-40eb-a700-f33e55f41542"},"vehicle_type_id":"4","last_reported":1753283543,"current_range_meters":18000,"station_id":"ce4bhgh2rcd13ifvqfb0","pricing_plan_id":"cebpf4jnsgd1na2vs0mg"},{"bike_id":"b1dbcaf1-bfc6-4e0a-9a80-297fdd0c1f07","system_id":"levelo_inurba_marseille","lat":43.26211,"lon":5.37437,"is_reserved":false,"is_disabled":false,"rental_uris":{"android":"levelo://app?vid=b1dbcaf1-bfc6-4e0a-9a80-297fdd0c1f07","ios":"levelo://app?vid=b1dbcaf1-bfc6-4e0a-9a80-297fdd0c1f07"},"vehicle_type_id":"4","last_reported":1753283543,"current_range_meters":18800,"station_id":"ce4bhgp2rcd13ifvqfc0","pricing_plan_id":"cebpf4jnsgd1na2vs0mg"},{"bike_id":"dcbf1bd8-8e8d-4c04-bfe5-8a2d7759c28b","system_id":"levelo_inurba_marseille","lat":43.295732,"lon":5.375219,"is_reserved":false,"is_disabled":false,"rental_uris":{"android":"levelo://app?vid=dcbf1bd8-8e8d-4c04-bfe5-8a2d7759c28b","ios":"levelo://app?vid=dcbf1bd8-8e8d-4c04-bfe5-8a2d7759c28b"},"vehicle_type_id":"4","last_reported":1753283543,"current_range_meters":18800,"station_id":"ce4bgh92rcd13ifvqb50","pricing_plan_id":"cebpf4jnsgd1na2vs0mg"},{"bike_id":"5d2a4027-c4e2-4789-b8d3-60410bc4c347","system_id":"levelo_inurba_marseille","lat":43.25006,"lon":5.38908,"is_reserved":false,"is_disabled":false,"rental_uris":{"android":"levelo://app?vid=5d2a4027-c4e2-4789-b8d3-60410bc4c347","ios":"levelo://app?vid=5d2a4027-c4e2-4789-b8d3-60410bc4c347"},"vehicle_type_id":"4","last_reported":1753283543,"current_range_meters":18800,"station_id":"ce4bhgp2rcd13ifvqfd0","pricing_plan_id":"cebpf4jnsgd1na2vs0mg"},{"bike_id":"750d370d-abb4-47b3-b4f7-7ef76b03801f","system_id":"levelo_inurba_marseille","lat":43.29688,"lon":5.37952,"is_reserved":false,"is_disabled":false,"rental_uris":{"android":"levelo://app?vid=750d370d-abb4-47b3-b4f7-7ef76b03801f","ios":"levelo://app?vid=750d370d-abb4-47b3-b4f7-7ef76b03801f"},"vehicle_type_id":"4","last_reported":1753283543,"current_range_meters":18800,"station_id":"","pricing_plan_id":"cebpf4jnsgd1na2vs0mg"},{"bike_id":"2dab6fb2-3815-49dc-8081-6b26bf95093d","system_id":"levelo_inurba_marseille","lat":43.29572,"lon":5.39979,"is_reserved":false,"is_disabled":false,"rental_uris":{"android":"levelo://app?vid=2dab6fb2-3815-49dc-8081-6b26bf95093d","ios":"levelo://app?vid=2dab6fb2-3815-49dc-8081-6b26bf95093d"},"vehicle_type_id":"4","last_reported":1753283543,"current_range_meters":18800,"station_id":"ce4bh312rcd13ifvqdj0","pricing_plan_id":"cebpf4jnsgd1na2vs0mg"},{"bike_id":"badf5907-5e33-4e65-9764-8ab34a41e968","system_id":"levelo_inurba_marseille","lat":43.323732,"lon":5.389016,"is_reserved":false,"is_disabled":false,"rental_uris":{"android":"levelo://app?vid=badf5907-5e33-4e65-9764-8ab34a41e968","ios":"levelo://app?vid=badf5907-5e33-4e65-9764-8ab34a41e968"},"vehicle_type_id":"4","last_reported":1753283543,"current_range_meters":18800,"station_id":"ce4bhqp2rcd13ifvqhog","pricing_plan_id":"cebpf4jnsgd1na2vs0mg"},{"bike_id":"5bf3c378-3e6b-43b2-a144-db10469bd307","system_id":"levelo_inurba_marseille","lat":43.29567,"lon":5.37526,"is_reserved":false,"is_disabled":false,"rental_uris":{"android":"levelo://app?vid=5bf3c378-3e6b-43b2-a144-db10469bd307","ios":"levelo://app?vid=5bf3c378-3e6b-43b2-a144-db10469bd307"},"vehicle_type_id":"4","last_reported":1753283543,"current_range_meters":18800,"station_id":"ce4bgh92rcd13ifvqb50","pricing_plan_id":"cebpf4jnsgd1na2vs0mg"},{"bike_id":"0f631951-f60b-47b6-9d20-900177387406","system_id":"levelo_inurba_marseille","lat":43.2873,"lon":5.389176,"is_reserved":false,"is_disabled":false,"rental_uris":{"android":"levelo://app?vid=0f631951-f60b-47b6-9d20-900177387406","ios":"levelo://app?vid=0f631951-f60b-47b6-9d20-900177387406"},"vehicle_type_id":"4","last_reported":1753283543,"current_range_meters":18000,"station_id":"ce4bh192rcd13ifvqdc0","pricing_plan_id":"cebpf4jnsgd1na2vs0mg"},{"bike_id":"e246d1c9-8a7e-4c9d-983b-668f75fd83e7","system_id":"levelo_inurba_marseille","lat":43.26563,"lon":5.37295,"is_reserved":false,"is_disabled":false,"rental_uris":{"android":"levelo://app?vid=e246d1c9-8a7e-4c9d-983b-668f75fd83e7","ios":"levelo://app?vid=e246d1c9-8a7e-4c9d-983b-668f75fd83e7"},"vehicle_type_id":"4","last_reported":1753283543,"current_range_meters":18800,"station_id":"ce4bhg12rcd13ifvqf70","pricing_plan_id":"cebpf4jnsgd1na2vs0mg"},{"bike_id":"edfccf5a-4167-40fc-b0f8-bc1198d1cb11","system_id":"levelo_inurba_marseille","lat":43.23063,"lon":5.35491,"is_reserved":false,"is_disabled":false,"rental_uris":{"android":"levelo://app?vid=edfccf5a-4167-40fc-b0f8-bc1198d1cb11","ios":"levelo://app?vid=edfccf5a-4167-40fc-b0f8-bc1198d1cb11"},"vehicle_type_id":"4","last_reported":1753283543,"current_range_meters":19200,"station_id":"cpo3342slgdg3j2ifvpg","pricing_plan_id":"cebpf4jnsgd1na2vs0mg"},{"bike_id":"d55b6487-3218-42b4-8ea2-1af90626791f","system_id":"levelo_inurba_marseille","lat":43.29292,"lon":5.37463,"is_reserved":false,"is_disabled":false,"rental_uris":{"android":"levelo://app?vid=d55b6487-3218-42b4-8ea2-1af90626791f","ios":"levelo://app?vid=d55b6487-3218-42b4-8ea2-1af90626791f"},"vehicle_type_id":"4","last_reported":1753283543,"current_range_meters":19200,"station_id":"ce4bgi12rcd13ifvqb70","pricing_plan_id":"cebpf4jnsgd1na2vs0mg"},{"bike_id":"5f824980-27aa-4ef2-856d-b766bebead8a","system_id":"levelo_inurba_marseille","lat":43.22504,"lon":5.3478,"is_reserved":false,"is_disabled":false,"rental_uris":{"android":"levelo://app?vid=5f824980-27aa-4ef2-856d-b766bebead8a","ios":"levelo://app?vid=5f824980-27aa-4ef2-856d-b766bebead8a"},"vehicle_type_id":"4","last_reported":1753283543,"current_range_meters":19200,"station_id":"st_cvj5dfep6f1abm77gieg","pricing_plan_id":"cebpf4jnsgd1na2vs0mg"},{"bike_id":"bc4eccde-4b00-49da-8915-a2f6772f9c39","system_id":"levelo_inurba_marseille","lat":43.28614,"lon":5.35106,"is_reserved":false,"is_disabled":false,"rental_uris":{"android":"levelo://app?vid=bc4eccde-4b00-49da-8915-a2f6772f9c39","ios":"levelo://app?vid=bc4eccde-4b00-49da-8915-a2f6772f9c39"},"vehicle_type_id":"4","last_reported":1753283543,"current_range_meters":19200,"station_id":"ce4bhch2rcd13ifvqeug","pricing_plan_id":"cebpf4jnsgd1na2vs0mg"},{"bike_id":"f7f07796-c7c9-4a74-80e9-fb85744448b8","system_id":"levelo_inurba_marseille","lat":43.22943,"lon":5.35368,"is_reserved":false,"is_disabled":false,"rental_uris":{"android":"levelo://app?vid=f7f07796-c7c9-4a74-80e9-fb85744448b8","ios":"levelo://app?vid=f7f07796-c7c9-4a74-80e9-fb85744448b8"},"vehicle_type_id":"4","last_reported":1753283543,"current_range_meters":19200,"station_id":"cpo3532slgdg3j2ikp40","pricing_plan_id":"cebpf4jnsgd1na2vs0mg"},{"bike_id":"cb6e42a8-e13c-4257-b6e6-cd07bacb2735","system_id":"levelo_inurba_marseille","lat":43.24659,"lon":5.38132,"is_reserved":false,"is_disabled":false,"rental_uris":{"android":"levelo://app?vid=cb6e42a8-e13c-4257-b6e6-cd07bacb2735","ios":"levelo://app?vid=cb6e42a8-e13c-4257-b6e6-cd07bacb2735"},"vehicle_type_id":"4","last_reported":1753283543,"current_range_meters":19200,"station_id":"ce4bhih2rcd13ifvqfr0","pricing_plan_id":"cebpf4jnsgd1na2vs0mg"},{"bike_id":"9007e418-436a-48f7-ad14-d23fdf62d08f","system_id":"levelo_inurba_marseille","lat":43.30097,"lon":5.39077,"is_reserved":false,"is_disabled":false,"rental_uris":{"android":"levelo://app?vid=9007e418-436a-48f7-ad14-d23fdf62d08f","ios":"levelo://app?vid=9007e418-436a-48f7-ad14-d23fdf62d08f"},"vehicle_type_id":"4","last_reported":1753283543,"current_range_meters":19200,"station_id":"ce4bh192rcd13ifvqdb0","pricing_plan_id":"cebpf4jnsgd1na2vs0mg"},{"bike_id":"35a86048-76dd-4de0-afb2-7da8772fad44","system_id":"levelo_inurba_marseille","lat":43.21532,"lon":5.34727,"is_reserved":false,"is_disabled":false,"rental_uris":{"android":"levelo://app?vid=35a86048-76dd-4de0-afb2-7da8772fad44","ios":"levelo://app?vid=35a86048-76dd-4de0-afb2-7da8772fad44"},"vehicle_type_id":"4","last_reported":1753283543,"current_range_meters":19200,"station_id":"","pricing_plan_id":"cebpf4jnsgd1na2vs0mg"},{"bike_id":"154842fb-66cb-4d03-b336-ad8705751d21","system_id":"levelo_inurba_marseille","lat":43.27953,"lon":5.41046,"is_reserved":false,"is_disabled":false,"rental_uris":{"android":"levelo://app?vid=154842fb-66cb-4d03-b336-ad8705751d21","ios":"levelo://app?vid=154842fb-66cb-4d03-b336-ad8705751d21"},"vehicle_type_id":"4","last_reported":1753283543,"current_range_meters":19200,"station_id":"ce4bhnp2rcd13ifvqh0g","pricing_plan_id":"cebpf4jnsgd1na2vs0mg"},{"bike_id":"1edb8448-dddf-4311-9482-6412c081dd29","system_id":"levelo_inurba_marseille","lat":43.28361,"lon":5.38643,"is_reserved":false,"is_disabled":false,"rental_uris":{"android":"levelo://app?vid=1edb8448-dddf-4311-9482-6412c081dd29","ios":"levelo://app?vid=1edb8448-dddf-4311-9482-6412c081dd29"},"vehicle_type_id":"4","last_reported":1753283543,"current_range_meters":19200,"station_id":"ce4bh492rcd13ifvqdvg","pricing_plan_id":"cebpf4jnsgd1na2vs0mg"},{"bike_id":"749fcda0-f441-4382-81e7-11224604b49b","system_id":"levelo_inurba_marseille","lat":43.306026,"lon":5.372102,"is_reserved":false,"is_disabled":false,"rental_uris":{"android":"levelo://app?vid=749fcda0-f441-4382-81e7-11224604b49b","ios":"levelo://app?vid=749fcda0-f441-4382-81e7-11224604b49b"},"vehicle_type_id":"4","last_reported":1753283543,"current_range_meters":19200,"station_id":"ce4bgqh2rcd13ifvqc4g","pricing_plan_id":"cebpf4jnsgd1na2vs0mg"},{"bike_id":"97c0c8de-0260-44ed-866b-3d9eafc519c3","system_id":"levelo_inurba_marseille","lat":43.23968,"lon":5.36632,"is_reserved":false,"is_disabled":false,"rental_uris":{"android":"levelo://app?vid=97c0c8de-0260-44ed-866b-3d9eafc519c3","ios":"levelo://app?vid=97c0c8de-0260-44ed-866b-3d9eafc519c3"},"vehicle_type_id":"4","last_reported":1753283543,"current_range_meters":19600,"station_id":"ce4bhi12rcd13ifvqfp0","pricing_plan_id":"cebpf4jnsgd1na2vs0mg"},{"bike_id":"66573328-cce6-4ec1-bbb6-cb5d6bb22ede","system_id":"levelo_inurba_marseille","lat":43.2826,"lon":5.35097,"is_reserved":false,"is_disabled":false,"rental_uris":{"android":"levelo://app?vid=66573328-cce6-4ec1-bbb6-cb5d6bb22ede","ios":"levelo://app?vid=66573328-cce6-4ec1-bbb6-cb5d6bb22ede"},"vehicle_type_id":"4","last_reported":1753283543,"current_range_meters":19600,"station_id":"ce4bhbp2rcd13ifvqerg","pricing_plan_id":"cebpf4jnsgd1na2vs0mg"},{"bike_id":"085cc398-265e-4402-bcb0-4ca5061b4738","system_id":"levelo_inurba_marseille","lat":43.22939,"lon":5.35386,"is_reserved":false,"is_disabled":false,"rental_uris":{"android":"levelo://app?vid=085cc398-265e-4402-bcb0-4ca5061b4738","ios":"levelo://app?vid=085cc398-265e-4402-bcb0-4ca5061b4738"},"vehicle_type_id":"4","last_reported":1753283543,"current_range_meters":19600,"station_id":"cpo3532slgdg3j2ikp40","pricing_plan_id":"cebpf4jnsgd1na2vs0mg"},{"bike_id":"2183c94f-c491-4996-9d50-1551a675fb98","system_id":"levelo_inurba_marseille","lat":43.28619,"lon":5.35098,"is_reserved":false,"is_disabled":false,"rental_uris":{"android":"levelo://app?vid=2183c94f-c491-4996-9d50-1551a675fb98","ios":"levelo://app?vid=2183c94f-c491-4996-9d50-1551a675fb98"},"vehicle_type_id":"4","last_reported":1753283543,"current_range_meters":19600,"station_id":"ce4bhch2rcd13ifvqeug","pricing_plan_id":"cebpf4jnsgd1na2vs0mg"},{"bike_id":"36934cf4-a976-489b-8f3e-dd0ab036ca3e","system_id":"levelo_inurba_marseille","lat":43.25586,"lon":5.3822,"is_reserved":false,"is_disabled":false,"rental_uris":{"android":"levelo://app?vid=36934cf4-a976-489b-8f3e-dd0ab036ca3e","ios":"levelo://app?vid=36934cf4-a976-489b-8f3e-dd0ab036ca3e"},"vehicle_type_id":"4","last_reported":1753283543,"current_range_meters":19600,"station_id":"ce4bhih2rcd13ifvqfs0","pricing_plan_id":"cebpf4jnsgd1na2vs0mg"},{"bike_id":"307f24e0-85be-4cb8-8bea-988e9428efc8","system_id":"levelo_inurba_marseille","lat":43.28691,"lon":5.374,"is_reserved":false,"is_disabled":false,"rental_uris":{"android":"levelo://app?vid=307f24e0-85be-4cb8-8bea-988e9428efc8","ios":"levelo://app?vid=307f24e0-85be-4cb8-8bea-988e9428efc8"},"vehicle_type_id":"4","last_reported":1753283543,"current_range_meters":19600,"station_id":"ce4bh3p2rcd13ifvqdq0","pricing_plan_id":"cebpf4jnsgd1na2vs0mg"},{"bike_id":"888425ce-286f-402e-b5a7-f12f7ba85757","system_id":"levelo_inurba_marseille","lat":43.24393,"lon":5.37063,"is_reserved":false,"is_disabled":false,"rental_uris":{"android":"levelo://app?vid=888425ce-286f-402e-b5a7-f12f7ba85757","ios":"levelo://app?vid=888425ce-286f-402e-b5a7-f12f7ba85757"},"vehicle_type_id":"4","last_reported":1753283543,"current_range_meters":19600,"station_id":"ce4bhhh2rcd13ifvqfk0","pricing_plan_id":"cebpf4jnsgd1na2vs0mg"},{"bike_id":"f09075b8-3482-4597-a46b-8c761d1e0cbe","system_id":"levelo_inurba_marseille","lat":43.28456,"lon":5.3589,"is_reserved":false,"is_disabled":false,"rental_uris":{"android":"levelo://app?vid=f09075b8-3482-4597-a46b-8c761d1e0cbe","ios":"levelo://app?vid=f09075b8-3482-4597-a46b-8c761d1e0cbe"},"vehicle_type_id":"4","last_reported":1753283543,"current_range_meters":19600,"station_id":"ce4bhah2rcd13ifvqei0","pricing_plan_id":"cebpf4jnsgd1na2vs0mg"},{"bike_id":"eaea15aa-98ae-4f78-b37a-80e2e4524837","system_id":"levelo_inurba_marseille","lat":43.297916,"lon":5.381026,"is_reserved":false,"is_disabled":false,"rental_uris":{"android":"levelo://app?vid=eaea15aa-98ae-4f78-b37a-80e2e4524837","ios":"levelo://app?vid=eaea15aa-98ae-4f78-b37a-80e2e4524837"},"vehicle_type_id":"4","last_reported":1753283543,"current_range_meters":19600,"station_id":"","pricing_plan_id":"cebpf4jnsgd1na2vs0mg"},{"bike_id":"5161231e-10f7-4a69-8a20-9c4eeadb7fe1","system_id":"levelo_inurba_marseille","lat":43.26225,"lon":5.40449,"is_reserved":false,"is_disabled":false,"rental_uris":{"android":"levelo://app?vid=5161231e-10f7-4a69-8a20-9c4eeadb7fe1","ios":"levelo://app?vid=5161231e-10f7-4a69-8a20-9c4eeadb7fe1"},"vehicle_type_id":"4","last_reported":1753283543,"current_range_meters":19600,"station_id":"ce4bhmh2rcd13ifvqgmg","pricing_plan_id":"cebpf4jnsgd1na2vs0mg"},{"bike_id":"15d367de-17b0-4dc7-a6ae-9f74942a498e","system_id":"levelo_inurba_marseille","lat":43.30625,"lon":5.37255,"is_reserved":false,"is_disabled":false,"rental_uris":{"android":"levelo://app?vid=15d367de-17b0-4dc7-a6ae-9f74942a498e","ios":"levelo://app?vid=15d367de-17b0-4dc7-a6ae-9f74942a498e"},"vehicle_type_id":"4","last_reported":1753283543,"current_range_meters":19600,"station_id":"ce4bgqh2rcd13ifvqc4g","pricing_plan_id":"cebpf4jnsgd1na2vs0mg"},{"bike_id":"ace7e9f2-d583-4157-aafd-35aba7652150","system_id":"levelo_inurba_marseille","lat":43.284186,"lon":5.349866,"is_reserved":false,"is_disabled":false,"rental_uris":{"android":"levelo://app?vid=ace7e9f2-d583-4157-aafd-35aba7652150","ios":"levelo://app?vid=ace7e9f2-d583-4157-aafd-35aba7652150"},"vehicle_type_id":"4","last_reported":1753283543,"current_range_meters":19600,"station_id":"ce4bhbh2rcd13ifvqepg","pricing_plan_id":"cebpf4jnsgd1na2vs0mg"},{"bike_id":"3e7a6c9e-1ec8-4c70-9bc0-27ea105ed580","system_id":"levelo_inurba_marseille","lat":43.28155,"lon":5.42654,"is_reserved":false,"is_disabled":false,"rental_uris":{"android":"levelo://app?vid=3e7a6c9e-1ec8-4c70-9bc0-27ea105ed580","ios":"levelo://app?vid=3e7a6c9e-1ec8-4c70-9bc0-27ea105ed580"},"vehicle_type_id":"4","last_reported":1753283543,"current_range_meters":20000,"station_id":"ce4bhnh2rcd13ifvqgug","pricing_plan_id":"cebpf4jnsgd1na2vs0mg"},{"bike_id":"f1a216d0-ba8c-48f1-a9cb-f2de3cc1e01c","system_id":"levelo_inurba_marseille","lat":43.336101,"lon":5.410341,"is_reserved":false,"is_disabled":false,"rental_uris":{"android":"levelo://app?vid=f1a216d0-ba8c-48f1-a9cb-f2de3cc1e01c","ios":"levelo://app?vid=f1a216d0-ba8c-48f1-a9cb-f2de3cc1e01c"},"vehicle_type_id":"4","last_reported":1753283543,"current_range_meters":20000,"station_id":"ce4bhqh2rcd13ifvqhmg","pricing_plan_id":"cebpf4jnsgd1na2vs0mg"},{"bike_id":"0f2b2ec0-8020-4f4b-b73f-3c721cfec5af","system_id":"levelo_inurba_marseille","lat":43.318854,"lon":5.407454,"is_reserved":false,"is_disabled":false,"rental_uris":{"android":"levelo://app?vid=0f2b2ec0-8020-4f4b-b73f-3c721cfec5af","ios":"levelo://app?vid=0f2b2ec0-8020-4f4b-b73f-3c721cfec5af"},"vehicle_type_id":"4","last_reported":1753283543,"current_range_meters":20000,"station_id":"ce4bhq12rcd13ifvqhig","pricing_plan_id":"cebpf4jnsgd1na2vs0mg"},{"bike_id":"4876c83b-e59a-4f0c-bbb5-d125b4232c70","system_id":"levelo_inurba_marseille","lat":43.30543,"lon":5.36559,"is_reserved":false,"is_disabled":false,"rental_uris":{"android":"levelo://app?vid=4876c83b-e59a-4f0c-bbb5-d125b4232c70","ios":"levelo://app?vid=4876c83b-e59a-4f0c-bbb5-d125b4232c70"},"vehicle_type_id":"4","last_reported":1753283543,"current_range_meters":20000,"station_id":"ce4bgs12rcd13ifvqcag","pricing_plan_id":"cebpf4jnsgd1na2vs0mg"},{"bike_id":"d806b414-8a1f-452f-ad09-e763492cde92","system_id":"levelo_inurba_marseille","lat":43.29808,"lon":5.38094,"is_reserved":false,"is_disabled":false,"rental_uris":{"android":"levelo://app?vid=d806b414-8a1f-452f-ad09-e763492cde92","ios":"levelo://app?vid=d806b414-8a1f-452f-ad09-e763492cde92"},"vehicle_type_id":"4","last_reported":1753283543,"current_range_meters":20000,"station_id":"ce4bgip2rcd13ifvqbb0","pricing_plan_id":"cebpf4jnsgd1na2vs0mg"},{"bike_id":"20efd2e8-506a-495b-9ef6-b2f64da538fb","system_id":"levelo_inurba_marseille","lat":43.28993,"lon":5.366279,"is_reserved":false,"is_disabled":false,"rental_uris":{"android":"levelo://app?vid=20efd2e8-506a-495b-9ef6-b2f64da538fb","ios":"levelo://app?vid=20efd2e8-506a-495b-9ef6-b2f64da538fb"},"vehicle_type_id":"4","last_reported":1753283543,"current_range_meters":20000,"station_id":"ce4bhap2rcd13ifvqek0","pricing_plan_id":"cebpf4jnsgd1na2vs0mg"},{"bike_id":"8de2178d-a046-4698-88c1-346909c576e6","system_id":"levelo_inurba_marseille","lat":43.27065,"lon":5.40246,"is_reserved":false,"is_disabled":false,"rental_uris":{"android":"levelo://app?vid=8de2178d-a046-4698-88c1-346909c576e6","ios":"levelo://app?vid=8de2178d-a046-4698-88c1-346909c576e6"},"vehicle_type_id":"4","last_reported":1753283543,"current_range_meters":20000,"station_id":"ce4bhk92rcd13ifvqgc0","pricing_plan_id":"cebpf4jnsgd1na2vs0mg"},{"bike_id":"0fcd8dff-21d6-4858-9eb3-4a2bc10325cf","system_id":"levelo_inurba_marseille","lat":43.28418,"lon":5.35005,"is_reserved":false,"is_disabled":false,"rental_uris":{"android":"levelo://app?vid=0fcd8dff-21d6-4858-9eb3-4a2bc10325cf","ios":"levelo://app?vid=0fcd8dff-21d6-4858-9eb3-4a2bc10325cf"},"vehicle_type_id":"4","last_reported":1753283543,"current_range_meters":20000,"station_id":"ce4bhbh2rcd13ifvqepg","pricing_plan_id":"cebpf4jnsgd1na2vs0mg"},{"bike_id":"b7dad234-e0b1-49ef-a753-683227550af8","system_id":"levelo_inurba_marseille","lat":43.30934,"lon":5.36838,"is_reserved":false,"is_disabled":false,"rental_uris":{"android":"levelo://app?vid=b7dad234-e0b1-49ef-a753-683227550af8","ios":"levelo://app?vid=b7dad234-e0b1-49ef-a753-683227550af8"},"vehicle_type_id":"4","last_reported":1753283543,"current_range_meters":20000,"station_id":"ce4bgn92rcd13ifvqbvg","pricing_plan_id":"cebpf4jnsgd1na2vs0mg"},{"bike_id":"e401289a-83cf-4377-aa07-419b9b37079e","system_id":"levelo_inurba_marseille","lat":43.23107,"lon":5.35492,"is_reserved":false,"is_disabled":false,"rental_uris":{"android":"levelo://app?vid=e401289a-83cf-4377-aa07-419b9b37079e","ios":"levelo://app?vid=e401289a-83cf-4377-aa07-419b9b37079e"},"vehicle_type_id":"4","last_reported":1753283543,"current_range_meters":20000,"station_id":"","pricing_plan_id":"cebpf4jnsgd1na2vs0mg"},{"bike_id":"3e8884ec-1390-48c4-9fd5-1787287eb49f","system_id":"levelo_inurba_marseille","lat":43.28155,"lon":5.42644,"is_reserved":false,"is_disabled":false,"rental_uris":{"android":"levelo://app?vid=3e8884ec-1390-48c4-9fd5-1787287eb49f","ios":"levelo://app?vid=3e8884ec-1390-48c4-9fd5-1787287eb49f"},"vehicle_type_id":"4","last_reported":1753283543,"current_range_meters":20400,"station_id":"ce4bhnh2rcd13ifvqgug","pricing_plan_id":"cebpf4jnsgd1na2vs0mg"},{"bike_id":"472a7151-5c3f-4f4c-8c0d-1c1c93cc9dfc","system_id":"levelo_inurba_marseille","lat":43.28153,"lon":5.42639,"is_reserved":false,"is_disabled":false,"rental_uris":{"android":"levelo://app?vid=472a7151-5c3f-4f4c-8c0d-1c1c93cc9dfc","ios":"levelo://app?vid=472a7151-5c3f-4f4c-8c0d-1c1c93cc9dfc"},"vehicle_type_id":"4","last_reported":1753283543,"current_range_meters":20400,"station_id":"ce4bhnh2rcd13ifvqgug","pricing_plan_id":"cebpf4jnsgd1na2vs0mg"},{"bike_id":"0a54ec4b-0637-426d-b039-ec97bdbf37da","system_id":"levelo_inurba_marseille","lat":43.301392,"lon":5.38775,"is_reserved":false,"is_disabled":false,"rental_uris":{"android":"levelo://app?vid=0a54ec4b-0637-426d-b039-ec97bdbf37da","ios":"levelo://app?vid=0a54ec4b-0637-426d-b039-ec97bdbf37da"},"vehicle_type_id":"4","last_reported":1753283543,"current_range_meters":20400,"station_id":"ce4bghh2rcd13ifvqb60","pricing_plan_id":"cebpf4jnsgd1na2vs0mg"},{"bike_id":"b0f04ac8-ec34-4209-9312-ed2594748929","system_id":"levelo_inurba_marseille","lat":43.28452,"lon":5.3589,"is_reserved":false,"is_disabled":false,"rental_uris":{"android":"levelo://app?vid=b0f04ac8-ec34-4209-9312-ed2594748929","ios":"levelo://app?vid=b0f04ac8-ec34-4209-9312-ed2594748929"},"vehicle_type_id":"4","last_reported":1753283543,"current_range_meters":20400,"station_id":"ce4bhah2rcd13ifvqei0","pricing_plan_id":"cebpf4jnsgd1na2vs0mg"},{"bike_id":"32633a5b-def6-4988-9840-3562b5893f9c","system_id":"levelo_inurba_marseille","lat":43.2839,"lon":5.35011,"is_reserved":false,"is_disabled":false,"rental_uris":{"android":"levelo://app?vid=32633a5b-def6-4988-9840-3562b5893f9c","ios":"levelo://app?vid=32633a5b-def6-4988-9840-3562b5893f9c"},"vehicle_type_id":"4","last_reported":1753283543,"current_range_meters":20400,"station_id":"ce4bhbh2rcd13ifvqepg","pricing_plan_id":"cebpf4jnsgd1na2vs0mg"},{"bike_id":"4ab7d58d-3df7-4292-a37a-1c65b36abd14","system_id":"levelo_inurba_marseille","lat":43.30523,"lon":5.36526,"is_reserved":false,"is_disabled":false,"rental_uris":{"android":"levelo://app?vid=4ab7d58d-3df7-4292-a37a-1c65b36abd14","ios":"levelo://app?vid=4ab7d58d-3df7-4292-a37a-1c65b36abd14"},"vehicle_type_id":"4","last_reported":1753283543,"current_range_meters":20400,"station_id":"ce4bgs12rcd13ifvqcag","pricing_plan_id":"cebpf4jnsgd1na2vs0mg"},{"bike_id":"2fd30b0d-e2c6-42ea-927a-e49eda822018","system_id":"levelo_inurba_marseille","lat":43.28154,"lon":5.42651,"is_reserved":false,"is_disabled":false,"rental_uris":{"android":"levelo://app?vid=2fd30b0d-e2c6-42ea-927a-e49eda822018","ios":"levelo://app?vid=2fd30b0d-e2c6-42ea-927a-e49eda822018"},"vehicle_type_id":"4","last_reported":1753283543,"current_range_meters":20800,"station_id":"ce4bhnh2rcd13ifvqgug","pricing_plan_id":"cebpf4jnsgd1na2vs0mg"},{"bike_id":"b0275112-8443-4d48-b750-72b8d1cf1020","system_id":"levelo_inurba_marseille","lat":43.30531,"lon":5.3673,"is_reserved":false,"is_disabled":false,"rental_uris":{"android":"levelo://app?vid=b0275112-8443-4d48-b750-72b8d1cf1020","ios":"levelo://app?vid=b0275112-8443-4d48-b750-72b8d1cf1020"},"vehicle_type_id":"4","last_reported":1753283543,"current_range_meters":20400,"station_id":"ce4bgrp2rcd13ifvqc9g","pricing_plan_id":"cebpf4jnsgd1na2vs0mg"},