{"last_updated":1699131917,"ttl":30,"version":"2.2","data":{"bikes":[{"bike_id":"ead574ed-15fb-404e-a807-da1b07c67d59","system_id":"levelo_inurba_marseille","lat":43.313391,"lon":5.36706,"is_reserved":false,"is_disabled":false,"rental_uris":{"android":"levelo://app?vid=ead574ed-15fb-404e-a807-da1b07c67d59","ios":"levelo://app?vid=ead574ed-15fb-404e-a807-da1b07c67d59"},"vehicle_type_id":"4","last_reported":1699131917,"current_range_meters":23600,"station_id":"ce4bgr92rcd13ifvqc6g","pricing_plan_id":"free"},{"bike_id":"066a7a89-e030-4a2c-8fc7-6f08784a5fe9","system_id":"levelo_inurba_marseille","lat":43.313391,"lon":5.36706,"is_reserved":false,"is_disabled":false,"rental_uris":{"android":"levelo://app?vid=066a7a89-e030-4a2c-8fc7-6f08784a5fe9","ios":"levelo://app?vid=066a7a89-e030-4a2c-8fc7-6f08784a5fe9"},"vehicle_type_id":"4","last_reported":1699131917,"current_range_meters":14000,"station_id":"ce4bgr92rcd13ifvqc6g","pricing_plan_id":"free"},{"bike_id":"3d30e7cf-bbc7-49f6-b46d-c3ad8f3b4631","system_id":"levelo_inurba_marseille","lat":43.314811,"lon":5.373104,"is_reserved":false,"is_disabled":false,"rental_uris":{"android":"levelo://app?vid=3d30e7cf-bbc7-49f6-b46d-c3ad8f3b4631","ios":"levelo://app?vid=3d30e7cf-bbc7-49f6-b46d-c3ad8f3b4631"},"vehicle_type_id":"4","last_reported":1699131917,"current_range_meters":27600,"station_id":"ce4bgt12rcd13ifvqcd0","pricing_plan_id":"free"},{"bike_id":"4af69141-dc58-45fa-aec8-bc82cb0a1c88","system_id":"levelo_inurba_marseille","lat":43.31488,"lon":5.37309,"is_reserved":false,"is_disabled":false,"rental_uris":{"android":"levelo://app?vid=4af69141-dc58-45fa-aec8-bc82cb0a1c88","ios":"levelo://app?vid=4af69141-dc58-45fa-aec8-bc82cb0a1c88"},"vehicle_type_id":"4","last_reported":1699131917,"current_range_meters":18400,"station_id":"ce4bgt12rcd13ifvqcd0","pricing_plan_id":"free"},{"bike_id":"aaacfe06-b924-4626-9e6e-17f7cc8fb39c","system_id":"levelo_inurba_marseille","lat":43.309039,"lon":5.371797,"is_reserved":false,"is_disabled":false,"rental_uris":{"android":"levelo://app?vid=aaacfe06-b924-4626-9e6e-17f7cc8fb39c","ios":"levelo://app?vid=aaacfe06-b924-4626-9e6e-17f7cc8fb39c"},"vehicle_type_id":"4","last_reported":1699131917,"current_range_meters":12800,"station_id":"ce4bguh2rcd13ifvqckg","pricing_plan_id":"free"},{"bike_id":"c7527c96-99bc-4c4b-8ef6-01eaa2b29877","system_id":"levelo_inurba_marseille","lat":43.30889,"lon":5.37195,"is_reserved":false,"is_disabled":false,"rental_uris":{"android":"levelo://app?vid=c7527c96-99bc-4c4b-8ef6-01eaa2b29877","ios":"levelo://app?vid=c7527c96-99bc-4c4b-8ef6-01eaa2b29877"},"vehicle_type_id":"4","last_reported":1699131917,"current_range_meters":0,"station_id":"ce4bguh2rcd13ifvqckg","pricing_plan_id":"free"},{"bike_id":"7654d496-15f6-460d-8aaa-7eaa097202e7","system_id":"levelo_inurba_marseille","lat":43.317961,"lon":5.369399,"is_reserved":false,"is_disabled":false,"rental_uris":{"android":"levelo://app?vid=7654d496-15f6-460d-8aaa-7eaa097202e7","ios":"levelo://app?vid=7654d496-15f6-460d-8aaa-7eaa097202e7"},"vehicle_type_id":"4","last_reported":1699131917,"current_range_meters":22000,"station_id":"","pricing_plan_id":"free"},{"bike_id":"7f6d1821-d960-4aa5-81c2-8064a10d310c","system_id":"levelo_inurba_marseille","lat":43.31885,"lon":5.370823,"is_reserved":false,"is_disabled":false,"rental_uris":{"android":"levelo://app?vid=7f6d1821-d960-4aa5-81c2-8064a10d310c","ios":"levelo://app?vid=7f6d1821-d960-4aa5-81c2-8064a10d310c"},"vehicle_type_id":"4","last_reported":1699131917,"current_range_meters":8400,"station_id":"","pricing_plan_id":"free"},{"bike_id":"65ce87cf-4054-459c-bc2c-ddaeefd01486","system_id":"levelo_inurba_marseille","lat":43.30549,"lon":5.36724,"is_reserved":false,"is_disabled":false,"rental_uris":{"android":"levelo://app?vid=65ce87cf-4054-459c-bc2c-ddaeefd01486","ios":"levelo://app?vid=65ce87cf-4054-459c-bc2c-ddaeefd01486"},"vehicle_type_id":"4","last_reported":1699131917,"current_range_meters":25200,"station_id":"ce4bgrp2rcd13ifvqc9g","pricing_plan_id":"free"},{"bike_id":"770aa8b0-74e4-477c-8cc4-fd5d552902a6","system_id":"levelo_inurba_marseille","lat":43.31669,"lon":5.37533,"is_reserved":false,"is_disabled":false,"rental_uris":{"android":"levelo://app?vid=770aa8b0-74e4-477c-8cc4-fd5d552902a6","ios":"levelo://app?vid=770aa8b0-74e4-477c-8cc4-fd5d552902a6"},"vehicle_type_id":"4","last_reported":1699131917,"current_range_meters":11600,"station_id":"","pricing_plan_id":"free"},{"bike_id":"f252b071-dddd-4e5f-ad07-506846af6d1a","system_id":"levelo_inurba_marseille","lat":43.305714,"lon":5.365633,"is_reserved":false,"is_disabled":false,"rental_uris":{"android":"levelo://app?vid=f252b071-dddd-4e5f-ad07-506846af6d1a","ios":"levelo://app?vid=f252b071-dddd-4e5f-ad07-506846af6d1a"},"vehicle_type_id":"4","last_reported":1699131917,"current_range_meters":30000,"station_id":"ce4bgs12rcd13ifvqcag","pricing_plan_id":"free"},{"bike_id":"60cf8c58-8af3-46ca-9b92-fa87bc2389cd","system_id":"levelo_inurba_marseille","lat":43.305989,"lon":5.37225,"is_reserved":false,"is_disabled":false,"rental_uris":{"android":"levelo://app?vid=60cf8c58-8af3-46ca-9b92-fa87bc2389cd","ios":"levelo://app?vid=60cf8c58-8af3-46ca-9b92-fa87bc2389cd"},"vehicle_type_id":"4","last_reported":1699131917,"current_range_meters":21200,"station_id":"ce4bgqh2rcd13ifvqc4g","pricing_plan_id":"free"},{"bike_id":"b07edc0a-15b7-4d92-a673-b73467be1ec1","system_id":"levelo_inurba_marseille","lat":43.30605,"lon":5.37227,"is_reserved":false,"is_disabled":false,"rental_uris":{"android":"levelo://app?vid=b07edc0a-15b7-4d92-a673-b73467be1ec1","ios":"levelo://app?vid=b07edc0a-15b7-4d92-a673-b73467be1ec1"},"vehicle_type_id":"4","last_reported":1699131917,"current_range_meters":19200,"station_id":"ce4bgqh2rcd13ifvqc4g","pricing_plan_id":"free"},{"bike_id":"9fbf07fa-0ea4-43d6-8ed6-82424e129746","system_id":"levelo_inurba_marseille","lat":43.320023,"lon":5.372058,"is_reserved":false,"is_disabled":false,"rental_uris":{"android":"levelo://app?vid=9fbf07fa-0ea4-43d6-8ed6-82424e129746","ios":"levelo://app?vid=9fbf07fa-0ea4-43d6-8ed6-82424e129746"},"vehicle_type_id":"4","last_reported":1699131917,"current_range_meters":5200,"station_id":"","pricing_plan_id":"free"},{"bike_id":"aae067d6-1e5e-4e1f-8bf6-dc4fbb2489db","system_id":"levelo_inurba_marseille","lat":43.307945,"lon":5.376487,"is_reserved":false,"is_disabled":false,"rental_uris":{"android":"levelo://app?vid=aae067d6-1e5e-4e1f-8bf6-dc4fbb2489db","ios":"levelo://app?vid=aae067d6-1e5e-4e1f-8bf6-dc4fbb2489db"},"vehicle_type_id":"4","last_reported":1699131917,"current_range_meters":20800,"station_id":"ce4bgv92rcd13ifvqcq0","pricing_plan_id":"free"},{"bike_id":"d79a84f5-0900-48ce-bcbe-f45e0b14e35d","system_id":"levelo_inurba_marseille","lat":43.317075,"lon":5.377367,"is_reserved":false,"is_disabled":false,"rental_uris":{"android":"levelo://app?vid=d79a84f5-0900-48ce-bcbe-f45e0b14e35d","ios":"levelo://app?vid=d79a84f5-0900-48ce-bcbe-f45e0b14e35d"},"vehicle_type_id":"4","last_reported":1699131917,"current_range_meters":21600,"station_id":"ce4bgth2rcd13ifvqch0","pricing_plan_id":"free"},{"bike_id":"50f1378d-8771-414d-bcb8-53155a9081af","system_id":"levelo_inurba_marseille","lat":43.317075,"lon":5.377367,"is_reserved":false,"is_disabled":false,"rental_uris":{"android":"levelo://app?vid=50f1378d-8771-414d-bcb8-53155a9081af","ios":"levelo://app?vid=50f1378d-8771-414d-bcb8-53155a9081af"},"vehicle_type_id":"4","last_reported":1699131917,"current_range_meters":18400,"station_id":"ce4bgth2rcd13ifvqch0","pricing_plan_id":"free"},{"bike_id":"8d9c4905-f382-46ca-b21e-1d85d111f30f","system_id":"levelo_inurba_marseille","lat":43.301939,"lon":5.366286,"is_reserved":false,"is_disabled":false,"rental_uris":{"android":"levelo://app?vid=8d9c4905-f382-46ca-b21e-1d85d111f30f","ios":"levelo://app?vid=8d9c4905-f382-46ca-b21e-1d85d111f30f"},"vehicle_type_id":"4","last_reported":1699131917,"current_range_meters":19200,"station_id":"ce4bgrh2rcd13ifvqc8g","pricing_plan_id":"free"},{"bike_id":"c7c19d62-e70c-4b2c-8111-2928655db55a","system_id":"levelo_inurba_marseille","lat":43.308053,"lon":5.381503,"is_reserved":false,"is_disabled":false,"rental_uris":{"android":"levelo://app?vid=c7c19d62-e70c-4b2c-8111-2928655db55a","ios":"levelo://app?vid=c7c19d62-e70c-4b2c-8111-2928655db55a"},"vehicle_type_id":"4","last_reported":1699131917,"current_range_meters":400,"station_id":"ce4bgt12rcd13ifvqce0","pricing_plan_id":"free"},{"bike_id":"bb8bacc7-96e2-4222-8bbf-88f35abe576b","system_id":"levelo_inurba_marseille","lat":43.323109,"lon":5.374524,"is_reserved":false,"is_disabled":false,"rental_uris":{"android":"levelo://app?vid=bb8bacc7-96e2-4222-8bbf-88f35abe576b","ios":"levelo://app?vid=bb8bacc7-96e2-4222-8bbf-88f35abe576b"},"vehicle_type_id":"4","last_reported":1699131917,"current_range_meters":0,"station_id":"","pricing_plan_id":"free"},{"bike_id":"4417582d-c2ca-40fe-a249-37e4da6d0b93","system_id":"levelo_inurba_marseille","lat":43.304606,"lon":5.379026,"is_reserved":false,"is_disabled":false,"rental_uris":{"android":"levelo://app?vid=4417582d-c2ca-40fe-a249-37e4da6d0b93","ios":"levelo://app?vid=4417582d-c2ca-40fe-a249-37e4da6d0b93"},"vehicle_type_id":"4","last_reported":1699131917,"current_range_meters":31600,"station_id":"ce4bgup2rcd13ifvqcn0","pricing_plan_id":"free"},{"bike_id":"e1fb9cb5-7800-48c3-9c1e-04e0402a52bd","system_id":"levelo_inurba_marseille","lat":43.32477,"lon":5.365545,"is_reserved":false,"is_disabled":false,"rental_uris":{"android":"levelo://app?vid=e1fb9cb5-7800-48c3-9c1e-04e0402a52bd","ios":"levelo://app?vid=e1fb9cb5-7800-48c3-9c1e-04e0402a52bd"},"vehicle_type_id":"4","last_reported":1699131917,"current_range_meters":22000,"station_id":"ce4bhs12rcd13ifvqhvg","pricing_plan_id":"free"},{"bike_id":"e8584f7f-3a22-4191-9ecd-5314ed574e4e","system_id":"levelo_inurba_marseille","lat":43.303586,"lon":5.377754,"is_reserved":false,"is_disabled":false,"rental_uris":{"android":"levelo://app?vid=e8584f7f-3a22-4191-9ecd-5314ed574e4e","ios":"levelo://app?vid=e8584f7f-3a22-4191-9ecd-5314ed574e4e"},"vehicle_type_id":"4","last_reported":1699131917,"current_range_meters":18000,"station_id":"","pricing_plan_id":"free"},{"bike_id":"c37a60ff-8992-4e74-8e8e-b094339c7ef0","system_id":"levelo_inurba_marseille","lat":43.32482,"lon":5.36575,"is_reserved":false,"is_disabled":false,"rental_uris":{"android":"levelo://app?vid=c37a60ff-8992-4e74-8e8e-b094339c7ef0","ios":"levelo://app?vid=c37a60ff-8992-4e74-8e8e-b094339c7ef0"},"vehicle_type_id":"4","last_reported":1699131917,"current_range_meters":17600,"station_id":"ce4bhs12rcd13ifvqhvg","pricing_plan_id":"free"},{"bike_id":"0abc3a07-439b-4627-b7fe-577c3a686269","system_id":"levelo_inurba_marseille","lat":43.32489,"lon":5.36563,"is_reserved":false,"is_disabled":false,"rental_uris":{"android":"levelo://app?vid=0abc3a07-439b-4627-b7fe-577c3a686269","ios":"levelo://app?vid=0abc3a07-439b-4627-b7fe-577c3a686269"},"vehicle_type_id":"4","last_reported":1699131917,"current_range_meters":25200,"station_id":"ce4bhs12rcd13ifvqhvg","pricing_plan_id":"free"},{"bike_id":"43b4afb6-742e-4852-9cfb-8c3678d7d688","system_id":"levelo_inurba_marseille","lat":43.302908,"lon":5.376979,"is_reserved":false,"is_disabled":false,"rental_uris":{"android":"levelo://app?vid=43b4afb6-742e-4852-9cfb-8c3678d7d688","ios":"levelo://app?vid=43b4afb6-742e-4852-9cfb-8c3678d7d688"},"vehicle_type_id":"4","last_reported":1699131917,"current_range_meters":28800,"station_id":"ce4bguh2rcd13ifvqcj0","pricing_plan_id":"free"},{"bike_id":"00200ea7-45d4-4dfa-bff4-b8e17ce997e7","system_id":"levelo_inurba_marseille","lat":43.301429,"lon":5.37413,"is_reserved":false,"is_disabled":false,"rental_uris":{"android":"levelo://app?vid=00200ea7-45d4-4dfa-bff4-b8e17ce997e7","ios":"levelo://app?vid=00200ea7-45d4-4dfa-bff4-b8e17ce997e7"},"vehicle_type_id":"4","last_reported":1699131917,"current_range_meters":30400,"station_id":"ce4bgs92rcd13ifvqcc0","pricing_plan_id":"free"},{"bike_id":"44278700-4370-4f7e-955a-34cba2f251b7","system_id":"levelo_inurba_marseille","lat":43.3217,"lon":5.37901,"is_reserved":false,"is_disabled":false,"rental_uris":{"android":"levelo://app?vid=44278700-4370-4f7e-955a-34cba2f251b7","ios":"levelo://app?vid=44278700-4370-4f7e-955a-34cba2f251b7"},"vehicle_type_id":"4","last_reported":1699131917,"current_range_meters":12400,"station_id":"ce4bhqp2rcd13ifvqhog","pricing_plan_id":"free"},{"bike_id":"cde09343-cb34-42b4-bd82-ba3dc99ca7a9","system_id":"levelo_inurba_marseille","lat":43.31541,"lon":5.38404,"is_reserved":false,"is_disabled":false,"rental_uris":{"android":"levelo://app?vid=cde09343-cb34-42b4-bd82-ba3dc99ca7a9","ios":"levelo://app?vid=cde09343-cb34-42b4-bd82-ba3dc99ca7a9"},"vehicle_type_id":"4","last_reported":1699131917,"current_range_meters":11200,"station_id":"ce4bhqp2rcd13ifvqhng","pricing_plan_id":"free"},{"bike_id":"8060e252-2c91-4184-ab29-aa16d185b252","system_id":"levelo_inurba_marseille","lat":43.319936,"lon":5.381554,"is_reserved":false,"is_disabled":false,"rental_uris":{"android":"levelo://app?vid=8060e252-2c91-4184-ab29-aa16d185b252","ios":"levelo://app?vid=8060e252-2c91-4184-ab29-aa16d185b252"},"vehicle_type_id":"4","last_reported":1699131917,"current_range_meters":20800,"station_id":"ce4bhr12rcd13ifvqhpg","pricing_plan_id":"free"},{"bike_id":"3f2c2093-4a23-4121-b50d-71f37016ef76","system_id":"levelo_inurba_marseille","lat":43.314811,"lon":5.373103,"is_reserved":false,"is_disabled":false,"rental_uris":{"android":"levelo://app?vid=3f2c2093-4a23-4121-b50d-71f37016ef76","ios":"levelo://app?vid=3f2c2093-4a23-4121-b50d-71f37016ef76"},"vehicle_type_id":"4","last_reported":1699131917,"current_range_meters":22400,"station_id":"ce4bgt12rcd13ifvqcd0","pricing_plan_id":"free"},{"bike_id":"d0bf0c20-045d-4510-9acb-20cf3c31dec1","system_id":"levelo_inurba_marseille","lat":43.319958,"lon":5.381565,"is_reserved":false,"is_disabled":false,"rental_uris":{"android":"levelo://app?vid=d0bf0c20-045d-4510-9acb-20cf3c31dec1","ios":"levelo://app?vid=d0bf0c20-045d-4510-9acb-20cf3c31dec1"},"vehicle_type_id":"4","last_reported":1699131917,"current_range_meters":25200,"station_id":"ce4bhr12rcd13ifvqhpg","pricing_plan_id":"free"},{"bike_id":"80b21c4a-7369-4ad4-8350-dfd03b09004c","system_id":"levelo_inurba_marseille","lat":43.31992,"lon":5.38163,"is_reserved":false,"is_disabled":false,"rental_uris":{"android":"levelo://app?vid=80b21c4a-7369-4ad4-8350-dfd03b09004c","ios":"levelo://app?vid=80b21c4a-7369-4ad4-8350-dfd03b09004c"},"vehicle_type_id":"4","last_reported":1699131917,"current_range_meters":0,"station_id":"ce4bhr12rcd13ifvqhpg","pricing_plan_id":"free"},{"bike_id":"0d775faa-6379-4d34-a519-c43c2a993974","system_id":"levelo_inurba_marseille","lat":43.319985,"lon":5.38157,"is_reserved":false,"is_disabled":false,"rental_uris":{"android":"levelo://app?vid=0d775faa-6379-4d34-a519-c43c2a993974","ios":"levelo://app?vid=0d775faa-6379-4d34-a519-c43c2a993974"},"vehicle_type_id":"4","last_reported":1699131917,"current_range_meters":11600,"station_id":"ce4bhr12rcd13ifvqhpg","pricing_plan_id":"free"},{"bike_id":"26ba97eb-fe02-49db-9208-364e22877589","system_id":"levelo_inurba_marseille","lat":43.32005,"lon":5.38158,"is_reserved":false,"is_disabled":false,"rental_uris":{"android":"levelo://app?vid=26ba97eb-fe02-49db-9208-364e22877589","ios":"levelo://app?vid=26ba97eb-fe02-49db-9208-364e22877589"},"vehicle_type_id":"4","last_reported":1699131917,"current_range_meters":0,"station_id":"ce4bhr12rcd13ifvqhpg","pricing_plan_id":"free"},{"bike_id":"a229adbb-a3fa-4e90-a57a-b4e289f240d4","system_id":"levelo_inurba_marseille","lat":43.299852,"lon":5.371833,"is_reserved":false,"is_disabled":false,"rental_uris":{"android":"levelo://app?vid=a229adbb-a3fa-4e90-a57a-b4e289f240d4","ios":"levelo://app?vid=a229adbb-a3fa-4e90-a57a-b4e289f240d4"},"vehicle_type_id":"4","last_reported":1699131917,"current_range_meters":14800,"station_id":"ce4bgh92rcd13ifvqb50","pricing_plan_id":"free"},{"bike_id":"a494bfac-5053-467b-9270-f070164b06ce","system_id":"levelo_inurba_marseille","lat":43.299724,"lon":5.371829,"is_reserved":false,"is_disabled":false,"rental_uris":{"android":"levelo://app?vid=a494bfac-5053-467b-9270-f070164b06ce","ios":"levelo://app?vid=a494bfac-5053-467b-9270-f070164b06ce"},"vehicle_type_id":"4","last_reported":1699131917,"current_range_meters":24000,"station_id":"ce4bgr92rcd13ifvqc7g","pricing_plan_id":"free"},{"bike_id":"10919331-8d60-4351-8332-63658c62f88c","system_id":"levelo_inurba_marseille","lat":43.299222,"lon":5.365554,"is_reserved":false,"is_disabled":false,"rental_uris":{"android":"levelo://app?vid=10919331-8d60-4351-8332-63658c62f88c","ios":"levelo://app?vid=10919331-8d60-4351-8332-63658c62f88c"},"vehicle_type_id":"4","last_reported":1699131917,"current_range_meters":3200,"station_id":"ce4bgm92rcd13ifvqbr0","pricing_plan_id":"free"},{"bike_id":"1c2c73ff-4601-4f33-b97f-da95bc589609","system_id":"levelo_inurba_marseille","lat":43.32148,"lon":5.38202,"is_reserved":false,"is_disabled":false,"rental_uris":{"android":"levelo://app?vid=1c2c73ff-4601-4f33-b97f-da95bc589609","ios":"levelo://app?vid=1c2c73ff-4601-4f33-b97f-da95bc589609"},"vehicle_type_id":"4","last_reported":1699131917,"current_range_meters":19200,"station_id":"","pricing_plan_id":"free"},{"bike_id":"cffe800b-8e46-4367-92e9-d9a0f2cba0f2","system_id":"levelo_inurba_marseille","lat":43.299626,"lon":5.375372,"is_reserved":false,"is_disabled":false,"rental_uris":{"android":"levelo://app?vid=cffe800b-8e46-4367-92e9-d9a0f2cba0f2","ios":"levelo://app?vid=cffe800b-8e46-4367-92e9-d9a0f2cba0f2"},"vehicle_type_id":"4","last_reported":1699131917,"current_range_meters":25200,"station_id":"ce4bgjh2rcd13ifvqbg0","pricing_plan_id":"free"},{"bike_id":"9144896c-5e61-4e3c-a154-47857038a0bc","system_id":"levelo_inurba_marseille","lat":43.298433,"lon":5.362774,"is_reserved":false,"is_disabled":false,"rental_uris":{"android":"levelo://app?vid=9144896c-5e61-4e3c-a154-47857038a0bc","ios":"levelo://app?vid=9144896c-5e61-4e3c-a154-47857038a0bc"},"vehicle_type_id":"4","last_reported":1699131917,"current_range_meters":3600,"station_id":"ce4bgpp2rcd13ifvqc3g","pricing_plan_id":"free"},{"bike_id":"3f792c02-e0d0-4aac-a136-3586b6fe6f67","system_id":"levelo_inurba_marseille","lat":43.298433,"lon":5.362774,"is_reserved":false,"is_disabled":false,"rental_uris":{"android":"levelo://app?vid=3f792c02-e0d0-4aac-a136-3586b6fe6f67","ios":"levelo://app?vid=3f792c02-e0d0-4aac-a136-3586b6fe6f67"},"vehicle_type_id":"4","last_reported":1699131917,"current_range_meters":24000,"station_id":"ce4bgpp2rcd13ifvqc3g","pricing_plan_id":"free"},{"bike_id":"18f52837-05d2-4e92-aa87-e1b454a1275e","system_id":"levelo_inurba_marseille","lat":43.305364,"lon":5.384119,"is_reserved":false,"is_disabled":false,"rental_uris":{"android":"levelo://app?vid=18f52837-05d2-4e92-aa87-e1b454a1275e","ios":"levelo://app?vid=18f52837-05d2-4e92-aa87-e1b454a1275e"},"vehicle_type_id":"4","last_reported":1699131917,"current_range_meters":16000,"station_id":"ce4bgg92rcd13ifvqb30","pricing_plan_id":"free"},{"bike_id":"d79c47fd-9cbf-46ad-b121-35c5cf0b67f4","system_id":"levelo_inurba_marseille","lat":43.297794,"lon":5.370888,"is_reserved":false,"is_disabled":false,"rental_uris":{"android":"levelo://app?vid=d79c47fd-9cbf-46ad-b121-35c5cf0b67f4","ios":"levelo://app?vid=d79c47fd-9cbf-46ad-b121-35c5cf0b67f4"},"vehicle_type_id":"4","last_reported":1699131917,"current_range_meters":26800,"station_id":"ce4bgop2rcd13ifvqc1g","pricing_plan_id":"free"},{"bike_id":"04d0d730-0d72-4b77-bea7-5e49897a16f5","system_id":"levelo_inurba_marseille","lat":43.322872,"lon":5.382756,"is_reserved":false,"is_disabled":false,"rental_uris":{"android":"levelo://app?vid=04d0d730-0d72-4b77-bea7-5e49897a16f5","ios":"levelo://app?vid=04d0d730-0d72-4b77-bea7-5e49897a16f5"},"vehicle_type_id":"4","last_reported":1699131917,"current_range_meters":18400,"station_id":"ce4bhr12rcd13ifvqhqg","pricing_plan_id":"free"},{"bike_id":"ee04e5cc-451d-44b6-bca0-cfc749a45964","system_id":"levelo_inurba_marseille","lat":43.322872,"lon":5.382756,"is_reserved":false,"is_disabled":false,"rental_uris":{"android":"levelo://app?vid=ee04e5cc-451d-44b6-bca0-cfc749a45964","ios":"levelo://app?vid=ee04e5cc-451d-44b6-bca0-cfc749a45964"},"vehicle_type_id":"4","last_reported":1699131917,"current_range_meters":28000,"station_id":"ce4bhr12rcd13ifvqhqg","pricing_plan_id":"free"},{"bike_id":"3d07706a-9aac-42e1-baa4-4e129dd27e78","system_id":"levelo_inurba_marseille","lat":43.322872,"lon":5.382756,"is_reserved":false,"is_disabled":false,"rental_uris":{"android":"levelo://app?vid=3d07706a-9aac-42e1-baa4-4e129dd27e78","ios":"levelo://app?vid=3d07706a-9aac-42e1-baa4-4e129dd27e78"},"vehicle_type_id":"4","last_reported":1699131917,"current_range_meters":12800,"station_id":"ce4bhr12rcd13ifvqhqg","pricing_plan_id":"free"},{"bike_id":"7af947a6-cf45-4409-8f3d-3cecf979aa00","system_id":"levelo_inurba_marseille","lat":43.322872,"lon":5.382756,"is_reserved":false,"is_disabled":false,"rental_uris":{"android":"levelo://app?vid=7af947a6-cf45-4409-8f3d-3cecf979aa00","ios":"levelo://app?vid=7af947a6-cf45-4409-8f3d-3cecf979aa00"},"vehicle_type_id":"4","last_reported":1699131917,"current_range_meters":16800,"station_id":"ce4bhr12rcd13ifvqhqg","pricing_plan_id":"free"},{"bike_id":"a2bdcc1b-1e55-4eea-83fd-775ab9ebf99c","system_id":"levelo_inurba_marseille","lat":43.322872,"lon":5.382756,"is_reserved":false,"is_disabled":false,"rental_uris":{"android":"levelo://app?vid=a2bdcc1b-1e55-4eea-83fd-775ab9ebf99c","ios":"levelo://app?vid=a2bdcc1b-1e55-4eea-83fd-775ab9ebf99c"},"vehicle_type_id":"4","last_reported":1699131917,"current_range_meters":1600,"station_id":"ce4bhr12rcd13ifvqhqg","pricing_plan_id":"free"},{"bike_id":"62a36822-f960-421c-87ff-6a7d6c9e1351","system_id":"levelo_inurba_marseille","lat":43.322872,"lon":5.382756,"is_reserved":false,"is_disabled":false,"rental_uris":{"android":"levelo://app?vid=62a36822-f960-421c-87ff-6a7d6c9e1351","ios":"levelo://app?vid=62a36822-f960-421c-87ff-6a7d6c9e1351"},"vehicle_type_id":"4","last_reported":1699131917,"current_range_meters":31600,"station_id":"ce4bhr12rcd13ifvqhqg","pricing_plan_id":"free"},{"bike_id":"c9428514-9197-4976-812b-d61139ef9187","system_id":"levelo_inurba_marseille","lat":43.318846,"lon":5.386473,"is_reserved":false,"is_disabled":false,"rental_uris":{"android":"levelo://app?vid=c9428514-9197-4976-812b-d61139ef9187","ios":"levelo://app?vid=c9428514-9197-4976-812b-d61139ef9187"},"vehicle_type_id":"4","last_reported":1699131917,"current_range_meters":8000,"station_id":"","pricing_plan_id":"free"},{"bike_id":"5e23671e-c794-40d1-b294-e98d77f3dc0a","system_id":"levelo_inurba_marseille","lat":43.32827,"lon":5.36692,"is_reserved":false,"is_disabled":false,"rental_uris":{"android":"levelo://app?vid=5e23671e-c794-40d1-b294-e98d77f3dc0a","ios":"levelo://app?vid=5e23671e-c794-40d1-b294-e98d77f3dc0a"},"vehicle_type_id":"4","last_reported":1699131917,"current_range_meters":12000,"station_id":"ce4bhs92rcd13ifvqi0g","pricing_plan_id":"free"},{"bike_id":"6b16d2be-585d-43cf-8fdc-d22349c28d9d","system_id":"levelo_inurba_marseille","lat":43.328295,"lon":5.366888,"is_reserved":false,"is_disabled":false,"rental_uris":{"android":"levelo://app?vid=6b16d2be-585d-43cf-8fdc-d22349c28d9d","ios":"levelo://app?vid=6b16d2be-585d-43cf-8fdc-d22349c28d9d"},"vehicle_type_id":"4","last_reported":1699131917,"current_range_meters":29600,"station_id":"ce4bhs92rcd13ifvqi0g","pricing_plan_id":"free"},{"bike_id":"42177561-1db9-409f-84e1-0e1afcd8aeb3","system_id":"levelo_inurba_marseille","lat":43.32832,"lon":5.36683,"is_reserved":false,"is_disabled":false,"rental_uris":{"android":"levelo://app?vid=42177561-1db9-409f-84e1-0e1afcd8aeb3","ios":"levelo://app?vid=42177561-1db9-409f-84e1-0e1afcd8aeb3"},"vehicle_type_id":"4","last_reported":1699131917,"current_range_meters":25200,"station_id":"ce4bhs92rcd13ifvqi0g","pricing_plan_id":"free"},{"bike_id":"bbd1880c-75ee-4cd6-a747-3e00db1b758b","system_id":"levelo_inurba_marseille","lat":43.32833,"lon":5.366877,"is_reserved":false,"is_disabled":false,"rental_uris":{"android":"levelo://app?vid=bbd1880c-75ee-4cd6-a747-3e00db1b758b","ios":"levelo://app?vid=bbd1880c-75ee-4cd6-a747-3e00db1b758b"},"vehicle_type_id":"4","last_reported":1699131917,"current_range_meters":4000,"station_id":"ce4bhs92rcd13ifvqi0g","pricing_plan_id":"free"},{"bike_id":"fe645e10-b722-4f9b-98ca-0d8e5492ee16","system_id":"levelo_inurba_marseille","lat":43.29712,"lon":5.36623,"is_reserved":false,"is_disabled":false,"rental_uris":{"android":"levelo://app?vid=fe645e10-b722-4f9b-98ca-0d8e5492ee16","ios":"levelo://app?vid=fe645e10-b722-4f9b-98ca-0d8e5492ee16"},"vehicle_type_id":"4","last_reported":1699131917,"current_range_meters":12400,"station_id":"ce4bgn12rcd13ifvqbt0","pricing_plan_id":"free"},{"bike_id":"680c6606-7621-4591-9ffb-2c92b18663c0","system_id":"levelo_inurba_marseille","lat":43.29707,"lon":5.36613,"is_reserved":false,"is_disabled":false,"rental_uris":{"android":"levelo://app?vid=680c6606-7621-4591-9ffb-2c92b18663c0","ios":"levelo://app?vid=680c6606-7621-4591-9ffb-2c92b18663c0"},"vehicle_type_id":"4","last_reported":1699131917,"current_range_meters":9600,"station_id":"ce4bgn12rcd13ifvqbt0","pricing_plan_id":"free"},{"bike_id":"3af191b5-d05a-42c9-aef4-b9dda92e9e2d","system_id":"levelo_inurba_marseille","lat":43.29707,"lon":5.36607,"is_reserved":false,"is_disabled":false,"rental_uris":{"android":"levelo://app?vid=3af191b5-d05a-42c9-aef4-b9dda92e9e2d","ios":"levelo://app?vid=3af191b5-d05a-42c9-aef4-b9dda92e9e2d"},"vehicle_type_id":"4","last_reported":1699131917,"current_range_meters":10800,"station_id":"ce4bgn12rcd13ifvqbt0","pricing_plan_id":"free"},{"bike_id":"0c59d3c6-a2ff-4ef0-812b-61d663ded65d","system_id":"levelo_inurba_marseille","lat":43.29704,"lon":5.366014,"is_reserved":false,"is_disabled":false,"rental_uris":{"android":"levelo://app?vid=0c59d3c6-a2ff-4ef0-812b-61d663ded65d","ios":"levelo://app?vid=0c59d3c6-a2ff-4ef0-812b-61d663ded65d"},"vehicle_type_id":"4","last_reported":1699131917,"current_range_meters":10400,"station_id":"ce4bgn12rcd13ifvqbt0","pricing_plan_id":"free"},{"bike_id":"8ddce3be-8c56-444b-96e9-566f4ce84b5b","system_id":"levelo_inurba_marseille","lat":43.328509,"lon":5.366776,"is_reserved":false,"is_disabled":false,"rental_uris":{"android":"levelo://app?vid=8ddce3be-8c56-444b-96e9-566f4ce84b5b","ios":"levelo://app?vid=8ddce3be-8c56-444b-96e9-566f4ce84b5b"},"vehicle_type_id":"4","last_reported":1699131917,"current_range_meters":0,"station_id":"ce4bhs92rcd13ifvqi0g","pricing_plan_id":"free"},{"bike_id":"67bb7dbe-50ea-4249-bc98-d0ad4814b4a6","system_id":"levelo_inurba_marseille","lat":43.321453,"lon":5.385595,"is_reserved":false,"is_disabled":false,"rental_uris":{"android":"levelo://app?vid=67bb7dbe-50ea-4249-bc98-d0ad4814b4a6","ios":"levelo://app?vid=67bb7dbe-50ea-4249-bc98-d0ad4814b4a6"},"vehicle_type_id":"4","last_reported":1699131917,"current_range_meters":17600,"station_id":"","pricing_plan_id":"free"},{"bike_id":"ac64cfce-5505-455a-9537-62af5dd3a90a","system_id":"levelo_inurba_marseille","lat":43.32355,"lon":5.38416,"is_reserved":false,"is_disabled":false,"rental_uris":{"android":"levelo://app?vid=ac64cfce-5505-455a-9537-62af5dd3a90a","ios":"levelo://app?vid=ac64cfce-5505-455a-9537-62af5dd3a90a"},"vehicle_type_id":"4","last_reported":1699131917,"current_range_meters":19200,"station_id":"","pricing_plan_id":"free"},{"bike_id":"58ed3681-8a0d-40bd-90ba-1c5ecdf422fd","system_id":"levelo_inurba_marseille","lat":43.2968,"lon":5.37291,"is_reserved":false,"is_disabled":false,"rental_uris":{"android":"levelo://app?vid=58ed3681-8a0d-40bd-90ba-1c5ecdf422fd","ios":"levelo://app?vid=58ed3681-8a0d-40bd-90ba-1c5ecdf422fd"},"vehicle_type_id":"4","last_reported":1699131917,"current_range_meters":28400,"station_id":"ce4bgk12rcd13ifvqbj0","pricing_plan_id":"free"},{"bike_id":"eda8c8ff-f1dd-4651-a86e-cb7a0f405423","system_id":"levelo_inurba_marseille","lat":43.296131,"lon":5.370791,"is_reserved":false,"is_disabled":false,"rental_uris":{"android":"levelo://app?vid=eda8c8ff-f1dd-4651-a86e-cb7a0f405423","ios":"levelo://app?vid=eda8c8ff-f1dd-4651-a86e-cb7a0f405423"},"vehicle_type_id":"4","last_reported":1699131917,"current_range_meters":28000,"station_id":"ce4bgnh2rcd13ifvqc0g","pricing_plan_id":"free"},{"bike_id":"5a3e4389-a6dc-483b-abd6-709292f6e071","system_id":"levelo_inurba_marseille","lat":43.29587,"lon":5.367148,"is_reserved":false,"is_disabled":false,"rental_uris":{"android":"levelo://app?vid=5a3e4389-a6dc-483b-abd6-709292f6e071","ios":"levelo://app?vid=5a3e4389-a6dc-483b-abd6-709292f6e071"},"vehicle_type_id":"4","last_reported":1699131917,"current_range_meters":14000,"station_id":"ce4bgph2rcd13ifvqc2g","pricing_plan_id":"free"},{"bike_id":"f4f1112f-25d1-4f54-991e-442fac6eee83","system_id":"levelo_inurba_marseille","lat":43.296131,"lon":5.370791,"is_reserved":false,"is_disabled":false,"rental_uris":{"android":"levelo://app?vid=f4f1112f-25d1-4f54-991e-442fac6eee83","ios":"levelo://app?vid=f4f1112f-25d1-4f54-991e-442fac6eee83"},"vehicle_type_id":"4","last_reported":1699131917,"current_range_meters":18800,"station_id":"ce4bgnh2rcd13ifvqc0g","pricing_plan_id":"free"},{"bike_id":"3298b7b1-4d5e-4872-ba98-81183cf1f1d6","system_id":"levelo_inurba_marseille","lat":43.29573,"lon":5.367355,"is_reserved":false,"is_disabled":false,"rental_uris":{"android":"levelo://app?vid=3298b7b1-4d5e-4872-ba98-81183cf1f1d6","ios":"levelo://app?vid=3298b7b1-4d5e-4872-ba98-81183cf1f1d6"},"vehicle_type_id":"4","last_reported":1699131917,"current_range_meters":14400,"station_id":"ce4bgph2rcd13ifvqc2g","pricing_plan_id":"free"},{"bike_id":"80159609-6fbc-4b3d-b023-8092ea0072c2","system_id":"levelo_inurba_marseille","lat":43.296935,"lon":5.376544,"is_reserved":false,"is_disabled":false,"rental_uris":{"android":"levelo://app?vid=80159609-6fbc-4b3d-b023-8092ea0072c2","ios":"levelo://app?vid=80159609-6fbc-4b3d-b023-8092ea0072c2"},"vehicle_type_id":"4","last_reported":1699131917,"current_range_meters":400,"station_id":"ce4bgkh2rcd13ifvqbl0","pricing_plan_id":"free"},{"bike_id":"d3d16f22-8dfe-487d-bea2-d409bbc95665","system_id":"levelo_inurba_marseille","lat":43.299028,"lon":5.381509,"is_reserved":false,"is_disabled":false,"rental_uris":{"android":"levelo://app?vid=d3d16f22-8dfe-487d-bea2-d409bbc95665","ios":"levelo://app?vid=d3d16f22-8dfe-487d-bea2-d409bbc95665"},"vehicle_type_id":"4","last_reported":1699131917,"current_range_meters":20800,"station_id":"ce4bgj12rcd13ifvqbc0","pricing_plan_id":"free"},{"bike_id":"abfa4507-08c6-4745-b06d-9027d786d36e","system_id":"levelo_inurba_marseille","lat":43.317557,"lon":5.390173,"is_reserved":false,"is_disabled":false,"rental_uris":{"android":"levelo://app?vid=abfa4507-08c6-4745-b06d-9027d786d36e","ios":"levelo://app?vid=abfa4507-08c6-4745-b06d-9027d786d36e"},"vehicle_type_id":"4","last_reported":1699131917,"current_range_meters":28000,"station_id":"ce4bhqp2rcd13ifvqhng","pricing_plan_id":"free"},{"bike_id":"87bf39b5-9f5d-4fb9-b615-ccd250702274","system_id":"levelo_inurba_marseille","lat":43.298037,"lon":5.381066,"is_reserved":false,"is_disabled":false,"rental_uris":{"android":"levelo://app?vid=87bf39b5-9f5d-4fb9-b615-ccd250702274","ios":"levelo://app?vid=87bf39b5-9f5d-4fb9-b615-ccd250702274"},"vehicle_type_id":"4","last_reported":1699131917,"current_range_meters":5600,"station_id":"ce4bgip2rcd13ifvqbb0","pricing_plan_id":"free"},{"bike_id":"e536cd18-f265-422b-a0b7-b32e552c1541","system_id":"levelo_inurba_marseille","lat":43.2958,"lon":5.37513,"is_reserved":false,"is_disabled":false,"rental_uris":{"android":"levelo://app?vid=e536cd18-f265-422b-a0b7-b32e552c1541","ios":"levelo://app?vid=e536cd18-f265-422b-a0b7-b32e552c1541"},"vehicle_type_id":"4","last_reported":1699131917,"current_range_meters":0,"station_id":"ce4bgh92rcd13ifvqb50","pricing_plan_id":"free"},{"bike_id":"dcf71820-a188-4b17-a530-77f5a681ed92","system_id":"levelo_inurba_marseille","lat":43.298037,"lon":5.381066,"is_reserved":false,"is_disabled":false,"rental_uris":{"android":"levelo://app?vid=dcf71820-a188-4b17-a530-77f5a681ed92","ios":"levelo://app?vid=dcf71820-a188-4b17-a530-77f5a681ed92"},"vehicle_type_id":"4","last_reported":1699131917,"current_range_meters":13200,"station_id":"ce4bgip2rcd13ifvqbb0","pricing_plan_id":"free"},{"bike_id":"529f5af0-e1c1-47e4-a7f6-1613aee6f7e7","system_id":"levelo_inurba_marseille","lat":43.298037,"lon":5.381066,"is_reserved":false,"is_disabled":false,"rental_uris":{"android":"levelo://app?vid=529f5af0-e1c1-47e4-a7f6-1613aee6f7e7","ios":"levelo://app?vid=529f5af0-e1c1-47e4-a7f6-1613aee6f7e7"},"vehicle_type_id":"4","last_reported":1699131917,"current_range_meters":7200,"station_id":"ce4bgip2rcd13ifvqbb0","pricing_plan_id":"free"},{"bike_id":"f4b5178d-91f5-43c9-876d-c5f9b28f9cdf","system_id":"levelo_inurba_marseille","lat":43.298037,"lon":5.381066,"is_reserved":false,"is_disabled":false,"rental_uris":{"android":"levelo://app?vid=f4b5178d-91f5-43c9-876d-c5f9b28f9cdf","ios":"levelo://app?vid=f4b5178d-91f5-43c9-876d-c5f9b28f9cdf"},"vehicle_type_id":"4","last_reported":1699131917,"current_range_meters":26800,"station_id":"ce4bgip2rcd13ifvqbb0","pricing_plan_id":"free"},{"bike_id":"ad9941e5-72d2-438b-a3b2-af8bdcf91382","system_id":"levelo_inurba_marseille","lat":43.298037,"lon":5.381066,"is_reserved":false,"is_disabled":false,"rental_uris":{"android":"levelo://app?vid=ad9941e5-72d2-438b-a3b2-af8bdcf91382","ios":"levelo://app?vid=ad9941e5-72d2-438b-a3b2-af8bdcf91382"},"vehicle_type_id":"4","last_reported":1699131917,"current_range_meters":18000,"station_id":"ce4bgip2rcd13ifvqbb0","pricing_plan_id":"free"},{"bike_id":"88df27ea-2894-41f5-b056-18e9cb12cdde","system_id":"levelo_inurba_marseille","lat":43.295755,"lon":5.37512,"is_reserved":false,"is_disabled":false,"rental_uris":{"android":"levelo://app?vid=88df27ea-2894-41f5-b056-18e9cb12cdde","ios":"levelo://app?vid=88df27ea-2894-41f5-b056-18e9cb12cdde"},"vehicle_type_id":"4","last_reported":1699131917,"current_range_meters":0,"station_id":"ce4bgh92rcd13ifvqb50","pricing_plan_id":"free"},{"bike_id":"34373ca6-4312-4e03-8d8e-1db748c58418","system_id":"levelo_inurba_marseille","lat":43.30428,"lon":5.388927,"is_reserved":false,"is_disabled":false,"rental_uris":{"android":"levelo://app?vid=34373ca6-4312-4e03-8d8e-1db748c58418","ios":"levelo://app?vid=34373ca6-4312-4e03-8d8e-1db748c58418"},"vehicle_type_id":"4","last_reported":1699131917,"current_range_meters":0,"station_id":"ce4bgk12rcd13ifvqbi0","pricing_plan_id":"free"},{"bike_id":"2f654957-0c66-4d26-991e-7cc378b384cb","system_id":"levelo_inurba_marseille","lat":43.30129,"lon":5.38622,"is_reserved":false,"is_disabled":false,"rental_uris":{"android":"levelo://app?vid=2f654957-0c66-4d26-991e-7cc378b384cb","ios":"levelo://app?vid=2f654957-0c66-4d26-991e-7cc378b384cb"},"vehicle_type_id":"4","last_reported":1699131917,"current_range_meters":4800,"station_id":"","pricing_plan_id":"free"},{"bike_id":"5a9d742f-8571-40d9-9e74-4e16e76d3425","system_id":"levelo_inurba_marseille","lat":43.296069,"lon":5.377161,"is_reserved":false,"is_disabled":false,"rental_uris":{"android":"levelo://app?vid=5a9d742f-8571-40d9-9e74-4e16e76d3425","ios":"levelo://app?vid=5a9d742f-8571-40d9-9e74-4e16e76d3425"},"vehicle_type_id":"4","last_reported":1699131917,"current_range_meters":0,"station_id":"ce4bgi92rcd13ifvqb90","pricing_plan_id":"free"},{"bike_id":"1f580447-7b2c-4630-9a51-33e28281b372","system_id":"levelo_inurba_marseille","lat":43.329065,"lon":5.379814,"is_reserved":false,"is_disabled":false,"rental_uris":{"android":"levelo://app?vid=1f580447-7b2c-4630-9a51-33e28281b372","ios":"levelo://app?vid=1f580447-7b2c-4630-9a51-33e28281b372"},"vehicle_type_id":"4","last_reported":1699131917,"current_range_meters":14800,"station_id":"","pricing_plan_id":"free"},{"bike_id":"ecf94d7b-2238-4a61-8042-e3febbffae63","system_id":"levelo_inurba_marseille","lat":43.299323,"lon":5.385518,"is_reserved":false,"is_disabled":false,"rental_uris":{"android":"levelo://app?vid=ecf94d7b-2238-4a61-8042-e3febbffae63","ios":"levelo://app?vid=ecf94d7b-2238-4a61-8042-e3febbffae63"},"vehicle_type_id":"4","last_reported":1699131917,"current_range_meters":26800,"station_id":"","pricing_plan_id":"free"},{"bike_id":"eab5d605-eaca-4660-a5fd-3fd2b2fdfd03","system_id":"levelo_inurba_marseille","lat":43.29476,"lon":5.37582,"is_reserved":false,"is_disabled":false,"rental_uris":{"android":"levelo://app?vid=eab5d605-eaca-4660-a5fd-3fd2b2fdfd03","ios":"levelo://app?vid=eab5d605-eaca-4660-a5fd-3fd2b2fdfd03"},"vehicle_type_id":"4","last_reported":1699131917,"current_range_meters":0,"station_id":"","pricing_plan_id":"free"},{"bike_id":"63431ec2-229a-4699-b315-44ffac446618","system_id":"levelo_inurba_marseille","lat":43.323672,"lon":5.388841,"is_reserved":false,"is_disabled":false,"rental_uris":{"android":"levelo://app?vid=63431ec2-229a-4699-b315-44ffac446618","ios":"levelo://app?vid=63431ec2-229a-4699-b315-44ffac446618"},"vehicle_type_id":"4","last_reported":1699131917,"current_range_meters":14000,"station_id":"ce4bhqp2rcd13ifvqhog","pricing_plan_id":"free"},{"bike_id":"28643890-bf4a-42f6-85ae-cab5251c2727","system_id":"levelo_inurba_marseille","lat":43.29602,"lon":5.381084,"is_reserved":false,"is_disabled":false,"rental_uris":{"android":"levelo://app?vid=28643890-bf4a-42f6-85ae-cab5251c2727","ios":"levelo://app?vid=28643890-bf4a-42f6-85ae-cab5251c2727"},"vehicle_type_id":"4","last_reported":1699131917,"current_range_meters":3200,"station_id":"ce4bgl12rcd13ifvqbo0","pricing_plan_id":"free"},{"bike_id":"967f4177-e6f8-4912-95ab-7f19f3431a5a","system_id":"levelo_inurba_marseille","lat":43.29601,"lon":5.381084,"is_reserved":false,"is_disabled":false,"rental_uris":{"android":"levelo://app?vid=967f4177-e6f8-4912-95ab-7f19f3431a5a","ios":"levelo://app?vid=967f4177-e6f8-4912-95ab-7f19f3431a5a"},"vehicle_type_id":"4","last_reported":1699131917,"current_range_meters":12000,"station_id":"ce4bgl12rcd13ifvqbo0","pricing_plan_id":"free"},{"bike_id":"ceeeef47-e661-49b7-b70e-3e27cc6660ec","system_id":"levelo_inurba_marseille","lat":43.29601,"lon":5.381084,"is_reserved":false,"is_disabled":false,"rental_uris":{"android":"levelo://app?vid=ceeeef47-e661-49b7-b70e-3e27cc6660ec","ios":"levelo://app?vid=ceeeef47-e661-49b7-b70e-3e27cc6660ec"},"vehicle_type_id":"4","last_reported":1699131917,"current_range_meters":16800,"station_id":"ce4bgl12rcd13ifvqbo0","pricing_plan_id":"free"},{"bike_id":"36c53b5f-88c3-4059-850e-ac9466ca1232","system_id":"levelo_inurba_marseille","lat":43.29601,"lon":5.381084,"is_reserved":false,"is_disabled":false,"rental_uris":{"android":"levelo://app?vid=36c53b5f-88c3-4059-850e-ac9466ca1232","ios":"levelo://app?vid=36c53b5f-88c3-4059-850e-ac9466ca1232"},"vehicle_type_id":"4","last_reported":1699131917,"current_range_meters":14000,"station_id":"ce4bgl12rcd13ifvqbo0","pricing_plan_id":"free"},{"bike_id":"7a4d3697-62c6-4349-81d3-d1cebdebbc65","system_id":"levelo_inurba_marseille","lat":43.295934,"lon":5.381094,"is_reserved":false,"is_disabled":false,"rental_uris":{"android":"levelo://app?vid=7a4d3697-62c6-4349-81d3-d1cebdebbc65","ios":"levelo://app?vid=7a4d3697-62c6-4349-81d3-d1cebdebbc65"},"vehicle_type_id":"4","last_reported":1699131917,"current_range_meters":21200,"station_id":"ce4bgl12rcd13ifvqbo0","pricing_plan_id":"free"},{"bike_id":"547a7cfc-5b52-446d-9105-ee3d3597290f","system_id":"levelo_inurba_marseille","lat":43.33055,"lon":5.37881,"is_reserved":false,"is_disabled":false,"rental_uris":{"android":"levelo://app?vid=547a7cfc-5b52-446d-9105-ee3d3597290f","ios":"levelo://app?vid=547a7cfc-5b52-446d-9105-ee3d3597290f"},"vehicle_type_id":"4","last_reported":1699131917,"current_range_meters":24800,"station_id":"","pricing_plan_id":"free"},{"bike_id":"3f448f6a-a6cc-4dc9-a8c5-a8ead5d047d9","system_id":"levelo_inurba_marseille","lat":43.29304,"lon":5.37176,"is_reserved":false,"is_disabled":false,"rental_uris":{"android":"levelo://app?vid=3f448f6a-a6cc-4dc9-a8c5-a8ead5d047d9","ios":"levelo://app?vid=3f448f6a-a6cc-4dc9-a8c5-a8ead5d047d9"},"vehicle_type_id":"4","last_reported":1699131917,"current_range_meters":27600,"station_id":"ce4bgh92rcd13ifvqb40","pricing_plan_id":"free"},{"bike_id":"3c0c0476-af17-4e7d-a7ae-6da6f8f8e747","system_id":"levelo_inurba_marseille","lat":43.292732,"lon":5.368467,"is_reserved":false,"is_disabled":false,"rental_uris":{"android":"levelo://app?vid=3c0c0476-af17-4e7d-a7ae-6da6f8f8e747","ios":"levelo://app?vid=3c0c0476-af17-4e7d-a7ae-6da6f8f8e747"},"vehicle_type_id":"4","last_reported":1699131917,"current_range_meters":0,"station_id":"ce4bhbp2rcd13ifvqesg","pricing_plan_id":"free"},{"bike_id":"95b38f76-361d-45af-93a5-4380100f8206","system_id":"levelo_inurba_marseille","lat":43.305994,"lon":5.393687,"is_reserved":false,"is_disabled":false,"rental_uris":{"android":"levelo://app?vid=95b38f76-361d-45af-93a5-4380100f8206","ios":"levelo://app?vid=95b38f76-361d-45af-93a5-4380100f8206"},"vehicle_type_id":"4","last_reported":1699131917,"current_range_meters":31200,"station_id":"ce4bh0p2rcd13ifvqd80","pricing_plan_id":"free"},{"bike_id":"27a46158-bf25-472a-8ffd-f77a897a077c","system_id":"levelo_inurba_marseille","lat":43.293009,"lon":5.374584,"is_reserved":false,"is_disabled":false,"rental_uris":{"android":"levelo://app?vid=27a46158-bf25-472a-8ffd-f77a897a077c","ios":"levelo://app?vid=27a46158-bf25-472a-8ffd-f77a897a077c"},"vehicle_type_id":"4","last_reported":1699131917,"current_range_meters":10000,"station_id":"ce4bgi12rcd13ifvqb70","pricing_plan_id":"free"},{"bike_id":"b13bb011-3219-45d1-88e1-4280b2f48bdd","system_id":"levelo_inurba_marseille","lat":43.305994,"lon":5.393687,"is_reserved":false,"is_disabled":false,"rental_uris":{"android":"levelo://app?vid=b13bb011-3219-45d1-88e1-4280b2f48bdd","ios":"levelo://app?vid=b13bb011-3219-45d1-88e1-4280b2f48bdd"},"vehicle_type_id":"4","last_reported":1699131917,"current_range_meters":26800,"station_id":"ce4bh0p2rcd13ifvqd80","pricing_plan_id":"free"},{"bike_id":"f352daeb-fe75-42bf-b327-f31e0f49dfb4","system_id":"levelo_inurba_marseille","lat":43.302992,"lon":5.392136,"is_reserved":false,"is_disabled":false,"rental_uris":{"android":"levelo://app?vid=f352daeb-fe75-42bf-b327-f31e0f49dfb4","ios":"levelo://app?vid=f352daeb-fe75-42bf-b327-f31e0f49dfb4"},"vehicle_type_id":"4","last_reported":1699131917,"current_range_meters":2000,"station_id":"ce4bgkh2rcd13ifvqbk0","pricing_plan_id":"free"},{"bike_id":"bdd8065a-dcb4-4e83-aed0-f320cd0a03eb","system_id":"levelo_inurba_marseille","lat":43.303002,"lon":5.392142,"is_reserved":false,"is_disabled":false,"rental_uris":{"android":"levelo://app?vid=bdd8065a-dcb4-4e83-aed0-f320cd0a03eb","ios":"levelo://app?vid=bdd8065a-dcb4-4e83-aed0-f320cd0a03eb"},"vehicle_type_id":"4","last_reported":1699131917,"current_range_meters":0,"station_id":"ce4bgkh2rcd13ifvqbk0","pricing_plan_id":"free"},{"bike_id":"2af4ac17-0fc9-4fc8-b775-ec5eddaca13d","system_id":"levelo_inurba_marseille","lat":43.2936,"lon":5.37835,"is_reserved":false,"is_disabled":false,"rental_uris":{"android":"levelo://app?vid=2af4ac17-0fc9-4fc8-b775-ec5eddaca13d","ios":"levelo://app?vid=2af4ac17-0fc9-4fc8-b775-ec5eddaca13d"},"vehicle_type_id":"4","last_reported":1699131917,"current_range_meters":4800,"station_id":"ce4bgjh2rcd13ifvqbf0","pricing_plan_id":"free"},{"bike_id":"98937511-9f4e-4618-8c6a-b075cbfbaae3","system_id":"levelo_inurba_marseille","lat":43.292311,"lon":5.360731,"is_reserved":false,"is_disabled":false,"rental_uris":{"android":"levelo://app?vid=98937511-9f4e-4618-8c6a-b075cbfbaae3","ios":"levelo://app?vid=98937511-9f4e-4618-8c6a-b075cbfbaae3"},"vehicle_type_id":"4","last_reported":1699131917,"current_range_meters":20400,"station_id":"ce4bhbh2rcd13ifvqeqg","pricing_plan_id":"free"},{"bike_id":"314b2e8b-2dfc-4000-8aea-ddc2bb554fcf","system_id":"levelo_inurba_marseille","lat":43.309038,"lon":5.396546,"is_reserved":false,"is_disabled":false,"rental_uris":{"android":"levelo://app?vid=314b2e8b-2dfc-4000-8aea-ddc2bb554fcf","ios":"levelo://app?vid=314b2e8b-2dfc-4000-8aea-ddc2bb554fcf"},"vehicle_type_id":"4","last_reported":1699131917,"current_range_meters":2400,"station_id":"ce4bh012rcd13ifvqcv0","pricing_plan_id":"free"},{"bike_id":"def655e5-bafd-4c62-9115-470fef2d4653","system_id":"levelo_inurba_marseille","lat":43.292311,"lon":5.360731,"is_reserved":false,"is_disabled":false,"rental_uris":{"android":"levelo://app?vid=def655e5-bafd-4c62-9115-470fef2d4653","ios":"levelo://app?vid=def655e5-bafd-4c62-9115-470fef2d4653"},"vehicle_type_id":"4","last_reported":1699131917,"current_range_meters":6400,"station_id":"ce4bhbh2rcd13ifvqeqg","pricing_plan_id":"free"},{"bike_id":"ecd5fcfb-e675-41c4-803e-df009ca85e60","system_id":"levelo_inurba_marseille","lat":43.309831,"lon":5.395501,"is_reserved":false,"is_disabled":false,"rental_uris":{"android":"levelo://app?vid=ecd5fcfb-e675-41c4-803e-df009ca85e60","ios":"levelo://app?vid=ecd5fcfb-e675-41c4-803e-df009ca85e60"},"vehicle_type_id":"4","last_reported":1699131917,"current_range_meters":12000,"station_id":"","pricing_plan_id":"free"},{"bike_id":"1575422b-f99f-4525-ab00-681f712b3765","system_id":"levelo_inurba_marseille","lat":43.3331,"lon":5.35949,"is_reserved":false,"is_disabled":false,"rental_uris":{"android":"levelo://app?vid=1575422b-f99f-4525-ab00-681f712b3765","ios":"levelo://app?vid=1575422b-f99f-4525-ab00-681f712b3765"},"vehicle_type_id":"4","last_reported":1699131917,"current_range_meters":12000,"station_id":"","pricing_plan_id":"free"},{"bike_id":"d797f1e6-f3ca-4ad7-8b56-5ed6191da53c","system_id":"levelo_inurba_marseille","lat":43.292663,"lon":5.376389,"is_reserved":false,"is_disabled":false,"rental_uris":{"android":"levelo://app?vid=d797f1e6-f3ca-4ad7-8b56-5ed6191da53c","ios":"levelo://app?vid=d797f1e6-f3ca-4ad7-8b56-5ed6191da53c"},"vehicle_type_id":"4","last_reported":1699131917,"current_range_meters":31200,"station_id":"ce4bgi12rcd13ifvqb80","pricing_plan_id":"free"},{"bike_id":"0e8233d2-0d57-470f-8c07-e9f753046a4f","system_id":"levelo_inurba_marseille","lat":43.33217,"lon":5.3788,"is_reserved":false,"is_disabled":false,"rental_uris":{"android":"levelo://app?vid=0e8233d2-0d57-470f-8c07-e9f753046a4f","ios":"levelo://app?vid=0e8233d2-0d57-470f-8c07-e9f753046a4f"},"vehicle_type_id":"4","last_reported":1699131917,"current_range_meters":11600,"station_id":"","pricing_plan_id":"free"},{"bike_id":"260c645f-b280-4251-8fb9-e89c0f995509","system_id":"levelo_inurba_marseille","lat":43.332121,"lon":5.379996,"is_reserved":false,"is_disabled":false,"rental_uris":{"android":"levelo://app?vid=260c645f-b280-4251-8fb9-e89c0f995509","ios":"levelo://app?vid=260c645f-b280-4251-8fb9-e89c0f995509"},"vehicle_type_id":"4","last_reported":1699131917,"current_range_meters":9600,"station_id":"ce4bhs92rcd13ifvqi0g","pricing_plan_id":"free"},{"bike_id":"46c7e86c-f5ec-4edf-b0fb-eb4bf912b180","system_id":"levelo_inurba_marseille","lat":43.291994,"lon":5.357886,"is_reserved":false,"is_disabled":false,"rental_uris":{"android":"levelo://app?vid=46c7e86c-f5ec-4edf-b0fb-eb4bf912b180","ios":"levelo://app?vid=46c7e86c-f5ec-4edf-b0fb-eb4bf912b180"},"vehicle_type_id":"4","last_reported":1699131917,"current_range_meters":16400,"station_id":"ce4bhb12rcd13ifvqel0","pricing_plan_id":"free"},{"bike_id":"ac0d4859-427d-4732-a176-9e4b95d48cd0","system_id":"levelo_inurba_marseille","lat":43.291994,"lon":5.357886,"is_reserved":false,"is_disabled":false,"rental_uris":{"android":"levelo://app?vid=ac0d4859-427d-4732-a176-9e4b95d48cd0","ios":"levelo://app?vid=ac0d4859-427d-4732-a176-9e4b95d48cd0"},"vehicle_type_id":"4","last_reported":1699131917,"current_range_meters":20000,"station_id":"ce4bhb12rcd13ifvqel0","pricing_plan_id":"free"},{"bike_id":"c61e9814-ddeb-4d02-b877-44315dd5fa14","system_id":"levelo_inurba_marseille","lat":43.295877,"lon":5.385952,"is_reserved":false,"is_disabled":false,"rental_uris":{"android":"levelo://app?vid=c61e9814-ddeb-4d02-b877-44315dd5fa14","ios":"levelo://app?vid=c61e9814-ddeb-4d02-b877-44315dd5fa14"},"vehicle_type_id":"4","last_reported":1699131917,"current_range_meters":21600,"station_id":"","pricing_plan_id":"free"},{"bike_id":"09fbff16-60e3-45c7-95e5-a9ab6e42ac36","system_id":"levelo_inurba_marseille","lat":43.3133,"lon":5.39693,"is_reserved":false,"is_disabled":false,"rental_uris":{"android":"levelo://app?vid=09fbff16-60e3-45c7-95e5-a9ab6e42ac36","ios":"levelo://app?vid=09fbff16-60e3-45c7-95e5-a9ab6e42ac36"},"vehicle_type_id":"4","last_reported":1699131917,"current_range_meters":20400,"station_id":"ce4bgvp2rcd13ifvqcu0","pricing_plan_id":"free"},{"bike_id":"29e769c1-d255-4ed7-978f-470090ffb35f","system_id":"levelo_inurba_marseille","lat":43.31322,"lon":5.39701,"is_reserved":false,"is_disabled":false,"rental_uris":{"android":"levelo://app?vid=29e769c1-d255-4ed7-978f-470090ffb35f","ios":"levelo://app?vid=29e769c1-d255-4ed7-978f-470090ffb35f"},"vehicle_type_id":"4","last_reported":1699131917,"current_range_meters":13600,"station_id":"ce4bgvp2rcd13ifvqcu0","pricing_plan_id":"free"},{"bike_id":"af8242b6-53bb-437c-84b1-2e68c8c52d99","system_id":"levelo_inurba_marseille","lat":43.31323,"lon":5.39701,"is_reserved":false,"is_disabled":false,"rental_uris":{"android":"levelo://app?vid=af8242b6-53bb-437c-84b1-2e68c8c52d99","ios":"levelo://app?vid=af8242b6-53bb-437c-84b1-2e68c8c52d99"},"vehicle_type_id":"4","last_reported":1699131917,"current_range_meters":5200,"station_id":"ce4bgvp2rcd13ifvqcu0","pricing_plan_id":"free"},{"bike_id":"18a28979-49cc-4a9b-960d-f328e5eaf0b4","system_id":"levelo_inurba_marseille","lat":43.29529,"lon":5.385581,"is_reserved":false,"is_disabled":false,"rental_uris":{"android":"levelo://app?vid=18a28979-49cc-4a9b-960d-f328e5eaf0b4","ios":"levelo://app?vid=18a28979-49cc-4a9b-960d-f328e5eaf0b4"},"vehicle_type_id":"4","last_reported":1699131917,"current_range_meters":22800,"station_id":"ce4bgih2rcd13ifvqba0","pricing_plan_id":"free"},{"bike_id":"600d9831-1d2e-4a15-ba2f-c2e3af3728e1","system_id":"levelo_inurba_marseille","lat":43.29534,"lon":5.38541,"is_reserved":false,"is_disabled":false,"rental_uris":{"android":"levelo://app?vid=600d9831-1d2e-4a15-ba2f-c2e3af3728e1","ios":"levelo://app?vid=600d9831-1d2e-4a15-ba2f-c2e3af3728e1"},"vehicle_type_id":"4","last_reported":1699131917,"current_range_meters":29200,"station_id":"ce4bgih2rcd13ifvqba0","pricing_plan_id":"free"},{"bike_id":"fd55432a-71b5-4831-a1fc-e2a5c4ad41d9","system_id":"levelo_inurba_marseille","lat":43.29534,"lon":5.38546,"is_reserved":false,"is_disabled":false,"rental_uris":{"android":"levelo://app?vid=fd55432a-71b5-4831-a1fc-e2a5c4ad41d9","ios":"levelo://app?vid=fd55432a-71b5-4831-a1fc-e2a5c4ad41d9"},"vehicle_type_id":"4","last_reported":1699131917,"current_range_meters":22800,"station_id":"ce4bgih2rcd13ifvqba0","pricing_plan_id":"free"},{"bike_id":"21426a0d-604c-4933-9dde-aad2feebdc38","system_id":"levelo_inurba_marseille","lat":43.33274,"lon":5.37964,"is_reserved":false,"is_disabled":false,"rental_uris":{"android":"levelo://app?vid=21426a0d-604c-4933-9dde-aad2feebdc38","ios":"levelo://app?vid=21426a0d-604c-4933-9dde-aad2feebdc38"},"vehicle_type_id":"4","last_reported":1699131917,"current_range_meters":0,"station_id":"ce4bhs92rcd13ifvqi0g","pricing_plan_id":"free"},{"bike_id":"207d12d0-1999-42ca-9040-d9912293b9fc","system_id":"levelo_inurba_marseille","lat":43.29529,"lon":5.385581,"is_reserved":false,"is_disabled":false,"rental_uris":{"android":"levelo://app?vid=207d12d0-1999-42ca-9040-d9912293b9fc","ios":"levelo://app?vid=207d12d0-1999-42ca-9040-d9912293b9fc"},"vehicle_type_id":"4","last_reported":1699131917,"current_range_meters":13200,"station_id":"ce4bgih2rcd13ifvqba0","pricing_plan_id":"free"},{"bike_id":"3ab26eac-c1e6-4c77-b16e-4f4a20ebd6fa","system_id":"levelo_inurba_marseille","lat":43.295267,"lon":5.385519,"is_reserved":false,"is_disabled":false,"rental_uris":{"android":"levelo://app?vid=3ab26eac-c1e6-4c77-b16e-4f4a20ebd6fa","ios":"levelo://app?vid=3ab26eac-c1e6-4c77-b16e-4f4a20ebd6fa"},"vehicle_type_id":"4","last_reported":1699131917,"current_range_meters":21200,"station_id":"ce4bgih2rcd13ifvqba0","pricing_plan_id":"free"},{"bike_id":"c152c55a-ced7-4251-8d3b-3509ec542d1e","system_id":"levelo_inurba_marseille","lat":43.290779,"lon":5.371482,"is_reserved":false,"is_disabled":false,"rental_uris":{"android":"levelo://app?vid=c152c55a-ced7-4251-8d3b-3509ec542d1e","ios":"levelo://app?vid=c152c55a-ced7-4251-8d3b-3509ec542d1e"},"vehicle_type_id":"4","last_reported":1699131917,"current_range_meters":10000,"station_id":"ce4bh5p2rcd13ifvqe4g","pricing_plan_id":"free"},{"bike_id":"4f4656bd-c708-4cf7-ba6e-b28ab94b6ed4","system_id":"levelo_inurba_marseille","lat":43.296263,"lon":5.40601,"is_reserved":false,"is_disabled":false,"rental_uris":{"android":"levelo://app?vid=4f4656bd-c708-4cf7-ba6e-b28ab94b6ed4","ios":"levelo://app?vid=4f4656bd-c708-4cf7-ba6e-b28ab94b6ed4"},"vehicle_type_id":"4","last_reported":1699131917,"current_range_meters":0,"station_id":"ce4bh0h2rcd13ifvqd60","pricing_plan_id":"free"},{"bike_id":"cc8b466b-a91f-4f94-a9d7-c8b5476ac77c","system_id":"levelo_inurba_marseille","lat":43.292642,"lon":5.384254,"is_reserved":false,"is_disabled":false,"rental_uris":{"android":"levelo://app?vid=cc8b466b-a91f-4f94-a9d7-c8b5476ac77c","ios":"levelo://app?vid=cc8b466b-a91f-4f94-a9d7-c8b5476ac77c"},"vehicle_type_id":"4","last_reported":1699131917,"current_range_meters":6800,"station_id":"ce4bh692rcd13ifvqea0","pricing_plan_id":"free"},{"bike_id":"45b5ebbf-d8a5-45d1-8106-3780ad5f4a29","system_id":"levelo_inurba_marseille","lat":43.294153,"lon":5.386305,"is_reserved":false,"is_disabled":false,"rental_uris":{"android":"levelo://app?vid=45b5ebbf-d8a5-45d1-8106-3780ad5f4a29","ios":"levelo://app?vid=45b5ebbf-d8a5-45d1-8106-3780ad5f4a29"},"vehicle_type_id":"4","last_reported":1699131917,"current_range_meters":20400,"station_id":"ce4bh2h2rcd13ifvqdh0","pricing_plan_id":"free"},{"bike_id":"3eb42692-8564-47fd-b896-1c58d62036c0","system_id":"levelo_inurba_marseille","lat":43.294153,"lon":5.386305,"is_reserved":false,"is_disabled":false,"rental_uris":{"android":"levelo://app?vid=3eb42692-8564-47fd-b896-1c58d62036c0","ios":"levelo://app?vid=3eb42692-8564-47fd-b896-1c58d62036c0"},"vehicle_type_id":"4","last_reported":1699131917,"current_range_meters":14000,"station_id":"ce4bh2h2rcd13ifvqdh0","pricing_plan_id":"free"},{"bike_id":"4fcd5ef9-019a-4e06-8988-5f194b1e2d6e","system_id":"levelo_inurba_marseille","lat":43.294153,"lon":5.386305,"is_reserved":false,"is_disabled":false,"rental_uris":{"android":"levelo://app?vid=4fcd5ef9-019a-4e06-8988-5f194b1e2d6e","ios":"levelo://app?vid=4fcd5ef9-019a-4e06-8988-5f194b1e2d6e"},"vehicle_type_id":"4","last_reported":1699131917,"current_range_meters":7600,"station_id":"ce4bh2h2rcd13ifvqdh0","pricing_plan_id":"free"},{"bike_id":"f62124ff-1e41-4ef3-ab6a-4ba9efd71607","system_id":"levelo_inurba_marseille","lat":43.294162,"lon":5.386292,"is_reserved":false,"is_disabled":false,"rental_uris":{"android":"levelo://app?vid=f62124ff-1e41-4ef3-ab6a-4ba9efd71607","ios":"levelo://app?vid=f62124ff-1e41-4ef3-ab6a-4ba9efd71607"},"vehicle_type_id":"4","last_reported":1699131917,"current_range_meters":31200,"station_id":"ce4bh2h2rcd13ifvqdh0","pricing_plan_id":"free"},{"bike_id":"5f27aa98-c640-4578-b78f-cb6f574b7ef3","system_id":"levelo_inurba_marseille","lat":43.294153,"lon":5.386305,"is_reserved":false,"is_disabled":false,"rental_uris":{"android":"levelo://app?vid=5f27aa98-c640-4578-b78f-cb6f574b7ef3","ios":"levelo://app?vid=5f27aa98-c640-4578-b78f-cb6f574b7ef3"},"vehicle_type_id":"4","last_reported":1699131917,"current_range_meters":24800,"station_id":"ce4bh2h2rcd13ifvqdh0","pricing_plan_id":"free"},{"bike_id":"3fa59cb0-396e-4ee5-a6dc-e5734b8308ad","system_id":"levelo_inurba_marseille","lat":43.294153,"lon":5.386305,"is_reserved":false,"is_disabled":false,"rental_uris":{"android":"levelo://app?vid=3fa59cb0-396e-4ee5-a6dc-e5734b8308ad","ios":"levelo://app?vid=3fa59cb0-396e-4ee5-a6dc-e5734b8308ad"},"vehicle_type_id":"4","last_reported":1699131917,"current_range_meters":27600,"station_id":"ce4bh2h2rcd13ifvqdh0","pricing_plan_id":"free"},{"bike_id":"40b74595-6419-4339-b9a9-cca66cd6ccc9","system_id":"levelo_inurba_marseille","lat":43.294153,"lon":5.386305,"is_reserved":false,"is_disabled":false,"rental_uris":{"android":"levelo://app?vid=40b74595-6419-4339-b9a9-cca66cd6ccc9","ios":"levelo://app?vid=40b74595-6419-4339-b9a9-cca66cd6ccc9"},"vehicle_type_id":"4","last_reported":1699131917,"current_range_meters":22400,"station_id":"ce4bh2h2rcd13ifvqdh0","pricing_plan_id":"free"},{"bike_id":"ea01dfb3-8c59-4e57-b803-f7b6dc63a953","system_id":"levelo_inurba_marseille","lat":43.294162,"lon":5.386292,"is_reserved":false,"is_disabled":false,"rental_uris":{"android":"levelo://app?vid=ea01dfb3-8c59-4e57-b803-f7b6dc63a953","ios":"levelo://app?vid=ea01dfb3-8c59-4e57-b803-f7b6dc63a953"},"vehicle_type_id":"4","last_reported":1699131917,"current_range_meters":21200,"station_id":"ce4bh2h2rcd13ifvqdh0","pricing_plan_id":"free"},{"bike_id":"85904d19-b750-4662-a872-cbb38eeb1996","system_id":"levelo_inurba_marseille","lat":43.294153,"lon":5.386305,"is_reserved":false,"is_disabled":false,"rental_uris":{"android":"levelo://app?vid=85904d19-b750-4662-a872-cbb38eeb1996","ios":"levelo://app?vid=85904d19-b750-4662-a872-cbb38eeb1996"},"vehicle_type_id":"4","last_reported":1699131917,"current_range_meters":31200,"station_id":"ce4bh2h2rcd13ifvqdh0","pricing_plan_id":"free"},{"bike_id":"c8ada93b-9ded-41bb-8f30-f8c11ea82f1d","system_id":"levelo_inurba_marseille","lat":43.294153,"lon":5.386305,"is_reserved":false,"is_disabled":false,"rental_uris":{"android":"levelo://app?vid=c8ada93b-9ded-41bb-8f30-f8c11ea82f1d","ios":"levelo://app?vid=c8ada93b-9ded-41bb-8f30-f8c11ea82f1d"},"vehicle_type_id":"4","last_reported":1699131917,"current_range_meters":1600,"station_id":"ce4bh2h2rcd13ifvqdh0","pricing_plan_id":"free"},{"bike_id":"0bc80ba1-f3f5-44cc-b2ec-01589360c9ee","system_id":"levelo_inurba_marseille","lat":43.289415,"lon":5.366437,"is_reserved":false,"is_disabled":false,"rental_uris":{"android":"levelo://app?vid=0bc80ba1-f3f5-44cc-b2ec-01589360c9ee","ios":"levelo://app?vid=0bc80ba1-f3f5-44cc-b2ec-01589360c9ee"},"vehicle_type_id":"4","last_reported":1699131917,"current_range_meters":5200,"station_id":"","pricing_plan_id":"free"},{"bike_id":"a4337f97-6283-4792-a82c-311e45c705fd","system_id":"levelo_inurba_marseille","lat":43.294162,"lon":5.386292,"is_reserved":false,"is_disabled":false,"rental_uris":{"android":"levelo://app?vid=a4337f97-6283-4792-a82c-311e45c705fd","ios":"levelo://app?vid=a4337f97-6283-4792-a82c-311e45c705fd"},"vehicle_type_id":"4","last_reported":1699131917,"current_range_meters":31200,"station_id":"ce4bh2h2rcd13ifvqdh0","pricing_plan_id":"free"},{"bike_id":"64de796c-6139-4392-a500-91cfa1f382a5","system_id":"levelo_inurba_marseille","lat":43.292642,"lon":5.384254,"is_reserved":false,"is_disabled":false,"rental_uris":{"android":"levelo://app?vid=64de796c-6139-4392-a500-91cfa1f382a5","ios":"levelo://app?vid=64de796c-6139-4392-a500-91cfa1f382a5"},"vehicle_type_id":"4","last_reported":1699131917,"current_range_meters":22000,"station_id":"ce4bh692rcd13ifvqea0","pricing_plan_id":"free"},{"bike_id":"e80cc71f-4aff-4358-a05a-0710232bf361","system_id":"levelo_inurba_marseille","lat":43.292644,"lon":5.384257,"is_reserved":false,"is_disabled":false,"rental_uris":{"android":"levelo://app?vid=e80cc71f-4aff-4358-a05a-0710232bf361","ios":"levelo://app?vid=e80cc71f-4aff-4358-a05a-0710232bf361"},"vehicle_type_id":"4","last_reported":1699131917,"current_range_meters":31600,"station_id":"ce4bh692rcd13ifvqea0","pricing_plan_id":"free"},{"bike_id":"9cae54c7-ade4-40df-88f1-3aa0d1f7b4d5","system_id":"levelo_inurba_marseille","lat":43.292642,"lon":5.384254,"is_reserved":false,"is_disabled":false,"rental_uris":{"android":"levelo://app?vid=9cae54c7-ade4-40df-88f1-3aa0d1f7b4d5","ios":"levelo://app?vid=9cae54c7-ade4-40df-88f1-3aa0d1f7b4d5"},"vehicle_type_id":"4","last_reported":1699131917,"current_range_meters":14800,"station_id":"ce4bh692rcd13ifvqea0","pricing_plan_id":"free"},{"bike_id":"8cf0ced4-7685-4121-b98a-295b659f8269","system_id":"levelo_inurba_marseille","lat":43.2927,"lon":5.38437,"is_reserved":false,"is_disabled":false,"rental_uris":{"android":"levelo://app?vid=8cf0ced4-7685-4121-b98a-295b659f8269","ios":"levelo://app?vid=8cf0ced4-7685-4121-b98a-295b659f8269"},"vehicle_type_id":"4","last_reported":1699131917,"current_range_meters":15600,"station_id":"ce4bh692rcd13ifvqea0","pricing_plan_id":"free"},{"bike_id":"6463f5ec-f742-4e75-b8d4-a00883fca39a","system_id":"levelo_inurba_marseille","lat":43.292644,"lon":5.384257,"is_reserved":false,"is_disabled":false,"rental_uris":{"android":"levelo://app?vid=6463f5ec-f742-4e75-b8d4-a00883fca39a","ios":"levelo://app?vid=6463f5ec-f742-4e75-b8d4-a00883fca39a"},"vehicle_type_id":"4","last_reported":1699131917,"current_range_meters":22000,"station_id":"ce4bh692rcd13ifvqea0","pricing_plan_id":"free"},{"bike_id":"89545d16-dc54-402a-b7b0-9657c27fcf8d","system_id":"levelo_inurba_marseille","lat":43.292644,"lon":5.384257,"is_reserved":false,"is_disabled":false,"rental_uris":{"android":"levelo://app?vid=89545d16-dc54-402a-b7b0-9657c27fcf8d","ios":"levelo://app?vid=89545d16-dc54-402a-b7b0-9657c27fcf8d"},"vehicle_type_id":"4","last_reported":1699131917,"current_range_meters":16400,"station_id":"ce4bh692rcd13ifvqea0","pricing_plan_id":"free"},{"bike_id":"d7f5a352-5cf3-4e88-b93c-aebe6bc0de38","system_id":"levelo_inurba_marseille","lat":43.292642,"lon":5.384254,"is_reserved":false,"is_disabled":false,"rental_uris":{"android":"levelo://app?vid=d7f5a352-5cf3-4e88-b93c-aebe6bc0de38","ios":"levelo://app?vid=d7f5a352-5cf3-4e88-b93c-aebe6bc0de38"},"vehicle_type_id":"4","last_reported":1699131917,"current_range_meters":17600,"station_id":"ce4bh692rcd13ifvqea0","pricing_plan_id":"free"},{"bike_id":"67819d91-34b7-46c7-8189-2eaafe1f9124","system_id":"levelo_inurba_marseille","lat":43.29264,"lon":5.38438,"is_reserved":false,"is_disabled":false,"rental_uris":{"android":"levelo://app?vid=67819d91-34b7-46c7-8189-2eaafe1f9124","ios":"levelo://app?vid=67819d91-34b7-46c7-8189-2eaafe1f9124"},"vehicle_type_id":"4","last_reported":1699131917,"current_range_meters":21200,"station_id":"ce4bh692rcd13ifvqea0","pricing_plan_id":"free"},{"bike_id":"4ca8ba91-0080-4966-8ac4-7ee7110972e7","system_id":"levelo_inurba_marseille","lat":43.29263,"lon":5.38436,"is_reserved":false,"is_disabled":false,"rental_uris":{"android":"levelo://app?vid=4ca8ba91-0080-4966-8ac4-7ee7110972e7","ios":"levelo://app?vid=4ca8ba91-0080-4966-8ac4-7ee7110972e7"},"vehicle_type_id":"4","last_reported":1699131917,"current_range_meters":22000,"station_id":"ce4bh692rcd13ifvqea0","pricing_plan_id":"free"},{"bike_id":"074e456c-b4e5-4be8-81ed-4fd2d7c553ca","system_id":"levelo_inurba_marseille","lat":43.292642,"lon":5.384254,"is_reserved":false,"is_disabled":false,"rental_uris":{"android":"levelo://app?vid=074e456c-b4e5-4be8-81ed-4fd2d7c553ca","ios":"levelo://app?vid=074e456c-b4e5-4be8-81ed-4fd2d7c553ca"},"vehicle_type_id":"4","last_reported":1699131917,"current_range_meters":24000,"station_id":"ce4bh692rcd13ifvqea0","pricing_plan_id":"free"},{"bike_id":"215e87b9-2e1f-4161-9b0f-ada4297f58eb","system_id":"levelo_inurba_marseille","lat":43.29262,"lon":5.38436,"is_reserved":false,"is_disabled":false,"rental_uris":{"android":"levelo://app?vid=215e87b9-2e1f-4161-9b0f-ada4297f58eb","ios":"levelo://app?vid=215e87b9-2e1f-4161-9b0f-ada4297f58eb"},"vehicle_type_id":"4","last_reported":1699131917,"current_range_meters":18400,"station_id":"ce4bh692rcd13ifvqea0","pricing_plan_id":"free"},{"bike_id":"e8894b49-ae8b-4a80-bf2c-aeccd7a5cb90","system_id":"levelo_inurba_marseille","lat":43.29261,"lon":5.38434,"is_reserved":false,"is_disabled":false,"rental_uris":{"android":"levelo://app?vid=e8894b49-ae8b-4a80-bf2c-aeccd7a5cb90","ios":"levelo://app?vid=e8894b49-ae8b-4a80-bf2c-aeccd7a5cb90"},"vehicle_type_id":"4","last_reported":1699131917,"current_range_meters":8000,"station_id":"ce4bh692rcd13ifvqea0","pricing_plan_id":"free"},{"bike_id":"1a61207a-4a5a-43b3-a43d-fdfd44104343","system_id":"levelo_inurba_marseille","lat":43.29262,"lon":5.38437,"is_reserved":false,"is_disabled":false,"rental_uris":{"android":"levelo://app?vid=1a61207a-4a5a-43b3-a43d-fdfd44104343","ios":"levelo://app?vid=1a61207a-4a5a-43b3-a43d-fdfd44104343"},"vehicle_type_id":"4","last_reported":1699131917,"current_range_meters":18400,"station_id":"ce4bh692rcd13ifvqea0","pricing_plan_id":"free"},{"bike_id":"dd83c28d-2a30-44e8-927e-6485b1b4a3b5","system_id":"levelo_inurba_marseille","lat":43.29263,"lon":5.3844,"is_reserved":false,"is_disabled":false,"rental_uris":{"android":"levelo://app?vid=dd83c28d-2a30-44e8-927e-6485b1b4a3b5","ios":"levelo://app?vid=dd83c28d-2a30-44e8-927e-6485b1b4a3b5"},"vehicle_type_id":"4","last_reported":1699131917,"current_range_meters":17600,"station_id":"ce4bh692rcd13ifvqea0","pricing_plan_id":"free"},{"bike_id":"795749bf-663e-42e9-8550-2adec90bf63d","system_id":"levelo_inurba_marseille","lat":43.29261,"lon":5.38436,"is_reserved":false,"is_disabled":false,"rental_uris":{"android":"levelo://app?vid=795749bf-663e-42e9-8550-2adec90bf63d","ios":"levelo://app?vid=795749bf-663e-42e9-8550-2adec90bf63d"},"vehicle_type_id":"4","last_reported":1699131917,"current_range_meters":22000,"station_id":"ce4bh692rcd13ifvqea0","pricing_plan_id":"free"},{"bike_id":"467c8faa-25a8-4b14-ab0d-7e01b487aeba","system_id":"levelo_inurba_marseille","lat":43.292642,"lon":5.384254,"is_reserved":false,"is_disabled":false,"rental_uris":{"android":"levelo://app?vid=467c8faa-25a8-4b14-ab0d-7e01b487aeba","ios":"levelo://app?vid=467c8faa-25a8-4b14-ab0d-7e01b487aeba"},"vehicle_type_id":"4","last_reported":1699131917,"current_range_meters":31600,"station_id":"ce4bh692rcd13ifvqea0","pricing_plan_id":"free"},{"bike_id":"61541696-8707-43b8-833f-663230e618b5","system_id":"levelo_inurba_marseille","lat":43.292642,"lon":5.384254,"is_reserved":false,"is_disabled":false,"rental_uris":{"android":"levelo://app?vid=61541696-8707-43b8-833f-663230e618b5","ios":"levelo://app?vid=61541696-8707-43b8-833f-663230e618b5"},"vehicle_type_id":"4","last_reported":1699131917,"current_range_meters":5200,"station_id":"ce4bh692rcd13ifvqea0","pricing_plan_id":"free"},{"bike_id":"a1abb416-6b7e-449d-8f1c-a07617fed5de","system_id":"levelo_inurba_marseille","lat":43.292644,"lon":5.384257,"is_reserved":false,"is_disabled":false,"rental_uris":{"android":"levelo://app?vid=a1abb416-6b7e-449d-8f1c-a07617fed5de","ios":"levelo://app?vid=a1abb416-6b7e-449d-8f1c-a07617fed5de"},"vehicle_type_id":"4","last_reported":1699131917,"current_range_meters":20000,"station_id":"ce4bh692rcd13ifvqea0","pricing_plan_id":"free"},{"bike_id":"972bc82a-7075-438b-ae1c-55213dfde763","system_id":"levelo_inurba_marseille","lat":43.292644,"lon":5.384257,"is_reserved":false,"is_disabled":false,"rental_uris":{"android":"levelo://app?vid=972bc82a-7075-438b-ae1c-55213dfde763","ios":"levelo://app?vid=972bc82a-7075-438b-ae1c-55213dfde763"},"vehicle_type_id":"4","last_reported":1699131917,"current_range_meters":31600,"station_id":"ce4bh692rcd13ifvqea0","pricing_plan_id":"free"},{"bike_id":"79b645eb-4f91-4f34-921f-dcd9ee3d1be0","system_id":"levelo_inurba_marseille","lat":43.292644,"lon":5.384257,"is_reserved":false,"is_disabled":false,"rental_uris":{"android":"levelo://app?vid=79b645eb-4f91-4f34-921f-dcd9ee3d1be0","ios":"levelo://app?vid=79b645eb-4f91-4f34-921f-dcd9ee3d1be0"},"vehicle_type_id":"4","last_reported":1699131917,"current_range_meters":32000,"station_id":"ce4bh692rcd13ifvqea0","pricing_plan_id":"free"},{"bike_id":"30d90db7-6f8c-4938-ab47-18c38281c561","system_id":"levelo_inurba_marseille","lat":43.292644,"lon":5.384257,"is_reserved":false,"is_disabled":false,"rental_uris":{"android":"levelo://app?vid=30d90db7-6f8c-4938-ab47-18c38281c561","ios":"levelo://app?vid=30d90db7-6f8c-4938-ab47-18c38281c561"},"vehicle_type_id":"4","last_reported":1699131917,"current_range_meters":10800,"station_id":"ce4bh692rcd13ifvqea0","pricing_plan_id":"free"},{"bike_id":"fd376d68-dc06-4a0f-8699-e8b33a6d7183","system_id":"levelo_inurba_marseille","lat":43.292644,"lon":5.384257,"is_reserved":false,"is_disabled":false,"rental_uris":{"android":"levelo://app?vid=fd376d68-dc06-4a0f-8699-e8b33a6d7183","ios":"levelo://app?vid=fd376d68-dc06-4a0f-8699-e8b33a6d7183"},"vehicle_type_id":"4","last_reported":1699131917,"current_range_meters":20800,"station_id":"ce4bh692rcd13ifvqea0","pricing_plan_id":"free"},{"bike_id":"d25efbca-3e1c-48a9-99e6-535528c3e197","system_id":"levelo_inurba_marseille","lat":43.292642,"lon":5.384254,"is_reserved":false,"is_disabled":false,"rental_uris":{"android":"levelo://app?vid=d25efbca-3e1c-48a9-99e6-535528c3e197","ios":"levelo://app?vid=d25efbca-3e1c-48a9-99e6-535528c3e197"},"vehicle_type_id":"4","last_reported":1699131917,"current_range_meters":22400,"station_id":"ce4bh692rcd13ifvqea0","pricing_plan_id":"free"},{"bike_id":"bed3384f-c68c-4922-ad57-603daf428b78","system_id":"levelo_inurba_marseille","lat":43.292642,"lon":5.384254,"is_reserved":false,"is_disabled":false,"rental_uris":{"android":"levelo://app?vid=bed3384f-c68c-4922-ad57-603daf428b78","ios":"levelo://app?vid=bed3384f-c68c-4922-ad57-603daf428b78"},"vehicle_type_id":"4","last_reported":1699131917,"current_range_meters":18000,"station_id":"ce4bh692rcd13ifvqea0","pricing_plan_id":"free"},{"bike_id":"04c33529-ab7b-418b-9e61-5c81ba90a549","system_id":"levelo_inurba_marseille","lat":43.292644,"lon":5.384257,"is_reserved":false,"is_disabled":false,"rental_uris":{"android":"levelo://app?vid=04c33529-ab7b-418b-9e61-5c81ba90a549","ios":"levelo://app?vid=04c33529-ab7b-418b-9e61-5c81ba90a549"},"vehicle_type_id":"4","last_reported":1699131917,"current_range_meters":11600,"station_id":"ce4bh692rcd13ifvqea0","pricing_plan_id":"free"},{"bike_id":"53388c62-223f-4925-8325-02406825fe99","system_id":"levelo_inurba_marseille","lat":43.292642,"lon":5.384254,"is_reserved":false,"is_disabled":false,"rental_uris":{"android":"levelo://app?vid=53388c62-223f-4925-8325-02406825fe99","ios":"levelo://app?vid=53388c62-223f-4925-8325-02406825fe99"},"vehicle_type_id":"4","last_reported":1699131917,"current_range_meters":13200,"station_id":"ce4bh692rcd13ifvqea0","pricing_plan_id":"free"},{"bike_id":"745a6976-3f82-4652-b1a0-3758e595b13a","system_id":"levelo_inurba_marseille","lat":43.29253,"lon":5.38432,"is_reserved":false,"is_disabled":false,"rental_uris":{"android":"levelo://app?vid=745a6976-3f82-4652-b1a0-3758e595b13a","ios":"levelo://app?vid=745a6976-3f82-4652-b1a0-3758e595b13a"},"vehicle_type_id":"4","last_reported":1699131917,"current_range_meters":0,"station_id":"ce4bh692rcd13ifvqea0","pricing_plan_id":"free"},{"bike_id":"8d2f7ce5-a68e-46ee-b3f3-5b7360da5f56","system_id":"levelo_inurba_marseille","lat":43.292555,"lon":5.384406,"is_reserved":false,"is_disabled":false,"rental_uris":{"android":"levelo://app?vid=8d2f7ce5-a68e-46ee-b3f3-5b7360da5f56","ios":"levelo://app?vid=8d2f7ce5-a68e-46ee-b3f3-5b7360da5f56"},"vehicle_type_id":"4","last_reported":1699131917,"current_range_meters":31200,"station_id":"ce4bh692rcd13ifvqea0","pricing_plan_id":"free"},{"bike_id":"6d20a883-81db-4710-9031-61ead7a5aa9d","system_id":"levelo_inurba_marseille","lat":43.292644,"lon":5.384257,"is_reserved":false,"is_disabled":false,"rental_uris":{"android":"levelo://app?vid=6d20a883-81db-4710-9031-61ead7a5aa9d","ios":"levelo://app?vid=6d20a883-81db-4710-9031-61ead7a5aa9d"},"vehicle_type_id":"4","last_reported":1699131917,"current_range_meters":15600,"station_id":"ce4bh692rcd13ifvqea0","pricing_plan_id":"free"},{"bike_id":"75801a39-59d1-473c-8c01-a84fe5fc1817","system_id":"levelo_inurba_marseille","lat":43.33048,"lon":5.38912,"is_reserved":false,"is_disabled":false,"rental_uris":{"android":"levelo://app?vid=75801a39-59d1-473c-8c01-a84fe5fc1817","ios":"levelo://app?vid=75801a39-59d1-473c-8c01-a84fe5fc1817"},"vehicle_type_id":"4","last_reported":1699131917,"current_range_meters":13200,"station_id":"ce4bhr92rcd13ifvqhrg","pricing_plan_id":"free"},{"bike_id":"80195503-3ed2-4ef7-87c7-bb8192433dc6","system_id":"levelo_inurba_marseille","lat":43.290103,"lon":5.356114,"is_reserved":false,"is_disabled":false,"rental_uris":{"android":"levelo://app?vid=80195503-3ed2-4ef7-87c7-bb8192433dc6","ios":"levelo://app?vid=80195503-3ed2-4ef7-87c7-bb8192433dc6"},"vehicle_type_id":"4","last_reported":1699131917,"current_range_meters":22000,"station_id":"ce4bhb92rcd13ifvqen0","pricing_plan_id":"free"},{"bike_id":"ac26c4b6-af51-4373-981e-f5a36f4d1a31","system_id":"levelo_inurba_marseille","lat":43.29004,"lon":5.35614,"is_reserved":false,"is_disabled":false,"rental_uris":{"android":"levelo://app?vid=ac26c4b6-af51-4373-981e-f5a36f4d1a31","ios":"levelo://app?vid=ac26c4b6-af51-4373-981e-f5a36f4d1a31"},"vehicle_type_id":"4","last_reported":1699131917,"current_range_meters":19600,"station_id":"ce4bhb92rcd13ifvqen0","pricing_plan_id":"free"},{"bike_id":"64015230-fcd2-4e6a-bcb9-4dcb1abddfeb","system_id":"levelo_inurba_marseille","lat":43.33051,"lon":5.38914,"is_reserved":false,"is_disabled":false,"rental_uris":{"android":"levelo://app?vid=64015230-fcd2-4e6a-bcb9-4dcb1abddfeb","ios":"levelo://app?vid=64015230-fcd2-4e6a-bcb9-4dcb1abddfeb"},"vehicle_type_id":"4","last_reported":1699131917,"current_range_meters":14400,"station_id":"ce4bhr92rcd13ifvqhrg","pricing_plan_id":"free"},{"bike_id":"bc238fd4-e29d-4eb6-80a6-6b299cb4006f","system_id":"levelo_inurba_marseille","lat":43.290104,"lon":5.356111,"is_reserved":false,"is_disabled":false,"rental_uris":{"android":"levelo://app?vid=bc238fd4-e29d-4eb6-80a6-6b299cb4006f","ios":"levelo://app?vid=bc238fd4-e29d-4eb6-80a6-6b299cb4006f"},"vehicle_type_id":"4","last_reported":1699131917,"current_range_meters":16000,"station_id":"ce4bhb92rcd13ifvqen0","pricing_plan_id":"free"},{"bike_id":"e0d713cd-ec81-44ec-8ba4-571dd76a2b05","system_id":"levelo_inurba_marseille","lat":43.295169,"lon":5.390426,"is_reserved":false,"is_disabled":false,"rental_uris":{"android":"levelo://app?vid=e0d713cd-ec81-44ec-8ba4-571dd76a2b05","ios":"levelo://app?vid=e0d713cd-ec81-44ec-8ba4-571dd76a2b05"},"vehicle_type_id":"4","last_reported":1699131917,"current_range_meters":0,"station_id":"ce4bh3p2rcd13ifvqdp0","pricing_plan_id":"free"},{"bike_id":"2998cb27-43da-476d-9bf4-6c46f9f57885","system_id":"levelo_inurba_marseille","lat":43.295169,"lon":5.390426,"is_reserved":false,"is_disabled":false,"rental_uris":{"android":"levelo://app?vid=2998cb27-43da-476d-9bf4-6c46f9f57885","ios":"levelo://app?vid=2998cb27-43da-476d-9bf4-6c46f9f57885"},"vehicle_type_id":"4","last_reported":1699131917,"current_range_meters":20400,"station_id":"ce4bh3p2rcd13ifvqdp0","pricing_plan_id":"free"},{"bike_id":"260e46d3-d171-4cfb-86fb-8295d682b146","system_id":"levelo_inurba_marseille","lat":43.305275,"lon":5.399074,"is_reserved":false,"is_disabled":false,"rental_uris":{"android":"levelo://app?vid=260e46d3-d171-4cfb-86fb-8295d682b146","ios":"levelo://app?vid=260e46d3-d171-4cfb-86fb-8295d682b146"},"vehicle_type_id":"4","last_reported":1699131917,"current_range_meters":10800,"station_id":"","pricing_plan_id":"free"},{"bike_id":"21bbb98b-9256-415b-b50c-b6bd0ed46cc8","system_id":"levelo_inurba_marseille","lat":43.312609,"lon":5.401662,"is_reserved":false,"is_disabled":false,"rental_uris":{"android":"levelo://app?vid=21bbb98b-9256-415b-b50c-b6bd0ed46cc8","ios":"levelo://app?vid=21bbb98b-9256-415b-b50c-b6bd0ed46cc8"},"vehicle_type_id":"4","last_reported":1699131917,"current_range_meters":4000,"station_id":"ce4bh092rcd13ifvqd30","pricing_plan_id":"free"},{"bike_id":"7f632203-8901-4931-8d4f-fb52de02b899","system_id":"levelo_inurba_marseille","lat":43.309371,"lon":5.401449,"is_reserved":false,"is_disabled":false,"rental_uris":{"android":"levelo://app?vid=7f632203-8901-4931-8d4f-fb52de02b899","ios":"levelo://app?vid=7f632203-8901-4931-8d4f-fb52de02b899"},"vehicle_type_id":"4","last_reported":1699131917,"current_range_meters":0,"station_id":"ce4bgvp2rcd13ifvqct0","pricing_plan_id":"free"},{"bike_id":"b035755c-2b1f-406f-8e6e-be6c1253be32","system_id":"levelo_inurba_marseille","lat":43.30921,"lon":5.40144,"is_reserved":false,"is_disabled":false,"rental_uris":{"android":"levelo://app?vid=b035755c-2b1f-406f-8e6e-be6c1253be32","ios":"levelo://app?vid=b035755c-2b1f-406f-8e6e-be6c1253be32"},"vehicle_type_id":"4","last_reported":1699131917,"current_range_meters":1200,"station_id":"ce4bgvp2rcd13ifvqct0","pricing_plan_id":"free"},{"bike_id":"a8654dcd-e492-4c3c-97c4-8d16859d7118","system_id":"levelo_inurba_marseille","lat":43.309381,"lon":5.401496,"is_reserved":false,"is_disabled":false,"rental_uris":{"android":"levelo://app?vid=a8654dcd-e492-4c3c-97c4-8d16859d7118","ios":"levelo://app?vid=a8654dcd-e492-4c3c-97c4-8d16859d7118"},"vehicle_type_id":"4","last_reported":1699131917,"current_range_meters":800,"station_id":"ce4bgvp2rcd13ifvqct0","pricing_plan_id":"free"},{"bike_id":"3c572c3f-cc4c-4d3a-a0f0-73ed1ad39fef","system_id":"levelo_inurba_marseille","lat":43.33031,"lon":5.392311,"is_reserved":false,"is_disabled":false,"rental_uris":{"android":"levelo://app?vid=3c572c3f-cc4c-4d3a-a0f0-73ed1ad39fef","ios":"levelo://app?vid=3c572c3f-cc4c-4d3a-a0f0-73ed1ad39fef"},"vehicle_type_id":"4","last_reported":1699131917,"current_range_meters":8000,"station_id":"","pricing_plan_id":"free"},{"bike_id":"3bc87fbd-a495-4c84-9cce-8d1707aeb066","system_id":"levelo_inurba_marseille","lat":43.30642,"lon":5.401031,"is_reserved":false,"is_disabled":false,"rental_uris":{"android":"levelo://app?vid=3bc87fbd-a495-4c84-9cce-8d1707aeb066","ios":"levelo://app?vid=3bc87fbd-a495-4c84-9cce-8d1707aeb066"},"vehicle_type_id":"4","last_reported":1699131917,"current_range_meters":5200,"station_id":"ce4bh112rcd13ifvqda0","pricing_plan_id":"free"},{"bike_id":"c8ef962e-65ea-43dd-bafc-6bea85b3fb5a","system_id":"levelo_inurba_marseille","lat":43.3014,"lon":5.39869,"is_reserved":false,"is_disabled":false,"rental_uris":{"android":"levelo://app?vid=c8ef962e-65ea-43dd-bafc-6bea85b3fb5a","ios":"levelo://app?vid=c8ef962e-65ea-43dd-bafc-6bea85b3fb5a"},"vehicle_type_id":"4","last_reported":1699131917,"current_range_meters":5600,"station_id":"ce4bh0h2rcd13ifvqd40","pricing_plan_id":"free"},{"bike_id":"4fcf0789-98eb-4ffe-8ac9-1f101b625f2b","system_id":"levelo_inurba_marseille","lat":43.3014,"lon":5.39878,"is_reserved":false,"is_disabled":false,"rental_uris":{"android":"levelo://app?vid=4fcf0789-98eb-4ffe-8ac9-1f101b625f2b","ios":"levelo://app?vid=4fcf0789-98eb-4ffe-8ac9-1f101b625f2b"},"vehicle_type_id":"4","last_reported":1699131917,"current_range_meters":26800,"station_id":"","pricing_plan_id":"free"},{"bike_id":"75b535f2-9045-45dd-89c9-2012f37b0c4f","system_id":"levelo_inurba_marseille","lat":43.286593,"lon":5.363346,"is_reserved":false,"is_disabled":false,"rental_uris":{"android":"levelo://app?vid=75b535f2-9045-45dd-89c9-2012f37b0c4f","ios":"levelo://app?vid=75b535f2-9045-45dd-89c9-2012f37b0c4f"},"vehicle_type_id":"4","last_reported":1699131917,"current_range_meters":27600,"station_id":"ce4bhah2rcd13ifvqej0","pricing_plan_id":"free"},{"bike_id":"abaea5fc-c514-4ec8-bed7-421ae54ee841","system_id":"levelo_inurba_marseille","lat":43.286961,"lon":5.373785,"is_reserved":false,"is_disabled":false,"rental_uris":{"android":"levelo://app?vid=abaea5fc-c514-4ec8-bed7-421ae54ee841","ios":"levelo://app?vid=abaea5fc-c514-4ec8-bed7-421ae54ee841"},"vehicle_type_id":"4","last_reported":1699131917,"current_range_meters":25600,"station_id":"ce4bh3p2rcd13ifvqdq0","pricing_plan_id":"free"},{"bike_id":"781a82a7-2c57-4492-8842-27cfd2aff5c1","system_id":"levelo_inurba_marseille","lat":43.286961,"lon":5.373785,"is_reserved":false,"is_disabled":false,"rental_uris":{"android":"levelo://app?vid=781a82a7-2c57-4492-8842-27cfd2aff5c1","ios":"levelo://app?vid=781a82a7-2c57-4492-8842-27cfd2aff5c1"},"vehicle_type_id":"4","last_reported":1699131917,"current_range_meters":24800,"station_id":"ce4bh3p2rcd13ifvqdq0","pricing_plan_id":"free"},{"bike_id":"7135e1b8-54f6-47b0-aaf9-6192ba6189d3","system_id":"levelo_inurba_marseille","lat":43.286961,"lon":5.373785,"is_reserved":false,"is_disabled":false,"rental_uris":{"android":"levelo://app?vid=7135e1b8-54f6-47b0-aaf9-6192ba6189d3","ios":"levelo://app?vid=7135e1b8-54f6-47b0-aaf9-6192ba6189d3"},"vehicle_type_id":"4","last_reported":1699131917,"current_range_meters":10800,"station_id":"ce4bh3p2rcd13ifvqdq0","pricing_plan_id":"free"},{"bike_id":"a3955afb-6d44-4781-be33-a8418525289e","system_id":"levelo_inurba_marseille","lat":43.298681,"lon":5.397225,"is_reserved":false,"is_disabled":false,"rental_uris":{"android":"levelo://app?vid=a3955afb-6d44-4781-be33-a8418525289e","ios":"levelo://app?vid=a3955afb-6d44-4781-be33-a8418525289e"},"vehicle_type_id":"4","last_reported":1699131917,"current_range_meters":24800,"station_id":"ce4bh0h2rcd13ifvqd50","pricing_plan_id":"free"},{"bike_id":"873d9983-1431-4af9-8cdf-8b9ef844ba51","system_id":"levelo_inurba_marseille","lat":43.298681,"lon":5.397225,"is_reserved":false,"is_disabled":false,"rental_uris":{"android":"levelo://app?vid=873d9983-1431-4af9-8cdf-8b9ef844ba51","ios":"levelo://app?vid=873d9983-1431-4af9-8cdf-8b9ef844ba51"},"vehicle_type_id":"4","last_reported":1699131917,"current_range_meters":14000,"station_id":"ce4bh0h2rcd13ifvqd50","pricing_plan_id":"free"},{"bike_id":"605ae121-4b72-4c23-bd00-0843daf49046","system_id":"levelo_inurba_marseille","lat":43.295194,"lon":5.39397,"is_reserved":false,"is_disabled":false,"rental_uris":{"android":"levelo://app?vid=605ae121-4b72-4c23-bd00-0843daf49046","ios":"levelo://app?vid=605ae121-4b72-4c23-bd00-0843daf49046"},"vehicle_type_id":"4","last_reported":1699131917,"current_range_meters":7600,"station_id":"ce4bh292rcd13ifvqdf0","pricing_plan_id":"free"},{"bike_id":"a38c6741-4a98-4ddf-8d9c-c12571c9e049","system_id":"levelo_inurba_marseille","lat":43.295196,"lon":5.39397,"is_reserved":false,"is_disabled":false,"rental_uris":{"android":"levelo://app?vid=a38c6741-4a98-4ddf-8d9c-c12571c9e049","ios":"levelo://app?vid=a38c6741-4a98-4ddf-8d9c-c12571c9e049"},"vehicle_type_id":"4","last_reported":1699131917,"current_range_meters":5200,"station_id":"ce4bh292rcd13ifvqdf0","pricing_plan_id":"free"},{"bike_id":"67ae0014-46d5-4198-afd7-0f6085ed7901","system_id":"levelo_inurba_marseille","lat":43.302759,"lon":5.400793,"is_reserved":false,"is_disabled":false,"rental_uris":{"android":"levelo://app?vid=67ae0014-46d5-4198-afd7-0f6085ed7901","ios":"levelo://app?vid=67ae0014-46d5-4198-afd7-0f6085ed7901"},"vehicle_type_id":"4","last_reported":1699131917,"current_range_meters":11200,"station_id":"ce4bgvh2rcd13ifvqcs0","pricing_plan_id":"free"},{"bike_id":"8c67cf71-f415-4963-872d-e86cf57733b7","system_id":"levelo_inurba_marseille","lat":43.289362,"lon":5.383953,"is_reserved":false,"is_disabled":false,"rental_uris":{"android":"levelo://app?vid=8c67cf71-f415-4963-872d-e86cf57733b7","ios":"levelo://app?vid=8c67cf71-f415-4963-872d-e86cf57733b7"},"vehicle_type_id":"4","last_reported":1699131917,"current_range_meters":31200,"station_id":"ce4bh612rcd13ifvqe6g","pricing_plan_id":"free"},{"bike_id":"57a5589f-11a4-4375-9cdc-0315ae5ad3c6","system_id":"levelo_inurba_marseille","lat":43.28931,"lon":5.38388,"is_reserved":false,"is_disabled":false,"rental_uris":{"android":"levelo://app?vid=57a5589f-11a4-4375-9cdc-0315ae5ad3c6","ios":"levelo://app?vid=57a5589f-11a4-4375-9cdc-0315ae5ad3c6"},"vehicle_type_id":"4","last_reported":1699131917,"current_range_meters":20400,"station_id":"ce4bh612rcd13ifvqe6g","pricing_plan_id":"free"},{"bike_id":"33b295c2-7258-4660-9dd2-8823ca107e4c","system_id":"levelo_inurba_marseille","lat":43.29043,"lon":5.38654,"is_reserved":false,"is_disabled":false,"rental_uris":{"android":"levelo://app?vid=33b295c2-7258-4660-9dd2-8823ca107e4c","ios":"levelo://app?vid=33b295c2-7258-4660-9dd2-8823ca107e4c"},"vehicle_type_id":"4","last_reported":1699131917,"current_range_meters":6800,"station_id":"","pricing_plan_id":"free"},{"bike_id":"da54890f-f05a-4233-bff6-c21ba15e54e1","system_id":"levelo_inurba_marseille","lat":43.290366,"lon":5.38645,"is_reserved":false,"is_disabled":false,"rental_uris":{"android":"levelo://app?vid=da54890f-f05a-4233-bff6-c21ba15e54e1","ios":"levelo://app?vid=da54890f-f05a-4233-bff6-c21ba15e54e1"},"vehicle_type_id":"4","last_reported":1699131917,"current_range_meters":10000,"station_id":"","pricing_plan_id":"free"},{"bike_id":"8e32b369-5cd8-4b6f-9611-6b507eb90dd8","system_id":"levelo_inurba_marseille","lat":43.290311,"lon":5.386417,"is_reserved":false,"is_disabled":false,"rental_uris":{"android":"levelo://app?vid=8e32b369-5cd8-4b6f-9611-6b507eb90dd8","ios":"levelo://app?vid=8e32b369-5cd8-4b6f-9611-6b507eb90dd8"},"vehicle_type_id":"4","last_reported":1699131917,"current_range_meters":23600,"station_id":"","pricing_plan_id":"free"},{"bike_id":"43a77e9f-1661-49a2-b8b5-700d960e4ee8","system_id":"levelo_inurba_marseille","lat":43.29033,"lon":5.38646,"is_reserved":false,"is_disabled":false,"rental_uris":{"android":"levelo://app?vid=43a77e9f-1661-49a2-b8b5-700d960e4ee8","ios":"levelo://app?vid=43a77e9f-1661-49a2-b8b5-700d960e4ee8"},"vehicle_type_id":"4","last_reported":1699131917,"current_range_meters":4000,"station_id":"","pricing_plan_id":"free"},{"bike_id":"967fc874-c28a-499f-abe1-3adf4015e12a","system_id":"levelo_inurba_marseille","lat":43.29032,"lon":5.386449,"is_reserved":false,"is_disabled":false,"rental_uris":{"android":"levelo://app?vid=967fc874-c28a-499f-abe1-3adf4015e12a","ios":"levelo://app?vid=967fc874-c28a-499f-abe1-3adf4015e12a"},"vehicle_type_id":"4","last_reported":1699131917,"current_range_meters":0,"station_id":"","pricing_plan_id":"free"},{"bike_id":"e446975b-1007-4a6d-871e-8a1be5f7d6c2","system_id":"levelo_inurba_marseille","lat":43.3025,"lon":5.40058,"is_reserved":false,"is_disabled":false,"rental_uris":{"android":"levelo://app?vid=e446975b-1007-4a6d-871e-8a1be5f7d6c2","ios":"levelo://app?vid=e446975b-1007-4a6d-871e-8a1be5f7d6c2"},"vehicle_type_id":"4","last_reported":1699131917,"current_range_meters":14000,"station_id":"ce4bgvh2rcd13ifvqcs0","pricing_plan_id":"free"},{"bike_id":"8532410d-cddb-4af4-b89c-671463d8ad14","system_id":"levelo_inurba_marseille","lat":43.29032,"lon":5.38646,"is_reserved":false,"is_disabled":false,"rental_uris":{"android":"levelo://app?vid=8532410d-cddb-4af4-b89c-671463d8ad14","ios":"levelo://app?vid=8532410d-cddb-4af4-b89c-671463d8ad14"},"vehicle_type_id":"4","last_reported":1699131917,"current_range_meters":12000,"station_id":"","pricing_plan_id":"free"},{"bike_id":"3cf200c6-82b1-40fc-a65f-f15a5eb78897","system_id":"levelo_inurba_marseille","lat":43.289307,"lon":5.38406,"is_reserved":false,"is_disabled":false,"rental_uris":{"android":"levelo://app?vid=3cf200c6-82b1-40fc-a65f-f15a5eb78897","ios":"levelo://app?vid=3cf200c6-82b1-40fc-a65f-f15a5eb78897"},"vehicle_type_id":"4","last_reported":1699131917,"current_range_meters":31200,"station_id":"ce4bh612rcd13ifvqe6g","pricing_plan_id":"free"},{"bike_id":"e00af4c4-71d3-4089-a13b-c28219df8a1e","system_id":"levelo_inurba_marseille","lat":43.302759,"lon":5.400793,"is_reserved":false,"is_disabled":false,"rental_uris":{"android":"levelo://app?vid=e00af4c4-71d3-4089-a13b-c28219df8a1e","ios":"levelo://app?vid=e00af4c4-71d3-4089-a13b-c28219df8a1e"},"vehicle_type_id":"4","last_reported":1699131917,"current_range_meters":7200,"station_id":"ce4bgvh2rcd13ifvqcs0","pricing_plan_id":"free"},{"bike_id":"64689dda-8c78-4012-9880-0f29f76a232d","system_id":"levelo_inurba_marseille","lat":43.302759,"lon":5.400793,"is_reserved":false,"is_disabled":false,"rental_uris":{"android":"levelo://app?vid=64689dda-8c78-4012-9880-0f29f76a232d","ios":"levelo://app?vid=64689dda-8c78-4012-9880-0f29f76a232d"},"vehicle_type_id":"4","last_reported":1699131917,"current_range_meters":20800,"station_id":"ce4bgvh2rcd13ifvqcs0","pricing_plan_id":"free"},{"bike_id":"186aa378-48e1-48f2-ba19-6d0acf3db80b","system_id":"levelo_inurba_marseille","lat":43.302759,"lon":5.400793,"is_reserved":false,"is_disabled":false,"rental_uris":{"android":"levelo://app?vid=186aa378-48e1-48f2-ba19-6d0acf3db80b","ios":"levelo://app?vid=186aa378-48e1-48f2-ba19-6d0acf3db80b"},"vehicle_type_id":"4","last_reported":1699131917,"current_range_meters":0,"station_id":"ce4bgvh2rcd13ifvqcs0","pricing_plan_id":"free"},{"bike_id":"65dd663c-183d-402d-a3a0-7044d319fb05","system_id":"levelo_inurba_marseille","lat":43.30251,"lon":5.40074,"is_reserved":false,"is_disabled":false,"rental_uris":{"android":"levelo://app?vid=65dd663c-183d-402d-a3a0-7044d319fb05","ios":"levelo://app?vid=65dd663c-183d-402d-a3a0-7044d319fb05"},"vehicle_type_id":"4","last_reported":1699131917,"current_range_meters":6400,"station_id":"ce4bgvh2rcd13ifvqcs0","pricing_plan_id":"free"},{"bike_id":"3c163fb6-d331-44b7-85a1-692957d77f4a","system_id":"levelo_inurba_marseille","lat":43.30257,"lon":5.40081,"is_reserved":false,"is_disabled":false,"rental_uris":{"android":"levelo://app?vid=3c163fb6-d331-44b7-85a1-692957d77f4a","ios":"levelo://app?vid=3c163fb6-d331-44b7-85a1-692957d77f4a"},"vehicle_type_id":"4","last_reported":1699131917,"current_range_meters":20400,"station_id":"ce4bgvh2rcd13ifvqcs0","pricing_plan_id":"free"},{"bike_id":"65c6c2c1-4759-42be-a179-5e86f2f70d29","system_id":"levelo_inurba_marseille","lat":43.3025,"lon":5.4008,"is_reserved":false,"is_disabled":false,"rental_uris":{"android":"levelo://app?vid=65c6c2c1-4759-42be-a179-5e86f2f70d29","ios":"levelo://app?vid=65c6c2c1-4759-42be-a179-5e86f2f70d29"},"vehicle_type_id":"4","last_reported":1699131917,"current_range_meters":26400,"station_id":"ce4bgvh2rcd13ifvqcs0","pricing_plan_id":"free"},{"bike_id":"0f395e23-c73b-4e43-a3b9-0179f0029c73","system_id":"levelo_inurba_marseille","lat":43.286109,"lon":5.370674,"is_reserved":false,"is_disabled":false,"rental_uris":{"android":"levelo://app?vid=0f395e23-c73b-4e43-a3b9-0179f0029c73","ios":"levelo://app?vid=0f395e23-c73b-4e43-a3b9-0179f0029c73"},"vehicle_type_id":"4","last_reported":1699131917,"current_range_meters":22000,"station_id":"ce4bht12rcd13ifvqi60","pricing_plan_id":"free"},{"bike_id":"a52a82c4-50ba-4ecf-a6f6-2b184943dc2f","system_id":"levelo_inurba_marseille","lat":43.287185,"lon":5.379373,"is_reserved":false,"is_disabled":false,"rental_uris":{"android":"levelo://app?vid=a52a82c4-50ba-4ecf-a6f6-2b184943dc2f","ios":"levelo://app?vid=a52a82c4-50ba-4ecf-a6f6-2b184943dc2f"},"vehicle_type_id":"4","last_reported":1699131917,"current_range_meters":24400,"station_id":"ce4bh9p2rcd13ifvqec0","pricing_plan_id":"free"},{"bike_id":"e5ebeda3-958f-4477-a301-3e74febe7910","system_id":"levelo_inurba_marseille","lat":43.31648,"lon":5.40441,"is_reserved":false,"is_disabled":false,"rental_uris":{"android":"levelo://app?vid=e5ebeda3-958f-4477-a301-3e74febe7910","ios":"levelo://app?vid=e5ebeda3-958f-4477-a301-3e74febe7910"},"vehicle_type_id":"4","last_reported":1699131917,"current_range_meters":18000,"station_id":"ce4bh012rcd13ifvqd00","pricing_plan_id":"free"},{"bike_id":"ccb8c974-7f1d-488e-ad6f-b8694d5c2aba","system_id":"levelo_inurba_marseille","lat":43.328576,"lon":5.398841,"is_reserved":false,"is_disabled":false,"rental_uris":{"android":"levelo://app?vid=ccb8c974-7f1d-488e-ad6f-b8694d5c2aba","ios":"levelo://app?vid=ccb8c974-7f1d-488e-ad6f-b8694d5c2aba"},"vehicle_type_id":"4","last_reported":1699131917,"current_range_meters":26400,"station_id":"","pricing_plan_id":"free"},{"bike_id":"d8828b79-e9ab-46e2-851b-91f599637a42","system_id":"levelo_inurba_marseille","lat":43.291994,"lon":5.392907,"is_reserved":false,"is_disabled":false,"rental_uris":{"android":"levelo://app?vid=d8828b79-e9ab-46e2-851b-91f599637a42","ios":"levelo://app?vid=d8828b79-e9ab-46e2-851b-91f599637a42"},"vehicle_type_id":"4","last_reported":1699131917,"current_range_meters":17600,"station_id":"ce4bh192rcd13ifvqdd0","pricing_plan_id":"free"},{"bike_id":"8bb83ab6-bd16-48c1-8537-e2ff43687096","system_id":"levelo_inurba_marseille","lat":43.284534,"lon":5.358662,"is_reserved":false,"is_disabled":false,"rental_uris":{"android":"levelo://app?vid=8bb83ab6-bd16-48c1-8537-e2ff43687096","ios":"levelo://app?vid=8bb83ab6-bd16-48c1-8537-e2ff43687096"},"vehicle_type_id":"4","last_reported":1699131917,"current_range_meters":24000,"station_id":"ce4bhah2rcd13ifvqei0","pricing_plan_id":"free"},{"bike_id":"0b805e1b-c82d-4322-8dc7-8c07c6c4fcae","system_id":"levelo_inurba_marseille","lat":43.284534,"lon":5.358662,"is_reserved":false,"is_disabled":false,"rental_uris":{"android":"levelo://app?vid=0b805e1b-c82d-4322-8dc7-8c07c6c4fcae","ios":"levelo://app?vid=0b805e1b-c82d-4322-8dc7-8c07c6c4fcae"},"vehicle_type_id":"4","last_reported":1699131917,"current_range_meters":6800,"station_id":"ce4bhah2rcd13ifvqei0","pricing_plan_id":"free"},{"bike_id":"9f8ec25d-7026-43f6-b963-db9cf5a44761","system_id":"levelo_inurba_marseille","lat":43.294314,"lon":5.397498,"is_reserved":false,"is_disabled":false,"rental_uris":{"android":"levelo://app?vid=9f8ec25d-7026-43f6-b963-db9cf5a44761","ios":"levelo://app?vid=9f8ec25d-7026-43f6-b963-db9cf5a44761"},"vehicle_type_id":"4","last_reported":1699131917,"current_range_meters":16000,"station_id":"ce4bh3h2rcd13ifvqdo0","pricing_plan_id":"free"},{"bike_id":"91b3623d-4f7b-4b41-bc3a-2fa716f16d74","system_id":"levelo_inurba_marseille","lat":43.283998,"lon":5.375062,"is_reserved":false,"is_disabled":false,"rental_uris":{"android":"levelo://app?vid=91b3623d-4f7b-4b41-bc3a-2fa716f16d74","ios":"levelo://app?vid=91b3623d-4f7b-4b41-bc3a-2fa716f16d74"},"vehicle_type_id":"4","last_reported":1699131917,"current_range_meters":28000,"station_id":"ce4bh412rcd13ifvqds0","pricing_plan_id":"free"},{"bike_id":"98102258-675f-4249-aa78-76b6928b5495","system_id":"levelo_inurba_marseille","lat":43.319179,"lon":5.407725,"is_reserved":false,"is_disabled":false,"rental_uris":{"android":"levelo://app?vid=98102258-675f-4249-aa78-76b6928b5495","ios":"levelo://app?vid=98102258-675f-4249-aa78-76b6928b5495"},"vehicle_type_id":"4","last_reported":1699131917,"current_range_meters":23600,"station_id":"ce4bhq12rcd13ifvqhig","pricing_plan_id":"free"},{"bike_id":"4a0076e1-65de-4d33-a33b-f4a716e7808c","system_id":"levelo_inurba_marseille","lat":43.32335,"lon":5.40626,"is_reserved":false,"is_disabled":false,"rental_uris":{"android":"levelo://app?vid=4a0076e1-65de-4d33-a33b-f4a716e7808c","ios":"levelo://app?vid=4a0076e1-65de-4d33-a33b-f4a716e7808c"},"vehicle_type_id":"4","last_reported":1699131917,"current_range_meters":19200,"station_id":"ce4bhq92rcd13ifvqhjg","pricing_plan_id":"free"},{"bike_id":"7de26ec8-3011-48a4-98df-11e92ef31e23","system_id":"levelo_inurba_marseille","lat":43.284793,"lon":5.384113,"is_reserved":false,"is_disabled":false,"rental_uris":{"android":"levelo://app?vid=7de26ec8-3011-48a4-98df-11e92ef31e23","ios":"levelo://app?vid=7de26ec8-3011-48a4-98df-11e92ef31e23"},"vehicle_type_id":"4","last_reported":1699131917,"current_range_meters":15200,"station_id":"ce4bh512rcd13ifvqe3g","pricing_plan_id":"free"},{"bike_id":"3aa44c52-9e81-43b0-afb5-43c861a2d7c8","system_id":"levelo_inurba_marseille","lat":43.284793,"lon":5.384119,"is_reserved":false,"is_disabled":false,"rental_uris":{"android":"levelo://app?vid=3aa44c52-9e81-43b0-afb5-43c861a2d7c8","ios":"levelo://app?vid=3aa44c52-9e81-43b0-afb5-43c861a2d7c8"},"vehicle_type_id":"4","last_reported":1699131917,"current_range_meters":23600,"station_id":"ce4bh512rcd13ifvqe3g","pricing_plan_id":"free"},{"bike_id":"54db180f-4e93-4a07-b58f-808ac7aff76a","system_id":"levelo_inurba_marseille","lat":43.284787,"lon":5.384116,"is_reserved":false,"is_disabled":false,"rental_uris":{"android":"levelo://app?vid=54db180f-4e93-4a07-b58f-808ac7aff76a","ios":"levelo://app?vid=54db180f-4e93-4a07-b58f-808ac7aff76a"},"vehicle_type_id":"4","last_reported":1699131917,"current_range_meters":30400,"station_id":"ce4bh512rcd13ifvqe3g","pricing_plan_id":"free"},{"bike_id":"8564ed6e-6245-4f0d-9a58-b76965a83c2f","system_id":"levelo_inurba_marseille","lat":43.28381,"lon":5.381,"is_reserved":false,"is_disabled":false,"rental_uris":{"android":"levelo://app?vid=8564ed6e-6245-4f0d-9a58-b76965a83c2f","ios":"levelo://app?vid=8564ed6e-6245-4f0d-9a58-b76965a83c2f"},"vehicle_type_id":"4","last_reported":1699131917,"current_range_meters":22000,"station_id":"ce4bh412rcd13ifvqdr0","pricing_plan_id":"free"},{"bike_id":"c3a25d08-e91b-4b69-b397-ea9ced9898f1","system_id":"levelo_inurba_marseille","lat":43.284787,"lon":5.384116,"is_reserved":false,"is_disabled":false,"rental_uris":{"android":"levelo://app?vid=c3a25d08-e91b-4b69-b397-ea9ced9898f1","ios":"levelo://app?vid=c3a25d08-e91b-4b69-b397-ea9ced9898f1"},"vehicle_type_id":"4","last_reported":1699131917,"current_range_meters":4800,"station_id":"ce4bh512rcd13ifvqe3g","pricing_plan_id":"free"},{"bike_id":"a5ace8df-fae3-4a10-96cb-b582c3fd5f84","system_id":"levelo_inurba_marseille","lat":43.283494,"lon":5.380945,"is_reserved":false,"is_disabled":false,"rental_uris":{"android":"levelo://app?vid=a5ace8df-fae3-4a10-96cb-b582c3fd5f84","ios":"levelo://app?vid=a5ace8df-fae3-4a10-96cb-b582c3fd5f84"},"vehicle_type_id":"4","last_reported":1699131917,"current_range_meters":24000,"station_id":"ce4bh412rcd13ifvqdr0","pricing_plan_id":"free"},{"bike_id":"9f2bd97d-990b-4766-96d1-6a09db940b01","system_id":"levelo_inurba_marseille","lat":43.324121,"lon":5.406649,"is_reserved":false,"is_disabled":false,"rental_uris":{"android":"levelo://app?vid=9f2bd97d-990b-4766-96d1-6a09db940b01","ios":"levelo://app?vid=9f2bd97d-990b-4766-96d1-6a09db940b01"},"vehicle_type_id":"4","last_reported":1699131917,"current_range_meters":24400,"station_id":"","pricing_plan_id":"free"},{"bike_id":"2e649882-857d-4874-ae11-9d970698ac14","system_id":"levelo_inurba_marseille","lat":43.284219,"lon":5.3497,"is_reserved":false,"is_disabled":false,"rental_uris":{"android":"levelo://app?vid=2e649882-857d-4874-ae11-9d970698ac14","ios":"levelo://app?vid=2e649882-857d-4874-ae11-9d970698ac14"},"vehicle_type_id":"4","last_reported":1699131917,"current_range_meters":0,"station_id":"ce4bhbh2rcd13ifvqepg","pricing_plan_id":"free"},{"bike_id":"75b0cb16-2c74-4aa2-9145-ab9f818b8299","system_id":"levelo_inurba_marseille","lat":43.289363,"lon":5.396322,"is_reserved":false,"is_disabled":false,"rental_uris":{"android":"levelo://app?vid=75b0cb16-2c74-4aa2-9145-ab9f818b8299","ios":"levelo://app?vid=75b0cb16-2c74-4aa2-9145-ab9f818b8299"},"vehicle_type_id":"4","last_reported":1699131917,"current_range_meters":30800,"station_id":"ce4bh3h2rcd13ifvqdn0","pricing_plan_id":"free"},{"bike_id":"97912064-1120-40e5-ac00-dad4a4242407","system_id":"levelo_inurba_marseille","lat":43.292724,"lon":5.401131,"is_reserved":false,"is_disabled":false,"rental_uris":{"android":"levelo://app?vid=97912064-1120-40e5-ac00-dad4a4242407","ios":"levelo://app?vid=97912064-1120-40e5-ac00-dad4a4242407"},"vehicle_type_id":"4","last_reported":1699131917,"current_range_meters":22400,"station_id":"ce4bh312rcd13ifvqdk0","pricing_plan_id":"free"},{"bike_id":"4c8e2ce9-daea-4954-8fa4-2db2f3a32b65","system_id":"levelo_inurba_marseille","lat":43.292724,"lon":5.401131,"is_reserved":false,"is_disabled":false,"rental_uris":{"android":"levelo://app?vid=4c8e2ce9-daea-4954-8fa4-2db2f3a32b65","ios":"levelo://app?vid=4c8e2ce9-daea-4954-8fa4-2db2f3a32b65"},"vehicle_type_id":"4","last_reported":1699131917,"current_range_meters":24400,"station_id":"ce4bh312rcd13ifvqdk0","pricing_plan_id":"free"},{"bike_id":"874836c6-bbf3-4288-96cf-5291092e69d1","system_id":"levelo_inurba_marseille","lat":43.2927,"lon":5.40119,"is_reserved":false,"is_disabled":false,"rental_uris":{"android":"levelo://app?vid=874836c6-bbf3-4288-96cf-5291092e69d1","ios":"levelo://app?vid=874836c6-bbf3-4288-96cf-5291092e69d1"},"vehicle_type_id":"4","last_reported":1699131917,"current_range_meters":22800,"station_id":"ce4bh312rcd13ifvqdk0","pricing_plan_id":"free"},{"bike_id":"10e970e4-b7f1-46c8-acb5-d32850b8cc3b","system_id":"levelo_inurba_marseille","lat":43.28039,"lon":5.369297,"is_reserved":false,"is_disabled":false,"rental_uris":{"android":"levelo://app?vid=10e970e4-b7f1-46c8-acb5-d32850b8cc3b","ios":"levelo://app?vid=10e970e4-b7f1-46c8-acb5-d32850b8cc3b"},"vehicle_type_id":"4","last_reported":1699131917,"current_range_meters":27600,"station_id":"ce4bha12rcd13ifvqef0","pricing_plan_id":"free"},