{"last_updated":1769281756,"ttl":60,"version":"2.2","data":{"bikes":[{"bike_id":"58f5605d-162b-4e6a-967b-544781ffa82c","system_id":"levelo_inurba_marseille","lat":43.30259,"lon":5.40081,"is_reserved":false,"is_disabled":false,"rental_uris":{"android":"levelo://app?vid=58f5605d-162b-4e6a-967b-544781ffa82c","ios":"levelo://app?vid=58f5605d-162b-4e6a-967b-544781ffa82c"},"vehicle_type_id":"4","last_reported":1769281757,"current_range_meters":2800,"station_id":"ce4bgvh2rcd13ifvqcs0","pricing_plan_id":"cebpf4jnsgd1na2vs0mg"},{"bike_id":"ee1097c7-66cb-4cde-affa-a4b0a3128b81","system_id":"levelo_inurba_marseille","lat":43.28473,"lon":5.37198,"is_reserved":false,"is_disabled":false,"rental_uris":{"android":"levelo://app?vid=ee1097c7-66cb-4cde-affa-a4b0a3128b81","ios":"levelo://app?vid=ee1097c7-66cb-4cde-affa-a4b0a3128b81"},"vehicle_type_id":"4","last_reported":1769281757,"current_range_meters":2800,"station_id":"","pricing_plan_id":"cebpf4jnsgd1na2vs0mg"},{"bike_id":"f31e30a7-d222-4134-ac26-e47240ae62f2","system_id":"levelo_inurba_marseille","lat":43.27378,"lon":5.36251,"is_reserved":false,"is_disabled":false,"rental_uris":{"android":"levelo://app?vid=f31e30a7-d222-4134-ac26-e47240ae62f2","ios":"levelo://app?vid=f31e30a7-d222-4134-ac26-e47240ae62f2"},"vehicle_type_id":"4","last_reported":1769281757,"current_range_meters":2800,"station_id":"ce4bhbh2rcd13ifvqeo0","pricing_plan_id":"cebpf4jnsgd1na2vs0mg"},{"bike_id":"44ff8850-ae68-4cf9-ac2c-234966d5cf18","system_id":"levelo_inurba_marseille","lat":43.29688,"lon":5.37309,"is_reserved":false,"is_disabled":false,"rental_uris":{"android":"levelo://app?vid=44ff8850-ae68-4cf9-ac2c-234966d5cf18","ios":"levelo://app?vid=44ff8850-ae68-4cf9-ac2c-234966d5cf18"},"vehicle_type_id":"4","last_reported":1769281757,"current_range_meters":2800,"station_id":"ce4bgk12rcd13ifvqbj0","pricing_plan_id":"cebpf4jnsgd1na2vs0mg"},{"bike_id":"8765f5ca-3ede-4ade-8d10-982a2f369fc3","system_id":"levelo_inurba_marseille","lat":43.31672,"lon":5.40681,"is_reserved":false,"is_disabled":false,"rental_uris":{"android":"levelo://app?vid=8765f5ca-3ede-4ade-8d10-982a2f369fc3","ios":"levelo://app?vid=8765f5ca-3ede-4ade-8d10-982a2f369fc3"},"vehicle_type_id":"4","last_reported":1769281757,"current_range_meters":2800,"station_id":"","pricing_plan_id":"cebpf4jnsgd1na2vs0mg"},{"bike_id":"8c62329e-71c2-4f7a-81bf-708e91fc92be","system_id":"levelo_inurba_marseille","lat":43.24903,"lon":5.38979,"is_reserved":false,"is_disabled":false,"rental_uris":{"android":"levelo://app?vid=8c62329e-71c2-4f7a-81bf-708e91fc92be","ios":"levelo://app?vid=8c62329e-71c2-4f7a-81bf-708e91fc92be"},"vehicle_type_id":"4","last_reported":1769281757,"current_range_meters":2800,"station_id":"","pricing_plan_id":"cebpf4jnsgd1na2vs0mg"},{"bike_id":"718d5db1-dc44-4b74-8e82-1e977ee8f15e","system_id":"levelo_inurba_marseille","lat":43.25107,"lon":5.40443,"is_reserved":false,"is_disabled":false,"rental_uris":{"android":"levelo://app?vid=718d5db1-dc44-4b74-8e82-1e977ee8f15e","ios":"levelo://app?vid=718d5db1-dc44-4b74-8e82-1e977ee8f15e"},"vehicle_type_id":"4","last_reported":1769281757,"current_range_meters":3200,"station_id":"","pricing_plan_id":"cebpf4jnsgd1na2vs0mg"},{"bike_id":"d2dd2bd5-35c6-4cf8-86dc-87c4bf274249","system_id":"levelo_inurba_marseille","lat":43.24655,"lon":5.38862,"is_reserved":false,"is_disabled":false,"rental_uris":{"android":"levelo://app?vid=d2dd2bd5-35c6-4cf8-86dc-87c4bf274249","ios":"levelo://app?vid=d2dd2bd5-35c6-4cf8-86dc-87c4bf274249"},"vehicle_type_id":"4","last_reported":1769281757,"current_range_meters":3200,"station_id":"ce4bhg12rcd13ifvqf60","pricing_plan_id":"cebpf4jnsgd1na2vs0mg"},{"bike_id":"d1248e4b-c241-4185-9668-62cef44fb4ea","system_id":"levelo_inurba_marseille","lat":43.32398,"lon":5.3668,"is_reserved":false,"is_disabled":false,"rental_uris":{"android":"levelo://app?vid=d1248e4b-c241-4185-9668-62cef44fb4ea","ios":"levelo://app?vid=d1248e4b-c241-4185-9668-62cef44fb4ea"},"vehicle_type_id":"4","last_reported":1769281757,"current_range_meters":3200,"station_id":"","pricing_plan_id":"cebpf4jnsgd1na2vs0mg"},{"bike_id":"5560fc7f-1e40-4887-b56f-d8792953a489","system_id":"levelo_inurba_marseille","lat":43.24167,"lon":5.36392,"is_reserved":false,"is_disabled":false,"rental_uris":{"android":"levelo://app?vid=5560fc7f-1e40-4887-b56f-d8792953a489","ios":"levelo://app?vid=5560fc7f-1e40-4887-b56f-d8792953a489"},"vehicle_type_id":"4","last_reported":1769281757,"current_range_meters":3200,"station_id":"cpo36qri1sfpv3e86is0","pricing_plan_id":"cebpf4jnsgd1na2vs0mg"},{"bike_id":"d3746757-64c0-4deb-8ffa-a59c72b048ff","system_id":"levelo_inurba_marseille","lat":43.29669,"lon":5.37291,"is_reserved":false,"is_disabled":false,"rental_uris":{"android":"levelo://app?vid=d3746757-64c0-4deb-8ffa-a59c72b048ff","ios":"levelo://app?vid=d3746757-64c0-4deb-8ffa-a59c72b048ff"},"vehicle_type_id":"4","last_reported":1769281757,"current_range_meters":3200,"station_id":"ce4bgk12rcd13ifvqbj0","pricing_plan_id":"cebpf4jnsgd1na2vs0mg"},{"bike_id":"2125c7aa-ada1-4380-ad7b-ed24b6dc3897","system_id":"levelo_inurba_marseille","lat":43.28418,"lon":5.37515,"is_reserved":false,"is_disabled":false,"rental_uris":{"android":"levelo://app?vid=2125c7aa-ada1-4380-ad7b-ed24b6dc3897","ios":"levelo://app?vid=2125c7aa-ada1-4380-ad7b-ed24b6dc3897"},"vehicle_type_id":"4","last_reported":1769281757,"current_range_meters":3200,"station_id":"ce4bh412rcd13ifvqds0","pricing_plan_id":"cebpf4jnsgd1na2vs0mg"},{"bike_id":"a406e8a4-835e-4d37-afdc-cc2038bc8238","system_id":"levelo_inurba_marseille","lat":43.30159,"lon":5.38078,"is_reserved":false,"is_disabled":false,"rental_uris":{"android":"levelo://app?vid=a406e8a4-835e-4d37-afdc-cc2038bc8238","ios":"levelo://app?vid=a406e8a4-835e-4d37-afdc-cc2038bc8238"},"vehicle_type_id":"4","last_reported":1769281757,"current_range_meters":3600,"station_id":"ce4bgjp2rcd13ifvqbh0","pricing_plan_id":"cebpf4jnsgd1na2vs0mg"},{"bike_id":"5a2669d1-252f-43bd-8e23-f0790f03fb51","system_id":"levelo_inurba_marseille","lat":43.28928,"lon":5.38399,"is_reserved":false,"is_disabled":false,"rental_uris":{"android":"levelo://app?vid=5a2669d1-252f-43bd-8e23-f0790f03fb51","ios":"levelo://app?vid=5a2669d1-252f-43bd-8e23-f0790f03fb51"},"vehicle_type_id":"4","last_reported":1769281757,"current_range_meters":3600,"station_id":"ce4bh612rcd13ifvqe6g","pricing_plan_id":"cebpf4jnsgd1na2vs0mg"},{"bike_id":"15ce2f7b-e27b-4b73-b1d7-521910c86f00","system_id":"levelo_inurba_marseille","lat":43.2848,"lon":5.48385,"is_reserved":false,"is_disabled":false,"rental_uris":{"android":"levelo://app?vid=15ce2f7b-e27b-4b73-b1d7-521910c86f00","ios":"levelo://app?vid=15ce2f7b-e27b-4b73-b1d7-521910c86f00"},"vehicle_type_id":"4","last_reported":1769281757,"current_range_meters":3600,"station_id":"","pricing_plan_id":"cebpf4jnsgd1na2vs0mg"},{"bike_id":"f9a9942f-2b8c-4b2e-91ad-50a9e46645a4","system_id":"levelo_inurba_marseille","lat":43.30934,"lon":5.37803,"is_reserved":false,"is_disabled":false,"rental_uris":{"android":"levelo://app?vid=f9a9942f-2b8c-4b2e-91ad-50a9e46645a4","ios":"levelo://app?vid=f9a9942f-2b8c-4b2e-91ad-50a9e46645a4"},"vehicle_type_id":"4","last_reported":1769281757,"current_range_meters":3600,"station_id":"","pricing_plan_id":"cebpf4jnsgd1na2vs0mg"},{"bike_id":"3c027bfc-a8fd-4a6a-b180-6ea155442f6e","system_id":"levelo_inurba_marseille","lat":43.298035,"lon":5.380932,"is_reserved":false,"is_disabled":false,"rental_uris":{"android":"levelo://app?vid=3c027bfc-a8fd-4a6a-b180-6ea155442f6e","ios":"levelo://app?vid=3c027bfc-a8fd-4a6a-b180-6ea155442f6e"},"vehicle_type_id":"4","last_reported":1769281757,"current_range_meters":3600,"station_id":"ce4bgip2rcd13ifvqbb0","pricing_plan_id":"cebpf4jnsgd1na2vs0mg"},{"bike_id":"ce91f19c-6b5f-4475-ac98-6aba43530cf5","system_id":"levelo_inurba_marseille","lat":43.24988,"lon":5.3896,"is_reserved":false,"is_disabled":false,"rental_uris":{"android":"levelo://app?vid=ce91f19c-6b5f-4475-ac98-6aba43530cf5","ios":"levelo://app?vid=ce91f19c-6b5f-4475-ac98-6aba43530cf5"},"vehicle_type_id":"4","last_reported":1769281757,"current_range_meters":4000,"station_id":"ce4bhgp2rcd13ifvqfd0","pricing_plan_id":"cebpf4jnsgd1na2vs0mg"},{"bike_id":"651915f3-ebc5-4ef3-a2ae-2742ff4a9c5f","system_id":"levelo_inurba_marseille","lat":43.28148,"lon":5.42647,"is_reserved":false,"is_disabled":false,"rental_uris":{"android":"levelo://app?vid=651915f3-ebc5-4ef3-a2ae-2742ff4a9c5f","ios":"levelo://app?vid=651915f3-ebc5-4ef3-a2ae-2742ff4a9c5f"},"vehicle_type_id":"4","last_reported":1769281757,"current_range_meters":4000,"station_id":"","pricing_plan_id":"cebpf4jnsgd1na2vs0mg"},{"bike_id":"42e07818-1b39-4532-9657-17361bba031a","system_id":"levelo_inurba_marseille","lat":43.30868,"lon":5.37736,"is_reserved":false,"is_disabled":true,"rental_uris":{"android":"levelo://app?vid=42e07818-1b39-4532-9657-17361bba031a","ios":"levelo://app?vid=42e07818-1b39-4532-9657-17361bba031a"},"vehicle_type_id":"4","last_reported":1769281757,"current_range_meters":4000,"station_id":"ce4bgv92rcd13ifvqcq0","pricing_plan_id":"cebpf4jnsgd1na2vs0mg"},{"bike_id":"17ed46bf-b051-47fc-a887-339e35ccca50","system_id":"levelo_inurba_marseille","lat":43.29041,"lon":5.37565,"is_reserved":false,"is_disabled":false,"rental_uris":{"android":"levelo://app?vid=17ed46bf-b051-47fc-a887-339e35ccca50","ios":"levelo://app?vid=17ed46bf-b051-47fc-a887-339e35ccca50"},"vehicle_type_id":"4","last_reported":1769281757,"current_range_meters":4000,"station_id":"ce4bh692rcd13ifvqe90","pricing_plan_id":"cebpf4jnsgd1na2vs0mg"},{"bike_id":"423bf7b2-6764-427f-a8b0-87b91bdf1b02","system_id":"levelo_inurba_marseille","lat":43.28003,"lon":5.41655,"is_reserved":false,"is_disabled":false,"rental_uris":{"android":"levelo://app?vid=423bf7b2-6764-427f-a8b0-87b91bdf1b02","ios":"levelo://app?vid=423bf7b2-6764-427f-a8b0-87b91bdf1b02"},"vehicle_type_id":"4","last_reported":1769281757,"current_range_meters":4000,"station_id":"ce4bho12rcd13ifvqh1g","pricing_plan_id":"cebpf4jnsgd1na2vs0mg"},{"bike_id":"3f2251c2-5185-4cac-808a-d69526c32cf1","system_id":"levelo_inurba_marseille","lat":43.24946,"lon":5.40482,"is_reserved":false,"is_disabled":false,"rental_uris":{"android":"levelo://app?vid=3f2251c2-5185-4cac-808a-d69526c32cf1","ios":"levelo://app?vid=3f2251c2-5185-4cac-808a-d69526c32cf1"},"vehicle_type_id":"4","last_reported":1769281757,"current_range_meters":4000,"station_id":"st_d2ngiaodas8pm72gd1h0","pricing_plan_id":"cebpf4jnsgd1na2vs0mg"},{"bike_id":"17a88ffa-bff1-4fe3-9faa-89fa827e7200","system_id":"levelo_inurba_marseille","lat":43.26547,"lon":5.37345,"is_reserved":false,"is_disabled":false,"rental_uris":{"android":"levelo://app?vid=17a88ffa-bff1-4fe3-9faa-89fa827e7200","ios":"levelo://app?vid=17a88ffa-bff1-4fe3-9faa-89fa827e7200"},"vehicle_type_id":"4","last_reported":1769281757,"current_range_meters":4000,"station_id":"ce4bhg12rcd13ifvqf70","pricing_plan_id":"cebpf4jnsgd1na2vs0mg"},{"bike_id":"f009de2d-c117-45d7-ab57-5f743849e466","system_id":"levelo_inurba_marseille","lat":43.29706,"lon":5.36605,"is_reserved":false,"is_disabled":false,"rental_uris":{"android":"levelo://app?vid=f009de2d-c117-45d7-ab57-5f743849e466","ios":"levelo://app?vid=f009de2d-c117-45d7-ab57-5f743849e466"},"vehicle_type_id":"4","last_reported":1769281757,"current_range_meters":4000,"station_id":"ce4bgn12rcd13ifvqbt0","pricing_plan_id":"cebpf4jnsgd1na2vs0mg"},{"bike_id":"8249b795-1399-4a9c-bbc0-1737c461790c","system_id":"levelo_inurba_marseille","lat":43.24545,"lon":5.39517,"is_reserved":false,"is_disabled":false,"rental_uris":{"android":"levelo://app?vid=8249b795-1399-4a9c-bbc0-1737c461790c","ios":"levelo://app?vid=8249b795-1399-4a9c-bbc0-1737c461790c"},"vehicle_type_id":"4","last_reported":1769281757,"current_range_meters":4000,"station_id":"ce4bhlp2rcd13ifvqgjg","pricing_plan_id":"cebpf4jnsgd1na2vs0mg"},{"bike_id":"42258f14-4722-4aac-b949-245a1ef55bb3","system_id":"levelo_inurba_marseille","lat":43.22933,"lon":5.35377,"is_reserved":false,"is_disabled":false,"rental_uris":{"android":"levelo://app?vid=42258f14-4722-4aac-b949-245a1ef55bb3","ios":"levelo://app?vid=42258f14-4722-4aac-b949-245a1ef55bb3"},"vehicle_type_id":"4","last_reported":1769281757,"current_range_meters":4000,"station_id":"cpo3532slgdg3j2ikp40","pricing_plan_id":"cebpf4jnsgd1na2vs0mg"},{"bike_id":"bd0f9bc0-6156-4400-927b-952d068ec1fa","system_id":"levelo_inurba_marseille","lat":43.29815,"lon":5.38079,"is_reserved":false,"is_disabled":false,"rental_uris":{"android":"levelo://app?vid=bd0f9bc0-6156-4400-927b-952d068ec1fa","ios":"levelo://app?vid=bd0f9bc0-6156-4400-927b-952d068ec1fa"},"vehicle_type_id":"4","last_reported":1769281757,"current_range_meters":4000,"station_id":"ce4bgip2rcd13ifvqbb0","pricing_plan_id":"cebpf4jnsgd1na2vs0mg"},{"bike_id":"5570a214-1c35-4c10-8fe5-2c8ffe7a66de","system_id":"levelo_inurba_marseille","lat":43.26501,"lon":5.395419,"is_reserved":false,"is_disabled":false,"rental_uris":{"android":"levelo://app?vid=5570a214-1c35-4c10-8fe5-2c8ffe7a66de","ios":"levelo://app?vid=5570a214-1c35-4c10-8fe5-2c8ffe7a66de"},"vehicle_type_id":"4","last_reported":1769281757,"current_range_meters":4000,"station_id":"ce4bhi12rcd13ifvqfq0","pricing_plan_id":"cebpf4jnsgd1na2vs0mg"},{"bike_id":"f9f6d96b-5aa8-45c5-b53c-8310d2ddc276","system_id":"levelo_inurba_marseille","lat":43.28474,"lon":5.38417,"is_reserved":false,"is_disabled":false,"rental_uris":{"android":"levelo://app?vid=f9f6d96b-5aa8-45c5-b53c-8310d2ddc276","ios":"levelo://app?vid=f9f6d96b-5aa8-45c5-b53c-8310d2ddc276"},"vehicle_type_id":"4","last_reported":1769281757,"current_range_meters":4000,"station_id":"ce4bh512rcd13ifvqe3g","pricing_plan_id":"cebpf4jnsgd1na2vs0mg"},{"bike_id":"bfbadc7d-f2c8-461c-bd13-8cfb8a815c13","system_id":"levelo_inurba_marseille","lat":43.26943,"lon":5.40248,"is_reserved":false,"is_disabled":false,"rental_uris":{"android":"levelo://app?vid=bfbadc7d-f2c8-461c-bd13-8cfb8a815c13","ios":"levelo://app?vid=bfbadc7d-f2c8-461c-bd13-8cfb8a815c13"},"vehicle_type_id":"4","last_reported":1769281757,"current_range_meters":4000,"station_id":"cjm6bp8fraef2m0cb0m0","pricing_plan_id":"cebpf4jnsgd1na2vs0mg"},{"bike_id":"c4e11b85-5859-4704-af11-06b0d5324bac","system_id":"levelo_inurba_marseille","lat":43.304858,"lon":5.402102,"is_reserved":false,"is_disabled":false,"rental_uris":{"android":"levelo://app?vid=c4e11b85-5859-4704-af11-06b0d5324bac","ios":"levelo://app?vid=c4e11b85-5859-4704-af11-06b0d5324bac"},"vehicle_type_id":"4","last_reported":1769281757,"current_range_meters":4000,"station_id":"","pricing_plan_id":"cebpf4jnsgd1na2vs0mg"},{"bike_id":"76e4e959-c8b5-417c-9d59-dd54818015b8","system_id":"levelo_inurba_marseille","lat":43.29798,"lon":5.38073,"is_reserved":false,"is_disabled":false,"rental_uris":{"android":"levelo://app?vid=76e4e959-c8b5-417c-9d59-dd54818015b8","ios":"levelo://app?vid=76e4e959-c8b5-417c-9d59-dd54818015b8"},"vehicle_type_id":"4","last_reported":1769281757,"current_range_meters":4000,"station_id":"ce4bgip2rcd13ifvqbb0","pricing_plan_id":"cebpf4jnsgd1na2vs0mg"},{"bike_id":"82d506ee-5e24-4752-b487-081284455b28","system_id":"levelo_inurba_marseille","lat":43.29978,"lon":5.38495,"is_reserved":false,"is_disabled":false,"rental_uris":{"android":"levelo://app?vid=82d506ee-5e24-4752-b487-081284455b28","ios":"levelo://app?vid=82d506ee-5e24-4752-b487-081284455b28"},"vehicle_type_id":"4","last_reported":1769281757,"current_range_meters":4400,"station_id":"ce4bgj92rcd13ifvqbd0","pricing_plan_id":"cebpf4jnsgd1na2vs0mg"},{"bike_id":"212f6a4d-aa83-4ba9-b199-4df89b6aab44","system_id":"levelo_inurba_marseille","lat":43.29274,"lon":5.38444,"is_reserved":false,"is_disabled":false,"rental_uris":{"android":"levelo://app?vid=212f6a4d-aa83-4ba9-b199-4df89b6aab44","ios":"levelo://app?vid=212f6a4d-aa83-4ba9-b199-4df89b6aab44"},"vehicle_type_id":"4","last_reported":1769281757,"current_range_meters":4400,"station_id":"ce4bh692rcd13ifvqea0","pricing_plan_id":"cebpf4jnsgd1na2vs0mg"},{"bike_id":"7c7cc252-7f4f-4ac1-8175-44f20e46ac77","system_id":"levelo_inurba_marseille","lat":43.2673,"lon":5.40192,"is_reserved":false,"is_disabled":false,"rental_uris":{"android":"levelo://app?vid=7c7cc252-7f4f-4ac1-8175-44f20e46ac77","ios":"levelo://app?vid=7c7cc252-7f4f-4ac1-8175-44f20e46ac77"},"vehicle_type_id":"4","last_reported":1769281757,"current_range_meters":4400,"station_id":"","pricing_plan_id":"cebpf4jnsgd1na2vs0mg"},{"bike_id":"04277308-a34e-4e95-b328-d631095696cf","system_id":"levelo_inurba_marseille","lat":43.240802,"lon":5.377491,"is_reserved":false,"is_disabled":false,"rental_uris":{"android":"levelo://app?vid=04277308-a34e-4e95-b328-d631095696cf","ios":"levelo://app?vid=04277308-a34e-4e95-b328-d631095696cf"},"vehicle_type_id":"4","last_reported":1769281757,"current_range_meters":4400,"station_id":"ce4bhnp2rcd13ifvqgvg","pricing_plan_id":"cebpf4jnsgd1na2vs0mg"},{"bike_id":"325d6000-e7a8-417c-aa29-6d5b58f2d9fb","system_id":"levelo_inurba_marseille","lat":43.29607,"lon":5.37183,"is_reserved":false,"is_disabled":false,"rental_uris":{"android":"levelo://app?vid=325d6000-e7a8-417c-aa29-6d5b58f2d9fb","ios":"levelo://app?vid=325d6000-e7a8-417c-aa29-6d5b58f2d9fb"},"vehicle_type_id":"4","last_reported":1769281757,"current_range_meters":4400,"station_id":"ce4bgnh2rcd13ifvqc0g","pricing_plan_id":"cebpf4jnsgd1na2vs0mg"},{"bike_id":"2b16ff9b-1532-4a37-9b9d-95bb7d5a2516","system_id":"levelo_inurba_marseille","lat":43.28152,"lon":5.4261,"is_reserved":false,"is_disabled":true,"rental_uris":{"android":"levelo://app?vid=2b16ff9b-1532-4a37-9b9d-95bb7d5a2516","ios":"levelo://app?vid=2b16ff9b-1532-4a37-9b9d-95bb7d5a2516"},"vehicle_type_id":"4","last_reported":1769281757,"current_range_meters":4400,"station_id":"ce4bhnh2rcd13ifvqgug","pricing_plan_id":"cebpf4jnsgd1na2vs0mg"},{"bike_id":"9fbd82ae-6a1c-4713-b016-e7c642e50725","system_id":"levelo_inurba_marseille","lat":43.3013,"lon":5.38774,"is_reserved":false,"is_disabled":false,"rental_uris":{"android":"levelo://app?vid=9fbd82ae-6a1c-4713-b016-e7c642e50725","ios":"levelo://app?vid=9fbd82ae-6a1c-4713-b016-e7c642e50725"},"vehicle_type_id":"4","last_reported":1769281757,"current_range_meters":4400,"station_id":"ce4bghh2rcd13ifvqb60","pricing_plan_id":"cebpf4jnsgd1na2vs0mg"},{"bike_id":"824c621c-a202-476e-adb4-d2ef81fa6574","system_id":"levelo_inurba_marseille","lat":43.24462,"lon":5.42541,"is_reserved":false,"is_disabled":false,"rental_uris":{"android":"levelo://app?vid=824c621c-a202-476e-adb4-d2ef81fa6574","ios":"levelo://app?vid=824c621c-a202-476e-adb4-d2ef81fa6574"},"vehicle_type_id":"4","last_reported":1769281757,"current_range_meters":4400,"station_id":"st_d4a3vfp97mjs738cd8kg","pricing_plan_id":"cebpf4jnsgd1na2vs0mg"},{"bike_id":"e9b9f3ff-8a24-44cd-b430-0167d4979aba","system_id":"levelo_inurba_marseille","lat":43.27322,"lon":5.39116,"is_reserved":false,"is_disabled":false,"rental_uris":{"android":"levelo://app?vid=e9b9f3ff-8a24-44cd-b430-0167d4979aba","ios":"levelo://app?vid=e9b9f3ff-8a24-44cd-b430-0167d4979aba"},"vehicle_type_id":"4","last_reported":1769281757,"current_range_meters":4800,"station_id":"ce4bhgp2rcd13ifvqfe0","pricing_plan_id":"cebpf4jnsgd1na2vs0mg"},{"bike_id":"10c585ec-0d69-49bc-a403-a71e7446105a","system_id":"levelo_inurba_marseille","lat":43.24934,"lon":5.39701,"is_reserved":false,"is_disabled":false,"rental_uris":{"android":"levelo://app?vid=10c585ec-0d69-49bc-a403-a71e7446105a","ios":"levelo://app?vid=10c585ec-0d69-49bc-a403-a71e7446105a"},"vehicle_type_id":"4","last_reported":1769281757,"current_range_meters":4800,"station_id":"","pricing_plan_id":"cebpf4jnsgd1na2vs0mg"},{"bike_id":"4ee7ca7a-aa63-47bc-ba41-17ba346981a2","system_id":"levelo_inurba_marseille","lat":43.3052,"lon":5.36697,"is_reserved":false,"is_disabled":false,"rental_uris":{"android":"levelo://app?vid=4ee7ca7a-aa63-47bc-ba41-17ba346981a2","ios":"levelo://app?vid=4ee7ca7a-aa63-47bc-ba41-17ba346981a2"},"vehicle_type_id":"4","last_reported":1769281757,"current_range_meters":4800,"station_id":"ce4bgrp2rcd13ifvqc9g","pricing_plan_id":"cebpf4jnsgd1na2vs0mg"},{"bike_id":"8f72bfe4-ee21-4ee8-b70c-bdb39befee0d","system_id":"levelo_inurba_marseille","lat":43.25334,"lon":5.42174,"is_reserved":false,"is_disabled":false,"rental_uris":{"android":"levelo://app?vid=8f72bfe4-ee21-4ee8-b70c-bdb39befee0d","ios":"levelo://app?vid=8f72bfe4-ee21-4ee8-b70c-bdb39befee0d"},"vehicle_type_id":"4","last_reported":1769281757,"current_range_meters":4800,"station_id":"st_d2m65c5bi1j21697t3ng","pricing_plan_id":"cebpf4jnsgd1na2vs0mg"},{"bike_id":"1ee07084-a0a9-43af-bdb4-955f248e5678","system_id":"levelo_inurba_marseille","lat":43.28388,"lon":5.387533,"is_reserved":false,"is_disabled":false,"rental_uris":{"android":"levelo://app?vid=1ee07084-a0a9-43af-bdb4-955f248e5678","ios":"levelo://app?vid=1ee07084-a0a9-43af-bdb4-955f248e5678"},"vehicle_type_id":"4","last_reported":1769281757,"current_range_meters":4800,"station_id":"","pricing_plan_id":"cebpf4jnsgd1na2vs0mg"},{"bike_id":"8d651ce5-2af6-4d67-a695-d29bc342bb83","system_id":"levelo_inurba_marseille","lat":43.22938,"lon":5.35392,"is_reserved":false,"is_disabled":false,"rental_uris":{"android":"levelo://app?vid=8d651ce5-2af6-4d67-a695-d29bc342bb83","ios":"levelo://app?vid=8d651ce5-2af6-4d67-a695-d29bc342bb83"},"vehicle_type_id":"4","last_reported":1769281757,"current_range_meters":4800,"station_id":"cpo3532slgdg3j2ikp40","pricing_plan_id":"cebpf4jnsgd1na2vs0mg"},{"bike_id":"baab0e10-ea32-40b1-8345-dd563e57b7cf","system_id":"levelo_inurba_marseille","lat":43.30875,"lon":5.39639,"is_reserved":false,"is_disabled":false,"rental_uris":{"android":"levelo://app?vid=baab0e10-ea32-40b1-8345-dd563e57b7cf","ios":"levelo://app?vid=baab0e10-ea32-40b1-8345-dd563e57b7cf"},"vehicle_type_id":"4","last_reported":1769281757,"current_range_meters":4800,"station_id":"ce4bh012rcd13ifvqcv0","pricing_plan_id":"cebpf4jnsgd1na2vs0mg"},{"bike_id":"d6bcc36c-0988-4104-853c-6ca0cbca9b29","system_id":"levelo_inurba_marseille","lat":43.28862,"lon":5.42519,"is_reserved":false,"is_disabled":false,"rental_uris":{"android":"levelo://app?vid=d6bcc36c-0988-4104-853c-6ca0cbca9b29","ios":"levelo://app?vid=d6bcc36c-0988-4104-853c-6ca0cbca9b29"},"vehicle_type_id":"4","last_reported":1769281757,"current_range_meters":4800,"station_id":"st_d3b462108ojc7389ooeg","pricing_plan_id":"cebpf4jnsgd1na2vs0mg"},{"bike_id":"2e2ce66a-3f89-4c21-a9df-34056a5a5860","system_id":"levelo_inurba_marseille","lat":43.225608,"lon":5.4163,"is_reserved":false,"is_disabled":false,"rental_uris":{"android":"levelo://app?vid=2e2ce66a-3f89-4c21-a9df-34056a5a5860","ios":"levelo://app?vid=2e2ce66a-3f89-4c21-a9df-34056a5a5860"},"vehicle_type_id":"4","last_reported":1769281757,"current_range_meters":4800,"station_id":"st_d2o4gvlbi1j2169b742g","pricing_plan_id":"cebpf4jnsgd1na2vs0mg"},{"bike_id":"e4c4f5dd-c80d-4d75-801c-35c973416425","system_id":"levelo_inurba_marseille","lat":43.26546,"lon":5.37283,"is_reserved":false,"is_disabled":false,"rental_uris":{"android":"levelo://app?vid=e4c4f5dd-c80d-4d75-801c-35c973416425","ios":"levelo://app?vid=e4c4f5dd-c80d-4d75-801c-35c973416425"},"vehicle_type_id":"4","last_reported":1769281757,"current_range_meters":5600,"station_id":"ce4bhg12rcd13ifvqf70","pricing_plan_id":"cebpf4jnsgd1na2vs0mg"},{"bike_id":"0dc9dc39-9a79-4974-b3ae-9c8631cf059e","system_id":"levelo_inurba_marseille","lat":43.239951,"lon":5.395844,"is_reserved":false,"is_disabled":false,"rental_uris":{"android":"levelo://app?vid=0dc9dc39-9a79-4974-b3ae-9c8631cf059e","ios":"levelo://app?vid=0dc9dc39-9a79-4974-b3ae-9c8631cf059e"},"vehicle_type_id":"4","last_reported":1769281757,"current_range_meters":5600,"station_id":"","pricing_plan_id":"cebpf4jnsgd1na2vs0mg"},{"bike_id":"71d3d1bf-2396-432f-a9d4-0f03fb0e9eff","system_id":"levelo_inurba_marseille","lat":43.26069,"lon":5.39395,"is_reserved":false,"is_disabled":false,"rental_uris":{"android":"levelo://app?vid=71d3d1bf-2396-432f-a9d4-0f03fb0e9eff","ios":"levelo://app?vid=71d3d1bf-2396-432f-a9d4-0f03fb0e9eff"},"vehicle_type_id":"4","last_reported":1769281757,"current_range_meters":5600,"station_id":"ce4bhh92rcd13ifvqfj0","pricing_plan_id":"cebpf4jnsgd1na2vs0mg"},{"bike_id":"f95f1b41-c459-4716-90e0-3945d441d261","system_id":"levelo_inurba_marseille","lat":43.29707,"lon":5.36611,"is_reserved":false,"is_disabled":false,"rental_uris":{"android":"levelo://app?vid=f95f1b41-c459-4716-90e0-3945d441d261","ios":"levelo://app?vid=f95f1b41-c459-4716-90e0-3945d441d261"},"vehicle_type_id":"4","last_reported":1769281757,"current_range_meters":5600,"station_id":"ce4bgn12rcd13ifvqbt0","pricing_plan_id":"cebpf4jnsgd1na2vs0mg"},{"bike_id":"43d8293a-9fd8-4a91-99e9-93bcd2e88730","system_id":"levelo_inurba_marseille","lat":43.22926,"lon":5.35374,"is_reserved":false,"is_disabled":false,"rental_uris":{"android":"levelo://app?vid=43d8293a-9fd8-4a91-99e9-93bcd2e88730","ios":"levelo://app?vid=43d8293a-9fd8-4a91-99e9-93bcd2e88730"},"vehicle_type_id":"4","last_reported":1769281757,"current_range_meters":5600,"station_id":"cpo3532slgdg3j2ikp40","pricing_plan_id":"cebpf4jnsgd1na2vs0mg"},{"bike_id":"e3bf064c-53bb-4e5e-a214-36779e2347bf","system_id":"levelo_inurba_marseille","lat":43.27996,"lon":5.41661,"is_reserved":false,"is_disabled":false,"rental_uris":{"android":"levelo://app?vid=e3bf064c-53bb-4e5e-a214-36779e2347bf","ios":"levelo://app?vid=e3bf064c-53bb-4e5e-a214-36779e2347bf"},"vehicle_type_id":"4","last_reported":1769281757,"current_range_meters":5600,"station_id":"ce4bho12rcd13ifvqh1g","pricing_plan_id":"cebpf4jnsgd1na2vs0mg"},{"bike_id":"c6d7d6a7-9942-4d20-b186-d739489af7b7","system_id":"levelo_inurba_marseille","lat":43.29566,"lon":5.37513,"is_reserved":false,"is_disabled":false,"rental_uris":{"android":"levelo://app?vid=c6d7d6a7-9942-4d20-b186-d739489af7b7","ios":"levelo://app?vid=c6d7d6a7-9942-4d20-b186-d739489af7b7"},"vehicle_type_id":"4","last_reported":1769281757,"current_range_meters":5600,"station_id":"ce4bgh92rcd13ifvqb50","pricing_plan_id":"cebpf4jnsgd1na2vs0mg"},{"bike_id":"88bfa311-94c0-4341-96c1-792f5ba36ea1","system_id":"levelo_inurba_marseille","lat":43.28101,"lon":5.37888,"is_reserved":false,"is_disabled":false,"rental_uris":{"android":"levelo://app?vid=88bfa311-94c0-4341-96c1-792f5ba36ea1","ios":"levelo://app?vid=88bfa311-94c0-4341-96c1-792f5ba36ea1"},"vehicle_type_id":"4","last_reported":1769281757,"current_range_meters":5600,"station_id":"ce4bha12rcd13ifvqee0","pricing_plan_id":"cebpf4jnsgd1na2vs0mg"},{"bike_id":"933bd7dc-b27d-40db-936f-112f66d04e37","system_id":"levelo_inurba_marseille","lat":43.27624,"lon":5.36109,"is_reserved":false,"is_disabled":false,"rental_uris":{"android":"levelo://app?vid=933bd7dc-b27d-40db-936f-112f66d04e37","ios":"levelo://app?vid=933bd7dc-b27d-40db-936f-112f66d04e37"},"vehicle_type_id":"4","last_reported":1769281757,"current_range_meters":5600,"station_id":"ce4bgj92rcd13ifvqbe0","pricing_plan_id":"cebpf4jnsgd1na2vs0mg"},{"bike_id":"16525725-a4c4-4bd9-9925-eb9b950936aa","system_id":"levelo_inurba_marseille","lat":43.26923,"lon":5.39066,"is_reserved":false,"is_disabled":false,"rental_uris":{"android":"levelo://app?vid=16525725-a4c4-4bd9-9925-eb9b950936aa","ios":"levelo://app?vid=16525725-a4c4-4bd9-9925-eb9b950936aa"},"vehicle_type_id":"4","last_reported":1769281757,"current_range_meters":5600,"station_id":"","pricing_plan_id":"cebpf4jnsgd1na2vs0mg"},{"bike_id":"cd20aabf-eb14-4218-becc-2a9e72188afe","system_id":"levelo_inurba_marseille","lat":43.296,"lon":5.37738,"is_reserved":false,"is_disabled":false,"rental_uris":{"android":"levelo://app?vid=cd20aabf-eb14-4218-becc-2a9e72188afe","ios":"levelo://app?vid=cd20aabf-eb14-4218-becc-2a9e72188afe"},"vehicle_type_id":"4","last_reported":1769281757,"current_range_meters":5600,"station_id":"ce4bgi92rcd13ifvqb90","pricing_plan_id":"cebpf4jnsgd1na2vs0mg"},{"bike_id":"f9b330f3-188f-4241-b131-04d52afbc95a","system_id":"levelo_inurba_marseille","lat":43.31705,"lon":5.43699,"is_reserved":false,"is_disabled":false,"rental_uris":{"android":"levelo://app?vid=f9b330f3-188f-4241-b131-04d52afbc95a","ios":"levelo://app?vid=f9b330f3-188f-4241-b131-04d52afbc95a"},"vehicle_type_id":"4","last_reported":1769281757,"current_range_meters":5600,"station_id":"ce4bhp92rcd13ifvqhcg","pricing_plan_id":"cebpf4jnsgd1na2vs0mg"},{"bike_id":"0067e0af-5ba0-4b0d-a268-ed0ed9e19547","system_id":"levelo_inurba_marseille","lat":43.32348,"lon":5.36739,"is_reserved":false,"is_disabled":false,"rental_uris":{"android":"levelo://app?vid=0067e0af-5ba0-4b0d-a268-ed0ed9e19547","ios":"levelo://app?vid=0067e0af-5ba0-4b0d-a268-ed0ed9e19547"},"vehicle_type_id":"4","last_reported":1769281757,"current_range_meters":6000,"station_id":"ce4bhsh2rcd13ifvqi2g","pricing_plan_id":"cebpf4jnsgd1na2vs0mg"},{"bike_id":"5c64382d-fadf-4638-ac74-c249af7a75c5","system_id":"levelo_inurba_marseille","lat":43.30414,"lon":5.39738,"is_reserved":false,"is_disabled":false,"rental_uris":{"android":"levelo://app?vid=5c64382d-fadf-4638-ac74-c249af7a75c5","ios":"levelo://app?vid=5c64382d-fadf-4638-ac74-c249af7a75c5"},"vehicle_type_id":"4","last_reported":1769281757,"current_range_meters":6000,"station_id":"ce4bh092rcd13ifvqd20","pricing_plan_id":"cebpf4jnsgd1na2vs0mg"},{"bike_id":"3dc327f4-e8d5-43a3-b4e6-944c33e6eea4","system_id":"levelo_inurba_marseille","lat":43.25577,"lon":5.38232,"is_reserved":false,"is_disabled":false,"rental_uris":{"android":"levelo://app?vid=3dc327f4-e8d5-43a3-b4e6-944c33e6eea4","ios":"levelo://app?vid=3dc327f4-e8d5-43a3-b4e6-944c33e6eea4"},"vehicle_type_id":"4","last_reported":1769281757,"current_range_meters":6000,"station_id":"ce4bhih2rcd13ifvqfs0","pricing_plan_id":"cebpf4jnsgd1na2vs0mg"},{"bike_id":"532e07ca-6ffb-4fb1-85b2-a4e5dabd1b17","system_id":"levelo_inurba_marseille","lat":43.24086,"lon":5.37729,"is_reserved":false,"is_disabled":true,"rental_uris":{"android":"levelo://app?vid=532e07ca-6ffb-4fb1-85b2-a4e5dabd1b17","ios":"levelo://app?vid=532e07ca-6ffb-4fb1-85b2-a4e5dabd1b17"},"vehicle_type_id":"4","last_reported":1769281757,"current_range_meters":6000,"station_id":"ce4bhnp2rcd13ifvqgvg","pricing_plan_id":"cebpf4jnsgd1na2vs0mg"},{"bike_id":"478d0946-d2b1-482f-ac5e-d37a7c92584b","system_id":"levelo_inurba_marseille","lat":43.22535,"lon":5.34818,"is_reserved":false,"is_disabled":false,"rental_uris":{"android":"levelo://app?vid=478d0946-d2b1-482f-ac5e-d37a7c92584b","ios":"levelo://app?vid=478d0946-d2b1-482f-ac5e-d37a7c92584b"},"vehicle_type_id":"4","last_reported":1769281757,"current_range_meters":6000,"station_id":"st_cvj5dfep6f1abm77gieg","pricing_plan_id":"cebpf4jnsgd1na2vs0mg"},{"bike_id":"d73b984a-15de-4015-ac28-29e3b1459003","system_id":"levelo_inurba_marseille","lat":43.30154,"lon":5.38079,"is_reserved":false,"is_disabled":false,"rental_uris":{"android":"levelo://app?vid=d73b984a-15de-4015-ac28-29e3b1459003","ios":"levelo://app?vid=d73b984a-15de-4015-ac28-29e3b1459003"},"vehicle_type_id":"4","last_reported":1769281757,"current_range_meters":6000,"station_id":"ce4bgjp2rcd13ifvqbh0","pricing_plan_id":"cebpf4jnsgd1na2vs0mg"},{"bike_id":"514778f3-cb3c-44e7-bfaa-f93fb491b5fc","system_id":"levelo_inurba_marseille","lat":43.25029,"lon":5.38905,"is_reserved":false,"is_disabled":false,"rental_uris":{"android":"levelo://app?vid=514778f3-cb3c-44e7-bfaa-f93fb491b5fc","ios":"levelo://app?vid=514778f3-cb3c-44e7-bfaa-f93fb491b5fc"},"vehicle_type_id":"4","last_reported":1769281757,"current_range_meters":6000,"station_id":"ce4bhgp2rcd13ifvqfd0","pricing_plan_id":"cebpf4jnsgd1na2vs0mg"},{"bike_id":"434b641b-efdf-4119-a3f0-ef96eacb4d52","system_id":"levelo_inurba_marseille","lat":43.29406,"lon":5.389,"is_reserved":false,"is_disabled":false,"rental_uris":{"android":"levelo://app?vid=434b641b-efdf-4119-a3f0-ef96eacb4d52","ios":"levelo://app?vid=434b641b-efdf-4119-a3f0-ef96eacb4d52"},"vehicle_type_id":"4","last_reported":1769281757,"current_range_meters":6000,"station_id":"","pricing_plan_id":"cebpf4jnsgd1na2vs0mg"},{"bike_id":"f99e7b0f-da5f-44c8-adee-b01f6db59ca6","system_id":"levelo_inurba_marseille","lat":43.29893,"lon":5.3814,"is_reserved":false,"is_disabled":false,"rental_uris":{"android":"levelo://app?vid=f99e7b0f-da5f-44c8-adee-b01f6db59ca6","ios":"levelo://app?vid=f99e7b0f-da5f-44c8-adee-b01f6db59ca6"},"vehicle_type_id":"4","last_reported":1769281757,"current_range_meters":6000,"station_id":"ce4bgj12rcd13ifvqbc0","pricing_plan_id":"cebpf4jnsgd1na2vs0mg"},{"bike_id":"8e10ca4a-d962-4318-8f21-9c292cae2aca","system_id":"levelo_inurba_marseille","lat":43.241669,"lon":5.363957,"is_reserved":false,"is_disabled":false,"rental_uris":{"android":"levelo://app?vid=8e10ca4a-d962-4318-8f21-9c292cae2aca","ios":"levelo://app?vid=8e10ca4a-d962-4318-8f21-9c292cae2aca"},"vehicle_type_id":"4","last_reported":1769281757,"current_range_meters":6000,"station_id":"cpo36qri1sfpv3e86is0","pricing_plan_id":"cebpf4jnsgd1na2vs0mg"},{"bike_id":"7a1b6b69-5f61-4e11-91d3-12cf02858ca8","system_id":"levelo_inurba_marseille","lat":43.244,"lon":5.37077,"is_reserved":false,"is_disabled":false,"rental_uris":{"android":"levelo://app?vid=7a1b6b69-5f61-4e11-91d3-12cf02858ca8","ios":"levelo://app?vid=7a1b6b69-5f61-4e11-91d3-12cf02858ca8"},"vehicle_type_id":"4","last_reported":1769281757,"current_range_meters":6400,"station_id":"ce4bhhh2rcd13ifvqfk0","pricing_plan_id":"cebpf4jnsgd1na2vs0mg"},{"bike_id":"f50ab09b-5d0e-47a7-a8be-db0e252af394","system_id":"levelo_inurba_marseille","lat":43.22558,"lon":5.41631,"is_reserved":false,"is_disabled":false,"rental_uris":{"android":"levelo://app?vid=f50ab09b-5d0e-47a7-a8be-db0e252af394","ios":"levelo://app?vid=f50ab09b-5d0e-47a7-a8be-db0e252af394"},"vehicle_type_id":"4","last_reported":1769281757,"current_range_meters":6400,"station_id":"st_d2o4gvlbi1j2169b742g","pricing_plan_id":"cebpf4jnsgd1na2vs0mg"},{"bike_id":"b019e1a9-e9bb-4a00-b8fa-7bb78b5700ac","system_id":"levelo_inurba_marseille","lat":43.3239,"lon":5.36732,"is_reserved":false,"is_disabled":false,"rental_uris":{"android":"levelo://app?vid=b019e1a9-e9bb-4a00-b8fa-7bb78b5700ac","ios":"levelo://app?vid=b019e1a9-e9bb-4a00-b8fa-7bb78b5700ac"},"vehicle_type_id":"4","last_reported":1769281757,"current_range_meters":6400,"station_id":"","pricing_plan_id":"cebpf4jnsgd1na2vs0mg"},{"bike_id":"19c9b524-76f1-4e5d-8be9-000b11a19079","system_id":"levelo_inurba_marseille","lat":43.25025,"lon":5.38909,"is_reserved":false,"is_disabled":false,"rental_uris":{"android":"levelo://app?vid=19c9b524-76f1-4e5d-8be9-000b11a19079","ios":"levelo://app?vid=19c9b524-76f1-4e5d-8be9-000b11a19079"},"vehicle_type_id":"4","last_reported":1769281757,"current_range_meters":6400,"station_id":"ce4bhgp2rcd13ifvqfd0","pricing_plan_id":"cebpf4jnsgd1na2vs0mg"},{"bike_id":"3f54973b-be71-4736-ae3e-5ec35607fc29","system_id":"levelo_inurba_marseille","lat":43.28917,"lon":5.384,"is_reserved":false,"is_disabled":false,"rental_uris":{"android":"levelo://app?vid=3f54973b-be71-4736-ae3e-5ec35607fc29","ios":"levelo://app?vid=3f54973b-be71-4736-ae3e-5ec35607fc29"},"vehicle_type_id":"4","last_reported":1769281757,"current_range_meters":6400,"station_id":"ce4bh612rcd13ifvqe6g","pricing_plan_id":"cebpf4jnsgd1na2vs0mg"},{"bike_id":"6252b5bc-7f21-4a5c-90b2-fb54de33b122","system_id":"levelo_inurba_marseille","lat":43.2439,"lon":5.37069,"is_reserved":false,"is_disabled":false,"rental_uris":{"android":"levelo://app?vid=6252b5bc-7f21-4a5c-90b2-fb54de33b122","ios":"levelo://app?vid=6252b5bc-7f21-4a5c-90b2-fb54de33b122"},"vehicle_type_id":"4","last_reported":1769281757,"current_range_meters":6400,"station_id":"ce4bhhh2rcd13ifvqfk0","pricing_plan_id":"cebpf4jnsgd1na2vs0mg"},{"bike_id":"589eebb0-c0cf-4d19-afe3-eff9c648d5c0","system_id":"levelo_inurba_marseille","lat":43.2623,"lon":5.40454,"is_reserved":false,"is_disabled":false,"rental_uris":{"android":"levelo://app?vid=589eebb0-c0cf-4d19-afe3-eff9c648d5c0","ios":"levelo://app?vid=589eebb0-c0cf-4d19-afe3-eff9c648d5c0"},"vehicle_type_id":"4","last_reported":1769281757,"current_range_meters":6400,"station_id":"ce4bhmh2rcd13ifvqgmg","pricing_plan_id":"cebpf4jnsgd1na2vs0mg"},{"bike_id":"86f63ab3-e846-4448-8035-b7a7a841c9c4","system_id":"levelo_inurba_marseille","lat":43.28704,"lon":5.3739,"is_reserved":false,"is_disabled":false,"rental_uris":{"android":"levelo://app?vid=86f63ab3-e846-4448-8035-b7a7a841c9c4","ios":"levelo://app?vid=86f63ab3-e846-4448-8035-b7a7a841c9c4"},"vehicle_type_id":"4","last_reported":1769281757,"current_range_meters":6400,"station_id":"ce4bh3p2rcd13ifvqdq0","pricing_plan_id":"cebpf4jnsgd1na2vs0mg"},{"bike_id":"e1d27491-b72b-4ef0-a0bb-689c46d99a28","system_id":"levelo_inurba_marseille","lat":43.284823,"lon":5.483867,"is_reserved":false,"is_disabled":false,"rental_uris":{"android":"levelo://app?vid=e1d27491-b72b-4ef0-a0bb-689c46d99a28","ios":"levelo://app?vid=e1d27491-b72b-4ef0-a0bb-689c46d99a28"},"vehicle_type_id":"4","last_reported":1769281757,"current_range_meters":6400,"station_id":"","pricing_plan_id":"cebpf4jnsgd1na2vs0mg"},{"bike_id":"424d688c-c8b8-4626-a702-361ed2d6a67f","system_id":"levelo_inurba_marseille","lat":43.29652,"lon":5.37654,"is_reserved":false,"is_disabled":false,"rental_uris":{"android":"levelo://app?vid=424d688c-c8b8-4626-a702-361ed2d6a67f","ios":"levelo://app?vid=424d688c-c8b8-4626-a702-361ed2d6a67f"},"vehicle_type_id":"4","last_reported":1769281757,"current_range_meters":6400,"station_id":"","pricing_plan_id":"cebpf4jnsgd1na2vs0mg"},{"bike_id":"d2d53e0f-af2d-4a18-8781-8f93386bbf13","system_id":"levelo_inurba_marseille","lat":43.29559,"lon":5.37528,"is_reserved":false,"is_disabled":false,"rental_uris":{"android":"levelo://app?vid=d2d53e0f-af2d-4a18-8781-8f93386bbf13","ios":"levelo://app?vid=d2d53e0f-af2d-4a18-8781-8f93386bbf13"},"vehicle_type_id":"4","last_reported":1769281757,"current_range_meters":6400,"station_id":"ce4bgh92rcd13ifvqb50","pricing_plan_id":"cebpf4jnsgd1na2vs0mg"},{"bike_id":"a8902eb9-1e79-43bf-8303-145a87f0ae15","system_id":"levelo_inurba_marseille","lat":43.21748,"lon":5.3459,"is_reserved":false,"is_disabled":false,"rental_uris":{"android":"levelo://app?vid=a8902eb9-1e79-43bf-8303-145a87f0ae15","ios":"levelo://app?vid=a8902eb9-1e79-43bf-8303-145a87f0ae15"},"vehicle_type_id":"4","last_reported":1769281757,"current_range_meters":6400,"station_id":"st_cvj6r9ubvosntc0bgbag","pricing_plan_id":"cebpf4jnsgd1na2vs0mg"},{"bike_id":"54247625-5421-4985-8cfb-4f29ba1ac252","system_id":"levelo_inurba_marseille","lat":43.31699,"lon":5.37628,"is_reserved":false,"is_disabled":false,"rental_uris":{"android":"levelo://app?vid=54247625-5421-4985-8cfb-4f29ba1ac252","ios":"levelo://app?vid=54247625-5421-4985-8cfb-4f29ba1ac252"},"vehicle_type_id":"4","last_reported":1769281757,"current_range_meters":6400,"station_id":"","pricing_plan_id":"cebpf4jnsgd1na2vs0mg"},{"bike_id":"5c44d9da-a9f7-4333-ab1c-8bd91f24f729","system_id":"levelo_inurba_marseille","lat":43.22559,"lon":5.41623,"is_reserved":false,"is_disabled":false,"rental_uris":{"android":"levelo://app?vid=5c44d9da-a9f7-4333-ab1c-8bd91f24f729","ios":"levelo://app?vid=5c44d9da-a9f7-4333-ab1c-8bd91f24f729"},"vehicle_type_id":"4","last_reported":1769281757,"current_range_meters":6400,"station_id":"st_d2o4gvlbi1j2169b742g","pricing_plan_id":"cebpf4jnsgd1na2vs0mg"},{"bike_id":"7360be8b-3af4-4e02-a70d-99f8313ad125","system_id":"levelo_inurba_marseille","lat":43.26499,"lon":5.39526,"is_reserved":false,"is_disabled":false,"rental_uris":{"android":"levelo://app?vid=7360be8b-3af4-4e02-a70d-99f8313ad125","ios":"levelo://app?vid=7360be8b-3af4-4e02-a70d-99f8313ad125"},"vehicle_type_id":"4","last_reported":1769281757,"current_range_meters":6400,"station_id":"ce4bhi12rcd13ifvqfq0","pricing_plan_id":"cebpf4jnsgd1na2vs0mg"},{"bike_id":"5fc384e4-f0b4-4c89-a573-763b54aad41c","system_id":"levelo_inurba_marseille","lat":43.2857,"lon":5.39506,"is_reserved":false,"is_disabled":false,"rental_uris":{"android":"levelo://app?vid=5fc384e4-f0b4-4c89-a573-763b54aad41c","ios":"levelo://app?vid=5fc384e4-f0b4-4c89-a573-763b54aad41c"},"vehicle_type_id":"4","last_reported":1769281757,"current_range_meters":6800,"station_id":"","pricing_plan_id":"cebpf4jnsgd1na2vs0mg"},{"bike_id":"21f6fd5f-51e0-4ace-adf3-8e7223e07642","system_id":"levelo_inurba_marseille","lat":43.29904,"lon":5.43674,"is_reserved":false,"is_disabled":false,"rental_uris":{"android":"levelo://app?vid=21f6fd5f-51e0-4ace-adf3-8e7223e07642","ios":"levelo://app?vid=21f6fd5f-51e0-4ace-adf3-8e7223e07642"},"vehicle_type_id":"4","last_reported":1769281757,"current_range_meters":6800,"station_id":"ce4bhpp2rcd13ifvqhfg","pricing_plan_id":"cebpf4jnsgd1na2vs0mg"},{"bike_id":"12c4af30-fcff-43b0-8fdd-c6f4317b2cf6","system_id":"levelo_inurba_marseille","lat":43.31122,"lon":5.37765,"is_reserved":false,"is_disabled":false,"rental_uris":{"android":"levelo://app?vid=12c4af30-fcff-43b0-8fdd-c6f4317b2cf6","ios":"levelo://app?vid=12c4af30-fcff-43b0-8fdd-c6f4317b2cf6"},"vehicle_type_id":"4","last_reported":1769281757,"current_range_meters":6800,"station_id":"ce4bgt92rcd13ifvqcg0","pricing_plan_id":"cebpf4jnsgd1na2vs0mg"},{"bike_id":"08962946-fb02-4f38-815e-994eda782353","system_id":"levelo_inurba_marseille","lat":43.283939,"lon":5.394366,"is_reserved":false,"is_disabled":false,"rental_uris":{"android":"levelo://app?vid=08962946-fb02-4f38-815e-994eda782353","ios":"levelo://app?vid=08962946-fb02-4f38-815e-994eda782353"},"vehicle_type_id":"4","last_reported":1769281757,"current_range_meters":6800,"station_id":"","pricing_plan_id":"cebpf4jnsgd1na2vs0mg"},{"bike_id":"89d2f176-9210-47d4-8e8a-9009973231fc","system_id":"levelo_inurba_marseille","lat":43.31342,"lon":5.36791,"is_reserved":false,"is_disabled":false,"rental_uris":{"android":"levelo://app?vid=89d2f176-9210-47d4-8e8a-9009973231fc","ios":"levelo://app?vid=89d2f176-9210-47d4-8e8a-9009973231fc"},"vehicle_type_id":"4","last_reported":1769281757,"current_range_meters":6800,"station_id":"","pricing_plan_id":"cebpf4jnsgd1na2vs0mg"},{"bike_id":"819d554d-33ee-4abe-894a-dc86ff277d52","system_id":"levelo_inurba_marseille","lat":43.22927,"lon":5.35372,"is_reserved":false,"is_disabled":false,"rental_uris":{"android":"levelo://app?vid=819d554d-33ee-4abe-894a-dc86ff277d52","ios":"levelo://app?vid=819d554d-33ee-4abe-894a-dc86ff277d52"},"vehicle_type_id":"4","last_reported":1769281757,"current_range_meters":6800,"station_id":"cpo3532slgdg3j2ikp40","pricing_plan_id":"cebpf4jnsgd1na2vs0mg"},{"bike_id":"5b91b93d-b3ae-4751-8498-b1dabc506a1f","system_id":"levelo_inurba_marseille","lat":43.244693,"lon":5.425302,"is_reserved":false,"is_disabled":false,"rental_uris":{"android":"levelo://app?vid=5b91b93d-b3ae-4751-8498-b1dabc506a1f","ios":"levelo://app?vid=5b91b93d-b3ae-4751-8498-b1dabc506a1f"},"vehicle_type_id":"4","last_reported":1769281757,"current_range_meters":6800,"station_id":"st_d4a3vfp97mjs738cd8kg","pricing_plan_id":"cebpf4jnsgd1na2vs0mg"},{"bike_id":"5a626986-ad66-468c-a8b6-d68cc0ed79d7","system_id":"levelo_inurba_marseille","lat":43.29888,"lon":5.36472,"is_reserved":false,"is_disabled":false,"rental_uris":{"android":"levelo://app?vid=5a626986-ad66-468c-a8b6-d68cc0ed79d7","ios":"levelo://app?vid=5a626986-ad66-468c-a8b6-d68cc0ed79d7"},"vehicle_type_id":"4","last_reported":1769281757,"current_range_meters":6800,"station_id":"","pricing_plan_id":"cebpf4jnsgd1na2vs0mg"},{"bike_id":"faa8663e-e142-45fc-9484-7a181dc4e401","system_id":"levelo_inurba_marseille","lat":43.27487,"lon":5.42475,"is_reserved":false,"is_disabled":false,"rental_uris":{"android":"levelo://app?vid=faa8663e-e142-45fc-9484-7a181dc4e401","ios":"levelo://app?vid=faa8663e-e142-45fc-9484-7a181dc4e401"},"vehicle_type_id":"4","last_reported":1769281757,"current_range_meters":6800,"station_id":"ce4bhn92rcd13ifvqgrg","pricing_plan_id":"cebpf4jnsgd1na2vs0mg"},{"bike_id":"b1b24ff6-a16a-49d4-8c80-da38825e8615","system_id":"levelo_inurba_marseille","lat":43.24393,"lon":5.37054,"is_reserved":false,"is_disabled":false,"rental_uris":{"android":"levelo://app?vid=b1b24ff6-a16a-49d4-8c80-da38825e8615","ios":"levelo://app?vid=b1b24ff6-a16a-49d4-8c80-da38825e8615"},"vehicle_type_id":"4","last_reported":1769281757,"current_range_meters":6800,"station_id":"ce4bhhh2rcd13ifvqfk0","pricing_plan_id":"cebpf4jnsgd1na2vs0mg"},{"bike_id":"da0ce17e-1f0d-4ee8-af49-09ce66f3cd5a","system_id":"levelo_inurba_marseille","lat":43.32661,"lon":5.40991,"is_reserved":false,"is_disabled":false,"rental_uris":{"android":"levelo://app?vid=da0ce17e-1f0d-4ee8-af49-09ce66f3cd5a","ios":"levelo://app?vid=da0ce17e-1f0d-4ee8-af49-09ce66f3cd5a"},"vehicle_type_id":"4","last_reported":1769281757,"current_range_meters":6800,"station_id":"ce4bhpp2rcd13ifvqhgg","pricing_plan_id":"cebpf4jnsgd1na2vs0mg"},{"bike_id":"461590ec-e40b-4152-9dae-8f948fb069ad","system_id":"levelo_inurba_marseille","lat":43.29507,"lon":5.37516,"is_reserved":false,"is_disabled":false,"rental_uris":{"android":"levelo://app?vid=461590ec-e40b-4152-9dae-8f948fb069ad","ios":"levelo://app?vid=461590ec-e40b-4152-9dae-8f948fb069ad"},"vehicle_type_id":"4","last_reported":1769281757,"current_range_meters":6800,"station_id":"ce4bgkp2rcd13ifvqbmg","pricing_plan_id":"cebpf4jnsgd1na2vs0mg"},{"bike_id":"b09b1361-457f-41a9-8d0f-135e88227a1b","system_id":"levelo_inurba_marseille","lat":43.27314,"lon":5.39106,"is_reserved":false,"is_disabled":false,"rental_uris":{"android":"levelo://app?vid=b09b1361-457f-41a9-8d0f-135e88227a1b","ios":"levelo://app?vid=b09b1361-457f-41a9-8d0f-135e88227a1b"},"vehicle_type_id":"4","last_reported":1769281757,"current_range_meters":6800,"station_id":"ce4bhgp2rcd13ifvqfe0","pricing_plan_id":"cebpf4jnsgd1na2vs0mg"},{"bike_id":"903ed6fb-e30d-426f-a862-93953b3b0883","system_id":"levelo_inurba_marseille","lat":43.32361,"lon":5.36714,"is_reserved":false,"is_disabled":false,"rental_uris":{"android":"levelo://app?vid=903ed6fb-e30d-426f-a862-93953b3b0883","ios":"levelo://app?vid=903ed6fb-e30d-426f-a862-93953b3b0883"},"vehicle_type_id":"4","last_reported":1769281757,"current_range_meters":7200,"station_id":"ce4bhsh2rcd13ifvqi2g","pricing_plan_id":"cebpf4jnsgd1na2vs0mg"},{"bike_id":"994cd074-f869-4813-80d0-fd8e13f5f341","system_id":"levelo_inurba_marseille","lat":43.29948,"lon":5.36543,"is_reserved":false,"is_disabled":false,"rental_uris":{"android":"levelo://app?vid=994cd074-f869-4813-80d0-fd8e13f5f341","ios":"levelo://app?vid=994cd074-f869-4813-80d0-fd8e13f5f341"},"vehicle_type_id":"4","last_reported":1769281757,"current_range_meters":7200,"station_id":"ce4bgm92rcd13ifvqbr0","pricing_plan_id":"cebpf4jnsgd1na2vs0mg"},{"bike_id":"9af51f60-0147-47d1-9c59-680e0d02c35a","system_id":"levelo_inurba_marseille","lat":43.21744,"lon":5.34612,"is_reserved":false,"is_disabled":false,"rental_uris":{"android":"levelo://app?vid=9af51f60-0147-47d1-9c59-680e0d02c35a","ios":"levelo://app?vid=9af51f60-0147-47d1-9c59-680e0d02c35a"},"vehicle_type_id":"4","last_reported":1769281757,"current_range_meters":7200,"station_id":"st_cvj6r9ubvosntc0bgbag","pricing_plan_id":"cebpf4jnsgd1na2vs0mg"},{"bike_id":"33375b7b-1d58-47f3-81bb-abd7d093dc69","system_id":"levelo_inurba_marseille","lat":43.29605,"lon":5.37703,"is_reserved":false,"is_disabled":false,"rental_uris":{"android":"levelo://app?vid=33375b7b-1d58-47f3-81bb-abd7d093dc69","ios":"levelo://app?vid=33375b7b-1d58-47f3-81bb-abd7d093dc69"},"vehicle_type_id":"4","last_reported":1769281757,"current_range_meters":7200,"station_id":"ce4bgi92rcd13ifvqb90","pricing_plan_id":"cebpf4jnsgd1na2vs0mg"},{"bike_id":"ae71a52e-3d46-4289-a470-4e64eab9ff51","system_id":"levelo_inurba_marseille","lat":43.28525,"lon":5.44097,"is_reserved":false,"is_disabled":false,"rental_uris":{"android":"levelo://app?vid=ae71a52e-3d46-4289-a470-4e64eab9ff51","ios":"levelo://app?vid=ae71a52e-3d46-4289-a470-4e64eab9ff51"},"vehicle_type_id":"4","last_reported":1769281757,"current_range_meters":7200,"station_id":"st_d3j3df2ikq2c7380ej80","pricing_plan_id":"cebpf4jnsgd1na2vs0mg"},{"bike_id":"796a0da3-ec34-425b-9040-229d3ebd6a9d","system_id":"levelo_inurba_marseille","lat":43.30354,"lon":5.4188,"is_reserved":false,"is_disabled":false,"rental_uris":{"android":"levelo://app?vid=796a0da3-ec34-425b-9040-229d3ebd6a9d","ios":"levelo://app?vid=796a0da3-ec34-425b-9040-229d3ebd6a9d"},"vehicle_type_id":"4","last_reported":1769281757,"current_range_meters":7200,"station_id":"ce4bhop2rcd13ifvqh7g","pricing_plan_id":"cebpf4jnsgd1na2vs0mg"},{"bike_id":"ad323744-06fd-45f0-8106-c7e6ac5566c6","system_id":"levelo_inurba_marseille","lat":43.29539,"lon":5.42285,"is_reserved":false,"is_disabled":false,"rental_uris":{"android":"levelo://app?vid=ad323744-06fd-45f0-8106-c7e6ac5566c6","ios":"levelo://app?vid=ad323744-06fd-45f0-8106-c7e6ac5566c6"},"vehicle_type_id":"4","last_reported":1769281757,"current_range_meters":7200,"station_id":"ce4bhph2rcd13ifvqhdg","pricing_plan_id":"cebpf4jnsgd1na2vs0mg"},{"bike_id":"49208718-4763-495e-944d-0d3acc9a003f","system_id":"levelo_inurba_marseille","lat":43.28861,"lon":5.42517,"is_reserved":false,"is_disabled":false,"rental_uris":{"android":"levelo://app?vid=49208718-4763-495e-944d-0d3acc9a003f","ios":"levelo://app?vid=49208718-4763-495e-944d-0d3acc9a003f"},"vehicle_type_id":"4","last_reported":1769281757,"current_range_meters":7200,"station_id":"st_d3b462108ojc7389ooeg","pricing_plan_id":"cebpf4jnsgd1na2vs0mg"},{"bike_id":"d3809040-335d-41e0-882d-c4069e0593d6","system_id":"levelo_inurba_marseille","lat":43.26216,"lon":5.37452,"is_reserved":false,"is_disabled":false,"rental_uris":{"android":"levelo://app?vid=d3809040-335d-41e0-882d-c4069e0593d6","ios":"levelo://app?vid=d3809040-335d-41e0-882d-c4069e0593d6"},"vehicle_type_id":"4","last_reported":1769281757,"current_range_meters":7200,"station_id":"ce4bhgp2rcd13ifvqfc0","pricing_plan_id":"cebpf4jnsgd1na2vs0mg"},{"bike_id":"55ef335a-92dc-4611-98e3-c0f1641841ce","system_id":"levelo_inurba_marseille","lat":43.29278,"lon":5.40144,"is_reserved":false,"is_disabled":false,"rental_uris":{"android":"levelo://app?vid=55ef335a-92dc-4611-98e3-c0f1641841ce","ios":"levelo://app?vid=55ef335a-92dc-4611-98e3-c0f1641841ce"},"vehicle_type_id":"4","last_reported":1769281757,"current_range_meters":7200,"station_id":"ce4bh312rcd13ifvqdk0","pricing_plan_id":"cebpf4jnsgd1na2vs0mg"},{"bike_id":"2762ef31-30af-4622-8a7b-f8bc59330d3d","system_id":"levelo_inurba_marseille","lat":43.30103,"lon":5.37449,"is_reserved":false,"is_disabled":false,"rental_uris":{"android":"levelo://app?vid=2762ef31-30af-4622-8a7b-f8bc59330d3d","ios":"levelo://app?vid=2762ef31-30af-4622-8a7b-f8bc59330d3d"},"vehicle_type_id":"4","last_reported":1769281757,"current_range_meters":7200,"station_id":"","pricing_plan_id":"cebpf4jnsgd1na2vs0mg"},{"bike_id":"abc3e470-458d-4850-bc00-6e0427ff2ca9","system_id":"levelo_inurba_marseille","lat":43.3172,"lon":5.437,"is_reserved":false,"is_disabled":false,"rental_uris":{"android":"levelo://app?vid=abc3e470-458d-4850-bc00-6e0427ff2ca9","ios":"levelo://app?vid=abc3e470-458d-4850-bc00-6e0427ff2ca9"},"vehicle_type_id":"4","last_reported":1769281757,"current_range_meters":7200,"station_id":"ce4bhp92rcd13ifvqhcg","pricing_plan_id":"cebpf4jnsgd1na2vs0mg"},{"bike_id":"dc3bd017-a36c-437c-a91a-6cab42202242","system_id":"levelo_inurba_marseille","lat":43.28539,"lon":5.44102,"is_reserved":false,"is_disabled":false,"rental_uris":{"android":"levelo://app?vid=dc3bd017-a36c-437c-a91a-6cab42202242","ios":"levelo://app?vid=dc3bd017-a36c-437c-a91a-6cab42202242"},"vehicle_type_id":"4","last_reported":1769281757,"current_range_meters":7200,"station_id":"st_d3j3df2ikq2c7380ej80","pricing_plan_id":"cebpf4jnsgd1na2vs0mg"},{"bike_id":"c7bb1e75-854e-4b91-9eb4-49c4f9db6d4d","system_id":"levelo_inurba_marseille","lat":43.24955,"lon":5.40498,"is_reserved":false,"is_disabled":false,"rental_uris":{"android":"levelo://app?vid=c7bb1e75-854e-4b91-9eb4-49c4f9db6d4d","ios":"levelo://app?vid=c7bb1e75-854e-4b91-9eb4-49c4f9db6d4d"},"vehicle_type_id":"4","last_reported":1769281757,"current_range_meters":7200,"station_id":"st_d2ngiaodas8pm72gd1h0","pricing_plan_id":"cebpf4jnsgd1na2vs0mg"},{"bike_id":"fe6247c0-8b4c-45a3-872a-698b7c53d002","system_id":"levelo_inurba_marseille","lat":43.29619,"lon":5.37153,"is_reserved":false,"is_disabled":false,"rental_uris":{"android":"levelo://app?vid=fe6247c0-8b4c-45a3-872a-698b7c53d002","ios":"levelo://app?vid=fe6247c0-8b4c-45a3-872a-698b7c53d002"},"vehicle_type_id":"4","last_reported":1769281757,"current_range_meters":7200,"station_id":"ce4bgnh2rcd13ifvqc0g","pricing_plan_id":"cebpf4jnsgd1na2vs0mg"},{"bike_id":"0ca50414-b22f-4e75-aa54-cfd808d06083","system_id":"levelo_inurba_marseille","lat":43.33157,"lon":5.37698,"is_reserved":false,"is_disabled":false,"rental_uris":{"android":"levelo://app?vid=0ca50414-b22f-4e75-aa54-cfd808d06083","ios":"levelo://app?vid=0ca50414-b22f-4e75-aa54-cfd808d06083"},"vehicle_type_id":"4","last_reported":1769281757,"current_range_meters":7200,"station_id":"st_d46cu089ee8s73dldbu0","pricing_plan_id":"cebpf4jnsgd1na2vs0mg"},{"bike_id":"810615af-4dfc-4ff9-8fd7-15ca4401249a","system_id":"levelo_inurba_marseille","lat":43.24173,"lon":5.39722,"is_reserved":false,"is_disabled":false,"rental_uris":{"android":"levelo://app?vid=810615af-4dfc-4ff9-8fd7-15ca4401249a","ios":"levelo://app?vid=810615af-4dfc-4ff9-8fd7-15ca4401249a"},"vehicle_type_id":"4","last_reported":1769281757,"current_range_meters":7200,"station_id":"ce4bhn12rcd13ifvqgpg","pricing_plan_id":"cebpf4jnsgd1na2vs0mg"},{"bike_id":"42a9072c-20ae-4f3e-9a38-771201cc3731","system_id":"levelo_inurba_marseille","lat":43.26547,"lon":5.37291,"is_reserved":false,"is_disabled":false,"rental_uris":{"android":"levelo://app?vid=42a9072c-20ae-4f3e-9a38-771201cc3731","ios":"levelo://app?vid=42a9072c-20ae-4f3e-9a38-771201cc3731"},"vehicle_type_id":"4","last_reported":1769281757,"current_range_meters":8000,"station_id":"ce4bhg12rcd13ifvqf70","pricing_plan_id":"cebpf4jnsgd1na2vs0mg"},{"bike_id":"7fbd08ac-4873-40ce-8348-00e50d4fd738","system_id":"levelo_inurba_marseille","lat":43.27175,"lon":5.40987,"is_reserved":false,"is_disabled":false,"rental_uris":{"android":"levelo://app?vid=7fbd08ac-4873-40ce-8348-00e50d4fd738","ios":"levelo://app?vid=7fbd08ac-4873-40ce-8348-00e50d4fd738"},"vehicle_type_id":"4","last_reported":1769281757,"current_range_meters":8000,"station_id":"ce4bhl12rcd13ifvqgf0","pricing_plan_id":"cebpf4jnsgd1na2vs0mg"},{"bike_id":"3f444b80-42a5-44cb-ab46-d7a22aca5751","system_id":"levelo_inurba_marseille","lat":43.26575,"lon":5.37312,"is_reserved":false,"is_disabled":false,"rental_uris":{"android":"levelo://app?vid=3f444b80-42a5-44cb-ab46-d7a22aca5751","ios":"levelo://app?vid=3f444b80-42a5-44cb-ab46-d7a22aca5751"},"vehicle_type_id":"4","last_reported":1769281757,"current_range_meters":8000,"station_id":"ce4bhg12rcd13ifvqf70","pricing_plan_id":"cebpf4jnsgd1na2vs0mg"},{"bike_id":"c4b9fb50-c1c1-45e2-a420-d27b5fd55927","system_id":"levelo_inurba_marseille","lat":43.23186,"lon":5.39974,"is_reserved":false,"is_disabled":false,"rental_uris":{"android":"levelo://app?vid=c4b9fb50-c1c1-45e2-a420-d27b5fd55927","ios":"levelo://app?vid=c4b9fb50-c1c1-45e2-a420-d27b5fd55927"},"vehicle_type_id":"4","last_reported":1769281757,"current_range_meters":8000,"station_id":"ce4bhn12rcd13ifvqgqg","pricing_plan_id":"cebpf4jnsgd1na2vs0mg"},{"bike_id":"695ba03e-aa60-4a16-ad44-0d1b43b21bd5","system_id":"levelo_inurba_marseille","lat":43.22565,"lon":5.41615,"is_reserved":false,"is_disabled":false,"rental_uris":{"android":"levelo://app?vid=695ba03e-aa60-4a16-ad44-0d1b43b21bd5","ios":"levelo://app?vid=695ba03e-aa60-4a16-ad44-0d1b43b21bd5"},"vehicle_type_id":"4","last_reported":1769281757,"current_range_meters":8000,"station_id":"st_d2o4gvlbi1j2169b742g","pricing_plan_id":"cebpf4jnsgd1na2vs0mg"},{"bike_id":"9f3c3c2b-e4a8-4bfd-9222-bbcb11a650e6","system_id":"levelo_inurba_marseille","lat":43.30564,"lon":5.36564,"is_reserved":false,"is_disabled":false,"rental_uris":{"android":"levelo://app?vid=9f3c3c2b-e4a8-4bfd-9222-bbcb11a650e6","ios":"levelo://app?vid=9f3c3c2b-e4a8-4bfd-9222-bbcb11a650e6"},"vehicle_type_id":"4","last_reported":1769281757,"current_range_meters":8000,"station_id":"ce4bgs12rcd13ifvqcag","pricing_plan_id":"cebpf4jnsgd1na2vs0mg"},{"bike_id":"c8f043c8-a1cd-4533-8ac5-09a3aac34519","system_id":"levelo_inurba_marseille","lat":43.26562,"lon":5.37275,"is_reserved":false,"is_disabled":false,"rental_uris":{"android":"levelo://app?vid=c8f043c8-a1cd-4533-8ac5-09a3aac34519","ios":"levelo://app?vid=c8f043c8-a1cd-4533-8ac5-09a3aac34519"},"vehicle_type_id":"4","last_reported":1769281757,"current_range_meters":8000,"station_id":"ce4bhg12rcd13ifvqf70","pricing_plan_id":"cebpf4jnsgd1na2vs0mg"},{"bike_id":"3018bd0f-1eb9-47af-8fda-422f2be35d9a","system_id":"levelo_inurba_marseille","lat":43.21312,"lon":5.35091,"is_reserved":false,"is_disabled":false,"rental_uris":{"android":"levelo://app?vid=3018bd0f-1eb9-47af-8fda-422f2be35d9a","ios":"levelo://app?vid=3018bd0f-1eb9-47af-8fda-422f2be35d9a"},"vehicle_type_id":"4","last_reported":1769281757,"current_range_meters":8000,"station_id":"","pricing_plan_id":"cebpf4jnsgd1na2vs0mg"},{"bike_id":"6c634728-9982-4b9c-bbd5-411ba9919945","system_id":"levelo_inurba_marseille","lat":43.33602,"lon":5.41039,"is_reserved":false,"is_disabled":false,"rental_uris":{"android":"levelo://app?vid=6c634728-9982-4b9c-bbd5-411ba9919945","ios":"levelo://app?vid=6c634728-9982-4b9c-bbd5-411ba9919945"},"vehicle_type_id":"4","last_reported":1769281757,"current_range_meters":8000,"station_id":"ce4bhqh2rcd13ifvqhmg","pricing_plan_id":"cebpf4jnsgd1na2vs0mg"},{"bike_id":"aefbe97f-f700-4dcf-94aa-2baf409b3f3e","system_id":"levelo_inurba_marseille","lat":43.28479,"lon":5.3839,"is_reserved":false,"is_disabled":false,"rental_uris":{"android":"levelo://app?vid=aefbe97f-f700-4dcf-94aa-2baf409b3f3e","ios":"levelo://app?vid=aefbe97f-f700-4dcf-94aa-2baf409b3f3e"},"vehicle_type_id":"4","last_reported":1769281757,"current_range_meters":8000,"station_id":"ce4bh512rcd13ifvqe3g","pricing_plan_id":"cebpf4jnsgd1na2vs0mg"},{"bike_id":"f5ac4918-0ec2-4761-b7b6-0929b50d8bfd","system_id":"levelo_inurba_marseille","lat":43.28473,"lon":5.48402,"is_reserved":false,"is_disabled":false,"rental_uris":{"android":"levelo://app?vid=f5ac4918-0ec2-4761-b7b6-0929b50d8bfd","ios":"levelo://app?vid=f5ac4918-0ec2-4761-b7b6-0929b50d8bfd"},"vehicle_type_id":"4","last_reported":1769281757,"current_range_meters":8000,"station_id":"","pricing_plan_id":"cebpf4jnsgd1na2vs0mg"},{"bike_id":"3770c2e9-8904-416b-a171-2857d4f07466","system_id":"levelo_inurba_marseille","lat":43.24397,"lon":5.37043,"is_reserved":false,"is_disabled":false,"rental_uris":{"android":"levelo://app?vid=3770c2e9-8904-416b-a171-2857d4f07466","ios":"levelo://app?vid=3770c2e9-8904-416b-a171-2857d4f07466"},"vehicle_type_id":"4","last_reported":1769281757,"current_range_meters":8000,"station_id":"ce4bhhh2rcd13ifvqfk0","pricing_plan_id":"cebpf4jnsgd1na2vs0mg"},{"bike_id":"58d2ae64-d77b-49b0-aa64-83302e76931b","system_id":"levelo_inurba_marseille","lat":43.24631,"lon":5.4314,"is_reserved":false,"is_disabled":false,"rental_uris":{"android":"levelo://app?vid=58d2ae64-d77b-49b0-aa64-83302e76931b","ios":"levelo://app?vid=58d2ae64-d77b-49b0-aa64-83302e76931b"},"vehicle_type_id":"4","last_reported":1769281757,"current_range_meters":8000,"station_id":"st_d2m6c4gdas8pm72e190g","pricing_plan_id":"cebpf4jnsgd1na2vs0mg"},{"bike_id":"2866fb61-925b-47cb-ad30-ede99341e9de","system_id":"levelo_inurba_marseille","lat":43.2417,"lon":5.36394,"is_reserved":false,"is_disabled":false,"rental_uris":{"android":"levelo://app?vid=2866fb61-925b-47cb-ad30-ede99341e9de","ios":"levelo://app?vid=2866fb61-925b-47cb-ad30-ede99341e9de"},"vehicle_type_id":"4","last_reported":1769281757,"current_range_meters":8000,"station_id":"cpo36qri1sfpv3e86is0","pricing_plan_id":"cebpf4jnsgd1na2vs0mg"},{"bike_id":"d23e957b-30e5-4310-998d-191d81d5f962","system_id":"levelo_inurba_marseille","lat":43.284521,"lon":5.387887,"is_reserved":false,"is_disabled":false,"rental_uris":{"android":"levelo://app?vid=d23e957b-30e5-4310-998d-191d81d5f962","ios":"levelo://app?vid=d23e957b-30e5-4310-998d-191d81d5f962"},"vehicle_type_id":"4","last_reported":1769281757,"current_range_meters":8000,"station_id":"","pricing_plan_id":"cebpf4jnsgd1na2vs0mg"},{"bike_id":"ba883ae6-41d0-430b-b2c5-fa8f015c672b","system_id":"levelo_inurba_marseille","lat":43.30491,"lon":5.41062,"is_reserved":false,"is_disabled":false,"rental_uris":{"android":"levelo://app?vid=ba883ae6-41d0-430b-b2c5-fa8f015c672b","ios":"levelo://app?vid=ba883ae6-41d0-430b-b2c5-fa8f015c672b"},"vehicle_type_id":"4","last_reported":1769281757,"current_range_meters":8000,"station_id":"","pricing_plan_id":"cebpf4jnsgd1na2vs0mg"},{"bike_id":"998305e5-21f8-49b1-ac26-1fc19ed90545","system_id":"levelo_inurba_marseille","lat":43.30795,"lon":5.38161,"is_reserved":false,"is_disabled":false,"rental_uris":{"android":"levelo://app?vid=998305e5-21f8-49b1-ac26-1fc19ed90545","ios":"levelo://app?vid=998305e5-21f8-49b1-ac26-1fc19ed90545"},"vehicle_type_id":"4","last_reported":1769281757,"current_range_meters":8000,"station_id":"ce4bgt12rcd13ifvqce0","pricing_plan_id":"cebpf4jnsgd1na2vs0mg"},{"bike_id":"c95e6f4f-dea5-4c8f-900f-ccf591c989cb","system_id":"levelo_inurba_marseille","lat":43.2583,"lon":5.3945,"is_reserved":false,"is_disabled":false,"rental_uris":{"android":"levelo://app?vid=c95e6f4f-dea5-4c8f-900f-ccf591c989cb","ios":"levelo://app?vid=c95e6f4f-dea5-4c8f-900f-ccf591c989cb"},"vehicle_type_id":"4","last_reported":1769281757,"current_range_meters":8400,"station_id":"ce4bhip2rcd13ifvqft0","pricing_plan_id":"cebpf4jnsgd1na2vs0mg"},{"bike_id":"7a4e3005-837e-4425-a268-ddb5f45bb9f3","system_id":"levelo_inurba_marseille","lat":43.24614,"lon":5.43126,"is_reserved":false,"is_disabled":false,"rental_uris":{"android":"levelo://app?vid=7a4e3005-837e-4425-a268-ddb5f45bb9f3","ios":"levelo://app?vid=7a4e3005-837e-4425-a268-ddb5f45bb9f3"},"vehicle_type_id":"4","last_reported":1769281757,"current_range_meters":8400,"station_id":"st_d2m6c4gdas8pm72e190g","pricing_plan_id":"cebpf4jnsgd1na2vs0mg"},{"bike_id":"f8d6a6e0-1d68-4650-a94d-f633bf8c4370","system_id":"levelo_inurba_marseille","lat":43.23784,"lon":5.36638,"is_reserved":false,"is_disabled":false,"rental_uris":{"android":"levelo://app?vid=f8d6a6e0-1d68-4650-a94d-f633bf8c4370","ios":"levelo://app?vid=f8d6a6e0-1d68-4650-a94d-f633bf8c4370"},"vehicle_type_id":"4","last_reported":1769281757,"current_range_meters":8400,"station_id":"st_d3nk18o9ro0c73en2l3g","pricing_plan_id":"cebpf4jnsgd1na2vs0mg"},{"bike_id":"f82d1a53-62c8-4ad5-9254-bbebe70e3fde","system_id":"levelo_inurba_marseille","lat":43.303253,"lon":5.36853,"is_reserved":false,"is_disabled":false,"rental_uris":{"android":"levelo://app?vid=f82d1a53-62c8-4ad5-9254-bbebe70e3fde","ios":"levelo://app?vid=f82d1a53-62c8-4ad5-9254-bbebe70e3fde"},"vehicle_type_id":"4","last_reported":1769281757,"current_range_meters":8400,"station_id":"","pricing_plan_id":"cebpf4jnsgd1na2vs0mg"},{"bike_id":"0c1db0f6-04c1-4e73-b12d-3dd98c0a03f3","system_id":"levelo_inurba_marseille","lat":43.31067,"lon":5.37171,"is_reserved":false,"is_disabled":false,"rental_uris":{"android":"levelo://app?vid=0c1db0f6-04c1-4e73-b12d-3dd98c0a03f3","ios":"levelo://app?vid=0c1db0f6-04c1-4e73-b12d-3dd98c0a03f3"},"vehicle_type_id":"4","last_reported":1769281757,"current_range_meters":8400,"station_id":"st_d4kl2rp97mjs73e7tdfg","pricing_plan_id":"cebpf4jnsgd1na2vs0mg"},{"bike_id":"e46d8a17-af5a-42e0-b036-cb3c86080336","system_id":"levelo_inurba_marseille","lat":43.24462,"lon":5.42535,"is_reserved":false,"is_disabled":false,"rental_uris":{"android":"levelo://app?vid=e46d8a17-af5a-42e0-b036-cb3c86080336","ios":"levelo://app?vid=e46d8a17-af5a-42e0-b036-cb3c86080336"},"vehicle_type_id":"4","last_reported":1769281757,"current_range_meters":8400,"station_id":"st_d4a3vfp97mjs738cd8kg","pricing_plan_id":"cebpf4jnsgd1na2vs0mg"},{"bike_id":"e07e68dd-c898-432c-ba3f-2dae4d6b1eb0","system_id":"levelo_inurba_marseille","lat":43.26062,"lon":5.39393,"is_reserved":false,"is_disabled":false,"rental_uris":{"android":"levelo://app?vid=e07e68dd-c898-432c-ba3f-2dae4d6b1eb0","ios":"levelo://app?vid=e07e68dd-c898-432c-ba3f-2dae4d6b1eb0"},"vehicle_type_id":"4","last_reported":1769281757,"current_range_meters":8400,"station_id":"ce4bhh92rcd13ifvqfj0","pricing_plan_id":"cebpf4jnsgd1na2vs0mg"},{"bike_id":"531078e9-e6ae-426d-a507-48f287cdb17b","system_id":"levelo_inurba_marseille","lat":43.24681,"lon":5.38137,"is_reserved":false,"is_disabled":false,"rental_uris":{"android":"levelo://app?vid=531078e9-e6ae-426d-a507-48f287cdb17b","ios":"levelo://app?vid=531078e9-e6ae-426d-a507-48f287cdb17b"},"vehicle_type_id":"4","last_reported":1769281757,"current_range_meters":8400,"station_id":"ce4bhih2rcd13ifvqfr0","pricing_plan_id":"cebpf4jnsgd1na2vs0mg"},{"bike_id":"955b7b58-85d0-4b70-9dc4-029feb0cc2bd","system_id":"levelo_inurba_marseille","lat":43.297048,"lon":5.366266,"is_reserved":false,"is_disabled":false,"rental_uris":{"android":"levelo://app?vid=955b7b58-85d0-4b70-9dc4-029feb0cc2bd","ios":"levelo://app?vid=955b7b58-85d0-4b70-9dc4-029feb0cc2bd"},"vehicle_type_id":"4","last_reported":1769281757,"current_range_meters":8400,"station_id":"ce4bgn12rcd13ifvqbt0","pricing_plan_id":"cebpf4jnsgd1na2vs0mg"},{"bike_id":"3b781fc0-785a-46db-80a2-c41d552c10df","system_id":"levelo_inurba_marseille","lat":43.23783,"lon":5.36634,"is_reserved":false,"is_disabled":false,"rental_uris":{"android":"levelo://app?vid=3b781fc0-785a-46db-80a2-c41d552c10df","ios":"levelo://app?vid=3b781fc0-785a-46db-80a2-c41d552c10df"},"vehicle_type_id":"4","last_reported":1769281757,"current_range_meters":8400,"station_id":"st_d3nk18o9ro0c73en2l3g","pricing_plan_id":"cebpf4jnsgd1na2vs0mg"},{"bike_id":"60b6fefc-4fad-4e17-b7b7-9a9bb822d822","system_id":"levelo_inurba_marseille","lat":43.31722,"lon":5.42407,"is_reserved":false,"is_disabled":false,"rental_uris":{"android":"levelo://app?vid=60b6fefc-4fad-4e17-b7b7-9a9bb822d822","ios":"levelo://app?vid=60b6fefc-4fad-4e17-b7b7-9a9bb822d822"},"vehicle_type_id":"4","last_reported":1769281757,"current_range_meters":8400,"station_id":"ce4bhp92rcd13ifvqhbg","pricing_plan_id":"cebpf4jnsgd1na2vs0mg"},{"bike_id":"0554af7b-4d97-4b09-bc8a-ccbbde3b5abf","system_id":"levelo_inurba_marseille","lat":43.24075,"lon":5.37755,"is_reserved":false,"is_disabled":false,"rental_uris":{"android":"levelo://app?vid=0554af7b-4d97-4b09-bc8a-ccbbde3b5abf","ios":"levelo://app?vid=0554af7b-4d97-4b09-bc8a-ccbbde3b5abf"},"vehicle_type_id":"4","last_reported":1769281757,"current_range_meters":8400,"station_id":"ce4bhnp2rcd13ifvqgvg","pricing_plan_id":"cebpf4jnsgd1na2vs0mg"},{"bike_id":"e8cede09-25d9-464a-9863-7fcad8ebfe34","system_id":"levelo_inurba_marseille","lat":43.29935,"lon":5.36528,"is_reserved":false,"is_disabled":false,"rental_uris":{"android":"levelo://app?vid=e8cede09-25d9-464a-9863-7fcad8ebfe34","ios":"levelo://app?vid=e8cede09-25d9-464a-9863-7fcad8ebfe34"},"vehicle_type_id":"4","last_reported":1769281757,"current_range_meters":8400,"station_id":"ce4bgm92rcd13ifvqbr0","pricing_plan_id":"cebpf4jnsgd1na2vs0mg"},{"bike_id":"711b6451-3b81-4dd2-8591-37e710d5b943","system_id":"levelo_inurba_marseille","lat":43.28481,"lon":5.48392,"is_reserved":false,"is_disabled":false,"rental_uris":{"android":"levelo://app?vid=711b6451-3b81-4dd2-8591-37e710d5b943","ios":"levelo://app?vid=711b6451-3b81-4dd2-8591-37e710d5b943"},"vehicle_type_id":"4","last_reported":1769281757,"current_range_meters":8400,"station_id":"","pricing_plan_id":"cebpf4jnsgd1na2vs0mg"},{"bike_id":"8d270819-adc1-49e1-abc4-b636cf1a9812","system_id":"levelo_inurba_marseille","lat":43.30538,"lon":5.36714,"is_reserved":false,"is_disabled":false,"rental_uris":{"android":"levelo://app?vid=8d270819-adc1-49e1-abc4-b636cf1a9812","ios":"levelo://app?vid=8d270819-adc1-49e1-abc4-b636cf1a9812"},"vehicle_type_id":"4","last_reported":1769281757,"current_range_meters":8400,"station_id":"ce4bgrp2rcd13ifvqc9g","pricing_plan_id":"cebpf4jnsgd1na2vs0mg"},{"bike_id":"655bd777-1439-41cf-b1e8-61377b5a3625","system_id":"levelo_inurba_marseille","lat":43.29615,"lon":5.3757,"is_reserved":false,"is_disabled":false,"rental_uris":{"android":"levelo://app?vid=655bd777-1439-41cf-b1e8-61377b5a3625","ios":"levelo://app?vid=655bd777-1439-41cf-b1e8-61377b5a3625"},"vehicle_type_id":"4","last_reported":1769281757,"current_range_meters":8400,"station_id":"","pricing_plan_id":"cebpf4jnsgd1na2vs0mg"},{"bike_id":"4aebcdeb-417a-440b-b951-898b7cee3fad","system_id":"levelo_inurba_marseille","lat":43.26914,"lon":5.40266,"is_reserved":false,"is_disabled":false,"rental_uris":{"android":"levelo://app?vid=4aebcdeb-417a-440b-b951-898b7cee3fad","ios":"levelo://app?vid=4aebcdeb-417a-440b-b951-898b7cee3fad"},"vehicle_type_id":"4","last_reported":1769281757,"current_range_meters":8400,"station_id":"cjm6bp8fraef2m0cb0m0","pricing_plan_id":"cebpf4jnsgd1na2vs0mg"},{"bike_id":"808f4e53-a8b8-4744-be76-00d5bcf647cd","system_id":"levelo_inurba_marseille","lat":43.29724,"lon":5.42771,"is_reserved":false,"is_disabled":false,"rental_uris":{"android":"levelo://app?vid=808f4e53-a8b8-4744-be76-00d5bcf647cd","ios":"levelo://app?vid=808f4e53-a8b8-4744-be76-00d5bcf647cd"},"vehicle_type_id":"4","last_reported":1769281757,"current_range_meters":8400,"station_id":"st_d3md5207bmas73dh9klg","pricing_plan_id":"cebpf4jnsgd1na2vs0mg"},{"bike_id":"43ace758-19e2-45f5-81d3-4d0e67cb2c4e","system_id":"levelo_inurba_marseille","lat":43.23785,"lon":5.36637,"is_reserved":false,"is_disabled":false,"rental_uris":{"android":"levelo://app?vid=43ace758-19e2-45f5-81d3-4d0e67cb2c4e","ios":"levelo://app?vid=43ace758-19e2-45f5-81d3-4d0e67cb2c4e"},"vehicle_type_id":"4","last_reported":1769281757,"current_range_meters":8400,"station_id":"st_d3nk18o9ro0c73en2l3g","pricing_plan_id":"cebpf4jnsgd1na2vs0mg"},{"bike_id":"681f153b-2e79-4966-814b-395618de6377","system_id":"levelo_inurba_marseille","lat":43.28914,"lon":5.38394,"is_reserved":false,"is_disabled":false,"rental_uris":{"android":"levelo://app?vid=681f153b-2e79-4966-814b-395618de6377","ios":"levelo://app?vid=681f153b-2e79-4966-814b-395618de6377"},"vehicle_type_id":"4","last_reported":1769281757,"current_range_meters":8400,"station_id":"ce4bh612rcd13ifvqe6g","pricing_plan_id":"cebpf4jnsgd1na2vs0mg"},{"bike_id":"66e2db6e-199d-473b-a0ad-7077acb0bbdc","system_id":"levelo_inurba_marseille","lat":43.26528,"lon":5.3729,"is_reserved":false,"is_disabled":false,"rental_uris":{"android":"levelo://app?vid=66e2db6e-199d-473b-a0ad-7077acb0bbdc","ios":"levelo://app?vid=66e2db6e-199d-473b-a0ad-7077acb0bbdc"},"vehicle_type_id":"4","last_reported":1769281757,"current_range_meters":8400,"station_id":"ce4bhg12rcd13ifvqf70","pricing_plan_id":"cebpf4jnsgd1na2vs0mg"},{"bike_id":"4e8ceb26-dcda-41c9-b988-c7429cb4d9cf","system_id":"levelo_inurba_marseille","lat":43.28475,"lon":5.3843,"is_reserved":false,"is_disabled":false,"rental_uris":{"android":"levelo://app?vid=4e8ceb26-dcda-41c9-b988-c7429cb4d9cf","ios":"levelo://app?vid=4e8ceb26-dcda-41c9-b988-c7429cb4d9cf"},"vehicle_type_id":"4","last_reported":1769281757,"current_range_meters":8800,"station_id":"ce4bh512rcd13ifvqe3g","pricing_plan_id":"cebpf4jnsgd1na2vs0mg"},{"bike_id":"f9f84c03-f090-46ce-8d68-078d46085df1","system_id":"levelo_inurba_marseille","lat":43.241773,"lon":5.397262,"is_reserved":false,"is_disabled":false,"rental_uris":{"android":"levelo://app?vid=f9f84c03-f090-46ce-8d68-078d46085df1","ios":"levelo://app?vid=f9f84c03-f090-46ce-8d68-078d46085df1"},"vehicle_type_id":"4","last_reported":1769281757,"current_range_meters":8800,"station_id":"ce4bhn12rcd13ifvqgpg","pricing_plan_id":"cebpf4jnsgd1na2vs0mg"},{"bike_id":"6ebd8131-5347-4093-8c87-e0c7d5276e14","system_id":"levelo_inurba_marseille","lat":43.22558,"lon":5.41622,"is_reserved":false,"is_disabled":false,"rental_uris":{"android":"levelo://app?vid=6ebd8131-5347-4093-8c87-e0c7d5276e14","ios":"levelo://app?vid=6ebd8131-5347-4093-8c87-e0c7d5276e14"},"vehicle_type_id":"4","last_reported":1769281757,"current_range_meters":8800,"station_id":"st_d2o4gvlbi1j2169b742g","pricing_plan_id":"cebpf4jnsgd1na2vs0mg"},{"bike_id":"5d5ffbbb-74c0-43cf-b09c-4df4c0347781","system_id":"levelo_inurba_marseille","lat":43.26202,"lon":5.37926,"is_reserved":false,"is_disabled":false,"rental_uris":{"android":"levelo://app?vid=5d5ffbbb-74c0-43cf-b09c-4df4c0347781","ios":"levelo://app?vid=5d5ffbbb-74c0-43cf-b09c-4df4c0347781"},"vehicle_type_id":"4","last_reported":1769281757,"current_range_meters":8800,"station_id":"ce4bhjp2rcd13ifvqg90","pricing_plan_id":"cebpf4jnsgd1na2vs0mg"},{"bike_id":"c6ef7ff0-5892-422e-8e76-011a5fc5798f","system_id":"levelo_inurba_marseille","lat":43.31998,"lon":5.38162,"is_reserved":false,"is_disabled":false,"rental_uris":{"android":"levelo://app?vid=c6ef7ff0-5892-422e-8e76-011a5fc5798f","ios":"levelo://app?vid=c6ef7ff0-5892-422e-8e76-011a5fc5798f"},"vehicle_type_id":"4","last_reported":1769281757,"current_range_meters":8800,"station_id":"ce4bhr12rcd13ifvqhpg","pricing_plan_id":"cebpf4jnsgd1na2vs0mg"},{"bike_id":"5e973b9f-bab0-46bc-bdb3-50ab000bf111","system_id":"levelo_inurba_marseille","lat":43.29893,"lon":5.38332,"is_reserved":false,"is_disabled":false,"rental_uris":{"android":"levelo://app?vid=5e973b9f-bab0-46bc-bdb3-50ab000bf111","ios":"levelo://app?vid=5e973b9f-bab0-46bc-bdb3-50ab000bf111"},"vehicle_type_id":"4","last_reported":1769281757,"current_range_meters":8800,"station_id":"","pricing_plan_id":"cebpf4jnsgd1na2vs0mg"},{"bike_id":"e74dd9b3-b6b2-4ded-9217-8e7bda3955d4","system_id":"levelo_inurba_marseille","lat":43.24394,"lon":5.37051,"is_reserved":false,"is_disabled":false,"rental_uris":{"android":"levelo://app?vid=e74dd9b3-b6b2-4ded-9217-8e7bda3955d4","ios":"levelo://app?vid=e74dd9b3-b6b2-4ded-9217-8e7bda3955d4"},"vehicle_type_id":"4","last_reported":1769281757,"current_range_meters":8800,"station_id":"ce4bhhh2rcd13ifvqfk0","pricing_plan_id":"cebpf4jnsgd1na2vs0mg"},{"bike_id":"48f40c82-bbad-4ae0-9613-f836906f3c71","system_id":"levelo_inurba_marseille","lat":43.28121,"lon":5.4318,"is_reserved":false,"is_disabled":false,"rental_uris":{"android":"levelo://app?vid=48f40c82-bbad-4ae0-9613-f836906f3c71","ios":"levelo://app?vid=48f40c82-bbad-4ae0-9613-f836906f3c71"},"vehicle_type_id":"4","last_reported":1769281757,"current_range_meters":8800,"station_id":"","pricing_plan_id":"cebpf4jnsgd1na2vs0mg"},{"bike_id":"090d68fd-b8f6-42aa-a688-f39ed4d39c2d","system_id":"levelo_inurba_marseille","lat":43.22566,"lon":5.41624,"is_reserved":false,"is_disabled":false,"rental_uris":{"android":"levelo://app?vid=090d68fd-b8f6-42aa-a688-f39ed4d39c2d","ios":"levelo://app?vid=090d68fd-b8f6-42aa-a688-f39ed4d39c2d"},"vehicle_type_id":"4","last_reported":1769281757,"current_range_meters":8800,"station_id":"st_d2o4gvlbi1j2169b742g","pricing_plan_id":"cebpf4jnsgd1na2vs0mg"},{"bike_id":"dd369fb3-6a29-4c8b-9c32-c4dbeada70f4","system_id":"levelo_inurba_marseille","lat":43.22553,"lon":5.41631,"is_reserved":false,"is_disabled":false,"rental_uris":{"android":"levelo://app?vid=dd369fb3-6a29-4c8b-9c32-c4dbeada70f4","ios":"levelo://app?vid=dd369fb3-6a29-4c8b-9c32-c4dbeada70f4"},"vehicle_type_id":"4","last_reported":1769281757,"current_range_meters":8800,"station_id":"st_d2o4gvlbi1j2169b742g","pricing_plan_id":"cebpf4jnsgd1na2vs0mg"},{"bike_id":"b9917ecd-02a8-40e9-a0d0-4758759eb040","system_id":"levelo_inurba_marseille","lat":43.245516,"lon":5.373424,"is_reserved":false,"is_disabled":false,"rental_uris":{"android":"levelo://app?vid=b9917ecd-02a8-40e9-a0d0-4758759eb040","ios":"levelo://app?vid=b9917ecd-02a8-40e9-a0d0-4758759eb040"},"vehicle_type_id":"4","last_reported":1769281757,"current_range_meters":8800,"station_id":"","pricing_plan_id":"cebpf4jnsgd1na2vs0mg"},{"bike_id":"71da8860-67fd-467d-ab47-bcfee6c132db","system_id":"levelo_inurba_marseille","lat":43.27372,"lon":5.36262,"is_reserved":false,"is_disabled":false,"rental_uris":{"android":"levelo://app?vid=71da8860-67fd-467d-ab47-bcfee6c132db","ios":"levelo://app?vid=71da8860-67fd-467d-ab47-bcfee6c132db"},"vehicle_type_id":"4","last_reported":1769281757,"current_range_meters":8800,"station_id":"ce4bhbh2rcd13ifvqeo0","pricing_plan_id":"cebpf4jnsgd1na2vs0mg"},{"bike_id":"bad91b1d-a96f-4305-ad07-6c37e885ca70","system_id":"levelo_inurba_marseille","lat":43.23159,"lon":5.43715,"is_reserved":false,"is_disabled":false,"rental_uris":{"android":"levelo://app?vid=bad91b1d-a96f-4305-ad07-6c37e885ca70","ios":"levelo://app?vid=bad91b1d-a96f-4305-ad07-6c37e885ca70"},"vehicle_type_id":"4","last_reported":1769281757,"current_range_meters":8800,"station_id":"ce4bhmp2rcd13ifvqgog","pricing_plan_id":"cebpf4jnsgd1na2vs0mg"},{"bike_id":"07e64c0a-8153-47c6-83e2-2e049e2bc39b","system_id":"levelo_inurba_marseille","lat":43.31965,"lon":5.38152,"is_reserved":false,"is_disabled":false,"rental_uris":{"android":"levelo://app?vid=07e64c0a-8153-47c6-83e2-2e049e2bc39b","ios":"levelo://app?vid=07e64c0a-8153-47c6-83e2-2e049e2bc39b"},"vehicle_type_id":"4","last_reported":1769281757,"current_range_meters":8800,"station_id":"ce4bhr12rcd13ifvqhpg","pricing_plan_id":"cebpf4jnsgd1na2vs0mg"},{"bike_id":"acb7cfb5-c429-4bdf-a8aa-c19c7a57d3cf","system_id":"levelo_inurba_marseille","lat":43.23138,"lon":5.43712,"is_reserved":false,"is_disabled":false,"rental_uris":{"android":"levelo://app?vid=acb7cfb5-c429-4bdf-a8aa-c19c7a57d3cf","ios":"levelo://app?vid=acb7cfb5-c429-4bdf-a8aa-c19c7a57d3cf"},"vehicle_type_id":"4","last_reported":1769281757,"current_range_meters":8800,"station_id":"ce4bhmp2rcd13ifvqgog","pricing_plan_id":"cebpf4jnsgd1na2vs0mg"},{"bike_id":"c0bc2852-f707-4be0-bf2e-f4824af48c53","system_id":"levelo_inurba_marseille","lat":43.23191,"lon":5.39981,"is_reserved":false,"is_disabled":false,"rental_uris":{"android":"levelo://app?vid=c0bc2852-f707-4be0-bf2e-f4824af48c53","ios":"levelo://app?vid=c0bc2852-f707-4be0-bf2e-f4824af48c53"},"vehicle_type_id":"4","last_reported":1769281757,"current_range_meters":9200,"station_id":"ce4bhn12rcd13ifvqgqg","pricing_plan_id":"cebpf4jnsgd1na2vs0mg"},{"bike_id":"bfad4fe9-de3e-43c4-a41e-9324488c84ff","system_id":"levelo_inurba_marseille","lat":43.24804,"lon":5.40132,"is_reserved":false,"is_disabled":false,"rental_uris":{"android":"levelo://app?vid=bfad4fe9-de3e-43c4-a41e-9324488c84ff","ios":"levelo://app?vid=bfad4fe9-de3e-43c4-a41e-9324488c84ff"},"vehicle_type_id":"4","last_reported":1769281757,"current_range_meters":9200,"station_id":"","pricing_plan_id":"cebpf4jnsgd1na2vs0mg"},{"bike_id":"d23a99a3-e7b4-4b17-9ce7-d45cbdf6db89","system_id":"levelo_inurba_marseille","lat":43.32897,"lon":5.36697,"is_reserved":false,"is_disabled":false,"rental_uris":{"android":"levelo://app?vid=d23a99a3-e7b4-4b17-9ce7-d45cbdf6db89","ios":"levelo://app?vid=d23a99a3-e7b4-4b17-9ce7-d45cbdf6db89"},"vehicle_type_id":"4","last_reported":1769281757,"current_range_meters":9200,"station_id":"","pricing_plan_id":"cebpf4jnsgd1na2vs0mg"},{"bike_id":"7d0461be-78f7-48f2-819c-69235bf9b7f1","system_id":"levelo_inurba_marseille","lat":43.29139,"lon":5.40798,"is_reserved":false,"is_disabled":false,"rental_uris":{"android":"levelo://app?vid=7d0461be-78f7-48f2-819c-69235bf9b7f1","ios":"levelo://app?vid=7d0461be-78f7-48f2-819c-69235bf9b7f1"},"vehicle_type_id":"4","last_reported":1769281757,"current_range_meters":9200,"station_id":"","pricing_plan_id":"cebpf4jnsgd1na2vs0mg"},{"bike_id":"943d758d-a5d9-442d-9ffc-241d0b55ecb3","system_id":"levelo_inurba_marseille","lat":43.30731,"lon":5.42434,"is_reserved":false,"is_disabled":false,"rental_uris":{"android":"levelo://app?vid=943d758d-a5d9-442d-9ffc-241d0b55ecb3","ios":"levelo://app?vid=943d758d-a5d9-442d-9ffc-241d0b55ecb3"},"vehicle_type_id":"4","last_reported":1769281757,"current_range_meters":9200,"station_id":"st_cvj6ca6bvosntc0bfgr0","pricing_plan_id":"cebpf4jnsgd1na2vs0mg"},{"bike_id":"a0465d4f-9ced-4178-ad4c-29e5c29e87ff","system_id":"levelo_inurba_marseille","lat":43.28459,"lon":5.48402,"is_reserved":false,"is_disabled":false,"rental_uris":{"android":"levelo://app?vid=a0465d4f-9ced-4178-ad4c-29e5c29e87ff","ios":"levelo://app?vid=a0465d4f-9ced-4178-ad4c-29e5c29e87ff"},"vehicle_type_id":"4","last_reported":1769281757,"current_range_meters":9200,"station_id":"","pricing_plan_id":"cebpf4jnsgd1na2vs0mg"},{"bike_id":"de5dd849-e4b4-4886-8230-06f684e730a5","system_id":"levelo_inurba_marseille","lat":43.24173,"lon":5.39719,"is_reserved":false,"is_disabled":false,"rental_uris":{"android":"levelo://app?vid=de5dd849-e4b4-4886-8230-06f684e730a5","ios":"levelo://app?vid=de5dd849-e4b4-4886-8230-06f684e730a5"},"vehicle_type_id":"4","last_reported":1769281757,"current_range_meters":9200,"station_id":"ce4bhn12rcd13ifvqgpg","pricing_plan_id":"cebpf4jnsgd1na2vs0mg"},{"bike_id":"911f0371-0df0-45e8-a323-aedfe8ac7407","system_id":"levelo_inurba_marseille","lat":43.3317,"lon":5.37693,"is_reserved":false,"is_disabled":false,"rental_uris":{"android":"levelo://app?vid=911f0371-0df0-45e8-a323-aedfe8ac7407","ios":"levelo://app?vid=911f0371-0df0-45e8-a323-aedfe8ac7407"},"vehicle_type_id":"4","last_reported":1769281757,"current_range_meters":9200,"station_id":"st_d46cu089ee8s73dldbu0","pricing_plan_id":"cebpf4jnsgd1na2vs0mg"},{"bike_id":"9313abb2-b4dd-4478-8ad1-082ec047c3ed","system_id":"levelo_inurba_marseille","lat":43.26538,"lon":5.37275,"is_reserved":false,"is_disabled":false,"rental_uris":{"android":"levelo://app?vid=9313abb2-b4dd-4478-8ad1-082ec047c3ed","ios":"levelo://app?vid=9313abb2-b4dd-4478-8ad1-082ec047c3ed"},"vehicle_type_id":"4","last_reported":1769281757,"current_range_meters":9200,"station_id":"ce4bhg12rcd13ifvqf70","pricing_plan_id":"cebpf4jnsgd1na2vs0mg"},{"bike_id":"abc3a781-f3d6-481a-9f61-a5b4b605dfec","system_id":"levelo_inurba_marseille","lat":43.32366,"lon":5.36713,"is_reserved":false,"is_disabled":false,"rental_uris":{"android":"levelo://app?vid=abc3a781-f3d6-481a-9f61-a5b4b605dfec","ios":"levelo://app?vid=abc3a781-f3d6-481a-9f61-a5b4b605dfec"},"vehicle_type_id":"4","last_reported":1769281757,"current_range_meters":9200,"station_id":"","pricing_plan_id":"cebpf4jnsgd1na2vs0mg"},{"bike_id":"6c29796b-91a7-4fca-91ba-1f981077ace9","system_id":"levelo_inurba_marseille","lat":43.23152,"lon":5.43693,"is_reserved":false,"is_disabled":false,"rental_uris":{"android":"levelo://app?vid=6c29796b-91a7-4fca-91ba-1f981077ace9","ios":"levelo://app?vid=6c29796b-91a7-4fca-91ba-1f981077ace9"},"vehicle_type_id":"4","last_reported":1769281757,"current_range_meters":9200,"station_id":"ce4bhmp2rcd13ifvqgog","pricing_plan_id":"cebpf4jnsgd1na2vs0mg"},{"bike_id":"c5e8c251-7672-4b82-9ddd-b6ed033d1bea","system_id":"levelo_inurba_marseille","lat":43.26941,"lon":5.40253,"is_reserved":false,"is_disabled":false,"rental_uris":{"android":"levelo://app?vid=c5e8c251-7672-4b82-9ddd-b6ed033d1bea","ios":"levelo://app?vid=c5e8c251-7672-4b82-9ddd-b6ed033d1bea"},"vehicle_type_id":"4","last_reported":1769281757,"current_range_meters":9200,"station_id":"cjm6bp8fraef2m0cb0m0","pricing_plan_id":"cebpf4jnsgd1na2vs0mg"},{"bike_id":"b63362d9-5612-4ee2-9f31-83089fb30059","system_id":"levelo_inurba_marseille","lat":43.29989,"lon":5.37175,"is_reserved":false,"is_disabled":false,"rental_uris":{"android":"levelo://app?vid=b63362d9-5612-4ee2-9f31-83089fb30059","ios":"levelo://app?vid=b63362d9-5612-4ee2-9f31-83089fb30059"},"vehicle_type_id":"4","last_reported":1769281757,"current_range_meters":9200,"station_id":"ce4bgr92rcd13ifvqc7g","pricing_plan_id":"cebpf4jnsgd1na2vs0mg"},{"bike_id":"e0a72dfd-c8d3-4f9a-9afc-65fc0c09be26","system_id":"levelo_inurba_marseille","lat":43.26061,"lon":5.39385,"is_reserved":false,"is_disabled":false,"rental_uris":{"android":"levelo://app?vid=e0a72dfd-c8d3-4f9a-9afc-65fc0c09be26","ios":"levelo://app?vid=e0a72dfd-c8d3-4f9a-9afc-65fc0c09be26"},"vehicle_type_id":"4","last_reported":1769281757,"current_range_meters":9200,"station_id":"ce4bhh92rcd13ifvqfj0","pricing_plan_id":"cebpf4jnsgd1na2vs0mg"},{"bike_id":"d0af4d20-3c48-4668-9aff-200f42b9cf6d","system_id":"levelo_inurba_marseille","lat":43.28985,"lon":5.37226,"is_reserved":false,"is_disabled":false,"rental_uris":{"android":"levelo://app?vid=d0af4d20-3c48-4668-9aff-200f42b9cf6d","ios":"levelo://app?vid=d0af4d20-3c48-4668-9aff-200f42b9cf6d"},"vehicle_type_id":"4","last_reported":1769281757,"current_range_meters":9600,"station_id":"","pricing_plan_id":"cebpf4jnsgd1na2vs0mg"},{"bike_id":"f9d8313d-bb4d-4428-b469-f4ffc1309d87","system_id":"levelo_inurba_marseille","lat":43.29965,"lon":5.38489,"is_reserved":false,"is_disabled":false,"rental_uris":{"android":"levelo://app?vid=f9d8313d-bb4d-4428-b469-f4ffc1309d87","ios":"levelo://app?vid=f9d8313d-bb4d-4428-b469-f4ffc1309d87"},"vehicle_type_id":"4","last_reported":1769281757,"current_range_meters":9600,"station_id":"ce4bgj92rcd13ifvqbd0","pricing_plan_id":"cebpf4jnsgd1na2vs0mg"},{"bike_id":"52ddcb57-474d-4a7a-88a9-256796aedc84","system_id":"levelo_inurba_marseille","lat":43.27332,"lon":5.39108,"is_reserved":false,"is_disabled":false,"rental_uris":{"android":"levelo://app?vid=52ddcb57-474d-4a7a-88a9-256796aedc84","ios":"levelo://app?vid=52ddcb57-474d-4a7a-88a9-256796aedc84"},"vehicle_type_id":"4","last_reported":1769281757,"current_range_meters":9600,"station_id":"ce4bhgp2rcd13ifvqfe0","pricing_plan_id":"cebpf4jnsgd1na2vs0mg"},{"bike_id":"f7871c9a-41ca-46a0-b28f-114e4cd8fd3f","system_id":"levelo_inurba_marseille","lat":43.29266,"lon":5.3771,"is_reserved":false,"is_disabled":false,"rental_uris":{"android":"levelo://app?vid=f7871c9a-41ca-46a0-b28f-114e4cd8fd3f","ios":"levelo://app?vid=f7871c9a-41ca-46a0-b28f-114e4cd8fd3f"},"vehicle_type_id":"4","last_reported":1769281757,"current_range_meters":9600,"station_id":"","pricing_plan_id":"cebpf4jnsgd1na2vs0mg"},{"bike_id":"e959911e-39b6-4aef-9393-4a25cfa3f98f","system_id":"levelo_inurba_marseille","lat":43.25506,"lon":5.37654,"is_reserved":false,"is_disabled":false,"rental_uris":{"android":"levelo://app?vid=e959911e-39b6-4aef-9393-4a25cfa3f98f","ios":"levelo://app?vid=e959911e-39b6-4aef-9393-4a25cfa3f98f"},"vehicle_type_id":"4","last_reported":1769281757,"current_range_meters":9600,"station_id":"ce4bhh12rcd13ifvqff0","pricing_plan_id":"cebpf4jnsgd1na2vs0mg"},{"bike_id":"77a8d6f7-8520-4e5a-a0e7-89573d4a6a77","system_id":"levelo_inurba_marseille","lat":43.23794,"lon":5.36619,"is_reserved":false,"is_disabled":false,"rental_uris":{"android":"levelo://app?vid=77a8d6f7-8520-4e5a-a0e7-89573d4a6a77","ios":"levelo://app?vid=77a8d6f7-8520-4e5a-a0e7-89573d4a6a77"},"vehicle_type_id":"4","last_reported":1769281757,"current_range_meters":9600,"station_id":"st_d3nk18o9ro0c73en2l3g","pricing_plan_id":"cebpf4jnsgd1na2vs0mg"},{"bike_id":"50032767-8484-4cbc-98a8-809f5b4fe8e9","system_id":"levelo_inurba_marseille","lat":43.28868,"lon":5.42506,"is_reserved":false,"is_disabled":false,"rental_uris":{"android":"levelo://app?vid=50032767-8484-4cbc-98a8-809f5b4fe8e9","ios":"levelo://app?vid=50032767-8484-4cbc-98a8-809f5b4fe8e9"},"vehicle_type_id":"4","last_reported":1769281757,"current_range_meters":9600,"station_id":"st_d3b462108ojc7389ooeg","pricing_plan_id":"cebpf4jnsgd1na2vs0mg"},{"bike_id":"b18b7c7b-dbe2-44bf-813a-828aad8a41bb","system_id":"levelo_inurba_marseille","lat":43.28264,"lon":5.35042,"is_reserved":false,"is_disabled":false,"rental_uris":{"android":"levelo://app?vid=b18b7c7b-dbe2-44bf-813a-828aad8a41bb","ios":"levelo://app?vid=b18b7c7b-dbe2-44bf-813a-828aad8a41bb"},"vehicle_type_id":"4","last_reported":1769281757,"current_range_meters":9600,"station_id":"","pricing_plan_id":"cebpf4jnsgd1na2vs0mg"},{"bike_id":"5cfd7260-21a3-4346-b554-3744fc7c6072","system_id":"levelo_inurba_marseille","lat":43.29537,"lon":5.42273,"is_reserved":false,"is_disabled":false,"rental_uris":{"android":"levelo://app?vid=5cfd7260-21a3-4346-b554-3744fc7c6072","ios":"levelo://app?vid=5cfd7260-21a3-4346-b554-3744fc7c6072"},"vehicle_type_id":"4","last_reported":1769281757,"current_range_meters":9600,"station_id":"ce4bhph2rcd13ifvqhdg","pricing_plan_id":"cebpf4jnsgd1na2vs0mg"},{"bike_id":"9c5647cc-95ac-4ef3-b944-1d493bfd0c2c","system_id":"levelo_inurba_marseille","lat":43.290984,"lon":5.38132,"is_reserved":false,"is_disabled":false,"rental_uris":{"android":"levelo://app?vid=9c5647cc-95ac-4ef3-b944-1d493bfd0c2c","ios":"levelo://app?vid=9c5647cc-95ac-4ef3-b944-1d493bfd0c2c"},"vehicle_type_id":"4","last_reported":1769281757,"current_range_meters":9600,"station_id":"ce4bh512rcd13ifvqe2g","pricing_plan_id":"cebpf4jnsgd1na2vs0mg"},{"bike_id":"b3542536-97a8-459c-8c23-1c1cf6a8cd15","system_id":"levelo_inurba_marseille","lat":43.29515,"lon":5.37509,"is_reserved":false,"is_disabled":false,"rental_uris":{"android":"levelo://app?vid=b3542536-97a8-459c-8c23-1c1cf6a8cd15","ios":"levelo://app?vid=b3542536-97a8-459c-8c23-1c1cf6a8cd15"},"vehicle_type_id":"4","last_reported":1769281757,"current_range_meters":9600,"station_id":"ce4bgkp2rcd13ifvqbmg","pricing_plan_id":"cebpf4jnsgd1na2vs0mg"},{"bike_id":"3acd5e62-3c65-4415-bcb0-7f611786b59c","system_id":"levelo_inurba_marseille","lat":43.27378,"lon":5.36253,"is_reserved":false,"is_disabled":false,"rental_uris":{"android":"levelo://app?vid=3acd5e62-3c65-4415-bcb0-7f611786b59c","ios":"levelo://app?vid=3acd5e62-3c65-4415-bcb0-7f611786b59c"},"vehicle_type_id":"4","last_reported":1769281757,"current_range_meters":9600,"station_id":"ce4bhbh2rcd13ifvqeo0","pricing_plan_id":"cebpf4jnsgd1na2vs0mg"},{"bike_id":"97b62b0f-2505-483f-8038-e4cb5090e5ba","system_id":"levelo_inurba_marseille","lat":43.31693,"lon":5.40443,"is_reserved":false,"is_disabled":false,"rental_uris":{"android":"levelo://app?vid=97b62b0f-2505-483f-8038-e4cb5090e5ba","ios":"levelo://app?vid=97b62b0f-2505-483f-8038-e4cb5090e5ba"},"vehicle_type_id":"4","last_reported":1769281757,"current_range_meters":9600,"station_id":"ce4bh012rcd13ifvqd00","pricing_plan_id":"cebpf4jnsgd1na2vs0mg"},{"bike_id":"cefc0408-08b4-45e0-8592-a44786197f49","system_id":"levelo_inurba_marseille","lat":43.2257,"lon":5.41635,"is_reserved":false,"is_disabled":false,"rental_uris":{"android":"levelo://app?vid=cefc0408-08b4-45e0-8592-a44786197f49","ios":"levelo://app?vid=cefc0408-08b4-45e0-8592-a44786197f49"},"vehicle_type_id":"4","last_reported":1769281757,"current_range_meters":9600,"station_id":"st_d2o4gvlbi1j2169b742g","pricing_plan_id":"cebpf4jnsgd1na2vs0mg"},{"bike_id":"d02c511b-155d-4f65-899f-1033a06b35f2","system_id":"levelo_inurba_marseille","lat":43.30547,"lon":5.36532,"is_reserved":false,"is_disabled":false,"rental_uris":{"android":"levelo://app?vid=d02c511b-155d-4f65-899f-1033a06b35f2","ios":"levelo://app?vid=d02c511b-155d-4f65-899f-1033a06b35f2"},"vehicle_type_id":"4","last_reported":1769281757,"current_range_meters":9600,"station_id":"ce4bgs12rcd13ifvqcag","pricing_plan_id":"cebpf4jnsgd1na2vs0mg"},{"bike_id":"857024a2-b8bf-41e1-bec2-9e4e60b79c0e","system_id":"levelo_inurba_marseille","lat":43.295287,"lon":5.375111,"is_reserved":false,"is_disabled":false,"rental_uris":{"android":"levelo://app?vid=857024a2-b8bf-41e1-bec2-9e4e60b79c0e","ios":"levelo://app?vid=857024a2-b8bf-41e1-bec2-9e4e60b79c0e"},"vehicle_type_id":"4","last_reported":1769281757,"current_range_meters":9600,"station_id":"ce4bgkp2rcd13ifvqbmg","pricing_plan_id":"cebpf4jnsgd1na2vs0mg"},{"bike_id":"a0c33308-b90a-484c-a006-c19b20a52375","system_id":"levelo_inurba_marseille","lat":43.26228,"lon":5.40447,"is_reserved":false,"is_disabled":false,"rental_uris":{"android":"levelo://app?vid=a0c33308-b90a-484c-a006-c19b20a52375","ios":"levelo://app?vid=a0c33308-b90a-484c-a006-c19b20a52375"},"vehicle_type_id":"4","last_reported":1769281757,"current_range_meters":9600,"station_id":"ce4bhmh2rcd13ifvqgmg","pricing_plan_id":"cebpf4jnsgd1na2vs0mg"},{"bike_id":"9536a92a-01ab-4017-8488-26a8fa6880af","system_id":"levelo_inurba_marseille","lat":43.2598,"lon":5.40885,"is_reserved":false,"is_disabled":false,"rental_uris":{"android":"levelo://app?vid=9536a92a-01ab-4017-8488-26a8fa6880af","ios":"levelo://app?vid=9536a92a-01ab-4017-8488-26a8fa6880af"},"vehicle_type_id":"4","last_reported":1769281757,"current_range_meters":9600,"station_id":"","pricing_plan_id":"cebpf4jnsgd1na2vs0mg"},{"bike_id":"c1eb6e5d-e603-4baf-9e1a-9451b46aa176","system_id":"levelo_inurba_marseille","lat":43.299374,"lon":5.365471,"is_reserved":false,"is_disabled":false,"rental_uris":{"android":"levelo://app?vid=c1eb6e5d-e603-4baf-9e1a-9451b46aa176","ios":"levelo://app?vid=c1eb6e5d-e603-4baf-9e1a-9451b46aa176"},"vehicle_type_id":"4","last_reported":1769281757,"current_range_meters":9600,"station_id":"ce4bgm92rcd13ifvqbr0","pricing_plan_id":"cebpf4jnsgd1na2vs0mg"},{"bike_id":"202f1104-5acd-4ad3-972a-1bdbd896c535","system_id":"levelo_inurba_marseille","lat":43.32356,"lon":5.3675,"is_reserved":false,"is_disabled":false,"rental_uris":{"android":"levelo://app?vid=202f1104-5acd-4ad3-972a-1bdbd896c535","ios":"levelo://app?vid=202f1104-5acd-4ad3-972a-1bdbd896c535"},"vehicle_type_id":"4","last_reported":1769281757,"current_range_meters":9600,"station_id":"ce4bhsh2rcd13ifvqi2g","pricing_plan_id":"cebpf4jnsgd1na2vs0mg"},{"bike_id":"2183c868-18bc-43ee-94a6-b4cdb3d84f43","system_id":"levelo_inurba_marseille","lat":43.29025,"lon":5.38139,"is_reserved":false,"is_disabled":true,"rental_uris":{"android":"levelo://app?vid=2183c868-18bc-43ee-94a6-b4cdb3d84f43","ios":"levelo://app?vid=2183c868-18bc-43ee-94a6-b4cdb3d84f43"},"vehicle_type_id":"4","last_reported":1769281757,"current_range_meters":9600,"station_id":"ce4bh4p2rcd13ifvqe1g","pricing_plan_id":"cebpf4jnsgd1na2vs0mg"},{"bike_id":"ad50f9ab-2ec1-4d25-b540-dc86a023b91f","system_id":"levelo_inurba_marseille","lat":43.293524,"lon":5.40284,"is_reserved":false,"is_disabled":false,"rental_uris":{"android":"levelo://app?vid=ad50f9ab-2ec1-4d25-b540-dc86a023b91f","ios":"levelo://app?vid=ad50f9ab-2ec1-4d25-b540-dc86a023b91f"},"vehicle_type_id":"4","last_reported":1769281757,"current_range_meters":9600,"station_id":"","pricing_plan_id":"cebpf4jnsgd1na2vs0mg"},{"bike_id":"99bc9e46-2a2d-4354-b606-97e38b1b91d7","system_id":"levelo_inurba_marseille","lat":43.23915,"lon":5.37592,"is_reserved":false,"is_disabled":false,"rental_uris":{"android":"levelo://app?vid=99bc9e46-2a2d-4354-b606-97e38b1b91d7","ios":"levelo://app?vid=99bc9e46-2a2d-4354-b606-97e38b1b91d7"},"vehicle_type_id":"4","last_reported":1769281757,"current_range_meters":9600,"station_id":"","pricing_plan_id":"cebpf4jnsgd1na2vs0mg"},{"bike_id":"a646072a-fa73-4383-afeb-7969ad030c56","system_id":"levelo_inurba_marseille","lat":43.30159,"lon":5.38096,"is_reserved":false,"is_disabled":true,"rental_uris":{"android":"levelo://app?vid=a646072a-fa73-4383-afeb-7969ad030c56","ios":"levelo://app?vid=a646072a-fa73-4383-afeb-7969ad030c56"},"vehicle_type_id":"4","last_reported":1769281757,"current_range_meters":10000,"station_id":"ce4bgjp2rcd13ifvqbh0","pricing_plan_id":"cebpf4jnsgd1na2vs0mg"},{"bike_id":"965df6b7-673a-4e5d-9ee5-eda9741e28cb","system_id":"levelo_inurba_marseille","lat":43.303,"lon":5.36897,"is_reserved":false,"is_disabled":false,"rental_uris":{"android":"levelo://app?vid=965df6b7-673a-4e5d-9ee5-eda9741e28cb","ios":"levelo://app?vid=965df6b7-673a-4e5d-9ee5-eda9741e28cb"},"vehicle_type_id":"4","last_reported":1769281757,"current_range_meters":10000,"station_id":"ce4bgqh2rcd13ifvqc5g","pricing_plan_id":"cebpf4jnsgd1na2vs0mg"},{"bike_id":"de6516f2-4721-4f5c-a175-d199fc08e695","system_id":"levelo_inurba_marseille","lat":43.23202,"lon":5.39994,"is_reserved":false,"is_disabled":false,"rental_uris":{"android":"levelo://app?vid=de6516f2-4721-4f5c-a175-d199fc08e695","ios":"levelo://app?vid=de6516f2-4721-4f5c-a175-d199fc08e695"},"vehicle_type_id":"4","last_reported":1769281757,"current_range_meters":10000,"station_id":"ce4bhn12rcd13ifvqgqg","pricing_plan_id":"cebpf4jnsgd1na2vs0mg"},{"bike_id":"1beef04b-4086-4fc6-b6f2-b17b1d293024","system_id":"levelo_inurba_marseille","lat":43.296206,"lon":5.377134,"is_reserved":false,"is_disabled":false,"rental_uris":{"android":"levelo://app?vid=1beef04b-4086-4fc6-b6f2-b17b1d293024","ios":"levelo://app?vid=1beef04b-4086-4fc6-b6f2-b17b1d293024"},"vehicle_type_id":"4","last_reported":1769281757,"current_range_meters":10000,"station_id":"ce4bgi92rcd13ifvqb90","pricing_plan_id":"cebpf4jnsgd1na2vs0mg"},{"bike_id":"0c16fd9f-27e4-4df5-a3f5-66328c64053c","system_id":"levelo_inurba_marseille","lat":43.29939,"lon":5.3747,"is_reserved":false,"is_disabled":false,"rental_uris":{"android":"levelo://app?vid=0c16fd9f-27e4-4df5-a3f5-66328c64053c","ios":"levelo://app?vid=0c16fd9f-27e4-4df5-a3f5-66328c64053c"},"vehicle_type_id":"4","last_reported":1769281757,"current_range_meters":10000,"station_id":"ce4bgjh2rcd13ifvqbg0","pricing_plan_id":"cebpf4jnsgd1na2vs0mg"},{"bike_id":"55313c3a-9d21-4013-8636-b70e1d8d8cb4","system_id":"levelo_inurba_marseille","lat":43.29038,"lon":5.38652,"is_reserved":false,"is_disabled":false,"rental_uris":{"android":"levelo://app?vid=55313c3a-9d21-4013-8636-b70e1d8d8cb4","ios":"levelo://app?vid=55313c3a-9d21-4013-8636-b70e1d8d8cb4"},"vehicle_type_id":"4","last_reported":1769281757,"current_range_meters":10000,"station_id":"","pricing_plan_id":"cebpf4jnsgd1na2vs0mg"},{"bike_id":"6eeab53c-5023-45f0-9519-102acd601982","system_id":"levelo_inurba_marseille","lat":43.29296,"lon":5.37474,"is_reserved":false,"is_disabled":false,"rental_uris":{"android":"levelo://app?vid=6eeab53c-5023-45f0-9519-102acd601982","ios":"levelo://app?vid=6eeab53c-5023-45f0-9519-102acd601982"},"vehicle_type_id":"4","last_reported":1769281757,"current_range_meters":10000,"station_id":"ce4bgi12rcd13ifvqb70","pricing_plan_id":"cebpf4jnsgd1na2vs0mg"},{"bike_id":"4c16315d-3623-4dc0-ae78-aac444b016b0","system_id":"levelo_inurba_marseille","lat":43.29979,"lon":5.38482,"is_reserved":false,"is_disabled":false,"rental_uris":{"android":"levelo://app?vid=4c16315d-3623-4dc0-ae78-aac444b016b0","ios":"levelo://app?vid=4c16315d-3623-4dc0-ae78-aac444b016b0"},"vehicle_type_id":"4","last_reported":1769281757,"current_range_meters":10000,"station_id":"ce4bgj92rcd13ifvqbd0","pricing_plan_id":"cebpf4jnsgd1na2vs0mg"},{"bike_id":"0c11bc30-1254-4e35-b530-31f7fd6a4b39","system_id":"levelo_inurba_marseille","lat":43.29996,"lon":5.37366,"is_reserved":false,"is_disabled":false,"rental_uris":{"android":"levelo://app?vid=0c11bc30-1254-4e35-b530-31f7fd6a4b39","ios":"levelo://app?vid=0c11bc30-1254-4e35-b530-31f7fd6a4b39"},"vehicle_type_id":"4","last_reported":1769281757,"current_range_meters":10000,"station_id":"","pricing_plan_id":"cebpf4jnsgd1na2vs0mg"},{"bike_id":"23e8e2b5-e425-472a-bc08-b0b79ef75ac3","system_id":"levelo_inurba_marseille","lat":43.285459,"lon":5.440934,"is_reserved":false,"is_disabled":false,"rental_uris":{"android":"levelo://app?vid=23e8e2b5-e425-472a-bc08-b0b79ef75ac3","ios":"levelo://app?vid=23e8e2b5-e425-472a-bc08-b0b79ef75ac3"},"vehicle_type_id":"4","last_reported":1769281757,"current_range_meters":10000,"station_id":"st_d3j3df2ikq2c7380ej80","pricing_plan_id":"cebpf4jnsgd1na2vs0mg"},{"bike_id":"5dfc7d33-8364-45f9-863b-4d733de72506","system_id":"levelo_inurba_marseille","lat":43.30195,"lon":5.36623,"is_reserved":false,"is_disabled":false,"rental_uris":{"android":"levelo://app?vid=5dfc7d33-8364-45f9-863b-4d733de72506","ios":"levelo://app?vid=5dfc7d33-8364-45f9-863b-4d733de72506"},"vehicle_type_id":"4","last_reported":1769281757,"current_range_meters":10000,"station_id":"ce4bgrh2rcd13ifvqc8g","pricing_plan_id":"cebpf4jnsgd1na2vs0mg"},{"bike_id":"ba275051-9e15-4ea0-a6e1-ba5eb68c57b0","system_id":"levelo_inurba_marseille","lat":43.29594,"lon":5.36746,"is_reserved":false,"is_disabled":false,"rental_uris":{"android":"levelo://app?vid=ba275051-9e15-4ea0-a6e1-ba5eb68c57b0","ios":"levelo://app?vid=ba275051-9e15-4ea0-a6e1-ba5eb68c57b0"},"vehicle_type_id":"4","last_reported":1769281757,"current_range_meters":10000,"station_id":"ce4bgph2rcd13ifvqc2g","pricing_plan_id":"cebpf4jnsgd1na2vs0mg"},{"bike_id":"9977534e-f668-425c-9dff-b483bdc42fdf","system_id":"levelo_inurba_marseille","lat":43.26933,"lon":5.40259,"is_reserved":false,"is_disabled":false,"rental_uris":{"android":"levelo://app?vid=9977534e-f668-425c-9dff-b483bdc42fdf","ios":"levelo://app?vid=9977534e-f668-425c-9dff-b483bdc42fdf"},"vehicle_type_id":"4","last_reported":1769281757,"current_range_meters":10000,"station_id":"cjm6bp8fraef2m0cb0m0","pricing_plan_id":"cebpf4jnsgd1na2vs0mg"},{"bike_id":"e19418ad-aa76-4b1d-a53d-977a549e82e9","system_id":"levelo_inurba_marseille","lat":43.23188,"lon":5.35557,"is_reserved":false,"is_disabled":false,"rental_uris":{"android":"levelo://app?vid=e19418ad-aa76-4b1d-a53d-977a549e82e9","ios":"levelo://app?vid=e19418ad-aa76-4b1d-a53d-977a549e82e9"},