{"last_updated":1750461060,"ttl":60,"version":"2.2","data":{"bikes":[{"bike_id":"3da29fb8-fc97-44c6-b9ac-31dd456b2fd4","system_id":"levelo_inurba_marseille","lat":43.33771,"lon":5.37424,"is_reserved":false,"is_disabled":true,"rental_uris":{"android":"levelo://app?vid=3da29fb8-fc97-44c6-b9ac-31dd456b2fd4","ios":"levelo://app?vid=3da29fb8-fc97-44c6-b9ac-31dd456b2fd4"},"vehicle_type_id":"4","last_reported":1750461060,"current_range_meters":0,"station_id":"","pricing_plan_id":"cebpf4jnsgd1na2vs0mg"},{"bike_id":"01861ad8-a8d7-4be6-816e-651927c87584","system_id":"levelo_inurba_marseille","lat":43.33751,"lon":5.37456,"is_reserved":false,"is_disabled":true,"rental_uris":{"android":"levelo://app?vid=01861ad8-a8d7-4be6-816e-651927c87584","ios":"levelo://app?vid=01861ad8-a8d7-4be6-816e-651927c87584"},"vehicle_type_id":"4","last_reported":1750461060,"current_range_meters":0,"station_id":"","pricing_plan_id":"cebpf4jnsgd1na2vs0mg"},{"bike_id":"7bcccf35-e344-4f00-9a7f-199c76d3c58d","system_id":"levelo_inurba_marseille","lat":43.2917,"lon":5.41612,"is_reserved":false,"is_disabled":true,"rental_uris":{"android":"levelo://app?vid=7bcccf35-e344-4f00-9a7f-199c76d3c58d","ios":"levelo://app?vid=7bcccf35-e344-4f00-9a7f-199c76d3c58d"},"vehicle_type_id":"4","last_reported":1750461060,"current_range_meters":0,"station_id":"","pricing_plan_id":"cebpf4jnsgd1na2vs0mg"},{"bike_id":"d2bd57c8-6b64-48db-ad24-5398eb3fd9d6","system_id":"levelo_inurba_marseille","lat":43.337444,"lon":5.374475,"is_reserved":false,"is_disabled":true,"rental_uris":{"android":"levelo://app?vid=d2bd57c8-6b64-48db-ad24-5398eb3fd9d6","ios":"levelo://app?vid=d2bd57c8-6b64-48db-ad24-5398eb3fd9d6"},"vehicle_type_id":"4","last_reported":1750461060,"current_range_meters":0,"station_id":"","pricing_plan_id":"cebpf4jnsgd1na2vs0mg"},{"bike_id":"62a493c7-4534-4419-ad43-0582de34a72a","system_id":"levelo_inurba_marseille","lat":43.21366,"lon":5.355183,"is_reserved":false,"is_disabled":true,"rental_uris":{"android":"levelo://app?vid=62a493c7-4534-4419-ad43-0582de34a72a","ios":"levelo://app?vid=62a493c7-4534-4419-ad43-0582de34a72a"},"vehicle_type_id":"4","last_reported":1750461060,"current_range_meters":0,"station_id":"","pricing_plan_id":"cebpf4jnsgd1na2vs0mg"},{"bike_id":"d5a1ae9e-4421-4539-b5ac-98a00695a8d8","system_id":"levelo_inurba_marseille","lat":43.33411,"lon":5.40047,"is_reserved":false,"is_disabled":true,"rental_uris":{"android":"levelo://app?vid=d5a1ae9e-4421-4539-b5ac-98a00695a8d8","ios":"levelo://app?vid=d5a1ae9e-4421-4539-b5ac-98a00695a8d8"},"vehicle_type_id":"4","last_reported":1750461060,"current_range_meters":0,"station_id":"","pricing_plan_id":"cebpf4jnsgd1na2vs0mg"},{"bike_id":"d6609b4f-333b-43c1-9ebe-8726f5e76e88","system_id":"levelo_inurba_marseille","lat":43.337444,"lon":5.374475,"is_reserved":false,"is_disabled":true,"rental_uris":{"android":"levelo://app?vid=d6609b4f-333b-43c1-9ebe-8726f5e76e88","ios":"levelo://app?vid=d6609b4f-333b-43c1-9ebe-8726f5e76e88"},"vehicle_type_id":"4","last_reported":1750461060,"current_range_meters":0,"station_id":"","pricing_plan_id":"cebpf4jnsgd1na2vs0mg"},{"bike_id":"11e13553-c475-421d-a348-bac5f0dccdd0","system_id":"levelo_inurba_marseille","lat":43.27318,"lon":5.39956,"is_reserved":false,"is_disabled":true,"rental_uris":{"android":"levelo://app?vid=11e13553-c475-421d-a348-bac5f0dccdd0","ios":"levelo://app?vid=11e13553-c475-421d-a348-bac5f0dccdd0"},"vehicle_type_id":"4","last_reported":1750461060,"current_range_meters":0,"station_id":"","pricing_plan_id":"cebpf4jnsgd1na2vs0mg"},{"bike_id":"38951df9-fd69-4963-8cb3-675f02d7f858","system_id":"levelo_inurba_marseille","lat":43.31351,"lon":5.38495,"is_reserved":false,"is_disabled":true,"rental_uris":{"android":"levelo://app?vid=38951df9-fd69-4963-8cb3-675f02d7f858","ios":"levelo://app?vid=38951df9-fd69-4963-8cb3-675f02d7f858"},"vehicle_type_id":"4","last_reported":1750461060,"current_range_meters":0,"station_id":"ce4bgt92rcd13ifvqcf0","pricing_plan_id":"cebpf4jnsgd1na2vs0mg"},{"bike_id":"251b444d-aec8-4cb1-9a8f-9469a416c046","system_id":"levelo_inurba_marseille","lat":43.2963,"lon":5.40549,"is_reserved":false,"is_disabled":true,"rental_uris":{"android":"levelo://app?vid=251b444d-aec8-4cb1-9a8f-9469a416c046","ios":"levelo://app?vid=251b444d-aec8-4cb1-9a8f-9469a416c046"},"vehicle_type_id":"4","last_reported":1750461060,"current_range_meters":0,"station_id":"ce4bh0h2rcd13ifvqd60","pricing_plan_id":"cebpf4jnsgd1na2vs0mg"},{"bike_id":"5d8050d9-eed8-403c-8a5c-4dd1fe00b582","system_id":"levelo_inurba_marseille","lat":43.28408,"lon":5.37514,"is_reserved":false,"is_disabled":true,"rental_uris":{"android":"levelo://app?vid=5d8050d9-eed8-403c-8a5c-4dd1fe00b582","ios":"levelo://app?vid=5d8050d9-eed8-403c-8a5c-4dd1fe00b582"},"vehicle_type_id":"4","last_reported":1750461060,"current_range_meters":0,"station_id":"ce4bh412rcd13ifvqds0","pricing_plan_id":"cebpf4jnsgd1na2vs0mg"},{"bike_id":"eb18a406-af9f-4376-b513-fb87e8a2ccf7","system_id":"levelo_inurba_marseille","lat":43.26553,"lon":5.37284,"is_reserved":false,"is_disabled":true,"rental_uris":{"android":"levelo://app?vid=eb18a406-af9f-4376-b513-fb87e8a2ccf7","ios":"levelo://app?vid=eb18a406-af9f-4376-b513-fb87e8a2ccf7"},"vehicle_type_id":"4","last_reported":1750461060,"current_range_meters":0,"station_id":"ce4bhg12rcd13ifvqf70","pricing_plan_id":"cebpf4jnsgd1na2vs0mg"},{"bike_id":"2be082ca-4467-48fd-b65c-3c02b405800f","system_id":"levelo_inurba_marseille","lat":43.231524,"lon":5.43704,"is_reserved":false,"is_disabled":true,"rental_uris":{"android":"levelo://app?vid=2be082ca-4467-48fd-b65c-3c02b405800f","ios":"levelo://app?vid=2be082ca-4467-48fd-b65c-3c02b405800f"},"vehicle_type_id":"4","last_reported":1750461060,"current_range_meters":0,"station_id":"ce4bhmp2rcd13ifvqgog","pricing_plan_id":"cebpf4jnsgd1na2vs0mg"},{"bike_id":"4cd8f26f-52e2-4b5f-b0e0-68446b94be9c","system_id":"levelo_inurba_marseille","lat":43.32353,"lon":5.38891,"is_reserved":false,"is_disabled":true,"rental_uris":{"android":"levelo://app?vid=4cd8f26f-52e2-4b5f-b0e0-68446b94be9c","ios":"levelo://app?vid=4cd8f26f-52e2-4b5f-b0e0-68446b94be9c"},"vehicle_type_id":"4","last_reported":1750461060,"current_range_meters":0,"station_id":"ce4bhqp2rcd13ifvqhog","pricing_plan_id":"cebpf4jnsgd1na2vs0mg"},{"bike_id":"24466bb8-ea46-418f-a473-cce465177766","system_id":"levelo_inurba_marseille","lat":43.21742,"lon":5.34603,"is_reserved":false,"is_disabled":true,"rental_uris":{"android":"levelo://app?vid=24466bb8-ea46-418f-a473-cce465177766","ios":"levelo://app?vid=24466bb8-ea46-418f-a473-cce465177766"},"vehicle_type_id":"4","last_reported":1750461060,"current_range_meters":0,"station_id":"st_cvj6r9ubvosntc0bgbag","pricing_plan_id":"cebpf4jnsgd1na2vs0mg"},{"bike_id":"bc6f1c15-61e2-49fa-a7cf-721b8d493c61","system_id":"levelo_inurba_marseille","lat":43.29854,"lon":5.39625,"is_reserved":false,"is_disabled":true,"rental_uris":{"android":"levelo://app?vid=bc6f1c15-61e2-49fa-a7cf-721b8d493c61","ios":"levelo://app?vid=bc6f1c15-61e2-49fa-a7cf-721b8d493c61"},"vehicle_type_id":"4","last_reported":1750461060,"current_range_meters":400,"station_id":"","pricing_plan_id":"cebpf4jnsgd1na2vs0mg"},{"bike_id":"59d3c5f7-4e64-4bfd-814e-b8e2c1a400a9","system_id":"levelo_inurba_marseille","lat":43.303891,"lon":5.378477,"is_reserved":false,"is_disabled":true,"rental_uris":{"android":"levelo://app?vid=59d3c5f7-4e64-4bfd-814e-b8e2c1a400a9","ios":"levelo://app?vid=59d3c5f7-4e64-4bfd-814e-b8e2c1a400a9"},"vehicle_type_id":"4","last_reported":1750461060,"current_range_meters":400,"station_id":"ce4bgup2rcd13ifvqcn0","pricing_plan_id":"cebpf4jnsgd1na2vs0mg"},{"bike_id":"f07f4ec4-6664-4588-9044-df82910aedb5","system_id":"levelo_inurba_marseille","lat":43.29536,"lon":5.3903,"is_reserved":false,"is_disabled":true,"rental_uris":{"android":"levelo://app?vid=f07f4ec4-6664-4588-9044-df82910aedb5","ios":"levelo://app?vid=f07f4ec4-6664-4588-9044-df82910aedb5"},"vehicle_type_id":"4","last_reported":1750461060,"current_range_meters":400,"station_id":"ce4bh3p2rcd13ifvqdp0","pricing_plan_id":"cebpf4jnsgd1na2vs0mg"},{"bike_id":"024f9b62-78cc-4448-848a-cc007192d57f","system_id":"levelo_inurba_marseille","lat":43.29224,"lon":5.36053,"is_reserved":false,"is_disabled":true,"rental_uris":{"android":"levelo://app?vid=024f9b62-78cc-4448-848a-cc007192d57f","ios":"levelo://app?vid=024f9b62-78cc-4448-848a-cc007192d57f"},"vehicle_type_id":"4","last_reported":1750461060,"current_range_meters":400,"station_id":"ce4bhbh2rcd13ifvqeqg","pricing_plan_id":"cebpf4jnsgd1na2vs0mg"},{"bike_id":"4c58745d-4efb-48fd-9895-1c2313acbe08","system_id":"levelo_inurba_marseille","lat":43.23194,"lon":5.35558,"is_reserved":false,"is_disabled":true,"rental_uris":{"android":"levelo://app?vid=4c58745d-4efb-48fd-9895-1c2313acbe08","ios":"levelo://app?vid=4c58745d-4efb-48fd-9895-1c2313acbe08"},"vehicle_type_id":"4","last_reported":1750461060,"current_range_meters":400,"station_id":"ce4bhu92rcd13ifvqi70","pricing_plan_id":"cebpf4jnsgd1na2vs0mg"},{"bike_id":"a6d1e93a-3edd-4277-bd21-09aaf4a3e320","system_id":"levelo_inurba_marseille","lat":43.31222,"lon":5.36874,"is_reserved":false,"is_disabled":true,"rental_uris":{"android":"levelo://app?vid=a6d1e93a-3edd-4277-bd21-09aaf4a3e320","ios":"levelo://app?vid=a6d1e93a-3edd-4277-bd21-09aaf4a3e320"},"vehicle_type_id":"4","last_reported":1750461060,"current_range_meters":1200,"station_id":"ce4bgl92rcd13ifvqbq0","pricing_plan_id":"cebpf4jnsgd1na2vs0mg"},{"bike_id":"e0660d31-18af-40f8-9dab-e41a1d28701a","system_id":"levelo_inurba_marseille","lat":43.28997,"lon":5.38149,"is_reserved":false,"is_disabled":true,"rental_uris":{"android":"levelo://app?vid=e0660d31-18af-40f8-9dab-e41a1d28701a","ios":"levelo://app?vid=e0660d31-18af-40f8-9dab-e41a1d28701a"},"vehicle_type_id":"4","last_reported":1750461060,"current_range_meters":1600,"station_id":"ce4bh4p2rcd13ifvqe1g","pricing_plan_id":"cebpf4jnsgd1na2vs0mg"},{"bike_id":"4f44c7ec-ec6e-4624-a2ee-37a964dcdafe","system_id":"levelo_inurba_marseille","lat":43.291976,"lon":5.358055,"is_reserved":false,"is_disabled":false,"rental_uris":{"android":"levelo://app?vid=4f44c7ec-ec6e-4624-a2ee-37a964dcdafe","ios":"levelo://app?vid=4f44c7ec-ec6e-4624-a2ee-37a964dcdafe"},"vehicle_type_id":"4","last_reported":1750461060,"current_range_meters":1600,"station_id":"ce4bhb12rcd13ifvqel0","pricing_plan_id":"cebpf4jnsgd1na2vs0mg"},{"bike_id":"635f773d-b08e-4401-b654-a59cdea688fa","system_id":"levelo_inurba_marseille","lat":43.262172,"lon":5.374229,"is_reserved":false,"is_disabled":true,"rental_uris":{"android":"levelo://app?vid=635f773d-b08e-4401-b654-a59cdea688fa","ios":"levelo://app?vid=635f773d-b08e-4401-b654-a59cdea688fa"},"vehicle_type_id":"4","last_reported":1750461060,"current_range_meters":1600,"station_id":"ce4bhqp2rcd13ifvqhog","pricing_plan_id":"cebpf4jnsgd1na2vs0mg"},{"bike_id":"1bad2ec8-b7ea-4ff7-97fd-e3798dfdbea3","system_id":"levelo_inurba_marseille","lat":43.30066,"lon":5.40122,"is_reserved":false,"is_disabled":true,"rental_uris":{"android":"levelo://app?vid=1bad2ec8-b7ea-4ff7-97fd-e3798dfdbea3","ios":"levelo://app?vid=1bad2ec8-b7ea-4ff7-97fd-e3798dfdbea3"},"vehicle_type_id":"4","last_reported":1750461060,"current_range_meters":2000,"station_id":"","pricing_plan_id":"cebpf4jnsgd1na2vs0mg"},{"bike_id":"a4f4f79e-872e-422f-8c85-10b7c1976fb3","system_id":"levelo_inurba_marseille","lat":43.31325,"lon":5.39701,"is_reserved":false,"is_disabled":true,"rental_uris":{"android":"levelo://app?vid=a4f4f79e-872e-422f-8c85-10b7c1976fb3","ios":"levelo://app?vid=a4f4f79e-872e-422f-8c85-10b7c1976fb3"},"vehicle_type_id":"4","last_reported":1750461060,"current_range_meters":2000,"station_id":"ce4bgvp2rcd13ifvqcu0","pricing_plan_id":"cebpf4jnsgd1na2vs0mg"},{"bike_id":"f6d13259-8db0-40b4-95b5-0066107be7e6","system_id":"levelo_inurba_marseille","lat":43.26022,"lon":5.37551,"is_reserved":false,"is_disabled":true,"rental_uris":{"android":"levelo://app?vid=f6d13259-8db0-40b4-95b5-0066107be7e6","ios":"levelo://app?vid=f6d13259-8db0-40b4-95b5-0066107be7e6"},"vehicle_type_id":"4","last_reported":1750461060,"current_range_meters":2000,"station_id":"ce4bhgh2rcd13ifvqfa0","pricing_plan_id":"cebpf4jnsgd1na2vs0mg"},{"bike_id":"abf546a5-efbd-401a-af13-59846dfc3897","system_id":"levelo_inurba_marseille","lat":43.23192,"lon":5.35554,"is_reserved":false,"is_disabled":true,"rental_uris":{"android":"levelo://app?vid=abf546a5-efbd-401a-af13-59846dfc3897","ios":"levelo://app?vid=abf546a5-efbd-401a-af13-59846dfc3897"},"vehicle_type_id":"4","last_reported":1750461060,"current_range_meters":2000,"station_id":"ce4bhu92rcd13ifvqi70","pricing_plan_id":"cebpf4jnsgd1na2vs0mg"},{"bike_id":"ac32accf-04a5-4b15-a8f3-27905ad5dec5","system_id":"levelo_inurba_marseille","lat":43.31692,"lon":5.40479,"is_reserved":false,"is_disabled":false,"rental_uris":{"android":"levelo://app?vid=ac32accf-04a5-4b15-a8f3-27905ad5dec5","ios":"levelo://app?vid=ac32accf-04a5-4b15-a8f3-27905ad5dec5"},"vehicle_type_id":"4","last_reported":1750461060,"current_range_meters":3200,"station_id":"ce4bh012rcd13ifvqd00","pricing_plan_id":"cebpf4jnsgd1na2vs0mg"},{"bike_id":"6f78c787-3b79-46f4-ac9f-41f876c81289","system_id":"levelo_inurba_marseille","lat":43.23194,"lon":5.35579,"is_reserved":false,"is_disabled":false,"rental_uris":{"android":"levelo://app?vid=6f78c787-3b79-46f4-ac9f-41f876c81289","ios":"levelo://app?vid=6f78c787-3b79-46f4-ac9f-41f876c81289"},"vehicle_type_id":"4","last_reported":1750461060,"current_range_meters":3200,"station_id":"ce4bhu92rcd13ifvqi70","pricing_plan_id":"cebpf4jnsgd1na2vs0mg"},{"bike_id":"0dedb6f6-6801-483b-bfb8-9cd4533d158f","system_id":"levelo_inurba_marseille","lat":43.31134,"lon":5.38087,"is_reserved":false,"is_disabled":false,"rental_uris":{"android":"levelo://app?vid=0dedb6f6-6801-483b-bfb8-9cd4533d158f","ios":"levelo://app?vid=0dedb6f6-6801-483b-bfb8-9cd4533d158f"},"vehicle_type_id":"4","last_reported":1750461060,"current_range_meters":4000,"station_id":"","pricing_plan_id":"cebpf4jnsgd1na2vs0mg"},{"bike_id":"2a2e1506-cb35-4c17-812f-806bbf686820","system_id":"levelo_inurba_marseille","lat":43.29147,"lon":5.3809,"is_reserved":false,"is_disabled":false,"rental_uris":{"android":"levelo://app?vid=2a2e1506-cb35-4c17-812f-806bbf686820","ios":"levelo://app?vid=2a2e1506-cb35-4c17-812f-806bbf686820"},"vehicle_type_id":"4","last_reported":1750461060,"current_range_meters":4400,"station_id":"","pricing_plan_id":"cebpf4jnsgd1na2vs0mg"},{"bike_id":"e025b8bc-60c0-4096-927c-7e100807de2b","system_id":"levelo_inurba_marseille","lat":43.3135,"lon":5.38494,"is_reserved":false,"is_disabled":false,"rental_uris":{"android":"levelo://app?vid=e025b8bc-60c0-4096-927c-7e100807de2b","ios":"levelo://app?vid=e025b8bc-60c0-4096-927c-7e100807de2b"},"vehicle_type_id":"4","last_reported":1750461060,"current_range_meters":4800,"station_id":"ce4bgt92rcd13ifvqcf0","pricing_plan_id":"cebpf4jnsgd1na2vs0mg"},{"bike_id":"619f8849-9932-49a9-b204-3ca7c8ba25c6","system_id":"levelo_inurba_marseille","lat":43.286094,"lon":5.370702,"is_reserved":false,"is_disabled":false,"rental_uris":{"android":"levelo://app?vid=619f8849-9932-49a9-b204-3ca7c8ba25c6","ios":"levelo://app?vid=619f8849-9932-49a9-b204-3ca7c8ba25c6"},"vehicle_type_id":"4","last_reported":1750461060,"current_range_meters":4800,"station_id":"ce4bht12rcd13ifvqi60","pricing_plan_id":"cebpf4jnsgd1na2vs0mg"},{"bike_id":"eb3b0e3c-6fdd-4bd5-9dad-7c0579a783c6","system_id":"levelo_inurba_marseille","lat":43.23063,"lon":5.35492,"is_reserved":false,"is_disabled":false,"rental_uris":{"android":"levelo://app?vid=eb3b0e3c-6fdd-4bd5-9dad-7c0579a783c6","ios":"levelo://app?vid=eb3b0e3c-6fdd-4bd5-9dad-7c0579a783c6"},"vehicle_type_id":"4","last_reported":1750461060,"current_range_meters":4800,"station_id":"cpo3342slgdg3j2ifvpg","pricing_plan_id":"cebpf4jnsgd1na2vs0mg"},{"bike_id":"23e8f71e-246f-4809-912f-3c0a7551fe7b","system_id":"levelo_inurba_marseille","lat":43.23179,"lon":5.39986,"is_reserved":false,"is_disabled":false,"rental_uris":{"android":"levelo://app?vid=23e8f71e-246f-4809-912f-3c0a7551fe7b","ios":"levelo://app?vid=23e8f71e-246f-4809-912f-3c0a7551fe7b"},"vehicle_type_id":"4","last_reported":1750461060,"current_range_meters":5600,"station_id":"ce4bhn12rcd13ifvqgqg","pricing_plan_id":"cebpf4jnsgd1na2vs0mg"},{"bike_id":"6e0f73fa-54ff-4a21-8c79-0424d59627dc","system_id":"levelo_inurba_marseille","lat":43.30606,"lon":5.37226,"is_reserved":false,"is_disabled":false,"rental_uris":{"android":"levelo://app?vid=6e0f73fa-54ff-4a21-8c79-0424d59627dc","ios":"levelo://app?vid=6e0f73fa-54ff-4a21-8c79-0424d59627dc"},"vehicle_type_id":"4","last_reported":1750461060,"current_range_meters":6000,"station_id":"ce4bgqh2rcd13ifvqc4g","pricing_plan_id":"cebpf4jnsgd1na2vs0mg"},{"bike_id":"1c61b3e6-2ec0-47ed-bbb1-4ae0980a4702","system_id":"levelo_inurba_marseille","lat":43.28032,"lon":5.36955,"is_reserved":false,"is_disabled":false,"rental_uris":{"android":"levelo://app?vid=1c61b3e6-2ec0-47ed-bbb1-4ae0980a4702","ios":"levelo://app?vid=1c61b3e6-2ec0-47ed-bbb1-4ae0980a4702"},"vehicle_type_id":"4","last_reported":1750461060,"current_range_meters":6000,"station_id":"ce4bha12rcd13ifvqef0","pricing_plan_id":"cebpf4jnsgd1na2vs0mg"},{"bike_id":"43b5c24a-cf48-4e6a-998a-a06d4e15ad9f","system_id":"levelo_inurba_marseille","lat":43.24069,"lon":5.37766,"is_reserved":false,"is_disabled":false,"rental_uris":{"android":"levelo://app?vid=43b5c24a-cf48-4e6a-998a-a06d4e15ad9f","ios":"levelo://app?vid=43b5c24a-cf48-4e6a-998a-a06d4e15ad9f"},"vehicle_type_id":"4","last_reported":1750461060,"current_range_meters":6000,"station_id":"ce4bhnp2rcd13ifvqgvg","pricing_plan_id":"cebpf4jnsgd1na2vs0mg"},{"bike_id":"3d9b0e2f-fd9d-433a-9469-26b505908e59","system_id":"levelo_inurba_marseille","lat":43.3373,"lon":5.3919,"is_reserved":false,"is_disabled":false,"rental_uris":{"android":"levelo://app?vid=3d9b0e2f-fd9d-433a-9469-26b505908e59","ios":"levelo://app?vid=3d9b0e2f-fd9d-433a-9469-26b505908e59"},"vehicle_type_id":"4","last_reported":1750461060,"current_range_meters":6000,"station_id":"ce4bhr92rcd13ifvqhsg","pricing_plan_id":"cebpf4jnsgd1na2vs0mg"},{"bike_id":"bc08236b-aee3-4667-894b-10390ffa0988","system_id":"levelo_inurba_marseille","lat":43.249268,"lon":5.374992,"is_reserved":false,"is_disabled":false,"rental_uris":{"android":"levelo://app?vid=bc08236b-aee3-4667-894b-10390ffa0988","ios":"levelo://app?vid=bc08236b-aee3-4667-894b-10390ffa0988"},"vehicle_type_id":"4","last_reported":1750461060,"current_range_meters":6000,"station_id":"cpo3342slgdg3j2ifvpg","pricing_plan_id":"cebpf4jnsgd1na2vs0mg"},{"bike_id":"39203339-2437-4778-9e52-2ae773407bf9","system_id":"levelo_inurba_marseille","lat":43.31222,"lon":5.36857,"is_reserved":false,"is_disabled":false,"rental_uris":{"android":"levelo://app?vid=39203339-2437-4778-9e52-2ae773407bf9","ios":"levelo://app?vid=39203339-2437-4778-9e52-2ae773407bf9"},"vehicle_type_id":"4","last_reported":1750461060,"current_range_meters":6400,"station_id":"ce4bgl92rcd13ifvqbq0","pricing_plan_id":"cebpf4jnsgd1na2vs0mg"},{"bike_id":"b2bbca89-da91-4e29-bfa5-13daf69a44ae","system_id":"levelo_inurba_marseille","lat":43.308901,"lon":5.396583,"is_reserved":false,"is_disabled":false,"rental_uris":{"android":"levelo://app?vid=b2bbca89-da91-4e29-bfa5-13daf69a44ae","ios":"levelo://app?vid=b2bbca89-da91-4e29-bfa5-13daf69a44ae"},"vehicle_type_id":"4","last_reported":1750461060,"current_range_meters":6400,"station_id":"ce4bh012rcd13ifvqcv0","pricing_plan_id":"cebpf4jnsgd1na2vs0mg"},{"bike_id":"ae79b899-6aca-43a7-bb41-4be8497a467c","system_id":"levelo_inurba_marseille","lat":43.26214,"lon":5.37441,"is_reserved":false,"is_disabled":false,"rental_uris":{"android":"levelo://app?vid=ae79b899-6aca-43a7-bb41-4be8497a467c","ios":"levelo://app?vid=ae79b899-6aca-43a7-bb41-4be8497a467c"},"vehicle_type_id":"4","last_reported":1750461060,"current_range_meters":6400,"station_id":"ce4bhgp2rcd13ifvqfc0","pricing_plan_id":"cebpf4jnsgd1na2vs0mg"},{"bike_id":"dd45b830-666c-4c76-b06e-9938bffa2cad","system_id":"levelo_inurba_marseille","lat":43.31948,"lon":5.37549,"is_reserved":false,"is_disabled":false,"rental_uris":{"android":"levelo://app?vid=dd45b830-666c-4c76-b06e-9938bffa2cad","ios":"levelo://app?vid=dd45b830-666c-4c76-b06e-9938bffa2cad"},"vehicle_type_id":"4","last_reported":1750461060,"current_range_meters":6800,"station_id":"","pricing_plan_id":"cebpf4jnsgd1na2vs0mg"},{"bike_id":"f025e0b0-8595-426c-b214-cb9b74c5fcfd","system_id":"levelo_inurba_marseille","lat":43.32195,"lon":5.40574,"is_reserved":false,"is_disabled":false,"rental_uris":{"android":"levelo://app?vid=f025e0b0-8595-426c-b214-cb9b74c5fcfd","ios":"levelo://app?vid=f025e0b0-8595-426c-b214-cb9b74c5fcfd"},"vehicle_type_id":"4","last_reported":1750461060,"current_range_meters":6800,"station_id":"","pricing_plan_id":"cebpf4jnsgd1na2vs0mg"},{"bike_id":"053d9423-2593-4104-9843-c4c0f7970812","system_id":"levelo_inurba_marseille","lat":43.30282,"lon":5.392201,"is_reserved":false,"is_disabled":false,"rental_uris":{"android":"levelo://app?vid=053d9423-2593-4104-9843-c4c0f7970812","ios":"levelo://app?vid=053d9423-2593-4104-9843-c4c0f7970812"},"vehicle_type_id":"4","last_reported":1750461060,"current_range_meters":6800,"station_id":"ce4bh012rcd13ifvqcv0","pricing_plan_id":"cebpf4jnsgd1na2vs0mg"},{"bike_id":"1ecc36ec-48c8-4d09-9dc3-6f7336837569","system_id":"levelo_inurba_marseille","lat":43.28922,"lon":5.36663,"is_reserved":false,"is_disabled":false,"rental_uris":{"android":"levelo://app?vid=1ecc36ec-48c8-4d09-9dc3-6f7336837569","ios":"levelo://app?vid=1ecc36ec-48c8-4d09-9dc3-6f7336837569"},"vehicle_type_id":"4","last_reported":1750461060,"current_range_meters":6800,"station_id":"ce4bhap2rcd13ifvqek0","pricing_plan_id":"cebpf4jnsgd1na2vs0mg"},{"bike_id":"044e6c9d-b299-42ad-8421-5b1a83552377","system_id":"levelo_inurba_marseille","lat":43.24662,"lon":5.38165,"is_reserved":false,"is_disabled":false,"rental_uris":{"android":"levelo://app?vid=044e6c9d-b299-42ad-8421-5b1a83552377","ios":"levelo://app?vid=044e6c9d-b299-42ad-8421-5b1a83552377"},"vehicle_type_id":"4","last_reported":1750461060,"current_range_meters":6800,"station_id":"ce4bhih2rcd13ifvqfr0","pricing_plan_id":"cebpf4jnsgd1na2vs0mg"},{"bike_id":"ccbcc763-73f8-4e37-ba0b-f40a1dcf1d82","system_id":"levelo_inurba_marseille","lat":43.23192,"lon":5.35556,"is_reserved":false,"is_disabled":false,"rental_uris":{"android":"levelo://app?vid=ccbcc763-73f8-4e37-ba0b-f40a1dcf1d82","ios":"levelo://app?vid=ccbcc763-73f8-4e37-ba0b-f40a1dcf1d82"},"vehicle_type_id":"4","last_reported":1750461060,"current_range_meters":6800,"station_id":"ce4bhu92rcd13ifvqi70","pricing_plan_id":"cebpf4jnsgd1na2vs0mg"},{"bike_id":"0ae0a5e2-4172-42fc-b67e-dcb70ad4d289","system_id":"levelo_inurba_marseille","lat":43.2673,"lon":5.42206,"is_reserved":false,"is_disabled":false,"rental_uris":{"android":"levelo://app?vid=0ae0a5e2-4172-42fc-b67e-dcb70ad4d289","ios":"levelo://app?vid=0ae0a5e2-4172-42fc-b67e-dcb70ad4d289"},"vehicle_type_id":"4","last_reported":1750461060,"current_range_meters":7200,"station_id":"","pricing_plan_id":"cebpf4jnsgd1na2vs0mg"},{"bike_id":"73521383-be10-4e11-87d9-5858a5a26f0a","system_id":"levelo_inurba_marseille","lat":43.337444,"lon":5.374475,"is_reserved":false,"is_disabled":false,"rental_uris":{"android":"levelo://app?vid=73521383-be10-4e11-87d9-5858a5a26f0a","ios":"levelo://app?vid=73521383-be10-4e11-87d9-5858a5a26f0a"},"vehicle_type_id":"4","last_reported":1750461060,"current_range_meters":7200,"station_id":"","pricing_plan_id":"cebpf4jnsgd1na2vs0mg"},{"bike_id":"df735c88-ae0a-4f8e-9723-d29eb27d80b9","system_id":"levelo_inurba_marseille","lat":43.29902,"lon":5.37659,"is_reserved":false,"is_disabled":false,"rental_uris":{"android":"levelo://app?vid=df735c88-ae0a-4f8e-9723-d29eb27d80b9","ios":"levelo://app?vid=df735c88-ae0a-4f8e-9723-d29eb27d80b9"},"vehicle_type_id":"4","last_reported":1750461060,"current_range_meters":7200,"station_id":"","pricing_plan_id":"cebpf4jnsgd1na2vs0mg"},{"bike_id":"e3190518-bcc2-47a7-bb62-bcde5a07a296","system_id":"levelo_inurba_marseille","lat":43.306393,"lon":5.400718,"is_reserved":false,"is_disabled":false,"rental_uris":{"android":"levelo://app?vid=e3190518-bcc2-47a7-bb62-bcde5a07a296","ios":"levelo://app?vid=e3190518-bcc2-47a7-bb62-bcde5a07a296"},"vehicle_type_id":"4","last_reported":1750461060,"current_range_meters":7200,"station_id":"ce4bh112rcd13ifvqda0","pricing_plan_id":"cebpf4jnsgd1na2vs0mg"},{"bike_id":"9bdb5dde-fb06-4398-9d65-0bda3e8ffb3c","system_id":"levelo_inurba_marseille","lat":43.29579,"lon":5.39967,"is_reserved":false,"is_disabled":false,"rental_uris":{"android":"levelo://app?vid=9bdb5dde-fb06-4398-9d65-0bda3e8ffb3c","ios":"levelo://app?vid=9bdb5dde-fb06-4398-9d65-0bda3e8ffb3c"},"vehicle_type_id":"4","last_reported":1750461060,"current_range_meters":7200,"station_id":"ce4bh312rcd13ifvqdj0","pricing_plan_id":"cebpf4jnsgd1na2vs0mg"},{"bike_id":"23c59749-6918-4ffd-a676-dc367fb70964","system_id":"levelo_inurba_marseille","lat":43.26556,"lon":5.37298,"is_reserved":false,"is_disabled":false,"rental_uris":{"android":"levelo://app?vid=23c59749-6918-4ffd-a676-dc367fb70964","ios":"levelo://app?vid=23c59749-6918-4ffd-a676-dc367fb70964"},"vehicle_type_id":"4","last_reported":1750461060,"current_range_meters":7200,"station_id":"ce4bhg12rcd13ifvqf70","pricing_plan_id":"cebpf4jnsgd1na2vs0mg"},{"bike_id":"a9095211-c3f5-45c2-b2ee-33f07a23a90e","system_id":"levelo_inurba_marseille","lat":43.26224,"lon":5.40471,"is_reserved":false,"is_disabled":false,"rental_uris":{"android":"levelo://app?vid=a9095211-c3f5-45c2-b2ee-33f07a23a90e","ios":"levelo://app?vid=a9095211-c3f5-45c2-b2ee-33f07a23a90e"},"vehicle_type_id":"4","last_reported":1750461060,"current_range_meters":7200,"station_id":"ce4bhmh2rcd13ifvqgmg","pricing_plan_id":"cebpf4jnsgd1na2vs0mg"},{"bike_id":"2a1e12e7-6a68-458c-ab73-d2fe648ffb93","system_id":"levelo_inurba_marseille","lat":43.27809,"lon":5.40718,"is_reserved":false,"is_disabled":false,"rental_uris":{"android":"levelo://app?vid=2a1e12e7-6a68-458c-ab73-d2fe648ffb93","ios":"levelo://app?vid=2a1e12e7-6a68-458c-ab73-d2fe648ffb93"},"vehicle_type_id":"4","last_reported":1750461060,"current_range_meters":7200,"station_id":"ce4bhnh2rcd13ifvqgtg","pricing_plan_id":"cebpf4jnsgd1na2vs0mg"},{"bike_id":"3ec7fb5c-347d-4640-ad8b-4b36546a2beb","system_id":"levelo_inurba_marseille","lat":43.29519,"lon":5.38974,"is_reserved":false,"is_disabled":false,"rental_uris":{"android":"levelo://app?vid=3ec7fb5c-347d-4640-ad8b-4b36546a2beb","ios":"levelo://app?vid=3ec7fb5c-347d-4640-ad8b-4b36546a2beb"},"vehicle_type_id":"4","last_reported":1750461060,"current_range_meters":8000,"station_id":"","pricing_plan_id":"cebpf4jnsgd1na2vs0mg"},{"bike_id":"70891b5f-6c3c-463b-9a65-ef0489fa420b","system_id":"levelo_inurba_marseille","lat":43.30303,"lon":5.3922,"is_reserved":false,"is_disabled":false,"rental_uris":{"android":"levelo://app?vid=70891b5f-6c3c-463b-9a65-ef0489fa420b","ios":"levelo://app?vid=70891b5f-6c3c-463b-9a65-ef0489fa420b"},"vehicle_type_id":"4","last_reported":1750461060,"current_range_meters":8000,"station_id":"ce4bgkh2rcd13ifvqbk0","pricing_plan_id":"cebpf4jnsgd1na2vs0mg"},{"bike_id":"dfb2245c-4ad3-49d3-8c4a-b48619f5fcd2","system_id":"levelo_inurba_marseille","lat":43.29872,"lon":5.39733,"is_reserved":false,"is_disabled":false,"rental_uris":{"android":"levelo://app?vid=dfb2245c-4ad3-49d3-8c4a-b48619f5fcd2","ios":"levelo://app?vid=dfb2245c-4ad3-49d3-8c4a-b48619f5fcd2"},"vehicle_type_id":"4","last_reported":1750461060,"current_range_meters":8000,"station_id":"ce4bh0h2rcd13ifvqd50","pricing_plan_id":"cebpf4jnsgd1na2vs0mg"},{"bike_id":"a0f4885b-e467-4afb-b708-8c36a467e802","system_id":"levelo_inurba_marseille","lat":43.29045,"lon":5.3997,"is_reserved":false,"is_disabled":false,"rental_uris":{"android":"levelo://app?vid=a0f4885b-e467-4afb-b708-8c36a467e802","ios":"levelo://app?vid=a0f4885b-e467-4afb-b708-8c36a467e802"},"vehicle_type_id":"4","last_reported":1750461060,"current_range_meters":8000,"station_id":"ce4bh392rcd13ifvqdm0","pricing_plan_id":"cebpf4jnsgd1na2vs0mg"},{"bike_id":"6c27666e-ee00-4768-b673-c88129e82192","system_id":"levelo_inurba_marseille","lat":43.29215,"lon":5.39627,"is_reserved":false,"is_disabled":false,"rental_uris":{"android":"levelo://app?vid=6c27666e-ee00-4768-b673-c88129e82192","ios":"levelo://app?vid=6c27666e-ee00-4768-b673-c88129e82192"},"vehicle_type_id":"4","last_reported":1750461060,"current_range_meters":8400,"station_id":"","pricing_plan_id":"cebpf4jnsgd1na2vs0mg"},{"bike_id":"72a4391d-a60d-498f-b860-6db56190b695","system_id":"levelo_inurba_marseille","lat":43.31363,"lon":5.38489,"is_reserved":false,"is_disabled":false,"rental_uris":{"android":"levelo://app?vid=72a4391d-a60d-498f-b860-6db56190b695","ios":"levelo://app?vid=72a4391d-a60d-498f-b860-6db56190b695"},"vehicle_type_id":"4","last_reported":1750461060,"current_range_meters":8400,"station_id":"ce4bgt92rcd13ifvqcf0","pricing_plan_id":"cebpf4jnsgd1na2vs0mg"},{"bike_id":"2148217b-d8a5-4a4c-bd43-e70d855d7cd0","system_id":"levelo_inurba_marseille","lat":43.30253,"lon":5.40061,"is_reserved":false,"is_disabled":false,"rental_uris":{"android":"levelo://app?vid=2148217b-d8a5-4a4c-bd43-e70d855d7cd0","ios":"levelo://app?vid=2148217b-d8a5-4a4c-bd43-e70d855d7cd0"},"vehicle_type_id":"4","last_reported":1750461060,"current_range_meters":8400,"station_id":"ce4bgvh2rcd13ifvqcs0","pricing_plan_id":"cebpf4jnsgd1na2vs0mg"},{"bike_id":"cd1075f2-a8f9-4e06-96a1-9f1d52e8840f","system_id":"levelo_inurba_marseille","lat":43.30642,"lon":5.40083,"is_reserved":false,"is_disabled":false,"rental_uris":{"android":"levelo://app?vid=cd1075f2-a8f9-4e06-96a1-9f1d52e8840f","ios":"levelo://app?vid=cd1075f2-a8f9-4e06-96a1-9f1d52e8840f"},"vehicle_type_id":"4","last_reported":1750461060,"current_range_meters":8400,"station_id":"ce4bh112rcd13ifvqda0","pricing_plan_id":"cebpf4jnsgd1na2vs0mg"},{"bike_id":"868dc1a4-e6f0-43c0-93e6-ade8771a8d3b","system_id":"levelo_inurba_marseille","lat":43.29257,"lon":5.40909,"is_reserved":false,"is_disabled":false,"rental_uris":{"android":"levelo://app?vid=868dc1a4-e6f0-43c0-93e6-ade8771a8d3b","ios":"levelo://app?vid=868dc1a4-e6f0-43c0-93e6-ade8771a8d3b"},"vehicle_type_id":"4","last_reported":1750461060,"current_range_meters":8400,"station_id":"ce4bh192rcd13ifvqdc0","pricing_plan_id":"cebpf4jnsgd1na2vs0mg"},{"bike_id":"2a419920-c7ac-4f64-bafa-a543962eece2","system_id":"levelo_inurba_marseille","lat":43.28347,"lon":5.3811,"is_reserved":false,"is_disabled":false,"rental_uris":{"android":"levelo://app?vid=2a419920-c7ac-4f64-bafa-a543962eece2","ios":"levelo://app?vid=2a419920-c7ac-4f64-bafa-a543962eece2"},"vehicle_type_id":"4","last_reported":1750461060,"current_range_meters":8400,"station_id":"ce4bh412rcd13ifvqdr0","pricing_plan_id":"cebpf4jnsgd1na2vs0mg"},{"bike_id":"f2169430-8ab5-4f68-846f-87f05b34d076","system_id":"levelo_inurba_marseille","lat":43.21203,"lon":5.35084,"is_reserved":false,"is_disabled":false,"rental_uris":{"android":"levelo://app?vid=f2169430-8ab5-4f68-846f-87f05b34d076","ios":"levelo://app?vid=f2169430-8ab5-4f68-846f-87f05b34d076"},"vehicle_type_id":"4","last_reported":1750461060,"current_range_meters":8400,"station_id":"st_cvj6sg6p6f1abm77japg","pricing_plan_id":"cebpf4jnsgd1na2vs0mg"},{"bike_id":"6a552aca-b8e1-4a1e-b8e6-479d04a8300b","system_id":"levelo_inurba_marseille","lat":43.24166,"lon":5.36389,"is_reserved":false,"is_disabled":false,"rental_uris":{"android":"levelo://app?vid=6a552aca-b8e1-4a1e-b8e6-479d04a8300b","ios":"levelo://app?vid=6a552aca-b8e1-4a1e-b8e6-479d04a8300b"},"vehicle_type_id":"4","last_reported":1750461060,"current_range_meters":8800,"station_id":"cpo36qri1sfpv3e86is0","pricing_plan_id":"cebpf4jnsgd1na2vs0mg"},{"bike_id":"975116b0-90b2-43e3-9d57-c3ce65909368","system_id":"levelo_inurba_marseille","lat":43.3134,"lon":5.38499,"is_reserved":false,"is_disabled":false,"rental_uris":{"android":"levelo://app?vid=975116b0-90b2-43e3-9d57-c3ce65909368","ios":"levelo://app?vid=975116b0-90b2-43e3-9d57-c3ce65909368"},"vehicle_type_id":"4","last_reported":1750461060,"current_range_meters":9200,"station_id":"ce4bgt92rcd13ifvqcf0","pricing_plan_id":"cebpf4jnsgd1na2vs0mg"},{"bike_id":"fe4f642a-2c8e-4a43-b47d-5a5067b48c79","system_id":"levelo_inurba_marseille","lat":43.31321,"lon":5.39696,"is_reserved":false,"is_disabled":false,"rental_uris":{"android":"levelo://app?vid=fe4f642a-2c8e-4a43-b47d-5a5067b48c79","ios":"levelo://app?vid=fe4f642a-2c8e-4a43-b47d-5a5067b48c79"},"vehicle_type_id":"4","last_reported":1750461060,"current_range_meters":9200,"station_id":"ce4bgvp2rcd13ifvqcu0","pricing_plan_id":"cebpf4jnsgd1na2vs0mg"},{"bike_id":"999a7404-c492-4383-88c2-daf8b2db2f26","system_id":"levelo_inurba_marseille","lat":43.29262,"lon":5.40136,"is_reserved":false,"is_disabled":false,"rental_uris":{"android":"levelo://app?vid=999a7404-c492-4383-88c2-daf8b2db2f26","ios":"levelo://app?vid=999a7404-c492-4383-88c2-daf8b2db2f26"},"vehicle_type_id":"4","last_reported":1750461060,"current_range_meters":9200,"station_id":"ce4bh312rcd13ifvqdk0","pricing_plan_id":"cebpf4jnsgd1na2vs0mg"},{"bike_id":"43320ea7-0bdb-472c-956d-1a4fda4c85ea","system_id":"levelo_inurba_marseille","lat":43.2781,"lon":5.40715,"is_reserved":false,"is_disabled":false,"rental_uris":{"android":"levelo://app?vid=43320ea7-0bdb-472c-956d-1a4fda4c85ea","ios":"levelo://app?vid=43320ea7-0bdb-472c-956d-1a4fda4c85ea"},"vehicle_type_id":"4","last_reported":1750461060,"current_range_meters":9200,"station_id":"ce4bhnh2rcd13ifvqgtg","pricing_plan_id":"cebpf4jnsgd1na2vs0mg"},{"bike_id":"1481b7cb-269d-4a81-841e-ba680290f91d","system_id":"levelo_inurba_marseille","lat":43.231982,"lon":5.355512,"is_reserved":false,"is_disabled":false,"rental_uris":{"android":"levelo://app?vid=1481b7cb-269d-4a81-841e-ba680290f91d","ios":"levelo://app?vid=1481b7cb-269d-4a81-841e-ba680290f91d"},"vehicle_type_id":"4","last_reported":1750461060,"current_range_meters":9200,"station_id":"ce4bhu92rcd13ifvqi70","pricing_plan_id":"cebpf4jnsgd1na2vs0mg"},{"bike_id":"ff5ca1bf-c1d0-43ba-8f5f-ea4a70bf2799","system_id":"levelo_inurba_marseille","lat":43.30325,"lon":5.40436,"is_reserved":false,"is_disabled":false,"rental_uris":{"android":"levelo://app?vid=ff5ca1bf-c1d0-43ba-8f5f-ea4a70bf2799","ios":"levelo://app?vid=ff5ca1bf-c1d0-43ba-8f5f-ea4a70bf2799"},"vehicle_type_id":"4","last_reported":1750461060,"current_range_meters":9600,"station_id":"ce4bh012rcd13ifvqd10","pricing_plan_id":"cebpf4jnsgd1na2vs0mg"},{"bike_id":"07eb6289-d073-4169-9982-9b8fd3fb8787","system_id":"levelo_inurba_marseille","lat":43.2856,"lon":5.39523,"is_reserved":false,"is_disabled":false,"rental_uris":{"android":"levelo://app?vid=07eb6289-d073-4169-9982-9b8fd3fb8787","ios":"levelo://app?vid=07eb6289-d073-4169-9982-9b8fd3fb8787"},"vehicle_type_id":"4","last_reported":1750461060,"current_range_meters":9600,"station_id":"ce4bh292rcd13ifvqdg0","pricing_plan_id":"cebpf4jnsgd1na2vs0mg"},{"bike_id":"aab3d680-d4a0-419d-b88a-0bc8608a6f99","system_id":"levelo_inurba_marseille","lat":43.29023,"lon":5.38641,"is_reserved":false,"is_disabled":false,"rental_uris":{"android":"levelo://app?vid=aab3d680-d4a0-419d-b88a-0bc8608a6f99","ios":"levelo://app?vid=aab3d680-d4a0-419d-b88a-0bc8608a6f99"},"vehicle_type_id":"4","last_reported":1750461060,"current_range_meters":9600,"station_id":"ce4bh4p2rcd13ifvqe0g","pricing_plan_id":"cebpf4jnsgd1na2vs0mg"},{"bike_id":"e15655ac-1682-42d9-ab93-40bd93e9dfd7","system_id":"levelo_inurba_marseille","lat":43.28105,"lon":5.37846,"is_reserved":false,"is_disabled":false,"rental_uris":{"android":"levelo://app?vid=e15655ac-1682-42d9-ab93-40bd93e9dfd7","ios":"levelo://app?vid=e15655ac-1682-42d9-ab93-40bd93e9dfd7"},"vehicle_type_id":"4","last_reported":1750461060,"current_range_meters":9600,"station_id":"ce4bha12rcd13ifvqee0","pricing_plan_id":"cebpf4jnsgd1na2vs0mg"},{"bike_id":"76414feb-64d0-4265-9f2f-779afb7531ea","system_id":"levelo_inurba_marseille","lat":43.27925,"lon":5.39601,"is_reserved":false,"is_disabled":false,"rental_uris":{"android":"levelo://app?vid=76414feb-64d0-4265-9f2f-779afb7531ea","ios":"levelo://app?vid=76414feb-64d0-4265-9f2f-779afb7531ea"},"vehicle_type_id":"4","last_reported":1750461060,"current_range_meters":9600,"station_id":"ce4bhf92rcd13ifvqf40","pricing_plan_id":"cebpf4jnsgd1na2vs0mg"},{"bike_id":"2d9cd306-f0e6-4b47-9011-26d7fa79b2a5","system_id":"levelo_inurba_marseille","lat":43.24996,"lon":5.38938,"is_reserved":false,"is_disabled":false,"rental_uris":{"android":"levelo://app?vid=2d9cd306-f0e6-4b47-9011-26d7fa79b2a5","ios":"levelo://app?vid=2d9cd306-f0e6-4b47-9011-26d7fa79b2a5"},"vehicle_type_id":"4","last_reported":1750461060,"current_range_meters":9600,"station_id":"ce4bhgp2rcd13ifvqfd0","pricing_plan_id":"cebpf4jnsgd1na2vs0mg"},{"bike_id":"d3c3ae26-638a-4911-a021-02ab1cd63cb2","system_id":"levelo_inurba_marseille","lat":43.231997,"lon":5.355573,"is_reserved":false,"is_disabled":false,"rental_uris":{"android":"levelo://app?vid=d3c3ae26-638a-4911-a021-02ab1cd63cb2","ios":"levelo://app?vid=d3c3ae26-638a-4911-a021-02ab1cd63cb2"},"vehicle_type_id":"4","last_reported":1750461060,"current_range_meters":9600,"station_id":"ce4bhu92rcd13ifvqi70","pricing_plan_id":"cebpf4jnsgd1na2vs0mg"},{"bike_id":"f30123e7-96d3-442d-9d01-6c98dc61e7c8","system_id":"levelo_inurba_marseille","lat":43.29805,"lon":5.36833,"is_reserved":false,"is_disabled":false,"rental_uris":{"android":"levelo://app?vid=f30123e7-96d3-442d-9d01-6c98dc61e7c8","ios":"levelo://app?vid=f30123e7-96d3-442d-9d01-6c98dc61e7c8"},"vehicle_type_id":"4","last_reported":1750461060,"current_range_meters":10000,"station_id":"","pricing_plan_id":"cebpf4jnsgd1na2vs0mg"},{"bike_id":"8ab59fc8-f916-4850-8710-3928dea309d5","system_id":"levelo_inurba_marseille","lat":43.29522,"lon":5.38531,"is_reserved":false,"is_disabled":false,"rental_uris":{"android":"levelo://app?vid=8ab59fc8-f916-4850-8710-3928dea309d5","ios":"levelo://app?vid=8ab59fc8-f916-4850-8710-3928dea309d5"},"vehicle_type_id":"4","last_reported":1750461060,"current_range_meters":10000,"station_id":"ce4bgih2rcd13ifvqba0","pricing_plan_id":"cebpf4jnsgd1na2vs0mg"},{"bike_id":"3f127aed-8417-4656-8ed3-3ac131eb3605","system_id":"levelo_inurba_marseille","lat":43.3044,"lon":5.38897,"is_reserved":false,"is_disabled":false,"rental_uris":{"android":"levelo://app?vid=3f127aed-8417-4656-8ed3-3ac131eb3605","ios":"levelo://app?vid=3f127aed-8417-4656-8ed3-3ac131eb3605"},"vehicle_type_id":"4","last_reported":1750461060,"current_range_meters":10000,"station_id":"ce4bgk12rcd13ifvqbi0","pricing_plan_id":"cebpf4jnsgd1na2vs0mg"},{"bike_id":"5c19dc00-677d-4a6e-8b75-75f25d696ae2","system_id":"levelo_inurba_marseille","lat":43.3088,"lon":5.39631,"is_reserved":false,"is_disabled":false,"rental_uris":{"android":"levelo://app?vid=5c19dc00-677d-4a6e-8b75-75f25d696ae2","ios":"levelo://app?vid=5c19dc00-677d-4a6e-8b75-75f25d696ae2"},"vehicle_type_id":"4","last_reported":1750461060,"current_range_meters":10000,"station_id":"ce4bh012rcd13ifvqcv0","pricing_plan_id":"cebpf4jnsgd1na2vs0mg"},{"bike_id":"9fa48000-6b1c-429d-9bf0-c3940e6ff0d5","system_id":"levelo_inurba_marseille","lat":43.29576,"lon":5.3997,"is_reserved":false,"is_disabled":false,"rental_uris":{"android":"levelo://app?vid=9fa48000-6b1c-429d-9bf0-c3940e6ff0d5","ios":"levelo://app?vid=9fa48000-6b1c-429d-9bf0-c3940e6ff0d5"},"vehicle_type_id":"4","last_reported":1750461060,"current_range_meters":10000,"station_id":"ce4bh312rcd13ifvqdj0","pricing_plan_id":"cebpf4jnsgd1na2vs0mg"},{"bike_id":"8c93cfd9-58a6-4440-bdca-2c370d99aef4","system_id":"levelo_inurba_marseille","lat":43.28464,"lon":5.35887,"is_reserved":false,"is_disabled":false,"rental_uris":{"android":"levelo://app?vid=8c93cfd9-58a6-4440-bdca-2c370d99aef4","ios":"levelo://app?vid=8c93cfd9-58a6-4440-bdca-2c370d99aef4"},"vehicle_type_id":"4","last_reported":1750461060,"current_range_meters":10000,"station_id":"ce4bhah2rcd13ifvqei0","pricing_plan_id":"cebpf4jnsgd1na2vs0mg"},{"bike_id":"94fc4f87-fe85-4b4f-90e1-6300fa34348b","system_id":"levelo_inurba_marseille","lat":43.23184,"lon":5.39984,"is_reserved":false,"is_disabled":false,"rental_uris":{"android":"levelo://app?vid=94fc4f87-fe85-4b4f-90e1-6300fa34348b","ios":"levelo://app?vid=94fc4f87-fe85-4b4f-90e1-6300fa34348b"},"vehicle_type_id":"4","last_reported":1750461060,"current_range_meters":10000,"station_id":"ce4bhn12rcd13ifvqgqg","pricing_plan_id":"cebpf4jnsgd1na2vs0mg"},{"bike_id":"0d21e280-9436-46d1-9c44-e5e965241a4d","system_id":"levelo_inurba_marseille","lat":43.28698,"lon":5.39982,"is_reserved":false,"is_disabled":false,"rental_uris":{"android":"levelo://app?vid=0d21e280-9436-46d1-9c44-e5e965241a4d","ios":"levelo://app?vid=0d21e280-9436-46d1-9c44-e5e965241a4d"},"vehicle_type_id":"4","last_reported":1750461060,"current_range_meters":10000,"station_id":"ce4bho92rcd13ifvqh3g","pricing_plan_id":"cebpf4jnsgd1na2vs0mg"},{"bike_id":"06b9d83b-ac82-4f07-be4d-3988526d6e6e","system_id":"levelo_inurba_marseille","lat":43.31755,"lon":5.39015,"is_reserved":false,"is_disabled":false,"rental_uris":{"android":"levelo://app?vid=06b9d83b-ac82-4f07-be4d-3988526d6e6e","ios":"levelo://app?vid=06b9d83b-ac82-4f07-be4d-3988526d6e6e"},"vehicle_type_id":"4","last_reported":1750461060,"current_range_meters":10000,"station_id":"ce4bhqp2rcd13ifvqhng","pricing_plan_id":"cebpf4jnsgd1na2vs0mg"},{"bike_id":"92636463-0a9d-46b1-9cc3-f5c5b6835403","system_id":"levelo_inurba_marseille","lat":43.26185,"lon":5.40385,"is_reserved":false,"is_disabled":false,"rental_uris":{"android":"levelo://app?vid=92636463-0a9d-46b1-9cc3-f5c5b6835403","ios":"levelo://app?vid=92636463-0a9d-46b1-9cc3-f5c5b6835403"},"vehicle_type_id":"4","last_reported":1750461060,"current_range_meters":10800,"station_id":"","pricing_plan_id":"cebpf4jnsgd1na2vs0mg"},{"bike_id":"199c2831-e081-4bc0-9b94-19503817091d","system_id":"levelo_inurba_marseille","lat":43.249015,"lon":5.406662,"is_reserved":false,"is_disabled":false,"rental_uris":{"android":"levelo://app?vid=199c2831-e081-4bc0-9b94-19503817091d","ios":"levelo://app?vid=199c2831-e081-4bc0-9b94-19503817091d"},"vehicle_type_id":"4","last_reported":1750461060,"current_range_meters":10800,"station_id":"","pricing_plan_id":"cebpf4jnsgd1na2vs0mg"},{"bike_id":"b6b25b81-c613-4ef7-a518-825b8ab86a27","system_id":"levelo_inurba_marseille","lat":43.30936,"lon":5.40153,"is_reserved":false,"is_disabled":false,"rental_uris":{"android":"levelo://app?vid=b6b25b81-c613-4ef7-a518-825b8ab86a27","ios":"levelo://app?vid=b6b25b81-c613-4ef7-a518-825b8ab86a27"},"vehicle_type_id":"4","last_reported":1750461060,"current_range_meters":10800,"station_id":"ce4bgvp2rcd13ifvqct0","pricing_plan_id":"cebpf4jnsgd1na2vs0mg"},{"bike_id":"160df4e9-41b1-4bc3-b696-606f83f3496a","system_id":"levelo_inurba_marseille","lat":43.30205,"lon":5.39467,"is_reserved":false,"is_disabled":false,"rental_uris":{"android":"levelo://app?vid=160df4e9-41b1-4bc3-b696-606f83f3496a","ios":"levelo://app?vid=160df4e9-41b1-4bc3-b696-606f83f3496a"},"vehicle_type_id":"4","last_reported":1750461060,"current_range_meters":10800,"station_id":"ce4bh0p2rcd13ifvqd70","pricing_plan_id":"cebpf4jnsgd1na2vs0mg"},{"bike_id":"0ec7a0c2-31e1-4f49-9237-79514cb279be","system_id":"levelo_inurba_marseille","lat":43.29572,"lon":5.39973,"is_reserved":false,"is_disabled":false,"rental_uris":{"android":"levelo://app?vid=0ec7a0c2-31e1-4f49-9237-79514cb279be","ios":"levelo://app?vid=0ec7a0c2-31e1-4f49-9237-79514cb279be"},"vehicle_type_id":"4","last_reported":1750461060,"current_range_meters":10800,"station_id":"ce4bh312rcd13ifvqdj0","pricing_plan_id":"cebpf4jnsgd1na2vs0mg"},{"bike_id":"348e5c4a-3c77-4bbe-b685-c06070ce9544","system_id":"levelo_inurba_marseille","lat":43.27495,"lon":5.4245,"is_reserved":false,"is_disabled":false,"rental_uris":{"android":"levelo://app?vid=348e5c4a-3c77-4bbe-b685-c06070ce9544","ios":"levelo://app?vid=348e5c4a-3c77-4bbe-b685-c06070ce9544"},"vehicle_type_id":"4","last_reported":1750461060,"current_range_meters":10800,"station_id":"ce4bhn92rcd13ifvqgrg","pricing_plan_id":"cebpf4jnsgd1na2vs0mg"},{"bike_id":"f04cd0ac-ed61-45ed-af01-937596de0d23","system_id":"levelo_inurba_marseille","lat":43.23192,"lon":5.35558,"is_reserved":false,"is_disabled":false,"rental_uris":{"android":"levelo://app?vid=f04cd0ac-ed61-45ed-af01-937596de0d23","ios":"levelo://app?vid=f04cd0ac-ed61-45ed-af01-937596de0d23"},"vehicle_type_id":"4","last_reported":1750461060,"current_range_meters":10800,"station_id":"ce4bhu92rcd13ifvqi70","pricing_plan_id":"cebpf4jnsgd1na2vs0mg"},{"bike_id":"a572deeb-2a98-49f6-b4c6-2d1a08996e3e","system_id":"levelo_inurba_marseille","lat":43.30429,"lon":5.39749,"is_reserved":false,"is_disabled":false,"rental_uris":{"android":"levelo://app?vid=a572deeb-2a98-49f6-b4c6-2d1a08996e3e","ios":"levelo://app?vid=a572deeb-2a98-49f6-b4c6-2d1a08996e3e"},"vehicle_type_id":"4","last_reported":1750461060,"current_range_meters":11200,"station_id":"ce4bh092rcd13ifvqd20","pricing_plan_id":"cebpf4jnsgd1na2vs0mg"},{"bike_id":"e8a00cb0-89f6-479d-8102-19d3e54b4428","system_id":"levelo_inurba_marseille","lat":43.24055,"lon":5.37745,"is_reserved":false,"is_disabled":false,"rental_uris":{"android":"levelo://app?vid=e8a00cb0-89f6-479d-8102-19d3e54b4428","ios":"levelo://app?vid=e8a00cb0-89f6-479d-8102-19d3e54b4428"},"vehicle_type_id":"4","last_reported":1750461060,"current_range_meters":11200,"station_id":"ce4bhnp2rcd13ifvqgvg","pricing_plan_id":"cebpf4jnsgd1na2vs0mg"},{"bike_id":"2930bf7b-2372-4ddb-a96e-39fc10a37e17","system_id":"levelo_inurba_marseille","lat":43.32337,"lon":5.406488,"is_reserved":false,"is_disabled":false,"rental_uris":{"android":"levelo://app?vid=2930bf7b-2372-4ddb-a96e-39fc10a37e17","ios":"levelo://app?vid=2930bf7b-2372-4ddb-a96e-39fc10a37e17"},"vehicle_type_id":"4","last_reported":1750461060,"current_range_meters":11200,"station_id":"ce4bhq92rcd13ifvqhjg","pricing_plan_id":"cebpf4jnsgd1na2vs0mg"},{"bike_id":"8300812b-c3f4-4460-a462-0c10590e5460","system_id":"levelo_inurba_marseille","lat":43.32882,"lon":5.4055,"is_reserved":false,"is_disabled":false,"rental_uris":{"android":"levelo://app?vid=8300812b-c3f4-4460-a462-0c10590e5460","ios":"levelo://app?vid=8300812b-c3f4-4460-a462-0c10590e5460"},"vehicle_type_id":"4","last_reported":1750461060,"current_range_meters":11600,"station_id":"","pricing_plan_id":"cebpf4jnsgd1na2vs0mg"},{"bike_id":"5db5bb36-90a2-42ea-969f-6162d7fff2b6","system_id":"levelo_inurba_marseille","lat":43.28569,"lon":5.39498,"is_reserved":false,"is_disabled":false,"rental_uris":{"android":"levelo://app?vid=5db5bb36-90a2-42ea-969f-6162d7fff2b6","ios":"levelo://app?vid=5db5bb36-90a2-42ea-969f-6162d7fff2b6"},"vehicle_type_id":"4","last_reported":1750461060,"current_range_meters":11600,"station_id":"ce4bh292rcd13ifvqdg0","pricing_plan_id":"cebpf4jnsgd1na2vs0mg"},{"bike_id":"1e11989f-e475-4397-9a45-bd9147224a5e","system_id":"levelo_inurba_marseille","lat":43.244133,"lon":5.371097,"is_reserved":false,"is_disabled":false,"rental_uris":{"android":"levelo://app?vid=1e11989f-e475-4397-9a45-bd9147224a5e","ios":"levelo://app?vid=1e11989f-e475-4397-9a45-bd9147224a5e"},"vehicle_type_id":"4","last_reported":1750461060,"current_range_meters":11600,"station_id":"ce4bhhh2rcd13ifvqfk0","pricing_plan_id":"cebpf4jnsgd1na2vs0mg"},{"bike_id":"3f3a3454-b1b3-41ce-b4c5-fb8efe7d81c2","system_id":"levelo_inurba_marseille","lat":43.26497,"lon":5.39539,"is_reserved":false,"is_disabled":false,"rental_uris":{"android":"levelo://app?vid=3f3a3454-b1b3-41ce-b4c5-fb8efe7d81c2","ios":"levelo://app?vid=3f3a3454-b1b3-41ce-b4c5-fb8efe7d81c2"},"vehicle_type_id":"4","last_reported":1750461060,"current_range_meters":11600,"station_id":"ce4bhi12rcd13ifvqfq0","pricing_plan_id":"cebpf4jnsgd1na2vs0mg"},{"bike_id":"2603cd31-2a09-4a34-aed3-aadbfefb8396","system_id":"levelo_inurba_marseille","lat":43.26499,"lon":5.39542,"is_reserved":false,"is_disabled":false,"rental_uris":{"android":"levelo://app?vid=2603cd31-2a09-4a34-aed3-aadbfefb8396","ios":"levelo://app?vid=2603cd31-2a09-4a34-aed3-aadbfefb8396"},"vehicle_type_id":"4","last_reported":1750461060,"current_range_meters":11600,"station_id":"ce4bhi12rcd13ifvqfq0","pricing_plan_id":"cebpf4jnsgd1na2vs0mg"},{"bike_id":"6ef0b2fb-0821-4741-91db-0382a62bb925","system_id":"levelo_inurba_marseille","lat":43.287104,"lon":5.3997,"is_reserved":false,"is_disabled":false,"rental_uris":{"android":"levelo://app?vid=6ef0b2fb-0821-4741-91db-0382a62bb925","ios":"levelo://app?vid=6ef0b2fb-0821-4741-91db-0382a62bb925"},"vehicle_type_id":"4","last_reported":1750461060,"current_range_meters":11600,"station_id":"ce4bho92rcd13ifvqh3g","pricing_plan_id":"cebpf4jnsgd1na2vs0mg"},{"bike_id":"05f69300-23b4-44be-a7e1-398a0efe81a4","system_id":"levelo_inurba_marseille","lat":43.316813,"lon":5.40447,"is_reserved":false,"is_disabled":false,"rental_uris":{"android":"levelo://app?vid=05f69300-23b4-44be-a7e1-398a0efe81a4","ios":"levelo://app?vid=05f69300-23b4-44be-a7e1-398a0efe81a4"},"vehicle_type_id":"4","last_reported":1750461060,"current_range_meters":12000,"station_id":"ce4bh012rcd13ifvqd00","pricing_plan_id":"cebpf4jnsgd1na2vs0mg"},{"bike_id":"b0c00ba5-b658-4a59-b337-7e7196ad104a","system_id":"levelo_inurba_marseille","lat":43.27829,"lon":5.392,"is_reserved":false,"is_disabled":false,"rental_uris":{"android":"levelo://app?vid=b0c00ba5-b658-4a59-b337-7e7196ad104a","ios":"levelo://app?vid=b0c00ba5-b658-4a59-b337-7e7196ad104a"},"vehicle_type_id":"4","last_reported":1750461060,"current_range_meters":12000,"station_id":"ce4bhjp2rcd13ifvqga0","pricing_plan_id":"cebpf4jnsgd1na2vs0mg"},{"bike_id":"70f0eff7-9915-4618-ad23-8d5a80fe021c","system_id":"levelo_inurba_marseille","lat":43.28439,"lon":5.39207,"is_reserved":false,"is_disabled":false,"rental_uris":{"android":"levelo://app?vid=70f0eff7-9915-4618-ad23-8d5a80fe021c","ios":"levelo://app?vid=70f0eff7-9915-4618-ad23-8d5a80fe021c"},"vehicle_type_id":"4","last_reported":1750461060,"current_range_meters":12000,"station_id":"ce4bhoh2rcd13ifvqh5g","pricing_plan_id":"cebpf4jnsgd1na2vs0mg"},{"bike_id":"ba73ce83-06ce-4c7d-9ff0-d69e789f122b","system_id":"levelo_inurba_marseille","lat":43.29555,"lon":5.42296,"is_reserved":false,"is_disabled":false,"rental_uris":{"android":"levelo://app?vid=ba73ce83-06ce-4c7d-9ff0-d69e789f122b","ios":"levelo://app?vid=ba73ce83-06ce-4c7d-9ff0-d69e789f122b"},"vehicle_type_id":"4","last_reported":1750461060,"current_range_meters":12000,"station_id":"ce4bhph2rcd13ifvqhdg","pricing_plan_id":"cebpf4jnsgd1na2vs0mg"},{"bike_id":"569e1359-3f8c-46cc-9bef-de92bae802ae","system_id":"levelo_inurba_marseille","lat":43.32484,"lon":5.36566,"is_reserved":false,"is_disabled":false,"rental_uris":{"android":"levelo://app?vid=569e1359-3f8c-46cc-9bef-de92bae802ae","ios":"levelo://app?vid=569e1359-3f8c-46cc-9bef-de92bae802ae"},"vehicle_type_id":"4","last_reported":1750461060,"current_range_meters":12000,"station_id":"ce4bhs12rcd13ifvqhvg","pricing_plan_id":"cebpf4jnsgd1na2vs0mg"},{"bike_id":"2d5a3e48-a733-40bd-b5f1-655136adbbbd","system_id":"levelo_inurba_marseille","lat":43.23196,"lon":5.35554,"is_reserved":false,"is_disabled":false,"rental_uris":{"android":"levelo://app?vid=2d5a3e48-a733-40bd-b5f1-655136adbbbd","ios":"levelo://app?vid=2d5a3e48-a733-40bd-b5f1-655136adbbbd"},"vehicle_type_id":"4","last_reported":1750461060,"current_range_meters":12000,"station_id":"ce4bhu92rcd13ifvqi70","pricing_plan_id":"cebpf4jnsgd1na2vs0mg"},{"bike_id":"95948f8c-ed1b-4579-a2fd-8de9a76479dd","system_id":"levelo_inurba_marseille","lat":43.298756,"lon":5.397294,"is_reserved":false,"is_disabled":false,"rental_uris":{"android":"levelo://app?vid=95948f8c-ed1b-4579-a2fd-8de9a76479dd","ios":"levelo://app?vid=95948f8c-ed1b-4579-a2fd-8de9a76479dd"},"vehicle_type_id":"4","last_reported":1750461060,"current_range_meters":12400,"station_id":"ce4bh0h2rcd13ifvqd50","pricing_plan_id":"cebpf4jnsgd1na2vs0mg"},{"bike_id":"2b0ac20e-d752-497a-8499-1c776a0f2d97","system_id":"levelo_inurba_marseille","lat":43.23193,"lon":5.35555,"is_reserved":false,"is_disabled":false,"rental_uris":{"android":"levelo://app?vid=2b0ac20e-d752-497a-8499-1c776a0f2d97","ios":"levelo://app?vid=2b0ac20e-d752-497a-8499-1c776a0f2d97"},"vehicle_type_id":"4","last_reported":1750461060,"current_range_meters":12400,"station_id":"ce4bhu92rcd13ifvqi70","pricing_plan_id":"cebpf4jnsgd1na2vs0mg"},{"bike_id":"b0c36570-8a06-4ca8-b90b-1ab5801fe902","system_id":"levelo_inurba_marseille","lat":43.31229,"lon":5.4046,"is_reserved":false,"is_disabled":false,"rental_uris":{"android":"levelo://app?vid=b0c36570-8a06-4ca8-b90b-1ab5801fe902","ios":"levelo://app?vid=b0c36570-8a06-4ca8-b90b-1ab5801fe902"},"vehicle_type_id":"4","last_reported":1750461060,"current_range_meters":12800,"station_id":"","pricing_plan_id":"cebpf4jnsgd1na2vs0mg"},{"bike_id":"804f1fde-1dad-4f66-88fa-8be6c08f567d","system_id":"levelo_inurba_marseille","lat":43.31694,"lon":5.40473,"is_reserved":false,"is_disabled":false,"rental_uris":{"android":"levelo://app?vid=804f1fde-1dad-4f66-88fa-8be6c08f567d","ios":"levelo://app?vid=804f1fde-1dad-4f66-88fa-8be6c08f567d"},"vehicle_type_id":"4","last_reported":1750461060,"current_range_meters":12800,"station_id":"ce4bh012rcd13ifvqd00","pricing_plan_id":"cebpf4jnsgd1na2vs0mg"},{"bike_id":"590ce847-90f3-4300-a614-ca45c173d99e","system_id":"levelo_inurba_marseille","lat":43.337263,"lon":5.39198,"is_reserved":false,"is_disabled":false,"rental_uris":{"android":"levelo://app?vid=590ce847-90f3-4300-a614-ca45c173d99e","ios":"levelo://app?vid=590ce847-90f3-4300-a614-ca45c173d99e"},"vehicle_type_id":"4","last_reported":1750461060,"current_range_meters":12800,"station_id":"ce4bhr92rcd13ifvqhsg","pricing_plan_id":"cebpf4jnsgd1na2vs0mg"},{"bike_id":"8fd94bfe-b0a3-4509-a3c9-0f6e3f8eed78","system_id":"levelo_inurba_marseille","lat":43.24169,"lon":5.36408,"is_reserved":false,"is_disabled":false,"rental_uris":{"android":"levelo://app?vid=8fd94bfe-b0a3-4509-a3c9-0f6e3f8eed78","ios":"levelo://app?vid=8fd94bfe-b0a3-4509-a3c9-0f6e3f8eed78"},"vehicle_type_id":"4","last_reported":1750461060,"current_range_meters":12800,"station_id":"cpo36qri1sfpv3e86is0","pricing_plan_id":"cebpf4jnsgd1na2vs0mg"},{"bike_id":"3fa5aa17-b27e-4bfa-8422-021bfaabc943","system_id":"levelo_inurba_marseille","lat":43.27996,"lon":5.41657,"is_reserved":false,"is_disabled":false,"rental_uris":{"android":"levelo://app?vid=3fa5aa17-b27e-4bfa-8422-021bfaabc943","ios":"levelo://app?vid=3fa5aa17-b27e-4bfa-8422-021bfaabc943"},"vehicle_type_id":"4","last_reported":1750461060,"current_range_meters":13600,"station_id":"ce4bho12rcd13ifvqh1g","pricing_plan_id":"cebpf4jnsgd1na2vs0mg"},{"bike_id":"dc540ba2-fb63-45eb-b83a-1826fb3d30b7","system_id":"levelo_inurba_marseille","lat":43.24609,"lon":5.39264,"is_reserved":false,"is_disabled":false,"rental_uris":{"android":"levelo://app?vid=dc540ba2-fb63-45eb-b83a-1826fb3d30b7","ios":"levelo://app?vid=dc540ba2-fb63-45eb-b83a-1826fb3d30b7"},"vehicle_type_id":"4","last_reported":1750461060,"current_range_meters":14000,"station_id":"","pricing_plan_id":"cebpf4jnsgd1na2vs0mg"},{"bike_id":"bd27fe72-6fbc-453f-8b77-bee10ab3b13c","system_id":"levelo_inurba_marseille","lat":43.29484,"lon":5.42253,"is_reserved":false,"is_disabled":false,"rental_uris":{"android":"levelo://app?vid=bd27fe72-6fbc-453f-8b77-bee10ab3b13c","ios":"levelo://app?vid=bd27fe72-6fbc-453f-8b77-bee10ab3b13c"},"vehicle_type_id":"4","last_reported":1750461060,"current_range_meters":14000,"station_id":"","pricing_plan_id":"cebpf4jnsgd1na2vs0mg"},{"bike_id":"a8cfdd8e-0e73-4f83-9bea-8b2f6e1ee2e7","system_id":"levelo_inurba_marseille","lat":43.29531,"lon":5.37511,"is_reserved":false,"is_disabled":false,"rental_uris":{"android":"levelo://app?vid=a8cfdd8e-0e73-4f83-9bea-8b2f6e1ee2e7","ios":"levelo://app?vid=a8cfdd8e-0e73-4f83-9bea-8b2f6e1ee2e7"},"vehicle_type_id":"4","last_reported":1750461060,"current_range_meters":14000,"station_id":"ce4bgkp2rcd13ifvqbmg","pricing_plan_id":"cebpf4jnsgd1na2vs0mg"},{"bike_id":"84f07344-a8f2-410e-8d0f-9d00081d19fb","system_id":"levelo_inurba_marseille","lat":43.31333,"lon":5.39686,"is_reserved":false,"is_disabled":false,"rental_uris":{"android":"levelo://app?vid=84f07344-a8f2-410e-8d0f-9d00081d19fb","ios":"levelo://app?vid=84f07344-a8f2-410e-8d0f-9d00081d19fb"},"vehicle_type_id":"4","last_reported":1750461060,"current_range_meters":14000,"station_id":"ce4bgvp2rcd13ifvqcu0","pricing_plan_id":"cebpf4jnsgd1na2vs0mg"},{"bike_id":"c1ecfa70-5eb0-4844-a736-8728b69ae850","system_id":"levelo_inurba_marseille","lat":43.27956,"lon":5.38693,"is_reserved":false,"is_disabled":false,"rental_uris":{"android":"levelo://app?vid=c1ecfa70-5eb0-4844-a736-8728b69ae850","ios":"levelo://app?vid=c1ecfa70-5eb0-4844-a736-8728b69ae850"},"vehicle_type_id":"4","last_reported":1750461060,"current_range_meters":14000,"station_id":"ce4bhg12rcd13ifvqf80","pricing_plan_id":"cebpf4jnsgd1na2vs0mg"},{"bike_id":"959f0c62-9761-4a35-9c23-557e23ca2679","system_id":"levelo_inurba_marseille","lat":43.24678,"lon":5.38144,"is_reserved":false,"is_disabled":false,"rental_uris":{"android":"levelo://app?vid=959f0c62-9761-4a35-9c23-557e23ca2679","ios":"levelo://app?vid=959f0c62-9761-4a35-9c23-557e23ca2679"},"vehicle_type_id":"4","last_reported":1750461060,"current_range_meters":14000,"station_id":"ce4bhih2rcd13ifvqfr0","pricing_plan_id":"cebpf4jnsgd1na2vs0mg"},{"bike_id":"6e9937c4-04c1-4e15-9850-59f72de8a1df","system_id":"levelo_inurba_marseille","lat":43.23189,"lon":5.35555,"is_reserved":false,"is_disabled":false,"rental_uris":{"android":"levelo://app?vid=6e9937c4-04c1-4e15-9850-59f72de8a1df","ios":"levelo://app?vid=6e9937c4-04c1-4e15-9850-59f72de8a1df"},"vehicle_type_id":"4","last_reported":1750461060,"current_range_meters":14000,"station_id":"ce4bhu92rcd13ifvqi70","pricing_plan_id":"cebpf4jnsgd1na2vs0mg"},{"bike_id":"8ef11a45-504d-45b0-a2b5-97fef9594218","system_id":"levelo_inurba_marseille","lat":43.29538,"lon":5.38109,"is_reserved":false,"is_disabled":false,"rental_uris":{"android":"levelo://app?vid=8ef11a45-504d-45b0-a2b5-97fef9594218","ios":"levelo://app?vid=8ef11a45-504d-45b0-a2b5-97fef9594218"},"vehicle_type_id":"4","last_reported":1750461060,"current_range_meters":14400,"station_id":"","pricing_plan_id":"cebpf4jnsgd1na2vs0mg"},{"bike_id":"517a107e-9cd9-4539-be7a-5ca6b67916f7","system_id":"levelo_inurba_marseille","lat":43.30648,"lon":5.40079,"is_reserved":false,"is_disabled":false,"rental_uris":{"android":"levelo://app?vid=517a107e-9cd9-4539-be7a-5ca6b67916f7","ios":"levelo://app?vid=517a107e-9cd9-4539-be7a-5ca6b67916f7"},"vehicle_type_id":"4","last_reported":1750461060,"current_range_meters":14400,"station_id":"ce4bh112rcd13ifvqda0","pricing_plan_id":"cebpf4jnsgd1na2vs0mg"},{"bike_id":"73ca78af-c969-4f07-9a86-35bf9abdcb85","system_id":"levelo_inurba_marseille","lat":43.29017,"lon":5.38653,"is_reserved":false,"is_disabled":false,"rental_uris":{"android":"levelo://app?vid=73ca78af-c969-4f07-9a86-35bf9abdcb85","ios":"levelo://app?vid=73ca78af-c969-4f07-9a86-35bf9abdcb85"},"vehicle_type_id":"4","last_reported":1750461060,"current_range_meters":14400,"station_id":"ce4bh4p2rcd13ifvqe0g","pricing_plan_id":"cebpf4jnsgd1na2vs0mg"},{"bike_id":"dd4f8ff5-bebb-4595-b914-86fdd2a30b3e","system_id":"levelo_inurba_marseille","lat":43.28941,"lon":5.36637,"is_reserved":false,"is_disabled":false,"rental_uris":{"android":"levelo://app?vid=dd4f8ff5-bebb-4595-b914-86fdd2a30b3e","ios":"levelo://app?vid=dd4f8ff5-bebb-4595-b914-86fdd2a30b3e"},"vehicle_type_id":"4","last_reported":1750461060,"current_range_meters":14400,"station_id":"ce4bhap2rcd13ifvqek0","pricing_plan_id":"cebpf4jnsgd1na2vs0mg"},{"bike_id":"22d8e4e3-6c00-45b5-9aa2-95b7ce4f1c8c","system_id":"levelo_inurba_marseille","lat":43.23959,"lon":5.36634,"is_reserved":false,"is_disabled":false,"rental_uris":{"android":"levelo://app?vid=22d8e4e3-6c00-45b5-9aa2-95b7ce4f1c8c","ios":"levelo://app?vid=22d8e4e3-6c00-45b5-9aa2-95b7ce4f1c8c"},"vehicle_type_id":"4","last_reported":1750461060,"current_range_meters":14400,"station_id":"ce4bhi12rcd13ifvqfp0","pricing_plan_id":"cebpf4jnsgd1na2vs0mg"},{"bike_id":"d40af265-11b5-43a6-9bb6-f910f57901ba","system_id":"levelo_inurba_marseille","lat":43.32948,"lon":5.38096,"is_reserved":false,"is_disabled":false,"rental_uris":{"android":"levelo://app?vid=d40af265-11b5-43a6-9bb6-f910f57901ba","ios":"levelo://app?vid=d40af265-11b5-43a6-9bb6-f910f57901ba"},"vehicle_type_id":"4","last_reported":1750461060,"current_range_meters":14800,"station_id":"","pricing_plan_id":"cebpf4jnsgd1na2vs0mg"},{"bike_id":"d371cbba-a9cc-4b35-9574-acbef854dfbd","system_id":"levelo_inurba_marseille","lat":43.30769,"lon":5.37667,"is_reserved":false,"is_disabled":false,"rental_uris":{"android":"levelo://app?vid=d371cbba-a9cc-4b35-9574-acbef854dfbd","ios":"levelo://app?vid=d371cbba-a9cc-4b35-9574-acbef854dfbd"},"vehicle_type_id":"4","last_reported":1750461060,"current_range_meters":14800,"station_id":"ce4bgv92rcd13ifvqcq0","pricing_plan_id":"cebpf4jnsgd1na2vs0mg"},{"bike_id":"91f67d7c-c8ab-49f1-9edd-47e520fd2689","system_id":"levelo_inurba_marseille","lat":43.30217,"lon":5.3947,"is_reserved":false,"is_disabled":false,"rental_uris":{"android":"levelo://app?vid=91f67d7c-c8ab-49f1-9edd-47e520fd2689","ios":"levelo://app?vid=91f67d7c-c8ab-49f1-9edd-47e520fd2689"},"vehicle_type_id":"4","last_reported":1750461060,"current_range_meters":14800,"station_id":"ce4bh0p2rcd13ifvqd70","pricing_plan_id":"cebpf4jnsgd1na2vs0mg"},{"bike_id":"de81c6ec-4833-461b-9110-80bf77e4c8f4","system_id":"levelo_inurba_marseille","lat":43.28405,"lon":5.37524,"is_reserved":false,"is_disabled":false,"rental_uris":{"android":"levelo://app?vid=de81c6ec-4833-461b-9110-80bf77e4c8f4","ios":"levelo://app?vid=de81c6ec-4833-461b-9110-80bf77e4c8f4"},"vehicle_type_id":"4","last_reported":1750461060,"current_range_meters":14800,"station_id":"ce4bh412rcd13ifvqds0","pricing_plan_id":"cebpf4jnsgd1na2vs0mg"},{"bike_id":"dea0f8ec-84c3-4730-bd39-0c05aaeb87ca","system_id":"levelo_inurba_marseille","lat":43.337444,"lon":5.374475,"is_reserved":false,"is_disabled":false,"rental_uris":{"android":"levelo://app?vid=dea0f8ec-84c3-4730-bd39-0c05aaeb87ca","ios":"levelo://app?vid=dea0f8ec-84c3-4730-bd39-0c05aaeb87ca"},"vehicle_type_id":"4","last_reported":1750461060,"current_range_meters":15200,"station_id":"","pricing_plan_id":"cebpf4jnsgd1na2vs0mg"},{"bike_id":"ced8ee67-58dc-40f7-a011-ace4bcd3b542","system_id":"levelo_inurba_marseille","lat":43.290403,"lon":5.399537,"is_reserved":false,"is_disabled":false,"rental_uris":{"android":"levelo://app?vid=ced8ee67-58dc-40f7-a011-ace4bcd3b542","ios":"levelo://app?vid=ced8ee67-58dc-40f7-a011-ace4bcd3b542"},"vehicle_type_id":"4","last_reported":1750461060,"current_range_meters":15200,"station_id":"ce4bh392rcd13ifvqdm0","pricing_plan_id":"cebpf4jnsgd1na2vs0mg"},{"bike_id":"63a86be1-c181-4e87-8f6b-54790269b93e","system_id":"levelo_inurba_marseille","lat":43.28938,"lon":5.3638,"is_reserved":false,"is_disabled":false,"rental_uris":{"android":"levelo://app?vid=63a86be1-c181-4e87-8f6b-54790269b93e","ios":"levelo://app?vid=63a86be1-c181-4e87-8f6b-54790269b93e"},"vehicle_type_id":"4","last_reported":1750461060,"current_range_meters":15200,"station_id":"ce4bhc92rcd13ifvqetg","pricing_plan_id":"cebpf4jnsgd1na2vs0mg"},{"bike_id":"24c3f3cb-ddcf-46f0-9b3f-14585b768a2d","system_id":"levelo_inurba_marseille","lat":43.231435,"lon":5.437218,"is_reserved":false,"is_disabled":false,"rental_uris":{"android":"levelo://app?vid=24c3f3cb-ddcf-46f0-9b3f-14585b768a2d","ios":"levelo://app?vid=24c3f3cb-ddcf-46f0-9b3f-14585b768a2d"},"vehicle_type_id":"4","last_reported":1750461060,"current_range_meters":15200,"station_id":"ce4bhmp2rcd13ifvqgog","pricing_plan_id":"cebpf4jnsgd1na2vs0mg"},{"bike_id":"e89db88b-1c2c-475c-a56d-e9d66d636fb2","system_id":"levelo_inurba_marseille","lat":43.231991,"lon":5.355478,"is_reserved":false,"is_disabled":false,"rental_uris":{"android":"levelo://app?vid=e89db88b-1c2c-475c-a56d-e9d66d636fb2","ios":"levelo://app?vid=e89db88b-1c2c-475c-a56d-e9d66d636fb2"},"vehicle_type_id":"4","last_reported":1750461060,"current_range_meters":15200,"station_id":"ce4bhu92rcd13ifvqi70","pricing_plan_id":"cebpf4jnsgd1na2vs0mg"},{"bike_id":"4643bc90-1bac-4c4b-98b1-e2d500830573","system_id":"levelo_inurba_marseille","lat":43.31383,"lon":5.37677,"is_reserved":false,"is_disabled":false,"rental_uris":{"android":"levelo://app?vid=4643bc90-1bac-4c4b-98b1-e2d500830573","ios":"levelo://app?vid=4643bc90-1bac-4c4b-98b1-e2d500830573"},"vehicle_type_id":"4","last_reported":1750461060,"current_range_meters":16000,"station_id":"","pricing_plan_id":"cebpf4jnsgd1na2vs0mg"},{"bike_id":"a22aa312-0025-4f42-88e2-b1e95e79340f","system_id":"levelo_inurba_marseille","lat":43.31638,"lon":5.38372,"is_reserved":false,"is_disabled":false,"rental_uris":{"android":"levelo://app?vid=a22aa312-0025-4f42-88e2-b1e95e79340f","ios":"levelo://app?vid=a22aa312-0025-4f42-88e2-b1e95e79340f"},"vehicle_type_id":"4","last_reported":1750461060,"current_range_meters":16000,"station_id":"","pricing_plan_id":"cebpf4jnsgd1na2vs0mg"},{"bike_id":"90c109b5-5cee-495e-8f11-f318c0f086b6","system_id":"levelo_inurba_marseille","lat":43.32495,"lon":5.43458,"is_reserved":false,"is_disabled":false,"rental_uris":{"android":"levelo://app?vid=90c109b5-5cee-495e-8f11-f318c0f086b6","ios":"levelo://app?vid=90c109b5-5cee-495e-8f11-f318c0f086b6"},"vehicle_type_id":"4","last_reported":1750461060,"current_range_meters":16000,"station_id":"","pricing_plan_id":"cebpf4jnsgd1na2vs0mg"},{"bike_id":"2932f81d-5d09-4f48-8380-99bc6b074670","system_id":"levelo_inurba_marseille","lat":43.3078,"lon":5.37657,"is_reserved":false,"is_disabled":false,"rental_uris":{"android":"levelo://app?vid=2932f81d-5d09-4f48-8380-99bc6b074670","ios":"levelo://app?vid=2932f81d-5d09-4f48-8380-99bc6b074670"},"vehicle_type_id":"4","last_reported":1750461060,"current_range_meters":16000,"station_id":"ce4bgv92rcd13ifvqcq0","pricing_plan_id":"cebpf4jnsgd1na2vs0mg"},{"bike_id":"c5d80bab-5e87-4c1c-a69f-62d26f69ac1d","system_id":"levelo_inurba_marseille","lat":43.31722,"lon":5.40445,"is_reserved":false,"is_disabled":false,"rental_uris":{"android":"levelo://app?vid=c5d80bab-5e87-4c1c-a69f-62d26f69ac1d","ios":"levelo://app?vid=c5d80bab-5e87-4c1c-a69f-62d26f69ac1d"},"vehicle_type_id":"4","last_reported":1750461060,"current_range_meters":16000,"station_id":"ce4bh012rcd13ifvqd00","pricing_plan_id":"cebpf4jnsgd1na2vs0mg"},{"bike_id":"1ec9e17c-fc83-4e3e-a4e4-6a0fc0c7e792","system_id":"levelo_inurba_marseille","lat":43.29874,"lon":5.39738,"is_reserved":false,"is_disabled":false,"rental_uris":{"android":"levelo://app?vid=1ec9e17c-fc83-4e3e-a4e4-6a0fc0c7e792","ios":"levelo://app?vid=1ec9e17c-fc83-4e3e-a4e4-6a0fc0c7e792"},"vehicle_type_id":"4","last_reported":1750461060,"current_range_meters":16000,"station_id":"ce4bh0h2rcd13ifvqd50","pricing_plan_id":"cebpf4jnsgd1na2vs0mg"},{"bike_id":"5a01a987-f989-4da6-b035-8c3000259e08","system_id":"levelo_inurba_marseille","lat":43.27919,"lon":5.39589,"is_reserved":false,"is_disabled":false,"rental_uris":{"android":"levelo://app?vid=5a01a987-f989-4da6-b035-8c3000259e08","ios":"levelo://app?vid=5a01a987-f989-4da6-b035-8c3000259e08"},"vehicle_type_id":"4","last_reported":1750461060,"current_range_meters":16000,"station_id":"ce4bhf92rcd13ifvqf40","pricing_plan_id":"cebpf4jnsgd1na2vs0mg"},{"bike_id":"ff0585d1-3da0-48f3-9fda-da5b5d5767f8","system_id":"levelo_inurba_marseille","lat":43.29457,"lon":5.38662,"is_reserved":false,"is_disabled":false,"rental_uris":{"android":"levelo://app?vid=ff0585d1-3da0-48f3-9fda-da5b5d5767f8","ios":"levelo://app?vid=ff0585d1-3da0-48f3-9fda-da5b5d5767f8"},"vehicle_type_id":"4","last_reported":1750461060,"current_range_meters":16400,"station_id":"","pricing_plan_id":"cebpf4jnsgd1na2vs0mg"},{"bike_id":"ad7bc185-3adc-4e5b-841b-d61acf8adb22","system_id":"levelo_inurba_marseille","lat":43.29871,"lon":5.36328,"is_reserved":false,"is_disabled":false,"rental_uris":{"android":"levelo://app?vid=ad7bc185-3adc-4e5b-841b-d61acf8adb22","ios":"levelo://app?vid=ad7bc185-3adc-4e5b-841b-d61acf8adb22"},"vehicle_type_id":"4","last_reported":1750461060,"current_range_meters":16400,"station_id":"","pricing_plan_id":"cebpf4jnsgd1na2vs0mg"},{"bike_id":"87af07c5-6cc9-4f25-898f-2a9fbe91f272","system_id":"levelo_inurba_marseille","lat":43.30651,"lon":5.40095,"is_reserved":false,"is_disabled":false,"rental_uris":{"android":"levelo://app?vid=87af07c5-6cc9-4f25-898f-2a9fbe91f272","ios":"levelo://app?vid=87af07c5-6cc9-4f25-898f-2a9fbe91f272"},"vehicle_type_id":"4","last_reported":1750461060,"current_range_meters":16400,"station_id":"ce4bh112rcd13ifvqda0","pricing_plan_id":"cebpf4jnsgd1na2vs0mg"},{"bike_id":"204afd8f-d13a-468d-a59c-e2db9671fff1","system_id":"levelo_inurba_marseille","lat":43.24407,"lon":5.3711,"is_reserved":false,"is_disabled":false,"rental_uris":{"android":"levelo://app?vid=204afd8f-d13a-468d-a59c-e2db9671fff1","ios":"levelo://app?vid=204afd8f-d13a-468d-a59c-e2db9671fff1"},"vehicle_type_id":"4","last_reported":1750461060,"current_range_meters":16400,"station_id":"ce4bhhh2rcd13ifvqfk0","pricing_plan_id":"cebpf4jnsgd1na2vs0mg"},{"bike_id":"01c0ac0f-b40f-4f7c-a9fe-4fc3ed3169fe","system_id":"levelo_inurba_marseille","lat":43.25969,"lon":5.37546,"is_reserved":false,"is_disabled":false,"rental_uris":{"android":"levelo://app?vid=01c0ac0f-b40f-4f7c-a9fe-4fc3ed3169fe","ios":"levelo://app?vid=01c0ac0f-b40f-4f7c-a9fe-4fc3ed3169fe"},"vehicle_type_id":"4","last_reported":1750461060,"current_range_meters":16800,"station_id":"","pricing_plan_id":"cebpf4jnsgd1na2vs0mg"},{"bike_id":"ffbb0c22-3f4e-4cdb-a0e5-79e3b9f3e1a2","system_id":"levelo_inurba_marseille","lat":43.33768,"lon":5.3744,"is_reserved":false,"is_disabled":false,"rental_uris":{"android":"levelo://app?vid=ffbb0c22-3f4e-4cdb-a0e5-79e3b9f3e1a2","ios":"levelo://app?vid=ffbb0c22-3f4e-4cdb-a0e5-79e3b9f3e1a2"},"vehicle_type_id":"4","last_reported":1750461060,"current_range_meters":16800,"station_id":"","pricing_plan_id":"cebpf4jnsgd1na2vs0mg"},{"bike_id":"9aac40e1-2263-473e-afbd-1a2dbbc8ac40","system_id":"levelo_inurba_marseille","lat":43.29533,"lon":5.38548,"is_reserved":false,"is_disabled":false,"rental_uris":{"android":"levelo://app?vid=9aac40e1-2263-473e-afbd-1a2dbbc8ac40","ios":"levelo://app?vid=9aac40e1-2263-473e-afbd-1a2dbbc8ac40"},"vehicle_type_id":"4","last_reported":1750461060,"current_range_meters":16800,"station_id":"ce4bgih2rcd13ifvqba0","pricing_plan_id":"cebpf4jnsgd1na2vs0mg"},{"bike_id":"d8c3a28e-cadd-46fc-9c20-a05fa8cb60b8","system_id":"levelo_inurba_marseille","lat":43.31239,"lon":5.36851,"is_reserved":false,"is_disabled":false,"rental_uris":{"android":"levelo://app?vid=d8c3a28e-cadd-46fc-9c20-a05fa8cb60b8","ios":"levelo://app?vid=d8c3a28e-cadd-46fc-9c20-a05fa8cb60b8"},"vehicle_type_id":"4","last_reported":1750461060,"current_range_meters":16800,"station_id":"ce4bgl92rcd13ifvqbq0","pricing_plan_id":"cebpf4jnsgd1na2vs0mg"},{"bike_id":"d7870a1b-4eee-4dfd-b60c-83b83c9d9614","system_id":"levelo_inurba_marseille","lat":43.30637,"lon":5.40067,"is_reserved":false,"is_disabled":false,"rental_uris":{"android":"levelo://app?vid=d7870a1b-4eee-4dfd-b60c-83b83c9d9614","ios":"levelo://app?vid=d7870a1b-4eee-4dfd-b60c-83b83c9d9614"},"vehicle_type_id":"4","last_reported":1750461060,"current_range_meters":16800,"station_id":"ce4bh112rcd13ifvqda0","pricing_plan_id":"cebpf4jnsgd1na2vs0mg"},{"bike_id":"f8c862df-419e-420f-ad3a-f648577b7340","system_id":"levelo_inurba_marseille","lat":43.28676,"lon":5.37387,"is_reserved":false,"is_disabled":false,"rental_uris":{"android":"levelo://app?vid=f8c862df-419e-420f-ad3a-f648577b7340","ios":"levelo://app?vid=f8c862df-419e-420f-ad3a-f648577b7340"},"vehicle_type_id":"4","last_reported":1750461060,"current_range_meters":16800,"station_id":"ce4bh3p2rcd13ifvqdq0","pricing_plan_id":"cebpf4jnsgd1na2vs0mg"},{"bike_id":"11f22ee7-da0e-4293-a0e0-53a0b181325a","system_id":"levelo_inurba_marseille","lat":43.23191,"lon":5.35545,"is_reserved":false,"is_disabled":false,"rental_uris":{"android":"levelo://app?vid=11f22ee7-da0e-4293-a0e0-53a0b181325a","ios":"levelo://app?vid=11f22ee7-da0e-4293-a0e0-53a0b181325a"},"vehicle_type_id":"4","last_reported":1750461060,"current_range_meters":16800,"station_id":"ce4bhu92rcd13ifvqi70","pricing_plan_id":"cebpf4jnsgd1na2vs0mg"},{"bike_id":"f8df2956-f236-4a57-bc5d-1884300c4377","system_id":"levelo_inurba_marseille","lat":43.31273,"lon":5.401698,"is_reserved":false,"is_disabled":false,"rental_uris":{"android":"levelo://app?vid=f8df2956-f236-4a57-bc5d-1884300c4377","ios":"levelo://app?vid=f8df2956-f236-4a57-bc5d-1884300c4377"},"vehicle_type_id":"4","last_reported":1750461060,"current_range_meters":17200,"station_id":"ce4bh092rcd13ifvqd30","pricing_plan_id":"cebpf4jnsgd1na2vs0mg"},{"bike_id":"9436b3f7-e71d-4814-81fe-95d1af5df695","system_id":"levelo_inurba_marseille","lat":43.21188,"lon":5.35067,"is_reserved":false,"is_disabled":false,"rental_uris":{"android":"levelo://app?vid=9436b3f7-e71d-4814-81fe-95d1af5df695","ios":"levelo://app?vid=9436b3f7-e71d-4814-81fe-95d1af5df695"},"vehicle_type_id":"4","last_reported":1750461060,"current_range_meters":17200,"station_id":"st_cvj6sg6p6f1abm77japg","pricing_plan_id":"cebpf4jnsgd1na2vs0mg"},{"bike_id":"498fcd46-6a89-4e3e-b712-1b44839b5562","system_id":"levelo_inurba_marseille","lat":43.3203,"lon":5.40817,"is_reserved":false,"is_disabled":false,"rental_uris":{"android":"levelo://app?vid=498fcd46-6a89-4e3e-b712-1b44839b5562","ios":"levelo://app?vid=498fcd46-6a89-4e3e-b712-1b44839b5562"},"vehicle_type_id":"4","last_reported":1750461060,"current_range_meters":17600,"station_id":"","pricing_plan_id":"cebpf4jnsgd1na2vs0mg"},{"bike_id":"4318a8cc-26e8-43f1-ae5b-aeda950b8f47","system_id":"levelo_inurba_marseille","lat":43.2997,"lon":5.38489,"is_reserved":false,"is_disabled":false,"rental_uris":{"android":"levelo://app?vid=4318a8cc-26e8-43f1-ae5b-aeda950b8f47","ios":"levelo://app?vid=4318a8cc-26e8-43f1-ae5b-aeda950b8f47"},"vehicle_type_id":"4","last_reported":1750461060,"current_range_meters":17600,"station_id":"ce4bgj92rcd13ifvqbd0","pricing_plan_id":"cebpf4jnsgd1na2vs0mg"},{"bike_id":"1613cb90-5ca8-442f-9eee-3bcd7ac9806f","system_id":"levelo_inurba_marseille","lat":43.3088,"lon":5.37193,"is_reserved":false,"is_disabled":false,"rental_uris":{"android":"levelo://app?vid=1613cb90-5ca8-442f-9eee-3bcd7ac9806f","ios":"levelo://app?vid=1613cb90-5ca8-442f-9eee-3bcd7ac9806f"},"vehicle_type_id":"4","last_reported":1750461060,"current_range_meters":17600,"station_id":"ce4bguh2rcd13ifvqckg","pricing_plan_id":"cebpf4jnsgd1na2vs0mg"},{"bike_id":"80d0ab62-644b-4203-8f13-cadd17ad1e74","system_id":"levelo_inurba_marseille","lat":43.30926,"lon":5.40148,"is_reserved":false,"is_disabled":false,"rental_uris":{"android":"levelo://app?vid=80d0ab62-644b-4203-8f13-cadd17ad1e74","ios":"levelo://app?vid=80d0ab62-644b-4203-8f13-cadd17ad1e74"},"vehicle_type_id":"4","last_reported":1750461060,"current_range_meters":17600,"station_id":"ce4bgvp2rcd13ifvqct0","pricing_plan_id":"cebpf4jnsgd1na2vs0mg"},{"bike_id":"fe3cb918-36b5-44eb-8e6c-27457eb9ab05","system_id":"levelo_inurba_marseille","lat":43.29876,"lon":5.38916,"is_reserved":false,"is_disabled":false,"rental_uris":{"android":"levelo://app?vid=fe3cb918-36b5-44eb-8e6c-27457eb9ab05","ios":"levelo://app?vid=fe3cb918-36b5-44eb-8e6c-27457eb9ab05"},"vehicle_type_id":"4","last_reported":1750461060,"current_range_meters":17600,"station_id":"ce4bh392rcd13ifvqdl0","pricing_plan_id":"cebpf4jnsgd1na2vs0mg"},{"bike_id":"2cec0bc7-dead-4af8-95ca-e858e0d59839","system_id":"levelo_inurba_marseille","lat":43.289316,"lon":5.366398,"is_reserved":false,"is_disabled":false,"rental_uris":{"android":"levelo://app?vid=2cec0bc7-dead-4af8-95ca-e858e0d59839","ios":"levelo://app?vid=2cec0bc7-dead-4af8-95ca-e858e0d59839"},"vehicle_type_id":"4","last_reported":1750461060,"current_range_meters":17600,"station_id":"ce4bhap2rcd13ifvqek0","pricing_plan_id":"cebpf4jnsgd1na2vs0mg"},{"bike_id":"6bb1385e-44bd-4586-9442-45d772cca7fa","system_id":"levelo_inurba_marseille","lat":43.258562,"lon":5.399059,"is_reserved":false,"is_disabled":false,"rental_uris":{"android":"levelo://app?vid=6bb1385e-44bd-4586-9442-45d772cca7fa","ios":"levelo://app?vid=6bb1385e-44bd-4586-9442-45d772cca7fa"},"vehicle_type_id":"4","last_reported":1750461060,"current_range_meters":17600,"station_id":"ce4bhl92rcd13ifvqghg","pricing_plan_id":"cebpf4jnsgd1na2vs0mg"},{"bike_id":"3d2d6044-6185-4c45-8ef2-14dfc8377c45","system_id":"levelo_inurba_marseille","lat":43.32124,"lon":5.36829,"is_reserved":false,"is_disabled":false,"rental_uris":{"android":"levelo://app?vid=3d2d6044-6185-4c45-8ef2-14dfc8377c45","ios":"levelo://app?vid=3d2d6044-6185-4c45-8ef2-14dfc8377c45"},"vehicle_type_id":"4","last_reported":1750461060,"current_range_meters":17600,"station_id":"ce4bhrh2rcd13ifvqhug","pricing_plan_id":"cebpf4jnsgd1na2vs0mg"},{"bike_id":"d0d48e8d-9e6c-43f1-b84c-7bf2266fb626","system_id":"levelo_inurba_marseille","lat":43.23194,"lon":5.35552,"is_reserved":false,"is_disabled":false,"rental_uris":{"android":"levelo://app?vid=d0d48e8d-9e6c-43f1-b84c-7bf2266fb626","ios":"levelo://app?vid=d0d48e8d-9e6c-43f1-b84c-7bf2266fb626"},"vehicle_type_id":"4","last_reported":1750461060,"current_range_meters":17600,"station_id":"ce4bhu92rcd13ifvqi70","pricing_plan_id":"cebpf4jnsgd1na2vs0mg"},{"bike_id":"38b4578b-d322-4ae7-86ef-2a7e9839b4fd","system_id":"levelo_inurba_marseille","lat":43.21181,"lon":5.35086,"is_reserved":false,"is_disabled":false,"rental_uris":{"android":"levelo://app?vid=38b4578b-d322-4ae7-86ef-2a7e9839b4fd","ios":"levelo://app?vid=38b4578b-d322-4ae7-86ef-2a7e9839b4fd"},"vehicle_type_id":"4","last_reported":1750461060,"current_range_meters":17600,"station_id":"st_cvj6sg6p6f1abm77japg","pricing_plan_id":"cebpf4jnsgd1na2vs0mg"},{"bike_id":"51924496-d375-43d1-9f3c-2086be022a83","system_id":"levelo_inurba_marseille","lat":43.25989,"lon":5.38669,"is_reserved":false,"is_disabled":false,"rental_uris":{"android":"levelo://app?vid=51924496-d375-43d1-9f3c-2086be022a83","ios":"levelo://app?vid=51924496-d375-43d1-9f3c-2086be022a83"},"vehicle_type_id":"4","last_reported":1750461060,"current_range_meters":18000,"station_id":"","pricing_plan_id":"cebpf4jnsgd1na2vs0mg"},{"bike_id":"a03a949d-876f-42db-9564-0aeae678fff4","system_id":"levelo_inurba_marseille","lat":43.29419,"lon":5.445,"is_reserved":false,"is_disabled":false,"rental_uris":{"android":"levelo://app?vid=a03a949d-876f-42db-9564-0aeae678fff4","ios":"levelo://app?vid=a03a949d-876f-42db-9564-0aeae678fff4"},"vehicle_type_id":"4","last_reported":1750461060,"current_range_meters":18000,"station_id":"","pricing_plan_id":"cebpf4jnsgd1na2vs0mg"},{"bike_id":"56faa6ab-2f83-450c-9e58-434be7d2d9fc","system_id":"levelo_inurba_marseille","lat":43.31115,"lon":5.37768,"is_reserved":false,"is_disabled":false,"rental_uris":{"android":"levelo://app?vid=56faa6ab-2f83-450c-9e58-434be7d2d9fc","ios":"levelo://app?vid=56faa6ab-2f83-450c-9e58-434be7d2d9fc"},"vehicle_type_id":"4","last_reported":1750461060,"current_range_meters":18000,"station_id":"ce4bgt92rcd13ifvqcg0","pricing_plan_id":"cebpf4jnsgd1na2vs0mg"},{"bike_id":"fc9b7841-cd67-430b-bd6c-e0fddb878ed2","system_id":"levelo_inurba_marseille","lat":43.30891,"lon":5.3719,"is_reserved":false,"is_disabled":false,"rental_uris":{"android":"levelo://app?vid=fc9b7841-cd67-430b-bd6c-e0fddb878ed2","ios":"levelo://app?vid=fc9b7841-cd67-430b-bd6c-e0fddb878ed2"},"vehicle_type_id":"4","last_reported":1750461060,"current_range_meters":18000,"station_id":"ce4bguh2rcd13ifvqckg","pricing_plan_id":"cebpf4jnsgd1na2vs0mg"},{"bike_id":"1289328c-2166-4054-b0b7-db1bcb46ecea","system_id":"levelo_inurba_marseille","lat":43.29877,"lon":5.39738,"is_reserved":false,"is_disabled":false,"rental_uris":{"android":"levelo://app?vid=1289328c-2166-4054-b0b7-db1bcb46ecea","ios":"levelo://app?vid=1289328c-2166-4054-b0b7-db1bcb46ecea"},"vehicle_type_id":"4","last_reported":1750461060,"current_range_meters":18000,"station_id":"ce4bh0h2rcd13ifvqd50","pricing_plan_id":"cebpf4jnsgd1na2vs0mg"},{"bike_id":"642df1c4-fe20-480b-820e-70df76caedbe","system_id":"levelo_inurba_marseille","lat":43.28464,"lon":5.35882,"is_reserved":false,"is_disabled":false,"rental_uris":{"android":"levelo://app?vid=642df1c4-fe20-480b-820e-70df76caedbe","ios":"levelo://app?vid=642df1c4-fe20-480b-820e-70df76caedbe"},"vehicle_type_id":"4","last_reported":1750461060,"current_range_meters":18000,"station_id":"ce4bhah2rcd13ifvqei0","pricing_plan_id":"cebpf4jnsgd1na2vs0mg"},{"bike_id":"7d443871-4f71-4e54-9cca-1dc90703b858","system_id":"levelo_inurba_marseille","lat":43.26166,"lon":5.37479,"is_reserved":false,"is_disabled":false,"rental_uris":{"android":"levelo://app?vid=7d443871-4f71-4e54-9cca-1dc90703b858","ios":"levelo://app?vid=7d443871-4f71-4e54-9cca-1dc90703b858"},"vehicle_type_id":"4","last_reported":1750461060,"current_range_meters":18000,"station_id":"ce4bhgp2rcd13ifvqfc0","pricing_plan_id":"cebpf4jnsgd1na2vs0mg"},{"bike_id":"bab4b698-c36c-4b8f-9120-5884c50f82ae","system_id":"levelo_inurba_marseille","lat":43.25826,"lon":5.39438,"is_reserved":false,"is_disabled":false,"rental_uris":{"android":"levelo://app?vid=bab4b698-c36c-4b8f-9120-5884c50f82ae","ios":"levelo://app?vid=bab4b698-c36c-4b8f-9120-5884c50f82ae"},"vehicle_type_id":"4","last_reported":1750461060,"current_range_meters":18000,"station_id":"ce4bhip2rcd13ifvqft0","pricing_plan_id":"cebpf4jnsgd1na2vs0mg"},{"bike_id":"9fe7422a-7e0c-45dc-804e-d6475625cc7d","system_id":"levelo_inurba_marseille","lat":43.26224,"lon":5.40465,"is_reserved":false,"is_disabled":false,"rental_uris":{"android":"levelo://app?vid=9fe7422a-7e0c-45dc-804e-d6475625cc7d","ios":"levelo://app?vid=9fe7422a-7e0c-45dc-804e-d6475625cc7d"},"vehicle_type_id":"4","last_reported":1750461060,"current_range_meters":18000,"station_id":"ce4bhmh2rcd13ifvqgmg","pricing_plan_id":"cebpf4jnsgd1na2vs0mg"},{"bike_id":"efc2ef6c-5a45-4328-ba7d-f3f9aa72168e","system_id":"levelo_inurba_marseille","lat":43.29554,"lon":5.42296,"is_reserved":false,"is_disabled":false,"rental_uris":{"android":"levelo://app?vid=efc2ef6c-5a45-4328-ba7d-f3f9aa72168e","ios":"levelo://app?vid=efc2ef6c-5a45-4328-ba7d-f3f9aa72168e"},"vehicle_type_id":"4","last_reported":1750461060,"current_range_meters":18000,"station_id":"ce4bhph2rcd13ifvqhdg","pricing_plan_id":"cebpf4jnsgd1na2vs0mg"},{"bike_id":"36db57a7-8739-4660-a73c-c3370e2d458e","system_id":"levelo_inurba_marseille","lat":43.23192,"lon":5.35565,"is_reserved":false,"is_disabled":false,"rental_uris":{"android":"levelo://app?vid=36db57a7-8739-4660-a73c-c3370e2d458e","ios":"levelo://app?vid=36db57a7-8739-4660-a73c-c3370e2d458e"},"vehicle_type_id":"4","last_reported":1750461060,"current_range_meters":18000,"station_id":"ce4bhu92rcd13ifvqi70","pricing_plan_id":"cebpf4jnsgd1na2vs0mg"},{"bike_id":"280aedab-328f-4555-abae-9ef1b83c26cf","system_id":"levelo_inurba_marseille","lat":43.26805,"lon":5.40273,"is_reserved":false,"is_disabled":false,"rental_uris":{"android":"levelo://app?vid=280aedab-328f-4555-abae-9ef1b83c26cf","ios":"levelo://app?vid=280aedab-328f-4555-abae-9ef1b83c26cf"},"vehicle_type_id":"4","last_reported":1750461060,"current_range_meters":18000,"station_id":"ce501612rcd8frsf0b60","pricing_plan_id":"cebpf4jnsgd1na2vs0mg"},{"bike_id":"89fb9871-bc7b-4fc3-a3a5-ef7f58713fa0","system_id":"levelo_inurba_marseille","lat":43.2732,"lon":5.36277,"is_reserved":false,"is_disabled":false,"rental_uris":{"android":"levelo://app?vid=89fb9871-bc7b-4fc3-a3a5-ef7f58713fa0","ios":"levelo://app?vid=89fb9871-bc7b-4fc3-a3a5-ef7f58713fa0"},"vehicle_type_id":"4","last_reported":1750461060,"current_range_meters":18800,"station_id":"","pricing_plan_id":"cebpf4jnsgd1na2vs0mg"},{"bike_id":"4652fcd3-8fa3-4f43-ac1d-f66153d7f3b7","system_id":"levelo_inurba_marseille","lat":43.28194,"lon":5.40363,"is_reserved":false,"is_disabled":false,"rental_uris":{"android":"levelo://app?vid=4652fcd3-8fa3-4f43-ac1d-f66153d7f3b7","ios":"levelo://app?vid=4652fcd3-8fa3-4f43-ac1d-f66153d7f3b7"},"vehicle_type_id":"4","last_reported":1750461060,"current_range_meters":18800,"station_id":"","pricing_plan_id":"cebpf4jnsgd1na2vs0mg"},{"bike_id":"f6069a5d-a2bc-44cc-bc6f-f26f79591d92","system_id":"levelo_inurba_marseille","lat":43.30777,"lon":5.37344,"is_reserved":false,"is_disabled":false,"rental_uris":{"android":"levelo://app?vid=f6069a5d-a2bc-44cc-bc6f-f26f79591d92","ios":"levelo://app?vid=f6069a5d-a2bc-44cc-bc6f-f26f79591d92"},"vehicle_type_id":"4","last_reported":1750461060,"current_range_meters":18800,"station_id":"","pricing_plan_id":"cebpf4jnsgd1na2vs0mg"},{"bike_id":"c1e361fc-1d6f-4b1a-a8d6-a6fe32500439","system_id":"levelo_inurba_marseille","lat":43.28565,"lon":5.39498,"is_reserved":false,"is_disabled":false,"rental_uris":{"android":"levelo://app?vid=c1e361fc-1d6f-4b1a-a8d6-a6fe32500439","ios":"levelo://app?vid=c1e361fc-1d6f-4b1a-a8d6-a6fe32500439"},"vehicle_type_id":"4","last_reported":1750461060,"current_range_meters":18800,"station_id":"ce4bh292rcd13ifvqdg0","pricing_plan_id":"cebpf4jnsgd1na2vs0mg"},{"bike_id":"443dbbb8-21ad-4e53-a14c-6539edcbd9fd","system_id":"levelo_inurba_marseille","lat":43.27993,"lon":5.4166,"is_reserved":false,"is_disabled":false,"rental_uris":{"android":"levelo://app?vid=443dbbb8-21ad-4e53-a14c-6539edcbd9fd","ios":"levelo://app?vid=443dbbb8-21ad-4e53-a14c-6539edcbd9fd"},"vehicle_type_id":"4","last_reported":1750461060,"current_range_meters":18800,"station_id":"ce4bho12rcd13ifvqh1g","pricing_plan_id":"cebpf4jnsgd1na2vs0mg"},{"bike_id":"419a4b54-9be6-4fb7-a1bd-d164f46dcb93","system_id":"levelo_inurba_marseille","lat":43.288173,"lon":5.400291,"is_reserved":false,"is_disabled":false,"rental_uris":{"android":"levelo://app?vid=419a4b54-9be6-4fb7-a1bd-d164f46dcb93","ios":"levelo://app?vid=419a4b54-9be6-4fb7-a1bd-d164f46dcb93"},"vehicle_type_id":"4","last_reported":1750461060,"current_range_meters":18800,"station_id":"ce4bho92rcd13ifvqh3g","pricing_plan_id":"cebpf4jnsgd1na2vs0mg"},{"bike_id":"528f1d85-c958-46ad-ac36-f0e9aadbc943","system_id":"levelo_inurba_marseille","lat":43.32042,"lon":5.4155,"is_reserved":false,"is_disabled":false,"rental_uris":{"android":"levelo://app?vid=528f1d85-c958-46ad-ac36-f0e9aadbc943","ios":"levelo://app?vid=528f1d85-c958-46ad-ac36-f0e9aadbc943"},"vehicle_type_id":"4","last_reported":1750461060,"current_range_meters":18800,"station_id":"ce4bhq92rcd13ifvqhkg","pricing_plan_id":"cebpf4jnsgd1na2vs0mg"},{"bike_id":"5e009fb5-ddaf-4089-9f37-5bfe598594e5","system_id":"levelo_inurba_marseille","lat":43.30129,"lon":5.37338,"is_reserved":false,"is_disabled":false,"rental_uris":{"android":"levelo://app?vid=5e009fb5-ddaf-4089-9f37-5bfe598594e5","ios":"levelo://app?vid=5e009fb5-ddaf-4089-9f37-5bfe598594e5"},"vehicle_type_id":"4","last_reported":1750461060,"current_range_meters":19200,"station_id":"","pricing_plan_id":"cebpf4jnsgd1na2vs0mg"},{"bike_id":"9e7f6aed-58c8-4efb-8ce7-9f1c4b7635c8","system_id":"levelo_inurba_marseille","lat":43.30211,"lon":5.39462,"is_reserved":false,"is_disabled":false,"rental_uris":{"android":"levelo://app?vid=9e7f6aed-58c8-4efb-8ce7-9f1c4b7635c8","ios":"levelo://app?vid=9e7f6aed-58c8-4efb-8ce7-9f1c4b7635c8"},"vehicle_type_id":"4","last_reported":1750461060,"current_range_meters":19200,"station_id":"ce4bh0p2rcd13ifvqd70","pricing_plan_id":"cebpf4jnsgd1na2vs0mg"},{"bike_id":"ad07e9eb-aca9-4dd5-a012-263b5eb282e7","system_id":"levelo_inurba_marseille","lat":43.30595,"lon":5.39362,"is_reserved":false,"is_disabled":false,"rental_uris":{"android":"levelo://app?vid=ad07e9eb-aca9-4dd5-a012-263b5eb282e7","ios":"levelo://app?vid=ad07e9eb-aca9-4dd5-a012-263b5eb282e7"},"vehicle_type_id":"4","last_reported":1750461060,"current_range_meters":19200,"station_id":"ce4bh0p2rcd13ifvqd80","pricing_plan_id":"cebpf4jnsgd1na2vs0mg"},{"bike_id":"c1b9133a-17e5-4bf8-bd9b-3c83269e599d","system_id":"levelo_inurba_marseille","lat":43.28575,"lon":5.39495,"is_reserved":false,"is_disabled":false,"rental_uris":{"android":"levelo://app?vid=c1b9133a-17e5-4bf8-bd9b-3c83269e599d","ios":"levelo://app?vid=c1b9133a-17e5-4bf8-bd9b-3c83269e599d"},"vehicle_type_id":"4","last_reported":1750461060,"current_range_meters":19200,"station_id":"ce4bh292rcd13ifvqdg0","pricing_plan_id":"cebpf4jnsgd1na2vs0mg"},{"bike_id":"701b6245-aa68-47c0-9034-23daef2e3c08","system_id":"levelo_inurba_marseille","lat":43.28411,"lon":5.37517,"is_reserved":false,"is_disabled":false,"rental_uris":{"android":"levelo://app?vid=701b6245-aa68-47c0-9034-23daef2e3c08","ios":"levelo://app?vid=701b6245-aa68-47c0-9034-23daef2e3c08"},"vehicle_type_id":"4","last_reported":1750461060,"current_range_meters":19200,"station_id":"ce4bh412rcd13ifvqds0","pricing_plan_id":"cebpf4jnsgd1na2vs0mg"},{"bike_id":"37320e13-0a94-4964-94c3-a05e1a398188","system_id":"levelo_inurba_marseille","lat":43.2657,"lon":5.39021,"is_reserved":false,"is_disabled":false,"rental_uris":{"android":"levelo://app?vid=37320e13-0a94-4964-94c3-a05e1a398188","ios":"levelo://app?vid=37320e13-0a94-4964-94c3-a05e1a398188"},"vehicle_type_id":"4","last_reported":1750461060,"current_range_meters":19200,"station_id":"ce4bhe12rcd13ifvqf30","pricing_plan_id":"cebpf4jnsgd1na2vs0mg"},{"bike_id":"b7bb46fc-5dd8-4c49-be42-13b8110ebae9","system_id":"levelo_inurba_marseille","lat":43.26062,"lon":5.39399,"is_reserved":false,"is_disabled":false,"rental_uris":{"android":"levelo://app?vid=b7bb46fc-5dd8-4c49-be42-13b8110ebae9","ios":"levelo://app?vid=b7bb46fc-5dd8-4c49-be42-13b8110ebae9"},"vehicle_type_id":"4","last_reported":1750461060,"current_range_meters":19200,"station_id":"ce4bhh92rcd13ifvqfj0","pricing_plan_id":"cebpf4jnsgd1na2vs0mg"},{"bike_id":"dfd756b8-fa15-44c7-aa7b-77d2639df926","system_id":"levelo_inurba_marseille","lat":43.26214,"lon":5.4046,"is_reserved":false,"is_disabled":false,"rental_uris":{"android":"levelo://app?vid=dfd756b8-fa15-44c7-aa7b-77d2639df926","ios":"levelo://app?vid=dfd756b8-fa15-44c7-aa7b-77d2639df926"},"vehicle_type_id":"4","last_reported":1750461060,"current_range_meters":19200,"station_id":"ce4bhmh2rcd13ifvqgmg","pricing_plan_id":"cebpf4jnsgd1na2vs0mg"},{"bike_id":"1c6eee43-889f-4cff-bc8c-307447a31830","system_id":"levelo_inurba_marseille","lat":43.30808,"lon":5.4353,"is_reserved":false,"is_disabled":false,"rental_uris":{"android":"levelo://app?vid=1c6eee43-889f-4cff-bc8c-307447a31830","ios":"levelo://app?vid=1c6eee43-889f-4cff-bc8c-307447a31830"},"vehicle_type_id":"4","last_reported":1750461060,"current_range_meters":19200,"station_id":"ce4bhph2rcd13ifvqheg","pricing_plan_id":"cebpf4jnsgd1na2vs0mg"},{"bike_id":"b5223d4d-4319-49c8-a89e-49fc64e254be","system_id":"levelo_inurba_marseille","lat":43.26798,"lon":5.40262,"is_reserved":false,"is_disabled":false,"rental_uris":{"android":"levelo://app?vid=b5223d4d-4319-49c8-a89e-49fc64e254be","ios":"levelo://app?vid=b5223d4d-4319-49c8-a89e-49fc64e254be"},"vehicle_type_id":"4","last_reported":1750461060,"current_range_meters":19200,"station_id":"ce501612rcd8frsf0b60","pricing_plan_id":"cebpf4jnsgd1na2vs0mg"},{"bike_id":"04b016b0-78f2-4a40-9df3-2f41fff75a5c","system_id":"levelo_inurba_marseille","lat":43.21178,"lon":5.35107,"is_reserved":false,"is_disabled":false,"rental_uris":{"android":"levelo://app?vid=04b016b0-78f2-4a40-9df3-2f41fff75a5c","ios":"levelo://app?vid=04b016b0-78f2-4a40-9df3-2f41fff75a5c"},"vehicle_type_id":"4","last_reported":1750461060,"current_range_meters":19200,"station_id":"st_cvj6sg6p6f1abm77japg","pricing_plan_id":"cebpf4jnsgd1na2vs0mg"},{"bike_id":"55b0a1e6-ecab-4d37-aef2-b2afd7dbbed7","system_id":"levelo_inurba_marseille","lat":43.30138,"lon":5.39874,"is_reserved":false,"is_disabled":false,"rental_uris":{"android":"levelo://app?vid=55b0a1e6-ecab-4d37-aef2-b2afd7dbbed7","ios":"levelo://app?vid=55b0a1e6-ecab-4d37-aef2-b2afd7dbbed7"},"vehicle_type_id":"4","last_reported":1750461060,"current_range_meters":19600,"station_id":"ce4bh0h2rcd13ifvqd40","pricing_plan_id":"cebpf4jnsgd1na2vs0mg"},{"bike_id":"e0170545-b6ce-4d40-a456-f8850d8484c6","system_id":"levelo_inurba_marseille","lat":43.28661,"lon":5.38669,"is_reserved":false,"is_disabled":false,"rental_uris":{"android":"levelo://app?vid=e0170545-b6ce-4d40-a456-f8850d8484c6","ios":"levelo://app?vid=e0170545-b6ce-4d40-a456-f8850d8484c6"},"vehicle_type_id":"4","last_reported":1750461060,"current_range_meters":19600,"station_id":"ce4bh492rcd13ifvqdug","pricing_plan_id":"cebpf4jnsgd1na2vs0mg"},{"bike_id":"c7746d98-c277-42ee-a44d-2fcc471cf75b","system_id":"levelo_inurba_marseille","lat":43.29027,"lon":5.38654,"is_reserved":false,"is_disabled":false,"rental_uris":{"android":"levelo://app?vid=c7746d98-c277-42ee-a44d-2fcc471cf75b","ios":"levelo://app?vid=c7746d98-c277-42ee-a44d-2fcc471cf75b"},"vehicle_type_id":"4","last_reported":1750461060,"current_range_meters":19600,"station_id":"ce4bh4p2rcd13ifvqe0g","pricing_plan_id":"cebpf4jnsgd1na2vs0mg"},{"bike_id":"5309209e-aa6d-436c-a0b1-168b59bac2b0","system_id":"levelo_inurba_marseille","lat":43.24653,"lon":5.38892,"is_reserved":false,"is_disabled":false,"rental_uris":{"android":"levelo://app?vid=5309209e-aa6d-436c-a0b1-168b59bac2b0","ios":"levelo://app?vid=5309209e-aa6d-436c-a0b1-168b59bac2b0"},"vehicle_type_id":"4","last_reported":1750461060,"current_range_meters":19600,"station_id":"ce4bhg12rcd13ifvqf60","pricing_plan_id":"cebpf4jnsgd1na2vs0mg"},{"bike_id":"8ca6d5c2-04d5-4e82-b9de-8f733aaaed78","system_id":"levelo_inurba_marseille","lat":43.28701,"lon":5.3999,"is_reserved":false,"is_disabled":false,"rental_uris":{"android":"levelo://app?vid=8ca6d5c2-04d5-4e82-b9de-8f733aaaed78","ios":"levelo://app?vid=8ca6d5c2-04d5-4e82-b9de-8f733aaaed78"},"vehicle_type_id":"4","last_reported":1750461060,"current_range_meters":19600,"station_id":"ce4bho92rcd13ifvqh3g","pricing_plan_id":"cebpf4jnsgd1na2vs0mg"},{"bike_id":"4d80d21e-3dc9-4004-a3c0-eb7b371a8ccf","system_id":"levelo_inurba_marseille","lat":43.33008,"lon":5.39433,"is_reserved":false,"is_disabled":false,"rental_uris":{"android":"levelo://app?vid=4d80d21e-3dc9-4004-a3c0-eb7b371a8ccf","ios":"levelo://app?vid=4d80d21e-3dc9-4004-a3c0-eb7b371a8ccf"},"vehicle_type_id":"4","last_reported":1750461060,"current_range_meters":20000,"station_id":"","pricing_plan_id":"cebpf4jnsgd1na2vs0mg"},{"bike_id":"91d988b7-666c-44b2-b2e1-aca873c9037e","system_id":"levelo_inurba_marseille","lat":43.299637,"lon":5.39873,"is_reserved":false,"is_disabled":false,"rental_uris":{"android":"levelo://app?vid=91d988b7-666c-44b2-b2e1-aca873c9037e","ios":"levelo://app?vid=91d988b7-666c-44b2-b2e1-aca873c9037e"},"vehicle_type_id":"4","last_reported":1750461060,"current_range_meters":20000,"station_id":"","pricing_plan_id":"cebpf4jnsgd1na2vs0mg"},{"bike_id":"c0091481-7aaa-4cf8-800b-c8d08185ac9f","system_id":"levelo_inurba_marseille","lat":43.301963,"lon":5.400583,"is_reserved":false,"is_disabled":false,"rental_uris":{"android":"levelo://app?vid=c0091481-7aaa-4cf8-800b-c8d08185ac9f","ios":"levelo://app?vid=c0091481-7aaa-4cf8-800b-c8d08185ac9f"},"vehicle_type_id":"4","last_reported":1750461060,"current_range_meters":20000,"station_id":"ce4bgvh2rcd13ifvqcs0","pricing_plan_id":"cebpf4jnsgd1na2vs0mg"},{"bike_id":"a966ddd2-fafd-45a6-865d-233116c7ab8f","system_id":"levelo_inurba_marseille","lat":43.30415,"lon":5.39747,"is_reserved":false,"is_disabled":false,"rental_uris":{"android":"levelo://app?vid=a966ddd2-fafd-45a6-865d-233116c7ab8f","ios":"levelo://app?vid=a966ddd2-fafd-45a6-865d-233116c7ab8f"},"vehicle_type_id":"4","last_reported":1750461060,"current_range_meters":20000,"station_id":"ce4bh092rcd13ifvqd20","pricing_plan_id":"cebpf4jnsgd1na2vs0mg"},{"bike_id":"ef63bf4d-6c01-4a74-86e9-35921c48f925","system_id":"levelo_inurba_marseille","lat":43.30647,"lon":5.40079,"is_reserved":false,"is_disabled":false,"rental_uris":{"android":"levelo://app?vid=ef63bf4d-6c01-4a74-86e9-35921c48f925","ios":"levelo://app?vid=ef63bf4d-6c01-4a74-86e9-35921c48f925"},"vehicle_type_id":"4","last_reported":1750461060,"current_range_meters":20000,"station_id":"ce4bh112rcd13ifvqda0","pricing_plan_id":"cebpf4jnsgd1na2vs0mg"},{"bike_id":"26b95de5-0df1-4b0c-a6b0-36a0496ae321","system_id":"levelo_inurba_marseille","lat":43.3011,"lon":5.39134,"is_reserved":false,"is_disabled":false,"rental_uris":{"android":"levelo://app?vid=26b95de5-0df1-4b0c-a6b0-36a0496ae321","ios":"levelo://app?vid=26b95de5-0df1-4b0c-a6b0-36a0496ae321"},"vehicle_type_id":"4","last_reported":1750461060,"current_range_meters":20000,"station_id":"ce4bh192rcd13ifvqdb0","pricing_plan_id":"cebpf4jnsgd1na2vs0mg"},{"bike_id":"0ee00357-65ee-4712-803d-3ea83883e98d","system_id":"levelo_inurba_marseille","lat":43.24388,"lon":5.37064,"is_reserved":false,"is_disabled":false,"rental_uris":{"android":"levelo://app?vid=0ee00357-65ee-4712-803d-3ea83883e98d","ios":"levelo://app?vid=0ee00357-65ee-4712-803d-3ea83883e98d"},"vehicle_type_id":"4","last_reported":1750461060,"current_range_meters":20000,"station_id":"ce4bhhh2rcd13ifvqfk0","pricing_plan_id":"cebpf4jnsgd1na2vs0mg"},{"bike_id":"3cccfb59-6c0d-49eb-a7d8-2c3ce2ab8b5e","system_id":"levelo_inurba_marseille","lat":43.26799,"lon":5.40266,"is_reserved":false,"is_disabled":false,"rental_uris":{"android":"levelo://app?vid=3cccfb59-6c0d-49eb-a7d8-2c3ce2ab8b5e","ios":"levelo://app?vid=3cccfb59-6c0d-49eb-a7d8-2c3ce2ab8b5e"},"vehicle_type_id":"4","last_reported":1750461060,"current_range_meters":20000,"station_id":"ce501612rcd8frsf0b60","pricing_plan_id":"cebpf4jnsgd1na2vs0mg"},{"bike_id":"4a512f3f-53e0-40ca-a3ab-ecfa1d2cfb58","system_id":"levelo_inurba_marseille","lat":43.30151,"lon":5.38087,"is_reserved":false,"is_disabled":false,"rental_uris":{"android":"levelo://app?vid=4a512f3f-53e0-40ca-a3ab-ecfa1d2cfb58","ios":"levelo://app?vid=4a512f3f-53e0-40ca-a3ab-ecfa1d2cfb58"},"vehicle_type_id":"4","last_reported":1750461060,"current_range_meters":20400,"station_id":"ce4bgjp2rcd13ifvqbh0","pricing_plan_id":"cebpf4jnsgd1na2vs0mg"},{"bike_id":"04ee8092-af10-41ed-81db-f72403d43288","system_id":"levelo_inurba_marseille","lat":43.3088,"lon":5.39678,"is_reserved":false,"is_disabled":false,"rental_uris":{"android":"levelo://app?vid=04ee8092-af10-41ed-81db-f72403d43288","ios":"levelo://app?vid=04ee8092-af10-41ed-81db-f72403d43288"},"vehicle_type_id":"4","last_reported":1750461060,"current_range_meters":20400,"station_id":"ce4bh012rcd13ifvqcv0","pricing_plan_id":"cebpf4jnsgd1na2vs0mg"},{"bike_id":"50db237d-da14-49fe-9ddd-a9ce47cdf5bb","system_id":"levelo_inurba_marseille","lat":43.306488,"lon":5.400985,"is_reserved":false,"is_disabled":false,"rental_uris":{"android":"levelo://app?vid=50db237d-da14-49fe-9ddd-a9ce47cdf5bb","ios":"levelo://app?vid=50db237d-da14-49fe-9ddd-a9ce47cdf5bb"},"vehicle_type_id":"4","last_reported":1750461060,"current_range_meters":20400,"station_id":"ce4bh112rcd13ifvqda0","pricing_plan_id":"cebpf4jnsgd1na2vs0mg"},{"bike_id":"e1923973-da41-4df0-b8a8-20981ae5e691","system_id":"levelo_inurba_marseille","lat":43.29027,"lon":5.39974,"is_reserved":false,"is_disabled":false,"rental_uris":{"android":"levelo://app?vid=e1923973-da41-4df0-b8a8-20981ae5e691","ios":"levelo://app?vid=e1923973-da41-4df0-b8a8-20981ae5e691"},"vehicle_type_id":"4","last_reported":1750461060,"current_range_meters":20400,"station_id":"ce4bh392rcd13ifvqdm0","pricing_plan_id":"cebpf4jnsgd1na2vs0mg"},{"bike_id":"512a0a1f-bd3b-4454-829c-0a82de9cc9c6","system_id":"levelo_inurba_marseille","lat":43.28458,"lon":5.3588,"is_reserved":false,"is_disabled":false,"rental_uris":{"android":"levelo://app?vid=512a0a1f-bd3b-4454-829c-0a82de9cc9c6","ios":"levelo://app?vid=512a0a1f-bd3b-4454-829c-0a82de9cc9c6"},"vehicle_type_id":"4","last_reported":1750461060,"current_range_meters":20400,"station_id":"ce4bhah2rcd13ifvqei0","pricing_plan_id":"cebpf4jnsgd1na2vs0mg"},{"bike_id":"99375d0f-f8a8-48f8-b26c-d1f4446edeeb","system_id":"levelo_inurba_marseille","lat":43.28714,"lon":5.39942,"is_reserved":false,"is_disabled":false,"rental_uris":{"android":"levelo://app?vid=99375d0f-f8a8-48f8-b26c-d1f4446edeeb","ios":"levelo://app?vid=99375d0f-f8a8-48f8-b26c-d1f4446edeeb"},"vehicle_type_id":"4","last_reported":1750461060,"current_range_meters":20400,"station_id":"ce4bho92rcd13ifvqh3g","pricing_plan_id":"cebpf4jnsgd1na2vs0mg"},{"bike_id":"4d4df371-4a07-4078-b66c-0646e04ad4bf","system_id":"levelo_inurba_marseille","lat":43.29898,"lon":5.43672,"is_reserved":false,"is_disabled":false,"rental_uris":{"android":"levelo://app?vid=4d4df371-4a07-4078-b66c-0646e04ad4bf","ios":"levelo://app?vid=4d4df371-4a07-4078-b66c-0646e04ad4bf"},