{"last_updated":1747415294,"ttl":60,"version":"2.2","data":{"bikes":[{"bike_id":"00fab9c0-775c-4a40-b98f-eeb0f1b52555","system_id":"levelo_inurba_marseille","lat":43.31352,"lon":5.38499,"is_reserved":false,"is_disabled":true,"rental_uris":{"android":"levelo://app?vid=00fab9c0-775c-4a40-b98f-eeb0f1b52555","ios":"levelo://app?vid=00fab9c0-775c-4a40-b98f-eeb0f1b52555"},"vehicle_type_id":"4","last_reported":1747415294,"current_range_meters":2800,"station_id":"ce4bgt92rcd13ifvqcf0","pricing_plan_id":"cebpf4jnsgd1na2vs0mg"},{"bike_id":"9b7983f0-47d9-4090-92dc-b46372e13c61","system_id":"levelo_inurba_marseille","lat":43.29003,"lon":5.3561,"is_reserved":false,"is_disabled":false,"rental_uris":{"android":"levelo://app?vid=9b7983f0-47d9-4090-92dc-b46372e13c61","ios":"levelo://app?vid=9b7983f0-47d9-4090-92dc-b46372e13c61"},"vehicle_type_id":"4","last_reported":1747415294,"current_range_meters":1600,"station_id":"ce4bhb92rcd13ifvqen0","pricing_plan_id":"cebpf4jnsgd1na2vs0mg"},{"bike_id":"06cfbe6f-87aa-4850-9743-40b851e2b598","system_id":"levelo_inurba_marseille","lat":43.25106,"lon":5.4032,"is_reserved":false,"is_disabled":false,"rental_uris":{"android":"levelo://app?vid=06cfbe6f-87aa-4850-9743-40b851e2b598","ios":"levelo://app?vid=06cfbe6f-87aa-4850-9743-40b851e2b598"},"vehicle_type_id":"4","last_reported":1747415294,"current_range_meters":2800,"station_id":"ce4bhlh2rcd13ifvqgig","pricing_plan_id":"cebpf4jnsgd1na2vs0mg"},{"bike_id":"12beb1e8-834d-45e5-a169-5cb4906298e0","system_id":"levelo_inurba_marseille","lat":43.29614,"lon":5.37712,"is_reserved":false,"is_disabled":false,"rental_uris":{"android":"levelo://app?vid=12beb1e8-834d-45e5-a169-5cb4906298e0","ios":"levelo://app?vid=12beb1e8-834d-45e5-a169-5cb4906298e0"},"vehicle_type_id":"4","last_reported":1747415294,"current_range_meters":2800,"station_id":"ce4bgi92rcd13ifvqb90","pricing_plan_id":"cebpf4jnsgd1na2vs0mg"},{"bike_id":"6a4f9faf-01d8-42b0-a90d-b726a5f98146","system_id":"levelo_inurba_marseille","lat":43.28112,"lon":5.3783,"is_reserved":false,"is_disabled":false,"rental_uris":{"android":"levelo://app?vid=6a4f9faf-01d8-42b0-a90d-b726a5f98146","ios":"levelo://app?vid=6a4f9faf-01d8-42b0-a90d-b726a5f98146"},"vehicle_type_id":"4","last_reported":1747415294,"current_range_meters":2800,"station_id":"ce4bha12rcd13ifvqee0","pricing_plan_id":"cebpf4jnsgd1na2vs0mg"},{"bike_id":"49ecec31-1c06-4289-9f4b-349d575d7c54","system_id":"levelo_inurba_marseille","lat":43.2885,"lon":5.35847,"is_reserved":false,"is_disabled":false,"rental_uris":{"android":"levelo://app?vid=49ecec31-1c06-4289-9f4b-349d575d7c54","ios":"levelo://app?vid=49ecec31-1c06-4289-9f4b-349d575d7c54"},"vehicle_type_id":"4","last_reported":1747415294,"current_range_meters":2800,"station_id":"ce4bhb12rcd13ifvqem0","pricing_plan_id":"cebpf4jnsgd1na2vs0mg"},{"bike_id":"0a25aaaa-4fcb-4aaa-a23a-50f6de371e92","system_id":"levelo_inurba_marseille","lat":43.311674,"lon":5.387204,"is_reserved":false,"is_disabled":false,"rental_uris":{"android":"levelo://app?vid=0a25aaaa-4fcb-4aaa-a23a-50f6de371e92","ios":"levelo://app?vid=0a25aaaa-4fcb-4aaa-a23a-50f6de371e92"},"vehicle_type_id":"4","last_reported":1747415294,"current_range_meters":2800,"station_id":"ce4bgv12rcd13ifvqcp0","pricing_plan_id":"cebpf4jnsgd1na2vs0mg"},{"bike_id":"304c543a-b331-424b-ad6a-5a26e480cfbe","system_id":"levelo_inurba_marseille","lat":43.337444,"lon":5.374475,"is_reserved":false,"is_disabled":false,"rental_uris":{"android":"levelo://app?vid=304c543a-b331-424b-ad6a-5a26e480cfbe","ios":"levelo://app?vid=304c543a-b331-424b-ad6a-5a26e480cfbe"},"vehicle_type_id":"4","last_reported":1747415294,"current_range_meters":3200,"station_id":"","pricing_plan_id":"cebpf4jnsgd1na2vs0mg"},{"bike_id":"df6f1325-514d-446c-8c66-9993f4dce9b0","system_id":"levelo_inurba_marseille","lat":43.31227,"lon":5.36861,"is_reserved":false,"is_disabled":false,"rental_uris":{"android":"levelo://app?vid=df6f1325-514d-446c-8c66-9993f4dce9b0","ios":"levelo://app?vid=df6f1325-514d-446c-8c66-9993f4dce9b0"},"vehicle_type_id":"4","last_reported":1747415294,"current_range_meters":6400,"station_id":"ce4bgl92rcd13ifvqbq0","pricing_plan_id":"cebpf4jnsgd1na2vs0mg"},{"bike_id":"8a819867-17bd-44ac-84cc-7c82c16e4576","system_id":"levelo_inurba_marseille","lat":43.28921,"lon":5.38391,"is_reserved":false,"is_disabled":true,"rental_uris":{"android":"levelo://app?vid=8a819867-17bd-44ac-84cc-7c82c16e4576","ios":"levelo://app?vid=8a819867-17bd-44ac-84cc-7c82c16e4576"},"vehicle_type_id":"4","last_reported":1747415294,"current_range_meters":3200,"station_id":"ce4bh612rcd13ifvqe6g","pricing_plan_id":"cebpf4jnsgd1na2vs0mg"},{"bike_id":"5d5f5755-5b3b-4308-8b78-c8614cdd189d","system_id":"levelo_inurba_marseille","lat":43.30475,"lon":5.36721,"is_reserved":false,"is_disabled":false,"rental_uris":{"android":"levelo://app?vid=5d5f5755-5b3b-4308-8b78-c8614cdd189d","ios":"levelo://app?vid=5d5f5755-5b3b-4308-8b78-c8614cdd189d"},"vehicle_type_id":"4","last_reported":1747415294,"current_range_meters":3200,"station_id":"","pricing_plan_id":"cebpf4jnsgd1na2vs0mg"},{"bike_id":"a7c610ba-e794-49c0-a61c-82b61d578d58","system_id":"levelo_inurba_marseille","lat":43.23962,"lon":5.36635,"is_reserved":false,"is_disabled":false,"rental_uris":{"android":"levelo://app?vid=a7c610ba-e794-49c0-a61c-82b61d578d58","ios":"levelo://app?vid=a7c610ba-e794-49c0-a61c-82b61d578d58"},"vehicle_type_id":"4","last_reported":1747415294,"current_range_meters":3200,"station_id":"ce4bhi12rcd13ifvqfp0","pricing_plan_id":"cebpf4jnsgd1na2vs0mg"},{"bike_id":"cb0d5fe4-fc11-42cc-bd68-ce832b3181e7","system_id":"levelo_inurba_marseille","lat":43.3094,"lon":5.39033,"is_reserved":false,"is_disabled":false,"rental_uris":{"android":"levelo://app?vid=cb0d5fe4-fc11-42cc-bd68-ce832b3181e7","ios":"levelo://app?vid=cb0d5fe4-fc11-42cc-bd68-ce832b3181e7"},"vehicle_type_id":"4","last_reported":1747415294,"current_range_meters":3200,"station_id":"ce4bgup2rcd13ifvqco0","pricing_plan_id":"cebpf4jnsgd1na2vs0mg"},{"bike_id":"0ad0371c-e951-4c4c-b7d9-6b074eee24cb","system_id":"levelo_inurba_marseille","lat":43.30097,"lon":5.39073,"is_reserved":false,"is_disabled":false,"rental_uris":{"android":"levelo://app?vid=0ad0371c-e951-4c4c-b7d9-6b074eee24cb","ios":"levelo://app?vid=0ad0371c-e951-4c4c-b7d9-6b074eee24cb"},"vehicle_type_id":"4","last_reported":1747415294,"current_range_meters":5600,"station_id":"ce4bh192rcd13ifvqdb0","pricing_plan_id":"cebpf4jnsgd1na2vs0mg"},{"bike_id":"95bb6e3f-9317-498f-b541-2f8780e45fe6","system_id":"levelo_inurba_marseille","lat":43.26774,"lon":5.39431,"is_reserved":false,"is_disabled":false,"rental_uris":{"android":"levelo://app?vid=95bb6e3f-9317-498f-b541-2f8780e45fe6","ios":"levelo://app?vid=95bb6e3f-9317-498f-b541-2f8780e45fe6"},"vehicle_type_id":"4","last_reported":1747415294,"current_range_meters":3600,"station_id":"ce4bhh12rcd13ifvqfg0","pricing_plan_id":"cebpf4jnsgd1na2vs0mg"},{"bike_id":"d312c322-d9ba-44b4-af2e-3590f1143331","system_id":"levelo_inurba_marseille","lat":43.29259,"lon":5.40913,"is_reserved":false,"is_disabled":false,"rental_uris":{"android":"levelo://app?vid=d312c322-d9ba-44b4-af2e-3590f1143331","ios":"levelo://app?vid=d312c322-d9ba-44b4-af2e-3590f1143331"},"vehicle_type_id":"4","last_reported":1747415294,"current_range_meters":3600,"station_id":"ce4bh192rcd13ifvqdc0","pricing_plan_id":"cebpf4jnsgd1na2vs0mg"},{"bike_id":"f392e04b-3d43-40f8-91f1-489bb6e795a0","system_id":"levelo_inurba_marseille","lat":43.29921,"lon":5.37403,"is_reserved":false,"is_disabled":false,"rental_uris":{"android":"levelo://app?vid=f392e04b-3d43-40f8-91f1-489bb6e795a0","ios":"levelo://app?vid=f392e04b-3d43-40f8-91f1-489bb6e795a0"},"vehicle_type_id":"4","last_reported":1747415294,"current_range_meters":4000,"station_id":"","pricing_plan_id":"cebpf4jnsgd1na2vs0mg"},{"bike_id":"427cd0ad-dc6a-4f42-ad74-bc0bdc8ac6f7","system_id":"levelo_inurba_marseille","lat":43.29261,"lon":5.40894,"is_reserved":false,"is_disabled":false,"rental_uris":{"android":"levelo://app?vid=427cd0ad-dc6a-4f42-ad74-bc0bdc8ac6f7","ios":"levelo://app?vid=427cd0ad-dc6a-4f42-ad74-bc0bdc8ac6f7"},"vehicle_type_id":"4","last_reported":1747415294,"current_range_meters":4800,"station_id":"ce4bh192rcd13ifvqdc0","pricing_plan_id":"cebpf4jnsgd1na2vs0mg"},{"bike_id":"4c6212f9-72b5-4817-9f56-fba8fd7b644d","system_id":"levelo_inurba_marseille","lat":43.30301,"lon":5.3921,"is_reserved":false,"is_disabled":false,"rental_uris":{"android":"levelo://app?vid=4c6212f9-72b5-4817-9f56-fba8fd7b644d","ios":"levelo://app?vid=4c6212f9-72b5-4817-9f56-fba8fd7b644d"},"vehicle_type_id":"4","last_reported":1747415294,"current_range_meters":4400,"station_id":"ce4bgkh2rcd13ifvqbk0","pricing_plan_id":"cebpf4jnsgd1na2vs0mg"},{"bike_id":"dabfd71d-b920-48be-a290-3bab14aeb43d","system_id":"levelo_inurba_marseille","lat":43.30924,"lon":5.40146,"is_reserved":false,"is_disabled":true,"rental_uris":{"android":"levelo://app?vid=dabfd71d-b920-48be-a290-3bab14aeb43d","ios":"levelo://app?vid=dabfd71d-b920-48be-a290-3bab14aeb43d"},"vehicle_type_id":"4","last_reported":1747415294,"current_range_meters":4800,"station_id":"ce4bgvp2rcd13ifvqct0","pricing_plan_id":"cebpf4jnsgd1na2vs0mg"},{"bike_id":"490a685e-b0ad-445a-925c-51f31d68728f","system_id":"levelo_inurba_marseille","lat":43.27567,"lon":5.38417,"is_reserved":false,"is_disabled":false,"rental_uris":{"android":"levelo://app?vid=490a685e-b0ad-445a-925c-51f31d68728f","ios":"levelo://app?vid=490a685e-b0ad-445a-925c-51f31d68728f"},"vehicle_type_id":"4","last_reported":1747415294,"current_range_meters":4400,"station_id":"ce4bhh92rcd13ifvqfi0","pricing_plan_id":"cebpf4jnsgd1na2vs0mg"},{"bike_id":"e4dcebc0-8141-4ecd-901c-5ec31e28a511","system_id":"levelo_inurba_marseille","lat":43.250858,"lon":5.395316,"is_reserved":false,"is_disabled":false,"rental_uris":{"android":"levelo://app?vid=e4dcebc0-8141-4ecd-901c-5ec31e28a511","ios":"levelo://app?vid=e4dcebc0-8141-4ecd-901c-5ec31e28a511"},"vehicle_type_id":"4","last_reported":1747415294,"current_range_meters":4800,"station_id":"","pricing_plan_id":"cebpf4jnsgd1na2vs0mg"},{"bike_id":"fe03f1ad-7fe2-432a-ab04-e711e750d64a","system_id":"levelo_inurba_marseille","lat":43.28851,"lon":5.35849,"is_reserved":false,"is_disabled":false,"rental_uris":{"android":"levelo://app?vid=fe03f1ad-7fe2-432a-ab04-e711e750d64a","ios":"levelo://app?vid=fe03f1ad-7fe2-432a-ab04-e711e750d64a"},"vehicle_type_id":"4","last_reported":1747415294,"current_range_meters":4800,"station_id":"ce4bhb12rcd13ifvqem0","pricing_plan_id":"cebpf4jnsgd1na2vs0mg"},{"bike_id":"66ddfd32-eeec-49d2-bb00-8339ed5967f2","system_id":"levelo_inurba_marseille","lat":43.28153,"lon":5.42644,"is_reserved":false,"is_disabled":false,"rental_uris":{"android":"levelo://app?vid=66ddfd32-eeec-49d2-bb00-8339ed5967f2","ios":"levelo://app?vid=66ddfd32-eeec-49d2-bb00-8339ed5967f2"},"vehicle_type_id":"4","last_reported":1747415294,"current_range_meters":5600,"station_id":"ce4bhnh2rcd13ifvqgug","pricing_plan_id":"cebpf4jnsgd1na2vs0mg"},{"bike_id":"8ef9f35d-a082-4e6d-b05b-a3103f10cff2","system_id":"levelo_inurba_marseille","lat":43.31222,"lon":5.36869,"is_reserved":false,"is_disabled":false,"rental_uris":{"android":"levelo://app?vid=8ef9f35d-a082-4e6d-b05b-a3103f10cff2","ios":"levelo://app?vid=8ef9f35d-a082-4e6d-b05b-a3103f10cff2"},"vehicle_type_id":"4","last_reported":1747415294,"current_range_meters":4800,"station_id":"ce4bgl92rcd13ifvqbq0","pricing_plan_id":"cebpf4jnsgd1na2vs0mg"},{"bike_id":"d41df948-709c-4c82-b25d-5b034311da7b","system_id":"levelo_inurba_marseille","lat":43.3107,"lon":5.38358,"is_reserved":false,"is_disabled":false,"rental_uris":{"android":"levelo://app?vid=d41df948-709c-4c82-b25d-5b034311da7b","ios":"levelo://app?vid=d41df948-709c-4c82-b25d-5b034311da7b"},"vehicle_type_id":"4","last_reported":1747415294,"current_range_meters":5600,"station_id":"ce4bgv92rcd13ifvqcr0","pricing_plan_id":"cebpf4jnsgd1na2vs0mg"},{"bike_id":"68f28cd2-70cc-4704-ad04-b699ca690a49","system_id":"levelo_inurba_marseille","lat":43.26188,"lon":5.37452,"is_reserved":false,"is_disabled":false,"rental_uris":{"android":"levelo://app?vid=68f28cd2-70cc-4704-ad04-b699ca690a49","ios":"levelo://app?vid=68f28cd2-70cc-4704-ad04-b699ca690a49"},"vehicle_type_id":"4","last_reported":1747415294,"current_range_meters":5600,"station_id":"ce4bhgp2rcd13ifvqfc0","pricing_plan_id":"cebpf4jnsgd1na2vs0mg"},{"bike_id":"45fce2e2-839c-4c77-bf55-55905978b238","system_id":"levelo_inurba_marseille","lat":43.29212,"lon":5.36039,"is_reserved":false,"is_disabled":true,"rental_uris":{"android":"levelo://app?vid=45fce2e2-839c-4c77-bf55-55905978b238","ios":"levelo://app?vid=45fce2e2-839c-4c77-bf55-55905978b238"},"vehicle_type_id":"4","last_reported":1747415294,"current_range_meters":6000,"station_id":"ce4bhbh2rcd13ifvqeqg","pricing_plan_id":"cebpf4jnsgd1na2vs0mg"},{"bike_id":"d74f789b-5fde-4bbe-a8c7-8df1d057462c","system_id":"levelo_inurba_marseille","lat":43.28264,"lon":5.35077,"is_reserved":false,"is_disabled":false,"rental_uris":{"android":"levelo://app?vid=d74f789b-5fde-4bbe-a8c7-8df1d057462c","ios":"levelo://app?vid=d74f789b-5fde-4bbe-a8c7-8df1d057462c"},"vehicle_type_id":"4","last_reported":1747415294,"current_range_meters":6000,"station_id":"ce4bhbp2rcd13ifvqerg","pricing_plan_id":"cebpf4jnsgd1na2vs0mg"},{"bike_id":"1b2aa5d5-9a8e-4ed2-b6fe-a8501f40806e","system_id":"levelo_inurba_marseille","lat":43.27946,"lon":5.41041,"is_reserved":false,"is_disabled":false,"rental_uris":{"android":"levelo://app?vid=1b2aa5d5-9a8e-4ed2-b6fe-a8501f40806e","ios":"levelo://app?vid=1b2aa5d5-9a8e-4ed2-b6fe-a8501f40806e"},"vehicle_type_id":"4","last_reported":1747415294,"current_range_meters":6000,"station_id":"ce4bhnp2rcd13ifvqh0g","pricing_plan_id":"cebpf4jnsgd1na2vs0mg"},{"bike_id":"e48c0eaf-24fe-43ba-bf93-5a6555fd710e","system_id":"levelo_inurba_marseille","lat":43.26557,"lon":5.37282,"is_reserved":false,"is_disabled":false,"rental_uris":{"android":"levelo://app?vid=e48c0eaf-24fe-43ba-bf93-5a6555fd710e","ios":"levelo://app?vid=e48c0eaf-24fe-43ba-bf93-5a6555fd710e"},"vehicle_type_id":"4","last_reported":1747415294,"current_range_meters":6000,"station_id":"ce4bhg12rcd13ifvqf70","pricing_plan_id":"cebpf4jnsgd1na2vs0mg"},{"bike_id":"c7d64334-259a-4562-895b-357a954498a7","system_id":"levelo_inurba_marseille","lat":43.292573,"lon":5.384179,"is_reserved":false,"is_disabled":false,"rental_uris":{"android":"levelo://app?vid=c7d64334-259a-4562-895b-357a954498a7","ios":"levelo://app?vid=c7d64334-259a-4562-895b-357a954498a7"},"vehicle_type_id":"4","last_reported":1747415294,"current_range_meters":6000,"station_id":"ce4bh692rcd13ifvqea0","pricing_plan_id":"cebpf4jnsgd1na2vs0mg"},{"bike_id":"5cc10e89-523b-4b5f-bf28-6ad648408871","system_id":"levelo_inurba_marseille","lat":43.2119,"lon":5.35079,"is_reserved":false,"is_disabled":false,"rental_uris":{"android":"levelo://app?vid=5cc10e89-523b-4b5f-bf28-6ad648408871","ios":"levelo://app?vid=5cc10e89-523b-4b5f-bf28-6ad648408871"},"vehicle_type_id":"4","last_reported":1747415294,"current_range_meters":6400,"station_id":"st_cvj6sg6p6f1abm77japg","pricing_plan_id":"cebpf4jnsgd1na2vs0mg"},{"bike_id":"91183863-7b91-4f4a-ba84-fe5e732cf7df","system_id":"levelo_inurba_marseille","lat":43.27812,"lon":5.40717,"is_reserved":false,"is_disabled":false,"rental_uris":{"android":"levelo://app?vid=91183863-7b91-4f4a-ba84-fe5e732cf7df","ios":"levelo://app?vid=91183863-7b91-4f4a-ba84-fe5e732cf7df"},"vehicle_type_id":"4","last_reported":1747415294,"current_range_meters":6800,"station_id":"ce4bhnh2rcd13ifvqgtg","pricing_plan_id":"cebpf4jnsgd1na2vs0mg"},{"bike_id":"c122d489-d75f-48df-bc63-1da189dbbac0","system_id":"levelo_inurba_marseille","lat":43.27941,"lon":5.41041,"is_reserved":false,"is_disabled":false,"rental_uris":{"android":"levelo://app?vid=c122d489-d75f-48df-bc63-1da189dbbac0","ios":"levelo://app?vid=c122d489-d75f-48df-bc63-1da189dbbac0"},"vehicle_type_id":"4","last_reported":1747415294,"current_range_meters":6800,"station_id":"ce4bhnp2rcd13ifvqh0g","pricing_plan_id":"cebpf4jnsgd1na2vs0mg"},{"bike_id":"27f73c8b-d5e0-4bc8-aff8-dd53be574ec8","system_id":"levelo_inurba_marseille","lat":43.2861,"lon":5.35108,"is_reserved":false,"is_disabled":false,"rental_uris":{"android":"levelo://app?vid=27f73c8b-d5e0-4bc8-aff8-dd53be574ec8","ios":"levelo://app?vid=27f73c8b-d5e0-4bc8-aff8-dd53be574ec8"},"vehicle_type_id":"4","last_reported":1747415294,"current_range_meters":6800,"station_id":"ce4bhch2rcd13ifvqeug","pricing_plan_id":"cebpf4jnsgd1na2vs0mg"},{"bike_id":"435018a6-be7f-422b-8207-12f74bd632df","system_id":"levelo_inurba_marseille","lat":43.29897,"lon":5.43676,"is_reserved":false,"is_disabled":false,"rental_uris":{"android":"levelo://app?vid=435018a6-be7f-422b-8207-12f74bd632df","ios":"levelo://app?vid=435018a6-be7f-422b-8207-12f74bd632df"},"vehicle_type_id":"4","last_reported":1747415294,"current_range_meters":6800,"station_id":"ce4bhpp2rcd13ifvqhfg","pricing_plan_id":"cebpf4jnsgd1na2vs0mg"},{"bike_id":"bbac5529-726d-4ab8-b601-37fcbe3ab63b","system_id":"levelo_inurba_marseille","lat":43.31764,"lon":5.39009,"is_reserved":false,"is_disabled":false,"rental_uris":{"android":"levelo://app?vid=bbac5529-726d-4ab8-b601-37fcbe3ab63b","ios":"levelo://app?vid=bbac5529-726d-4ab8-b601-37fcbe3ab63b"},"vehicle_type_id":"4","last_reported":1747415294,"current_range_meters":6800,"station_id":"ce4bhqp2rcd13ifvqhng","pricing_plan_id":"cebpf4jnsgd1na2vs0mg"},{"bike_id":"5d6efdde-4f86-4461-86b7-35f365155cfc","system_id":"levelo_inurba_marseille","lat":43.25003,"lon":5.38926,"is_reserved":false,"is_disabled":false,"rental_uris":{"android":"levelo://app?vid=5d6efdde-4f86-4461-86b7-35f365155cfc","ios":"levelo://app?vid=5d6efdde-4f86-4461-86b7-35f365155cfc"},"vehicle_type_id":"4","last_reported":1747415294,"current_range_meters":6800,"station_id":"ce4bhgp2rcd13ifvqfd0","pricing_plan_id":"cebpf4jnsgd1na2vs0mg"},{"bike_id":"5090aa98-7860-4af7-b8d4-b9228e5204e3","system_id":"levelo_inurba_marseille","lat":43.26026,"lon":5.37548,"is_reserved":false,"is_disabled":false,"rental_uris":{"android":"levelo://app?vid=5090aa98-7860-4af7-b8d4-b9228e5204e3","ios":"levelo://app?vid=5090aa98-7860-4af7-b8d4-b9228e5204e3"},"vehicle_type_id":"4","last_reported":1747415294,"current_range_meters":7200,"station_id":"ce4bhgh2rcd13ifvqfa0","pricing_plan_id":"cebpf4jnsgd1na2vs0mg"},{"bike_id":"c8107b40-4e78-47e4-a23d-10a935f8e353","system_id":"levelo_inurba_marseille","lat":43.28409,"lon":5.34995,"is_reserved":false,"is_disabled":false,"rental_uris":{"android":"levelo://app?vid=c8107b40-4e78-47e4-a23d-10a935f8e353","ios":"levelo://app?vid=c8107b40-4e78-47e4-a23d-10a935f8e353"},"vehicle_type_id":"4","last_reported":1747415294,"current_range_meters":7200,"station_id":"ce4bhbh2rcd13ifvqepg","pricing_plan_id":"cebpf4jnsgd1na2vs0mg"},{"bike_id":"d767a161-83bc-4487-a8d0-7929b896f8f4","system_id":"levelo_inurba_marseille","lat":43.284032,"lon":5.375108,"is_reserved":false,"is_disabled":false,"rental_uris":{"android":"levelo://app?vid=d767a161-83bc-4487-a8d0-7929b896f8f4","ios":"levelo://app?vid=d767a161-83bc-4487-a8d0-7929b896f8f4"},"vehicle_type_id":"4","last_reported":1747415294,"current_range_meters":7200,"station_id":"","pricing_plan_id":"cebpf4jnsgd1na2vs0mg"},{"bike_id":"f18afd0c-8b63-49a4-a724-02c86b85665a","system_id":"levelo_inurba_marseille","lat":43.28153,"lon":5.42644,"is_reserved":false,"is_disabled":false,"rental_uris":{"android":"levelo://app?vid=f18afd0c-8b63-49a4-a724-02c86b85665a","ios":"levelo://app?vid=f18afd0c-8b63-49a4-a724-02c86b85665a"},"vehicle_type_id":"4","last_reported":1747415294,"current_range_meters":7200,"station_id":"ce4bhnh2rcd13ifvqgug","pricing_plan_id":"cebpf4jnsgd1na2vs0mg"},{"bike_id":"7ef100bb-e53a-4bfe-b44d-c8e689ff5123","system_id":"levelo_inurba_marseille","lat":43.299033,"lon":5.381408,"is_reserved":false,"is_disabled":false,"rental_uris":{"android":"levelo://app?vid=7ef100bb-e53a-4bfe-b44d-c8e689ff5123","ios":"levelo://app?vid=7ef100bb-e53a-4bfe-b44d-c8e689ff5123"},"vehicle_type_id":"4","last_reported":1747415294,"current_range_meters":7200,"station_id":"ce4bgj12rcd13ifvqbc0","pricing_plan_id":"cebpf4jnsgd1na2vs0mg"},{"bike_id":"10b2c525-bbe1-45c2-b30f-b63b2c1d1163","system_id":"levelo_inurba_marseille","lat":43.29261,"lon":5.38439,"is_reserved":false,"is_disabled":false,"rental_uris":{"android":"levelo://app?vid=10b2c525-bbe1-45c2-b30f-b63b2c1d1163","ios":"levelo://app?vid=10b2c525-bbe1-45c2-b30f-b63b2c1d1163"},"vehicle_type_id":"4","last_reported":1747415294,"current_range_meters":7200,"station_id":"ce4bh692rcd13ifvqea0","pricing_plan_id":"cebpf4jnsgd1na2vs0mg"},{"bike_id":"a4254f33-dfdc-4beb-9ee4-21271a8a3aac","system_id":"levelo_inurba_marseille","lat":43.30417,"lon":5.4128,"is_reserved":false,"is_disabled":true,"rental_uris":{"android":"levelo://app?vid=a4254f33-dfdc-4beb-9ee4-21271a8a3aac","ios":"levelo://app?vid=a4254f33-dfdc-4beb-9ee4-21271a8a3aac"},"vehicle_type_id":"4","last_reported":1747415294,"current_range_meters":7200,"station_id":"ce4bhop2rcd13ifvqh8g","pricing_plan_id":"cebpf4jnsgd1na2vs0mg"},{"bike_id":"7406b058-a87f-44fc-a02f-c34c4694ffcd","system_id":"levelo_inurba_marseille","lat":43.32319,"lon":5.3888,"is_reserved":false,"is_disabled":false,"rental_uris":{"android":"levelo://app?vid=7406b058-a87f-44fc-a02f-c34c4694ffcd","ios":"levelo://app?vid=7406b058-a87f-44fc-a02f-c34c4694ffcd"},"vehicle_type_id":"4","last_reported":1747415294,"current_range_meters":8000,"station_id":"ce4bhqp2rcd13ifvqhog","pricing_plan_id":"cebpf4jnsgd1na2vs0mg"},{"bike_id":"ac5a40e1-953d-4ebc-9925-94b8038cb1c4","system_id":"levelo_inurba_marseille","lat":43.24807,"lon":5.37457,"is_reserved":false,"is_disabled":false,"rental_uris":{"android":"levelo://app?vid=ac5a40e1-953d-4ebc-9925-94b8038cb1c4","ios":"levelo://app?vid=ac5a40e1-953d-4ebc-9925-94b8038cb1c4"},"vehicle_type_id":"4","last_reported":1747415294,"current_range_meters":8000,"station_id":"ce4bhgh2rcd13ifvqfb0","pricing_plan_id":"cebpf4jnsgd1na2vs0mg"},{"bike_id":"9604fdd5-bba4-47b0-81f1-43233cb3badb","system_id":"levelo_inurba_marseille","lat":43.28418,"lon":5.34999,"is_reserved":false,"is_disabled":false,"rental_uris":{"android":"levelo://app?vid=9604fdd5-bba4-47b0-81f1-43233cb3badb","ios":"levelo://app?vid=9604fdd5-bba4-47b0-81f1-43233cb3badb"},"vehicle_type_id":"4","last_reported":1747415294,"current_range_meters":8000,"station_id":"ce4bhbh2rcd13ifvqepg","pricing_plan_id":"cebpf4jnsgd1na2vs0mg"},{"bike_id":"f768f02c-a770-46ed-b9fb-ed1e435a3c0f","system_id":"levelo_inurba_marseille","lat":43.32932,"lon":5.390018,"is_reserved":false,"is_disabled":false,"rental_uris":{"android":"levelo://app?vid=f768f02c-a770-46ed-b9fb-ed1e435a3c0f","ios":"levelo://app?vid=f768f02c-a770-46ed-b9fb-ed1e435a3c0f"},"vehicle_type_id":"4","last_reported":1747415294,"current_range_meters":8000,"station_id":"","pricing_plan_id":"cebpf4jnsgd1na2vs0mg"},{"bike_id":"e8883f6f-dec9-4a24-bdc5-f9451b978e82","system_id":"levelo_inurba_marseille","lat":43.29006,"lon":5.35615,"is_reserved":false,"is_disabled":false,"rental_uris":{"android":"levelo://app?vid=e8883f6f-dec9-4a24-bdc5-f9451b978e82","ios":"levelo://app?vid=e8883f6f-dec9-4a24-bdc5-f9451b978e82"},"vehicle_type_id":"4","last_reported":1747415294,"current_range_meters":8000,"station_id":"ce4bhb92rcd13ifvqen0","pricing_plan_id":"cebpf4jnsgd1na2vs0mg"},{"bike_id":"0bbae27d-252b-4ebb-871e-0cea87aa3c08","system_id":"levelo_inurba_marseille","lat":43.30787,"lon":5.43537,"is_reserved":false,"is_disabled":false,"rental_uris":{"android":"levelo://app?vid=0bbae27d-252b-4ebb-871e-0cea87aa3c08","ios":"levelo://app?vid=0bbae27d-252b-4ebb-871e-0cea87aa3c08"},"vehicle_type_id":"4","last_reported":1747415294,"current_range_meters":8000,"station_id":"ce4bhph2rcd13ifvqheg","pricing_plan_id":"cebpf4jnsgd1na2vs0mg"},{"bike_id":"e36faf8a-b4fb-455a-bfdc-bda73ed46adf","system_id":"levelo_inurba_marseille","lat":43.27373,"lon":5.36259,"is_reserved":false,"is_disabled":false,"rental_uris":{"android":"levelo://app?vid=e36faf8a-b4fb-455a-bfdc-bda73ed46adf","ios":"levelo://app?vid=e36faf8a-b4fb-455a-bfdc-bda73ed46adf"},"vehicle_type_id":"4","last_reported":1747415294,"current_range_meters":8000,"station_id":"ce4bhbh2rcd13ifvqeo0","pricing_plan_id":"cebpf4jnsgd1na2vs0mg"},{"bike_id":"6eb43af2-9a40-4d39-aa67-9a6333a39223","system_id":"levelo_inurba_marseille","lat":43.29442,"lon":5.3973,"is_reserved":false,"is_disabled":false,"rental_uris":{"android":"levelo://app?vid=6eb43af2-9a40-4d39-aa67-9a6333a39223","ios":"levelo://app?vid=6eb43af2-9a40-4d39-aa67-9a6333a39223"},"vehicle_type_id":"4","last_reported":1747415294,"current_range_meters":8000,"station_id":"ce4bh3h2rcd13ifvqdo0","pricing_plan_id":"cebpf4jnsgd1na2vs0mg"},{"bike_id":"865958d1-3992-4b88-a619-00238a39bfbb","system_id":"levelo_inurba_marseille","lat":43.30905,"lon":5.36842,"is_reserved":false,"is_disabled":false,"rental_uris":{"android":"levelo://app?vid=865958d1-3992-4b88-a619-00238a39bfbb","ios":"levelo://app?vid=865958d1-3992-4b88-a619-00238a39bfbb"},"vehicle_type_id":"4","last_reported":1747415294,"current_range_meters":8000,"station_id":"ce4bgn92rcd13ifvqbvg","pricing_plan_id":"cebpf4jnsgd1na2vs0mg"},{"bike_id":"90a0a259-c291-437c-99fc-2e1eaafcc3ca","system_id":"levelo_inurba_marseille","lat":43.32109,"lon":5.36764,"is_reserved":false,"is_disabled":false,"rental_uris":{"android":"levelo://app?vid=90a0a259-c291-437c-99fc-2e1eaafcc3ca","ios":"levelo://app?vid=90a0a259-c291-437c-99fc-2e1eaafcc3ca"},"vehicle_type_id":"4","last_reported":1747415294,"current_range_meters":8000,"station_id":"ce4bhrh2rcd13ifvqhug","pricing_plan_id":"cebpf4jnsgd1na2vs0mg"},{"bike_id":"ef56424a-56b4-43c0-a25b-22b4026c6b4f","system_id":"levelo_inurba_marseille","lat":43.32335,"lon":5.40623,"is_reserved":false,"is_disabled":false,"rental_uris":{"android":"levelo://app?vid=ef56424a-56b4-43c0-a25b-22b4026c6b4f","ios":"levelo://app?vid=ef56424a-56b4-43c0-a25b-22b4026c6b4f"},"vehicle_type_id":"4","last_reported":1747415294,"current_range_meters":8000,"station_id":"ce4bhq92rcd13ifvqhjg","pricing_plan_id":"cebpf4jnsgd1na2vs0mg"},{"bike_id":"0077f398-56b6-43bb-8eeb-9798d08de05c","system_id":"levelo_inurba_marseille","lat":43.3085,"lon":5.37339,"is_reserved":false,"is_disabled":false,"rental_uris":{"android":"levelo://app?vid=0077f398-56b6-43bb-8eeb-9798d08de05c","ios":"levelo://app?vid=0077f398-56b6-43bb-8eeb-9798d08de05c"},"vehicle_type_id":"4","last_reported":1747415294,"current_range_meters":8000,"station_id":"","pricing_plan_id":"cebpf4jnsgd1na2vs0mg"},{"bike_id":"d4c4295d-e755-4203-8859-cb286726cccd","system_id":"levelo_inurba_marseille","lat":43.27992,"lon":5.4001,"is_reserved":false,"is_disabled":false,"rental_uris":{"android":"levelo://app?vid=d4c4295d-e755-4203-8859-cb286726cccd","ios":"levelo://app?vid=d4c4295d-e755-4203-8859-cb286726cccd"},"vehicle_type_id":"4","last_reported":1747415294,"current_range_meters":8000,"station_id":"ce4bho92rcd13ifvqh4g","pricing_plan_id":"cebpf4jnsgd1na2vs0mg"},{"bike_id":"952adc22-dc6b-4168-ab87-c9391992235f","system_id":"levelo_inurba_marseille","lat":43.30729,"lon":5.42449,"is_reserved":false,"is_disabled":false,"rental_uris":{"android":"levelo://app?vid=952adc22-dc6b-4168-ab87-c9391992235f","ios":"levelo://app?vid=952adc22-dc6b-4168-ab87-c9391992235f"},"vehicle_type_id":"4","last_reported":1747415294,"current_range_meters":8400,"station_id":"st_cvj6ca6bvosntc0bfgr0","pricing_plan_id":"cebpf4jnsgd1na2vs0mg"},{"bike_id":"92cabc8e-ff7e-4d19-9374-143dd4965742","system_id":"levelo_inurba_marseille","lat":43.27615,"lon":5.36114,"is_reserved":false,"is_disabled":false,"rental_uris":{"android":"levelo://app?vid=92cabc8e-ff7e-4d19-9374-143dd4965742","ios":"levelo://app?vid=92cabc8e-ff7e-4d19-9374-143dd4965742"},"vehicle_type_id":"4","last_reported":1747415294,"current_range_meters":8400,"station_id":"ce4bgj92rcd13ifvqbe0","pricing_plan_id":"cebpf4jnsgd1na2vs0mg"},{"bike_id":"80712b11-474e-442c-b3d5-b50ef59df938","system_id":"levelo_inurba_marseille","lat":43.255827,"lon":5.382307,"is_reserved":false,"is_disabled":false,"rental_uris":{"android":"levelo://app?vid=80712b11-474e-442c-b3d5-b50ef59df938","ios":"levelo://app?vid=80712b11-474e-442c-b3d5-b50ef59df938"},"vehicle_type_id":"4","last_reported":1747415294,"current_range_meters":8400,"station_id":"ce4bhih2rcd13ifvqfs0","pricing_plan_id":"cebpf4jnsgd1na2vs0mg"},{"bike_id":"561b6dd8-4be4-4447-8867-70d7667df7bf","system_id":"levelo_inurba_marseille","lat":43.26556,"lon":5.37283,"is_reserved":false,"is_disabled":false,"rental_uris":{"android":"levelo://app?vid=561b6dd8-4be4-4447-8867-70d7667df7bf","ios":"levelo://app?vid=561b6dd8-4be4-4447-8867-70d7667df7bf"},"vehicle_type_id":"4","last_reported":1747415294,"current_range_meters":8400,"station_id":"ce4bhg12rcd13ifvqf70","pricing_plan_id":"cebpf4jnsgd1na2vs0mg"},{"bike_id":"b89a24e6-5078-471a-88fa-2c70cdf078ca","system_id":"levelo_inurba_marseille","lat":43.31001,"lon":5.37551,"is_reserved":false,"is_disabled":false,"rental_uris":{"android":"levelo://app?vid=b89a24e6-5078-471a-88fa-2c70cdf078ca","ios":"levelo://app?vid=b89a24e6-5078-471a-88fa-2c70cdf078ca"},"vehicle_type_id":"4","last_reported":1747415294,"current_range_meters":8400,"station_id":"","pricing_plan_id":"cebpf4jnsgd1na2vs0mg"},{"bike_id":"b297b32b-72f1-47a4-9e2e-44162528f5e1","system_id":"levelo_inurba_marseille","lat":43.229342,"lon":5.353748,"is_reserved":false,"is_disabled":false,"rental_uris":{"android":"levelo://app?vid=b297b32b-72f1-47a4-9e2e-44162528f5e1","ios":"levelo://app?vid=b297b32b-72f1-47a4-9e2e-44162528f5e1"},"vehicle_type_id":"4","last_reported":1747415294,"current_range_meters":8400,"station_id":"cpo3532slgdg3j2ikp40","pricing_plan_id":"cebpf4jnsgd1na2vs0mg"},{"bike_id":"e182c071-b920-429f-abcd-6b77e4cc76e2","system_id":"levelo_inurba_marseille","lat":43.324914,"lon":5.365342,"is_reserved":false,"is_disabled":false,"rental_uris":{"android":"levelo://app?vid=e182c071-b920-429f-abcd-6b77e4cc76e2","ios":"levelo://app?vid=e182c071-b920-429f-abcd-6b77e4cc76e2"},"vehicle_type_id":"4","last_reported":1747415294,"current_range_meters":8400,"station_id":"ce4bgs12rcd13ifvqcag","pricing_plan_id":"cebpf4jnsgd1na2vs0mg"},{"bike_id":"ede339e5-9960-4a6a-b665-63cd9ab75210","system_id":"levelo_inurba_marseille","lat":43.282049,"lon":5.351016,"is_reserved":false,"is_disabled":false,"rental_uris":{"android":"levelo://app?vid=ede339e5-9960-4a6a-b665-63cd9ab75210","ios":"levelo://app?vid=ede339e5-9960-4a6a-b665-63cd9ab75210"},"vehicle_type_id":"4","last_reported":1747415294,"current_range_meters":6400,"station_id":"ce4bhb12rcd13ifvqel0","pricing_plan_id":"cebpf4jnsgd1na2vs0mg"},{"bike_id":"583536d5-3f50-4301-960d-f20d4dfbb2bb","system_id":"levelo_inurba_marseille","lat":43.28613,"lon":5.35112,"is_reserved":false,"is_disabled":false,"rental_uris":{"android":"levelo://app?vid=583536d5-3f50-4301-960d-f20d4dfbb2bb","ios":"levelo://app?vid=583536d5-3f50-4301-960d-f20d4dfbb2bb"},"vehicle_type_id":"4","last_reported":1747415294,"current_range_meters":8400,"station_id":"ce4bhch2rcd13ifvqeug","pricing_plan_id":"cebpf4jnsgd1na2vs0mg"},{"bike_id":"3d2b302e-b783-4b8c-9962-6ed84ca55514","system_id":"levelo_inurba_marseille","lat":43.28265,"lon":5.3506,"is_reserved":false,"is_disabled":false,"rental_uris":{"android":"levelo://app?vid=3d2b302e-b783-4b8c-9962-6ed84ca55514","ios":"levelo://app?vid=3d2b302e-b783-4b8c-9962-6ed84ca55514"},"vehicle_type_id":"4","last_reported":1747415294,"current_range_meters":8800,"station_id":"ce4bhbp2rcd13ifvqerg","pricing_plan_id":"cebpf4jnsgd1na2vs0mg"},{"bike_id":"6e4c5178-23d8-4f74-8e81-c171d2ff18ea","system_id":"levelo_inurba_marseille","lat":43.2885,"lon":5.35845,"is_reserved":false,"is_disabled":false,"rental_uris":{"android":"levelo://app?vid=6e4c5178-23d8-4f74-8e81-c171d2ff18ea","ios":"levelo://app?vid=6e4c5178-23d8-4f74-8e81-c171d2ff18ea"},"vehicle_type_id":"4","last_reported":1747415294,"current_range_meters":8800,"station_id":"ce4bhb12rcd13ifvqem0","pricing_plan_id":"cebpf4jnsgd1na2vs0mg"},{"bike_id":"6d485413-0a5b-4296-862c-2c19c83ee78f","system_id":"levelo_inurba_marseille","lat":43.32329,"lon":5.4063,"is_reserved":false,"is_disabled":false,"rental_uris":{"android":"levelo://app?vid=6d485413-0a5b-4296-862c-2c19c83ee78f","ios":"levelo://app?vid=6d485413-0a5b-4296-862c-2c19c83ee78f"},"vehicle_type_id":"4","last_reported":1747415294,"current_range_meters":8800,"station_id":"ce4bhq92rcd13ifvqhjg","pricing_plan_id":"cebpf4jnsgd1na2vs0mg"},{"bike_id":"6c0dcdcc-9971-49f8-94ab-a91a49d6de88","system_id":"levelo_inurba_marseille","lat":43.28473,"lon":5.38423,"is_reserved":false,"is_disabled":false,"rental_uris":{"android":"levelo://app?vid=6c0dcdcc-9971-49f8-94ab-a91a49d6de88","ios":"levelo://app?vid=6c0dcdcc-9971-49f8-94ab-a91a49d6de88"},"vehicle_type_id":"4","last_reported":1747415294,"current_range_meters":8800,"station_id":"ce4bh512rcd13ifvqe3g","pricing_plan_id":"cebpf4jnsgd1na2vs0mg"},{"bike_id":"83b5b573-ee09-4132-9753-487ea4560b33","system_id":"levelo_inurba_marseille","lat":43.27617,"lon":5.36101,"is_reserved":false,"is_disabled":false,"rental_uris":{"android":"levelo://app?vid=83b5b573-ee09-4132-9753-487ea4560b33","ios":"levelo://app?vid=83b5b573-ee09-4132-9753-487ea4560b33"},"vehicle_type_id":"4","last_reported":1747415294,"current_range_meters":8400,"station_id":"ce4bgj92rcd13ifvqbe0","pricing_plan_id":"cebpf4jnsgd1na2vs0mg"},{"bike_id":"d93d0c6d-be90-4a1f-bc81-4d02d1453c4b","system_id":"levelo_inurba_marseille","lat":43.224966,"lon":5.347694,"is_reserved":false,"is_disabled":false,"rental_uris":{"android":"levelo://app?vid=d93d0c6d-be90-4a1f-bc81-4d02d1453c4b","ios":"levelo://app?vid=d93d0c6d-be90-4a1f-bc81-4d02d1453c4b"},"vehicle_type_id":"4","last_reported":1747415294,"current_range_meters":8800,"station_id":"st_cvj5dfep6f1abm77gieg","pricing_plan_id":"cebpf4jnsgd1na2vs0mg"},{"bike_id":"65b59a60-e046-4443-8266-19d3963a342f","system_id":"levelo_inurba_marseille","lat":43.21194,"lon":5.35068,"is_reserved":false,"is_disabled":false,"rental_uris":{"android":"levelo://app?vid=65b59a60-e046-4443-8266-19d3963a342f","ios":"levelo://app?vid=65b59a60-e046-4443-8266-19d3963a342f"},"vehicle_type_id":"4","last_reported":1747415294,"current_range_meters":8800,"station_id":"st_cvj6sg6p6f1abm77japg","pricing_plan_id":"cebpf4jnsgd1na2vs0mg"},{"bike_id":"475eeb2e-132b-4b82-95f9-79d22ed2efe0","system_id":"levelo_inurba_marseille","lat":43.292921,"lon":5.374641,"is_reserved":false,"is_disabled":false,"rental_uris":{"android":"levelo://app?vid=475eeb2e-132b-4b82-95f9-79d22ed2efe0","ios":"levelo://app?vid=475eeb2e-132b-4b82-95f9-79d22ed2efe0"},"vehicle_type_id":"4","last_reported":1747415294,"current_range_meters":8800,"station_id":"ce4bgi12rcd13ifvqb70","pricing_plan_id":"cebpf4jnsgd1na2vs0mg"},{"bike_id":"d06a81f7-6bbe-4687-bfbe-932949dc466c","system_id":"levelo_inurba_marseille","lat":43.26162,"lon":5.38724,"is_reserved":false,"is_disabled":false,"rental_uris":{"android":"levelo://app?vid=d06a81f7-6bbe-4687-bfbe-932949dc466c","ios":"levelo://app?vid=d06a81f7-6bbe-4687-bfbe-932949dc466c"},"vehicle_type_id":"4","last_reported":1747415294,"current_range_meters":8800,"station_id":"","pricing_plan_id":"cebpf4jnsgd1na2vs0mg"},{"bike_id":"345cffa0-29b1-4e14-91c8-8f581afe5ee4","system_id":"levelo_inurba_marseille","lat":43.29188,"lon":5.39305,"is_reserved":false,"is_disabled":true,"rental_uris":{"android":"levelo://app?vid=345cffa0-29b1-4e14-91c8-8f581afe5ee4","ios":"levelo://app?vid=345cffa0-29b1-4e14-91c8-8f581afe5ee4"},"vehicle_type_id":"4","last_reported":1747415294,"current_range_meters":8800,"station_id":"ce4bh192rcd13ifvqdd0","pricing_plan_id":"cebpf4jnsgd1na2vs0mg"},{"bike_id":"8acc3a16-4b9f-4227-83c8-a03388155fd0","system_id":"levelo_inurba_marseille","lat":43.26956,"lon":5.38632,"is_reserved":false,"is_disabled":false,"rental_uris":{"android":"levelo://app?vid=8acc3a16-4b9f-4227-83c8-a03388155fd0","ios":"levelo://app?vid=8acc3a16-4b9f-4227-83c8-a03388155fd0"},"vehicle_type_id":"4","last_reported":1747415294,"current_range_meters":8400,"station_id":"ce4bhh92rcd13ifvqfh0","pricing_plan_id":"cebpf4jnsgd1na2vs0mg"},{"bike_id":"8b7518cf-3ee7-48d7-9117-eef4a7d86a2a","system_id":"levelo_inurba_marseille","lat":43.28573,"lon":5.395,"is_reserved":false,"is_disabled":false,"rental_uris":{"android":"levelo://app?vid=8b7518cf-3ee7-48d7-9117-eef4a7d86a2a","ios":"levelo://app?vid=8b7518cf-3ee7-48d7-9117-eef4a7d86a2a"},"vehicle_type_id":"4","last_reported":1747415294,"current_range_meters":8800,"station_id":"","pricing_plan_id":"cebpf4jnsgd1na2vs0mg"},{"bike_id":"f8e4732a-2ecf-431c-8f66-abc7aabb8aa1","system_id":"levelo_inurba_marseille","lat":43.32954,"lon":5.38961,"is_reserved":false,"is_disabled":false,"rental_uris":{"android":"levelo://app?vid=f8e4732a-2ecf-431c-8f66-abc7aabb8aa1","ios":"levelo://app?vid=f8e4732a-2ecf-431c-8f66-abc7aabb8aa1"},"vehicle_type_id":"4","last_reported":1747415294,"current_range_meters":8800,"station_id":"","pricing_plan_id":"cebpf4jnsgd1na2vs0mg"},{"bike_id":"cb7fe942-4b2a-4a30-8d6e-5d1413663a51","system_id":"levelo_inurba_marseille","lat":43.29004,"lon":5.35608,"is_reserved":false,"is_disabled":false,"rental_uris":{"android":"levelo://app?vid=cb7fe942-4b2a-4a30-8d6e-5d1413663a51","ios":"levelo://app?vid=cb7fe942-4b2a-4a30-8d6e-5d1413663a51"},"vehicle_type_id":"4","last_reported":1747415294,"current_range_meters":8800,"station_id":"ce4bhb92rcd13ifvqen0","pricing_plan_id":"cebpf4jnsgd1na2vs0mg"},{"bike_id":"134ce465-7870-42c9-a29b-d27a08a7070b","system_id":"levelo_inurba_marseille","lat":43.293671,"lon":5.378544,"is_reserved":false,"is_disabled":false,"rental_uris":{"android":"levelo://app?vid=134ce465-7870-42c9-a29b-d27a08a7070b","ios":"levelo://app?vid=134ce465-7870-42c9-a29b-d27a08a7070b"},"vehicle_type_id":"4","last_reported":1747415294,"current_range_meters":8400,"station_id":"","pricing_plan_id":"cebpf4jnsgd1na2vs0mg"},{"bike_id":"6dd57cf4-65e0-489e-905f-ab0dc1fdf6dd","system_id":"levelo_inurba_marseille","lat":43.329774,"lon":5.393746,"is_reserved":false,"is_disabled":false,"rental_uris":{"android":"levelo://app?vid=6dd57cf4-65e0-489e-905f-ab0dc1fdf6dd","ios":"levelo://app?vid=6dd57cf4-65e0-489e-905f-ab0dc1fdf6dd"},"vehicle_type_id":"4","last_reported":1747415294,"current_range_meters":8800,"station_id":"","pricing_plan_id":"cebpf4jnsgd1na2vs0mg"},{"bike_id":"14f64a8e-57bf-4f8a-8f76-40ba8a1efd77","system_id":"levelo_inurba_marseille","lat":43.28267,"lon":5.35074,"is_reserved":false,"is_disabled":false,"rental_uris":{"android":"levelo://app?vid=14f64a8e-57bf-4f8a-8f76-40ba8a1efd77","ios":"levelo://app?vid=14f64a8e-57bf-4f8a-8f76-40ba8a1efd77"},"vehicle_type_id":"4","last_reported":1747415294,"current_range_meters":8800,"station_id":"ce4bhbp2rcd13ifvqerg","pricing_plan_id":"cebpf4jnsgd1na2vs0mg"},{"bike_id":"9d84544e-baf1-46e6-a328-65b021dc1770","system_id":"levelo_inurba_marseille","lat":43.29275,"lon":5.36847,"is_reserved":false,"is_disabled":false,"rental_uris":{"android":"levelo://app?vid=9d84544e-baf1-46e6-a328-65b021dc1770","ios":"levelo://app?vid=9d84544e-baf1-46e6-a328-65b021dc1770"},"vehicle_type_id":"4","last_reported":1747415294,"current_range_meters":9600,"station_id":"ce4bhbp2rcd13ifvqesg","pricing_plan_id":"cebpf4jnsgd1na2vs0mg"},{"bike_id":"bacd5098-f3af-4944-a479-d4f5151aec8f","system_id":"levelo_inurba_marseille","lat":43.28175,"lon":5.42606,"is_reserved":false,"is_disabled":false,"rental_uris":{"android":"levelo://app?vid=bacd5098-f3af-4944-a479-d4f5151aec8f","ios":"levelo://app?vid=bacd5098-f3af-4944-a479-d4f5151aec8f"},"vehicle_type_id":"4","last_reported":1747415294,"current_range_meters":9200,"station_id":"ce4bhnh2rcd13ifvqgug","pricing_plan_id":"cebpf4jnsgd1na2vs0mg"},{"bike_id":"7a51f853-cb70-40ed-83b7-4ccfdc700268","system_id":"levelo_inurba_marseille","lat":43.2927,"lon":5.3685,"is_reserved":false,"is_disabled":false,"rental_uris":{"android":"levelo://app?vid=7a51f853-cb70-40ed-83b7-4ccfdc700268","ios":"levelo://app?vid=7a51f853-cb70-40ed-83b7-4ccfdc700268"},"vehicle_type_id":"4","last_reported":1747415294,"current_range_meters":9200,"station_id":"ce4bhbp2rcd13ifvqesg","pricing_plan_id":"cebpf4jnsgd1na2vs0mg"},{"bike_id":"84aed26a-5f61-4a80-8735-424053abdcbb","system_id":"levelo_inurba_marseille","lat":43.29528,"lon":5.39024,"is_reserved":false,"is_disabled":false,"rental_uris":{"android":"levelo://app?vid=84aed26a-5f61-4a80-8735-424053abdcbb","ios":"levelo://app?vid=84aed26a-5f61-4a80-8735-424053abdcbb"},"vehicle_type_id":"4","last_reported":1747415294,"current_range_meters":8800,"station_id":"ce4bh3p2rcd13ifvqdp0","pricing_plan_id":"cebpf4jnsgd1na2vs0mg"},{"bike_id":"a9e32553-143b-44af-9268-647197dea958","system_id":"levelo_inurba_marseille","lat":43.31226,"lon":5.3686,"is_reserved":false,"is_disabled":false,"rental_uris":{"android":"levelo://app?vid=a9e32553-143b-44af-9268-647197dea958","ios":"levelo://app?vid=a9e32553-143b-44af-9268-647197dea958"},"vehicle_type_id":"4","last_reported":1747415294,"current_range_meters":4000,"station_id":"ce4bgl92rcd13ifvqbq0","pricing_plan_id":"cebpf4jnsgd1na2vs0mg"},{"bike_id":"e64e4484-2db6-41f4-beb8-e0c0ae1263cd","system_id":"levelo_inurba_marseille","lat":43.285254,"lon":5.430336,"is_reserved":false,"is_disabled":false,"rental_uris":{"android":"levelo://app?vid=e64e4484-2db6-41f4-beb8-e0c0ae1263cd","ios":"levelo://app?vid=e64e4484-2db6-41f4-beb8-e0c0ae1263cd"},"vehicle_type_id":"4","last_reported":1747415294,"current_range_meters":9200,"station_id":"","pricing_plan_id":"cebpf4jnsgd1na2vs0mg"},{"bike_id":"2781ef4e-3651-4ce5-9a2e-f1d46595d329","system_id":"levelo_inurba_marseille","lat":43.32114,"lon":5.36767,"is_reserved":false,"is_disabled":false,"rental_uris":{"android":"levelo://app?vid=2781ef4e-3651-4ce5-9a2e-f1d46595d329","ios":"levelo://app?vid=2781ef4e-3651-4ce5-9a2e-f1d46595d329"},"vehicle_type_id":"4","last_reported":1747415294,"current_range_meters":9200,"station_id":"ce4bhrh2rcd13ifvqhug","pricing_plan_id":"cebpf4jnsgd1na2vs0mg"},{"bike_id":"b08b46b3-cae3-4ecc-a2e7-adc8461ce2e0","system_id":"levelo_inurba_marseille","lat":43.31359,"lon":5.3849,"is_reserved":false,"is_disabled":false,"rental_uris":{"android":"levelo://app?vid=b08b46b3-cae3-4ecc-a2e7-adc8461ce2e0","ios":"levelo://app?vid=b08b46b3-cae3-4ecc-a2e7-adc8461ce2e0"},"vehicle_type_id":"4","last_reported":1747415294,"current_range_meters":9600,"station_id":"ce4bgt92rcd13ifvqcf0","pricing_plan_id":"cebpf4jnsgd1na2vs0mg"},{"bike_id":"9e4e163f-0409-413f-8780-8dc2f50a8ecb","system_id":"levelo_inurba_marseille","lat":43.31349,"lon":5.38492,"is_reserved":false,"is_disabled":false,"rental_uris":{"android":"levelo://app?vid=9e4e163f-0409-413f-8780-8dc2f50a8ecb","ios":"levelo://app?vid=9e4e163f-0409-413f-8780-8dc2f50a8ecb"},"vehicle_type_id":"4","last_reported":1747415294,"current_range_meters":9200,"station_id":"ce4bgt92rcd13ifvqcf0","pricing_plan_id":"cebpf4jnsgd1na2vs0mg"},{"bike_id":"c0b9fd4f-e181-46ce-b0bf-f5119973334f","system_id":"levelo_inurba_marseille","lat":43.33771,"lon":5.37424,"is_reserved":false,"is_disabled":false,"rental_uris":{"android":"levelo://app?vid=c0b9fd4f-e181-46ce-b0bf-f5119973334f","ios":"levelo://app?vid=c0b9fd4f-e181-46ce-b0bf-f5119973334f"},"vehicle_type_id":"4","last_reported":1747415294,"current_range_meters":9200,"station_id":"","pricing_plan_id":"cebpf4jnsgd1na2vs0mg"},{"bike_id":"19609a5f-b9f8-4a29-a8ac-e960f4bbf468","system_id":"levelo_inurba_marseille","lat":43.30314,"lon":5.39238,"is_reserved":false,"is_disabled":false,"rental_uris":{"android":"levelo://app?vid=19609a5f-b9f8-4a29-a8ac-e960f4bbf468","ios":"levelo://app?vid=19609a5f-b9f8-4a29-a8ac-e960f4bbf468"},"vehicle_type_id":"4","last_reported":1747415294,"current_range_meters":8800,"station_id":"ce4bgkh2rcd13ifvqbk0","pricing_plan_id":"cebpf4jnsgd1na2vs0mg"},{"bike_id":"fac08890-3b8f-474f-8dcb-3ed349569fce","system_id":"levelo_inurba_marseille","lat":43.25815,"lon":5.39433,"is_reserved":false,"is_disabled":false,"rental_uris":{"android":"levelo://app?vid=fac08890-3b8f-474f-8dcb-3ed349569fce","ios":"levelo://app?vid=fac08890-3b8f-474f-8dcb-3ed349569fce"},"vehicle_type_id":"4","last_reported":1747415294,"current_range_meters":9600,"station_id":"ce4bhip2rcd13ifvqft0","pricing_plan_id":"cebpf4jnsgd1na2vs0mg"},{"bike_id":"a42493e4-b59b-4fda-ac82-58e3cf7eb641","system_id":"levelo_inurba_marseille","lat":43.27436,"lon":5.39409,"is_reserved":false,"is_disabled":false,"rental_uris":{"android":"levelo://app?vid=a42493e4-b59b-4fda-ac82-58e3cf7eb641","ios":"levelo://app?vid=a42493e4-b59b-4fda-ac82-58e3cf7eb641"},"vehicle_type_id":"4","last_reported":1747415294,"current_range_meters":9600,"station_id":"ce4bhdp2rcd13ifvqf20","pricing_plan_id":"cebpf4jnsgd1na2vs0mg"},{"bike_id":"14840cde-cb2f-425a-a53d-0e3063d2ef0b","system_id":"levelo_inurba_marseille","lat":43.301528,"lon":5.381005,"is_reserved":false,"is_disabled":true,"rental_uris":{"android":"levelo://app?vid=14840cde-cb2f-425a-a53d-0e3063d2ef0b","ios":"levelo://app?vid=14840cde-cb2f-425a-a53d-0e3063d2ef0b"},"vehicle_type_id":"4","last_reported":1747415294,"current_range_meters":9600,"station_id":"ce4bgjp2rcd13ifvqbh0","pricing_plan_id":"cebpf4jnsgd1na2vs0mg"},{"bike_id":"02288632-79f4-483c-92bd-91cd61a950da","system_id":"levelo_inurba_marseille","lat":43.296417,"lon":5.36215,"is_reserved":false,"is_disabled":false,"rental_uris":{"android":"levelo://app?vid=02288632-79f4-483c-92bd-91cd61a950da","ios":"levelo://app?vid=02288632-79f4-483c-92bd-91cd61a950da"},"vehicle_type_id":"4","last_reported":1747415294,"current_range_meters":9600,"station_id":"","pricing_plan_id":"cebpf4jnsgd1na2vs0mg"},{"bike_id":"a9b9904f-6fae-45e7-a983-96b3245563cb","system_id":"levelo_inurba_marseille","lat":43.26955,"lon":5.38627,"is_reserved":false,"is_disabled":false,"rental_uris":{"android":"levelo://app?vid=a9b9904f-6fae-45e7-a983-96b3245563cb","ios":"levelo://app?vid=a9b9904f-6fae-45e7-a983-96b3245563cb"},"vehicle_type_id":"4","last_reported":1747415294,"current_range_meters":9200,"station_id":"ce4bhh92rcd13ifvqfh0","pricing_plan_id":"cebpf4jnsgd1na2vs0mg"},{"bike_id":"daa5b0ff-3055-467f-a221-9fe35b536eb7","system_id":"levelo_inurba_marseille","lat":43.26188,"lon":5.3746,"is_reserved":false,"is_disabled":false,"rental_uris":{"android":"levelo://app?vid=daa5b0ff-3055-467f-a221-9fe35b536eb7","ios":"levelo://app?vid=daa5b0ff-3055-467f-a221-9fe35b536eb7"},"vehicle_type_id":"4","last_reported":1747415294,"current_range_meters":9600,"station_id":"ce4bhgp2rcd13ifvqfc0","pricing_plan_id":"cebpf4jnsgd1na2vs0mg"},{"bike_id":"8f89b14c-cc99-48cb-af4b-4f6de1415d39","system_id":"levelo_inurba_marseille","lat":43.25728,"lon":5.41105,"is_reserved":false,"is_disabled":false,"rental_uris":{"android":"levelo://app?vid=8f89b14c-cc99-48cb-af4b-4f6de1415d39","ios":"levelo://app?vid=8f89b14c-cc99-48cb-af4b-4f6de1415d39"},"vehicle_type_id":"4","last_reported":1747415294,"current_range_meters":9600,"station_id":"ce4bhkp2rcd13ifvqgd0","pricing_plan_id":"cebpf4jnsgd1na2vs0mg"},{"bike_id":"16ff1b83-ec93-4ed4-9ed9-11f9d04e1567","system_id":"levelo_inurba_marseille","lat":43.29285,"lon":5.36832,"is_reserved":false,"is_disabled":false,"rental_uris":{"android":"levelo://app?vid=16ff1b83-ec93-4ed4-9ed9-11f9d04e1567","ios":"levelo://app?vid=16ff1b83-ec93-4ed4-9ed9-11f9d04e1567"},"vehicle_type_id":"4","last_reported":1747415294,"current_range_meters":9600,"station_id":"ce4bhbp2rcd13ifvqesg","pricing_plan_id":"cebpf4jnsgd1na2vs0mg"},{"bike_id":"585566a7-f18d-4ebc-88b9-223e78718e8c","system_id":"levelo_inurba_marseille","lat":43.26552,"lon":5.37283,"is_reserved":false,"is_disabled":false,"rental_uris":{"android":"levelo://app?vid=585566a7-f18d-4ebc-88b9-223e78718e8c","ios":"levelo://app?vid=585566a7-f18d-4ebc-88b9-223e78718e8c"},"vehicle_type_id":"4","last_reported":1747415294,"current_range_meters":9600,"station_id":"ce4bhg12rcd13ifvqf70","pricing_plan_id":"cebpf4jnsgd1na2vs0mg"},{"bike_id":"0259a766-6c41-45ef-9ac1-652a07cb68d5","system_id":"levelo_inurba_marseille","lat":43.274937,"lon":5.42452,"is_reserved":false,"is_disabled":false,"rental_uris":{"android":"levelo://app?vid=0259a766-6c41-45ef-9ac1-652a07cb68d5","ios":"levelo://app?vid=0259a766-6c41-45ef-9ac1-652a07cb68d5"},"vehicle_type_id":"4","last_reported":1747415294,"current_range_meters":9200,"station_id":"ce4bhn92rcd13ifvqgrg","pricing_plan_id":"cebpf4jnsgd1na2vs0mg"},{"bike_id":"edbe3abc-327b-41e9-8841-4df0b017302b","system_id":"levelo_inurba_marseille","lat":43.31361,"lon":5.38506,"is_reserved":false,"is_disabled":false,"rental_uris":{"android":"levelo://app?vid=edbe3abc-327b-41e9-8841-4df0b017302b","ios":"levelo://app?vid=edbe3abc-327b-41e9-8841-4df0b017302b"},"vehicle_type_id":"4","last_reported":1747415294,"current_range_meters":9600,"station_id":"ce4bgt92rcd13ifvqcf0","pricing_plan_id":"cebpf4jnsgd1na2vs0mg"},{"bike_id":"2143062e-5263-4e45-8ec3-6eb138d8bc9e","system_id":"levelo_inurba_marseille","lat":43.29519,"lon":5.39034,"is_reserved":false,"is_disabled":false,"rental_uris":{"android":"levelo://app?vid=2143062e-5263-4e45-8ec3-6eb138d8bc9e","ios":"levelo://app?vid=2143062e-5263-4e45-8ec3-6eb138d8bc9e"},"vehicle_type_id":"4","last_reported":1747415294,"current_range_meters":10000,"station_id":"ce4bh3p2rcd13ifvqdp0","pricing_plan_id":"cebpf4jnsgd1na2vs0mg"},{"bike_id":"f0f7ca87-7ffb-46bd-ab65-ff44d1578193","system_id":"levelo_inurba_marseille","lat":43.3233,"lon":5.4062,"is_reserved":false,"is_disabled":false,"rental_uris":{"android":"levelo://app?vid=f0f7ca87-7ffb-46bd-ab65-ff44d1578193","ios":"levelo://app?vid=f0f7ca87-7ffb-46bd-ab65-ff44d1578193"},"vehicle_type_id":"4","last_reported":1747415294,"current_range_meters":10000,"station_id":"ce4bhq92rcd13ifvqhjg","pricing_plan_id":"cebpf4jnsgd1na2vs0mg"},{"bike_id":"3d6b5b36-a314-45fa-8bc0-68e5f98a5dde","system_id":"levelo_inurba_marseille","lat":43.22932,"lon":5.3538,"is_reserved":false,"is_disabled":false,"rental_uris":{"android":"levelo://app?vid=3d6b5b36-a314-45fa-8bc0-68e5f98a5dde","ios":"levelo://app?vid=3d6b5b36-a314-45fa-8bc0-68e5f98a5dde"},"vehicle_type_id":"4","last_reported":1747415294,"current_range_meters":10000,"station_id":"cpo3532slgdg3j2ikp40","pricing_plan_id":"cebpf4jnsgd1na2vs0mg"},{"bike_id":"4f061462-aff3-4aca-8f35-6c46a7f08202","system_id":"levelo_inurba_marseille","lat":43.27368,"lon":5.36258,"is_reserved":false,"is_disabled":false,"rental_uris":{"android":"levelo://app?vid=4f061462-aff3-4aca-8f35-6c46a7f08202","ios":"levelo://app?vid=4f061462-aff3-4aca-8f35-6c46a7f08202"},"vehicle_type_id":"4","last_reported":1747415294,"current_range_meters":10000,"station_id":"ce4bhbh2rcd13ifvqeo0","pricing_plan_id":"cebpf4jnsgd1na2vs0mg"},{"bike_id":"cc73f69d-9150-437d-9f1c-10307f4397a4","system_id":"levelo_inurba_marseille","lat":43.30942,"lon":5.3905,"is_reserved":false,"is_disabled":false,"rental_uris":{"android":"levelo://app?vid=cc73f69d-9150-437d-9f1c-10307f4397a4","ios":"levelo://app?vid=cc73f69d-9150-437d-9f1c-10307f4397a4"},"vehicle_type_id":"4","last_reported":1747415294,"current_range_meters":10000,"station_id":"ce4bgup2rcd13ifvqco0","pricing_plan_id":"cebpf4jnsgd1na2vs0mg"},{"bike_id":"c5b6c937-a53a-4f37-af1d-491c28f70c79","system_id":"levelo_inurba_marseille","lat":43.28618,"lon":5.35103,"is_reserved":false,"is_disabled":false,"rental_uris":{"android":"levelo://app?vid=c5b6c937-a53a-4f37-af1d-491c28f70c79","ios":"levelo://app?vid=c5b6c937-a53a-4f37-af1d-491c28f70c79"},"vehicle_type_id":"4","last_reported":1747415294,"current_range_meters":10000,"station_id":"ce4bhch2rcd13ifvqeug","pricing_plan_id":"cebpf4jnsgd1na2vs0mg"},{"bike_id":"a488853e-8708-42f9-a9f1-40f4dc62e03d","system_id":"levelo_inurba_marseille","lat":43.30565,"lon":5.37321,"is_reserved":false,"is_disabled":false,"rental_uris":{"android":"levelo://app?vid=a488853e-8708-42f9-a9f1-40f4dc62e03d","ios":"levelo://app?vid=a488853e-8708-42f9-a9f1-40f4dc62e03d"},"vehicle_type_id":"4","last_reported":1747415294,"current_range_meters":10000,"station_id":"","pricing_plan_id":"cebpf4jnsgd1na2vs0mg"},{"bike_id":"439b8ae7-af6e-46ed-b094-a94990a6fd15","system_id":"levelo_inurba_marseille","lat":43.25075,"lon":5.39526,"is_reserved":false,"is_disabled":false,"rental_uris":{"android":"levelo://app?vid=439b8ae7-af6e-46ed-b094-a94990a6fd15","ios":"levelo://app?vid=439b8ae7-af6e-46ed-b094-a94990a6fd15"},"vehicle_type_id":"4","last_reported":1747415294,"current_range_meters":10000,"station_id":"ce4bhm12rcd13ifvqgkg","pricing_plan_id":"cebpf4jnsgd1na2vs0mg"},{"bike_id":"a1c4178e-3aca-43b4-882a-2d393377219e","system_id":"levelo_inurba_marseille","lat":43.27184,"lon":5.40994,"is_reserved":false,"is_disabled":false,"rental_uris":{"android":"levelo://app?vid=a1c4178e-3aca-43b4-882a-2d393377219e","ios":"levelo://app?vid=a1c4178e-3aca-43b4-882a-2d393377219e"},"vehicle_type_id":"4","last_reported":1747415294,"current_range_meters":10000,"station_id":"ce4bhl12rcd13ifvqgf0","pricing_plan_id":"cebpf4jnsgd1na2vs0mg"},{"bike_id":"e370d680-876d-4f51-8d2c-80cbd2017ff8","system_id":"levelo_inurba_marseille","lat":43.23964,"lon":5.36631,"is_reserved":false,"is_disabled":false,"rental_uris":{"android":"levelo://app?vid=e370d680-876d-4f51-8d2c-80cbd2017ff8","ios":"levelo://app?vid=e370d680-876d-4f51-8d2c-80cbd2017ff8"},"vehicle_type_id":"4","last_reported":1747415294,"current_range_meters":9600,"station_id":"ce4bhi12rcd13ifvqfp0","pricing_plan_id":"cebpf4jnsgd1na2vs0mg"},{"bike_id":"a0f17041-3990-467e-b52b-2bb2cc16b6b7","system_id":"levelo_inurba_marseille","lat":43.290094,"lon":5.356209,"is_reserved":false,"is_disabled":false,"rental_uris":{"android":"levelo://app?vid=a0f17041-3990-467e-b52b-2bb2cc16b6b7","ios":"levelo://app?vid=a0f17041-3990-467e-b52b-2bb2cc16b6b7"},"vehicle_type_id":"4","last_reported":1747415294,"current_range_meters":10000,"station_id":"ce4bhb92rcd13ifvqen0","pricing_plan_id":"cebpf4jnsgd1na2vs0mg"},{"bike_id":"8e7a8057-fcee-4131-8ccd-3ae960fe9d83","system_id":"levelo_inurba_marseille","lat":43.29258,"lon":5.40906,"is_reserved":false,"is_disabled":false,"rental_uris":{"android":"levelo://app?vid=8e7a8057-fcee-4131-8ccd-3ae960fe9d83","ios":"levelo://app?vid=8e7a8057-fcee-4131-8ccd-3ae960fe9d83"},"vehicle_type_id":"4","last_reported":1747415294,"current_range_meters":10000,"station_id":"ce4bh192rcd13ifvqdc0","pricing_plan_id":"cebpf4jnsgd1na2vs0mg"},{"bike_id":"c8172a1b-1886-41c2-8dfc-a075b35ae9c2","system_id":"levelo_inurba_marseille","lat":43.323393,"lon":5.406167,"is_reserved":false,"is_disabled":false,"rental_uris":{"android":"levelo://app?vid=c8172a1b-1886-41c2-8dfc-a075b35ae9c2","ios":"levelo://app?vid=c8172a1b-1886-41c2-8dfc-a075b35ae9c2"},"vehicle_type_id":"4","last_reported":1747415294,"current_range_meters":10800,"station_id":"ce4bhq92rcd13ifvqhjg","pricing_plan_id":"cebpf4jnsgd1na2vs0mg"},{"bike_id":"f9a0d2e5-9d0f-4918-81a4-22e483428085","system_id":"levelo_inurba_marseille","lat":43.28152,"lon":5.42651,"is_reserved":false,"is_disabled":false,"rental_uris":{"android":"levelo://app?vid=f9a0d2e5-9d0f-4918-81a4-22e483428085","ios":"levelo://app?vid=f9a0d2e5-9d0f-4918-81a4-22e483428085"},"vehicle_type_id":"4","last_reported":1747415294,"current_range_meters":10800,"station_id":"ce4bhnh2rcd13ifvqgug","pricing_plan_id":"cebpf4jnsgd1na2vs0mg"},{"bike_id":"65bb615e-ac75-4dff-982b-e1d3d6150bb1","system_id":"levelo_inurba_marseille","lat":43.27973,"lon":5.38745,"is_reserved":false,"is_disabled":false,"rental_uris":{"android":"levelo://app?vid=65bb615e-ac75-4dff-982b-e1d3d6150bb1","ios":"levelo://app?vid=65bb615e-ac75-4dff-982b-e1d3d6150bb1"},"vehicle_type_id":"4","last_reported":1747415294,"current_range_meters":10800,"station_id":"ce4bhg12rcd13ifvqf80","pricing_plan_id":"cebpf4jnsgd1na2vs0mg"},{"bike_id":"74d233ea-4c4b-490c-a52b-91668495621e","system_id":"levelo_inurba_marseille","lat":43.27371,"lon":5.36258,"is_reserved":false,"is_disabled":false,"rental_uris":{"android":"levelo://app?vid=74d233ea-4c4b-490c-a52b-91668495621e","ios":"levelo://app?vid=74d233ea-4c4b-490c-a52b-91668495621e"},"vehicle_type_id":"4","last_reported":1747415294,"current_range_meters":10800,"station_id":"ce4bhbh2rcd13ifvqeo0","pricing_plan_id":"cebpf4jnsgd1na2vs0mg"},{"bike_id":"2c604a03-ee25-4919-802d-4cb4b344d65f","system_id":"levelo_inurba_marseille","lat":43.281039,"lon":5.378255,"is_reserved":false,"is_disabled":false,"rental_uris":{"android":"levelo://app?vid=2c604a03-ee25-4919-802d-4cb4b344d65f","ios":"levelo://app?vid=2c604a03-ee25-4919-802d-4cb4b344d65f"},"vehicle_type_id":"4","last_reported":1747415294,"current_range_meters":10800,"station_id":"ce4bha12rcd13ifvqee0","pricing_plan_id":"cebpf4jnsgd1na2vs0mg"},{"bike_id":"006d2b51-3972-423f-84a4-56fc5b7da8e5","system_id":"levelo_inurba_marseille","lat":43.28437,"lon":5.39178,"is_reserved":false,"is_disabled":false,"rental_uris":{"android":"levelo://app?vid=006d2b51-3972-423f-84a4-56fc5b7da8e5","ios":"levelo://app?vid=006d2b51-3972-423f-84a4-56fc5b7da8e5"},"vehicle_type_id":"4","last_reported":1747415294,"current_range_meters":10800,"station_id":"ce4bhoh2rcd13ifvqh5g","pricing_plan_id":"cebpf4jnsgd1na2vs0mg"},{"bike_id":"51476158-2eb3-451c-b78a-694c68acd32d","system_id":"levelo_inurba_marseille","lat":43.24383,"lon":5.37056,"is_reserved":false,"is_disabled":false,"rental_uris":{"android":"levelo://app?vid=51476158-2eb3-451c-b78a-694c68acd32d","ios":"levelo://app?vid=51476158-2eb3-451c-b78a-694c68acd32d"},"vehicle_type_id":"4","last_reported":1747415294,"current_range_meters":10000,"station_id":"ce4bhhh2rcd13ifvqfk0","pricing_plan_id":"cebpf4jnsgd1na2vs0mg"},{"bike_id":"f5d5c558-3114-414f-98a3-2f2730eb0d4c","system_id":"levelo_inurba_marseille","lat":43.27812,"lon":5.40717,"is_reserved":false,"is_disabled":false,"rental_uris":{"android":"levelo://app?vid=f5d5c558-3114-414f-98a3-2f2730eb0d4c","ios":"levelo://app?vid=f5d5c558-3114-414f-98a3-2f2730eb0d4c"},"vehicle_type_id":"4","last_reported":1747415294,"current_range_meters":11200,"station_id":"ce4bhnh2rcd13ifvqgtg","pricing_plan_id":"cebpf4jnsgd1na2vs0mg"},{"bike_id":"e2dbb7da-ec71-4de9-bd45-830dd4b5d534","system_id":"levelo_inurba_marseille","lat":43.28165,"lon":5.42654,"is_reserved":false,"is_disabled":false,"rental_uris":{"android":"levelo://app?vid=e2dbb7da-ec71-4de9-bd45-830dd4b5d534","ios":"levelo://app?vid=e2dbb7da-ec71-4de9-bd45-830dd4b5d534"},"vehicle_type_id":"4","last_reported":1747415294,"current_range_meters":10800,"station_id":"ce4bhnh2rcd13ifvqgug","pricing_plan_id":"cebpf4jnsgd1na2vs0mg"},{"bike_id":"f7827a25-1f7a-4045-885b-22337b13bb86","system_id":"levelo_inurba_marseille","lat":43.29271,"lon":5.36849,"is_reserved":false,"is_disabled":false,"rental_uris":{"android":"levelo://app?vid=f7827a25-1f7a-4045-885b-22337b13bb86","ios":"levelo://app?vid=f7827a25-1f7a-4045-885b-22337b13bb86"},"vehicle_type_id":"4","last_reported":1747415294,"current_range_meters":11200,"station_id":"ce4bhbp2rcd13ifvqesg","pricing_plan_id":"cebpf4jnsgd1na2vs0mg"},{"bike_id":"069861d6-2772-4672-8c53-85152ee7a5ed","system_id":"levelo_inurba_marseille","lat":43.27372,"lon":5.36248,"is_reserved":false,"is_disabled":false,"rental_uris":{"android":"levelo://app?vid=069861d6-2772-4672-8c53-85152ee7a5ed","ios":"levelo://app?vid=069861d6-2772-4672-8c53-85152ee7a5ed"},"vehicle_type_id":"4","last_reported":1747415294,"current_range_meters":11200,"station_id":"ce4bhbh2rcd13ifvqeo0","pricing_plan_id":"cebpf4jnsgd1na2vs0mg"},{"bike_id":"d88cdfd8-b864-4e0e-b8ca-436075518d48","system_id":"levelo_inurba_marseille","lat":43.29439,"lon":5.39758,"is_reserved":false,"is_disabled":false,"rental_uris":{"android":"levelo://app?vid=d88cdfd8-b864-4e0e-b8ca-436075518d48","ios":"levelo://app?vid=d88cdfd8-b864-4e0e-b8ca-436075518d48"},"vehicle_type_id":"4","last_reported":1747415294,"current_range_meters":11200,"station_id":"ce4bh3h2rcd13ifvqdo0","pricing_plan_id":"cebpf4jnsgd1na2vs0mg"},{"bike_id":"6b262f8d-9cfa-472f-a83d-de9db95c3def","system_id":"levelo_inurba_marseille","lat":43.28999,"lon":5.35609,"is_reserved":false,"is_disabled":false,"rental_uris":{"android":"levelo://app?vid=6b262f8d-9cfa-472f-a83d-de9db95c3def","ios":"levelo://app?vid=6b262f8d-9cfa-472f-a83d-de9db95c3def"},"vehicle_type_id":"4","last_reported":1747415294,"current_range_meters":11600,"station_id":"ce4bhb92rcd13ifvqen0","pricing_plan_id":"cebpf4jnsgd1na2vs0mg"},{"bike_id":"e049ccc9-d51a-424a-a1b8-76558d2a6f7a","system_id":"levelo_inurba_marseille","lat":43.296065,"lon":5.390876,"is_reserved":false,"is_disabled":false,"rental_uris":{"android":"levelo://app?vid=e049ccc9-d51a-424a-a1b8-76558d2a6f7a","ios":"levelo://app?vid=e049ccc9-d51a-424a-a1b8-76558d2a6f7a"},"vehicle_type_id":"4","last_reported":1747415294,"current_range_meters":11600,"station_id":"","pricing_plan_id":"cebpf4jnsgd1na2vs0mg"},{"bike_id":"490b3892-573e-44d4-9bd9-a7b0f61dc8a6","system_id":"levelo_inurba_marseille","lat":43.24165,"lon":5.36393,"is_reserved":false,"is_disabled":false,"rental_uris":{"android":"levelo://app?vid=490b3892-573e-44d4-9bd9-a7b0f61dc8a6","ios":"levelo://app?vid=490b3892-573e-44d4-9bd9-a7b0f61dc8a6"},"vehicle_type_id":"4","last_reported":1747415294,"current_range_meters":11600,"station_id":"cpo36qri1sfpv3e86is0","pricing_plan_id":"cebpf4jnsgd1na2vs0mg"},{"bike_id":"b0acf859-8be4-4016-8062-311f31795791","system_id":"levelo_inurba_marseille","lat":43.28421,"lon":5.35,"is_reserved":false,"is_disabled":false,"rental_uris":{"android":"levelo://app?vid=b0acf859-8be4-4016-8062-311f31795791","ios":"levelo://app?vid=b0acf859-8be4-4016-8062-311f31795791"},"vehicle_type_id":"4","last_reported":1747415294,"current_range_meters":11600,"station_id":"ce4bhbh2rcd13ifvqepg","pricing_plan_id":"cebpf4jnsgd1na2vs0mg"},{"bike_id":"5cf74a5b-3237-4306-8708-835ce896cf40","system_id":"levelo_inurba_marseille","lat":43.319989,"lon":5.381523,"is_reserved":false,"is_disabled":false,"rental_uris":{"android":"levelo://app?vid=5cf74a5b-3237-4306-8708-835ce896cf40","ios":"levelo://app?vid=5cf74a5b-3237-4306-8708-835ce896cf40"},"vehicle_type_id":"4","last_reported":1747415294,"current_range_meters":11600,"station_id":"ce4bhr12rcd13ifvqhpg","pricing_plan_id":"cebpf4jnsgd1na2vs0mg"},{"bike_id":"609fb925-5a66-4df8-8888-fef81ac23761","system_id":"levelo_inurba_marseille","lat":43.255175,"lon":5.382127,"is_reserved":false,"is_disabled":false,"rental_uris":{"android":"levelo://app?vid=609fb925-5a66-4df8-8888-fef81ac23761","ios":"levelo://app?vid=609fb925-5a66-4df8-8888-fef81ac23761"},"vehicle_type_id":"4","last_reported":1747415294,"current_range_meters":11600,"station_id":"ce4bhih2rcd13ifvqfs0","pricing_plan_id":"cebpf4jnsgd1na2vs0mg"},{"bike_id":"4286cad5-ae8a-4a1b-8fea-52a9616cab4f","system_id":"levelo_inurba_marseille","lat":43.26063,"lon":5.39399,"is_reserved":false,"is_disabled":false,"rental_uris":{"android":"levelo://app?vid=4286cad5-ae8a-4a1b-8fea-52a9616cab4f","ios":"levelo://app?vid=4286cad5-ae8a-4a1b-8fea-52a9616cab4f"},"vehicle_type_id":"4","last_reported":1747415294,"current_range_meters":11600,"station_id":"ce4bhh92rcd13ifvqfj0","pricing_plan_id":"cebpf4jnsgd1na2vs0mg"},{"bike_id":"103bbfa6-e790-48e3-9e56-5603c74f7a18","system_id":"levelo_inurba_marseille","lat":43.27374,"lon":5.36259,"is_reserved":false,"is_disabled":false,"rental_uris":{"android":"levelo://app?vid=103bbfa6-e790-48e3-9e56-5603c74f7a18","ios":"levelo://app?vid=103bbfa6-e790-48e3-9e56-5603c74f7a18"},"vehicle_type_id":"4","last_reported":1747415294,"current_range_meters":11600,"station_id":"ce4bhbh2rcd13ifvqeo0","pricing_plan_id":"cebpf4jnsgd1na2vs0mg"},{"bike_id":"976614c5-5509-4c20-944f-057f3a34a873","system_id":"levelo_inurba_marseille","lat":43.29043,"lon":5.35909,"is_reserved":false,"is_disabled":false,"rental_uris":{"android":"levelo://app?vid=976614c5-5509-4c20-944f-057f3a34a873","ios":"levelo://app?vid=976614c5-5509-4c20-944f-057f3a34a873"},"vehicle_type_id":"4","last_reported":1747415294,"current_range_meters":12000,"station_id":"ce4bha92rcd13ifvqeg0","pricing_plan_id":"cebpf4jnsgd1na2vs0mg"},{"bike_id":"10bc0914-ab62-4247-a70a-9a1c94585a97","system_id":"levelo_inurba_marseille","lat":43.2856,"lon":5.39512,"is_reserved":false,"is_disabled":false,"rental_uris":{"android":"levelo://app?vid=10bc0914-ab62-4247-a70a-9a1c94585a97","ios":"levelo://app?vid=10bc0914-ab62-4247-a70a-9a1c94585a97"},"vehicle_type_id":"4","last_reported":1747415294,"current_range_meters":12000,"station_id":"ce4bh292rcd13ifvqdg0","pricing_plan_id":"cebpf4jnsgd1na2vs0mg"},{"bike_id":"8fe8a34b-a7ab-4615-b901-f49d97106116","system_id":"levelo_inurba_marseille","lat":43.212,"lon":5.35064,"is_reserved":false,"is_disabled":false,"rental_uris":{"android":"levelo://app?vid=8fe8a34b-a7ab-4615-b901-f49d97106116","ios":"levelo://app?vid=8fe8a34b-a7ab-4615-b901-f49d97106116"},"vehicle_type_id":"4","last_reported":1747415294,"current_range_meters":12000,"station_id":"st_cvj6sg6p6f1abm77japg","pricing_plan_id":"cebpf4jnsgd1na2vs0mg"},{"bike_id":"8a61a1bc-5a2c-4409-b911-e09287002183","system_id":"levelo_inurba_marseille","lat":43.31014,"lon":5.37941,"is_reserved":false,"is_disabled":false,"rental_uris":{"android":"levelo://app?vid=8a61a1bc-5a2c-4409-b911-e09287002183","ios":"levelo://app?vid=8a61a1bc-5a2c-4409-b911-e09287002183"},"vehicle_type_id":"4","last_reported":1747415294,"current_range_meters":12000,"station_id":"","pricing_plan_id":"cebpf4jnsgd1na2vs0mg"},{"bike_id":"a9f99404-3f60-42eb-8aad-cf1dafd436fc","system_id":"levelo_inurba_marseille","lat":43.27367,"lon":5.3626,"is_reserved":false,"is_disabled":false,"rental_uris":{"android":"levelo://app?vid=a9f99404-3f60-42eb-8aad-cf1dafd436fc","ios":"levelo://app?vid=a9f99404-3f60-42eb-8aad-cf1dafd436fc"},"vehicle_type_id":"4","last_reported":1747415294,"current_range_meters":12400,"station_id":"ce4bhbh2rcd13ifvqeo0","pricing_plan_id":"cebpf4jnsgd1na2vs0mg"},{"bike_id":"f7c31dd2-47f7-46c3-a769-ecda17b690c7","system_id":"levelo_inurba_marseille","lat":43.313528,"lon":5.367136,"is_reserved":false,"is_disabled":true,"rental_uris":{"android":"levelo://app?vid=f7c31dd2-47f7-46c3-a769-ecda17b690c7","ios":"levelo://app?vid=f7c31dd2-47f7-46c3-a769-ecda17b690c7"},"vehicle_type_id":"4","last_reported":1747415294,"current_range_meters":12400,"station_id":"ce4bgr92rcd13ifvqc6g","pricing_plan_id":"cebpf4jnsgd1na2vs0mg"},{"bike_id":"e2cac3b4-9edf-4774-950c-f815e4f70761","system_id":"levelo_inurba_marseille","lat":43.24385,"lon":5.37056,"is_reserved":false,"is_disabled":false,"rental_uris":{"android":"levelo://app?vid=e2cac3b4-9edf-4774-950c-f815e4f70761","ios":"levelo://app?vid=e2cac3b4-9edf-4774-950c-f815e4f70761"},"vehicle_type_id":"4","last_reported":1747415294,"current_range_meters":12400,"station_id":"ce4bhhh2rcd13ifvqfk0","pricing_plan_id":"cebpf4jnsgd1na2vs0mg"},{"bike_id":"9fd37a46-434d-4e40-8e6d-de49833c3d8e","system_id":"levelo_inurba_marseille","lat":43.288458,"lon":5.358658,"is_reserved":false,"is_disabled":false,"rental_uris":{"android":"levelo://app?vid=9fd37a46-434d-4e40-8e6d-de49833c3d8e","ios":"levelo://app?vid=9fd37a46-434d-4e40-8e6d-de49833c3d8e"},"vehicle_type_id":"4","last_reported":1747415294,"current_range_meters":12400,"station_id":"ce4bhb12rcd13ifvqem0","pricing_plan_id":"cebpf4jnsgd1na2vs0mg"},{"bike_id":"fc48c643-706b-47c0-8c25-5ccd807aa56d","system_id":"levelo_inurba_marseille","lat":43.29008,"lon":5.35598,"is_reserved":false,"is_disabled":false,"rental_uris":{"android":"levelo://app?vid=fc48c643-706b-47c0-8c25-5ccd807aa56d","ios":"levelo://app?vid=fc48c643-706b-47c0-8c25-5ccd807aa56d"},"vehicle_type_id":"4","last_reported":1747415294,"current_range_meters":12400,"station_id":"ce4bhb92rcd13ifvqen0","pricing_plan_id":"cebpf4jnsgd1na2vs0mg"},{"bike_id":"304567a6-4d0d-4263-99bc-52d6bf4207a2","system_id":"levelo_inurba_marseille","lat":43.268055,"lon":5.399684,"is_reserved":false,"is_disabled":false,"rental_uris":{"android":"levelo://app?vid=304567a6-4d0d-4263-99bc-52d6bf4207a2","ios":"levelo://app?vid=304567a6-4d0d-4263-99bc-52d6bf4207a2"},"vehicle_type_id":"4","last_reported":1747415294,"current_range_meters":12800,"station_id":"ce4bhmh2rcd13ifvqgmg","pricing_plan_id":"cebpf4jnsgd1na2vs0mg"},{"bike_id":"d5bceba3-a793-4568-b130-87fb6504b67e","system_id":"levelo_inurba_marseille","lat":43.28402,"lon":5.37515,"is_reserved":false,"is_disabled":false,"rental_uris":{"android":"levelo://app?vid=d5bceba3-a793-4568-b130-87fb6504b67e","ios":"levelo://app?vid=d5bceba3-a793-4568-b130-87fb6504b67e"},"vehicle_type_id":"4","last_reported":1747415294,"current_range_meters":12800,"station_id":"ce4bh412rcd13ifvqds0","pricing_plan_id":"cebpf4jnsgd1na2vs0mg"},{"bike_id":"f55ed7fe-3ad3-43e3-8e69-8c3325b8cf73","system_id":"levelo_inurba_marseille","lat":43.28609,"lon":5.35101,"is_reserved":false,"is_disabled":true,"rental_uris":{"android":"levelo://app?vid=f55ed7fe-3ad3-43e3-8e69-8c3325b8cf73","ios":"levelo://app?vid=f55ed7fe-3ad3-43e3-8e69-8c3325b8cf73"},"vehicle_type_id":"4","last_reported":1747415294,"current_range_meters":12800,"station_id":"ce4bhch2rcd13ifvqeug","pricing_plan_id":"cebpf4jnsgd1na2vs0mg"},{"bike_id":"2f303b5d-af95-4fca-8014-99cd5db621f6","system_id":"levelo_inurba_marseille","lat":43.317119,"lon":5.437031,"is_reserved":false,"is_disabled":false,"rental_uris":{"android":"levelo://app?vid=2f303b5d-af95-4fca-8014-99cd5db621f6","ios":"levelo://app?vid=2f303b5d-af95-4fca-8014-99cd5db621f6"},"vehicle_type_id":"4","last_reported":1747415294,"current_range_meters":12800,"station_id":"ce4bhp92rcd13ifvqhcg","pricing_plan_id":"cebpf4jnsgd1na2vs0mg"},{"bike_id":"51bae45f-da2c-4d08-8781-98efbfe5f2cd","system_id":"levelo_inurba_marseille","lat":43.26056,"lon":5.39399,"is_reserved":false,"is_disabled":false,"rental_uris":{"android":"levelo://app?vid=51bae45f-da2c-4d08-8781-98efbfe5f2cd","ios":"levelo://app?vid=51bae45f-da2c-4d08-8781-98efbfe5f2cd"},"vehicle_type_id":"4","last_reported":1747415294,"current_range_meters":12800,"station_id":"ce4bhh92rcd13ifvqfj0","pricing_plan_id":"cebpf4jnsgd1na2vs0mg"},{"bike_id":"305258d2-aed4-4f46-8ab8-a22e17f8560e","system_id":"levelo_inurba_marseille","lat":43.28269,"lon":5.35077,"is_reserved":false,"is_disabled":false,"rental_uris":{"android":"levelo://app?vid=305258d2-aed4-4f46-8ab8-a22e17f8560e","ios":"levelo://app?vid=305258d2-aed4-4f46-8ab8-a22e17f8560e"},"vehicle_type_id":"4","last_reported":1747415294,"current_range_meters":13600,"station_id":"ce4bhbp2rcd13ifvqerg","pricing_plan_id":"cebpf4jnsgd1na2vs0mg"},{"bike_id":"d867b0ea-d076-4577-8976-7716955d54ca","system_id":"levelo_inurba_marseille","lat":43.29267,"lon":5.36844,"is_reserved":false,"is_disabled":false,"rental_uris":{"android":"levelo://app?vid=d867b0ea-d076-4577-8976-7716955d54ca","ios":"levelo://app?vid=d867b0ea-d076-4577-8976-7716955d54ca"},"vehicle_type_id":"4","last_reported":1747415294,"current_range_meters":13600,"station_id":"ce4bhbp2rcd13ifvqesg","pricing_plan_id":"cebpf4jnsgd1na2vs0mg"},{"bike_id":"bdb13593-6e27-47ba-a7d4-8c4f939adee6","system_id":"levelo_inurba_marseille","lat":43.3248,"lon":5.36563,"is_reserved":false,"is_disabled":false,"rental_uris":{"android":"levelo://app?vid=bdb13593-6e27-47ba-a7d4-8c4f939adee6","ios":"levelo://app?vid=bdb13593-6e27-47ba-a7d4-8c4f939adee6"},"vehicle_type_id":"4","last_reported":1747415294,"current_range_meters":13600,"station_id":"ce4bhs12rcd13ifvqhvg","pricing_plan_id":"cebpf4jnsgd1na2vs0mg"},{"bike_id":"47c2ca36-09ea-4808-820e-a97b2b3d10fe","system_id":"levelo_inurba_marseille","lat":43.28295,"lon":5.35057,"is_reserved":false,"is_disabled":false,"rental_uris":{"android":"levelo://app?vid=47c2ca36-09ea-4808-820e-a97b2b3d10fe","ios":"levelo://app?vid=47c2ca36-09ea-4808-820e-a97b2b3d10fe"},"vehicle_type_id":"4","last_reported":1747415294,"current_range_meters":14000,"station_id":"ce4bhbp2rcd13ifvqerg","pricing_plan_id":"cebpf4jnsgd1na2vs0mg"},{"bike_id":"1f44f4bb-e21a-408e-990d-49f58e5d21f9","system_id":"levelo_inurba_marseille","lat":43.307732,"lon":5.376451,"is_reserved":false,"is_disabled":false,"rental_uris":{"android":"levelo://app?vid=1f44f4bb-e21a-408e-990d-49f58e5d21f9","ios":"levelo://app?vid=1f44f4bb-e21a-408e-990d-49f58e5d21f9"},"vehicle_type_id":"4","last_reported":1747415294,"current_range_meters":14000,"station_id":"ce4bgv92rcd13ifvqcq0","pricing_plan_id":"cebpf4jnsgd1na2vs0mg"},{"bike_id":"5ffb1c70-d544-4351-9a35-c7caf605834f","system_id":"levelo_inurba_marseille","lat":43.2885,"lon":5.35856,"is_reserved":false,"is_disabled":false,"rental_uris":{"android":"levelo://app?vid=5ffb1c70-d544-4351-9a35-c7caf605834f","ios":"levelo://app?vid=5ffb1c70-d544-4351-9a35-c7caf605834f"},"vehicle_type_id":"4","last_reported":1747415294,"current_range_meters":14000,"station_id":"ce4bhb12rcd13ifvqem0","pricing_plan_id":"cebpf4jnsgd1na2vs0mg"},{"bike_id":"337484c2-a8ca-4ecd-858c-b6162cfae281","system_id":"levelo_inurba_marseille","lat":43.31376,"lon":5.38509,"is_reserved":false,"is_disabled":false,"rental_uris":{"android":"levelo://app?vid=337484c2-a8ca-4ecd-858c-b6162cfae281","ios":"levelo://app?vid=337484c2-a8ca-4ecd-858c-b6162cfae281"},"vehicle_type_id":"4","last_reported":1747415294,"current_range_meters":14000,"station_id":"ce4bgt92rcd13ifvqcf0","pricing_plan_id":"cebpf4jnsgd1na2vs0mg"},{"bike_id":"248354d9-319a-4fda-a327-9b1e5e28cf99","system_id":"levelo_inurba_marseille","lat":43.29527,"lon":5.37512,"is_reserved":false,"is_disabled":true,"rental_uris":{"android":"levelo://app?vid=248354d9-319a-4fda-a327-9b1e5e28cf99","ios":"levelo://app?vid=248354d9-319a-4fda-a327-9b1e5e28cf99"},"vehicle_type_id":"4","last_reported":1747415294,"current_range_meters":14000,"station_id":"ce4bgkp2rcd13ifvqbmg","pricing_plan_id":"cebpf4jnsgd1na2vs0mg"},{"bike_id":"7673f08b-ac9e-4a96-9d1a-1911e62c1fe7","system_id":"levelo_inurba_marseille","lat":43.3132,"lon":5.36957,"is_reserved":false,"is_disabled":false,"rental_uris":{"android":"levelo://app?vid=7673f08b-ac9e-4a96-9d1a-1911e62c1fe7","ios":"levelo://app?vid=7673f08b-ac9e-4a96-9d1a-1911e62c1fe7"},"vehicle_type_id":"4","last_reported":1747415294,"current_range_meters":14000,"station_id":"","pricing_plan_id":"cebpf4jnsgd1na2vs0mg"},{"bike_id":"83555df9-3f09-43a0-847d-96f0159d0c57","system_id":"levelo_inurba_marseille","lat":43.29687,"lon":5.37295,"is_reserved":false,"is_disabled":false,"rental_uris":{"android":"levelo://app?vid=83555df9-3f09-43a0-847d-96f0159d0c57","ios":"levelo://app?vid=83555df9-3f09-43a0-847d-96f0159d0c57"},"vehicle_type_id":"4","last_reported":1747415294,"current_range_meters":14000,"station_id":"ce4bgk12rcd13ifvqbj0","pricing_plan_id":"cebpf4jnsgd1na2vs0mg"},{"bike_id":"b8f48a03-1b3c-4f41-b74c-2b637af725d5","system_id":"levelo_inurba_marseille","lat":43.3042,"lon":5.39747,"is_reserved":false,"is_disabled":true,"rental_uris":{"android":"levelo://app?vid=b8f48a03-1b3c-4f41-b74c-2b637af725d5","ios":"levelo://app?vid=b8f48a03-1b3c-4f41-b74c-2b637af725d5"},"vehicle_type_id":"4","last_reported":1747415294,"current_range_meters":14000,"station_id":"ce4bh092rcd13ifvqd20","pricing_plan_id":"cebpf4jnsgd1na2vs0mg"},{"bike_id":"3dd1916d-60b0-424c-8799-a485a6792401","system_id":"levelo_inurba_marseille","lat":43.27614,"lon":5.36117,"is_reserved":false,"is_disabled":false,"rental_uris":{"android":"levelo://app?vid=3dd1916d-60b0-424c-8799-a485a6792401","ios":"levelo://app?vid=3dd1916d-60b0-424c-8799-a485a6792401"},"vehicle_type_id":"4","last_reported":1747415294,"current_range_meters":14000,"station_id":"ce4bgj92rcd13ifvqbe0","pricing_plan_id":"cebpf4jnsgd1na2vs0mg"},{"bike_id":"c462edac-629f-47ae-91a1-fc91820cc32c","system_id":"levelo_inurba_marseille","lat":43.29308,"lon":5.37183,"is_reserved":false,"is_disabled":true,"rental_uris":{"android":"levelo://app?vid=c462edac-629f-47ae-91a1-fc91820cc32c","ios":"levelo://app?vid=c462edac-629f-47ae-91a1-fc91820cc32c"},"vehicle_type_id":"4","last_reported":1747415294,"current_range_meters":14400,"station_id":"ce4bgh92rcd13ifvqb40","pricing_plan_id":"cebpf4jnsgd1na2vs0mg"},{"bike_id":"f495968d-d982-4514-ab98-db984cf03219","system_id":"levelo_inurba_marseille","lat":43.31419,"lon":5.38335,"is_reserved":false,"is_disabled":false,"rental_uris":{"android":"levelo://app?vid=f495968d-d982-4514-ab98-db984cf03219","ios":"levelo://app?vid=f495968d-d982-4514-ab98-db984cf03219"},"vehicle_type_id":"4","last_reported":1747415294,"current_range_meters":14400,"station_id":"","pricing_plan_id":"cebpf4jnsgd1na2vs0mg"},{"bike_id":"88d80919-80d7-439b-aef6-38a98350b114","system_id":"levelo_inurba_marseille","lat":43.29809,"lon":5.38095,"is_reserved":false,"is_disabled":false,"rental_uris":{"android":"levelo://app?vid=88d80919-80d7-439b-aef6-38a98350b114","ios":"levelo://app?vid=88d80919-80d7-439b-aef6-38a98350b114"},"vehicle_type_id":"4","last_reported":1747415294,"current_range_meters":14400,"station_id":"ce4bgip2rcd13ifvqbb0","pricing_plan_id":"cebpf4jnsgd1na2vs0mg"},{"bike_id":"a5c9c5d6-3d94-4159-b482-ac0589af384b","system_id":"levelo_inurba_marseille","lat":43.27809,"lon":5.40709,"is_reserved":false,"is_disabled":false,"rental_uris":{"android":"levelo://app?vid=a5c9c5d6-3d94-4159-b482-ac0589af384b","ios":"levelo://app?vid=a5c9c5d6-3d94-4159-b482-ac0589af384b"},"vehicle_type_id":"4","last_reported":1747415294,"current_range_meters":14800,"station_id":"ce4bhnh2rcd13ifvqgtg","pricing_plan_id":"cebpf4jnsgd1na2vs0mg"},{"bike_id":"f002a31a-1890-414c-9147-669f306c78bf","system_id":"levelo_inurba_marseille","lat":43.29003,"lon":5.35607,"is_reserved":false,"is_disabled":false,"rental_uris":{"android":"levelo://app?vid=f002a31a-1890-414c-9147-669f306c78bf","ios":"levelo://app?vid=f002a31a-1890-414c-9147-669f306c78bf"},"vehicle_type_id":"4","last_reported":1747415294,"current_range_meters":14800,"station_id":"ce4bhb92rcd13ifvqen0","pricing_plan_id":"cebpf4jnsgd1na2vs0mg"},{"bike_id":"62eced11-b196-46d0-97a0-c41915d8ae09","system_id":"levelo_inurba_marseille","lat":43.29258,"lon":5.38447,"is_reserved":false,"is_disabled":false,"rental_uris":{"android":"levelo://app?vid=62eced11-b196-46d0-97a0-c41915d8ae09","ios":"levelo://app?vid=62eced11-b196-46d0-97a0-c41915d8ae09"},"vehicle_type_id":"4","last_reported":1747415294,"current_range_meters":14800,"station_id":"ce4bh692rcd13ifvqea0","pricing_plan_id":"cebpf4jnsgd1na2vs0mg"},{"bike_id":"ea0f1347-e44f-441b-92ab-c6214413c0cc","system_id":"levelo_inurba_marseille","lat":43.32108,"lon":5.36767,"is_reserved":false,"is_disabled":false,"rental_uris":{"android":"levelo://app?vid=ea0f1347-e44f-441b-92ab-c6214413c0cc","ios":"levelo://app?vid=ea0f1347-e44f-441b-92ab-c6214413c0cc"},"vehicle_type_id":"4","last_reported":1747415294,"current_range_meters":14800,"station_id":"ce4bhrh2rcd13ifvqhug","pricing_plan_id":"cebpf4jnsgd1na2vs0mg"},{"bike_id":"9a849fc0-0535-44a0-bc57-e9cc385cbded","system_id":"levelo_inurba_marseille","lat":43.282698,"lon":5.350672,"is_reserved":false,"is_disabled":false,"rental_uris":{"android":"levelo://app?vid=9a849fc0-0535-44a0-bc57-e9cc385cbded","ios":"levelo://app?vid=9a849fc0-0535-44a0-bc57-e9cc385cbded"},"vehicle_type_id":"4","last_reported":1747415294,"current_range_meters":14400,"station_id":"ce4bhbp2rcd13ifvqerg","pricing_plan_id":"cebpf4jnsgd1na2vs0mg"},{"bike_id":"815a713b-28b6-4d66-9955-fe5e490322d2","system_id":"levelo_inurba_marseille","lat":43.292593,"lon":5.38425,"is_reserved":false,"is_disabled":false,"rental_uris":{"android":"levelo://app?vid=815a713b-28b6-4d66-9955-fe5e490322d2","ios":"levelo://app?vid=815a713b-28b6-4d66-9955-fe5e490322d2"},"vehicle_type_id":"4","last_reported":1747415294,"current_range_meters":14800,"station_id":"ce4bh692rcd13ifvqea0","pricing_plan_id":"cebpf4jnsgd1na2vs0mg"},{"bike_id":"be93d734-6682-4c5e-9673-0898e879ea28","system_id":"levelo_inurba_marseille","lat":43.25822,"lon":5.39436,"is_reserved":false,"is_disabled":false,"rental_uris":{"android":"levelo://app?vid=be93d734-6682-4c5e-9673-0898e879ea28","ios":"levelo://app?vid=be93d734-6682-4c5e-9673-0898e879ea28"},"vehicle_type_id":"4","last_reported":1747415294,"current_range_meters":14800,"station_id":"ce4bhip2rcd13ifvqft0","pricing_plan_id":"cebpf4jnsgd1na2vs0mg"},{"bike_id":"27994dab-21ae-4880-855a-86b9bd475674","system_id":"levelo_inurba_marseille","lat":43.29011,"lon":5.35611,"is_reserved":false,"is_disabled":false,"rental_uris":{"android":"levelo://app?vid=27994dab-21ae-4880-855a-86b9bd475674","ios":"levelo://app?vid=27994dab-21ae-4880-855a-86b9bd475674"},"vehicle_type_id":"4","last_reported":1747415294,"current_range_meters":15200,"station_id":"ce4bhb92rcd13ifvqen0","pricing_plan_id":"cebpf4jnsgd1na2vs0mg"},{"bike_id":"6bb9c831-8b49-4efd-9f56-d151a02e9af9","system_id":"levelo_inurba_marseille","lat":43.29273,"lon":5.36851,"is_reserved":false,"is_disabled":false,"rental_uris":{"android":"levelo://app?vid=6bb9c831-8b49-4efd-9f56-d151a02e9af9","ios":"levelo://app?vid=6bb9c831-8b49-4efd-9f56-d151a02e9af9"},"vehicle_type_id":"4","last_reported":1747415294,"current_range_meters":15200,"station_id":"ce4bhbp2rcd13ifvqesg","pricing_plan_id":"cebpf4jnsgd1na2vs0mg"},{"bike_id":"6fe716ec-3e66-40a0-90cd-a86ee2fdef59","system_id":"levelo_inurba_marseille","lat":43.3211,"lon":5.36765,"is_reserved":false,"is_disabled":false,"rental_uris":{"android":"levelo://app?vid=6fe716ec-3e66-40a0-90cd-a86ee2fdef59","ios":"levelo://app?vid=6fe716ec-3e66-40a0-90cd-a86ee2fdef59"},"vehicle_type_id":"4","last_reported":1747415294,"current_range_meters":15200,"station_id":"ce4bhrh2rcd13ifvqhug","pricing_plan_id":"cebpf4jnsgd1na2vs0mg"},{"bike_id":"3722348d-e3f4-4ffc-961d-2594f704a3f1","system_id":"levelo_inurba_marseille","lat":43.2668,"lon":5.38274,"is_reserved":false,"is_disabled":false,"rental_uris":{"android":"levelo://app?vid=3722348d-e3f4-4ffc-961d-2594f704a3f1","ios":"levelo://app?vid=3722348d-e3f4-4ffc-961d-2594f704a3f1"},"vehicle_type_id":"4","last_reported":1747415294,"current_range_meters":14800,"station_id":"ce4bhg92rcd13ifvqf90","pricing_plan_id":"cebpf4jnsgd1na2vs0mg"},{"bike_id":"208d7a25-cd6e-47fe-addd-1b889cabc092","system_id":"levelo_inurba_marseille","lat":43.284097,"lon":5.349889,"is_reserved":false,"is_disabled":false,"rental_uris":{"android":"levelo://app?vid=208d7a25-cd6e-47fe-addd-1b889cabc092","ios":"levelo://app?vid=208d7a25-cd6e-47fe-addd-1b889cabc092"},"vehicle_type_id":"4","last_reported":1747415294,"current_range_meters":16000,"station_id":"ce4bhbh2rcd13ifvqepg","pricing_plan_id":"cebpf4jnsgd1na2vs0mg"},{"bike_id":"cfd3832a-f5d3-4d3b-b89a-37bf7844a418","system_id":"levelo_inurba_marseille","lat":43.28895,"lon":5.3565,"is_reserved":false,"is_disabled":false,"rental_uris":{"android":"levelo://app?vid=cfd3832a-f5d3-4d3b-b89a-37bf7844a418","ios":"levelo://app?vid=cfd3832a-f5d3-4d3b-b89a-37bf7844a418"},"vehicle_type_id":"4","last_reported":1747415294,"current_range_meters":16000,"station_id":"ce4bhb92rcd13ifvqen0","pricing_plan_id":"cebpf4jnsgd1na2vs0mg"},{"bike_id":"46d48620-a0c3-4355-902d-4bb07428b44c","system_id":"levelo_inurba_marseille","lat":43.29225,"lon":5.36069,"is_reserved":false,"is_disabled":false,"rental_uris":{"android":"levelo://app?vid=46d48620-a0c3-4355-902d-4bb07428b44c","ios":"levelo://app?vid=46d48620-a0c3-4355-902d-4bb07428b44c"},"vehicle_type_id":"4","last_reported":1747415294,"current_range_meters":16000,"station_id":"ce4bhbh2rcd13ifvqeqg","pricing_plan_id":"cebpf4jnsgd1na2vs0mg"},{"bike_id":"db08a07a-6ee7-42b6-8112-e4733686885b","system_id":"levelo_inurba_marseille","lat":43.27376,"lon":5.36249,"is_reserved":false,"is_disabled":false,"rental_uris":{"android":"levelo://app?vid=db08a07a-6ee7-42b6-8112-e4733686885b","ios":"levelo://app?vid=db08a07a-6ee7-42b6-8112-e4733686885b"},"vehicle_type_id":"4","last_reported":1747415294,"current_range_meters":16000,"station_id":"ce4bhbh2rcd13ifvqeo0","pricing_plan_id":"cebpf4jnsgd1na2vs0mg"},{"bike_id":"a60091fb-67be-4143-adba-b952efda2e80","system_id":"levelo_inurba_marseille","lat":43.23179,"lon":5.39989,"is_reserved":false,"is_disabled":false,"rental_uris":{"android":"levelo://app?vid=a60091fb-67be-4143-adba-b952efda2e80","ios":"levelo://app?vid=a60091fb-67be-4143-adba-b952efda2e80"},"vehicle_type_id":"4","last_reported":1747415294,"current_range_meters":7200,"station_id":"ce4bhn12rcd13ifvqgqg","pricing_plan_id":"cebpf4jnsgd1na2vs0mg"},{"bike_id":"2ae60620-d2b0-42ca-a176-1b3030e97f86","system_id":"levelo_inurba_marseille","lat":43.29039,"lon":5.359225,"is_reserved":false,"is_disabled":false,"rental_uris":{"android":"levelo://app?vid=2ae60620-d2b0-42ca-a176-1b3030e97f86","ios":"levelo://app?vid=2ae60620-d2b0-42ca-a176-1b3030e97f86"},"vehicle_type_id":"4","last_reported":1747415294,"current_range_meters":16000,"station_id":"ce4bha92rcd13ifvqeg0","pricing_plan_id":"cebpf4jnsgd1na2vs0mg"},{"bike_id":"6da655b8-0421-4e8a-ae32-6637af746f6a","system_id":"levelo_inurba_marseille","lat":43.26848,"lon":5.411222,"is_reserved":false,"is_disabled":false,"rental_uris":{"android":"levelo://app?vid=6da655b8-0421-4e8a-ae32-6637af746f6a","ios":"levelo://app?vid=6da655b8-0421-4e8a-ae32-6637af746f6a"},"vehicle_type_id":"4","last_reported":1747415294,"current_range_meters":16000,"station_id":"","pricing_plan_id":"cebpf4jnsgd1na2vs0mg"},{"bike_id":"00184824-a53f-4e4d-83c7-20b3100ed15b","system_id":"levelo_inurba_marseille","lat":43.25865,"lon":5.39898,"is_reserved":false,"is_disabled":false,"rental_uris":{"android":"levelo://app?vid=00184824-a53f-4e4d-83c7-20b3100ed15b","ios":"levelo://app?vid=00184824-a53f-4e4d-83c7-20b3100ed15b"},"vehicle_type_id":"4","last_reported":1747415294,"current_range_meters":16000,"station_id":"ce4bhl92rcd13ifvqghg","pricing_plan_id":"cebpf4jnsgd1na2vs0mg"},{"bike_id":"a4d7457e-a382-4ab7-9876-e9ba20692ec9","system_id":"levelo_inurba_marseille","lat":43.32004,"lon":5.38139,"is_reserved":false,"is_disabled":false,"rental_uris":{"android":"levelo://app?vid=a4d7457e-a382-4ab7-9876-e9ba20692ec9","ios":"levelo://app?vid=a4d7457e-a382-4ab7-9876-e9ba20692ec9"},"vehicle_type_id":"4","last_reported":1747415294,"current_range_meters":16000,"station_id":"ce4bhr12rcd13ifvqhpg","pricing_plan_id":"cebpf4jnsgd1na2vs0mg"},{"bike_id":"2a9d0bc3-deae-4a39-b85c-52d709abed2e","system_id":"levelo_inurba_marseille","lat":43.30921,"lon":5.37817,"is_reserved":false,"is_disabled":false,"rental_uris":{"android":"levelo://app?vid=2a9d0bc3-deae-4a39-b85c-52d709abed2e","ios":"levelo://app?vid=2a9d0bc3-deae-4a39-b85c-52d709abed2e"},"vehicle_type_id":"4","last_reported":1747415294,"current_range_meters":16400,"station_id":"","pricing_plan_id":"cebpf4jnsgd1na2vs0mg"},{"bike_id":"baa879ae-7eec-40b3-a280-6a362d4234da","system_id":"levelo_inurba_marseille","lat":43.29255,"lon":5.38454,"is_reserved":false,"is_disabled":false,"rental_uris":{"android":"levelo://app?vid=baa879ae-7eec-40b3-a280-6a362d4234da","ios":"levelo://app?vid=baa879ae-7eec-40b3-a280-6a362d4234da"},"vehicle_type_id":"4","last_reported":1747415294,"current_range_meters":16400,"station_id":"ce4bh692rcd13ifvqea0","pricing_plan_id":"cebpf4jnsgd1na2vs0mg"},{"bike_id":"1f2fe90f-d766-4a0e-9d97-dcc08b590b96","system_id":"levelo_inurba_marseille","lat":43.29934,"lon":5.36544,"is_reserved":false,"is_disabled":false,"rental_uris":{"android":"levelo://app?vid=1f2fe90f-d766-4a0e-9d97-dcc08b590b96","ios":"levelo://app?vid=1f2fe90f-d766-4a0e-9d97-dcc08b590b96"},"vehicle_type_id":"4","last_reported":1747415294,"current_range_meters":16400,"station_id":"ce4bgm92rcd13ifvqbr0","pricing_plan_id":"cebpf4jnsgd1na2vs0mg"},{"bike_id":"41c7c2a9-899b-4b98-8bd0-c03ea1980732","system_id":"levelo_inurba_marseille","lat":43.281,"lon":5.37832,"is_reserved":false,"is_disabled":false,"rental_uris":{"android":"levelo://app?vid=41c7c2a9-899b-4b98-8bd0-c03ea1980732","ios":"levelo://app?vid=41c7c2a9-899b-4b98-8bd0-c03ea1980732"},"vehicle_type_id":"4","last_reported":1747415294,"current_range_meters":16400,"station_id":"ce4bha12rcd13ifvqee0","pricing_plan_id":"cebpf4jnsgd1na2vs0mg"},{"bike_id":"9375eefb-4ebf-4a4e-b6e0-ddc49775c2c1","system_id":"levelo_inurba_marseille","lat":43.29069,"lon":5.35896,"is_reserved":false,"is_disabled":false,"rental_uris":{"android":"levelo://app?vid=9375eefb-4ebf-4a4e-b6e0-ddc49775c2c1","ios":"levelo://app?vid=9375eefb-4ebf-4a4e-b6e0-ddc49775c2c1"},"vehicle_type_id":"4","last_reported":1747415294,"current_range_meters":16400,"station_id":"ce4bha92rcd13ifvqeg0","pricing_plan_id":"cebpf4jnsgd1na2vs0mg"},{"bike_id":"b889a53a-96c7-4e9b-b67e-fd646f6fc54d","system_id":"levelo_inurba_marseille","lat":43.28418,"lon":5.34994,"is_reserved":false,"is_disabled":false,"rental_uris":{"android":"levelo://app?vid=b889a53a-96c7-4e9b-b67e-fd646f6fc54d","ios":"levelo://app?vid=b889a53a-96c7-4e9b-b67e-fd646f6fc54d"},"vehicle_type_id":"4","last_reported":1747415294,"current_range_meters":16000,"station_id":"ce4bhbh2rcd13ifvqepg","pricing_plan_id":"cebpf4jnsgd1na2vs0mg"},{"bike_id":"852ea9ac-6507-488a-87c5-b27d54b34b2e","system_id":"levelo_inurba_marseille","lat":43.28155,"lon":5.42636,"is_reserved":false,"is_disabled":false,"rental_uris":{"android":"levelo://app?vid=852ea9ac-6507-488a-87c5-b27d54b34b2e","ios":"levelo://app?vid=852ea9ac-6507-488a-87c5-b27d54b34b2e"},"vehicle_type_id":"4","last_reported":1747415294,"current_range_meters":16400,"station_id":"ce4bhnh2rcd13ifvqgug","pricing_plan_id":"cebpf4jnsgd1na2vs0mg"},{"bike_id":"b4ddf898-a0d9-4749-b0ec-fbdf6c674b68","system_id":"levelo_inurba_marseille","lat":43.30887,"lon":5.39661,"is_reserved":false,"is_disabled":false,"rental_uris":{"android":"levelo://app?vid=b4ddf898-a0d9-4749-b0ec-fbdf6c674b68","ios":"levelo://app?vid=b4ddf898-a0d9-4749-b0ec-fbdf6c674b68"},"vehicle_type_id":"4","last_reported":1747415294,"current_range_meters":16400,"station_id":"ce4bh012rcd13ifvqcv0","pricing_plan_id":"cebpf4jnsgd1na2vs0mg"},{"bike_id":"de38dda9-44cc-47a3-8fd7-f067f9538b67","system_id":"levelo_inurba_marseille","lat":43.28844,"lon":5.35856,"is_reserved":false,"is_disabled":false,"rental_uris":{"android":"levelo://app?vid=de38dda9-44cc-47a3-8fd7-f067f9538b67","ios":"levelo://app?vid=de38dda9-44cc-47a3-8fd7-f067f9538b67"},"vehicle_type_id":"4","last_reported":1747415294,"current_range_meters":16000,"station_id":"ce4bhb12rcd13ifvqem0","pricing_plan_id":"cebpf4jnsgd1na2vs0mg"},{"bike_id":"870c6dc6-968f-421e-bf82-3a0690cd2647","system_id":"levelo_inurba_marseille","lat":43.28157,"lon":5.42634,"is_reserved":false,"is_disabled":false,"rental_uris":{"android":"levelo://app?vid=870c6dc6-968f-421e-bf82-3a0690cd2647","ios":"levelo://app?vid=870c6dc6-968f-421e-bf82-3a0690cd2647"},"vehicle_type_id":"4","last_reported":1747415294,"current_range_meters":16400,"station_id":"ce4bhnh2rcd13ifvqgug","pricing_plan_id":"cebpf4jnsgd1na2vs0mg"},{"bike_id":"e5f85b8b-3dcd-4aa5-8150-c39c9697df01","system_id":"levelo_inurba_marseille","lat":43.28944,"lon":5.36399,"is_reserved":false,"is_disabled":false,"rental_uris":{"android":"levelo://app?vid=e5f85b8b-3dcd-4aa5-8150-c39c9697df01","ios":"levelo://app?vid=e5f85b8b-3dcd-4aa5-8150-c39c9697df01"},"vehicle_type_id":"4","last_reported":1747415294,"current_range_meters":14800,"station_id":"ce4bhc92rcd13ifvqetg","pricing_plan_id":"cebpf4jnsgd1na2vs0mg"},{"bike_id":"46596eef-40af-4fb5-b1e9-c9a514b14845","system_id":"levelo_inurba_marseille","lat":43.28,"lon":5.40014,"is_reserved":false,"is_disabled":false,"rental_uris":{"android":"levelo://app?vid=46596eef-40af-4fb5-b1e9-c9a514b14845","ios":"levelo://app?vid=46596eef-40af-4fb5-b1e9-c9a514b14845"},"vehicle_type_id":"4","last_reported":1747415294,"current_range_meters":16400,"station_id":"ce4bho92rcd13ifvqh4g","pricing_plan_id":"cebpf4jnsgd1na2vs0mg"},{"bike_id":"b04bd58d-ab68-46b4-9085-1ddf540e912e","system_id":"levelo_inurba_marseille","lat":43.24057,"lon":5.37708,"is_reserved":false,"is_disabled":true,"rental_uris":{"android":"levelo://app?vid=b04bd58d-ab68-46b4-9085-1ddf540e912e","ios":"levelo://app?vid=b04bd58d-ab68-46b4-9085-1ddf540e912e"},"vehicle_type_id":"4","last_reported":1747415294,"current_range_meters":16400,"station_id":"ce4bhnp2rcd13ifvqgvg","pricing_plan_id":"cebpf4jnsgd1na2vs0mg"},{"bike_id":"d0523cd1-6208-493a-9ada-6ae3fc1e4497","system_id":"levelo_inurba_marseille","lat":43.31175,"lon":5.38716,"is_reserved":false,"is_disabled":false,"rental_uris":{"android":"levelo://app?vid=d0523cd1-6208-493a-9ada-6ae3fc1e4497","ios":"levelo://app?vid=d0523cd1-6208-493a-9ada-6ae3fc1e4497"},"vehicle_type_id":"4","last_reported":1747415294,"current_range_meters":16400,"station_id":"ce4bgv12rcd13ifvqcp0","pricing_plan_id":"cebpf4jnsgd1na2vs0mg"},{"bike_id":"bdea0fe3-08ce-4ffc-8736-10882432a1d4","system_id":"levelo_inurba_marseille","lat":43.28163,"lon":5.4264,"is_reserved":false,"is_disabled":false,"rental_uris":{"android":"levelo://app?vid=bdea0fe3-08ce-4ffc-8736-10882432a1d4","ios":"levelo://app?vid=bdea0fe3-08ce-4ffc-8736-10882432a1d4"},"vehicle_type_id":"4","last_reported":1747415294,"current_range_meters":16400,"station_id":"ce4bhnh2rcd13ifvqgug","pricing_plan_id":"cebpf4jnsgd1na2vs0mg"},{"bike_id":"ba102bee-1653-4a83-afb3-3faf2da23fb9","system_id":"levelo_inurba_marseille","lat":43.32115,"lon":5.36799,"is_reserved":false,"is_disabled":false,"rental_uris":{"android":"levelo://app?vid=ba102bee-1653-4a83-afb3-3faf2da23fb9","ios":"levelo://app?vid=ba102bee-1653-4a83-afb3-3faf2da23fb9"},"vehicle_type_id":"4","last_reported":1747415294,"current_range_meters":16400,"station_id":"ce4bhrh2rcd13ifvqhug","pricing_plan_id":"cebpf4jnsgd1na2vs0mg"},{"bike_id":"fb97ce90-2029-4242-aed3-5cced13976e9","system_id":"levelo_inurba_marseille","lat":43.29305,"lon":5.37177,"is_reserved":false,"is_disabled":false,"rental_uris":{"android":"levelo://app?vid=fb97ce90-2029-4242-aed3-5cced13976e9","ios":"levelo://app?vid=fb97ce90-2029-4242-aed3-5cced13976e9"},"vehicle_type_id":"4","last_reported":1747415294,"current_range_meters":16800,"station_id":"ce4bgh92rcd13ifvqb40","pricing_plan_id":"cebpf4jnsgd1na2vs0mg"},{"bike_id":"98839a4e-62b6-498b-9d51-84a1f5f65d4f","system_id":"levelo_inurba_marseille","lat":43.31038,"lon":5.39034,"is_reserved":false,"is_disabled":false,"rental_uris":{"android":"levelo://app?vid=98839a4e-62b6-498b-9d51-84a1f5f65d4f","ios":"levelo://app?vid=98839a4e-62b6-498b-9d51-84a1f5f65d4f"},"vehicle_type_id":"4","last_reported":1747415294,"current_range_meters":16800,"station_id":"","pricing_plan_id":"cebpf4jnsgd1na2vs0mg"},{"bike_id":"081a13b8-c7b7-4f4a-bdff-33a5559b52f7","system_id":"levelo_inurba_marseille","lat":43.21979,"lon":5.34556,"is_reserved":false,"is_disabled":false,"rental_uris":{"android":"levelo://app?vid=081a13b8-c7b7-4f4a-bdff-33a5559b52f7","ios":"levelo://app?vid=081a13b8-c7b7-4f4a-bdff-33a5559b52f7"},"vehicle_type_id":"4","last_reported":1747415294,"current_range_meters":16800,"station_id":"ce4bgh92rcd13ifvqb40","pricing_plan_id":"cebpf4jnsgd1na2vs0mg"},{"bike_id":"c8c23b94-3bb2-4142-ae6e-7544f49c1642","system_id":"levelo_inurba_marseille","lat":43.30541,"lon":5.38431,"is_reserved":false,"is_disabled":true,"rental_uris":{"android":"levelo://app?vid=c8c23b94-3bb2-4142-ae6e-7544f49c1642","ios":"levelo://app?vid=c8c23b94-3bb2-4142-ae6e-7544f49c1642"},"vehicle_type_id":"4","last_reported":1747415294,"current_range_meters":16800,"station_id":"ce4bgg92rcd13ifvqb30","pricing_plan_id":"cebpf4jnsgd1na2vs0mg"},{"bike_id":"67178b77-5e12-43e8-b46c-3e606bc42162","system_id":"levelo_inurba_marseille","lat":43.27975,"lon":5.38736,"is_reserved":false,"is_disabled":false,"rental_uris":{"android":"levelo://app?vid=67178b77-5e12-43e8-b46c-3e606bc42162","ios":"levelo://app?vid=67178b77-5e12-43e8-b46c-3e606bc42162"},"vehicle_type_id":"4","last_reported":1747415294,"current_range_meters":16800,"station_id":"ce4bhg12rcd13ifvqf80","pricing_plan_id":"cebpf4jnsgd1na2vs0mg"},{"bike_id":"a3c9dfce-fbcc-4f93-b48b-93e3d4c0b687","system_id":"levelo_inurba_marseille","lat":43.322847,"lon":5.382664,"is_reserved":false,"is_disabled":false,"rental_uris":{"android":"levelo://app?vid=a3c9dfce-fbcc-4f93-b48b-93e3d4c0b687","ios":"levelo://app?vid=a3c9dfce-fbcc-4f93-b48b-93e3d4c0b687"},"vehicle_type_id":"4","last_reported":1747415294,"current_range_meters":16400,"station_id":"ce4bhr12rcd13ifvqhqg","pricing_plan_id":"cebpf4jnsgd1na2vs0mg"},{"bike_id":"abe489bc-1926-4bd3-85fc-817b15ebf8c2","system_id":"levelo_inurba_marseille","lat":43.29193,"lon":5.39309,"is_reserved":false,"is_disabled":false,"rental_uris":{"android":"levelo://app?vid=abe489bc-1926-4bd3-85fc-817b15ebf8c2","ios":"levelo://app?vid=abe489bc-1926-4bd3-85fc-817b15ebf8c2"},"vehicle_type_id":"4","last_reported":1747415294,"current_range_meters":14000,"station_id":"ce4bh192rcd13ifvqdd0","pricing_plan_id":"cebpf4jnsgd1na2vs0mg"},{"bike_id":"3be14d9a-43b5-46ba-b111-2b43b870e206","system_id":"levelo_inurba_marseille","lat":43.28415,"lon":5.3499,"is_reserved":false,"is_disabled":false,"rental_uris":{"android":"levelo://app?vid=3be14d9a-43b5-46ba-b111-2b43b870e206","ios":"levelo://app?vid=3be14d9a-43b5-46ba-b111-2b43b870e206"},"vehicle_type_id":"4","last_reported":1747415294,"current_range_meters":16800,"station_id":"ce4bhbh2rcd13ifvqepg","pricing_plan_id":"cebpf4jnsgd1na2vs0mg"},{"bike_id":"015dcdf5-7a20-4441-8cd5-ac3c1daaa65b","system_id":"levelo_inurba_marseille","lat":43.29303,"lon":5.37176,"is_reserved":false,"is_disabled":false,"rental_uris":{"android":"levelo://app?vid=015dcdf5-7a20-4441-8cd5-ac3c1daaa65b","ios":"levelo://app?vid=015dcdf5-7a20-4441-8cd5-ac3c1daaa65b"},"vehicle_type_id":"4","last_reported":1747415294,"current_range_meters":16800,"station_id":"ce4bgh92rcd13ifvqb40","pricing_plan_id":"cebpf4jnsgd1na2vs0mg"},{"bike_id":"76986160-f965-48f8-b0fc-55fd04fa3668","system_id":"levelo_inurba_marseille","lat":43.29933,"lon":5.36556,"is_reserved":false,"is_disabled":false,"rental_uris":{"android":"levelo://app?vid=76986160-f965-48f8-b0fc-55fd04fa3668","ios":"levelo://app?vid=76986160-f965-48f8-b0fc-55fd04fa3668"},"vehicle_type_id":"4","last_reported":1747415294,"current_range_meters":16800,"station_id":"ce4bgm92rcd13ifvqbr0","pricing_plan_id":"cebpf4jnsgd1na2vs0mg"},{"bike_id":"91effd7d-6be6-499b-b2ba-28ab3cfcc665","system_id":"levelo_inurba_marseille","lat":43.29558,"lon":5.42282,"is_reserved":false,"is_disabled":false,"rental_uris":{"android":"levelo://app?vid=91effd7d-6be6-499b-b2ba-28ab3cfcc665","ios":"levelo://app?vid=91effd7d-6be6-499b-b2ba-28ab3cfcc665"},"vehicle_type_id":"4","last_reported":1747415294,"current_range_meters":17200,"station_id":"ce4bhph2rcd13ifvqhdg","pricing_plan_id":"cebpf4jnsgd1na2vs0mg"},{"bike_id":"dd489845-5411-4e06-8579-63a4e4610461","system_id":"levelo_inurba_marseille","lat":43.29549,"lon":5.42284,"is_reserved":false,"is_disabled":false,"rental_uris":{"android":"levelo://app?vid=dd489845-5411-4e06-8579-63a4e4610461","ios":"levelo://app?vid=dd489845-5411-4e06-8579-63a4e4610461"},"vehicle_type_id":"4","last_reported":1747415294,"current_range_meters":17200,"station_id":"ce4bhph2rcd13ifvqhdg","pricing_plan_id":"cebpf4jnsgd1na2vs0mg"},{"bike_id":"fd3ac207-e330-4360-9545-fb33f842bbbf","system_id":"levelo_inurba_marseille","lat":43.29528,"lon":5.38543,"is_reserved":false,"is_disabled":false,"rental_uris":{"android":"levelo://app?vid=fd3ac207-e330-4360-9545-fb33f842bbbf","ios":"levelo://app?vid=fd3ac207-e330-4360-9545-fb33f842bbbf"},"vehicle_type_id":"4","last_reported":1747415294,"current_range_meters":17200,"station_id":"ce4bgih2rcd13ifvqba0","pricing_plan_id":"cebpf4jnsgd1na2vs0mg"},{"bike_id":"10860e69-762b-4675-8344-8bccd24e4b8d","system_id":"levelo_inurba_marseille","lat":43.32536,"lon":5.41444,"is_reserved":false,"is_disabled":false,"rental_uris":{"android":"levelo://app?vid=10860e69-762b-4675-8344-8bccd24e4b8d","ios":"levelo://app?vid=10860e69-762b-4675-8344-8bccd24e4b8d"},"vehicle_type_id":"4","last_reported":1747415294,"current_range_meters":16800,"station_id":"ce4bhq12rcd13ifvqhhg","pricing_plan_id":"cebpf4jnsgd1na2vs0mg"},{"bike_id":"dd37b8b8-3a41-474a-a2f9-0f4b74021cf0","system_id":"levelo_inurba_marseille","lat":43.25583,"lon":5.3823,"is_reserved":false,"is_disabled":false,"rental_uris":{"android":"levelo://app?vid=dd37b8b8-3a41-474a-a2f9-0f4b74021cf0","ios":"levelo://app?vid=dd37b8b8-3a41-474a-a2f9-0f4b74021cf0"},"vehicle_type_id":"4","last_reported":1747415294,"current_range_meters":17600,"station_id":"ce4bhih2rcd13ifvqfs0","pricing_plan_id":"cebpf4jnsgd1na2vs0mg"},{"bike_id":"2e624d61-2ef5-4b61-bb50-a50f6625db20","system_id":"levelo_inurba_marseille","lat":43.3054,"lon":5.38427,"is_reserved":false,"is_disabled":false,"rental_uris":{"android":"levelo://app?vid=2e624d61-2ef5-4b61-bb50-a50f6625db20","ios":"levelo://app?vid=2e624d61-2ef5-4b61-bb50-a50f6625db20"},