{"last_updated":1751555518,"ttl":60,"version":"2.2","data":{"bikes":[{"bike_id":"3da29fb8-fc97-44c6-b9ac-31dd456b2fd4","system_id":"levelo_inurba_marseille","lat":43.33771,"lon":5.37424,"is_reserved":false,"is_disabled":true,"rental_uris":{"android":"levelo://app?vid=3da29fb8-fc97-44c6-b9ac-31dd456b2fd4","ios":"levelo://app?vid=3da29fb8-fc97-44c6-b9ac-31dd456b2fd4"},"vehicle_type_id":"4","last_reported":1751555518,"current_range_meters":0,"station_id":"","pricing_plan_id":"cebpf4jnsgd1na2vs0mg"},{"bike_id":"01861ad8-a8d7-4be6-816e-651927c87584","system_id":"levelo_inurba_marseille","lat":43.33751,"lon":5.37456,"is_reserved":false,"is_disabled":true,"rental_uris":{"android":"levelo://app?vid=01861ad8-a8d7-4be6-816e-651927c87584","ios":"levelo://app?vid=01861ad8-a8d7-4be6-816e-651927c87584"},"vehicle_type_id":"4","last_reported":1751555518,"current_range_meters":0,"station_id":"","pricing_plan_id":"cebpf4jnsgd1na2vs0mg"},{"bike_id":"45a36d42-3f75-4451-929c-2980bab85fb7","system_id":"levelo_inurba_marseille","lat":43.23145,"lon":5.43762,"is_reserved":false,"is_disabled":true,"rental_uris":{"android":"levelo://app?vid=45a36d42-3f75-4451-929c-2980bab85fb7","ios":"levelo://app?vid=45a36d42-3f75-4451-929c-2980bab85fb7"},"vehicle_type_id":"4","last_reported":1751555518,"current_range_meters":0,"station_id":"","pricing_plan_id":"cebpf4jnsgd1na2vs0mg"},{"bike_id":"6e5b5a4d-1ee5-4068-9613-fb44ab4d8a9a","system_id":"levelo_inurba_marseille","lat":43.348609,"lon":5.346921,"is_reserved":false,"is_disabled":true,"rental_uris":{"android":"levelo://app?vid=6e5b5a4d-1ee5-4068-9613-fb44ab4d8a9a","ios":"levelo://app?vid=6e5b5a4d-1ee5-4068-9613-fb44ab4d8a9a"},"vehicle_type_id":"4","last_reported":1751555518,"current_range_meters":0,"station_id":"","pricing_plan_id":"cebpf4jnsgd1na2vs0mg"},{"bike_id":"8e365e3c-559a-4ba6-a6c5-4c159e2434fc","system_id":"levelo_inurba_marseille","lat":43.21755,"lon":5.34612,"is_reserved":false,"is_disabled":true,"rental_uris":{"android":"levelo://app?vid=8e365e3c-559a-4ba6-a6c5-4c159e2434fc","ios":"levelo://app?vid=8e365e3c-559a-4ba6-a6c5-4c159e2434fc"},"vehicle_type_id":"4","last_reported":1751555518,"current_range_meters":0,"station_id":"","pricing_plan_id":"cebpf4jnsgd1na2vs0mg"},{"bike_id":"b87537a5-0ef7-4a87-9959-cd0a9fa65894","system_id":"levelo_inurba_marseille","lat":43.29353,"lon":5.37164,"is_reserved":false,"is_disabled":true,"rental_uris":{"android":"levelo://app?vid=b87537a5-0ef7-4a87-9959-cd0a9fa65894","ios":"levelo://app?vid=b87537a5-0ef7-4a87-9959-cd0a9fa65894"},"vehicle_type_id":"4","last_reported":1751555518,"current_range_meters":0,"station_id":"","pricing_plan_id":"cebpf4jnsgd1na2vs0mg"},{"bike_id":"5fe1f33a-ebc4-4182-b521-7ef3eadc1773","system_id":"levelo_inurba_marseille","lat":43.26905,"lon":5.368765,"is_reserved":false,"is_disabled":true,"rental_uris":{"android":"levelo://app?vid=5fe1f33a-ebc4-4182-b521-7ef3eadc1773","ios":"levelo://app?vid=5fe1f33a-ebc4-4182-b521-7ef3eadc1773"},"vehicle_type_id":"4","last_reported":1751555518,"current_range_meters":0,"station_id":"","pricing_plan_id":"cebpf4jnsgd1na2vs0mg"},{"bike_id":"4f8c7826-ef00-4467-b0a9-56921dcbf3b3","system_id":"levelo_inurba_marseille","lat":43.31167,"lon":5.38721,"is_reserved":false,"is_disabled":true,"rental_uris":{"android":"levelo://app?vid=4f8c7826-ef00-4467-b0a9-56921dcbf3b3","ios":"levelo://app?vid=4f8c7826-ef00-4467-b0a9-56921dcbf3b3"},"vehicle_type_id":"4","last_reported":1751555518,"current_range_meters":0,"station_id":"ce4bgv12rcd13ifvqcp0","pricing_plan_id":"cebpf4jnsgd1na2vs0mg"},{"bike_id":"4911b4e0-8cea-4ced-8ef4-03d957507b60","system_id":"levelo_inurba_marseille","lat":43.3089,"lon":5.39661,"is_reserved":false,"is_disabled":true,"rental_uris":{"android":"levelo://app?vid=4911b4e0-8cea-4ced-8ef4-03d957507b60","ios":"levelo://app?vid=4911b4e0-8cea-4ced-8ef4-03d957507b60"},"vehicle_type_id":"4","last_reported":1751555518,"current_range_meters":0,"station_id":"ce4bh012rcd13ifvqcv0","pricing_plan_id":"cebpf4jnsgd1na2vs0mg"},{"bike_id":"2195c4df-0cee-481a-b8ab-9769856a4d70","system_id":"levelo_inurba_marseille","lat":43.31282,"lon":5.40166,"is_reserved":false,"is_disabled":true,"rental_uris":{"android":"levelo://app?vid=2195c4df-0cee-481a-b8ab-9769856a4d70","ios":"levelo://app?vid=2195c4df-0cee-481a-b8ab-9769856a4d70"},"vehicle_type_id":"4","last_reported":1751555518,"current_range_meters":0,"station_id":"ce4bh092rcd13ifvqd30","pricing_plan_id":"cebpf4jnsgd1na2vs0mg"},{"bike_id":"478090a8-8502-4f4a-aae5-3ab4a93d1eed","system_id":"levelo_inurba_marseille","lat":43.28923,"lon":5.38392,"is_reserved":false,"is_disabled":true,"rental_uris":{"android":"levelo://app?vid=478090a8-8502-4f4a-aae5-3ab4a93d1eed","ios":"levelo://app?vid=478090a8-8502-4f4a-aae5-3ab4a93d1eed"},"vehicle_type_id":"4","last_reported":1751555518,"current_range_meters":0,"station_id":"ce4bh612rcd13ifvqe6g","pricing_plan_id":"cebpf4jnsgd1na2vs0mg"},{"bike_id":"02dd501d-b129-4071-b2fa-c54fa4398c71","system_id":"levelo_inurba_marseille","lat":43.29217,"lon":5.36087,"is_reserved":false,"is_disabled":true,"rental_uris":{"android":"levelo://app?vid=02dd501d-b129-4071-b2fa-c54fa4398c71","ios":"levelo://app?vid=02dd501d-b129-4071-b2fa-c54fa4398c71"},"vehicle_type_id":"4","last_reported":1751555518,"current_range_meters":0,"station_id":"ce4bhbh2rcd13ifvqeqg","pricing_plan_id":"cebpf4jnsgd1na2vs0mg"},{"bike_id":"75e61b5d-e72d-4367-8bb4-e76ae0e6512a","system_id":"levelo_inurba_marseille","lat":43.26558,"lon":5.37281,"is_reserved":false,"is_disabled":true,"rental_uris":{"android":"levelo://app?vid=75e61b5d-e72d-4367-8bb4-e76ae0e6512a","ios":"levelo://app?vid=75e61b5d-e72d-4367-8bb4-e76ae0e6512a"},"vehicle_type_id":"4","last_reported":1751555518,"current_range_meters":0,"station_id":"ce4bhg12rcd13ifvqf70","pricing_plan_id":"cebpf4jnsgd1na2vs0mg"},{"bike_id":"33e623a6-a532-4e9b-8d93-9cc0bc7cb882","system_id":"levelo_inurba_marseille","lat":43.26793,"lon":5.39412,"is_reserved":false,"is_disabled":true,"rental_uris":{"android":"levelo://app?vid=33e623a6-a532-4e9b-8d93-9cc0bc7cb882","ios":"levelo://app?vid=33e623a6-a532-4e9b-8d93-9cc0bc7cb882"},"vehicle_type_id":"4","last_reported":1751555518,"current_range_meters":0,"station_id":"ce4bhh12rcd13ifvqfg0","pricing_plan_id":"cebpf4jnsgd1na2vs0mg"},{"bike_id":"b7dd038f-946f-438b-99d5-32f30fcd290c","system_id":"levelo_inurba_marseille","lat":43.27986,"lon":5.416691,"is_reserved":false,"is_disabled":true,"rental_uris":{"android":"levelo://app?vid=b7dd038f-946f-438b-99d5-32f30fcd290c","ios":"levelo://app?vid=b7dd038f-946f-438b-99d5-32f30fcd290c"},"vehicle_type_id":"4","last_reported":1751555518,"current_range_meters":0,"station_id":"ce4bho12rcd13ifvqh1g","pricing_plan_id":"cebpf4jnsgd1na2vs0mg"},{"bike_id":"e176fc88-d140-4f6a-9b2d-fececcde248c","system_id":"levelo_inurba_marseille","lat":43.28716,"lon":5.39999,"is_reserved":false,"is_disabled":true,"rental_uris":{"android":"levelo://app?vid=e176fc88-d140-4f6a-9b2d-fececcde248c","ios":"levelo://app?vid=e176fc88-d140-4f6a-9b2d-fececcde248c"},"vehicle_type_id":"4","last_reported":1751555518,"current_range_meters":0,"station_id":"ce4bho92rcd13ifvqh3g","pricing_plan_id":"cebpf4jnsgd1na2vs0mg"},{"bike_id":"74048b68-e069-4d0c-8b6b-30443c3a8faa","system_id":"levelo_inurba_marseille","lat":43.32047,"lon":5.41559,"is_reserved":false,"is_disabled":true,"rental_uris":{"android":"levelo://app?vid=74048b68-e069-4d0c-8b6b-30443c3a8faa","ios":"levelo://app?vid=74048b68-e069-4d0c-8b6b-30443c3a8faa"},"vehicle_type_id":"4","last_reported":1751555518,"current_range_meters":0,"station_id":"ce4bhq92rcd13ifvqhkg","pricing_plan_id":"cebpf4jnsgd1na2vs0mg"},{"bike_id":"e9115894-320f-4bfb-bee3-9d863c7aa0d7","system_id":"levelo_inurba_marseille","lat":43.31755,"lon":5.39022,"is_reserved":false,"is_disabled":true,"rental_uris":{"android":"levelo://app?vid=e9115894-320f-4bfb-bee3-9d863c7aa0d7","ios":"levelo://app?vid=e9115894-320f-4bfb-bee3-9d863c7aa0d7"},"vehicle_type_id":"4","last_reported":1751555518,"current_range_meters":0,"station_id":"ce4bhqp2rcd13ifvqhng","pricing_plan_id":"cebpf4jnsgd1na2vs0mg"},{"bike_id":"34525e0e-88eb-4fe8-be83-e19f0f1185d3","system_id":"levelo_inurba_marseille","lat":43.22499,"lon":5.34777,"is_reserved":false,"is_disabled":true,"rental_uris":{"android":"levelo://app?vid=34525e0e-88eb-4fe8-be83-e19f0f1185d3","ios":"levelo://app?vid=34525e0e-88eb-4fe8-be83-e19f0f1185d3"},"vehicle_type_id":"4","last_reported":1751555518,"current_range_meters":0,"station_id":"st_cvj5dfep6f1abm77gieg","pricing_plan_id":"cebpf4jnsgd1na2vs0mg"},{"bike_id":"9795e511-4f68-494d-9846-41f87f5dd923","system_id":"levelo_inurba_marseille","lat":43.22497,"lon":5.34782,"is_reserved":false,"is_disabled":true,"rental_uris":{"android":"levelo://app?vid=9795e511-4f68-494d-9846-41f87f5dd923","ios":"levelo://app?vid=9795e511-4f68-494d-9846-41f87f5dd923"},"vehicle_type_id":"4","last_reported":1751555518,"current_range_meters":0,"station_id":"st_cvj5dfep6f1abm77gieg","pricing_plan_id":"cebpf4jnsgd1na2vs0mg"},{"bike_id":"7750661e-3127-4501-aa76-1d7cb6be5070","system_id":"levelo_inurba_marseille","lat":43.21744,"lon":5.3462,"is_reserved":false,"is_disabled":true,"rental_uris":{"android":"levelo://app?vid=7750661e-3127-4501-aa76-1d7cb6be5070","ios":"levelo://app?vid=7750661e-3127-4501-aa76-1d7cb6be5070"},"vehicle_type_id":"4","last_reported":1751555518,"current_range_meters":0,"station_id":"st_cvj6r9ubvosntc0bgbag","pricing_plan_id":"cebpf4jnsgd1na2vs0mg"},{"bike_id":"c27ffa5c-8d74-4089-a8a5-575b5c8db811","system_id":"levelo_inurba_marseille","lat":43.30533,"lon":5.36501,"is_reserved":false,"is_disabled":true,"rental_uris":{"android":"levelo://app?vid=c27ffa5c-8d74-4089-a8a5-575b5c8db811","ios":"levelo://app?vid=c27ffa5c-8d74-4089-a8a5-575b5c8db811"},"vehicle_type_id":"4","last_reported":1751555518,"current_range_meters":400,"station_id":"","pricing_plan_id":"cebpf4jnsgd1na2vs0mg"},{"bike_id":"f08d1be4-1455-4701-92ba-6417db9cd8af","system_id":"levelo_inurba_marseille","lat":43.284757,"lon":5.384337,"is_reserved":false,"is_disabled":true,"rental_uris":{"android":"levelo://app?vid=f08d1be4-1455-4701-92ba-6417db9cd8af","ios":"levelo://app?vid=f08d1be4-1455-4701-92ba-6417db9cd8af"},"vehicle_type_id":"4","last_reported":1751555518,"current_range_meters":400,"station_id":"ce4bh512rcd13ifvqe3g","pricing_plan_id":"cebpf4jnsgd1na2vs0mg"},{"bike_id":"409748ef-1f47-4c6f-8a7a-7881fc9460c8","system_id":"levelo_inurba_marseille","lat":43.25004,"lon":5.38929,"is_reserved":false,"is_disabled":true,"rental_uris":{"android":"levelo://app?vid=409748ef-1f47-4c6f-8a7a-7881fc9460c8","ios":"levelo://app?vid=409748ef-1f47-4c6f-8a7a-7881fc9460c8"},"vehicle_type_id":"4","last_reported":1751555518,"current_range_meters":400,"station_id":"ce4bhgp2rcd13ifvqfd0","pricing_plan_id":"cebpf4jnsgd1na2vs0mg"},{"bike_id":"12831da2-1d03-40bd-aa02-73e085a76732","system_id":"levelo_inurba_marseille","lat":43.27957,"lon":5.3868,"is_reserved":false,"is_disabled":true,"rental_uris":{"android":"levelo://app?vid=12831da2-1d03-40bd-aa02-73e085a76732","ios":"levelo://app?vid=12831da2-1d03-40bd-aa02-73e085a76732"},"vehicle_type_id":"4","last_reported":1751555518,"current_range_meters":800,"station_id":"","pricing_plan_id":"cebpf4jnsgd1na2vs0mg"},{"bike_id":"84893065-6fc3-418c-9969-a03f8d7fccc1","system_id":"levelo_inurba_marseille","lat":43.286812,"lon":5.386702,"is_reserved":false,"is_disabled":true,"rental_uris":{"android":"levelo://app?vid=84893065-6fc3-418c-9969-a03f8d7fccc1","ios":"levelo://app?vid=84893065-6fc3-418c-9969-a03f8d7fccc1"},"vehicle_type_id":"4","last_reported":1751555518,"current_range_meters":800,"station_id":"ce4bh492rcd13ifvqdug","pricing_plan_id":"cebpf4jnsgd1na2vs0mg"},{"bike_id":"3a3a3d19-1c1d-47e1-9808-1c9d42a29c53","system_id":"levelo_inurba_marseille","lat":43.28616,"lon":5.351,"is_reserved":false,"is_disabled":true,"rental_uris":{"android":"levelo://app?vid=3a3a3d19-1c1d-47e1-9808-1c9d42a29c53","ios":"levelo://app?vid=3a3a3d19-1c1d-47e1-9808-1c9d42a29c53"},"vehicle_type_id":"4","last_reported":1751555518,"current_range_meters":800,"station_id":"ce4bhch2rcd13ifvqeug","pricing_plan_id":"cebpf4jnsgd1na2vs0mg"},{"bike_id":"47016db3-7595-4a53-ac18-51e03dd0f993","system_id":"levelo_inurba_marseille","lat":43.272156,"lon":5.391823,"is_reserved":false,"is_disabled":true,"rental_uris":{"android":"levelo://app?vid=47016db3-7595-4a53-ac18-51e03dd0f993","ios":"levelo://app?vid=47016db3-7595-4a53-ac18-51e03dd0f993"},"vehicle_type_id":"4","last_reported":1751555518,"current_range_meters":800,"station_id":"ce4bhhp2rcd13ifvqfm0","pricing_plan_id":"cebpf4jnsgd1na2vs0mg"},{"bike_id":"bc5dd2b3-3385-463b-a084-678650a16b75","system_id":"levelo_inurba_marseille","lat":43.268446,"lon":5.370804,"is_reserved":false,"is_disabled":true,"rental_uris":{"android":"levelo://app?vid=bc5dd2b3-3385-463b-a084-678650a16b75","ios":"levelo://app?vid=bc5dd2b3-3385-463b-a084-678650a16b75"},"vehicle_type_id":"4","last_reported":1751555518,"current_range_meters":1200,"station_id":"","pricing_plan_id":"cebpf4jnsgd1na2vs0mg"},{"bike_id":"2bd45ce6-8065-49b9-9a96-a22de6c28426","system_id":"levelo_inurba_marseille","lat":43.29041,"lon":5.37576,"is_reserved":false,"is_disabled":true,"rental_uris":{"android":"levelo://app?vid=2bd45ce6-8065-49b9-9a96-a22de6c28426","ios":"levelo://app?vid=2bd45ce6-8065-49b9-9a96-a22de6c28426"},"vehicle_type_id":"4","last_reported":1751555518,"current_range_meters":1200,"station_id":"ce4bh692rcd13ifvqe90","pricing_plan_id":"cebpf4jnsgd1na2vs0mg"},{"bike_id":"d0e3c28f-af7d-41f7-9009-114b1fcd234c","system_id":"levelo_inurba_marseille","lat":43.279707,"lon":5.387486,"is_reserved":false,"is_disabled":true,"rental_uris":{"android":"levelo://app?vid=d0e3c28f-af7d-41f7-9009-114b1fcd234c","ios":"levelo://app?vid=d0e3c28f-af7d-41f7-9009-114b1fcd234c"},"vehicle_type_id":"4","last_reported":1751555518,"current_range_meters":1200,"station_id":"ce4bhg12rcd13ifvqf80","pricing_plan_id":"cebpf4jnsgd1na2vs0mg"},{"bike_id":"e5db0fb9-e7c5-45c1-837b-4fd4a3ed2e91","system_id":"levelo_inurba_marseille","lat":43.26211,"lon":5.37444,"is_reserved":false,"is_disabled":true,"rental_uris":{"android":"levelo://app?vid=e5db0fb9-e7c5-45c1-837b-4fd4a3ed2e91","ios":"levelo://app?vid=e5db0fb9-e7c5-45c1-837b-4fd4a3ed2e91"},"vehicle_type_id":"4","last_reported":1751555518,"current_range_meters":1200,"station_id":"ce4bhgp2rcd13ifvqfc0","pricing_plan_id":"cebpf4jnsgd1na2vs0mg"},{"bike_id":"b66e4481-2398-4200-9708-9bc1dc85100a","system_id":"levelo_inurba_marseille","lat":43.27816,"lon":5.40718,"is_reserved":false,"is_disabled":true,"rental_uris":{"android":"levelo://app?vid=b66e4481-2398-4200-9708-9bc1dc85100a","ios":"levelo://app?vid=b66e4481-2398-4200-9708-9bc1dc85100a"},"vehicle_type_id":"4","last_reported":1751555518,"current_range_meters":1200,"station_id":"ce4bhnh2rcd13ifvqgtg","pricing_plan_id":"cebpf4jnsgd1na2vs0mg"},{"bike_id":"c75b1f76-63f1-41f3-af54-bba928914391","system_id":"levelo_inurba_marseille","lat":43.23195,"lon":5.35554,"is_reserved":false,"is_disabled":true,"rental_uris":{"android":"levelo://app?vid=c75b1f76-63f1-41f3-af54-bba928914391","ios":"levelo://app?vid=c75b1f76-63f1-41f3-af54-bba928914391"},"vehicle_type_id":"4","last_reported":1751555518,"current_range_meters":1200,"station_id":"ce4bhu92rcd13ifvqi70","pricing_plan_id":"cebpf4jnsgd1na2vs0mg"},{"bike_id":"1d7dd2b2-4758-4186-9398-2e3d184732c6","system_id":"levelo_inurba_marseille","lat":43.27942,"lon":5.41048,"is_reserved":false,"is_disabled":true,"rental_uris":{"android":"levelo://app?vid=1d7dd2b2-4758-4186-9398-2e3d184732c6","ios":"levelo://app?vid=1d7dd2b2-4758-4186-9398-2e3d184732c6"},"vehicle_type_id":"4","last_reported":1751555518,"current_range_meters":1600,"station_id":"ce4bhnp2rcd13ifvqh0g","pricing_plan_id":"cebpf4jnsgd1na2vs0mg"},{"bike_id":"1732a66d-d48b-4032-8816-239df3c063b1","system_id":"levelo_inurba_marseille","lat":43.29875,"lon":5.39727,"is_reserved":false,"is_disabled":true,"rental_uris":{"android":"levelo://app?vid=1732a66d-d48b-4032-8816-239df3c063b1","ios":"levelo://app?vid=1732a66d-d48b-4032-8816-239df3c063b1"},"vehicle_type_id":"4","last_reported":1751555518,"current_range_meters":2000,"station_id":"ce4bh0h2rcd13ifvqd50","pricing_plan_id":"cebpf4jnsgd1na2vs0mg"},{"bike_id":"dcbbe0dc-abb9-4388-98c7-3dfb17ab179d","system_id":"levelo_inurba_marseille","lat":43.31084,"lon":5.42428,"is_reserved":false,"is_disabled":true,"rental_uris":{"android":"levelo://app?vid=dcbbe0dc-abb9-4388-98c7-3dfb17ab179d","ios":"levelo://app?vid=dcbbe0dc-abb9-4388-98c7-3dfb17ab179d"},"vehicle_type_id":"4","last_reported":1751555518,"current_range_meters":2000,"station_id":"ce4bhp92rcd13ifvqhag","pricing_plan_id":"cebpf4jnsgd1na2vs0mg"},{"bike_id":"82fe187f-756c-4548-a7c4-3fc3ac31b7d2","system_id":"levelo_inurba_marseille","lat":43.21755,"lon":5.34597,"is_reserved":false,"is_disabled":true,"rental_uris":{"android":"levelo://app?vid=82fe187f-756c-4548-a7c4-3fc3ac31b7d2","ios":"levelo://app?vid=82fe187f-756c-4548-a7c4-3fc3ac31b7d2"},"vehicle_type_id":"4","last_reported":1751555518,"current_range_meters":2000,"station_id":"st_cvj6r9ubvosntc0bgbag","pricing_plan_id":"cebpf4jnsgd1na2vs0mg"},{"bike_id":"c19f43eb-238e-489e-ad19-cc88bfac3813","system_id":"levelo_inurba_marseille","lat":43.31332,"lon":5.39705,"is_reserved":false,"is_disabled":false,"rental_uris":{"android":"levelo://app?vid=c19f43eb-238e-489e-ad19-cc88bfac3813","ios":"levelo://app?vid=c19f43eb-238e-489e-ad19-cc88bfac3813"},"vehicle_type_id":"4","last_reported":1751555518,"current_range_meters":2800,"station_id":"ce4bgvp2rcd13ifvqcu0","pricing_plan_id":"cebpf4jnsgd1na2vs0mg"},{"bike_id":"2c4759dd-b7b3-479f-94d0-934c09593318","system_id":"levelo_inurba_marseille","lat":43.29725,"lon":5.37688,"is_reserved":false,"is_disabled":false,"rental_uris":{"android":"levelo://app?vid=2c4759dd-b7b3-479f-94d0-934c09593318","ios":"levelo://app?vid=2c4759dd-b7b3-479f-94d0-934c09593318"},"vehicle_type_id":"4","last_reported":1751555518,"current_range_meters":3200,"station_id":"ce4bgkh2rcd13ifvqbl0","pricing_plan_id":"cebpf4jnsgd1na2vs0mg"},{"bike_id":"376f55dd-bbde-4139-a08b-ba50b48332a9","system_id":"levelo_inurba_marseille","lat":43.30528,"lon":5.36711,"is_reserved":false,"is_disabled":false,"rental_uris":{"android":"levelo://app?vid=376f55dd-bbde-4139-a08b-ba50b48332a9","ios":"levelo://app?vid=376f55dd-bbde-4139-a08b-ba50b48332a9"},"vehicle_type_id":"4","last_reported":1751555518,"current_range_meters":3200,"station_id":"ce4bgrp2rcd13ifvqc9g","pricing_plan_id":"cebpf4jnsgd1na2vs0mg"},{"bike_id":"d3d85bfe-eaf3-4a5a-a4b5-36fd5b00b539","system_id":"levelo_inurba_marseille","lat":43.30537,"lon":5.36715,"is_reserved":false,"is_disabled":false,"rental_uris":{"android":"levelo://app?vid=d3d85bfe-eaf3-4a5a-a4b5-36fd5b00b539","ios":"levelo://app?vid=d3d85bfe-eaf3-4a5a-a4b5-36fd5b00b539"},"vehicle_type_id":"4","last_reported":1751555518,"current_range_meters":3600,"station_id":"ce4bgrp2rcd13ifvqc9g","pricing_plan_id":"cebpf4jnsgd1na2vs0mg"},{"bike_id":"4792b17c-c917-4b11-a8f3-6466f0a03dc8","system_id":"levelo_inurba_marseille","lat":43.23148,"lon":5.43723,"is_reserved":false,"is_disabled":false,"rental_uris":{"android":"levelo://app?vid=4792b17c-c917-4b11-a8f3-6466f0a03dc8","ios":"levelo://app?vid=4792b17c-c917-4b11-a8f3-6466f0a03dc8"},"vehicle_type_id":"4","last_reported":1751555518,"current_range_meters":3600,"station_id":"ce4bhmp2rcd13ifvqgog","pricing_plan_id":"cebpf4jnsgd1na2vs0mg"},{"bike_id":"f01bc8f1-adbd-4ce7-b1a0-7a0fa10b7efb","system_id":"levelo_inurba_marseille","lat":43.33051,"lon":5.3907,"is_reserved":false,"is_disabled":false,"rental_uris":{"android":"levelo://app?vid=f01bc8f1-adbd-4ce7-b1a0-7a0fa10b7efb","ios":"levelo://app?vid=f01bc8f1-adbd-4ce7-b1a0-7a0fa10b7efb"},"vehicle_type_id":"4","last_reported":1751555518,"current_range_meters":3600,"station_id":"ce4bhr92rcd13ifvqhrg","pricing_plan_id":"cebpf4jnsgd1na2vs0mg"},{"bike_id":"ec457ce3-77ce-488b-9f66-cc055ad7e145","system_id":"levelo_inurba_marseille","lat":43.28427,"lon":5.3499,"is_reserved":false,"is_disabled":false,"rental_uris":{"android":"levelo://app?vid=ec457ce3-77ce-488b-9f66-cc055ad7e145","ios":"levelo://app?vid=ec457ce3-77ce-488b-9f66-cc055ad7e145"},"vehicle_type_id":"4","last_reported":1751555518,"current_range_meters":4000,"station_id":"ce4bhbh2rcd13ifvqepg","pricing_plan_id":"cebpf4jnsgd1na2vs0mg"},{"bike_id":"5e81faaf-63ba-443a-b462-65dfaec77ec9","system_id":"levelo_inurba_marseille","lat":43.26213,"lon":5.37441,"is_reserved":false,"is_disabled":false,"rental_uris":{"android":"levelo://app?vid=5e81faaf-63ba-443a-b462-65dfaec77ec9","ios":"levelo://app?vid=5e81faaf-63ba-443a-b462-65dfaec77ec9"},"vehicle_type_id":"4","last_reported":1751555518,"current_range_meters":4000,"station_id":"ce4bhgp2rcd13ifvqfc0","pricing_plan_id":"cebpf4jnsgd1na2vs0mg"},{"bike_id":"8becf1b9-b72c-4763-a062-bbd587ae45bf","system_id":"levelo_inurba_marseille","lat":43.32609,"lon":5.42532,"is_reserved":false,"is_disabled":false,"rental_uris":{"android":"levelo://app?vid=8becf1b9-b72c-4763-a062-bbd587ae45bf","ios":"levelo://app?vid=8becf1b9-b72c-4763-a062-bbd587ae45bf"},"vehicle_type_id":"4","last_reported":1751555518,"current_range_meters":4400,"station_id":"","pricing_plan_id":"cebpf4jnsgd1na2vs0mg"},{"bike_id":"9f1c47a0-679c-438c-8c51-fb49e4555104","system_id":"levelo_inurba_marseille","lat":43.295311,"lon":5.385588,"is_reserved":false,"is_disabled":false,"rental_uris":{"android":"levelo://app?vid=9f1c47a0-679c-438c-8c51-fb49e4555104","ios":"levelo://app?vid=9f1c47a0-679c-438c-8c51-fb49e4555104"},"vehicle_type_id":"4","last_reported":1751555518,"current_range_meters":4400,"station_id":"ce4bgih2rcd13ifvqba0","pricing_plan_id":"cebpf4jnsgd1na2vs0mg"},{"bike_id":"0cdc50b3-043d-4091-b6a3-516c0eb55b4d","system_id":"levelo_inurba_marseille","lat":43.23963,"lon":5.36641,"is_reserved":false,"is_disabled":false,"rental_uris":{"android":"levelo://app?vid=0cdc50b3-043d-4091-b6a3-516c0eb55b4d","ios":"levelo://app?vid=0cdc50b3-043d-4091-b6a3-516c0eb55b4d"},"vehicle_type_id":"4","last_reported":1751555518,"current_range_meters":4400,"station_id":"ce4bhi12rcd13ifvqfp0","pricing_plan_id":"cebpf4jnsgd1na2vs0mg"},{"bike_id":"02b04037-a88e-4bbd-a34e-77605f319fb1","system_id":"levelo_inurba_marseille","lat":43.27836,"lon":5.39212,"is_reserved":false,"is_disabled":false,"rental_uris":{"android":"levelo://app?vid=02b04037-a88e-4bbd-a34e-77605f319fb1","ios":"levelo://app?vid=02b04037-a88e-4bbd-a34e-77605f319fb1"},"vehicle_type_id":"4","last_reported":1751555518,"current_range_meters":4400,"station_id":"ce4bhjp2rcd13ifvqga0","pricing_plan_id":"cebpf4jnsgd1na2vs0mg"},{"bike_id":"3fbceb20-d877-411e-a90d-f13a05e02fc6","system_id":"levelo_inurba_marseille","lat":43.30348,"lon":5.37942,"is_reserved":false,"is_disabled":false,"rental_uris":{"android":"levelo://app?vid=3fbceb20-d877-411e-a90d-f13a05e02fc6","ios":"levelo://app?vid=3fbceb20-d877-411e-a90d-f13a05e02fc6"},"vehicle_type_id":"4","last_reported":1751555518,"current_range_meters":5600,"station_id":"","pricing_plan_id":"cebpf4jnsgd1na2vs0mg"},{"bike_id":"0585abec-7698-46cf-8564-42cdbd885605","system_id":"levelo_inurba_marseille","lat":43.29531,"lon":5.39034,"is_reserved":false,"is_disabled":false,"rental_uris":{"android":"levelo://app?vid=0585abec-7698-46cf-8564-42cdbd885605","ios":"levelo://app?vid=0585abec-7698-46cf-8564-42cdbd885605"},"vehicle_type_id":"4","last_reported":1751555518,"current_range_meters":5600,"station_id":"ce4bh3p2rcd13ifvqdp0","pricing_plan_id":"cebpf4jnsgd1na2vs0mg"},{"bike_id":"c355807d-17ef-4436-b11f-8269a58353c6","system_id":"levelo_inurba_marseille","lat":43.28419,"lon":5.35002,"is_reserved":false,"is_disabled":false,"rental_uris":{"android":"levelo://app?vid=c355807d-17ef-4436-b11f-8269a58353c6","ios":"levelo://app?vid=c355807d-17ef-4436-b11f-8269a58353c6"},"vehicle_type_id":"4","last_reported":1751555518,"current_range_meters":5600,"station_id":"ce4bhbh2rcd13ifvqepg","pricing_plan_id":"cebpf4jnsgd1na2vs0mg"},{"bike_id":"78df9208-62ac-462a-91e2-32d475d8a95c","system_id":"levelo_inurba_marseille","lat":43.28159,"lon":5.42644,"is_reserved":false,"is_disabled":false,"rental_uris":{"android":"levelo://app?vid=78df9208-62ac-462a-91e2-32d475d8a95c","ios":"levelo://app?vid=78df9208-62ac-462a-91e2-32d475d8a95c"},"vehicle_type_id":"4","last_reported":1751555518,"current_range_meters":5600,"station_id":"ce4bhnh2rcd13ifvqgug","pricing_plan_id":"cebpf4jnsgd1na2vs0mg"},{"bike_id":"97772c60-611d-4aff-a906-7a8f8ae8af38","system_id":"levelo_inurba_marseille","lat":43.23196,"lon":5.35554,"is_reserved":false,"is_disabled":false,"rental_uris":{"android":"levelo://app?vid=97772c60-611d-4aff-a906-7a8f8ae8af38","ios":"levelo://app?vid=97772c60-611d-4aff-a906-7a8f8ae8af38"},"vehicle_type_id":"4","last_reported":1751555518,"current_range_meters":5600,"station_id":"ce4bhu92rcd13ifvqi70","pricing_plan_id":"cebpf4jnsgd1na2vs0mg"},{"bike_id":"1923187a-4cd9-45fa-a5cd-0498a7cf1d9c","system_id":"levelo_inurba_marseille","lat":43.31166,"lon":5.38725,"is_reserved":false,"is_disabled":false,"rental_uris":{"android":"levelo://app?vid=1923187a-4cd9-45fa-a5cd-0498a7cf1d9c","ios":"levelo://app?vid=1923187a-4cd9-45fa-a5cd-0498a7cf1d9c"},"vehicle_type_id":"4","last_reported":1751555518,"current_range_meters":6000,"station_id":"ce4bgv12rcd13ifvqcp0","pricing_plan_id":"cebpf4jnsgd1na2vs0mg"},{"bike_id":"a3e120f6-5ee4-4ea5-b3cc-6722322ff940","system_id":"levelo_inurba_marseille","lat":43.28724,"lon":5.37948,"is_reserved":false,"is_disabled":false,"rental_uris":{"android":"levelo://app?vid=a3e120f6-5ee4-4ea5-b3cc-6722322ff940","ios":"levelo://app?vid=a3e120f6-5ee4-4ea5-b3cc-6722322ff940"},"vehicle_type_id":"4","last_reported":1751555518,"current_range_meters":6000,"station_id":"ce4bh9p2rcd13ifvqec0","pricing_plan_id":"cebpf4jnsgd1na2vs0mg"},{"bike_id":"4fb4b2f5-94c5-435f-9d56-b7ff5e12626d","system_id":"levelo_inurba_marseille","lat":43.29296,"lon":5.37144,"is_reserved":false,"is_disabled":false,"rental_uris":{"android":"levelo://app?vid=4fb4b2f5-94c5-435f-9d56-b7ff5e12626d","ios":"levelo://app?vid=4fb4b2f5-94c5-435f-9d56-b7ff5e12626d"},"vehicle_type_id":"4","last_reported":1751555518,"current_range_meters":6400,"station_id":"ce4bgh92rcd13ifvqb40","pricing_plan_id":"cebpf4jnsgd1na2vs0mg"},{"bike_id":"5747976a-e0bf-46c6-ac3b-e10d531c5742","system_id":"levelo_inurba_marseille","lat":43.28275,"lon":5.3506,"is_reserved":false,"is_disabled":false,"rental_uris":{"android":"levelo://app?vid=5747976a-e0bf-46c6-ac3b-e10d531c5742","ios":"levelo://app?vid=5747976a-e0bf-46c6-ac3b-e10d531c5742"},"vehicle_type_id":"4","last_reported":1751555518,"current_range_meters":6400,"station_id":"ce4bhbp2rcd13ifvqerg","pricing_plan_id":"cebpf4jnsgd1na2vs0mg"},{"bike_id":"7ff8a6ff-8222-4826-a9a0-b1461b455990","system_id":"levelo_inurba_marseille","lat":43.27915,"lon":5.39576,"is_reserved":false,"is_disabled":false,"rental_uris":{"android":"levelo://app?vid=7ff8a6ff-8222-4826-a9a0-b1461b455990","ios":"levelo://app?vid=7ff8a6ff-8222-4826-a9a0-b1461b455990"},"vehicle_type_id":"4","last_reported":1751555518,"current_range_meters":6800,"station_id":"ce4bhf92rcd13ifvqf40","pricing_plan_id":"cebpf4jnsgd1na2vs0mg"},{"bike_id":"de3d3d25-7354-49cb-8fa4-5acf1471cb8d","system_id":"levelo_inurba_marseille","lat":43.21223,"lon":5.35072,"is_reserved":false,"is_disabled":false,"rental_uris":{"android":"levelo://app?vid=de3d3d25-7354-49cb-8fa4-5acf1471cb8d","ios":"levelo://app?vid=de3d3d25-7354-49cb-8fa4-5acf1471cb8d"},"vehicle_type_id":"4","last_reported":1751555518,"current_range_meters":6800,"station_id":"st_cvj6sg6p6f1abm77japg","pricing_plan_id":"cebpf4jnsgd1na2vs0mg"},{"bike_id":"da921d92-526f-401b-95dc-b12109d1091d","system_id":"levelo_inurba_marseille","lat":43.36362,"lon":5.35031,"is_reserved":false,"is_disabled":false,"rental_uris":{"android":"levelo://app?vid=da921d92-526f-401b-95dc-b12109d1091d","ios":"levelo://app?vid=da921d92-526f-401b-95dc-b12109d1091d"},"vehicle_type_id":"4","last_reported":1751555518,"current_range_meters":7200,"station_id":"","pricing_plan_id":"cebpf4jnsgd1na2vs0mg"},{"bike_id":"633aa04f-1fa1-454d-a00f-106a14714525","system_id":"levelo_inurba_marseille","lat":43.29261,"lon":5.40903,"is_reserved":false,"is_disabled":false,"rental_uris":{"android":"levelo://app?vid=633aa04f-1fa1-454d-a00f-106a14714525","ios":"levelo://app?vid=633aa04f-1fa1-454d-a00f-106a14714525"},"vehicle_type_id":"4","last_reported":1751555518,"current_range_meters":7200,"station_id":"ce4bh192rcd13ifvqdc0","pricing_plan_id":"cebpf4jnsgd1na2vs0mg"},{"bike_id":"52fca1e6-8ced-447a-8458-b55088d707ce","system_id":"levelo_inurba_marseille","lat":43.28421,"lon":5.34996,"is_reserved":false,"is_disabled":false,"rental_uris":{"android":"levelo://app?vid=52fca1e6-8ced-447a-8458-b55088d707ce","ios":"levelo://app?vid=52fca1e6-8ced-447a-8458-b55088d707ce"},"vehicle_type_id":"4","last_reported":1751555518,"current_range_meters":7200,"station_id":"ce4bhbh2rcd13ifvqepg","pricing_plan_id":"cebpf4jnsgd1na2vs0mg"},{"bike_id":"05ee7334-3f6f-4486-a8b6-5c962b30bb46","system_id":"levelo_inurba_marseille","lat":43.29553,"lon":5.42302,"is_reserved":false,"is_disabled":false,"rental_uris":{"android":"levelo://app?vid=05ee7334-3f6f-4486-a8b6-5c962b30bb46","ios":"levelo://app?vid=05ee7334-3f6f-4486-a8b6-5c962b30bb46"},"vehicle_type_id":"4","last_reported":1751555518,"current_range_meters":7200,"station_id":"ce4bhph2rcd13ifvqhdg","pricing_plan_id":"cebpf4jnsgd1na2vs0mg"},{"bike_id":"c73d2709-218b-49fe-b27e-d9cada7c0615","system_id":"levelo_inurba_marseille","lat":43.286961,"lon":5.373815,"is_reserved":false,"is_disabled":false,"rental_uris":{"android":"levelo://app?vid=c73d2709-218b-49fe-b27e-d9cada7c0615","ios":"levelo://app?vid=c73d2709-218b-49fe-b27e-d9cada7c0615"},"vehicle_type_id":"4","last_reported":1751555518,"current_range_meters":8000,"station_id":"","pricing_plan_id":"cebpf4jnsgd1na2vs0mg"},{"bike_id":"631ab92c-4dae-4656-a07b-9612b59cdaa9","system_id":"levelo_inurba_marseille","lat":43.28486,"lon":5.38423,"is_reserved":false,"is_disabled":false,"rental_uris":{"android":"levelo://app?vid=631ab92c-4dae-4656-a07b-9612b59cdaa9","ios":"levelo://app?vid=631ab92c-4dae-4656-a07b-9612b59cdaa9"},"vehicle_type_id":"4","last_reported":1751555518,"current_range_meters":8000,"station_id":"ce4bh512rcd13ifvqe3g","pricing_plan_id":"cebpf4jnsgd1na2vs0mg"},{"bike_id":"f75b6efc-1f3e-481f-981e-22458a06be8e","system_id":"levelo_inurba_marseille","lat":43.32978,"lon":5.39058,"is_reserved":false,"is_disabled":false,"rental_uris":{"android":"levelo://app?vid=f75b6efc-1f3e-481f-981e-22458a06be8e","ios":"levelo://app?vid=f75b6efc-1f3e-481f-981e-22458a06be8e"},"vehicle_type_id":"4","last_reported":1751555518,"current_range_meters":8000,"station_id":"ce4bhr92rcd13ifvqhrg","pricing_plan_id":"cebpf4jnsgd1na2vs0mg"},{"bike_id":"8b9c8c67-85af-4d7a-be79-87ebcdaf97a5","system_id":"levelo_inurba_marseille","lat":43.31153,"lon":5.38714,"is_reserved":false,"is_disabled":false,"rental_uris":{"android":"levelo://app?vid=8b9c8c67-85af-4d7a-be79-87ebcdaf97a5","ios":"levelo://app?vid=8b9c8c67-85af-4d7a-be79-87ebcdaf97a5"},"vehicle_type_id":"4","last_reported":1751555518,"current_range_meters":8400,"station_id":"ce4bgv12rcd13ifvqcp0","pricing_plan_id":"cebpf4jnsgd1na2vs0mg"},{"bike_id":"6b68e9ee-d16a-450a-9fff-93c38dcb10ee","system_id":"levelo_inurba_marseille","lat":43.30527,"lon":5.36514,"is_reserved":false,"is_disabled":false,"rental_uris":{"android":"levelo://app?vid=6b68e9ee-d16a-450a-9fff-93c38dcb10ee","ios":"levelo://app?vid=6b68e9ee-d16a-450a-9fff-93c38dcb10ee"},"vehicle_type_id":"4","last_reported":1751555518,"current_range_meters":8800,"station_id":"","pricing_plan_id":"cebpf4jnsgd1na2vs0mg"},{"bike_id":"c052a440-c725-4b67-b1a5-df9103eb30a8","system_id":"levelo_inurba_marseille","lat":43.29358,"lon":5.37858,"is_reserved":false,"is_disabled":false,"rental_uris":{"android":"levelo://app?vid=c052a440-c725-4b67-b1a5-df9103eb30a8","ios":"levelo://app?vid=c052a440-c725-4b67-b1a5-df9103eb30a8"},"vehicle_type_id":"4","last_reported":1751555518,"current_range_meters":8800,"station_id":"ce4bgjh2rcd13ifvqbf0","pricing_plan_id":"cebpf4jnsgd1na2vs0mg"},{"bike_id":"b369f055-cd22-4fb6-a728-69430ded506c","system_id":"levelo_inurba_marseille","lat":43.21765,"lon":5.34593,"is_reserved":false,"is_disabled":false,"rental_uris":{"android":"levelo://app?vid=b369f055-cd22-4fb6-a728-69430ded506c","ios":"levelo://app?vid=b369f055-cd22-4fb6-a728-69430ded506c"},"vehicle_type_id":"4","last_reported":1751555518,"current_range_meters":8800,"station_id":"st_cvj6r9ubvosntc0bgbag","pricing_plan_id":"cebpf4jnsgd1na2vs0mg"},{"bike_id":"ab920f5a-ff27-4191-9617-3937a69f6ff7","system_id":"levelo_inurba_marseille","lat":43.28288,"lon":5.399475,"is_reserved":false,"is_disabled":false,"rental_uris":{"android":"levelo://app?vid=ab920f5a-ff27-4191-9617-3937a69f6ff7","ios":"levelo://app?vid=ab920f5a-ff27-4191-9617-3937a69f6ff7"},"vehicle_type_id":"4","last_reported":1751555518,"current_range_meters":9200,"station_id":"","pricing_plan_id":"cebpf4jnsgd1na2vs0mg"},{"bike_id":"9a7d342a-ff8e-46c4-af1e-6e0519bd67dc","system_id":"levelo_inurba_marseille","lat":43.291433,"lon":5.355899,"is_reserved":false,"is_disabled":false,"rental_uris":{"android":"levelo://app?vid=9a7d342a-ff8e-46c4-af1e-6e0519bd67dc","ios":"levelo://app?vid=9a7d342a-ff8e-46c4-af1e-6e0519bd67dc"},"vehicle_type_id":"4","last_reported":1751555518,"current_range_meters":9200,"station_id":"","pricing_plan_id":"cebpf4jnsgd1na2vs0mg"},{"bike_id":"3cc6114a-cec5-49ca-a6ca-96f8022cfaff","system_id":"levelo_inurba_marseille","lat":43.29206,"lon":5.35809,"is_reserved":false,"is_disabled":false,"rental_uris":{"android":"levelo://app?vid=3cc6114a-cec5-49ca-a6ca-96f8022cfaff","ios":"levelo://app?vid=3cc6114a-cec5-49ca-a6ca-96f8022cfaff"},"vehicle_type_id":"4","last_reported":1751555518,"current_range_meters":9200,"station_id":"ce4bhb12rcd13ifvqel0","pricing_plan_id":"cebpf4jnsgd1na2vs0mg"},{"bike_id":"bf00a211-3496-4df0-8e4e-99767047ca09","system_id":"levelo_inurba_marseille","lat":43.29961,"lon":5.37603,"is_reserved":false,"is_disabled":false,"rental_uris":{"android":"levelo://app?vid=bf00a211-3496-4df0-8e4e-99767047ca09","ios":"levelo://app?vid=bf00a211-3496-4df0-8e4e-99767047ca09"},"vehicle_type_id":"4","last_reported":1751555518,"current_range_meters":9600,"station_id":"","pricing_plan_id":"cebpf4jnsgd1na2vs0mg"},{"bike_id":"e26ba497-efc7-4420-b8c5-9fa5e27f2ce4","system_id":"levelo_inurba_marseille","lat":43.31389,"lon":5.37077,"is_reserved":false,"is_disabled":false,"rental_uris":{"android":"levelo://app?vid=e26ba497-efc7-4420-b8c5-9fa5e27f2ce4","ios":"levelo://app?vid=e26ba497-efc7-4420-b8c5-9fa5e27f2ce4"},"vehicle_type_id":"4","last_reported":1751555518,"current_range_meters":9600,"station_id":"","pricing_plan_id":"cebpf4jnsgd1na2vs0mg"},{"bike_id":"5f9693e6-bf7e-4a3e-9596-ba860562d88c","system_id":"levelo_inurba_marseille","lat":43.28926,"lon":5.38383,"is_reserved":false,"is_disabled":false,"rental_uris":{"android":"levelo://app?vid=5f9693e6-bf7e-4a3e-9596-ba860562d88c","ios":"levelo://app?vid=5f9693e6-bf7e-4a3e-9596-ba860562d88c"},"vehicle_type_id":"4","last_reported":1751555518,"current_range_meters":9600,"station_id":"ce4bh612rcd13ifvqe6g","pricing_plan_id":"cebpf4jnsgd1na2vs0mg"},{"bike_id":"b44c5f08-ff86-44db-a0f4-3b801f7529e3","system_id":"levelo_inurba_marseille","lat":43.32059,"lon":5.41511,"is_reserved":false,"is_disabled":false,"rental_uris":{"android":"levelo://app?vid=b44c5f08-ff86-44db-a0f4-3b801f7529e3","ios":"levelo://app?vid=b44c5f08-ff86-44db-a0f4-3b801f7529e3"},"vehicle_type_id":"4","last_reported":1751555518,"current_range_meters":9600,"station_id":"ce4bhq92rcd13ifvqhkg","pricing_plan_id":"cebpf4jnsgd1na2vs0mg"},{"bike_id":"22c65f34-5b9a-4ce8-b3b0-5a1a52b259a2","system_id":"levelo_inurba_marseille","lat":43.29739,"lon":5.40332,"is_reserved":false,"is_disabled":false,"rental_uris":{"android":"levelo://app?vid=22c65f34-5b9a-4ce8-b3b0-5a1a52b259a2","ios":"levelo://app?vid=22c65f34-5b9a-4ce8-b3b0-5a1a52b259a2"},"vehicle_type_id":"4","last_reported":1751555518,"current_range_meters":10000,"station_id":"","pricing_plan_id":"cebpf4jnsgd1na2vs0mg"},{"bike_id":"ade4e392-da05-4a93-996b-34548959c193","system_id":"levelo_inurba_marseille","lat":43.29537,"lon":5.38543,"is_reserved":false,"is_disabled":false,"rental_uris":{"android":"levelo://app?vid=ade4e392-da05-4a93-996b-34548959c193","ios":"levelo://app?vid=ade4e392-da05-4a93-996b-34548959c193"},"vehicle_type_id":"4","last_reported":1751555518,"current_range_meters":10000,"station_id":"ce4bgih2rcd13ifvqba0","pricing_plan_id":"cebpf4jnsgd1na2vs0mg"},{"bike_id":"b868df12-d99e-41b9-bf4d-e1971c265125","system_id":"levelo_inurba_marseille","lat":43.29786,"lon":5.37105,"is_reserved":false,"is_disabled":false,"rental_uris":{"android":"levelo://app?vid=b868df12-d99e-41b9-bf4d-e1971c265125","ios":"levelo://app?vid=b868df12-d99e-41b9-bf4d-e1971c265125"},"vehicle_type_id":"4","last_reported":1751555518,"current_range_meters":10000,"station_id":"ce4bgop2rcd13ifvqc1g","pricing_plan_id":"cebpf4jnsgd1na2vs0mg"},{"bike_id":"d36326d8-e081-4c29-ab78-eb73e8f5b0c2","system_id":"levelo_inurba_marseille","lat":43.30528,"lon":5.36715,"is_reserved":false,"is_disabled":false,"rental_uris":{"android":"levelo://app?vid=d36326d8-e081-4c29-ab78-eb73e8f5b0c2","ios":"levelo://app?vid=d36326d8-e081-4c29-ab78-eb73e8f5b0c2"},"vehicle_type_id":"4","last_reported":1751555518,"current_range_meters":10000,"station_id":"ce4bgrp2rcd13ifvqc9g","pricing_plan_id":"cebpf4jnsgd1na2vs0mg"},{"bike_id":"1b05f896-a87c-4f60-9ccc-1c5ca9770379","system_id":"levelo_inurba_marseille","lat":43.305359,"lon":5.365571,"is_reserved":false,"is_disabled":false,"rental_uris":{"android":"levelo://app?vid=1b05f896-a87c-4f60-9ccc-1c5ca9770379","ios":"levelo://app?vid=1b05f896-a87c-4f60-9ccc-1c5ca9770379"},"vehicle_type_id":"4","last_reported":1751555518,"current_range_meters":10000,"station_id":"ce4bgs12rcd13ifvqcag","pricing_plan_id":"cebpf4jnsgd1na2vs0mg"},{"bike_id":"a4c627fb-c344-49ea-a398-854bc7ae5ee3","system_id":"levelo_inurba_marseille","lat":43.2816,"lon":5.42638,"is_reserved":false,"is_disabled":false,"rental_uris":{"android":"levelo://app?vid=a4c627fb-c344-49ea-a398-854bc7ae5ee3","ios":"levelo://app?vid=a4c627fb-c344-49ea-a398-854bc7ae5ee3"},"vehicle_type_id":"4","last_reported":1751555518,"current_range_meters":10000,"station_id":"ce4bhnh2rcd13ifvqgug","pricing_plan_id":"cebpf4jnsgd1na2vs0mg"},{"bike_id":"673524a2-2dea-4bf6-a3a6-cde551ff20b8","system_id":"levelo_inurba_marseille","lat":43.32104,"lon":5.36797,"is_reserved":false,"is_disabled":false,"rental_uris":{"android":"levelo://app?vid=673524a2-2dea-4bf6-a3a6-cde551ff20b8","ios":"levelo://app?vid=673524a2-2dea-4bf6-a3a6-cde551ff20b8"},"vehicle_type_id":"4","last_reported":1751555518,"current_range_meters":10000,"station_id":"ce4bhrh2rcd13ifvqhug","pricing_plan_id":"cebpf4jnsgd1na2vs0mg"},{"bike_id":"ef50a132-c502-4afc-a8c2-7de6a0df1152","system_id":"levelo_inurba_marseille","lat":43.225081,"lon":5.34786,"is_reserved":false,"is_disabled":false,"rental_uris":{"android":"levelo://app?vid=ef50a132-c502-4afc-a8c2-7de6a0df1152","ios":"levelo://app?vid=ef50a132-c502-4afc-a8c2-7de6a0df1152"},"vehicle_type_id":"4","last_reported":1751555518,"current_range_meters":10000,"station_id":"st_cvj5dfep6f1abm77gieg","pricing_plan_id":"cebpf4jnsgd1na2vs0mg"},{"bike_id":"bcfd0eda-b9ab-4bec-9ca3-3f2b86617415","system_id":"levelo_inurba_marseille","lat":43.21194,"lon":5.35079,"is_reserved":false,"is_disabled":false,"rental_uris":{"android":"levelo://app?vid=bcfd0eda-b9ab-4bec-9ca3-3f2b86617415","ios":"levelo://app?vid=bcfd0eda-b9ab-4bec-9ca3-3f2b86617415"},"vehicle_type_id":"4","last_reported":1751555518,"current_range_meters":10000,"station_id":"st_cvj6sg6p6f1abm77japg","pricing_plan_id":"cebpf4jnsgd1na2vs0mg"},{"bike_id":"07a4e479-ed3f-4598-9c1b-b6817cb8e0ee","system_id":"levelo_inurba_marseille","lat":43.31135,"lon":5.38431,"is_reserved":false,"is_disabled":false,"rental_uris":{"android":"levelo://app?vid=07a4e479-ed3f-4598-9c1b-b6817cb8e0ee","ios":"levelo://app?vid=07a4e479-ed3f-4598-9c1b-b6817cb8e0ee"},"vehicle_type_id":"4","last_reported":1751555518,"current_range_meters":10800,"station_id":"","pricing_plan_id":"cebpf4jnsgd1na2vs0mg"},{"bike_id":"cfa16652-f731-468e-b40a-ff9b58668180","system_id":"levelo_inurba_marseille","lat":43.29706,"lon":5.377,"is_reserved":false,"is_disabled":false,"rental_uris":{"android":"levelo://app?vid=cfa16652-f731-468e-b40a-ff9b58668180","ios":"levelo://app?vid=cfa16652-f731-468e-b40a-ff9b58668180"},"vehicle_type_id":"4","last_reported":1751555518,"current_range_meters":10800,"station_id":"ce4bgkh2rcd13ifvqbl0","pricing_plan_id":"cebpf4jnsgd1na2vs0mg"},{"bike_id":"9eab7a16-0f94-4628-90fc-98c3241dfc39","system_id":"levelo_inurba_marseille","lat":43.28277,"lon":5.35069,"is_reserved":false,"is_disabled":false,"rental_uris":{"android":"levelo://app?vid=9eab7a16-0f94-4628-90fc-98c3241dfc39","ios":"levelo://app?vid=9eab7a16-0f94-4628-90fc-98c3241dfc39"},"vehicle_type_id":"4","last_reported":1751555518,"current_range_meters":10800,"station_id":"ce4bhbp2rcd13ifvqerg","pricing_plan_id":"cebpf4jnsgd1na2vs0mg"},{"bike_id":"be485d6e-fc9e-4ad3-979b-c71cf21d282d","system_id":"levelo_inurba_marseille","lat":43.25088,"lon":5.39529,"is_reserved":false,"is_disabled":false,"rental_uris":{"android":"levelo://app?vid=be485d6e-fc9e-4ad3-979b-c71cf21d282d","ios":"levelo://app?vid=be485d6e-fc9e-4ad3-979b-c71cf21d282d"},"vehicle_type_id":"4","last_reported":1751555518,"current_range_meters":10800,"station_id":"ce4bhm12rcd13ifvqgkg","pricing_plan_id":"cebpf4jnsgd1na2vs0mg"},{"bike_id":"e36eeb04-35cc-4a52-97d7-6ba58bfe555b","system_id":"levelo_inurba_marseille","lat":43.29556,"lon":5.42275,"is_reserved":false,"is_disabled":false,"rental_uris":{"android":"levelo://app?vid=e36eeb04-35cc-4a52-97d7-6ba58bfe555b","ios":"levelo://app?vid=e36eeb04-35cc-4a52-97d7-6ba58bfe555b"},"vehicle_type_id":"4","last_reported":1751555518,"current_range_meters":10800,"station_id":"ce4bhph2rcd13ifvqhdg","pricing_plan_id":"cebpf4jnsgd1na2vs0mg"},{"bike_id":"16a8afe6-e43e-4d1b-a7bd-ed83d113735a","system_id":"levelo_inurba_marseille","lat":43.32436,"lon":5.41185,"is_reserved":false,"is_disabled":false,"rental_uris":{"android":"levelo://app?vid=16a8afe6-e43e-4d1b-a7bd-ed83d113735a","ios":"levelo://app?vid=16a8afe6-e43e-4d1b-a7bd-ed83d113735a"},"vehicle_type_id":"4","last_reported":1751555518,"current_range_meters":11200,"station_id":"","pricing_plan_id":"cebpf4jnsgd1na2vs0mg"},{"bike_id":"9ebee46f-0bf3-4f0e-a3ee-904b25c72b35","system_id":"levelo_inurba_marseille","lat":43.29625,"lon":5.37722,"is_reserved":false,"is_disabled":false,"rental_uris":{"android":"levelo://app?vid=9ebee46f-0bf3-4f0e-a3ee-904b25c72b35","ios":"levelo://app?vid=9ebee46f-0bf3-4f0e-a3ee-904b25c72b35"},"vehicle_type_id":"4","last_reported":1751555518,"current_range_meters":11200,"station_id":"ce4bgi92rcd13ifvqb90","pricing_plan_id":"cebpf4jnsgd1na2vs0mg"},{"bike_id":"65a09e99-6f5f-46e0-b8f3-c288eb195e49","system_id":"levelo_inurba_marseille","lat":43.28413,"lon":5.34992,"is_reserved":false,"is_disabled":false,"rental_uris":{"android":"levelo://app?vid=65a09e99-6f5f-46e0-b8f3-c288eb195e49","ios":"levelo://app?vid=65a09e99-6f5f-46e0-b8f3-c288eb195e49"},"vehicle_type_id":"4","last_reported":1751555518,"current_range_meters":11200,"station_id":"ce4bhbh2rcd13ifvqepg","pricing_plan_id":"cebpf4jnsgd1na2vs0mg"},{"bike_id":"0728007a-d131-4a96-b986-7420a7cb736e","system_id":"levelo_inurba_marseille","lat":43.30148,"lon":5.37426,"is_reserved":false,"is_disabled":false,"rental_uris":{"android":"levelo://app?vid=0728007a-d131-4a96-b986-7420a7cb736e","ios":"levelo://app?vid=0728007a-d131-4a96-b986-7420a7cb736e"},"vehicle_type_id":"4","last_reported":1751555518,"current_range_meters":11600,"station_id":"ce4bgs92rcd13ifvqcc0","pricing_plan_id":"cebpf4jnsgd1na2vs0mg"},{"bike_id":"b7360c73-5235-4345-91b3-018b8f47bed3","system_id":"levelo_inurba_marseille","lat":43.30594,"lon":5.39346,"is_reserved":false,"is_disabled":false,"rental_uris":{"android":"levelo://app?vid=b7360c73-5235-4345-91b3-018b8f47bed3","ios":"levelo://app?vid=b7360c73-5235-4345-91b3-018b8f47bed3"},"vehicle_type_id":"4","last_reported":1751555518,"current_range_meters":11600,"station_id":"ce4bh0p2rcd13ifvqd80","pricing_plan_id":"cebpf4jnsgd1na2vs0mg"},{"bike_id":"64bb485e-0856-48ce-befe-bde5a394f93d","system_id":"levelo_inurba_marseille","lat":43.276333,"lon":5.388714,"is_reserved":false,"is_disabled":false,"rental_uris":{"android":"levelo://app?vid=64bb485e-0856-48ce-befe-bde5a394f93d","ios":"levelo://app?vid=64bb485e-0856-48ce-befe-bde5a394f93d"},"vehicle_type_id":"4","last_reported":1751555518,"current_range_meters":11600,"station_id":"ce4bhi12rcd13ifvqfo0","pricing_plan_id":"cebpf4jnsgd1na2vs0mg"},{"bike_id":"02ef8374-2cca-46e9-a86c-fa0437827fa3","system_id":"levelo_inurba_marseille","lat":43.23153,"lon":5.43722,"is_reserved":false,"is_disabled":false,"rental_uris":{"android":"levelo://app?vid=02ef8374-2cca-46e9-a86c-fa0437827fa3","ios":"levelo://app?vid=02ef8374-2cca-46e9-a86c-fa0437827fa3"},"vehicle_type_id":"4","last_reported":1751555518,"current_range_meters":11600,"station_id":"ce4bhmp2rcd13ifvqgog","pricing_plan_id":"cebpf4jnsgd1na2vs0mg"},{"bike_id":"496aa909-779c-49d8-8567-107426d62867","system_id":"levelo_inurba_marseille","lat":43.273747,"lon":5.362566,"is_reserved":false,"is_disabled":false,"rental_uris":{"android":"levelo://app?vid=496aa909-779c-49d8-8567-107426d62867","ios":"levelo://app?vid=496aa909-779c-49d8-8567-107426d62867"},"vehicle_type_id":"4","last_reported":1751555518,"current_range_meters":12000,"station_id":"ce4bhbh2rcd13ifvqeo0","pricing_plan_id":"cebpf4jnsgd1na2vs0mg"},{"bike_id":"2daec926-cf6a-4897-b995-077bc43c57ec","system_id":"levelo_inurba_marseille","lat":43.28614,"lon":5.35103,"is_reserved":false,"is_disabled":false,"rental_uris":{"android":"levelo://app?vid=2daec926-cf6a-4897-b995-077bc43c57ec","ios":"levelo://app?vid=2daec926-cf6a-4897-b995-077bc43c57ec"},"vehicle_type_id":"4","last_reported":1751555518,"current_range_meters":12000,"station_id":"ce4bhch2rcd13ifvqeug","pricing_plan_id":"cebpf4jnsgd1na2vs0mg"},{"bike_id":"9e2dd220-09e5-4cc4-8f2c-5e62086e1446","system_id":"levelo_inurba_marseille","lat":43.26229,"lon":5.40445,"is_reserved":false,"is_disabled":false,"rental_uris":{"android":"levelo://app?vid=9e2dd220-09e5-4cc4-8f2c-5e62086e1446","ios":"levelo://app?vid=9e2dd220-09e5-4cc4-8f2c-5e62086e1446"},"vehicle_type_id":"4","last_reported":1751555518,"current_range_meters":12000,"station_id":"ce4bhmh2rcd13ifvqgmg","pricing_plan_id":"cebpf4jnsgd1na2vs0mg"},{"bike_id":"b30e31d7-58a6-4ca8-84c8-7339151a0883","system_id":"levelo_inurba_marseille","lat":43.241694,"lon":5.363897,"is_reserved":false,"is_disabled":false,"rental_uris":{"android":"levelo://app?vid=b30e31d7-58a6-4ca8-84c8-7339151a0883","ios":"levelo://app?vid=b30e31d7-58a6-4ca8-84c8-7339151a0883"},"vehicle_type_id":"4","last_reported":1751555518,"current_range_meters":12000,"station_id":"cpo36qri1sfpv3e86is0","pricing_plan_id":"cebpf4jnsgd1na2vs0mg"},{"bike_id":"b1242795-0576-4e4d-a89f-9d7f8310ff08","system_id":"levelo_inurba_marseille","lat":43.2418,"lon":5.36393,"is_reserved":false,"is_disabled":false,"rental_uris":{"android":"levelo://app?vid=b1242795-0576-4e4d-a89f-9d7f8310ff08","ios":"levelo://app?vid=b1242795-0576-4e4d-a89f-9d7f8310ff08"},"vehicle_type_id":"4","last_reported":1751555518,"current_range_meters":12000,"station_id":"cpo36qri1sfpv3e86is0","pricing_plan_id":"cebpf4jnsgd1na2vs0mg"},{"bike_id":"86b668cc-80d9-411c-8cf3-61ca70a50f08","system_id":"levelo_inurba_marseille","lat":43.31297,"lon":5.36824,"is_reserved":false,"is_disabled":false,"rental_uris":{"android":"levelo://app?vid=86b668cc-80d9-411c-8cf3-61ca70a50f08","ios":"levelo://app?vid=86b668cc-80d9-411c-8cf3-61ca70a50f08"},"vehicle_type_id":"4","last_reported":1751555518,"current_range_meters":12400,"station_id":"ce4bgl92rcd13ifvqbq0","pricing_plan_id":"cebpf4jnsgd1na2vs0mg"},{"bike_id":"0e030323-4386-4e72-9a0d-0f6a2ff539de","system_id":"levelo_inurba_marseille","lat":43.296136,"lon":5.40554,"is_reserved":false,"is_disabled":false,"rental_uris":{"android":"levelo://app?vid=0e030323-4386-4e72-9a0d-0f6a2ff539de","ios":"levelo://app?vid=0e030323-4386-4e72-9a0d-0f6a2ff539de"},"vehicle_type_id":"4","last_reported":1751555518,"current_range_meters":12400,"station_id":"ce4bh0h2rcd13ifvqd60","pricing_plan_id":"cebpf4jnsgd1na2vs0mg"},{"bike_id":"b7a190bb-0b58-4561-847c-f01ec571983c","system_id":"levelo_inurba_marseille","lat":43.28417,"lon":5.3498,"is_reserved":false,"is_disabled":false,"rental_uris":{"android":"levelo://app?vid=b7a190bb-0b58-4561-847c-f01ec571983c","ios":"levelo://app?vid=b7a190bb-0b58-4561-847c-f01ec571983c"},"vehicle_type_id":"4","last_reported":1751555518,"current_range_meters":12400,"station_id":"ce4bhbh2rcd13ifvqepg","pricing_plan_id":"cebpf4jnsgd1na2vs0mg"},{"bike_id":"5bffd8c5-7877-46d8-92a3-6b6bfaf6f42a","system_id":"levelo_inurba_marseille","lat":43.27998,"lon":5.40003,"is_reserved":false,"is_disabled":false,"rental_uris":{"android":"levelo://app?vid=5bffd8c5-7877-46d8-92a3-6b6bfaf6f42a","ios":"levelo://app?vid=5bffd8c5-7877-46d8-92a3-6b6bfaf6f42a"},"vehicle_type_id":"4","last_reported":1751555518,"current_range_meters":12400,"station_id":"ce4bho92rcd13ifvqh4g","pricing_plan_id":"cebpf4jnsgd1na2vs0mg"},{"bike_id":"a4d60c57-8351-427b-9d81-0b48597001bd","system_id":"levelo_inurba_marseille","lat":43.29694,"lon":5.37691,"is_reserved":false,"is_disabled":false,"rental_uris":{"android":"levelo://app?vid=a4d60c57-8351-427b-9d81-0b48597001bd","ios":"levelo://app?vid=a4d60c57-8351-427b-9d81-0b48597001bd"},"vehicle_type_id":"4","last_reported":1751555518,"current_range_meters":12800,"station_id":"ce4bgkh2rcd13ifvqbl0","pricing_plan_id":"cebpf4jnsgd1na2vs0mg"},{"bike_id":"e4d34893-9741-482e-95b8-48ce58b374df","system_id":"levelo_inurba_marseille","lat":43.29284,"lon":5.40124,"is_reserved":false,"is_disabled":false,"rental_uris":{"android":"levelo://app?vid=e4d34893-9741-482e-95b8-48ce58b374df","ios":"levelo://app?vid=e4d34893-9741-482e-95b8-48ce58b374df"},"vehicle_type_id":"4","last_reported":1751555518,"current_range_meters":12800,"station_id":"ce4bh312rcd13ifvqdk0","pricing_plan_id":"cebpf4jnsgd1na2vs0mg"},{"bike_id":"f85e4f4f-ebc0-48bf-bc0b-5dd4877ac835","system_id":"levelo_inurba_marseille","lat":43.28263,"lon":5.35078,"is_reserved":false,"is_disabled":false,"rental_uris":{"android":"levelo://app?vid=f85e4f4f-ebc0-48bf-bc0b-5dd4877ac835","ios":"levelo://app?vid=f85e4f4f-ebc0-48bf-bc0b-5dd4877ac835"},"vehicle_type_id":"4","last_reported":1751555518,"current_range_meters":12800,"station_id":"ce4bhbp2rcd13ifvqerg","pricing_plan_id":"cebpf4jnsgd1na2vs0mg"},{"bike_id":"06478bcf-f5f1-4cba-b82a-41641402ed2b","system_id":"levelo_inurba_marseille","lat":43.32334,"lon":5.36748,"is_reserved":false,"is_disabled":false,"rental_uris":{"android":"levelo://app?vid=06478bcf-f5f1-4cba-b82a-41641402ed2b","ios":"levelo://app?vid=06478bcf-f5f1-4cba-b82a-41641402ed2b"},"vehicle_type_id":"4","last_reported":1751555518,"current_range_meters":12800,"station_id":"ce4bhsh2rcd13ifvqi2g","pricing_plan_id":"cebpf4jnsgd1na2vs0mg"},{"bike_id":"912d67f3-78e7-48fd-8929-37f0572cfee4","system_id":"levelo_inurba_marseille","lat":43.26379,"lon":5.37397,"is_reserved":false,"is_disabled":false,"rental_uris":{"android":"levelo://app?vid=912d67f3-78e7-48fd-8929-37f0572cfee4","ios":"levelo://app?vid=912d67f3-78e7-48fd-8929-37f0572cfee4"},"vehicle_type_id":"4","last_reported":1751555518,"current_range_meters":13600,"station_id":"","pricing_plan_id":"cebpf4jnsgd1na2vs0mg"},{"bike_id":"a588469b-12ca-41c6-8c6f-3f3bda5b7f15","system_id":"levelo_inurba_marseille","lat":43.31571,"lon":5.38381,"is_reserved":false,"is_disabled":false,"rental_uris":{"android":"levelo://app?vid=a588469b-12ca-41c6-8c6f-3f3bda5b7f15","ios":"levelo://app?vid=a588469b-12ca-41c6-8c6f-3f3bda5b7f15"},"vehicle_type_id":"4","last_reported":1751555518,"current_range_meters":13600,"station_id":"","pricing_plan_id":"cebpf4jnsgd1na2vs0mg"},{"bike_id":"8b3755fc-2284-401e-bc3a-14d8474e8e49","system_id":"levelo_inurba_marseille","lat":43.28618,"lon":5.35104,"is_reserved":false,"is_disabled":false,"rental_uris":{"android":"levelo://app?vid=8b3755fc-2284-401e-bc3a-14d8474e8e49","ios":"levelo://app?vid=8b3755fc-2284-401e-bc3a-14d8474e8e49"},"vehicle_type_id":"4","last_reported":1751555518,"current_range_meters":14000,"station_id":"ce4bhch2rcd13ifvqeug","pricing_plan_id":"cebpf4jnsgd1na2vs0mg"},{"bike_id":"4a3a0be6-706c-43b8-8009-9c10375fa4c8","system_id":"levelo_inurba_marseille","lat":43.24171,"lon":5.36397,"is_reserved":false,"is_disabled":false,"rental_uris":{"android":"levelo://app?vid=4a3a0be6-706c-43b8-8009-9c10375fa4c8","ios":"levelo://app?vid=4a3a0be6-706c-43b8-8009-9c10375fa4c8"},"vehicle_type_id":"4","last_reported":1751555518,"current_range_meters":14000,"station_id":"cpo36qri1sfpv3e86is0","pricing_plan_id":"cebpf4jnsgd1na2vs0mg"},{"bike_id":"ffc4ee84-d1be-4ebc-8ebf-1a1ca37b8401","system_id":"levelo_inurba_marseille","lat":43.30856,"lon":5.37397,"is_reserved":false,"is_disabled":false,"rental_uris":{"android":"levelo://app?vid=ffc4ee84-d1be-4ebc-8ebf-1a1ca37b8401","ios":"levelo://app?vid=ffc4ee84-d1be-4ebc-8ebf-1a1ca37b8401"},"vehicle_type_id":"4","last_reported":1751555518,"current_range_meters":14400,"station_id":"","pricing_plan_id":"cebpf4jnsgd1na2vs0mg"},{"bike_id":"52ff3d7a-32ed-48ca-b1ef-8582a610276b","system_id":"levelo_inurba_marseille","lat":43.28262,"lon":5.35072,"is_reserved":false,"is_disabled":false,"rental_uris":{"android":"levelo://app?vid=52ff3d7a-32ed-48ca-b1ef-8582a610276b","ios":"levelo://app?vid=52ff3d7a-32ed-48ca-b1ef-8582a610276b"},"vehicle_type_id":"4","last_reported":1751555518,"current_range_meters":14400,"station_id":"ce4bhbp2rcd13ifvqerg","pricing_plan_id":"cebpf4jnsgd1na2vs0mg"},{"bike_id":"38ed0868-3c77-46ed-87ea-d57405a97f67","system_id":"levelo_inurba_marseille","lat":43.32038,"lon":5.41568,"is_reserved":false,"is_disabled":false,"rental_uris":{"android":"levelo://app?vid=38ed0868-3c77-46ed-87ea-d57405a97f67","ios":"levelo://app?vid=38ed0868-3c77-46ed-87ea-d57405a97f67"},"vehicle_type_id":"4","last_reported":1751555518,"current_range_meters":14400,"station_id":"ce4bhq92rcd13ifvqhkg","pricing_plan_id":"cebpf4jnsgd1na2vs0mg"},{"bike_id":"a347a3cf-5b41-4560-ba6a-221c5c827479","system_id":"levelo_inurba_marseille","lat":43.3361,"lon":5.41032,"is_reserved":false,"is_disabled":false,"rental_uris":{"android":"levelo://app?vid=a347a3cf-5b41-4560-ba6a-221c5c827479","ios":"levelo://app?vid=a347a3cf-5b41-4560-ba6a-221c5c827479"},"vehicle_type_id":"4","last_reported":1751555518,"current_range_meters":14400,"station_id":"ce4bhqh2rcd13ifvqhmg","pricing_plan_id":"cebpf4jnsgd1na2vs0mg"},{"bike_id":"cfe1f1e8-d271-40cf-bd14-c0a751cfbc70","system_id":"levelo_inurba_marseille","lat":43.28398,"lon":5.349897,"is_reserved":false,"is_disabled":false,"rental_uris":{"android":"levelo://app?vid=cfe1f1e8-d271-40cf-bd14-c0a751cfbc70","ios":"levelo://app?vid=cfe1f1e8-d271-40cf-bd14-c0a751cfbc70"},"vehicle_type_id":"4","last_reported":1751555518,"current_range_meters":14800,"station_id":"ce4bgip2rcd13ifvqbb0","pricing_plan_id":"cebpf4jnsgd1na2vs0mg"},{"bike_id":"c30b1d4e-136d-491b-af39-cf4cdec2a486","system_id":"levelo_inurba_marseille","lat":43.29203,"lon":5.35806,"is_reserved":false,"is_disabled":false,"rental_uris":{"android":"levelo://app?vid=c30b1d4e-136d-491b-af39-cf4cdec2a486","ios":"levelo://app?vid=c30b1d4e-136d-491b-af39-cf4cdec2a486"},"vehicle_type_id":"4","last_reported":1751555518,"current_range_meters":14800,"station_id":"ce4bhb12rcd13ifvqel0","pricing_plan_id":"cebpf4jnsgd1na2vs0mg"},{"bike_id":"ba154a12-11bd-42a5-958a-5992f5d043d1","system_id":"levelo_inurba_marseille","lat":43.30514,"lon":5.37091,"is_reserved":false,"is_disabled":false,"rental_uris":{"android":"levelo://app?vid=ba154a12-11bd-42a5-958a-5992f5d043d1","ios":"levelo://app?vid=ba154a12-11bd-42a5-958a-5992f5d043d1"},"vehicle_type_id":"4","last_reported":1751555518,"current_range_meters":15200,"station_id":"","pricing_plan_id":"cebpf4jnsgd1na2vs0mg"},{"bike_id":"d4a349db-f22d-4680-8253-fdaa0586ff9a","system_id":"levelo_inurba_marseille","lat":43.27377,"lon":5.36271,"is_reserved":false,"is_disabled":false,"rental_uris":{"android":"levelo://app?vid=d4a349db-f22d-4680-8253-fdaa0586ff9a","ios":"levelo://app?vid=d4a349db-f22d-4680-8253-fdaa0586ff9a"},"vehicle_type_id":"4","last_reported":1751555518,"current_range_meters":16000,"station_id":"ce4bhbh2rcd13ifvqeo0","pricing_plan_id":"cebpf4jnsgd1na2vs0mg"},{"bike_id":"44a9443d-3135-4a25-856d-9bda0e293f4a","system_id":"levelo_inurba_marseille","lat":43.284114,"lon":5.349958,"is_reserved":false,"is_disabled":false,"rental_uris":{"android":"levelo://app?vid=44a9443d-3135-4a25-856d-9bda0e293f4a","ios":"levelo://app?vid=44a9443d-3135-4a25-856d-9bda0e293f4a"},"vehicle_type_id":"4","last_reported":1751555518,"current_range_meters":16000,"station_id":"ce4bhbh2rcd13ifvqepg","pricing_plan_id":"cebpf4jnsgd1na2vs0mg"},{"bike_id":"d5d547aa-46db-4cb3-a783-d8e12042586c","system_id":"levelo_inurba_marseille","lat":43.28617,"lon":5.35105,"is_reserved":false,"is_disabled":false,"rental_uris":{"android":"levelo://app?vid=d5d547aa-46db-4cb3-a783-d8e12042586c","ios":"levelo://app?vid=d5d547aa-46db-4cb3-a783-d8e12042586c"},"vehicle_type_id":"4","last_reported":1751555518,"current_range_meters":16000,"station_id":"ce4bhch2rcd13ifvqeug","pricing_plan_id":"cebpf4jnsgd1na2vs0mg"},{"bike_id":"7d0e31d0-2fe9-439f-b705-3b3a9eda8ffb","system_id":"levelo_inurba_marseille","lat":43.26215,"lon":5.37443,"is_reserved":false,"is_disabled":false,"rental_uris":{"android":"levelo://app?vid=7d0e31d0-2fe9-439f-b705-3b3a9eda8ffb","ios":"levelo://app?vid=7d0e31d0-2fe9-439f-b705-3b3a9eda8ffb"},"vehicle_type_id":"4","last_reported":1751555518,"current_range_meters":16000,"station_id":"ce4bhgp2rcd13ifvqfc0","pricing_plan_id":"cebpf4jnsgd1na2vs0mg"},{"bike_id":"2fadb885-634d-45cb-82e4-8d54ddbb1141","system_id":"levelo_inurba_marseille","lat":43.23069,"lon":5.35493,"is_reserved":false,"is_disabled":false,"rental_uris":{"android":"levelo://app?vid=2fadb885-634d-45cb-82e4-8d54ddbb1141","ios":"levelo://app?vid=2fadb885-634d-45cb-82e4-8d54ddbb1141"},"vehicle_type_id":"4","last_reported":1751555518,"current_range_meters":16000,"station_id":"cpo3342slgdg3j2ifvpg","pricing_plan_id":"cebpf4jnsgd1na2vs0mg"},{"bike_id":"37b84a38-055a-4a6e-a56a-8ff3d0c1b2ec","system_id":"levelo_inurba_marseille","lat":43.2119,"lon":5.35076,"is_reserved":false,"is_disabled":false,"rental_uris":{"android":"levelo://app?vid=37b84a38-055a-4a6e-a56a-8ff3d0c1b2ec","ios":"levelo://app?vid=37b84a38-055a-4a6e-a56a-8ff3d0c1b2ec"},"vehicle_type_id":"4","last_reported":1751555518,"current_range_meters":16000,"station_id":"st_cvj6sg6p6f1abm77japg","pricing_plan_id":"cebpf4jnsgd1na2vs0mg"},{"bike_id":"4d4995e7-0bba-4ac2-a238-afd84a5e99b5","system_id":"levelo_inurba_marseille","lat":43.304848,"lon":5.398345,"is_reserved":false,"is_disabled":false,"rental_uris":{"android":"levelo://app?vid=4d4995e7-0bba-4ac2-a238-afd84a5e99b5","ios":"levelo://app?vid=4d4995e7-0bba-4ac2-a238-afd84a5e99b5"},"vehicle_type_id":"4","last_reported":1751555518,"current_range_meters":16400,"station_id":"","pricing_plan_id":"cebpf4jnsgd1na2vs0mg"},{"bike_id":"175513bb-dce2-48e2-83c8-1e9f1cb23cd0","system_id":"levelo_inurba_marseille","lat":43.286255,"lon":5.412651,"is_reserved":false,"is_disabled":false,"rental_uris":{"android":"levelo://app?vid=175513bb-dce2-48e2-83c8-1e9f1cb23cd0","ios":"levelo://app?vid=175513bb-dce2-48e2-83c8-1e9f1cb23cd0"},"vehicle_type_id":"4","last_reported":1751555518,"current_range_meters":16400,"station_id":"","pricing_plan_id":"cebpf4jnsgd1na2vs0mg"},{"bike_id":"429fa18c-0d06-4a5d-a9f7-cd69cbe19891","system_id":"levelo_inurba_marseille","lat":43.25435,"lon":5.37662,"is_reserved":false,"is_disabled":false,"rental_uris":{"android":"levelo://app?vid=429fa18c-0d06-4a5d-a9f7-cd69cbe19891","ios":"levelo://app?vid=429fa18c-0d06-4a5d-a9f7-cd69cbe19891"},"vehicle_type_id":"4","last_reported":1751555518,"current_range_meters":16400,"station_id":"","pricing_plan_id":"cebpf4jnsgd1na2vs0mg"},{"bike_id":"d6a97fc8-7c5d-4b77-9d38-d22003db8fe5","system_id":"levelo_inurba_marseille","lat":43.34721,"lon":5.36602,"is_reserved":false,"is_disabled":false,"rental_uris":{"android":"levelo://app?vid=d6a97fc8-7c5d-4b77-9d38-d22003db8fe5","ios":"levelo://app?vid=d6a97fc8-7c5d-4b77-9d38-d22003db8fe5"},"vehicle_type_id":"4","last_reported":1751555518,"current_range_meters":16400,"station_id":"","pricing_plan_id":"cebpf4jnsgd1na2vs0mg"},{"bike_id":"78674cc6-6060-4689-af4a-6696e265455e","system_id":"levelo_inurba_marseille","lat":43.28664,"lon":5.3867,"is_reserved":false,"is_disabled":false,"rental_uris":{"android":"levelo://app?vid=78674cc6-6060-4689-af4a-6696e265455e","ios":"levelo://app?vid=78674cc6-6060-4689-af4a-6696e265455e"},"vehicle_type_id":"4","last_reported":1751555518,"current_range_meters":16400,"station_id":"ce4bh492rcd13ifvqdug","pricing_plan_id":"cebpf4jnsgd1na2vs0mg"},{"bike_id":"6910f646-7997-482a-a5c9-34d752ed8550","system_id":"levelo_inurba_marseille","lat":43.28435,"lon":5.34983,"is_reserved":false,"is_disabled":false,"rental_uris":{"android":"levelo://app?vid=6910f646-7997-482a-a5c9-34d752ed8550","ios":"levelo://app?vid=6910f646-7997-482a-a5c9-34d752ed8550"},"vehicle_type_id":"4","last_reported":1751555518,"current_range_meters":16400,"station_id":"ce4bhbh2rcd13ifvqepg","pricing_plan_id":"cebpf4jnsgd1na2vs0mg"},{"bike_id":"301f9cdc-5b2a-4701-aae8-08283c8b94c6","system_id":"levelo_inurba_marseille","lat":43.28274,"lon":5.35068,"is_reserved":false,"is_disabled":false,"rental_uris":{"android":"levelo://app?vid=301f9cdc-5b2a-4701-aae8-08283c8b94c6","ios":"levelo://app?vid=301f9cdc-5b2a-4701-aae8-08283c8b94c6"},"vehicle_type_id":"4","last_reported":1751555518,"current_range_meters":16400,"station_id":"ce4bhbp2rcd13ifvqerg","pricing_plan_id":"cebpf4jnsgd1na2vs0mg"},{"bike_id":"db6b4215-49c9-4aef-845e-4d7d939d3d90","system_id":"levelo_inurba_marseille","lat":43.26214,"lon":5.37441,"is_reserved":false,"is_disabled":false,"rental_uris":{"android":"levelo://app?vid=db6b4215-49c9-4aef-845e-4d7d939d3d90","ios":"levelo://app?vid=db6b4215-49c9-4aef-845e-4d7d939d3d90"},"vehicle_type_id":"4","last_reported":1751555518,"current_range_meters":16400,"station_id":"ce4bhgp2rcd13ifvqfc0","pricing_plan_id":"cebpf4jnsgd1na2vs0mg"},{"bike_id":"2596bf02-4b4e-4a73-96c0-306657fb5dc9","system_id":"levelo_inurba_marseille","lat":43.26219,"lon":5.37451,"is_reserved":false,"is_disabled":false,"rental_uris":{"android":"levelo://app?vid=2596bf02-4b4e-4a73-96c0-306657fb5dc9","ios":"levelo://app?vid=2596bf02-4b4e-4a73-96c0-306657fb5dc9"},"vehicle_type_id":"4","last_reported":1751555518,"current_range_meters":16400,"station_id":"ce4bhgp2rcd13ifvqfc0","pricing_plan_id":"cebpf4jnsgd1na2vs0mg"},{"bike_id":"7c67e7dd-7a7f-426b-9249-641f91643932","system_id":"levelo_inurba_marseille","lat":43.24187,"lon":5.36391,"is_reserved":false,"is_disabled":false,"rental_uris":{"android":"levelo://app?vid=7c67e7dd-7a7f-426b-9249-641f91643932","ios":"levelo://app?vid=7c67e7dd-7a7f-426b-9249-641f91643932"},"vehicle_type_id":"4","last_reported":1751555518,"current_range_meters":16400,"station_id":"cpo36qri1sfpv3e86is0","pricing_plan_id":"cebpf4jnsgd1na2vs0mg"},{"bike_id":"a6715104-7492-4ec6-a996-23050baf8551","system_id":"levelo_inurba_marseille","lat":43.22513,"lon":5.348,"is_reserved":false,"is_disabled":false,"rental_uris":{"android":"levelo://app?vid=a6715104-7492-4ec6-a996-23050baf8551","ios":"levelo://app?vid=a6715104-7492-4ec6-a996-23050baf8551"},"vehicle_type_id":"4","last_reported":1751555518,"current_range_meters":16400,"station_id":"st_cvj5dfep6f1abm77gieg","pricing_plan_id":"cebpf4jnsgd1na2vs0mg"},{"bike_id":"0c4b7fdb-b39e-49b3-a2b0-ae3d0f43e89d","system_id":"levelo_inurba_marseille","lat":43.328993,"lon":5.40567,"is_reserved":false,"is_disabled":false,"rental_uris":{"android":"levelo://app?vid=0c4b7fdb-b39e-49b3-a2b0-ae3d0f43e89d","ios":"levelo://app?vid=0c4b7fdb-b39e-49b3-a2b0-ae3d0f43e89d"},"vehicle_type_id":"4","last_reported":1751555518,"current_range_meters":16800,"station_id":"","pricing_plan_id":"cebpf4jnsgd1na2vs0mg"},{"bike_id":"af213e10-6367-4cec-af17-63aa54d97712","system_id":"levelo_inurba_marseille","lat":43.27628,"lon":5.36096,"is_reserved":false,"is_disabled":false,"rental_uris":{"android":"levelo://app?vid=af213e10-6367-4cec-af17-63aa54d97712","ios":"levelo://app?vid=af213e10-6367-4cec-af17-63aa54d97712"},"vehicle_type_id":"4","last_reported":1751555518,"current_range_meters":16800,"station_id":"ce4bgj92rcd13ifvqbe0","pricing_plan_id":"cebpf4jnsgd1na2vs0mg"},{"bike_id":"80a421f9-82c6-43e6-aaa0-88dda18c110c","system_id":"levelo_inurba_marseille","lat":43.28414,"lon":5.34996,"is_reserved":false,"is_disabled":false,"rental_uris":{"android":"levelo://app?vid=80a421f9-82c6-43e6-aaa0-88dda18c110c","ios":"levelo://app?vid=80a421f9-82c6-43e6-aaa0-88dda18c110c"},"vehicle_type_id":"4","last_reported":1751555518,"current_range_meters":16800,"station_id":"ce4bhbh2rcd13ifvqepg","pricing_plan_id":"cebpf4jnsgd1na2vs0mg"},{"bike_id":"1b3560cd-fa89-47a8-a68c-be52a28f38d8","system_id":"levelo_inurba_marseille","lat":43.28267,"lon":5.35071,"is_reserved":false,"is_disabled":false,"rental_uris":{"android":"levelo://app?vid=1b3560cd-fa89-47a8-a68c-be52a28f38d8","ios":"levelo://app?vid=1b3560cd-fa89-47a8-a68c-be52a28f38d8"},"vehicle_type_id":"4","last_reported":1751555518,"current_range_meters":16800,"station_id":"ce4bhbp2rcd13ifvqerg","pricing_plan_id":"cebpf4jnsgd1na2vs0mg"},{"bike_id":"603f229c-09b9-4145-9510-d250a8eff49b","system_id":"levelo_inurba_marseille","lat":43.286101,"lon":5.351005,"is_reserved":false,"is_disabled":false,"rental_uris":{"android":"levelo://app?vid=603f229c-09b9-4145-9510-d250a8eff49b","ios":"levelo://app?vid=603f229c-09b9-4145-9510-d250a8eff49b"},"vehicle_type_id":"4","last_reported":1751555518,"current_range_meters":16800,"station_id":"ce4bhch2rcd13ifvqeug","pricing_plan_id":"cebpf4jnsgd1na2vs0mg"},{"bike_id":"47c7e6b6-def5-455b-8707-d3cbebfd8666","system_id":"levelo_inurba_marseille","lat":43.26184,"lon":5.37451,"is_reserved":false,"is_disabled":false,"rental_uris":{"android":"levelo://app?vid=47c7e6b6-def5-455b-8707-d3cbebfd8666","ios":"levelo://app?vid=47c7e6b6-def5-455b-8707-d3cbebfd8666"},"vehicle_type_id":"4","last_reported":1751555518,"current_range_meters":16800,"station_id":"ce4bhgp2rcd13ifvqfc0","pricing_plan_id":"cebpf4jnsgd1na2vs0mg"},{"bike_id":"6ee47da4-9cb7-4584-be45-580a2eecea99","system_id":"levelo_inurba_marseille","lat":43.25496,"lon":5.37654,"is_reserved":false,"is_disabled":false,"rental_uris":{"android":"levelo://app?vid=6ee47da4-9cb7-4584-be45-580a2eecea99","ios":"levelo://app?vid=6ee47da4-9cb7-4584-be45-580a2eecea99"},"vehicle_type_id":"4","last_reported":1751555518,"current_range_meters":16800,"station_id":"ce4bhh12rcd13ifvqff0","pricing_plan_id":"cebpf4jnsgd1na2vs0mg"},{"bike_id":"57e84e33-8ef2-49b0-9c52-2dd89adcc82a","system_id":"levelo_inurba_marseille","lat":43.23148,"lon":5.4372,"is_reserved":false,"is_disabled":false,"rental_uris":{"android":"levelo://app?vid=57e84e33-8ef2-49b0-9c52-2dd89adcc82a","ios":"levelo://app?vid=57e84e33-8ef2-49b0-9c52-2dd89adcc82a"},"vehicle_type_id":"4","last_reported":1751555518,"current_range_meters":16800,"station_id":"ce4bhmp2rcd13ifvqgog","pricing_plan_id":"cebpf4jnsgd1na2vs0mg"},{"bike_id":"dfbce5f2-d4be-4fb4-b96e-89f73ba79196","system_id":"levelo_inurba_marseille","lat":43.21188,"lon":5.35073,"is_reserved":false,"is_disabled":false,"rental_uris":{"android":"levelo://app?vid=dfbce5f2-d4be-4fb4-b96e-89f73ba79196","ios":"levelo://app?vid=dfbce5f2-d4be-4fb4-b96e-89f73ba79196"},"vehicle_type_id":"4","last_reported":1751555518,"current_range_meters":16800,"station_id":"st_cvj6sg6p6f1abm77japg","pricing_plan_id":"cebpf4jnsgd1na2vs0mg"},{"bike_id":"e7f8da23-27f5-4545-bb27-21833430a3ce","system_id":"levelo_inurba_marseille","lat":43.29593,"lon":5.39966,"is_reserved":false,"is_disabled":false,"rental_uris":{"android":"levelo://app?vid=e7f8da23-27f5-4545-bb27-21833430a3ce","ios":"levelo://app?vid=e7f8da23-27f5-4545-bb27-21833430a3ce"},"vehicle_type_id":"4","last_reported":1751555518,"current_range_meters":17200,"station_id":"ce4bh312rcd13ifvqdj0","pricing_plan_id":"cebpf4jnsgd1na2vs0mg"},{"bike_id":"efd39573-3e62-4943-bd41-7a5e046acff7","system_id":"levelo_inurba_marseille","lat":43.27357,"lon":5.36226,"is_reserved":false,"is_disabled":false,"rental_uris":{"android":"levelo://app?vid=efd39573-3e62-4943-bd41-7a5e046acff7","ios":"levelo://app?vid=efd39573-3e62-4943-bd41-7a5e046acff7"},"vehicle_type_id":"4","last_reported":1751555518,"current_range_meters":17200,"station_id":"ce4bhbh2rcd13ifvqeo0","pricing_plan_id":"cebpf4jnsgd1na2vs0mg"},{"bike_id":"7ab1a795-ce92-4d6c-a196-1a8646dda6f4","system_id":"levelo_inurba_marseille","lat":43.28412,"lon":5.34996,"is_reserved":false,"is_disabled":false,"rental_uris":{"android":"levelo://app?vid=7ab1a795-ce92-4d6c-a196-1a8646dda6f4","ios":"levelo://app?vid=7ab1a795-ce92-4d6c-a196-1a8646dda6f4"},"vehicle_type_id":"4","last_reported":1751555518,"current_range_meters":17200,"station_id":"ce4bhbh2rcd13ifvqepg","pricing_plan_id":"cebpf4jnsgd1na2vs0mg"},{"bike_id":"7e21e8f2-09c8-4cc5-8113-278ebd23888d","system_id":"levelo_inurba_marseille","lat":43.2119,"lon":5.35099,"is_reserved":false,"is_disabled":false,"rental_uris":{"android":"levelo://app?vid=7e21e8f2-09c8-4cc5-8113-278ebd23888d","ios":"levelo://app?vid=7e21e8f2-09c8-4cc5-8113-278ebd23888d"},"vehicle_type_id":"4","last_reported":1751555518,"current_range_meters":17200,"station_id":"st_cvj6sg6p6f1abm77japg","pricing_plan_id":"cebpf4jnsgd1na2vs0mg"},{"bike_id":"cc04118e-9312-4bf8-9106-d64e829afbaa","system_id":"levelo_inurba_marseille","lat":43.21203,"lon":5.350708,"is_reserved":false,"is_disabled":false,"rental_uris":{"android":"levelo://app?vid=cc04118e-9312-4bf8-9106-d64e829afbaa","ios":"levelo://app?vid=cc04118e-9312-4bf8-9106-d64e829afbaa"},"vehicle_type_id":"4","last_reported":1751555518,"current_range_meters":17200,"station_id":"st_cvj6sg6p6f1abm77japg","pricing_plan_id":"cebpf4jnsgd1na2vs0mg"},{"bike_id":"0c5e46df-9adb-4aa5-842c-17a1961c0106","system_id":"levelo_inurba_marseille","lat":43.27988,"lon":5.40716,"is_reserved":false,"is_disabled":false,"rental_uris":{"android":"levelo://app?vid=0c5e46df-9adb-4aa5-842c-17a1961c0106","ios":"levelo://app?vid=0c5e46df-9adb-4aa5-842c-17a1961c0106"},"vehicle_type_id":"4","last_reported":1751555518,"current_range_meters":17600,"station_id":"","pricing_plan_id":"cebpf4jnsgd1na2vs0mg"},{"bike_id":"072c1623-0cde-4bde-882e-9ebd9afe837d","system_id":"levelo_inurba_marseille","lat":43.2313,"lon":5.43748,"is_reserved":false,"is_disabled":false,"rental_uris":{"android":"levelo://app?vid=072c1623-0cde-4bde-882e-9ebd9afe837d","ios":"levelo://app?vid=072c1623-0cde-4bde-882e-9ebd9afe837d"},"vehicle_type_id":"4","last_reported":1751555518,"current_range_meters":17600,"station_id":"","pricing_plan_id":"cebpf4jnsgd1na2vs0mg"},{"bike_id":"5598d938-8bfc-4250-bd61-6a56a6c0876b","system_id":"levelo_inurba_marseille","lat":43.273713,"lon":5.362633,"is_reserved":false,"is_disabled":false,"rental_uris":{"android":"levelo://app?vid=5598d938-8bfc-4250-bd61-6a56a6c0876b","ios":"levelo://app?vid=5598d938-8bfc-4250-bd61-6a56a6c0876b"},"vehicle_type_id":"4","last_reported":1751555518,"current_range_meters":17600,"station_id":"ce4bhbh2rcd13ifvqeo0","pricing_plan_id":"cebpf4jnsgd1na2vs0mg"},{"bike_id":"208f3ca8-5ae1-4afa-bf93-2fb945fa389b","system_id":"levelo_inurba_marseille","lat":43.23054,"lon":5.35501,"is_reserved":false,"is_disabled":false,"rental_uris":{"android":"levelo://app?vid=208f3ca8-5ae1-4afa-bf93-2fb945fa389b","ios":"levelo://app?vid=208f3ca8-5ae1-4afa-bf93-2fb945fa389b"},"vehicle_type_id":"4","last_reported":1751555518,"current_range_meters":17600,"station_id":"cpo3342slgdg3j2ifvpg","pricing_plan_id":"cebpf4jnsgd1na2vs0mg"},{"bike_id":"04e6c422-f573-4b46-85ae-d31c2fc5977b","system_id":"levelo_inurba_marseille","lat":43.24167,"lon":5.36402,"is_reserved":false,"is_disabled":false,"rental_uris":{"android":"levelo://app?vid=04e6c422-f573-4b46-85ae-d31c2fc5977b","ios":"levelo://app?vid=04e6c422-f573-4b46-85ae-d31c2fc5977b"},"vehicle_type_id":"4","last_reported":1751555518,"current_range_meters":17600,"station_id":"cpo36qri1sfpv3e86is0","pricing_plan_id":"cebpf4jnsgd1na2vs0mg"},{"bike_id":"5e197122-e8ec-4f01-b370-6bbfc10c6950","system_id":"levelo_inurba_marseille","lat":43.21191,"lon":5.35065,"is_reserved":false,"is_disabled":false,"rental_uris":{"android":"levelo://app?vid=5e197122-e8ec-4f01-b370-6bbfc10c6950","ios":"levelo://app?vid=5e197122-e8ec-4f01-b370-6bbfc10c6950"},"vehicle_type_id":"4","last_reported":1751555518,"current_range_meters":17600,"station_id":"st_cvj6sg6p6f1abm77japg","pricing_plan_id":"cebpf4jnsgd1na2vs0mg"},{"bike_id":"1c8ab180-05fd-405f-9922-b2b2c2d5142f","system_id":"levelo_inurba_marseille","lat":43.33786,"lon":5.38144,"is_reserved":false,"is_disabled":false,"rental_uris":{"android":"levelo://app?vid=1c8ab180-05fd-405f-9922-b2b2c2d5142f","ios":"levelo://app?vid=1c8ab180-05fd-405f-9922-b2b2c2d5142f"},"vehicle_type_id":"4","last_reported":1751555518,"current_range_meters":18000,"station_id":"","pricing_plan_id":"cebpf4jnsgd1na2vs0mg"},{"bike_id":"30ca0d0f-8e36-4ecd-898f-271c6b5bce6a","system_id":"levelo_inurba_marseille","lat":43.29708,"lon":5.36579,"is_reserved":false,"is_disabled":false,"rental_uris":{"android":"levelo://app?vid=30ca0d0f-8e36-4ecd-898f-271c6b5bce6a","ios":"levelo://app?vid=30ca0d0f-8e36-4ecd-898f-271c6b5bce6a"},"vehicle_type_id":"4","last_reported":1751555518,"current_range_meters":18000,"station_id":"ce4bgn12rcd13ifvqbt0","pricing_plan_id":"cebpf4jnsgd1na2vs0mg"},{"bike_id":"91b6fe71-f13f-45ea-9934-d946f6029c9a","system_id":"levelo_inurba_marseille","lat":43.27377,"lon":5.36256,"is_reserved":false,"is_disabled":false,"rental_uris":{"android":"levelo://app?vid=91b6fe71-f13f-45ea-9934-d946f6029c9a","ios":"levelo://app?vid=91b6fe71-f13f-45ea-9934-d946f6029c9a"},"vehicle_type_id":"4","last_reported":1751555518,"current_range_meters":18000,"station_id":"ce4bhbh2rcd13ifvqeo0","pricing_plan_id":"cebpf4jnsgd1na2vs0mg"},{"bike_id":"b35c913a-6b27-4cc6-9ebb-fdd74d5d7c59","system_id":"levelo_inurba_marseille","lat":43.28409,"lon":5.3502,"is_reserved":false,"is_disabled":false,"rental_uris":{"android":"levelo://app?vid=b35c913a-6b27-4cc6-9ebb-fdd74d5d7c59","ios":"levelo://app?vid=b35c913a-6b27-4cc6-9ebb-fdd74d5d7c59"},"vehicle_type_id":"4","last_reported":1751555518,"current_range_meters":18000,"station_id":"ce4bhbh2rcd13ifvqepg","pricing_plan_id":"cebpf4jnsgd1na2vs0mg"},{"bike_id":"14ecf157-0e2a-4d14-860f-77ba787d04dc","system_id":"levelo_inurba_marseille","lat":43.28616,"lon":5.35103,"is_reserved":false,"is_disabled":false,"rental_uris":{"android":"levelo://app?vid=14ecf157-0e2a-4d14-860f-77ba787d04dc","ios":"levelo://app?vid=14ecf157-0e2a-4d14-860f-77ba787d04dc"},"vehicle_type_id":"4","last_reported":1751555518,"current_range_meters":18000,"station_id":"ce4bhch2rcd13ifvqeug","pricing_plan_id":"cebpf4jnsgd1na2vs0mg"},{"bike_id":"d2207051-380d-44a6-b551-18362ab8ad18","system_id":"levelo_inurba_marseille","lat":43.26558,"lon":5.37283,"is_reserved":false,"is_disabled":false,"rental_uris":{"android":"levelo://app?vid=d2207051-380d-44a6-b551-18362ab8ad18","ios":"levelo://app?vid=d2207051-380d-44a6-b551-18362ab8ad18"},"vehicle_type_id":"4","last_reported":1751555518,"current_range_meters":18000,"station_id":"ce4bhg12rcd13ifvqf70","pricing_plan_id":"cebpf4jnsgd1na2vs0mg"},{"bike_id":"55aa929b-2db6-4ab6-8121-df233a47781a","system_id":"levelo_inurba_marseille","lat":43.26215,"lon":5.37441,"is_reserved":false,"is_disabled":false,"rental_uris":{"android":"levelo://app?vid=55aa929b-2db6-4ab6-8121-df233a47781a","ios":"levelo://app?vid=55aa929b-2db6-4ab6-8121-df233a47781a"},"vehicle_type_id":"4","last_reported":1751555518,"current_range_meters":18000,"station_id":"ce4bhgp2rcd13ifvqfc0","pricing_plan_id":"cebpf4jnsgd1na2vs0mg"},{"bike_id":"085a9b83-3f84-40f5-9e64-5af9b3d60f63","system_id":"levelo_inurba_marseille","lat":43.298964,"lon":5.436604,"is_reserved":false,"is_disabled":false,"rental_uris":{"android":"levelo://app?vid=085a9b83-3f84-40f5-9e64-5af9b3d60f63","ios":"levelo://app?vid=085a9b83-3f84-40f5-9e64-5af9b3d60f63"},"vehicle_type_id":"4","last_reported":1751555518,"current_range_meters":18000,"station_id":"ce4bhpp2rcd13ifvqhfg","pricing_plan_id":"cebpf4jnsgd1na2vs0mg"},{"bike_id":"046a7880-e7ac-4e6a-a802-d0f574715c6b","system_id":"levelo_inurba_marseille","lat":43.330184,"lon":5.390243,"is_reserved":false,"is_disabled":false,"rental_uris":{"android":"levelo://app?vid=046a7880-e7ac-4e6a-a802-d0f574715c6b","ios":"levelo://app?vid=046a7880-e7ac-4e6a-a802-d0f574715c6b"},"vehicle_type_id":"4","last_reported":1751555518,"current_range_meters":18000,"station_id":"ce4bhr92rcd13ifvqhrg","pricing_plan_id":"cebpf4jnsgd1na2vs0mg"},{"bike_id":"5ecbe7d9-b835-47e3-87d6-0fd67017673c","system_id":"levelo_inurba_marseille","lat":43.32106,"lon":5.36774,"is_reserved":false,"is_disabled":false,"rental_uris":{"android":"levelo://app?vid=5ecbe7d9-b835-47e3-87d6-0fd67017673c","ios":"levelo://app?vid=5ecbe7d9-b835-47e3-87d6-0fd67017673c"},"vehicle_type_id":"4","last_reported":1751555518,"current_range_meters":18000,"station_id":"ce4bhrh2rcd13ifvqhug","pricing_plan_id":"cebpf4jnsgd1na2vs0mg"},{"bike_id":"076c3d66-e5ad-4afa-9a54-22c0e2ed0417","system_id":"levelo_inurba_marseille","lat":43.2417,"lon":5.36399,"is_reserved":false,"is_disabled":false,"rental_uris":{"android":"levelo://app?vid=076c3d66-e5ad-4afa-9a54-22c0e2ed0417","ios":"levelo://app?vid=076c3d66-e5ad-4afa-9a54-22c0e2ed0417"},"vehicle_type_id":"4","last_reported":1751555518,"current_range_meters":18000,"station_id":"cpo36qri1sfpv3e86is0","pricing_plan_id":"cebpf4jnsgd1na2vs0mg"},{"bike_id":"d3bdb41c-8b0a-446d-98af-e6de2988fc13","system_id":"levelo_inurba_marseille","lat":43.22511,"lon":5.34816,"is_reserved":false,"is_disabled":false,"rental_uris":{"android":"levelo://app?vid=d3bdb41c-8b0a-446d-98af-e6de2988fc13","ios":"levelo://app?vid=d3bdb41c-8b0a-446d-98af-e6de2988fc13"},"vehicle_type_id":"4","last_reported":1751555518,"current_range_meters":18000,"station_id":"st_cvj5dfep6f1abm77gieg","pricing_plan_id":"cebpf4jnsgd1na2vs0mg"},{"bike_id":"5f1e5526-9ff8-4075-8194-48a897f058b4","system_id":"levelo_inurba_marseille","lat":43.21224,"lon":5.3509,"is_reserved":false,"is_disabled":false,"rental_uris":{"android":"levelo://app?vid=5f1e5526-9ff8-4075-8194-48a897f058b4","ios":"levelo://app?vid=5f1e5526-9ff8-4075-8194-48a897f058b4"},"vehicle_type_id":"4","last_reported":1751555518,"current_range_meters":18000,"station_id":"st_cvj6sg6p6f1abm77japg","pricing_plan_id":"cebpf4jnsgd1na2vs0mg"},{"bike_id":"079f7e20-f021-4ead-8d07-09f38b53525d","system_id":"levelo_inurba_marseille","lat":43.304323,"lon":5.3889,"is_reserved":false,"is_disabled":false,"rental_uris":{"android":"levelo://app?vid=079f7e20-f021-4ead-8d07-09f38b53525d","ios":"levelo://app?vid=079f7e20-f021-4ead-8d07-09f38b53525d"},"vehicle_type_id":"4","last_reported":1751555518,"current_range_meters":18800,"station_id":"ce4bgk12rcd13ifvqbi0","pricing_plan_id":"cebpf4jnsgd1na2vs0mg"},{"bike_id":"81cafd21-aeba-4e14-a8bd-5a2254e68a09","system_id":"levelo_inurba_marseille","lat":43.29261,"lon":5.40907,"is_reserved":false,"is_disabled":false,"rental_uris":{"android":"levelo://app?vid=81cafd21-aeba-4e14-a8bd-5a2254e68a09","ios":"levelo://app?vid=81cafd21-aeba-4e14-a8bd-5a2254e68a09"},"vehicle_type_id":"4","last_reported":1751555518,"current_range_meters":18800,"station_id":"ce4bh192rcd13ifvqdc0","pricing_plan_id":"cebpf4jnsgd1na2vs0mg"},{"bike_id":"d429a6d2-87d6-4a18-b49b-b3345bf715b4","system_id":"levelo_inurba_marseille","lat":43.28618,"lon":5.35107,"is_reserved":false,"is_disabled":false,"rental_uris":{"android":"levelo://app?vid=d429a6d2-87d6-4a18-b49b-b3345bf715b4","ios":"levelo://app?vid=d429a6d2-87d6-4a18-b49b-b3345bf715b4"},"vehicle_type_id":"4","last_reported":1751555518,"current_range_meters":18800,"station_id":"ce4bhch2rcd13ifvqeug","pricing_plan_id":"cebpf4jnsgd1na2vs0mg"},{"bike_id":"f4ec7cdf-07e1-45ef-b9a0-9719d9d3492c","system_id":"levelo_inurba_marseille","lat":43.230635,"lon":5.35495,"is_reserved":false,"is_disabled":false,"rental_uris":{"android":"levelo://app?vid=f4ec7cdf-07e1-45ef-b9a0-9719d9d3492c","ios":"levelo://app?vid=f4ec7cdf-07e1-45ef-b9a0-9719d9d3492c"},"vehicle_type_id":"4","last_reported":1751555518,"current_range_meters":18800,"station_id":"cpo3342slgdg3j2ifvpg","pricing_plan_id":"cebpf4jnsgd1na2vs0mg"},{"bike_id":"32c0fc37-6823-41d0-9497-8d1eea24742c","system_id":"levelo_inurba_marseille","lat":43.241701,"lon":5.364011,"is_reserved":false,"is_disabled":false,"rental_uris":{"android":"levelo://app?vid=32c0fc37-6823-41d0-9497-8d1eea24742c","ios":"levelo://app?vid=32c0fc37-6823-41d0-9497-8d1eea24742c"},"vehicle_type_id":"4","last_reported":1751555518,"current_range_meters":18800,"station_id":"cpo36qri1sfpv3e86is0","pricing_plan_id":"cebpf4jnsgd1na2vs0mg"},{"bike_id":"ba926bfc-9632-4680-b0ed-32a040d6fb83","system_id":"levelo_inurba_marseille","lat":43.21757,"lon":5.34608,"is_reserved":false,"is_disabled":false,"rental_uris":{"android":"levelo://app?vid=ba926bfc-9632-4680-b0ed-32a040d6fb83","ios":"levelo://app?vid=ba926bfc-9632-4680-b0ed-32a040d6fb83"},"vehicle_type_id":"4","last_reported":1751555518,"current_range_meters":18800,"station_id":"st_cvj6r9ubvosntc0bgbag","pricing_plan_id":"cebpf4jnsgd1na2vs0mg"},{"bike_id":"b13877a6-4825-4d82-b46b-67fa8ad66c5d","system_id":"levelo_inurba_marseille","lat":43.211936,"lon":5.350665,"is_reserved":false,"is_disabled":false,"rental_uris":{"android":"levelo://app?vid=b13877a6-4825-4d82-b46b-67fa8ad66c5d","ios":"levelo://app?vid=b13877a6-4825-4d82-b46b-67fa8ad66c5d"},"vehicle_type_id":"4","last_reported":1751555518,"current_range_meters":18800,"station_id":"st_cvj6sg6p6f1abm77japg","pricing_plan_id":"cebpf4jnsgd1na2vs0mg"},{"bike_id":"7712491c-e18b-4b09-bb79-30880b357c07","system_id":"levelo_inurba_marseille","lat":43.21203,"lon":5.35068,"is_reserved":false,"is_disabled":false,"rental_uris":{"android":"levelo://app?vid=7712491c-e18b-4b09-bb79-30880b357c07","ios":"levelo://app?vid=7712491c-e18b-4b09-bb79-30880b357c07"},"vehicle_type_id":"4","last_reported":1751555518,"current_range_meters":18800,"station_id":"st_cvj6sg6p6f1abm77japg","pricing_plan_id":"cebpf4jnsgd1na2vs0mg"},{"bike_id":"a2619cf1-900a-44be-9201-a33b9d219ee3","system_id":"levelo_inurba_marseille","lat":43.295227,"lon":5.385401,"is_reserved":false,"is_disabled":false,"rental_uris":{"android":"levelo://app?vid=a2619cf1-900a-44be-9201-a33b9d219ee3","ios":"levelo://app?vid=a2619cf1-900a-44be-9201-a33b9d219ee3"},"vehicle_type_id":"4","last_reported":1751555518,"current_range_meters":19200,"station_id":"ce4bgih2rcd13ifvqba0","pricing_plan_id":"cebpf4jnsgd1na2vs0mg"},{"bike_id":"03b2e043-1035-4c63-9aad-797b1fe9c288","system_id":"levelo_inurba_marseille","lat":43.282654,"lon":5.350543,"is_reserved":false,"is_disabled":false,"rental_uris":{"android":"levelo://app?vid=03b2e043-1035-4c63-9aad-797b1fe9c288","ios":"levelo://app?vid=03b2e043-1035-4c63-9aad-797b1fe9c288"},"vehicle_type_id":"4","last_reported":1751555518,"current_range_meters":19200,"station_id":"ce4bhbp2rcd13ifvqerg","pricing_plan_id":"cebpf4jnsgd1na2vs0mg"},{"bike_id":"82833d66-b3e3-4058-aab3-3fb5aea7fa74","system_id":"levelo_inurba_marseille","lat":43.24384,"lon":5.37058,"is_reserved":false,"is_disabled":false,"rental_uris":{"android":"levelo://app?vid=82833d66-b3e3-4058-aab3-3fb5aea7fa74","ios":"levelo://app?vid=82833d66-b3e3-4058-aab3-3fb5aea7fa74"},"vehicle_type_id":"4","last_reported":1751555518,"current_range_meters":19200,"station_id":"ce4bhhh2rcd13ifvqfk0","pricing_plan_id":"cebpf4jnsgd1na2vs0mg"},{"bike_id":"8ebb3308-52b2-4f28-8194-405c6c3b79bd","system_id":"levelo_inurba_marseille","lat":43.30351,"lon":5.41877,"is_reserved":false,"is_disabled":false,"rental_uris":{"android":"levelo://app?vid=8ebb3308-52b2-4f28-8194-405c6c3b79bd","ios":"levelo://app?vid=8ebb3308-52b2-4f28-8194-405c6c3b79bd"},"vehicle_type_id":"4","last_reported":1751555518,"current_range_meters":19200,"station_id":"ce4bhop2rcd13ifvqh7g","pricing_plan_id":"cebpf4jnsgd1na2vs0mg"},{"bike_id":"08e81811-c9ab-430d-a98b-a4424b37dd49","system_id":"levelo_inurba_marseille","lat":43.2957,"lon":5.42289,"is_reserved":false,"is_disabled":false,"rental_uris":{"android":"levelo://app?vid=08e81811-c9ab-430d-a98b-a4424b37dd49","ios":"levelo://app?vid=08e81811-c9ab-430d-a98b-a4424b37dd49"},"vehicle_type_id":"4","last_reported":1751555518,"current_range_meters":19200,"station_id":"ce4bhph2rcd13ifvqhdg","pricing_plan_id":"cebpf4jnsgd1na2vs0mg"},{"bike_id":"d5ef770d-9759-47e3-b3a5-7d2785ef76db","system_id":"levelo_inurba_marseille","lat":43.33024,"lon":5.39046,"is_reserved":false,"is_disabled":false,"rental_uris":{"android":"levelo://app?vid=d5ef770d-9759-47e3-b3a5-7d2785ef76db","ios":"levelo://app?vid=d5ef770d-9759-47e3-b3a5-7d2785ef76db"},"vehicle_type_id":"4","last_reported":1751555518,"current_range_meters":19200,"station_id":"ce4bhr92rcd13ifvqhrg","pricing_plan_id":"cebpf4jnsgd1na2vs0mg"},{"bike_id":"b29e6e1b-dc12-4e23-a724-1dbf28cc08b7","system_id":"levelo_inurba_marseille","lat":43.24169,"lon":5.36396,"is_reserved":false,"is_disabled":false,"rental_uris":{"android":"levelo://app?vid=b29e6e1b-dc12-4e23-a724-1dbf28cc08b7","ios":"levelo://app?vid=b29e6e1b-dc12-4e23-a724-1dbf28cc08b7"},"vehicle_type_id":"4","last_reported":1751555518,"current_range_meters":19200,"station_id":"cpo36qri1sfpv3e86is0","pricing_plan_id":"cebpf4jnsgd1na2vs0mg"},{"bike_id":"4d7d0e67-4e2a-4d1d-a833-b5acfb4e2b86","system_id":"levelo_inurba_marseille","lat":43.21754,"lon":5.34601,"is_reserved":false,"is_disabled":false,"rental_uris":{"android":"levelo://app?vid=4d7d0e67-4e2a-4d1d-a833-b5acfb4e2b86","ios":"levelo://app?vid=4d7d0e67-4e2a-4d1d-a833-b5acfb4e2b86"},"vehicle_type_id":"4","last_reported":1751555518,"current_range_meters":19200,"station_id":"st_cvj6r9ubvosntc0bgbag","pricing_plan_id":"cebpf4jnsgd1na2vs0mg"},{"bike_id":"39fa5f31-4afa-4271-a36e-400e3970d6f0","system_id":"levelo_inurba_marseille","lat":43.30381,"lon":5.37688,"is_reserved":false,"is_disabled":false,"rental_uris":{"android":"levelo://app?vid=39fa5f31-4afa-4271-a36e-400e3970d6f0","ios":"levelo://app?vid=39fa5f31-4afa-4271-a36e-400e3970d6f0"},"vehicle_type_id":"4","last_reported":1751555518,"current_range_meters":19600,"station_id":"","pricing_plan_id":"cebpf4jnsgd1na2vs0mg"},{"bike_id":"09a99f33-1b62-4980-a40d-2999d100d2ff","system_id":"levelo_inurba_marseille","lat":43.28469,"lon":5.39515,"is_reserved":false,"is_disabled":false,"rental_uris":{"android":"levelo://app?vid=09a99f33-1b62-4980-a40d-2999d100d2ff","ios":"levelo://app?vid=09a99f33-1b62-4980-a40d-2999d100d2ff"},"vehicle_type_id":"4","last_reported":1751555518,"current_range_meters":19600,"station_id":"","pricing_plan_id":"cebpf4jnsgd1na2vs0mg"},{"bike_id":"9f444fe0-6246-47ea-a476-f6337afb0862","system_id":"levelo_inurba_marseille","lat":43.29705,"lon":5.37707,"is_reserved":false,"is_disabled":false,"rental_uris":{"android":"levelo://app?vid=9f444fe0-6246-47ea-a476-f6337afb0862","ios":"levelo://app?vid=9f444fe0-6246-47ea-a476-f6337afb0862"},"vehicle_type_id":"4","last_reported":1751555518,"current_range_meters":19600,"station_id":"ce4bgkh2rcd13ifvqbl0","pricing_plan_id":"cebpf4jnsgd1na2vs0mg"},{"bike_id":"a36f25b7-8b5a-4c79-a67f-b260a9c60703","system_id":"levelo_inurba_marseille","lat":43.29976,"lon":5.37175,"is_reserved":false,"is_disabled":false,"rental_uris":{"android":"levelo://app?vid=a36f25b7-8b5a-4c79-a67f-b260a9c60703","ios":"levelo://app?vid=a36f25b7-8b5a-4c79-a67f-b260a9c60703"},"vehicle_type_id":"4","last_reported":1751555518,"current_range_meters":19600,"station_id":"ce4bgr92rcd13ifvqc7g","pricing_plan_id":"cebpf4jnsgd1na2vs0mg"},{"bike_id":"82a0f302-9e06-4d9d-bb97-5cf6791d2be7","system_id":"levelo_inurba_marseille","lat":43.28463,"lon":5.35887,"is_reserved":false,"is_disabled":false,"rental_uris":{"android":"levelo://app?vid=82a0f302-9e06-4d9d-bb97-5cf6791d2be7","ios":"levelo://app?vid=82a0f302-9e06-4d9d-bb97-5cf6791d2be7"},"vehicle_type_id":"4","last_reported":1751555518,"current_range_meters":19600,"station_id":"ce4bhah2rcd13ifvqei0","pricing_plan_id":"cebpf4jnsgd1na2vs0mg"},{"bike_id":"d6e4beea-9eae-48fa-a170-61b877438408","system_id":"levelo_inurba_marseille","lat":43.28267,"lon":5.3507,"is_reserved":false,"is_disabled":false,"rental_uris":{"android":"levelo://app?vid=d6e4beea-9eae-48fa-a170-61b877438408","ios":"levelo://app?vid=d6e4beea-9eae-48fa-a170-61b877438408"},"vehicle_type_id":"4","last_reported":1751555518,"current_range_meters":19600,"station_id":"ce4bhbp2rcd13ifvqerg","pricing_plan_id":"cebpf4jnsgd1na2vs0mg"},{"bike_id":"4b8da722-ee9e-48a4-a5e5-3a8a10364708","system_id":"levelo_inurba_marseille","lat":43.31228,"lon":5.37797,"is_reserved":false,"is_disabled":false,"rental_uris":{"android":"levelo://app?vid=4b8da722-ee9e-48a4-a5e5-3a8a10364708","ios":"levelo://app?vid=4b8da722-ee9e-48a4-a5e5-3a8a10364708"},"vehicle_type_id":"4","last_reported":1751555518,"current_range_meters":20000,"station_id":"","pricing_plan_id":"cebpf4jnsgd1na2vs0mg"},{"bike_id":"63acad33-6ce0-4879-bb8b-7b4910bd10f3","system_id":"levelo_inurba_marseille","lat":43.24713,"lon":5.41238,"is_reserved":false,"is_disabled":false,"rental_uris":{"android":"levelo://app?vid=63acad33-6ce0-4879-bb8b-7b4910bd10f3","ios":"levelo://app?vid=63acad33-6ce0-4879-bb8b-7b4910bd10f3"},"vehicle_type_id":"4","last_reported":1751555518,"current_range_meters":20000,"station_id":"","pricing_plan_id":"cebpf4jnsgd1na2vs0mg"},{"bike_id":"df98a761-f2a8-42a1-92ed-0b793f9e1b54","system_id":"levelo_inurba_marseille","lat":43.29874,"lon":5.39729,"is_reserved":false,"is_disabled":false,"rental_uris":{"android":"levelo://app?vid=df98a761-f2a8-42a1-92ed-0b793f9e1b54","ios":"levelo://app?vid=df98a761-f2a8-42a1-92ed-0b793f9e1b54"},"vehicle_type_id":"4","last_reported":1751555518,"current_range_meters":20000,"station_id":"ce4bh0h2rcd13ifvqd50","pricing_plan_id":"cebpf4jnsgd1na2vs0mg"},{"bike_id":"833bb9ff-7b15-4a8e-91f3-ff216ef28553","system_id":"levelo_inurba_marseille","lat":43.316876,"lon":5.374842,"is_reserved":false,"is_disabled":false,"rental_uris":{"android":"levelo://app?vid=833bb9ff-7b15-4a8e-91f3-ff216ef28553","ios":"levelo://app?vid=833bb9ff-7b15-4a8e-91f3-ff216ef28553"},"vehicle_type_id":"4","last_reported":1751555518,"current_range_meters":20400,"station_id":"","pricing_plan_id":"cebpf4jnsgd1na2vs0mg"},{"bike_id":"bdcb5287-cab4-4ae5-8571-bd20e083a3c2","system_id":"levelo_inurba_marseille","lat":43.30348,"lon":5.37884,"is_reserved":false,"is_disabled":false,"rental_uris":{"android":"levelo://app?vid=bdcb5287-cab4-4ae5-8571-bd20e083a3c2","ios":"levelo://app?vid=bdcb5287-cab4-4ae5-8571-bd20e083a3c2"},"vehicle_type_id":"4","last_reported":1751555518,"current_range_meters":20400,"station_id":"","pricing_plan_id":"cebpf4jnsgd1na2vs0mg"},{"bike_id":"7ac510a6-907d-4497-8ef4-8084e820f9fa","system_id":"levelo_inurba_marseille","lat":43.28621,"lon":5.35124,"is_reserved":false,"is_disabled":false,"rental_uris":{"android":"levelo://app?vid=7ac510a6-907d-4497-8ef4-8084e820f9fa","ios":"levelo://app?vid=7ac510a6-907d-4497-8ef4-8084e820f9fa"},"vehicle_type_id":"4","last_reported":1751555518,"current_range_meters":20400,"station_id":"ce4bhch2rcd13ifvqeug","pricing_plan_id":"cebpf4jnsgd1na2vs0mg"},{"bike_id":"1d3b13bd-6a34-4c5b-911c-09adec753d99","system_id":"levelo_inurba_marseille","lat":43.30877,"lon":5.39606,"is_reserved":false,"is_disabled":false,"rental_uris":{"android":"levelo://app?vid=1d3b13bd-6a34-4c5b-911c-09adec753d99","ios":"levelo://app?vid=1d3b13bd-6a34-4c5b-911c-09adec753d99"},"vehicle_type_id":"4","last_reported":1751555518,"current_range_meters":20800,"station_id":"","pricing_plan_id":"cebpf4jnsgd1na2vs0mg"},{"bike_id":"87e6f394-0532-4dc0-b74a-a1c95468ae49","system_id":"levelo_inurba_marseille","lat":43.29263,"lon":5.38438,"is_reserved":false,"is_disabled":false,"rental_uris":{"android":"levelo://app?vid=87e6f394-0532-4dc0-b74a-a1c95468ae49","ios":"levelo://app?vid=87e6f394-0532-4dc0-b74a-a1c95468ae49"},"vehicle_type_id":"4","last_reported":1751555518,"current_range_meters":20800,"station_id":"ce4bh692rcd13ifvqea0","pricing_plan_id":"cebpf4jnsgd1na2vs0mg"},{"bike_id":"2bff0257-f783-4746-b89d-5a6e98036db7","system_id":"levelo_inurba_marseille","lat":43.28422,"lon":5.34984,"is_reserved":false,"is_disabled":false,"rental_uris":{"android":"levelo://app?vid=2bff0257-f783-4746-b89d-5a6e98036db7","ios":"levelo://app?vid=2bff0257-f783-4746-b89d-5a6e98036db7"},"vehicle_type_id":"4","last_reported":1751555518,"current_range_meters":20800,"station_id":"ce4bhbh2rcd13ifvqepg","pricing_plan_id":"cebpf4jnsgd1na2vs0mg"},{"bike_id":"497afbd4-2206-4a59-b54f-b286ac057798","system_id":"levelo_inurba_marseille","lat":43.28236,"lon":5.35095,"is_reserved":false,"is_disabled":false,"rental_uris":{"android":"levelo://app?vid=497afbd4-2206-4a59-b54f-b286ac057798","ios":"levelo://app?vid=497afbd4-2206-4a59-b54f-b286ac057798"},"vehicle_type_id":"4","last_reported":1751555518,"current_range_meters":20800,"station_id":"ce4bhbp2rcd13ifvqerg","pricing_plan_id":"cebpf4jnsgd1na2vs0mg"},{"bike_id":"57837b84-1d66-48f4-bb74-560934c39d2e","system_id":"levelo_inurba_marseille","lat":43.24816,"lon":5.3745,"is_reserved":false,"is_disabled":false,"rental_uris":{"android":"levelo://app?vid=57837b84-1d66-48f4-bb74-560934c39d2e","ios":"levelo://app?vid=57837b84-1d66-48f4-bb74-560934c39d2e"},"vehicle_type_id":"4","last_reported":1751555518,"current_range_meters":20800,"station_id":"ce4bhgh2rcd13ifvqfb0","pricing_plan_id":"cebpf4jnsgd1na2vs0mg"},{"bike_id":"11734e71-eb47-43a2-84b2-a8f6008314f8","system_id":"levelo_inurba_marseille","lat":43.26214,"lon":5.37439,"is_reserved":false,"is_disabled":false,"rental_uris":{"android":"levelo://app?vid=11734e71-eb47-43a2-84b2-a8f6008314f8","ios":"levelo://app?vid=11734e71-eb47-43a2-84b2-a8f6008314f8"},"vehicle_type_id":"4","last_reported":1751555518,"current_range_meters":20800,"station_id":"ce4bhgp2rcd13ifvqfc0","pricing_plan_id":"cebpf4jnsgd1na2vs0mg"},{"bike_id":"acaea3d4-89fe-49f6-a119-3f6302ae77b1","system_id":"levelo_inurba_marseille","lat":43.29559,"lon":5.42289,"is_reserved":false,"is_disabled":false,"rental_uris":{"android":"levelo://app?vid=acaea3d4-89fe-49f6-a119-3f6302ae77b1","ios":"levelo://app?vid=acaea3d4-89fe-49f6-a119-3f6302ae77b1"},"vehicle_type_id":"4","last_reported":1751555518,"current_range_meters":20800,"station_id":"ce4bhph2rcd13ifvqhdg","pricing_plan_id":"cebpf4jnsgd1na2vs0mg"},{"bike_id":"7b3c23cf-dddd-4674-94ba-4d326508b51a","system_id":"levelo_inurba_marseille","lat":43.3205,"lon":5.4156,"is_reserved":false,"is_disabled":false,"rental_uris":{"android":"levelo://app?vid=7b3c23cf-dddd-4674-94ba-4d326508b51a","ios":"levelo://app?vid=7b3c23cf-dddd-4674-94ba-4d326508b51a"},"vehicle_type_id":"4","last_reported":1751555518,"current_range_meters":20800,"station_id":"ce4bhq92rcd13ifvqhkg","pricing_plan_id":"cebpf4jnsgd1na2vs0mg"},{"bike_id":"c13c93ac-6b62-443c-9e36-caf61b27325a","system_id":"levelo_inurba_marseille","lat":43.21195,"lon":5.3507,"is_reserved":false,"is_disabled":false,"rental_uris":{"android":"levelo://app?vid=c13c93ac-6b62-443c-9e36-caf61b27325a","ios":"levelo://app?vid=c13c93ac-6b62-443c-9e36-caf61b27325a"},"vehicle_type_id":"4","last_reported":1751555518,"current_range_meters":20800,"station_id":"st_cvj6sg6p6f1abm77japg","pricing_plan_id":"cebpf4jnsgd1na2vs0mg"},{"bike_id":"7be93d05-2405-4cfe-a0c4-c6f3670e10c7","system_id":"levelo_inurba_marseille","lat":43.21221,"lon":5.35075,"is_reserved":false,"is_disabled":false,"rental_uris":{"android":"levelo://app?vid=7be93d05-2405-4cfe-a0c4-c6f3670e10c7","ios":"levelo://app?vid=7be93d05-2405-4cfe-a0c4-c6f3670e10c7"},"vehicle_type_id":"4","last_reported":1751555518,"current_range_meters":20800,"station_id":"st_cvj6sg6p6f1abm77japg","pricing_plan_id":"cebpf4jnsgd1na2vs0mg"},{"bike_id":"8734bc42-361e-4c72-9212-27e99f10c61f","system_id":"levelo_inurba_marseille","lat":43.27388,"lon":5.4274,"is_reserved":false,"is_disabled":false,"rental_uris":{"android":"levelo://app?vid=8734bc42-361e-4c72-9212-27e99f10c61f","ios":"levelo://app?vid=8734bc42-361e-4c72-9212-27e99f10c61f"},"vehicle_type_id":"4","last_reported":1751555518,"current_range_meters":21600,"station_id":"","pricing_plan_id":"cebpf4jnsgd1na2vs0mg"},{"bike_id":"911e199f-0851-46f9-826a-028664c22fb0","system_id":"levelo_inurba_marseille","lat":43.298034,"lon":5.381123,"is_reserved":false,"is_disabled":false,"rental_uris":{"android":"levelo://app?vid=911e199f-0851-46f9-826a-028664c22fb0","ios":"levelo://app?vid=911e199f-0851-46f9-826a-028664c22fb0"},"vehicle_type_id":"4","last_reported":1751555518,"current_range_meters":21600,"station_id":"ce4bgj92rcd13ifvqbd0","pricing_plan_id":"cebpf4jnsgd1na2vs0mg"},{"bike_id":"584442e8-4a71-4781-a742-cd8099665deb","system_id":"levelo_inurba_marseille","lat":43.2762,"lon":5.36114,"is_reserved":false,"is_disabled":false,"rental_uris":{"android":"levelo://app?vid=584442e8-4a71-4781-a742-cd8099665deb","ios":"levelo://app?vid=584442e8-4a71-4781-a742-cd8099665deb"},"vehicle_type_id":"4","last_reported":1751555518,"current_range_meters":21600,"station_id":"ce4bgj92rcd13ifvqbe0","pricing_plan_id":"cebpf4jnsgd1na2vs0mg"},{"bike_id":"0cdededd-f558-4559-bfca-90d4485c9e54","system_id":"levelo_inurba_marseille","lat":43.285565,"lon":5.394655,"is_reserved":false,"is_disabled":false,"rental_uris":{"android":"levelo://app?vid=0cdededd-f558-4559-bfca-90d4485c9e54","ios":"levelo://app?vid=0cdededd-f558-4559-bfca-90d4485c9e54"},"vehicle_type_id":"4","last_reported":1751555518,"current_range_meters":21600,"station_id":"ce4bh292rcd13ifvqdg0","pricing_plan_id":"cebpf4jnsgd1na2vs0mg"},{"bike_id":"b19fcd36-7455-4819-9920-bf262ad59da2","system_id":"levelo_inurba_marseille","lat":43.27382,"lon":5.36248,"is_reserved":false,"is_disabled":false,"rental_uris":{"android":"levelo://app?vid=b19fcd36-7455-4819-9920-bf262ad59da2","ios":"levelo://app?vid=b19fcd36-7455-4819-9920-bf262ad59da2"},"vehicle_type_id":"4","last_reported":1751555518,"current_range_meters":21600,"station_id":"ce4bhbh2rcd13ifvqeo0","pricing_plan_id":"cebpf4jnsgd1na2vs0mg"},{"bike_id":"2af0d4e0-5f95-4f82-bb4a-0367e053172f","system_id":"levelo_inurba_marseille","lat":43.27374,"lon":5.36257,"is_reserved":false,"is_disabled":false,"rental_uris":{"android":"levelo://app?vid=2af0d4e0-5f95-4f82-bb4a-0367e053172f","ios":"levelo://app?vid=2af0d4e0-5f95-4f82-bb4a-0367e053172f"},"vehicle_type_id":"4","last_reported":1751555518,"current_range_meters":21600,"station_id":"ce4bhbh2rcd13ifvqeo0","pricing_plan_id":"cebpf4jnsgd1na2vs0mg"},{"bike_id":"dc09123d-ee9c-47ba-af0c-f27d6131f9e9","system_id":"levelo_inurba_marseille","lat":43.28274,"lon":5.35082,"is_reserved":false,"is_disabled":false,"rental_uris":{"android":"levelo://app?vid=dc09123d-ee9c-47ba-af0c-f27d6131f9e9","ios":"levelo://app?vid=dc09123d-ee9c-47ba-af0c-f27d6131f9e9"},"vehicle_type_id":"4","last_reported":1751555518,"current_range_meters":21600,"station_id":"ce4bhbp2rcd13ifvqerg","pricing_plan_id":"cebpf4jnsgd1na2vs0mg"},{"bike_id":"8448df16-456f-4ece-8f85-d173378c0589","system_id":"levelo_inurba_marseille","lat":43.28607,"lon":5.35103,"is_reserved":false,"is_disabled":false,"rental_uris":{"android":"levelo://app?vid=8448df16-456f-4ece-8f85-d173378c0589","ios":"levelo://app?vid=8448df16-456f-4ece-8f85-d173378c0589"},"vehicle_type_id":"4","last_reported":1751555518,"current_range_meters":21600,"station_id":"ce4bhch2rcd13ifvqeug","pricing_plan_id":"cebpf4jnsgd1na2vs0mg"},{"bike_id":"b026cb5d-429a-48e4-a0f1-08f953aafc46","system_id":"levelo_inurba_marseille","lat":43.231476,"lon":5.437176,"is_reserved":false,"is_disabled":false,"rental_uris":{"android":"levelo://app?vid=b026cb5d-429a-48e4-a0f1-08f953aafc46","ios":"levelo://app?vid=b026cb5d-429a-48e4-a0f1-08f953aafc46"},