{"last_updated":1733573818,"ttl":60,"version":"2.2","data":{"bikes":[{"bike_id":"c8756871-db35-4a3b-b691-d98d2619e332","system_id":"levelo_inurba_marseille","lat":43.23148,"lon":5.43725,"is_reserved":false,"is_disabled":false,"rental_uris":{"android":"levelo://app?vid=c8756871-db35-4a3b-b691-d98d2619e332","ios":"levelo://app?vid=c8756871-db35-4a3b-b691-d98d2619e332"},"vehicle_type_id":"4","last_reported":1733573818,"current_range_meters":39200,"station_id":"ce4bhmp2rcd13ifvqgog","pricing_plan_id":"cebpf4jnsgd1na2vs0mg"},{"bike_id":"55d7a831-40f8-4501-9bc4-264da11c1dd0","system_id":"levelo_inurba_marseille","lat":43.29278,"lon":5.40123,"is_reserved":false,"is_disabled":true,"rental_uris":{"android":"levelo://app?vid=55d7a831-40f8-4501-9bc4-264da11c1dd0","ios":"levelo://app?vid=55d7a831-40f8-4501-9bc4-264da11c1dd0"},"vehicle_type_id":"4","last_reported":1733573818,"current_range_meters":28000,"station_id":"ce4bh312rcd13ifvqdk0","pricing_plan_id":"cebpf4jnsgd1na2vs0mg"},{"bike_id":"8e029eaf-e104-4c5d-858d-6cd39de73d09","system_id":"levelo_inurba_marseille","lat":43.24172,"lon":5.364,"is_reserved":false,"is_disabled":false,"rental_uris":{"android":"levelo://app?vid=8e029eaf-e104-4c5d-858d-6cd39de73d09","ios":"levelo://app?vid=8e029eaf-e104-4c5d-858d-6cd39de73d09"},"vehicle_type_id":"4","last_reported":1733573818,"current_range_meters":33200,"station_id":"cpo36qri1sfpv3e86is0","pricing_plan_id":"cebpf4jnsgd1na2vs0mg"},{"bike_id":"0192a6b3-15e5-4eae-b145-63de25e72db7","system_id":"levelo_inurba_marseille","lat":43.30606,"lon":5.37218,"is_reserved":false,"is_disabled":false,"rental_uris":{"android":"levelo://app?vid=0192a6b3-15e5-4eae-b145-63de25e72db7","ios":"levelo://app?vid=0192a6b3-15e5-4eae-b145-63de25e72db7"},"vehicle_type_id":"4","last_reported":1733573818,"current_range_meters":31200,"station_id":"ce4bgqh2rcd13ifvqc4g","pricing_plan_id":"cebpf4jnsgd1na2vs0mg"},{"bike_id":"38d7b96b-ea49-42ac-9547-ee57fecfb84c","system_id":"levelo_inurba_marseille","lat":43.28156,"lon":5.42636,"is_reserved":false,"is_disabled":false,"rental_uris":{"android":"levelo://app?vid=38d7b96b-ea49-42ac-9547-ee57fecfb84c","ios":"levelo://app?vid=38d7b96b-ea49-42ac-9547-ee57fecfb84c"},"vehicle_type_id":"4","last_reported":1733573818,"current_range_meters":26000,"station_id":"ce4bhnh2rcd13ifvqgug","pricing_plan_id":"cebpf4jnsgd1na2vs0mg"},{"bike_id":"b1b358a9-909a-41b5-9d50-574e97fa9ae5","system_id":"levelo_inurba_marseille","lat":43.33627,"lon":5.40998,"is_reserved":false,"is_disabled":false,"rental_uris":{"android":"levelo://app?vid=b1b358a9-909a-41b5-9d50-574e97fa9ae5","ios":"levelo://app?vid=b1b358a9-909a-41b5-9d50-574e97fa9ae5"},"vehicle_type_id":"4","last_reported":1733573818,"current_range_meters":37600,"station_id":"ce4bhqh2rcd13ifvqhmg","pricing_plan_id":"cebpf4jnsgd1na2vs0mg"},{"bike_id":"e232d7ae-0864-4a70-8b5e-627ae37536a1","system_id":"levelo_inurba_marseille","lat":43.28106,"lon":5.37864,"is_reserved":false,"is_disabled":false,"rental_uris":{"android":"levelo://app?vid=e232d7ae-0864-4a70-8b5e-627ae37536a1","ios":"levelo://app?vid=e232d7ae-0864-4a70-8b5e-627ae37536a1"},"vehicle_type_id":"4","last_reported":1733573818,"current_range_meters":34000,"station_id":"ce4bha12rcd13ifvqee0","pricing_plan_id":"cebpf4jnsgd1na2vs0mg"},{"bike_id":"be407bbe-d1ce-48de-8db2-09114af9efd7","system_id":"levelo_inurba_marseille","lat":43.32363,"lon":5.36766,"is_reserved":false,"is_disabled":false,"rental_uris":{"android":"levelo://app?vid=be407bbe-d1ce-48de-8db2-09114af9efd7","ios":"levelo://app?vid=be407bbe-d1ce-48de-8db2-09114af9efd7"},"vehicle_type_id":"4","last_reported":1733573818,"current_range_meters":18800,"station_id":"ce4bhsh2rcd13ifvqi2g","pricing_plan_id":"cebpf4jnsgd1na2vs0mg"},{"bike_id":"a0210e2e-c575-4b1f-b621-333c518a96ee","system_id":"levelo_inurba_marseille","lat":43.30537,"lon":5.36543,"is_reserved":false,"is_disabled":false,"rental_uris":{"android":"levelo://app?vid=a0210e2e-c575-4b1f-b621-333c518a96ee","ios":"levelo://app?vid=a0210e2e-c575-4b1f-b621-333c518a96ee"},"vehicle_type_id":"4","last_reported":1733573818,"current_range_meters":10800,"station_id":"ce4bgs12rcd13ifvqcag","pricing_plan_id":"cebpf4jnsgd1na2vs0mg"},{"bike_id":"5fd8fda4-5ceb-4e39-b9f4-ea27acda2ce7","system_id":"levelo_inurba_marseille","lat":43.27173,"lon":5.41005,"is_reserved":false,"is_disabled":true,"rental_uris":{"android":"levelo://app?vid=5fd8fda4-5ceb-4e39-b9f4-ea27acda2ce7","ios":"levelo://app?vid=5fd8fda4-5ceb-4e39-b9f4-ea27acda2ce7"},"vehicle_type_id":"4","last_reported":1733573818,"current_range_meters":22400,"station_id":"ce4bhl12rcd13ifvqgf0","pricing_plan_id":"cebpf4jnsgd1na2vs0mg"},{"bike_id":"56c8a34d-dc6a-411d-9a11-174d05d3606f","system_id":"levelo_inurba_marseille","lat":43.28438,"lon":5.39184,"is_reserved":false,"is_disabled":false,"rental_uris":{"android":"levelo://app?vid=56c8a34d-dc6a-411d-9a11-174d05d3606f","ios":"levelo://app?vid=56c8a34d-dc6a-411d-9a11-174d05d3606f"},"vehicle_type_id":"4","last_reported":1733573818,"current_range_meters":28800,"station_id":"ce4bhoh2rcd13ifvqh5g","pricing_plan_id":"cebpf4jnsgd1na2vs0mg"},{"bike_id":"645b8c00-52de-457d-9379-b3a7be83333e","system_id":"levelo_inurba_marseille","lat":43.30886,"lon":5.39651,"is_reserved":false,"is_disabled":false,"rental_uris":{"android":"levelo://app?vid=645b8c00-52de-457d-9379-b3a7be83333e","ios":"levelo://app?vid=645b8c00-52de-457d-9379-b3a7be83333e"},"vehicle_type_id":"4","last_reported":1733573818,"current_range_meters":12000,"station_id":"ce4bh012rcd13ifvqcv0","pricing_plan_id":"cebpf4jnsgd1na2vs0mg"},{"bike_id":"8bd642b2-0279-44c7-9ee2-fc3b57332c83","system_id":"levelo_inurba_marseille","lat":43.27455,"lon":5.40073,"is_reserved":false,"is_disabled":true,"rental_uris":{"android":"levelo://app?vid=8bd642b2-0279-44c7-9ee2-fc3b57332c83","ios":"levelo://app?vid=8bd642b2-0279-44c7-9ee2-fc3b57332c83"},"vehicle_type_id":"4","last_reported":1733573818,"current_range_meters":0,"station_id":"","pricing_plan_id":"cebpf4jnsgd1na2vs0mg"},{"bike_id":"1ba46177-641d-4ff0-a14a-ae1ca364bc36","system_id":"levelo_inurba_marseille","lat":43.31717,"lon":5.4371,"is_reserved":false,"is_disabled":false,"rental_uris":{"android":"levelo://app?vid=1ba46177-641d-4ff0-a14a-ae1ca364bc36","ios":"levelo://app?vid=1ba46177-641d-4ff0-a14a-ae1ca364bc36"},"vehicle_type_id":"4","last_reported":1733573818,"current_range_meters":22000,"station_id":"ce4bhp92rcd13ifvqhcg","pricing_plan_id":"cebpf4jnsgd1na2vs0mg"},{"bike_id":"913c978b-63f8-482d-97a4-549f1b663e40","system_id":"levelo_inurba_marseille","lat":43.30538,"lon":5.3653,"is_reserved":false,"is_disabled":false,"rental_uris":{"android":"levelo://app?vid=913c978b-63f8-482d-97a4-549f1b663e40","ios":"levelo://app?vid=913c978b-63f8-482d-97a4-549f1b663e40"},"vehicle_type_id":"4","last_reported":1733573818,"current_range_meters":38800,"station_id":"ce4bgs12rcd13ifvqcag","pricing_plan_id":"cebpf4jnsgd1na2vs0mg"},{"bike_id":"d83d9dc7-ce4c-43e2-8c7d-eeda83c183ce","system_id":"levelo_inurba_marseille","lat":43.26055,"lon":5.39398,"is_reserved":false,"is_disabled":false,"rental_uris":{"android":"levelo://app?vid=d83d9dc7-ce4c-43e2-8c7d-eeda83c183ce","ios":"levelo://app?vid=d83d9dc7-ce4c-43e2-8c7d-eeda83c183ce"},"vehicle_type_id":"4","last_reported":1733573818,"current_range_meters":35200,"station_id":"ce4bhh92rcd13ifvqfj0","pricing_plan_id":"cebpf4jnsgd1na2vs0mg"},{"bike_id":"de889eed-8d4a-4ec8-95cf-050e8fdc0e98","system_id":"levelo_inurba_marseille","lat":43.255,"lon":5.3765,"is_reserved":false,"is_disabled":false,"rental_uris":{"android":"levelo://app?vid=de889eed-8d4a-4ec8-95cf-050e8fdc0e98","ios":"levelo://app?vid=de889eed-8d4a-4ec8-95cf-050e8fdc0e98"},"vehicle_type_id":"4","last_reported":1733573818,"current_range_meters":25200,"station_id":"ce4bhh12rcd13ifvqff0","pricing_plan_id":"cebpf4jnsgd1na2vs0mg"},{"bike_id":"46720180-370f-446e-ba15-c3e34896d612","system_id":"levelo_inurba_marseille","lat":43.25713,"lon":5.41118,"is_reserved":false,"is_disabled":false,"rental_uris":{"android":"levelo://app?vid=46720180-370f-446e-ba15-c3e34896d612","ios":"levelo://app?vid=46720180-370f-446e-ba15-c3e34896d612"},"vehicle_type_id":"4","last_reported":1733573818,"current_range_meters":38800,"station_id":"ce4bhkp2rcd13ifvqgd0","pricing_plan_id":"cebpf4jnsgd1na2vs0mg"},{"bike_id":"df600bbf-9314-4ddb-b58a-5bc63eb64c68","system_id":"levelo_inurba_marseille","lat":43.25491,"lon":5.37651,"is_reserved":false,"is_disabled":false,"rental_uris":{"android":"levelo://app?vid=df600bbf-9314-4ddb-b58a-5bc63eb64c68","ios":"levelo://app?vid=df600bbf-9314-4ddb-b58a-5bc63eb64c68"},"vehicle_type_id":"4","last_reported":1733573818,"current_range_meters":38000,"station_id":"ce4bhh12rcd13ifvqff0","pricing_plan_id":"cebpf4jnsgd1na2vs0mg"},{"bike_id":"95ba44ed-1f3d-4957-99e1-19700fbff361","system_id":"levelo_inurba_marseille","lat":43.319993,"lon":5.381538,"is_reserved":false,"is_disabled":false,"rental_uris":{"android":"levelo://app?vid=95ba44ed-1f3d-4957-99e1-19700fbff361","ios":"levelo://app?vid=95ba44ed-1f3d-4957-99e1-19700fbff361"},"vehicle_type_id":"4","last_reported":1733573818,"current_range_meters":38800,"station_id":"ce4bhr12rcd13ifvqhpg","pricing_plan_id":"cebpf4jnsgd1na2vs0mg"},{"bike_id":"650aedbd-7fe9-41b2-ab79-4b8450652642","system_id":"levelo_inurba_marseille","lat":43.2919,"lon":5.35803,"is_reserved":false,"is_disabled":true,"rental_uris":{"android":"levelo://app?vid=650aedbd-7fe9-41b2-ab79-4b8450652642","ios":"levelo://app?vid=650aedbd-7fe9-41b2-ab79-4b8450652642"},"vehicle_type_id":"4","last_reported":1733573818,"current_range_meters":10800,"station_id":"ce4bhb12rcd13ifvqel0","pricing_plan_id":"cebpf4jnsgd1na2vs0mg"},{"bike_id":"df2b1ed3-7429-4123-b136-48e61e338b2e","system_id":"levelo_inurba_marseille","lat":43.29562,"lon":5.37506,"is_reserved":false,"is_disabled":false,"rental_uris":{"android":"levelo://app?vid=df2b1ed3-7429-4123-b136-48e61e338b2e","ios":"levelo://app?vid=df2b1ed3-7429-4123-b136-48e61e338b2e"},"vehicle_type_id":"4","last_reported":1733573818,"current_range_meters":6400,"station_id":"ce4bgh92rcd13ifvqb50","pricing_plan_id":"cebpf4jnsgd1na2vs0mg"},{"bike_id":"479889bf-dbf3-4abb-926f-bf7556951acc","system_id":"levelo_inurba_marseille","lat":43.29895,"lon":5.43665,"is_reserved":false,"is_disabled":false,"rental_uris":{"android":"levelo://app?vid=479889bf-dbf3-4abb-926f-bf7556951acc","ios":"levelo://app?vid=479889bf-dbf3-4abb-926f-bf7556951acc"},"vehicle_type_id":"4","last_reported":1733573818,"current_range_meters":7200,"station_id":"ce4bhpp2rcd13ifvqhfg","pricing_plan_id":"cebpf4jnsgd1na2vs0mg"},{"bike_id":"3000a861-0903-41f2-bb5d-48554b17ed5a","system_id":"levelo_inurba_marseille","lat":43.337444,"lon":5.374475,"is_reserved":false,"is_disabled":false,"rental_uris":{"android":"levelo://app?vid=3000a861-0903-41f2-bb5d-48554b17ed5a","ios":"levelo://app?vid=3000a861-0903-41f2-bb5d-48554b17ed5a"},"vehicle_type_id":"4","last_reported":1733573818,"current_range_meters":32800,"station_id":"","pricing_plan_id":"cebpf4jnsgd1na2vs0mg"},{"bike_id":"fdc62a63-5355-4bd1-a06c-e6106eb23903","system_id":"levelo_inurba_marseille","lat":43.23958,"lon":5.36634,"is_reserved":false,"is_disabled":false,"rental_uris":{"android":"levelo://app?vid=fdc62a63-5355-4bd1-a06c-e6106eb23903","ios":"levelo://app?vid=fdc62a63-5355-4bd1-a06c-e6106eb23903"},"vehicle_type_id":"4","last_reported":1733573818,"current_range_meters":38800,"station_id":"ce4bhi12rcd13ifvqfp0","pricing_plan_id":"cebpf4jnsgd1na2vs0mg"},{"bike_id":"95cfddd6-1f3c-4fd2-9652-931f20cf06bd","system_id":"levelo_inurba_marseille","lat":43.25578,"lon":5.38241,"is_reserved":false,"is_disabled":false,"rental_uris":{"android":"levelo://app?vid=95cfddd6-1f3c-4fd2-9652-931f20cf06bd","ios":"levelo://app?vid=95cfddd6-1f3c-4fd2-9652-931f20cf06bd"},"vehicle_type_id":"4","last_reported":1733573818,"current_range_meters":29600,"station_id":"ce4bhih2rcd13ifvqfs0","pricing_plan_id":"cebpf4jnsgd1na2vs0mg"},{"bike_id":"2b15d822-df8d-49ec-89f7-936931604851","system_id":"levelo_inurba_marseille","lat":43.27907,"lon":5.39588,"is_reserved":false,"is_disabled":false,"rental_uris":{"android":"levelo://app?vid=2b15d822-df8d-49ec-89f7-936931604851","ios":"levelo://app?vid=2b15d822-df8d-49ec-89f7-936931604851"},"vehicle_type_id":"4","last_reported":1733573818,"current_range_meters":24800,"station_id":"ce4bhf92rcd13ifvqf40","pricing_plan_id":"cebpf4jnsgd1na2vs0mg"},{"bike_id":"420de079-f576-48d6-8a3d-a5c413ec2228","system_id":"levelo_inurba_marseille","lat":43.30558,"lon":5.36532,"is_reserved":false,"is_disabled":false,"rental_uris":{"android":"levelo://app?vid=420de079-f576-48d6-8a3d-a5c413ec2228","ios":"levelo://app?vid=420de079-f576-48d6-8a3d-a5c413ec2228"},"vehicle_type_id":"4","last_reported":1733573818,"current_range_meters":34800,"station_id":"ce4bgs12rcd13ifvqcag","pricing_plan_id":"cebpf4jnsgd1na2vs0mg"},{"bike_id":"89ceac00-2c22-4cb1-b85d-583fccdb788b","system_id":"levelo_inurba_marseille","lat":43.3212,"lon":5.36798,"is_reserved":false,"is_disabled":false,"rental_uris":{"android":"levelo://app?vid=89ceac00-2c22-4cb1-b85d-583fccdb788b","ios":"levelo://app?vid=89ceac00-2c22-4cb1-b85d-583fccdb788b"},"vehicle_type_id":"4","last_reported":1733573818,"current_range_meters":18000,"station_id":"ce4bhrh2rcd13ifvqhug","pricing_plan_id":"cebpf4jnsgd1na2vs0mg"},{"bike_id":"01ea66f0-0408-48da-a1f2-c28d34e1072c","system_id":"levelo_inurba_marseille","lat":43.32337,"lon":5.4062,"is_reserved":false,"is_disabled":false,"rental_uris":{"android":"levelo://app?vid=01ea66f0-0408-48da-a1f2-c28d34e1072c","ios":"levelo://app?vid=01ea66f0-0408-48da-a1f2-c28d34e1072c"},"vehicle_type_id":"4","last_reported":1733573818,"current_range_meters":38400,"station_id":"ce4bhq92rcd13ifvqhjg","pricing_plan_id":"cebpf4jnsgd1na2vs0mg"},{"bike_id":"8d3ab1e6-a8b6-4005-bf50-7690103502f7","system_id":"levelo_inurba_marseille","lat":43.32363,"lon":5.38875,"is_reserved":false,"is_disabled":false,"rental_uris":{"android":"levelo://app?vid=8d3ab1e6-a8b6-4005-bf50-7690103502f7","ios":"levelo://app?vid=8d3ab1e6-a8b6-4005-bf50-7690103502f7"},"vehicle_type_id":"4","last_reported":1733573818,"current_range_meters":38800,"station_id":"ce4bhqp2rcd13ifvqhog","pricing_plan_id":"cebpf4jnsgd1na2vs0mg"},{"bike_id":"786b3983-4353-4c6b-b2a2-4c074e4b7adb","system_id":"levelo_inurba_marseille","lat":43.31716,"lon":5.43703,"is_reserved":false,"is_disabled":false,"rental_uris":{"android":"levelo://app?vid=786b3983-4353-4c6b-b2a2-4c074e4b7adb","ios":"levelo://app?vid=786b3983-4353-4c6b-b2a2-4c074e4b7adb"},"vehicle_type_id":"4","last_reported":1733573818,"current_range_meters":38000,"station_id":"ce4bhp92rcd13ifvqhcg","pricing_plan_id":"cebpf4jnsgd1na2vs0mg"},{"bike_id":"233d6a4b-21d9-4608-b627-d614a81b077d","system_id":"levelo_inurba_marseille","lat":43.25,"lon":5.38926,"is_reserved":false,"is_disabled":false,"rental_uris":{"android":"levelo://app?vid=233d6a4b-21d9-4608-b627-d614a81b077d","ios":"levelo://app?vid=233d6a4b-21d9-4608-b627-d614a81b077d"},"vehicle_type_id":"4","last_reported":1733573818,"current_range_meters":27600,"station_id":"ce4bhgp2rcd13ifvqfd0","pricing_plan_id":"cebpf4jnsgd1na2vs0mg"},{"bike_id":"752ac3f6-4fd8-48b3-af0b-1c24869980bd","system_id":"levelo_inurba_marseille","lat":43.29303,"lon":5.37173,"is_reserved":false,"is_disabled":false,"rental_uris":{"android":"levelo://app?vid=752ac3f6-4fd8-48b3-af0b-1c24869980bd","ios":"levelo://app?vid=752ac3f6-4fd8-48b3-af0b-1c24869980bd"},"vehicle_type_id":"4","last_reported":1733573818,"current_range_meters":14800,"station_id":"ce4bgh92rcd13ifvqb40","pricing_plan_id":"cebpf4jnsgd1na2vs0mg"},{"bike_id":"938640b4-f78c-4def-9b16-e6205edb88bc","system_id":"levelo_inurba_marseille","lat":43.28153,"lon":5.42633,"is_reserved":false,"is_disabled":true,"rental_uris":{"android":"levelo://app?vid=938640b4-f78c-4def-9b16-e6205edb88bc","ios":"levelo://app?vid=938640b4-f78c-4def-9b16-e6205edb88bc"},"vehicle_type_id":"4","last_reported":1733573818,"current_range_meters":16000,"station_id":"ce4bhnh2rcd13ifvqgug","pricing_plan_id":"cebpf4jnsgd1na2vs0mg"},{"bike_id":"68c64e77-1ff7-4e89-9078-ac5f21347b9c","system_id":"levelo_inurba_marseille","lat":43.29896,"lon":5.4367,"is_reserved":false,"is_disabled":false,"rental_uris":{"android":"levelo://app?vid=68c64e77-1ff7-4e89-9078-ac5f21347b9c","ios":"levelo://app?vid=68c64e77-1ff7-4e89-9078-ac5f21347b9c"},"vehicle_type_id":"4","last_reported":1733573818,"current_range_meters":20000,"station_id":"ce4bhpp2rcd13ifvqhfg","pricing_plan_id":"cebpf4jnsgd1na2vs0mg"},{"bike_id":"79b52d22-e067-4020-9b3d-e5f4240252f3","system_id":"levelo_inurba_marseille","lat":43.29543,"lon":5.37499,"is_reserved":false,"is_disabled":false,"rental_uris":{"android":"levelo://app?vid=79b52d22-e067-4020-9b3d-e5f4240252f3","ios":"levelo://app?vid=79b52d22-e067-4020-9b3d-e5f4240252f3"},"vehicle_type_id":"4","last_reported":1733573818,"current_range_meters":30400,"station_id":"ce4bgkp2rcd13ifvqbmg","pricing_plan_id":"cebpf4jnsgd1na2vs0mg"},{"bike_id":"f4fb57b1-1fd2-44c2-b1a7-31a3692ffcea","system_id":"levelo_inurba_marseille","lat":43.30935,"lon":5.37164,"is_reserved":false,"is_disabled":true,"rental_uris":{"android":"levelo://app?vid=f4fb57b1-1fd2-44c2-b1a7-31a3692ffcea","ios":"levelo://app?vid=f4fb57b1-1fd2-44c2-b1a7-31a3692ffcea"},"vehicle_type_id":"4","last_reported":1733573818,"current_range_meters":4000,"station_id":"ce4bguh2rcd13ifvqckg","pricing_plan_id":"cebpf4jnsgd1na2vs0mg"},{"bike_id":"456c6caf-37f6-49ed-a81d-8942c14426a1","system_id":"levelo_inurba_marseille","lat":43.31509,"lon":5.37305,"is_reserved":false,"is_disabled":true,"rental_uris":{"android":"levelo://app?vid=456c6caf-37f6-49ed-a81d-8942c14426a1","ios":"levelo://app?vid=456c6caf-37f6-49ed-a81d-8942c14426a1"},"vehicle_type_id":"4","last_reported":1733573818,"current_range_meters":28800,"station_id":"ce4bgt12rcd13ifvqcd0","pricing_plan_id":"cebpf4jnsgd1na2vs0mg"},{"bike_id":"2f3968e7-9336-4ee4-ba78-8e92c0a818cc","system_id":"levelo_inurba_marseille","lat":43.31322,"lon":5.36647,"is_reserved":false,"is_disabled":true,"rental_uris":{"android":"levelo://app?vid=2f3968e7-9336-4ee4-ba78-8e92c0a818cc","ios":"levelo://app?vid=2f3968e7-9336-4ee4-ba78-8e92c0a818cc"},"vehicle_type_id":"4","last_reported":1733573818,"current_range_meters":0,"station_id":"","pricing_plan_id":"cebpf4jnsgd1na2vs0mg"},{"bike_id":"5ebc19a5-4eab-4ea6-b558-b6d986ab3c2e","system_id":"levelo_inurba_marseille","lat":43.24655,"lon":5.38887,"is_reserved":false,"is_disabled":false,"rental_uris":{"android":"levelo://app?vid=5ebc19a5-4eab-4ea6-b558-b6d986ab3c2e","ios":"levelo://app?vid=5ebc19a5-4eab-4ea6-b558-b6d986ab3c2e"},"vehicle_type_id":"4","last_reported":1733573818,"current_range_meters":38800,"station_id":"ce4bhg12rcd13ifvqf60","pricing_plan_id":"cebpf4jnsgd1na2vs0mg"},{"bike_id":"1af73d12-007b-4323-a123-cb92ce26c75b","system_id":"levelo_inurba_marseille","lat":43.2319,"lon":5.39988,"is_reserved":false,"is_disabled":false,"rental_uris":{"android":"levelo://app?vid=1af73d12-007b-4323-a123-cb92ce26c75b","ios":"levelo://app?vid=1af73d12-007b-4323-a123-cb92ce26c75b"},"vehicle_type_id":"4","last_reported":1733573818,"current_range_meters":39200,"station_id":"ce4bhn12rcd13ifvqgqg","pricing_plan_id":"cebpf4jnsgd1na2vs0mg"},{"bike_id":"b8ef2dba-f398-4a79-b784-6376d22c158b","system_id":"levelo_inurba_marseille","lat":43.29716,"lon":5.37686,"is_reserved":false,"is_disabled":false,"rental_uris":{"android":"levelo://app?vid=b8ef2dba-f398-4a79-b784-6376d22c158b","ios":"levelo://app?vid=b8ef2dba-f398-4a79-b784-6376d22c158b"},"vehicle_type_id":"4","last_reported":1733573818,"current_range_meters":27200,"station_id":"ce4bgkh2rcd13ifvqbl0","pricing_plan_id":"cebpf4jnsgd1na2vs0mg"},{"bike_id":"5ac6f8d7-e2c4-4a00-b789-9917e3ddc96d","system_id":"levelo_inurba_marseille","lat":43.29857,"lon":5.42067,"is_reserved":false,"is_disabled":false,"rental_uris":{"android":"levelo://app?vid=5ac6f8d7-e2c4-4a00-b789-9917e3ddc96d","ios":"levelo://app?vid=5ac6f8d7-e2c4-4a00-b789-9917e3ddc96d"},"vehicle_type_id":"4","last_reported":1733573818,"current_range_meters":23200,"station_id":"","pricing_plan_id":"cebpf4jnsgd1na2vs0mg"},{"bike_id":"5f93c33d-3be9-4b95-8c9d-0913705c6028","system_id":"levelo_inurba_marseille","lat":43.30104,"lon":5.39093,"is_reserved":false,"is_disabled":true,"rental_uris":{"android":"levelo://app?vid=5f93c33d-3be9-4b95-8c9d-0913705c6028","ios":"levelo://app?vid=5f93c33d-3be9-4b95-8c9d-0913705c6028"},"vehicle_type_id":"4","last_reported":1733573818,"current_range_meters":0,"station_id":"ce4bh192rcd13ifvqdb0","pricing_plan_id":"cebpf4jnsgd1na2vs0mg"},{"bike_id":"7736d0dc-1989-4505-a61b-7fdb0a6489c6","system_id":"levelo_inurba_marseille","lat":43.3237,"lon":5.38886,"is_reserved":false,"is_disabled":false,"rental_uris":{"android":"levelo://app?vid=7736d0dc-1989-4505-a61b-7fdb0a6489c6","ios":"levelo://app?vid=7736d0dc-1989-4505-a61b-7fdb0a6489c6"},"vehicle_type_id":"4","last_reported":1733573818,"current_range_meters":6800,"station_id":"ce4bhqp2rcd13ifvqhog","pricing_plan_id":"cebpf4jnsgd1na2vs0mg"},{"bike_id":"0e77377b-ad1b-4799-934c-61d5e9b174fd","system_id":"levelo_inurba_marseille","lat":43.29792,"lon":5.3813,"is_reserved":false,"is_disabled":true,"rental_uris":{"android":"levelo://app?vid=0e77377b-ad1b-4799-934c-61d5e9b174fd","ios":"levelo://app?vid=0e77377b-ad1b-4799-934c-61d5e9b174fd"},"vehicle_type_id":"4","last_reported":1733573818,"current_range_meters":1200,"station_id":"ce4bgip2rcd13ifvqbb0","pricing_plan_id":"cebpf4jnsgd1na2vs0mg"},{"bike_id":"6583aefc-6815-4bd5-8f5c-a9c5d794f47e","system_id":"levelo_inurba_marseille","lat":43.3651,"lon":5.34286,"is_reserved":false,"is_disabled":false,"rental_uris":{"android":"levelo://app?vid=6583aefc-6815-4bd5-8f5c-a9c5d794f47e","ios":"levelo://app?vid=6583aefc-6815-4bd5-8f5c-a9c5d794f47e"},"vehicle_type_id":"4","last_reported":1733573818,"current_range_meters":26800,"station_id":"","pricing_plan_id":"cebpf4jnsgd1na2vs0mg"},{"bike_id":"db8c2e2e-03f6-46b3-ad32-d8aff389a5b7","system_id":"levelo_inurba_marseille","lat":43.29967,"lon":5.41325,"is_reserved":false,"is_disabled":false,"rental_uris":{"android":"levelo://app?vid=db8c2e2e-03f6-46b3-ad32-d8aff389a5b7","ios":"levelo://app?vid=db8c2e2e-03f6-46b3-ad32-d8aff389a5b7"},"vehicle_type_id":"4","last_reported":1733573818,"current_range_meters":24000,"station_id":"ce4bhp12rcd13ifvqh9g","pricing_plan_id":"cebpf4jnsgd1na2vs0mg"},{"bike_id":"18c465ad-16a0-4d72-a337-11a15929aab8","system_id":"levelo_inurba_marseille","lat":43.23959,"lon":5.36643,"is_reserved":false,"is_disabled":false,"rental_uris":{"android":"levelo://app?vid=18c465ad-16a0-4d72-a337-11a15929aab8","ios":"levelo://app?vid=18c465ad-16a0-4d72-a337-11a15929aab8"},"vehicle_type_id":"4","last_reported":1733573818,"current_range_meters":6400,"station_id":"ce4bhi12rcd13ifvqfp0","pricing_plan_id":"cebpf4jnsgd1na2vs0mg"},{"bike_id":"d24ba112-fd35-4be4-adc0-0664a6e3ad7b","system_id":"levelo_inurba_marseille","lat":43.24658,"lon":5.38898,"is_reserved":false,"is_disabled":false,"rental_uris":{"android":"levelo://app?vid=d24ba112-fd35-4be4-adc0-0664a6e3ad7b","ios":"levelo://app?vid=d24ba112-fd35-4be4-adc0-0664a6e3ad7b"},"vehicle_type_id":"4","last_reported":1733573818,"current_range_meters":38800,"station_id":"ce4bhg12rcd13ifvqf60","pricing_plan_id":"cebpf4jnsgd1na2vs0mg"},{"bike_id":"f825a6e3-d202-4ddc-917b-5da49c4114c4","system_id":"levelo_inurba_marseille","lat":43.2319,"lon":5.35549,"is_reserved":false,"is_disabled":false,"rental_uris":{"android":"levelo://app?vid=f825a6e3-d202-4ddc-917b-5da49c4114c4","ios":"levelo://app?vid=f825a6e3-d202-4ddc-917b-5da49c4114c4"},"vehicle_type_id":"4","last_reported":1733573818,"current_range_meters":9200,"station_id":"ce4bhu92rcd13ifvqi70","pricing_plan_id":"cebpf4jnsgd1na2vs0mg"},{"bike_id":"a35186a8-f869-4b4d-9cd4-6b91d1830619","system_id":"levelo_inurba_marseille","lat":43.27209,"lon":5.39178,"is_reserved":false,"is_disabled":false,"rental_uris":{"android":"levelo://app?vid=a35186a8-f869-4b4d-9cd4-6b91d1830619","ios":"levelo://app?vid=a35186a8-f869-4b4d-9cd4-6b91d1830619"},"vehicle_type_id":"4","last_reported":1733573818,"current_range_meters":26000,"station_id":"ce4bhhp2rcd13ifvqfm0","pricing_plan_id":"cebpf4jnsgd1na2vs0mg"},{"bike_id":"468d023e-e483-49f2-92d7-7b95c7b3c650","system_id":"levelo_inurba_marseille","lat":43.29893,"lon":5.43664,"is_reserved":false,"is_disabled":false,"rental_uris":{"android":"levelo://app?vid=468d023e-e483-49f2-92d7-7b95c7b3c650","ios":"levelo://app?vid=468d023e-e483-49f2-92d7-7b95c7b3c650"},"vehicle_type_id":"4","last_reported":1733573818,"current_range_meters":13600,"station_id":"ce4bhpp2rcd13ifvqhfg","pricing_plan_id":"cebpf4jnsgd1na2vs0mg"},{"bike_id":"e203c4a0-b1eb-4b41-be4a-37b67abdb4b0","system_id":"levelo_inurba_marseille","lat":43.30547,"lon":5.36529,"is_reserved":false,"is_disabled":false,"rental_uris":{"android":"levelo://app?vid=e203c4a0-b1eb-4b41-be4a-37b67abdb4b0","ios":"levelo://app?vid=e203c4a0-b1eb-4b41-be4a-37b67abdb4b0"},"vehicle_type_id":"4","last_reported":1733573818,"current_range_meters":38800,"station_id":"ce4bgs12rcd13ifvqcag","pricing_plan_id":"cebpf4jnsgd1na2vs0mg"},{"bike_id":"cc537b5c-54d3-4483-80bd-da2886ac5bc6","system_id":"levelo_inurba_marseille","lat":43.29816,"lon":5.36304,"is_reserved":false,"is_disabled":false,"rental_uris":{"android":"levelo://app?vid=cc537b5c-54d3-4483-80bd-da2886ac5bc6","ios":"levelo://app?vid=cc537b5c-54d3-4483-80bd-da2886ac5bc6"},"vehicle_type_id":"4","last_reported":1733573818,"current_range_meters":32400,"station_id":"ce4bgpp2rcd13ifvqc3g","pricing_plan_id":"cebpf4jnsgd1na2vs0mg"},{"bike_id":"c11e4cb7-bb72-4e62-bc42-747f472be625","system_id":"levelo_inurba_marseille","lat":43.25575,"lon":5.38251,"is_reserved":false,"is_disabled":false,"rental_uris":{"android":"levelo://app?vid=c11e4cb7-bb72-4e62-bc42-747f472be625","ios":"levelo://app?vid=c11e4cb7-bb72-4e62-bc42-747f472be625"},"vehicle_type_id":"4","last_reported":1733573818,"current_range_meters":24800,"station_id":"ce4bhih2rcd13ifvqfs0","pricing_plan_id":"cebpf4jnsgd1na2vs0mg"},{"bike_id":"95549e99-3d14-4048-a51a-7392522446dc","system_id":"levelo_inurba_marseille","lat":43.23194,"lon":5.35559,"is_reserved":false,"is_disabled":false,"rental_uris":{"android":"levelo://app?vid=95549e99-3d14-4048-a51a-7392522446dc","ios":"levelo://app?vid=95549e99-3d14-4048-a51a-7392522446dc"},"vehicle_type_id":"4","last_reported":1733573818,"current_range_meters":32800,"station_id":"ce4bhu92rcd13ifvqi70","pricing_plan_id":"cebpf4jnsgd1na2vs0mg"},{"bike_id":"2e739a79-3ebc-4f1e-9c6b-3536126298a7","system_id":"levelo_inurba_marseille","lat":43.29622,"lon":5.37729,"is_reserved":false,"is_disabled":false,"rental_uris":{"android":"levelo://app?vid=2e739a79-3ebc-4f1e-9c6b-3536126298a7","ios":"levelo://app?vid=2e739a79-3ebc-4f1e-9c6b-3536126298a7"},"vehicle_type_id":"4","last_reported":1733573818,"current_range_meters":4800,"station_id":"ce4bgi92rcd13ifvqb90","pricing_plan_id":"cebpf4jnsgd1na2vs0mg"},{"bike_id":"f10c5e90-601b-4bd4-87e7-4cbb6a13a4fb","system_id":"levelo_inurba_marseille","lat":43.26123,"lon":5.39268,"is_reserved":false,"is_disabled":true,"rental_uris":{"android":"levelo://app?vid=f10c5e90-601b-4bd4-87e7-4cbb6a13a4fb","ios":"levelo://app?vid=f10c5e90-601b-4bd4-87e7-4cbb6a13a4fb"},"vehicle_type_id":"4","last_reported":1733573818,"current_range_meters":0,"station_id":"","pricing_plan_id":"cebpf4jnsgd1na2vs0mg"},{"bike_id":"bff99d17-1caf-402d-8a5b-99558d610c39","system_id":"levelo_inurba_marseille","lat":43.27053,"lon":5.40268,"is_reserved":false,"is_disabled":false,"rental_uris":{"android":"levelo://app?vid=bff99d17-1caf-402d-8a5b-99558d610c39","ios":"levelo://app?vid=bff99d17-1caf-402d-8a5b-99558d610c39"},"vehicle_type_id":"4","last_reported":1733573818,"current_range_meters":38800,"station_id":"ce4bhk92rcd13ifvqgc0","pricing_plan_id":"cebpf4jnsgd1na2vs0mg"},{"bike_id":"f35852b2-8e04-4446-9f35-72a02f63d576","system_id":"levelo_inurba_marseille","lat":43.3097,"lon":5.39053,"is_reserved":false,"is_disabled":false,"rental_uris":{"android":"levelo://app?vid=f35852b2-8e04-4446-9f35-72a02f63d576","ios":"levelo://app?vid=f35852b2-8e04-4446-9f35-72a02f63d576"},"vehicle_type_id":"4","last_reported":1733573818,"current_range_meters":36800,"station_id":"ce4bgup2rcd13ifvqco0","pricing_plan_id":"cebpf4jnsgd1na2vs0mg"},{"bike_id":"121e7620-cfb0-404a-b8f8-95f9449bab99","system_id":"levelo_inurba_marseille","lat":43.28406,"lon":5.37521,"is_reserved":false,"is_disabled":false,"rental_uris":{"android":"levelo://app?vid=121e7620-cfb0-404a-b8f8-95f9449bab99","ios":"levelo://app?vid=121e7620-cfb0-404a-b8f8-95f9449bab99"},"vehicle_type_id":"4","last_reported":1733573818,"current_range_meters":28000,"station_id":"ce4bh412rcd13ifvqds0","pricing_plan_id":"cebpf4jnsgd1na2vs0mg"},{"bike_id":"01368949-9075-40de-bc7c-c7454ca13e5f","system_id":"levelo_inurba_marseille","lat":43.2977,"lon":5.37106,"is_reserved":false,"is_disabled":false,"rental_uris":{"android":"levelo://app?vid=01368949-9075-40de-bc7c-c7454ca13e5f","ios":"levelo://app?vid=01368949-9075-40de-bc7c-c7454ca13e5f"},"vehicle_type_id":"4","last_reported":1733573818,"current_range_meters":19600,"station_id":"ce4bgop2rcd13ifvqc1g","pricing_plan_id":"cebpf4jnsgd1na2vs0mg"},{"bike_id":"540c2ead-63d4-4cbf-bcdf-88b431240811","system_id":"levelo_inurba_marseille","lat":43.33602,"lon":5.41039,"is_reserved":false,"is_disabled":false,"rental_uris":{"android":"levelo://app?vid=540c2ead-63d4-4cbf-bcdf-88b431240811","ios":"levelo://app?vid=540c2ead-63d4-4cbf-bcdf-88b431240811"},"vehicle_type_id":"4","last_reported":1733573818,"current_range_meters":38800,"station_id":"ce4bhqh2rcd13ifvqhmg","pricing_plan_id":"cebpf4jnsgd1na2vs0mg"},{"bike_id":"dce263b1-7dfd-4d81-8baf-27a5977e201f","system_id":"levelo_inurba_marseille","lat":43.2978,"lon":5.37097,"is_reserved":false,"is_disabled":false,"rental_uris":{"android":"levelo://app?vid=dce263b1-7dfd-4d81-8baf-27a5977e201f","ios":"levelo://app?vid=dce263b1-7dfd-4d81-8baf-27a5977e201f"},"vehicle_type_id":"4","last_reported":1733573818,"current_range_meters":26000,"station_id":"ce4bgop2rcd13ifvqc1g","pricing_plan_id":"cebpf4jnsgd1na2vs0mg"},{"bike_id":"7b8d178d-5710-4340-b7c6-303d3a430f00","system_id":"levelo_inurba_marseille","lat":43.27991,"lon":5.41662,"is_reserved":false,"is_disabled":false,"rental_uris":{"android":"levelo://app?vid=7b8d178d-5710-4340-b7c6-303d3a430f00","ios":"levelo://app?vid=7b8d178d-5710-4340-b7c6-303d3a430f00"},"vehicle_type_id":"4","last_reported":1733573818,"current_range_meters":5600,"station_id":"ce4bho12rcd13ifvqh1g","pricing_plan_id":"cebpf4jnsgd1na2vs0mg"},{"bike_id":"f90f11ed-9729-4e45-8432-d32fecf1b6aa","system_id":"levelo_inurba_marseille","lat":43.23968,"lon":5.36624,"is_reserved":false,"is_disabled":false,"rental_uris":{"android":"levelo://app?vid=f90f11ed-9729-4e45-8432-d32fecf1b6aa","ios":"levelo://app?vid=f90f11ed-9729-4e45-8432-d32fecf1b6aa"},"vehicle_type_id":"4","last_reported":1733573818,"current_range_meters":28000,"station_id":"ce4bhi12rcd13ifvqfp0","pricing_plan_id":"cebpf4jnsgd1na2vs0mg"},{"bike_id":"deef5ee7-83de-42b8-84ba-cbc2ec811066","system_id":"levelo_inurba_marseille","lat":43.23181,"lon":5.39974,"is_reserved":false,"is_disabled":false,"rental_uris":{"android":"levelo://app?vid=deef5ee7-83de-42b8-84ba-cbc2ec811066","ios":"levelo://app?vid=deef5ee7-83de-42b8-84ba-cbc2ec811066"},"vehicle_type_id":"4","last_reported":1733573818,"current_range_meters":38000,"station_id":"ce4bhn12rcd13ifvqgqg","pricing_plan_id":"cebpf4jnsgd1na2vs0mg"},{"bike_id":"1772d442-0d9a-4b58-a732-5035881204cf","system_id":"levelo_inurba_marseille","lat":43.299591,"lon":5.38489,"is_reserved":false,"is_disabled":false,"rental_uris":{"android":"levelo://app?vid=1772d442-0d9a-4b58-a732-5035881204cf","ios":"levelo://app?vid=1772d442-0d9a-4b58-a732-5035881204cf"},"vehicle_type_id":"4","last_reported":1733573818,"current_range_meters":18000,"station_id":"ce4bgj92rcd13ifvqbd0","pricing_plan_id":"cebpf4jnsgd1na2vs0mg"},{"bike_id":"fd5cbc47-3119-406d-9777-c3fdb3601a5a","system_id":"levelo_inurba_marseille","lat":43.29299,"lon":5.37464,"is_reserved":false,"is_disabled":false,"rental_uris":{"android":"levelo://app?vid=fd5cbc47-3119-406d-9777-c3fdb3601a5a","ios":"levelo://app?vid=fd5cbc47-3119-406d-9777-c3fdb3601a5a"},"vehicle_type_id":"4","last_reported":1733573818,"current_range_meters":36400,"station_id":"ce4bgi12rcd13ifvqb70","pricing_plan_id":"cebpf4jnsgd1na2vs0mg"},{"bike_id":"2a022814-f741-4adf-a235-83d4941bf5e2","system_id":"levelo_inurba_marseille","lat":43.28427,"lon":5.34995,"is_reserved":false,"is_disabled":false,"rental_uris":{"android":"levelo://app?vid=2a022814-f741-4adf-a235-83d4941bf5e2","ios":"levelo://app?vid=2a022814-f741-4adf-a235-83d4941bf5e2"},"vehicle_type_id":"4","last_reported":1733573818,"current_range_meters":18000,"station_id":"ce4bhbh2rcd13ifvqepg","pricing_plan_id":"cebpf4jnsgd1na2vs0mg"},{"bike_id":"4fe420ef-ce18-4fc1-9454-e26645b33749","system_id":"levelo_inurba_marseille","lat":43.28075,"lon":5.39659,"is_reserved":false,"is_disabled":false,"rental_uris":{"android":"levelo://app?vid=4fe420ef-ce18-4fc1-9454-e26645b33749","ios":"levelo://app?vid=4fe420ef-ce18-4fc1-9454-e26645b33749"},"vehicle_type_id":"4","last_reported":1733573818,"current_range_meters":37600,"station_id":"ce4bho12rcd13ifvqh2g","pricing_plan_id":"cebpf4jnsgd1na2vs0mg"},{"bike_id":"51d5b9bb-dac5-4463-931f-dbd408d28be2","system_id":"levelo_inurba_marseille","lat":43.30591,"lon":5.39359,"is_reserved":false,"is_disabled":false,"rental_uris":{"android":"levelo://app?vid=51d5b9bb-dac5-4463-931f-dbd408d28be2","ios":"levelo://app?vid=51d5b9bb-dac5-4463-931f-dbd408d28be2"},"vehicle_type_id":"4","last_reported":1733573818,"current_range_meters":32000,"station_id":"ce4bh0p2rcd13ifvqd80","pricing_plan_id":"cebpf4jnsgd1na2vs0mg"},{"bike_id":"875e35b5-bae9-43c6-ab82-2dbb1d7017ca","system_id":"levelo_inurba_marseille","lat":43.23187,"lon":5.39988,"is_reserved":false,"is_disabled":false,"rental_uris":{"android":"levelo://app?vid=875e35b5-bae9-43c6-ab82-2dbb1d7017ca","ios":"levelo://app?vid=875e35b5-bae9-43c6-ab82-2dbb1d7017ca"},"vehicle_type_id":"4","last_reported":1733573818,"current_range_meters":24400,"station_id":"ce4bhn12rcd13ifvqgqg","pricing_plan_id":"cebpf4jnsgd1na2vs0mg"},{"bike_id":"9e02ca9a-2999-4700-acfa-285ba2c0a48c","system_id":"levelo_inurba_marseille","lat":43.32366,"lon":5.38886,"is_reserved":false,"is_disabled":false,"rental_uris":{"android":"levelo://app?vid=9e02ca9a-2999-4700-acfa-285ba2c0a48c","ios":"levelo://app?vid=9e02ca9a-2999-4700-acfa-285ba2c0a48c"},"vehicle_type_id":"4","last_reported":1733573818,"current_range_meters":37600,"station_id":"ce4bhqp2rcd13ifvqhog","pricing_plan_id":"cebpf4jnsgd1na2vs0mg"},{"bike_id":"0dda0e2e-e749-4c3f-ba14-8cb8f6e3de7c","system_id":"levelo_inurba_marseille","lat":43.30543,"lon":5.36534,"is_reserved":false,"is_disabled":false,"rental_uris":{"android":"levelo://app?vid=0dda0e2e-e749-4c3f-ba14-8cb8f6e3de7c","ios":"levelo://app?vid=0dda0e2e-e749-4c3f-ba14-8cb8f6e3de7c"},"vehicle_type_id":"4","last_reported":1733573818,"current_range_meters":38800,"station_id":"ce4bgs12rcd13ifvqcag","pricing_plan_id":"cebpf4jnsgd1na2vs0mg"},{"bike_id":"987a5ab4-d60c-480c-94b6-7cab38975402","system_id":"levelo_inurba_marseille","lat":43.29748,"lon":5.37971,"is_reserved":false,"is_disabled":true,"rental_uris":{"android":"levelo://app?vid=987a5ab4-d60c-480c-94b6-7cab38975402","ios":"levelo://app?vid=987a5ab4-d60c-480c-94b6-7cab38975402"},"vehicle_type_id":"4","last_reported":1733573818,"current_range_meters":0,"station_id":"","pricing_plan_id":"cebpf4jnsgd1na2vs0mg"},{"bike_id":"23a476fa-3041-4c13-8967-79558abd44d7","system_id":"levelo_inurba_marseille","lat":43.31361,"lon":5.38505,"is_reserved":false,"is_disabled":false,"rental_uris":{"android":"levelo://app?vid=23a476fa-3041-4c13-8967-79558abd44d7","ios":"levelo://app?vid=23a476fa-3041-4c13-8967-79558abd44d7"},"vehicle_type_id":"4","last_reported":1733573818,"current_range_meters":39200,"station_id":"ce4bgt92rcd13ifvqcf0","pricing_plan_id":"cebpf4jnsgd1na2vs0mg"},{"bike_id":"dd4d8f16-8b33-4354-8e35-4b1ba2ae6089","system_id":"levelo_inurba_marseille","lat":43.25726,"lon":5.4111,"is_reserved":false,"is_disabled":true,"rental_uris":{"android":"levelo://app?vid=dd4d8f16-8b33-4354-8e35-4b1ba2ae6089","ios":"levelo://app?vid=dd4d8f16-8b33-4354-8e35-4b1ba2ae6089"},"vehicle_type_id":"4","last_reported":1733573818,"current_range_meters":0,"station_id":"ce4bhkp2rcd13ifvqgd0","pricing_plan_id":"cebpf4jnsgd1na2vs0mg"},{"bike_id":"e4ba6ddf-afc7-489b-b78e-be69962dd27c","system_id":"levelo_inurba_marseille","lat":43.30529,"lon":5.36551,"is_reserved":false,"is_disabled":false,"rental_uris":{"android":"levelo://app?vid=e4ba6ddf-afc7-489b-b78e-be69962dd27c","ios":"levelo://app?vid=e4ba6ddf-afc7-489b-b78e-be69962dd27c"},"vehicle_type_id":"4","last_reported":1733573818,"current_range_meters":38000,"station_id":"ce4bgs12rcd13ifvqcag","pricing_plan_id":"cebpf4jnsgd1na2vs0mg"},{"bike_id":"a9e6de67-6491-4e82-b9ce-22c98bd30714","system_id":"levelo_inurba_marseille","lat":43.29256,"lon":5.40907,"is_reserved":false,"is_disabled":false,"rental_uris":{"android":"levelo://app?vid=a9e6de67-6491-4e82-b9ce-22c98bd30714","ios":"levelo://app?vid=a9e6de67-6491-4e82-b9ce-22c98bd30714"},"vehicle_type_id":"4","last_reported":1733573818,"current_range_meters":20400,"station_id":"ce4bh192rcd13ifvqdc0","pricing_plan_id":"cebpf4jnsgd1na2vs0mg"},{"bike_id":"53c6c3d3-42c4-451f-9207-7ca176099773","system_id":"levelo_inurba_marseille","lat":43.27206,"lon":5.39187,"is_reserved":false,"is_disabled":false,"rental_uris":{"android":"levelo://app?vid=53c6c3d3-42c4-451f-9207-7ca176099773","ios":"levelo://app?vid=53c6c3d3-42c4-451f-9207-7ca176099773"},"vehicle_type_id":"4","last_reported":1733573818,"current_range_meters":36800,"station_id":"ce4bhhp2rcd13ifvqfm0","pricing_plan_id":"cebpf4jnsgd1na2vs0mg"},{"bike_id":"11e86528-eb6b-4391-86a5-9b1822d069a4","system_id":"levelo_inurba_marseille","lat":43.278805,"lon":5.388003,"is_reserved":false,"is_disabled":true,"rental_uris":{"android":"levelo://app?vid=11e86528-eb6b-4391-86a5-9b1822d069a4","ios":"levelo://app?vid=11e86528-eb6b-4391-86a5-9b1822d069a4"},"vehicle_type_id":"4","last_reported":1733573818,"current_range_meters":1200,"station_id":"","pricing_plan_id":"cebpf4jnsgd1na2vs0mg"},{"bike_id":"6cc6805f-c0ca-4585-bdf1-b5a0339762b0","system_id":"levelo_inurba_marseille","lat":43.29027,"lon":5.42744,"is_reserved":false,"is_disabled":true,"rental_uris":{"android":"levelo://app?vid=6cc6805f-c0ca-4585-bdf1-b5a0339762b0","ios":"levelo://app?vid=6cc6805f-c0ca-4585-bdf1-b5a0339762b0"},"vehicle_type_id":"4","last_reported":1733573818,"current_range_meters":0,"station_id":"","pricing_plan_id":"cebpf4jnsgd1na2vs0mg"},{"bike_id":"fbab0e01-40cc-4eff-939a-d9a8fdd7ac42","system_id":"levelo_inurba_marseille","lat":43.25727,"lon":5.41108,"is_reserved":false,"is_disabled":false,"rental_uris":{"android":"levelo://app?vid=fbab0e01-40cc-4eff-939a-d9a8fdd7ac42","ios":"levelo://app?vid=fbab0e01-40cc-4eff-939a-d9a8fdd7ac42"},"vehicle_type_id":"4","last_reported":1733573818,"current_range_meters":24800,"station_id":"ce4bhkp2rcd13ifvqgd0","pricing_plan_id":"cebpf4jnsgd1na2vs0mg"},{"bike_id":"4e6fc26f-c1d5-4d84-ac5b-7d384b8c30d5","system_id":"levelo_inurba_marseille","lat":43.3235,"lon":5.36766,"is_reserved":false,"is_disabled":false,"rental_uris":{"android":"levelo://app?vid=4e6fc26f-c1d5-4d84-ac5b-7d384b8c30d5","ios":"levelo://app?vid=4e6fc26f-c1d5-4d84-ac5b-7d384b8c30d5"},"vehicle_type_id":"4","last_reported":1733573818,"current_range_meters":36400,"station_id":"ce4bhsh2rcd13ifvqi2g","pricing_plan_id":"cebpf4jnsgd1na2vs0mg"},{"bike_id":"eb13f08d-ac35-4077-897e-24433ded5b0a","system_id":"levelo_inurba_marseille","lat":43.2903,"lon":5.38649,"is_reserved":false,"is_disabled":false,"rental_uris":{"android":"levelo://app?vid=eb13f08d-ac35-4077-897e-24433ded5b0a","ios":"levelo://app?vid=eb13f08d-ac35-4077-897e-24433ded5b0a"},"vehicle_type_id":"4","last_reported":1733573818,"current_range_meters":38400,"station_id":"ce4bh4p2rcd13ifvqe0g","pricing_plan_id":"cebpf4jnsgd1na2vs0mg"},{"bike_id":"86ca563d-b601-41d3-9cf7-5d0b3d3bcdcd","system_id":"levelo_inurba_marseille","lat":43.29963,"lon":5.3849,"is_reserved":false,"is_disabled":true,"rental_uris":{"android":"levelo://app?vid=86ca563d-b601-41d3-9cf7-5d0b3d3bcdcd","ios":"levelo://app?vid=86ca563d-b601-41d3-9cf7-5d0b3d3bcdcd"},"vehicle_type_id":"4","last_reported":1733573818,"current_range_meters":800,"station_id":"ce4bgj92rcd13ifvqbd0","pricing_plan_id":"cebpf4jnsgd1na2vs0mg"},{"bike_id":"950cf53a-d96c-44c8-9cf4-4df890d474fa","system_id":"levelo_inurba_marseille","lat":43.30347,"lon":5.41873,"is_reserved":false,"is_disabled":false,"rental_uris":{"android":"levelo://app?vid=950cf53a-d96c-44c8-9cf4-4df890d474fa","ios":"levelo://app?vid=950cf53a-d96c-44c8-9cf4-4df890d474fa"},"vehicle_type_id":"4","last_reported":1733573818,"current_range_meters":38800,"station_id":"ce4bhop2rcd13ifvqh7g","pricing_plan_id":"cebpf4jnsgd1na2vs0mg"},{"bike_id":"d660403f-446f-4417-91d5-569b837788af","system_id":"levelo_inurba_marseille","lat":43.2705,"lon":5.40265,"is_reserved":false,"is_disabled":false,"rental_uris":{"android":"levelo://app?vid=d660403f-446f-4417-91d5-569b837788af","ios":"levelo://app?vid=d660403f-446f-4417-91d5-569b837788af"},"vehicle_type_id":"4","last_reported":1733573818,"current_range_meters":27600,"station_id":"ce4bhk92rcd13ifvqgc0","pricing_plan_id":"cebpf4jnsgd1na2vs0mg"},{"bike_id":"c1666cb6-474b-4034-8c44-3aa5a2d5b1af","system_id":"levelo_inurba_marseille","lat":43.30616,"lon":5.37223,"is_reserved":false,"is_disabled":false,"rental_uris":{"android":"levelo://app?vid=c1666cb6-474b-4034-8c44-3aa5a2d5b1af","ios":"levelo://app?vid=c1666cb6-474b-4034-8c44-3aa5a2d5b1af"},"vehicle_type_id":"4","last_reported":1733573818,"current_range_meters":36800,"station_id":"ce4bgqh2rcd13ifvqc4g","pricing_plan_id":"cebpf4jnsgd1na2vs0mg"},{"bike_id":"8a146c64-d19e-4e0a-9cd4-1bb5662f0e19","system_id":"levelo_inurba_marseille","lat":43.23967,"lon":5.36627,"is_reserved":false,"is_disabled":false,"rental_uris":{"android":"levelo://app?vid=8a146c64-d19e-4e0a-9cd4-1bb5662f0e19","ios":"levelo://app?vid=8a146c64-d19e-4e0a-9cd4-1bb5662f0e19"},"vehicle_type_id":"4","last_reported":1733573818,"current_range_meters":38800,"station_id":"ce4bhi12rcd13ifvqfp0","pricing_plan_id":"cebpf4jnsgd1na2vs0mg"},{"bike_id":"3a1cabfd-7ea0-40e5-ba2a-bc16f7acb1fa","system_id":"levelo_inurba_marseille","lat":43.343331,"lon":5.358138,"is_reserved":false,"is_disabled":true,"rental_uris":{"android":"levelo://app?vid=3a1cabfd-7ea0-40e5-ba2a-bc16f7acb1fa","ios":"levelo://app?vid=3a1cabfd-7ea0-40e5-ba2a-bc16f7acb1fa"},"vehicle_type_id":"4","last_reported":1733573818,"current_range_meters":6800,"station_id":"","pricing_plan_id":"cebpf4jnsgd1na2vs0mg"},{"bike_id":"d999a77d-ffa7-44b0-b85d-d272e2d46398","system_id":"levelo_inurba_marseille","lat":43.28154,"lon":5.42649,"is_reserved":false,"is_disabled":false,"rental_uris":{"android":"levelo://app?vid=d999a77d-ffa7-44b0-b85d-d272e2d46398","ios":"levelo://app?vid=d999a77d-ffa7-44b0-b85d-d272e2d46398"},"vehicle_type_id":"4","last_reported":1733573818,"current_range_meters":39200,"station_id":"ce4bhnh2rcd13ifvqgug","pricing_plan_id":"cebpf4jnsgd1na2vs0mg"},{"bike_id":"5060997b-0122-4e26-84ce-a996c7e6c032","system_id":"levelo_inurba_marseille","lat":43.27376,"lon":5.36273,"is_reserved":false,"is_disabled":false,"rental_uris":{"android":"levelo://app?vid=5060997b-0122-4e26-84ce-a996c7e6c032","ios":"levelo://app?vid=5060997b-0122-4e26-84ce-a996c7e6c032"},"vehicle_type_id":"4","last_reported":1733573818,"current_range_meters":29600,"station_id":"ce4bhbh2rcd13ifvqeo0","pricing_plan_id":"cebpf4jnsgd1na2vs0mg"},{"bike_id":"f4638ec0-2ba9-4062-afe0-3b7c38ecbef4","system_id":"levelo_inurba_marseille","lat":43.2439,"lon":5.37066,"is_reserved":false,"is_disabled":false,"rental_uris":{"android":"levelo://app?vid=f4638ec0-2ba9-4062-afe0-3b7c38ecbef4","ios":"levelo://app?vid=f4638ec0-2ba9-4062-afe0-3b7c38ecbef4"},"vehicle_type_id":"4","last_reported":1733573818,"current_range_meters":2800,"station_id":"ce4bhhh2rcd13ifvqfk0","pricing_plan_id":"cebpf4jnsgd1na2vs0mg"},{"bike_id":"0e8bde90-0770-4ce6-9d21-22431a947c03","system_id":"levelo_inurba_marseille","lat":43.2968,"lon":5.37311,"is_reserved":false,"is_disabled":false,"rental_uris":{"android":"levelo://app?vid=0e8bde90-0770-4ce6-9d21-22431a947c03","ios":"levelo://app?vid=0e8bde90-0770-4ce6-9d21-22431a947c03"},"vehicle_type_id":"4","last_reported":1733573818,"current_range_meters":24400,"station_id":"ce4bgk12rcd13ifvqbj0","pricing_plan_id":"cebpf4jnsgd1na2vs0mg"},{"bike_id":"061254c5-de51-4e75-923a-fd9faeebb94d","system_id":"levelo_inurba_marseille","lat":43.31174,"lon":5.38705,"is_reserved":false,"is_disabled":false,"rental_uris":{"android":"levelo://app?vid=061254c5-de51-4e75-923a-fd9faeebb94d","ios":"levelo://app?vid=061254c5-de51-4e75-923a-fd9faeebb94d"},"vehicle_type_id":"4","last_reported":1733573818,"current_range_meters":38800,"station_id":"ce4bgv12rcd13ifvqcp0","pricing_plan_id":"cebpf4jnsgd1na2vs0mg"},{"bike_id":"7bc40d11-19c5-45d9-a26a-cb29d3c96f7c","system_id":"levelo_inurba_marseille","lat":43.27673,"lon":5.38891,"is_reserved":false,"is_disabled":false,"rental_uris":{"android":"levelo://app?vid=7bc40d11-19c5-45d9-a26a-cb29d3c96f7c","ios":"levelo://app?vid=7bc40d11-19c5-45d9-a26a-cb29d3c96f7c"},"vehicle_type_id":"4","last_reported":1733573818,"current_range_meters":38000,"station_id":"ce4bhi12rcd13ifvqfo0","pricing_plan_id":"cebpf4jnsgd1na2vs0mg"},{"bike_id":"e548a6ce-e838-48ff-b836-ace0b88183b8","system_id":"levelo_inurba_marseille","lat":43.30801,"lon":5.38156,"is_reserved":false,"is_disabled":false,"rental_uris":{"android":"levelo://app?vid=e548a6ce-e838-48ff-b836-ace0b88183b8","ios":"levelo://app?vid=e548a6ce-e838-48ff-b836-ace0b88183b8"},"vehicle_type_id":"4","last_reported":1733573818,"current_range_meters":33200,"station_id":"ce4bgt12rcd13ifvqce0","pricing_plan_id":"cebpf4jnsgd1na2vs0mg"},{"bike_id":"96efbcca-a997-4977-ada5-2fffc83172db","system_id":"levelo_inurba_marseille","lat":43.32488,"lon":5.36567,"is_reserved":false,"is_disabled":false,"rental_uris":{"android":"levelo://app?vid=96efbcca-a997-4977-ada5-2fffc83172db","ios":"levelo://app?vid=96efbcca-a997-4977-ada5-2fffc83172db"},"vehicle_type_id":"4","last_reported":1733573818,"current_range_meters":30400,"station_id":"ce4bhs12rcd13ifvqhvg","pricing_plan_id":"cebpf4jnsgd1na2vs0mg"},{"bike_id":"80849a30-f2d6-4d74-9f1e-419508f7f879","system_id":"levelo_inurba_marseille","lat":43.3095,"lon":5.39041,"is_reserved":false,"is_disabled":false,"rental_uris":{"android":"levelo://app?vid=80849a30-f2d6-4d74-9f1e-419508f7f879","ios":"levelo://app?vid=80849a30-f2d6-4d74-9f1e-419508f7f879"},"vehicle_type_id":"4","last_reported":1733573818,"current_range_meters":33600,"station_id":"ce4bgup2rcd13ifvqco0","pricing_plan_id":"cebpf4jnsgd1na2vs0mg"},{"bike_id":"6411fc3e-b5ce-495a-93da-f812a62427c4","system_id":"levelo_inurba_marseille","lat":43.3055,"lon":5.3653,"is_reserved":false,"is_disabled":false,"rental_uris":{"android":"levelo://app?vid=6411fc3e-b5ce-495a-93da-f812a62427c4","ios":"levelo://app?vid=6411fc3e-b5ce-495a-93da-f812a62427c4"},"vehicle_type_id":"4","last_reported":1733573818,"current_range_meters":38800,"station_id":"ce4bgs12rcd13ifvqcag","pricing_plan_id":"cebpf4jnsgd1na2vs0mg"},{"bike_id":"47065f31-c60a-4985-b1e3-2ccea93723ca","system_id":"levelo_inurba_marseille","lat":43.27206,"lon":5.39189,"is_reserved":false,"is_disabled":false,"rental_uris":{"android":"levelo://app?vid=47065f31-c60a-4985-b1e3-2ccea93723ca","ios":"levelo://app?vid=47065f31-c60a-4985-b1e3-2ccea93723ca"},"vehicle_type_id":"4","last_reported":1733573818,"current_range_meters":36400,"station_id":"ce4bhhp2rcd13ifvqfm0","pricing_plan_id":"cebpf4jnsgd1na2vs0mg"},{"bike_id":"fd8a14e9-71dc-40e1-87c7-5a9df0c904f6","system_id":"levelo_inurba_marseille","lat":43.29898,"lon":5.43671,"is_reserved":false,"is_disabled":false,"rental_uris":{"android":"levelo://app?vid=fd8a14e9-71dc-40e1-87c7-5a9df0c904f6","ios":"levelo://app?vid=fd8a14e9-71dc-40e1-87c7-5a9df0c904f6"},"vehicle_type_id":"4","last_reported":1733573818,"current_range_meters":12400,"station_id":"ce4bhpp2rcd13ifvqhfg","pricing_plan_id":"cebpf4jnsgd1na2vs0mg"},{"bike_id":"45a99d3d-18c7-4943-8d60-ad1491c0fa82","system_id":"levelo_inurba_marseille","lat":43.2756,"lon":5.38427,"is_reserved":false,"is_disabled":true,"rental_uris":{"android":"levelo://app?vid=45a99d3d-18c7-4943-8d60-ad1491c0fa82","ios":"levelo://app?vid=45a99d3d-18c7-4943-8d60-ad1491c0fa82"},"vehicle_type_id":"4","last_reported":1733573818,"current_range_meters":35600,"station_id":"ce4bhh92rcd13ifvqfi0","pricing_plan_id":"cebpf4jnsgd1na2vs0mg"},{"bike_id":"1cc94257-b186-48ee-af73-1b2e836d768d","system_id":"levelo_inurba_marseille","lat":43.28037,"lon":5.36946,"is_reserved":false,"is_disabled":false,"rental_uris":{"android":"levelo://app?vid=1cc94257-b186-48ee-af73-1b2e836d768d","ios":"levelo://app?vid=1cc94257-b186-48ee-af73-1b2e836d768d"},"vehicle_type_id":"4","last_reported":1733573818,"current_range_meters":33600,"station_id":"ce4bha12rcd13ifvqef0","pricing_plan_id":"cebpf4jnsgd1na2vs0mg"},{"bike_id":"83985555-c848-4b28-808f-8a7e7cf8519e","system_id":"levelo_inurba_marseille","lat":43.28115,"lon":5.43955,"is_reserved":false,"is_disabled":true,"rental_uris":{"android":"levelo://app?vid=83985555-c848-4b28-808f-8a7e7cf8519e","ios":"levelo://app?vid=83985555-c848-4b28-808f-8a7e7cf8519e"},"vehicle_type_id":"4","last_reported":1733573818,"current_range_meters":0,"station_id":"","pricing_plan_id":"cebpf4jnsgd1na2vs0mg"},{"bike_id":"f254f8d7-d80e-4f5f-b833-f9af7c565edd","system_id":"levelo_inurba_marseille","lat":43.29582,"lon":5.36745,"is_reserved":false,"is_disabled":false,"rental_uris":{"android":"levelo://app?vid=f254f8d7-d80e-4f5f-b833-f9af7c565edd","ios":"levelo://app?vid=f254f8d7-d80e-4f5f-b833-f9af7c565edd"},"vehicle_type_id":"4","last_reported":1733573818,"current_range_meters":38800,"station_id":"ce4bgph2rcd13ifvqc2g","pricing_plan_id":"cebpf4jnsgd1na2vs0mg"},{"bike_id":"84eddd35-4076-462c-b0e4-9c17c748aeff","system_id":"levelo_inurba_marseille","lat":43.33771,"lon":5.37491,"is_reserved":false,"is_disabled":false,"rental_uris":{"android":"levelo://app?vid=84eddd35-4076-462c-b0e4-9c17c748aeff","ios":"levelo://app?vid=84eddd35-4076-462c-b0e4-9c17c748aeff"},"vehicle_type_id":"4","last_reported":1733573818,"current_range_meters":18800,"station_id":"","pricing_plan_id":"cebpf4jnsgd1na2vs0mg"},{"bike_id":"31cddf14-1369-4114-b8f9-989c80a82d66","system_id":"levelo_inurba_marseille","lat":43.312683,"lon":5.401567,"is_reserved":false,"is_disabled":false,"rental_uris":{"android":"levelo://app?vid=31cddf14-1369-4114-b8f9-989c80a82d66","ios":"levelo://app?vid=31cddf14-1369-4114-b8f9-989c80a82d66"},"vehicle_type_id":"4","last_reported":1733573818,"current_range_meters":23200,"station_id":"ce4bh092rcd13ifvqd30","pricing_plan_id":"cebpf4jnsgd1na2vs0mg"},{"bike_id":"e4a4b4bd-c0cd-4b2b-a441-8e092f1ceba6","system_id":"levelo_inurba_marseille","lat":43.32326,"lon":5.40634,"is_reserved":false,"is_disabled":false,"rental_uris":{"android":"levelo://app?vid=e4a4b4bd-c0cd-4b2b-a441-8e092f1ceba6","ios":"levelo://app?vid=e4a4b4bd-c0cd-4b2b-a441-8e092f1ceba6"},"vehicle_type_id":"4","last_reported":1733573818,"current_range_meters":27600,"station_id":"ce4bhq92rcd13ifvqhjg","pricing_plan_id":"cebpf4jnsgd1na2vs0mg"},{"bike_id":"dda9945f-87f9-4023-8a16-9f39cb50240d","system_id":"levelo_inurba_marseille","lat":43.32668,"lon":5.40992,"is_reserved":false,"is_disabled":false,"rental_uris":{"android":"levelo://app?vid=dda9945f-87f9-4023-8a16-9f39cb50240d","ios":"levelo://app?vid=dda9945f-87f9-4023-8a16-9f39cb50240d"},"vehicle_type_id":"4","last_reported":1733573818,"current_range_meters":39200,"station_id":"ce4bhpp2rcd13ifvqhgg","pricing_plan_id":"cebpf4jnsgd1na2vs0mg"},{"bike_id":"9ecf6cbe-b18e-4738-99ca-aefcfa53f4eb","system_id":"levelo_inurba_marseille","lat":43.24074,"lon":5.37753,"is_reserved":false,"is_disabled":false,"rental_uris":{"android":"levelo://app?vid=9ecf6cbe-b18e-4738-99ca-aefcfa53f4eb","ios":"levelo://app?vid=9ecf6cbe-b18e-4738-99ca-aefcfa53f4eb"},"vehicle_type_id":"4","last_reported":1733573818,"current_range_meters":12000,"station_id":"ce4bhnp2rcd13ifvqgvg","pricing_plan_id":"cebpf4jnsgd1na2vs0mg"},{"bike_id":"8d145afa-b493-4094-9c88-d07fc30b8f90","system_id":"levelo_inurba_marseille","lat":43.30951,"lon":5.39031,"is_reserved":false,"is_disabled":false,"rental_uris":{"android":"levelo://app?vid=8d145afa-b493-4094-9c88-d07fc30b8f90","ios":"levelo://app?vid=8d145afa-b493-4094-9c88-d07fc30b8f90"},"vehicle_type_id":"4","last_reported":1733573818,"current_range_meters":38800,"station_id":"ce4bgup2rcd13ifvqco0","pricing_plan_id":"cebpf4jnsgd1na2vs0mg"},{"bike_id":"62dd080d-bf9a-4bc6-b651-cec50a1a2dd6","system_id":"levelo_inurba_marseille","lat":43.30551,"lon":5.36533,"is_reserved":false,"is_disabled":false,"rental_uris":{"android":"levelo://app?vid=62dd080d-bf9a-4bc6-b651-cec50a1a2dd6","ios":"levelo://app?vid=62dd080d-bf9a-4bc6-b651-cec50a1a2dd6"},"vehicle_type_id":"4","last_reported":1733573818,"current_range_meters":14400,"station_id":"ce4bgs12rcd13ifvqcag","pricing_plan_id":"cebpf4jnsgd1na2vs0mg"},{"bike_id":"5687e068-69cc-4397-b6fb-a40653dbd395","system_id":"levelo_inurba_marseille","lat":43.31758,"lon":5.39018,"is_reserved":false,"is_disabled":false,"rental_uris":{"android":"levelo://app?vid=5687e068-69cc-4397-b6fb-a40653dbd395","ios":"levelo://app?vid=5687e068-69cc-4397-b6fb-a40653dbd395"},"vehicle_type_id":"4","last_reported":1733573818,"current_range_meters":39200,"station_id":"ce4bhqp2rcd13ifvqhng","pricing_plan_id":"cebpf4jnsgd1na2vs0mg"},{"bike_id":"a8264fb2-dad4-4c52-9230-cf80b47302d6","system_id":"levelo_inurba_marseille","lat":43.32003,"lon":5.3816,"is_reserved":false,"is_disabled":false,"rental_uris":{"android":"levelo://app?vid=a8264fb2-dad4-4c52-9230-cf80b47302d6","ios":"levelo://app?vid=a8264fb2-dad4-4c52-9230-cf80b47302d6"},"vehicle_type_id":"4","last_reported":1733573818,"current_range_meters":8800,"station_id":"ce4bhr12rcd13ifvqhpg","pricing_plan_id":"cebpf4jnsgd1na2vs0mg"},{"bike_id":"5edf82fa-e9d0-4d1f-98f1-37c98092771a","system_id":"levelo_inurba_marseille","lat":43.23194,"lon":5.35547,"is_reserved":false,"is_disabled":false,"rental_uris":{"android":"levelo://app?vid=5edf82fa-e9d0-4d1f-98f1-37c98092771a","ios":"levelo://app?vid=5edf82fa-e9d0-4d1f-98f1-37c98092771a"},"vehicle_type_id":"4","last_reported":1733573818,"current_range_meters":38800,"station_id":"ce4bhu92rcd13ifvqi70","pricing_plan_id":"cebpf4jnsgd1na2vs0mg"},{"bike_id":"35f20615-40f4-46c4-83fe-1888437d4cf6","system_id":"levelo_inurba_marseille","lat":43.28273,"lon":5.35079,"is_reserved":false,"is_disabled":false,"rental_uris":{"android":"levelo://app?vid=35f20615-40f4-46c4-83fe-1888437d4cf6","ios":"levelo://app?vid=35f20615-40f4-46c4-83fe-1888437d4cf6"},"vehicle_type_id":"4","last_reported":1733573818,"current_range_meters":38800,"station_id":"ce4bhbp2rcd13ifvqerg","pricing_plan_id":"cebpf4jnsgd1na2vs0mg"},{"bike_id":"cb4a9db6-7563-4a33-a955-6eb0af1f7b34","system_id":"levelo_inurba_marseille","lat":43.28154,"lon":5.42631,"is_reserved":false,"is_disabled":false,"rental_uris":{"android":"levelo://app?vid=cb4a9db6-7563-4a33-a955-6eb0af1f7b34","ios":"levelo://app?vid=cb4a9db6-7563-4a33-a955-6eb0af1f7b34"},"vehicle_type_id":"4","last_reported":1733573818,"current_range_meters":36800,"station_id":"ce4bhnh2rcd13ifvqgug","pricing_plan_id":"cebpf4jnsgd1na2vs0mg"},{"bike_id":"3afcb54a-b8a5-40bb-8ae8-ddf1f47b8268","system_id":"levelo_inurba_marseille","lat":43.30526,"lon":5.38426,"is_reserved":false,"is_disabled":true,"rental_uris":{"android":"levelo://app?vid=3afcb54a-b8a5-40bb-8ae8-ddf1f47b8268","ios":"levelo://app?vid=3afcb54a-b8a5-40bb-8ae8-ddf1f47b8268"},"vehicle_type_id":"4","last_reported":1733573818,"current_range_meters":36400,"station_id":"ce4bgg92rcd13ifvqb30","pricing_plan_id":"cebpf4jnsgd1na2vs0mg"},{"bike_id":"a76f0499-0af6-402b-8f9f-ddd78320a7b4","system_id":"levelo_inurba_marseille","lat":43.30468,"lon":5.37907,"is_reserved":false,"is_disabled":false,"rental_uris":{"android":"levelo://app?vid=a76f0499-0af6-402b-8f9f-ddd78320a7b4","ios":"levelo://app?vid=a76f0499-0af6-402b-8f9f-ddd78320a7b4"},"vehicle_type_id":"4","last_reported":1733573818,"current_range_meters":38800,"station_id":"ce4bgup2rcd13ifvqcn0","pricing_plan_id":"cebpf4jnsgd1na2vs0mg"},{"bike_id":"83319820-ad4f-4208-bf65-c9fc431b1a4c","system_id":"levelo_inurba_marseille","lat":43.25836,"lon":5.39432,"is_reserved":false,"is_disabled":false,"rental_uris":{"android":"levelo://app?vid=83319820-ad4f-4208-bf65-c9fc431b1a4c","ios":"levelo://app?vid=83319820-ad4f-4208-bf65-c9fc431b1a4c"},"vehicle_type_id":"4","last_reported":1733573818,"current_range_meters":34800,"station_id":"ce4bhip2rcd13ifvqft0","pricing_plan_id":"cebpf4jnsgd1na2vs0mg"},{"bike_id":"9c2d089d-e580-464c-a254-a84d0c5baff8","system_id":"levelo_inurba_marseille","lat":43.25866,"lon":5.39899,"is_reserved":false,"is_disabled":false,"rental_uris":{"android":"levelo://app?vid=9c2d089d-e580-464c-a254-a84d0c5baff8","ios":"levelo://app?vid=9c2d089d-e580-464c-a254-a84d0c5baff8"},"vehicle_type_id":"4","last_reported":1733573818,"current_range_meters":29600,"station_id":"ce4bhl92rcd13ifvqghg","pricing_plan_id":"cebpf4jnsgd1na2vs0mg"},{"bike_id":"0694b84b-212e-4e3c-9092-6e213a66ec49","system_id":"levelo_inurba_marseille","lat":43.23064,"lon":5.35487,"is_reserved":false,"is_disabled":false,"rental_uris":{"android":"levelo://app?vid=0694b84b-212e-4e3c-9092-6e213a66ec49","ios":"levelo://app?vid=0694b84b-212e-4e3c-9092-6e213a66ec49"},"vehicle_type_id":"4","last_reported":1733573818,"current_range_meters":11600,"station_id":"cpo3342slgdg3j2ifvpg","pricing_plan_id":"cebpf4jnsgd1na2vs0mg"},{"bike_id":"9202c63e-372c-4469-a5c1-8e35757d1940","system_id":"levelo_inurba_marseille","lat":43.30053,"lon":5.38832,"is_reserved":false,"is_disabled":true,"rental_uris":{"android":"levelo://app?vid=9202c63e-372c-4469-a5c1-8e35757d1940","ios":"levelo://app?vid=9202c63e-372c-4469-a5c1-8e35757d1940"},"vehicle_type_id":"4","last_reported":1733573818,"current_range_meters":0,"station_id":"","pricing_plan_id":"cebpf4jnsgd1na2vs0mg"},{"bike_id":"05b326f9-75dc-47d1-aec8-fe6e3f7464e6","system_id":"levelo_inurba_marseille","lat":43.30142,"lon":5.37415,"is_reserved":false,"is_disabled":false,"rental_uris":{"android":"levelo://app?vid=05b326f9-75dc-47d1-aec8-fe6e3f7464e6","ios":"levelo://app?vid=05b326f9-75dc-47d1-aec8-fe6e3f7464e6"},"vehicle_type_id":"4","last_reported":1733573818,"current_range_meters":38800,"station_id":"ce4bgs92rcd13ifvqcc0","pricing_plan_id":"cebpf4jnsgd1na2vs0mg"},{"bike_id":"1181933f-490e-47f8-8a58-5c99d81e7f34","system_id":"levelo_inurba_marseille","lat":43.30209,"lon":5.39458,"is_reserved":false,"is_disabled":false,"rental_uris":{"android":"levelo://app?vid=1181933f-490e-47f8-8a58-5c99d81e7f34","ios":"levelo://app?vid=1181933f-490e-47f8-8a58-5c99d81e7f34"},"vehicle_type_id":"4","last_reported":1733573818,"current_range_meters":34000,"station_id":"ce4bh0p2rcd13ifvqd70","pricing_plan_id":"cebpf4jnsgd1na2vs0mg"},{"bike_id":"02dad83e-3994-4fdb-a40a-85a39668835a","system_id":"levelo_inurba_marseille","lat":43.31269,"lon":5.40166,"is_reserved":false,"is_disabled":false,"rental_uris":{"android":"levelo://app?vid=02dad83e-3994-4fdb-a40a-85a39668835a","ios":"levelo://app?vid=02dad83e-3994-4fdb-a40a-85a39668835a"},"vehicle_type_id":"4","last_reported":1733573818,"current_range_meters":38800,"station_id":"ce4bh092rcd13ifvqd30","pricing_plan_id":"cebpf4jnsgd1na2vs0mg"},{"bike_id":"0deb7b46-3bee-4382-87b1-3984fb62457f","system_id":"levelo_inurba_marseille","lat":43.28745,"lon":5.38915,"is_reserved":false,"is_disabled":true,"rental_uris":{"android":"levelo://app?vid=0deb7b46-3bee-4382-87b1-3984fb62457f","ios":"levelo://app?vid=0deb7b46-3bee-4382-87b1-3984fb62457f"},"vehicle_type_id":"4","last_reported":1733573818,"current_range_meters":27200,"station_id":"","pricing_plan_id":"cebpf4jnsgd1na2vs0mg"},{"bike_id":"93bffbc9-4acc-401d-ab21-e04e1b6297b6","system_id":"levelo_inurba_marseille","lat":43.2563,"lon":5.40031,"is_reserved":false,"is_disabled":false,"rental_uris":{"android":"levelo://app?vid=93bffbc9-4acc-401d-ab21-e04e1b6297b6","ios":"levelo://app?vid=93bffbc9-4acc-401d-ab21-e04e1b6297b6"},"vehicle_type_id":"4","last_reported":1733573818,"current_range_meters":12800,"station_id":"ce4bhhp2rcd13ifvqfm0","pricing_plan_id":"cebpf4jnsgd1na2vs0mg"},{"bike_id":"34e4ec9e-c4f9-468e-a03a-5c740580d924","system_id":"levelo_inurba_marseille","lat":43.28271,"lon":5.35078,"is_reserved":false,"is_disabled":false,"rental_uris":{"android":"levelo://app?vid=34e4ec9e-c4f9-468e-a03a-5c740580d924","ios":"levelo://app?vid=34e4ec9e-c4f9-468e-a03a-5c740580d924"},"vehicle_type_id":"4","last_reported":1733573818,"current_range_meters":34000,"station_id":"ce4bhbp2rcd13ifvqerg","pricing_plan_id":"cebpf4jnsgd1na2vs0mg"},{"bike_id":"5460e245-8621-4d83-bd98-c21b0b296c70","system_id":"levelo_inurba_marseille","lat":43.24391,"lon":5.37048,"is_reserved":false,"is_disabled":false,"rental_uris":{"android":"levelo://app?vid=5460e245-8621-4d83-bd98-c21b0b296c70","ios":"levelo://app?vid=5460e245-8621-4d83-bd98-c21b0b296c70"},"vehicle_type_id":"4","last_reported":1733573818,"current_range_meters":37600,"station_id":"ce4bhhh2rcd13ifvqfk0","pricing_plan_id":"cebpf4jnsgd1na2vs0mg"},{"bike_id":"d83e3c5b-945b-4ea9-9120-fed996eba8c3","system_id":"levelo_inurba_marseille","lat":43.29306,"lon":5.37464,"is_reserved":false,"is_disabled":false,"rental_uris":{"android":"levelo://app?vid=d83e3c5b-945b-4ea9-9120-fed996eba8c3","ios":"levelo://app?vid=d83e3c5b-945b-4ea9-9120-fed996eba8c3"},"vehicle_type_id":"4","last_reported":1733573818,"current_range_meters":37600,"station_id":"ce4bgi12rcd13ifvqb70","pricing_plan_id":"cebpf4jnsgd1na2vs0mg"},{"bike_id":"07b8c281-3be1-46fd-bf35-bd455797c16c","system_id":"levelo_inurba_marseille","lat":43.23196,"lon":5.35548,"is_reserved":false,"is_disabled":false,"rental_uris":{"android":"levelo://app?vid=07b8c281-3be1-46fd-bf35-bd455797c16c","ios":"levelo://app?vid=07b8c281-3be1-46fd-bf35-bd455797c16c"},"vehicle_type_id":"4","last_reported":1733573818,"current_range_meters":31200,"station_id":"ce4bhu92rcd13ifvqi70","pricing_plan_id":"cebpf4jnsgd1na2vs0mg"},{"bike_id":"3831fe11-698a-4302-89cd-ea39a2583346","system_id":"levelo_inurba_marseille","lat":43.29776,"lon":5.37112,"is_reserved":false,"is_disabled":false,"rental_uris":{"android":"levelo://app?vid=3831fe11-698a-4302-89cd-ea39a2583346","ios":"levelo://app?vid=3831fe11-698a-4302-89cd-ea39a2583346"},"vehicle_type_id":"4","last_reported":1733573818,"current_range_meters":2800,"station_id":"ce4bgop2rcd13ifvqc1g","pricing_plan_id":"cebpf4jnsgd1na2vs0mg"},{"bike_id":"859b9771-dd84-4b43-9b9d-a385d9950999","system_id":"levelo_inurba_marseille","lat":43.29202,"lon":5.35811,"is_reserved":false,"is_disabled":false,"rental_uris":{"android":"levelo://app?vid=859b9771-dd84-4b43-9b9d-a385d9950999","ios":"levelo://app?vid=859b9771-dd84-4b43-9b9d-a385d9950999"},"vehicle_type_id":"4","last_reported":1733573818,"current_range_meters":38800,"station_id":"ce4bhb12rcd13ifvqel0","pricing_plan_id":"cebpf4jnsgd1na2vs0mg"},{"bike_id":"02bdc395-5a5b-4ce7-b7a2-a991ffae725c","system_id":"levelo_inurba_marseille","lat":43.25574,"lon":5.38238,"is_reserved":false,"is_disabled":false,"rental_uris":{"android":"levelo://app?vid=02bdc395-5a5b-4ce7-b7a2-a991ffae725c","ios":"levelo://app?vid=02bdc395-5a5b-4ce7-b7a2-a991ffae725c"},"vehicle_type_id":"4","last_reported":1733573818,"current_range_meters":36800,"station_id":"ce4bhih2rcd13ifvqfs0","pricing_plan_id":"cebpf4jnsgd1na2vs0mg"},{"bike_id":"7a0a2714-105e-4622-8b3e-a7dd62dc6941","system_id":"levelo_inurba_marseille","lat":43.29266,"lon":5.384189,"is_reserved":false,"is_disabled":true,"rental_uris":{"android":"levelo://app?vid=7a0a2714-105e-4622-8b3e-a7dd62dc6941","ios":"levelo://app?vid=7a0a2714-105e-4622-8b3e-a7dd62dc6941"},"vehicle_type_id":"4","last_reported":1733573818,"current_range_meters":0,"station_id":"","pricing_plan_id":"cebpf4jnsgd1na2vs0mg"},{"bike_id":"9f53acdf-b2be-4b69-b01b-87cbf7343be4","system_id":"levelo_inurba_marseille","lat":43.26501,"lon":5.39548,"is_reserved":false,"is_disabled":true,"rental_uris":{"android":"levelo://app?vid=9f53acdf-b2be-4b69-b01b-87cbf7343be4","ios":"levelo://app?vid=9f53acdf-b2be-4b69-b01b-87cbf7343be4"},"vehicle_type_id":"4","last_reported":1733573818,"current_range_meters":31200,"station_id":"ce4bhi12rcd13ifvqfq0","pricing_plan_id":"cebpf4jnsgd1na2vs0mg"},{"bike_id":"6cdb4df5-d6ba-429d-873b-a92cb840f5a0","system_id":"levelo_inurba_marseille","lat":43.30947,"lon":5.39038,"is_reserved":false,"is_disabled":false,"rental_uris":{"android":"levelo://app?vid=6cdb4df5-d6ba-429d-873b-a92cb840f5a0","ios":"levelo://app?vid=6cdb4df5-d6ba-429d-873b-a92cb840f5a0"},"vehicle_type_id":"4","last_reported":1733573818,"current_range_meters":34800,"station_id":"ce4bgup2rcd13ifvqco0","pricing_plan_id":"cebpf4jnsgd1na2vs0mg"},{"bike_id":"a5f05a06-bff4-4f39-af01-91b3d19736b8","system_id":"levelo_inurba_marseille","lat":43.23198,"lon":5.35546,"is_reserved":false,"is_disabled":false,"rental_uris":{"android":"levelo://app?vid=a5f05a06-bff4-4f39-af01-91b3d19736b8","ios":"levelo://app?vid=a5f05a06-bff4-4f39-af01-91b3d19736b8"},"vehicle_type_id":"4","last_reported":1733573818,"current_range_meters":30800,"station_id":"ce4bhu92rcd13ifvqi70","pricing_plan_id":"cebpf4jnsgd1na2vs0mg"},{"bike_id":"57d7cb83-11ba-4cf3-b698-c493de7277ee","system_id":"levelo_inurba_marseille","lat":43.30545,"lon":5.36556,"is_reserved":false,"is_disabled":false,"rental_uris":{"android":"levelo://app?vid=57d7cb83-11ba-4cf3-b698-c493de7277ee","ios":"levelo://app?vid=57d7cb83-11ba-4cf3-b698-c493de7277ee"},"vehicle_type_id":"4","last_reported":1733573818,"current_range_meters":38800,"station_id":"ce4bgs12rcd13ifvqcag","pricing_plan_id":"cebpf4jnsgd1na2vs0mg"},{"bike_id":"33f1a526-a5a3-4261-b1e0-d90c46ff918d","system_id":"levelo_inurba_marseille","lat":43.28158,"lon":5.42637,"is_reserved":false,"is_disabled":true,"rental_uris":{"android":"levelo://app?vid=33f1a526-a5a3-4261-b1e0-d90c46ff918d","ios":"levelo://app?vid=33f1a526-a5a3-4261-b1e0-d90c46ff918d"},"vehicle_type_id":"4","last_reported":1733573818,"current_range_meters":32000,"station_id":"ce4bhnh2rcd13ifvqgug","pricing_plan_id":"cebpf4jnsgd1na2vs0mg"},{"bike_id":"dd5a52c7-3b9c-47a5-a3fc-79d49bb5ed81","system_id":"levelo_inurba_marseille","lat":43.30891,"lon":5.39662,"is_reserved":false,"is_disabled":false,"rental_uris":{"android":"levelo://app?vid=dd5a52c7-3b9c-47a5-a3fc-79d49bb5ed81","ios":"levelo://app?vid=dd5a52c7-3b9c-47a5-a3fc-79d49bb5ed81"},"vehicle_type_id":"4","last_reported":1733573818,"current_range_meters":32000,"station_id":"ce4bh012rcd13ifvqcv0","pricing_plan_id":"cebpf4jnsgd1na2vs0mg"},{"bike_id":"7d60acff-cb6c-4a92-aca6-d0de3845edf6","system_id":"levelo_inurba_marseille","lat":43.29529,"lon":5.38545,"is_reserved":false,"is_disabled":true,"rental_uris":{"android":"levelo://app?vid=7d60acff-cb6c-4a92-aca6-d0de3845edf6","ios":"levelo://app?vid=7d60acff-cb6c-4a92-aca6-d0de3845edf6"},"vehicle_type_id":"4","last_reported":1733573818,"current_range_meters":25600,"station_id":"ce4bgih2rcd13ifvqba0","pricing_plan_id":"cebpf4jnsgd1na2vs0mg"},{"bike_id":"d7c05d6e-bb3d-4cdd-9ae1-943e8a0c79e4","system_id":"levelo_inurba_marseille","lat":43.27916,"lon":5.39575,"is_reserved":false,"is_disabled":false,"rental_uris":{"android":"levelo://app?vid=d7c05d6e-bb3d-4cdd-9ae1-943e8a0c79e4","ios":"levelo://app?vid=d7c05d6e-bb3d-4cdd-9ae1-943e8a0c79e4"},"vehicle_type_id":"4","last_reported":1733573818,"current_range_meters":27600,"station_id":"ce4bhf92rcd13ifvqf40","pricing_plan_id":"cebpf4jnsgd1na2vs0mg"},{"bike_id":"b01ba929-1580-401b-973d-e4a15d746d4a","system_id":"levelo_inurba_marseille","lat":43.22926,"lon":5.35376,"is_reserved":false,"is_disabled":false,"rental_uris":{"android":"levelo://app?vid=b01ba929-1580-401b-973d-e4a15d746d4a","ios":"levelo://app?vid=b01ba929-1580-401b-973d-e4a15d746d4a"},"vehicle_type_id":"4","last_reported":1733573818,"current_range_meters":4000,"station_id":"cpo3532slgdg3j2ikp40","pricing_plan_id":"cebpf4jnsgd1na2vs0mg"},{"bike_id":"f3fa3bf5-31d6-4472-b1d3-d1a67c8f75f1","system_id":"levelo_inurba_marseille","lat":43.31166,"lon":5.38721,"is_reserved":false,"is_disabled":false,"rental_uris":{"android":"levelo://app?vid=f3fa3bf5-31d6-4472-b1d3-d1a67c8f75f1","ios":"levelo://app?vid=f3fa3bf5-31d6-4472-b1d3-d1a67c8f75f1"},"vehicle_type_id":"4","last_reported":1733573818,"current_range_meters":27200,"station_id":"ce4bgv12rcd13ifvqcp0","pricing_plan_id":"cebpf4jnsgd1na2vs0mg"},{"bike_id":"c3ce1477-0069-42cf-8168-95a004f0456f","system_id":"levelo_inurba_marseille","lat":43.24385,"lon":5.37063,"is_reserved":false,"is_disabled":false,"rental_uris":{"android":"levelo://app?vid=c3ce1477-0069-42cf-8168-95a004f0456f","ios":"levelo://app?vid=c3ce1477-0069-42cf-8168-95a004f0456f"},"vehicle_type_id":"4","last_reported":1733573818,"current_range_meters":38800,"station_id":"ce4bhhh2rcd13ifvqfk0","pricing_plan_id":"cebpf4jnsgd1na2vs0mg"},{"bike_id":"304aa398-2770-4e33-adda-0cf5f03f543a","system_id":"levelo_inurba_marseille","lat":43.26943,"lon":5.40252,"is_reserved":false,"is_disabled":false,"rental_uris":{"android":"levelo://app?vid=304aa398-2770-4e33-adda-0cf5f03f543a","ios":"levelo://app?vid=304aa398-2770-4e33-adda-0cf5f03f543a"},"vehicle_type_id":"4","last_reported":1733573818,"current_range_meters":25600,"station_id":"cjm6bp8fraef2m0cb0m0","pricing_plan_id":"cebpf4jnsgd1na2vs0mg"},{"bike_id":"aeb5b9ef-cf83-4f2b-8e3d-091258186d3c","system_id":"levelo_inurba_marseille","lat":43.25088,"lon":5.3953,"is_reserved":false,"is_disabled":false,"rental_uris":{"android":"levelo://app?vid=aeb5b9ef-cf83-4f2b-8e3d-091258186d3c","ios":"levelo://app?vid=aeb5b9ef-cf83-4f2b-8e3d-091258186d3c"},"vehicle_type_id":"4","last_reported":1733573818,"current_range_meters":8800,"station_id":"ce4bhm12rcd13ifvqgkg","pricing_plan_id":"cebpf4jnsgd1na2vs0mg"},{"bike_id":"ddcfb5f6-e313-411d-9661-29572b410d27","system_id":"levelo_inurba_marseille","lat":43.29577,"lon":5.3752,"is_reserved":false,"is_disabled":false,"rental_uris":{"android":"levelo://app?vid=ddcfb5f6-e313-411d-9661-29572b410d27","ios":"levelo://app?vid=ddcfb5f6-e313-411d-9661-29572b410d27"},"vehicle_type_id":"4","last_reported":1733573818,"current_range_meters":24400,"station_id":"ce4bgh92rcd13ifvqb50","pricing_plan_id":"cebpf4jnsgd1na2vs0mg"},{"bike_id":"024ec25f-cc7d-496e-9b28-c5c5de9fede5","system_id":"levelo_inurba_marseille","lat":43.30935,"lon":5.40148,"is_reserved":false,"is_disabled":false,"rental_uris":{"android":"levelo://app?vid=024ec25f-cc7d-496e-9b28-c5c5de9fede5","ios":"levelo://app?vid=024ec25f-cc7d-496e-9b28-c5c5de9fede5"},"vehicle_type_id":"4","last_reported":1733573818,"current_range_meters":36000,"station_id":"ce4bgvp2rcd13ifvqct0","pricing_plan_id":"cebpf4jnsgd1na2vs0mg"},{"bike_id":"8eaca702-8ef5-4e8f-aeeb-9332458262dd","system_id":"levelo_inurba_marseille","lat":43.2927,"lon":5.36851,"is_reserved":false,"is_disabled":false,"rental_uris":{"android":"levelo://app?vid=8eaca702-8ef5-4e8f-aeeb-9332458262dd","ios":"levelo://app?vid=8eaca702-8ef5-4e8f-aeeb-9332458262dd"},"vehicle_type_id":"4","last_reported":1733573818,"current_range_meters":24400,"station_id":"ce4bhbp2rcd13ifvqesg","pricing_plan_id":"cebpf4jnsgd1na2vs0mg"},{"bike_id":"d548e626-c86d-4539-a94a-e200a6eec78b","system_id":"levelo_inurba_marseille","lat":43.30886,"lon":5.37203,"is_reserved":false,"is_disabled":false,"rental_uris":{"android":"levelo://app?vid=d548e626-c86d-4539-a94a-e200a6eec78b","ios":"levelo://app?vid=d548e626-c86d-4539-a94a-e200a6eec78b"},"vehicle_type_id":"4","last_reported":1733573818,"current_range_meters":37600,"station_id":"ce4bguh2rcd13ifvqckg","pricing_plan_id":"cebpf4jnsgd1na2vs0mg"},{"bike_id":"282caff4-02c7-46cf-a9dc-fa558154bfc1","system_id":"levelo_inurba_marseille","lat":43.28151,"lon":5.42639,"is_reserved":false,"is_disabled":false,"rental_uris":{"android":"levelo://app?vid=282caff4-02c7-46cf-a9dc-fa558154bfc1","ios":"levelo://app?vid=282caff4-02c7-46cf-a9dc-fa558154bfc1"},"vehicle_type_id":"4","last_reported":1733573818,"current_range_meters":38800,"station_id":"ce4bhnh2rcd13ifvqgug","pricing_plan_id":"cebpf4jnsgd1na2vs0mg"},{"bike_id":"581f340d-1ceb-4dce-aeff-f949f5c810a7","system_id":"levelo_inurba_marseille","lat":43.30883,"lon":5.39645,"is_reserved":false,"is_disabled":false,"rental_uris":{"android":"levelo://app?vid=581f340d-1ceb-4dce-aeff-f949f5c810a7","ios":"levelo://app?vid=581f340d-1ceb-4dce-aeff-f949f5c810a7"},"vehicle_type_id":"4","last_reported":1733573818,"current_range_meters":20400,"station_id":"ce4bh012rcd13ifvqcv0","pricing_plan_id":"cebpf4jnsgd1na2vs0mg"},{"bike_id":"6ad8fff5-6505-40fc-8922-2acdd3c82e7b","system_id":"levelo_inurba_marseille","lat":43.29794,"lon":5.38119,"is_reserved":false,"is_disabled":true,"rental_uris":{"android":"levelo://app?vid=6ad8fff5-6505-40fc-8922-2acdd3c82e7b","ios":"levelo://app?vid=6ad8fff5-6505-40fc-8922-2acdd3c82e7b"},"vehicle_type_id":"4","last_reported":1733573818,"current_range_meters":17600,"station_id":"ce4bgip2rcd13ifvqbb0","pricing_plan_id":"cebpf4jnsgd1na2vs0mg"},{"bike_id":"3edeaa14-9b0c-46e8-8306-77be6f15949b","system_id":"levelo_inurba_marseille","lat":43.27201,"lon":5.39191,"is_reserved":false,"is_disabled":false,"rental_uris":{"android":"levelo://app?vid=3edeaa14-9b0c-46e8-8306-77be6f15949b","ios":"levelo://app?vid=3edeaa14-9b0c-46e8-8306-77be6f15949b"},"vehicle_type_id":"4","last_reported":1733573818,"current_range_meters":37600,"station_id":"ce4bhhp2rcd13ifvqfm0","pricing_plan_id":"cebpf4jnsgd1na2vs0mg"},{"bike_id":"ba8ee62b-e1f8-4737-a62b-c2c4e1c22f92","system_id":"levelo_inurba_marseille","lat":43.26063,"lon":5.39412,"is_reserved":false,"is_disabled":false,"rental_uris":{"android":"levelo://app?vid=ba8ee62b-e1f8-4737-a62b-c2c4e1c22f92","ios":"levelo://app?vid=ba8ee62b-e1f8-4737-a62b-c2c4e1c22f92"},"vehicle_type_id":"4","last_reported":1733573818,"current_range_meters":38800,"station_id":"ce4bhh92rcd13ifvqfj0","pricing_plan_id":"cebpf4jnsgd1na2vs0mg"},{"bike_id":"63d9931f-a15d-42df-bcaa-0f8a339d7b84","system_id":"levelo_inurba_marseille","lat":43.25116,"lon":5.40317,"is_reserved":false,"is_disabled":false,"rental_uris":{"android":"levelo://app?vid=63d9931f-a15d-42df-bcaa-0f8a339d7b84","ios":"levelo://app?vid=63d9931f-a15d-42df-bcaa-0f8a339d7b84"},"vehicle_type_id":"4","last_reported":1733573818,"current_range_meters":6400,"station_id":"ce4bhlh2rcd13ifvqgig","pricing_plan_id":"cebpf4jnsgd1na2vs0mg"},{"bike_id":"2f250563-0a59-4c81-81a8-48619f0869b9","system_id":"levelo_inurba_marseille","lat":43.27211,"lon":5.39203,"is_reserved":false,"is_disabled":false,"rental_uris":{"android":"levelo://app?vid=2f250563-0a59-4c81-81a8-48619f0869b9","ios":"levelo://app?vid=2f250563-0a59-4c81-81a8-48619f0869b9"},"vehicle_type_id":"4","last_reported":1733573818,"current_range_meters":38800,"station_id":"ce4bhhp2rcd13ifvqfm0","pricing_plan_id":"cebpf4jnsgd1na2vs0mg"},{"bike_id":"edff7319-6ba7-41c0-9e4d-8b91bad7ac2a","system_id":"levelo_inurba_marseille","lat":43.31229,"lon":5.36864,"is_reserved":false,"is_disabled":false,"rental_uris":{"android":"levelo://app?vid=edff7319-6ba7-41c0-9e4d-8b91bad7ac2a","ios":"levelo://app?vid=edff7319-6ba7-41c0-9e4d-8b91bad7ac2a"},"vehicle_type_id":"4","last_reported":1733573818,"current_range_meters":22000,"station_id":"ce4bgl92rcd13ifvqbq0","pricing_plan_id":"cebpf4jnsgd1na2vs0mg"},{"bike_id":"af0bd532-5fea-4a57-8e62-28c4d374f92f","system_id":"levelo_inurba_marseille","lat":43.28105,"lon":5.3783,"is_reserved":false,"is_disabled":false,"rental_uris":{"android":"levelo://app?vid=af0bd532-5fea-4a57-8e62-28c4d374f92f","ios":"levelo://app?vid=af0bd532-5fea-4a57-8e62-28c4d374f92f"},"vehicle_type_id":"4","last_reported":1733573818,"current_range_meters":36800,"station_id":"ce4bha12rcd13ifvqee0","pricing_plan_id":"cebpf4jnsgd1na2vs0mg"},{"bike_id":"2c46e8c7-7341-4e43-879e-fafcca740f82","system_id":"levelo_inurba_marseille","lat":43.31716,"lon":5.37754,"is_reserved":false,"is_disabled":false,"rental_uris":{"android":"levelo://app?vid=2c46e8c7-7341-4e43-879e-fafcca740f82","ios":"levelo://app?vid=2c46e8c7-7341-4e43-879e-fafcca740f82"},"vehicle_type_id":"4","last_reported":1733573818,"current_range_meters":32000,"station_id":"ce4bgth2rcd13ifvqch0","pricing_plan_id":"cebpf4jnsgd1na2vs0mg"},{"bike_id":"33fa1c3e-8b2f-4b4a-86ae-2f664a2cbfce","system_id":"levelo_inurba_marseille","lat":43.32484,"lon":5.36581,"is_reserved":false,"is_disabled":false,"rental_uris":{"android":"levelo://app?vid=33fa1c3e-8b2f-4b4a-86ae-2f664a2cbfce","ios":"levelo://app?vid=33fa1c3e-8b2f-4b4a-86ae-2f664a2cbfce"},"vehicle_type_id":"4","last_reported":1733573818,"current_range_meters":5600,"station_id":"ce4bhs12rcd13ifvqhvg","pricing_plan_id":"cebpf4jnsgd1na2vs0mg"},{"bike_id":"dc0ab180-2a04-4345-9339-15aea0dbbe42","system_id":"levelo_inurba_marseille","lat":43.28951,"lon":5.36408,"is_reserved":false,"is_disabled":false,"rental_uris":{"android":"levelo://app?vid=dc0ab180-2a04-4345-9339-15aea0dbbe42","ios":"levelo://app?vid=dc0ab180-2a04-4345-9339-15aea0dbbe42"},"vehicle_type_id":"4","last_reported":1733573818,"current_range_meters":24000,"station_id":"ce4bhc92rcd13ifvqetg","pricing_plan_id":"cebpf4jnsgd1na2vs0mg"},{"bike_id":"96965b2a-fcb8-4839-b165-ef6aac870948","system_id":"levelo_inurba_marseille","lat":43.27815,"lon":5.40715,"is_reserved":false,"is_disabled":false,"rental_uris":{"android":"levelo://app?vid=96965b2a-fcb8-4839-b165-ef6aac870948","ios":"levelo://app?vid=96965b2a-fcb8-4839-b165-ef6aac870948"},"vehicle_type_id":"4","last_reported":1733573818,"current_range_meters":34800,"station_id":"ce4bhnh2rcd13ifvqgtg","pricing_plan_id":"cebpf4jnsgd1na2vs0mg"},{"bike_id":"e3ad699e-b42c-4905-89be-152ded5d72b3","system_id":"levelo_inurba_marseille","lat":43.29004,"lon":5.35607,"is_reserved":false,"is_disabled":false,"rental_uris":{"android":"levelo://app?vid=e3ad699e-b42c-4905-89be-152ded5d72b3","ios":"levelo://app?vid=e3ad699e-b42c-4905-89be-152ded5d72b3"},"vehicle_type_id":"4","last_reported":1733573818,"current_range_meters":10800,"station_id":"ce4bhb92rcd13ifvqen0","pricing_plan_id":"cebpf4jnsgd1na2vs0mg"},{"bike_id":"fd98eaa9-4d55-4e7b-aa90-0d14707466d9","system_id":"levelo_inurba_marseille","lat":43.337444,"lon":5.374475,"is_reserved":false,"is_disabled":true,"rental_uris":{"android":"levelo://app?vid=fd98eaa9-4d55-4e7b-aa90-0d14707466d9","ios":"levelo://app?vid=fd98eaa9-4d55-4e7b-aa90-0d14707466d9"},"vehicle_type_id":"4","last_reported":1733573818,"current_range_meters":0,"station_id":"","pricing_plan_id":"cebpf4jnsgd1na2vs0mg"},{"bike_id":"b2bb7dcd-fcc3-454a-9506-7fc343389f30","system_id":"levelo_inurba_marseille","lat":43.28273,"lon":5.35067,"is_reserved":false,"is_disabled":false,"rental_uris":{"android":"levelo://app?vid=b2bb7dcd-fcc3-454a-9506-7fc343389f30","ios":"levelo://app?vid=b2bb7dcd-fcc3-454a-9506-7fc343389f30"},"vehicle_type_id":"4","last_reported":1733573818,"current_range_meters":39200,"station_id":"ce4bhbp2rcd13ifvqerg","pricing_plan_id":"cebpf4jnsgd1na2vs0mg"},{"bike_id":"253f4c5d-6041-4155-8372-2cd5b10deb82","system_id":"levelo_inurba_marseille","lat":43.26935,"lon":5.38917,"is_reserved":false,"is_disabled":false,"rental_uris":{"android":"levelo://app?vid=253f4c5d-6041-4155-8372-2cd5b10deb82","ios":"levelo://app?vid=253f4c5d-6041-4155-8372-2cd5b10deb82"},"vehicle_type_id":"4","last_reported":1733573818,"current_range_meters":38800,"station_id":"ce4bhhh2rcd13ifvqfl0","pricing_plan_id":"cebpf4jnsgd1na2vs0mg"},{"bike_id":"27747901-daa4-4699-83f2-9d3e8e7d86e6","system_id":"levelo_inurba_marseille","lat":43.25821,"lon":5.39433,"is_reserved":false,"is_disabled":false,"rental_uris":{"android":"levelo://app?vid=27747901-daa4-4699-83f2-9d3e8e7d86e6","ios":"levelo://app?vid=27747901-daa4-4699-83f2-9d3e8e7d86e6"},"vehicle_type_id":"4","last_reported":1733573818,"current_range_meters":31200,"station_id":"ce4bhip2rcd13ifvqft0","pricing_plan_id":"cebpf4jnsgd1na2vs0mg"},{"bike_id":"a23ed081-f92b-4496-b256-77a531661e88","system_id":"levelo_inurba_marseille","lat":43.28276,"lon":5.35083,"is_reserved":false,"is_disabled":false,"rental_uris":{"android":"levelo://app?vid=a23ed081-f92b-4496-b256-77a531661e88","ios":"levelo://app?vid=a23ed081-f92b-4496-b256-77a531661e88"},"vehicle_type_id":"4","last_reported":1733573818,"current_range_meters":39200,"station_id":"ce4bhbp2rcd13ifvqerg","pricing_plan_id":"cebpf4jnsgd1na2vs0mg"},{"bike_id":"4da1f21a-a94b-4e40-8119-4f95d0593822","system_id":"levelo_inurba_marseille","lat":43.32652,"lon":5.40994,"is_reserved":false,"is_disabled":false,"rental_uris":{"android":"levelo://app?vid=4da1f21a-a94b-4e40-8119-4f95d0593822","ios":"levelo://app?vid=4da1f21a-a94b-4e40-8119-4f95d0593822"},"vehicle_type_id":"4","last_reported":1733573818,"current_range_meters":38800,"station_id":"ce4bhpp2rcd13ifvqhgg","pricing_plan_id":"cebpf4jnsgd1na2vs0mg"},{"bike_id":"4e49e38e-5344-4a78-9c50-a32008fc3877","system_id":"levelo_inurba_marseille","lat":43.26193,"lon":5.37461,"is_reserved":false,"is_disabled":true,"rental_uris":{"android":"levelo://app?vid=4e49e38e-5344-4a78-9c50-a32008fc3877","ios":"levelo://app?vid=4e49e38e-5344-4a78-9c50-a32008fc3877"},"vehicle_type_id":"4","last_reported":1733573818,"current_range_meters":0,"station_id":"ce4bhgp2rcd13ifvqfc0","pricing_plan_id":"cebpf4jnsgd1na2vs0mg"},{"bike_id":"c2d8a1c2-d166-4a36-b32f-beec95c93bd5","system_id":"levelo_inurba_marseille","lat":43.33756,"lon":5.37459,"is_reserved":false,"is_disabled":true,"rental_uris":{"android":"levelo://app?vid=c2d8a1c2-d166-4a36-b32f-beec95c93bd5","ios":"levelo://app?vid=c2d8a1c2-d166-4a36-b32f-beec95c93bd5"},"vehicle_type_id":"4","last_reported":1733573818,"current_range_meters":400,"station_id":"","pricing_plan_id":"cebpf4jnsgd1na2vs0mg"},{"bike_id":"0e3451bb-7a71-49a1-b69e-200c6dd6b013","system_id":"levelo_inurba_marseille","lat":43.2905,"lon":5.39938,"is_reserved":false,"is_disabled":true,"rental_uris":{"android":"levelo://app?vid=0e3451bb-7a71-49a1-b69e-200c6dd6b013","ios":"levelo://app?vid=0e3451bb-7a71-49a1-b69e-200c6dd6b013"},"vehicle_type_id":"4","last_reported":1733573818,"current_range_meters":38800,"station_id":"ce4bh392rcd13ifvqdm0","pricing_plan_id":"cebpf4jnsgd1na2vs0mg"},{"bike_id":"4a3e2ec8-bf6d-4475-8a6c-4dd922f75b04","system_id":"levelo_inurba_marseille","lat":43.30553,"lon":5.36534,"is_reserved":false,"is_disabled":false,"rental_uris":{"android":"levelo://app?vid=4a3e2ec8-bf6d-4475-8a6c-4dd922f75b04","ios":"levelo://app?vid=4a3e2ec8-bf6d-4475-8a6c-4dd922f75b04"},"vehicle_type_id":"4","last_reported":1733573818,"current_range_meters":16000,"station_id":"ce4bgs12rcd13ifvqcag","pricing_plan_id":"cebpf4jnsgd1na2vs0mg"},{"bike_id":"cabd644c-9444-445f-b661-d7541845cb45","system_id":"levelo_inurba_marseille","lat":43.28164,"lon":5.42638,"is_reserved":false,"is_disabled":false,"rental_uris":{"android":"levelo://app?vid=cabd644c-9444-445f-b661-d7541845cb45","ios":"levelo://app?vid=cabd644c-9444-445f-b661-d7541845cb45"},"vehicle_type_id":"4","last_reported":1733573818,"current_range_meters":34000,"station_id":"ce4bhnh2rcd13ifvqgug","pricing_plan_id":"cebpf4jnsgd1na2vs0mg"},{"bike_id":"68bcd77b-d0d3-475d-b30f-46a42738a54b","system_id":"levelo_inurba_marseille","lat":43.27906,"lon":5.38021,"is_reserved":false,"is_disabled":false,"rental_uris":{"android":"levelo://app?vid=68bcd77b-d0d3-475d-b30f-46a42738a54b","ios":"levelo://app?vid=68bcd77b-d0d3-475d-b30f-46a42738a54b"},"vehicle_type_id":"4","last_reported":1733573818,"current_range_meters":34000,"station_id":"ce4bhf92rcd13ifvqf50","pricing_plan_id":"cebpf4jnsgd1na2vs0mg"},{"bike_id":"0175f7c0-c58a-425a-8094-afa4a7a67cf6","system_id":"levelo_inurba_marseille","lat":43.23161,"lon":5.43736,"is_reserved":false,"is_disabled":false,"rental_uris":{"android":"levelo://app?vid=0175f7c0-c58a-425a-8094-afa4a7a67cf6","ios":"levelo://app?vid=0175f7c0-c58a-425a-8094-afa4a7a67cf6"},"vehicle_type_id":"4","last_reported":1733573818,"current_range_meters":28000,"station_id":"ce4bhmp2rcd13ifvqgog","pricing_plan_id":"cebpf4jnsgd1na2vs0mg"},{"bike_id":"1c116fee-2365-407f-b033-8ab53c14818b","system_id":"levelo_inurba_marseille","lat":43.337444,"lon":5.374475,"is_reserved":false,"is_disabled":false,"rental_uris":{"android":"levelo://app?vid=1c116fee-2365-407f-b033-8ab53c14818b","ios":"levelo://app?vid=1c116fee-2365-407f-b033-8ab53c14818b"},"vehicle_type_id":"4","last_reported":1733573818,"current_range_meters":28800,"station_id":"","pricing_plan_id":"cebpf4jnsgd1na2vs0mg"},{"bike_id":"e7098824-93b2-482e-a425-d6aa509a1c30","system_id":"levelo_inurba_marseille","lat":43.27332,"lon":5.39138,"is_reserved":false,"is_disabled":false,"rental_uris":{"android":"levelo://app?vid=e7098824-93b2-482e-a425-d6aa509a1c30","ios":"levelo://app?vid=e7098824-93b2-482e-a425-d6aa509a1c30"},"vehicle_type_id":"4","last_reported":1733573818,"current_range_meters":34000,"station_id":"ce4bhgp2rcd13ifvqfe0","pricing_plan_id":"cebpf4jnsgd1na2vs0mg"},{"bike_id":"423c47e5-c77a-49bc-be7f-d8823399179d","system_id":"levelo_inurba_marseille","lat":43.30595,"lon":5.37213,"is_reserved":false,"is_disabled":false,"rental_uris":{"android":"levelo://app?vid=423c47e5-c77a-49bc-be7f-d8823399179d","ios":"levelo://app?vid=423c47e5-c77a-49bc-be7f-d8823399179d"},"vehicle_type_id":"4","last_reported":1733573818,"current_range_meters":30400,"station_id":"ce4bgqh2rcd13ifvqc4g","pricing_plan_id":"cebpf4jnsgd1na2vs0mg"},{"bike_id":"13cab3b3-5ef4-43d7-a0be-2ed7b47ac662","system_id":"levelo_inurba_marseille","lat":43.29675,"lon":5.37305,"is_reserved":false,"is_disabled":false,"rental_uris":{"android":"levelo://app?vid=13cab3b3-5ef4-43d7-a0be-2ed7b47ac662","ios":"levelo://app?vid=13cab3b3-5ef4-43d7-a0be-2ed7b47ac662"},"vehicle_type_id":"4","last_reported":1733573818,"current_range_meters":38800,"station_id":"ce4bgk12rcd13ifvqbj0","pricing_plan_id":"cebpf4jnsgd1na2vs0mg"},{"bike_id":"48a0636b-557e-48cc-b51a-ec3f8caa4d77","system_id":"levelo_inurba_marseille","lat":43.3043,"lon":5.39754,"is_reserved":false,"is_disabled":false,"rental_uris":{"android":"levelo://app?vid=48a0636b-557e-48cc-b51a-ec3f8caa4d77","ios":"levelo://app?vid=48a0636b-557e-48cc-b51a-ec3f8caa4d77"},"vehicle_type_id":"4","last_reported":1733573818,"current_range_meters":10800,"station_id":"ce4bh092rcd13ifvqd20","pricing_plan_id":"cebpf4jnsgd1na2vs0mg"},{"bike_id":"f5561434-0740-4a3c-abc2-013f37687b8d","system_id":"levelo_inurba_marseille","lat":43.24818,"lon":5.3746,"is_reserved":false,"is_disabled":true,"rental_uris":{"android":"levelo://app?vid=f5561434-0740-4a3c-abc2-013f37687b8d","ios":"levelo://app?vid=f5561434-0740-4a3c-abc2-013f37687b8d"},"vehicle_type_id":"4","last_reported":1733573818,"current_range_meters":36400,"station_id":"ce4bhgh2rcd13ifvqfb0","pricing_plan_id":"cebpf4jnsgd1na2vs0mg"},{"bike_id":"220c9f3e-9e26-46f5-9066-dfededf7134f","system_id":"levelo_inurba_marseille","lat":43.24389,"lon":5.37052,"is_reserved":false,"is_disabled":false,"rental_uris":{"android":"levelo://app?vid=220c9f3e-9e26-46f5-9066-dfededf7134f","ios":"levelo://app?vid=220c9f3e-9e26-46f5-9066-dfededf7134f"},"vehicle_type_id":"4","last_reported":1733573818,"current_range_meters":9200,"station_id":"ce4bhhh2rcd13ifvqfk0","pricing_plan_id":"cebpf4jnsgd1na2vs0mg"},{"bike_id":"f957e59c-f18c-4116-869c-ad8675fd4e5f","system_id":"levelo_inurba_marseille","lat":43.26576,"lon":5.3903,"is_reserved":false,"is_disabled":false,"rental_uris":{"android":"levelo://app?vid=f957e59c-f18c-4116-869c-ad8675fd4e5f","ios":"levelo://app?vid=f957e59c-f18c-4116-869c-ad8675fd4e5f"},"vehicle_type_id":"4","last_reported":1733573818,"current_range_meters":24800,"station_id":"ce4bhe12rcd13ifvqf30","pricing_plan_id":"cebpf4jnsgd1na2vs0mg"},{"bike_id":"3db43a5d-158c-433f-9e51-1c9b0a9a8d21","system_id":"levelo_inurba_marseille","lat":43.29852,"lon":5.36278,"is_reserved":false,"is_disabled":false,"rental_uris":{"android":"levelo://app?vid=3db43a5d-158c-433f-9e51-1c9b0a9a8d21","ios":"levelo://app?vid=3db43a5d-158c-433f-9e51-1c9b0a9a8d21"},"vehicle_type_id":"4","last_reported":1733573818,"current_range_meters":28800,"station_id":"ce4bgpp2rcd13ifvqc3g","pricing_plan_id":"cebpf4jnsgd1na2vs0mg"},{"bike_id":"e146b103-647f-4048-9d11-0881f2157844","system_id":"levelo_inurba_marseille","lat":43.29368,"lon":5.37851,"is_reserved":false,"is_disabled":false,"rental_uris":{"android":"levelo://app?vid=e146b103-647f-4048-9d11-0881f2157844","ios":"levelo://app?vid=e146b103-647f-4048-9d11-0881f2157844"},"vehicle_type_id":"4","last_reported":1733573818,"current_range_meters":34800,"station_id":"ce4bgjh2rcd13ifvqbf0","pricing_plan_id":"cebpf4jnsgd1na2vs0mg"},{"bike_id":"72e29cff-f685-43b0-a2f9-babaa1c44344","system_id":"levelo_inurba_marseille","lat":43.23962,"lon":5.36623,"is_reserved":false,"is_disabled":false,"rental_uris":{"android":"levelo://app?vid=72e29cff-f685-43b0-a2f9-babaa1c44344","ios":"levelo://app?vid=72e29cff-f685-43b0-a2f9-babaa1c44344"},"vehicle_type_id":"4","last_reported":1733573818,"current_range_meters":22000,"station_id":"ce4bhi12rcd13ifvqfp0","pricing_plan_id":"cebpf4jnsgd1na2vs0mg"},{"bike_id":"639226c7-dd5f-42be-9f4a-e4c4c8a2dfe9","system_id":"levelo_inurba_marseille","lat":43.29193,"lon":5.3581,"is_reserved":false,"is_disabled":false,"rental_uris":{"android":"levelo://app?vid=639226c7-dd5f-42be-9f4a-e4c4c8a2dfe9","ios":"levelo://app?vid=639226c7-dd5f-42be-9f4a-e4c4c8a2dfe9"},"vehicle_type_id":"4","last_reported":1733573818,"current_range_meters":36400,"station_id":"ce4bhb12rcd13ifvqel0","pricing_plan_id":"cebpf4jnsgd1na2vs0mg"},{"bike_id":"1274ae94-b2c0-4ac4-8f60-4071c565c61e","system_id":"levelo_inurba_marseille","lat":43.28277,"lon":5.35089,"is_reserved":false,"is_disabled":false,"rental_uris":{"android":"levelo://app?vid=1274ae94-b2c0-4ac4-8f60-4071c565c61e","ios":"levelo://app?vid=1274ae94-b2c0-4ac4-8f60-4071c565c61e"},"vehicle_type_id":"4","last_reported":1733573818,"current_range_meters":36000,"station_id":"ce4bhbp2rcd13ifvqerg","pricing_plan_id":"cebpf4jnsgd1na2vs0mg"},{"bike_id":"c4788e81-0641-4cee-8ae1-5322e067d4f5","system_id":"levelo_inurba_marseille","lat":43.29296,"lon":5.37458,"is_reserved":false,"is_disabled":false,"rental_uris":{"android":"levelo://app?vid=c4788e81-0641-4cee-8ae1-5322e067d4f5","ios":"levelo://app?vid=c4788e81-0641-4cee-8ae1-5322e067d4f5"},"vehicle_type_id":"4","last_reported":1733573818,"current_range_meters":38800,"station_id":"ce4bgi12rcd13ifvqb70","pricing_plan_id":"cebpf4jnsgd1na2vs0mg"},{"bike_id":"bacc3450-9073-4434-a77d-41c29d8453a7","system_id":"levelo_inurba_marseille","lat":43.25723,"lon":5.41109,"is_reserved":false,"is_disabled":false,"rental_uris":{"android":"levelo://app?vid=bacc3450-9073-4434-a77d-41c29d8453a7","ios":"levelo://app?vid=bacc3450-9073-4434-a77d-41c29d8453a7"},"vehicle_type_id":"4","last_reported":1733573818,"current_range_meters":32000,"station_id":"ce4bhkp2rcd13ifvqgd0","pricing_plan_id":"cebpf4jnsgd1na2vs0mg"},{"bike_id":"b57ac3ac-1cb9-4a0e-9880-d76a5f5fa301","system_id":"levelo_inurba_marseille","lat":43.26204,"lon":5.37926,"is_reserved":false,"is_disabled":false,"rental_uris":{"android":"levelo://app?vid=b57ac3ac-1cb9-4a0e-9880-d76a5f5fa301","ios":"levelo://app?vid=b57ac3ac-1cb9-4a0e-9880-d76a5f5fa301"},"vehicle_type_id":"4","last_reported":1733573818,"current_range_meters":38000,"station_id":"ce4bhjp2rcd13ifvqg90","pricing_plan_id":"cebpf4jnsgd1na2vs0mg"},{"bike_id":"11d651ee-3a90-4953-b639-7ee2922d0ec9","system_id":"levelo_inurba_marseille","lat":43.29884,"lon":5.38893,"is_reserved":false,"is_disabled":false,"rental_uris":{"android":"levelo://app?vid=11d651ee-3a90-4953-b639-7ee2922d0ec9","ios":"levelo://app?vid=11d651ee-3a90-4953-b639-7ee2922d0ec9"},"vehicle_type_id":"4","last_reported":1733573818,"current_range_meters":28800,"station_id":"ce4bh392rcd13ifvqdl0","pricing_plan_id":"cebpf4jnsgd1na2vs0mg"},{"bike_id":"080fcb1c-52b8-42d7-b477-4dbab7fa601d","system_id":"levelo_inurba_marseille","lat":43.33025,"lon":5.39035,"is_reserved":false,"is_disabled":false,"rental_uris":{"android":"levelo://app?vid=080fcb1c-52b8-42d7-b477-4dbab7fa601d","ios":"levelo://app?vid=080fcb1c-52b8-42d7-b477-4dbab7fa601d"},"vehicle_type_id":"4","last_reported":1733573818,"current_range_meters":27200,"station_id":"ce4bhr92rcd13ifvqhrg","pricing_plan_id":"cebpf4jnsgd1na2vs0mg"},{"bike_id":"7af02676-8e09-4af3-9d78-afaf06d2aa36","system_id":"levelo_inurba_marseille","lat":43.30147,"lon":5.38081,"is_reserved":false,"is_disabled":false,"rental_uris":{"android":"levelo://app?vid=7af02676-8e09-4af3-9d78-afaf06d2aa36","ios":"levelo://app?vid=7af02676-8e09-4af3-9d78-afaf06d2aa36"},"vehicle_type_id":"4","last_reported":1733573818,"current_range_meters":31200,"station_id":"ce4bgjp2rcd13ifvqbh0","pricing_plan_id":"cebpf4jnsgd1na2vs0mg"},{"bike_id":"4bca0294-9764-4acb-8a6b-1ecbf34d1549","system_id":"levelo_inurba_marseille","lat":43.30606,"lon":5.37217,"is_reserved":false,"is_disabled":false,"rental_uris":{"android":"levelo://app?vid=4bca0294-9764-4acb-8a6b-1ecbf34d1549","ios":"levelo://app?vid=4bca0294-9764-4acb-8a6b-1ecbf34d1549"},"vehicle_type_id":"4","last_reported":1733573818,"current_range_meters":36000,"station_id":"ce4bgqh2rcd13ifvqc4g","pricing_plan_id":"cebpf4jnsgd1na2vs0mg"},{"bike_id":"9ffe6b38-5d2f-4fda-9dd4-7dadd183fb84","system_id":"levelo_inurba_marseille","lat":43.28355,"lon":5.38107,"is_reserved":false,"is_disabled":false,"rental_uris":{"android":"levelo://app?vid=9ffe6b38-5d2f-4fda-9dd4-7dadd183fb84","ios":"levelo://app?vid=9ffe6b38-5d2f-4fda-9dd4-7dadd183fb84"},"vehicle_type_id":"4","last_reported":1733573818,"current_range_meters":11200,"station_id":"ce4bh412rcd13ifvqdr0","pricing_plan_id":"cebpf4jnsgd1na2vs0mg"},{"bike_id":"abe016ce-4560-40ff-a6e2-38cb2c3cd0ac","system_id":"levelo_inurba_marseille","lat":43.30144,"lon":5.38082,"is_reserved":false,"is_disabled":false,"rental_uris":{"android":"levelo://app?vid=abe016ce-4560-40ff-a6e2-38cb2c3cd0ac","ios":"levelo://app?vid=abe016ce-4560-40ff-a6e2-38cb2c3cd0ac"},"vehicle_type_id":"4","last_reported":1733573818,"current_range_meters":38000,"station_id":"ce4bgjp2rcd13ifvqbh0","pricing_plan_id":"cebpf4jnsgd1na2vs0mg"},{"bike_id":"8c02ab72-5e58-406e-b44a-56275bde59b4","system_id":"levelo_inurba_marseille","lat":43.31495,"lon":5.37314,"is_reserved":false,"is_disabled":false,"rental_uris":{"android":"levelo://app?vid=8c02ab72-5e58-406e-b44a-56275bde59b4","ios":"levelo://app?vid=8c02ab72-5e58-406e-b44a-56275bde59b4"},"vehicle_type_id":"4","last_reported":1733573818,"current_range_meters":38000,"station_id":"ce4bgt12rcd13ifvqcd0","pricing_plan_id":"cebpf4jnsgd1na2vs0mg"},{"bike_id":"868a434e-7c11-4b20-84c6-7ecdbf24c83b","system_id":"levelo_inurba_marseille","lat":43.33021,"lon":5.39035,"is_reserved":false,"is_disabled":false,"rental_uris":{"android":"levelo://app?vid=868a434e-7c11-4b20-84c6-7ecdbf24c83b","ios":"levelo://app?vid=868a434e-7c11-4b20-84c6-7ecdbf24c83b"},"vehicle_type_id":"4","last_reported":1733573818,"current_range_meters":24400,"station_id":"ce4bhr92rcd13ifvqhrg","pricing_plan_id":"cebpf4jnsgd1na2vs0mg"},{"bike_id":"b1ca9bbe-0f05-4908-b3d3-61a22c14a9da","system_id":"levelo_inurba_marseille","lat":43.295185,"lon":5.390483,"is_reserved":false,"is_disabled":true,"rental_uris":{"android":"levelo://app?vid=b1ca9bbe-0f05-4908-b3d3-61a22c14a9da","ios":"levelo://app?vid=b1ca9bbe-0f05-4908-b3d3-61a22c14a9da"},"vehicle_type_id":"4","last_reported":1733573818,"current_range_meters":0,"station_id":"ce4bh3p2rcd13ifvqdp0","pricing_plan_id":"cebpf4jnsgd1na2vs0mg"},{"bike_id":"dc633d5b-733b-4759-a7f2-6be7e76403e8","system_id":"levelo_inurba_marseille","lat":43.25113,"lon":5.40318,"is_reserved":false,"is_disabled":false,"rental_uris":{"android":"levelo://app?vid=dc633d5b-733b-4759-a7f2-6be7e76403e8","ios":"levelo://app?vid=dc633d5b-733b-4759-a7f2-6be7e76403e8"},"vehicle_type_id":"4","last_reported":1733573818,"current_range_meters":30400,"station_id":"ce4bhlh2rcd13ifvqgig","pricing_plan_id":"cebpf4jnsgd1na2vs0mg"},{"bike_id":"35116aeb-0a76-4797-a5b2-a18534d3382f","system_id":"levelo_inurba_marseille","lat":43.337444,"lon":5.374475,"is_reserved":false,"is_disabled":false,"rental_uris":{"android":"levelo://app?vid=35116aeb-0a76-4797-a5b2-a18534d3382f","ios":"levelo://app?vid=35116aeb-0a76-4797-a5b2-a18534d3382f"},"vehicle_type_id":"4","last_reported":1733573818,"current_range_meters":28400,"station_id":"","pricing_plan_id":"cebpf4jnsgd1na2vs0mg"},{"bike_id":"4ae5fe7f-a755-40fe-9b35-59fbb2437146","system_id":"levelo_inurba_marseille","lat":43.2417,"lon":5.36399,"is_reserved":false,"is_disabled":false,"rental_uris":{"android":"levelo://app?vid=4ae5fe7f-a755-40fe-9b35-59fbb2437146","ios":"levelo://app?vid=4ae5fe7f-a755-40fe-9b35-59fbb2437146"},"vehicle_type_id":"4","last_reported":1733573818,"current_range_meters":32400,"station_id":"cpo36qri1sfpv3e86is0","pricing_plan_id":"cebpf4jnsgd1na2vs0mg"},{"bike_id":"31e35599-1530-4b87-abcb-60792c8f744c","system_id":"levelo_inurba_marseille","lat":43.27066,"lon":5.40282,"is_reserved":false,"is_disabled":false,"rental_uris":{"android":"levelo://app?vid=31e35599-1530-4b87-abcb-60792c8f744c","ios":"levelo://app?vid=31e35599-1530-4b87-abcb-60792c8f744c"},"vehicle_type_id":"4","last_reported":1733573818,"current_range_meters":38800,"station_id":"ce4bhk92rcd13ifvqgc0","pricing_plan_id":"cebpf4jnsgd1na2vs0mg"},{"bike_id":"a7c73b8e-18ed-4705-8730-124c678e1818","system_id":"levelo_inurba_marseille","lat":43.30533,"lon":5.36544,"is_reserved":false,"is_disabled":false,"rental_uris":{"android":"levelo://app?vid=a7c73b8e-18ed-4705-8730-124c678e1818","ios":"levelo://app?vid=a7c73b8e-18ed-4705-8730-124c678e1818"},"vehicle_type_id":"4","last_reported":1733573818,"current_range_meters":12800,"station_id":"ce4bgs12rcd13ifvqcag","pricing_plan_id":"cebpf4jnsgd1na2vs0mg"},{"bike_id":"8c989039-8dd0-405d-904e-4532a2ab50f3","system_id":"levelo_inurba_marseille","lat":43.25089,"lon":5.39525,"is_reserved":false,"is_disabled":false,"rental_uris":{"android":"levelo://app?vid=8c989039-8dd0-405d-904e-4532a2ab50f3","ios":"levelo://app?vid=8c989039-8dd0-405d-904e-4532a2ab50f3"},"vehicle_type_id":"4","last_reported":1733573818,"current_range_meters":22800,"station_id":"ce4bhm12rcd13ifvqgkg","pricing_plan_id":"cebpf4jnsgd1na2vs0mg"},{"bike_id":"28e34607-b47f-49e3-9f09-bd9754cc0cb2","system_id":"levelo_inurba_marseille","lat":43.28273,"lon":5.3508,"is_reserved":false,"is_disabled":false,"rental_uris":{"android":"levelo://app?vid=28e34607-b47f-49e3-9f09-bd9754cc0cb2","ios":"levelo://app?vid=28e34607-b47f-49e3-9f09-bd9754cc0cb2"},"vehicle_type_id":"4","last_reported":1733573818,"current_range_meters":28000,"station_id":"ce4bhbp2rcd13ifvqerg","pricing_plan_id":"cebpf4jnsgd1na2vs0mg"},{"bike_id":"3d0ac773-4a09-47c7-8b4f-cdd68fc5ce86","system_id":"levelo_inurba_marseille","lat":43.32364,"lon":5.38889,"is_reserved":false,"is_disabled":false,"rental_uris":{"android":"levelo://app?vid=3d0ac773-4a09-47c7-8b4f-cdd68fc5ce86","ios":"levelo://app?vid=3d0ac773-4a09-47c7-8b4f-cdd68fc5ce86"},"vehicle_type_id":"4","last_reported":1733573818,"current_range_meters":37600,"station_id":"ce4bhqp2rcd13ifvqhog","pricing_plan_id":"cebpf4jnsgd1na2vs0mg"},{"bike_id":"0af551d2-0d25-4cd7-8a52-aaefa9c7fe5e","system_id":"levelo_inurba_marseille","lat":43.30947,"lon":5.39036,"is_reserved":false,"is_disabled":false,"rental_uris":{"android":"levelo://app?vid=0af551d2-0d25-4cd7-8a52-aaefa9c7fe5e","ios":"levelo://app?vid=0af551d2-0d25-4cd7-8a52-aaefa9c7fe5e"},"vehicle_type_id":"4","last_reported":1733573818,"current_range_meters":38800,"station_id":"ce4bgup2rcd13ifvqco0","pricing_plan_id":"cebpf4jnsgd1na2vs0mg"},{"bike_id":"b983f700-39e1-418f-84a3-1c3c95a84b96","system_id":"levelo_inurba_marseille","lat":43.337752,"lon":5.375048,"is_reserved":false,"is_disabled":false,"rental_uris":{"android":"levelo://app?vid=b983f700-39e1-418f-84a3-1c3c95a84b96","ios":"levelo://app?vid=b983f700-39e1-418f-84a3-1c3c95a84b96"},