{"last_updated":1685275873,"ttl":30,"version":"2.2","data":{"bikes":[{"bike_id":"3a42e916-6d64-42c0-aa63-1e21abc55533","system_id":"levelo_inurba_marseille","lat":43.313391,"lon":5.36706,"is_reserved":false,"is_disabled":false,"rental_uris":{"android":"levelo://app?vid=3a42e916-6d64-42c0-aa63-1e21abc55533","ios":"levelo://app?vid=3a42e916-6d64-42c0-aa63-1e21abc55533"},"vehicle_type_id":"4","last_reported":1685275874,"current_range_meters":31200,"station_id":"ce4bgr92rcd13ifvqc6g","pricing_plan_id":"free"},{"bike_id":"f842ebe0-fd50-4626-8ac6-bc2da28af2ed","system_id":"levelo_inurba_marseille","lat":43.313391,"lon":5.36706,"is_reserved":false,"is_disabled":false,"rental_uris":{"android":"levelo://app?vid=f842ebe0-fd50-4626-8ac6-bc2da28af2ed","ios":"levelo://app?vid=f842ebe0-fd50-4626-8ac6-bc2da28af2ed"},"vehicle_type_id":"4","last_reported":1685275874,"current_range_meters":22800,"station_id":"ce4bgr92rcd13ifvqc6g","pricing_plan_id":"free"},{"bike_id":"8fd2e0c8-bac6-4eee-b8d6-2d8c07e07c02","system_id":"levelo_inurba_marseille","lat":43.313391,"lon":5.36706,"is_reserved":false,"is_disabled":false,"rental_uris":{"android":"levelo://app?vid=8fd2e0c8-bac6-4eee-b8d6-2d8c07e07c02","ios":"levelo://app?vid=8fd2e0c8-bac6-4eee-b8d6-2d8c07e07c02"},"vehicle_type_id":"4","last_reported":1685275874,"current_range_meters":31200,"station_id":"ce4bgr92rcd13ifvqc6g","pricing_plan_id":"free"},{"bike_id":"12e8f98e-800e-495b-ab80-51a570493864","system_id":"levelo_inurba_marseille","lat":43.312239,"lon":5.368562,"is_reserved":false,"is_disabled":false,"rental_uris":{"android":"levelo://app?vid=12e8f98e-800e-495b-ab80-51a570493864","ios":"levelo://app?vid=12e8f98e-800e-495b-ab80-51a570493864"},"vehicle_type_id":"4","last_reported":1685275874,"current_range_meters":23200,"station_id":"ce4bgl92rcd13ifvqbq0","pricing_plan_id":"free"},{"bike_id":"075b303d-fd8a-40fa-acf3-935ff42905b9","system_id":"levelo_inurba_marseille","lat":43.312239,"lon":5.368562,"is_reserved":false,"is_disabled":false,"rental_uris":{"android":"levelo://app?vid=075b303d-fd8a-40fa-acf3-935ff42905b9","ios":"levelo://app?vid=075b303d-fd8a-40fa-acf3-935ff42905b9"},"vehicle_type_id":"4","last_reported":1685275874,"current_range_meters":23200,"station_id":"ce4bgl92rcd13ifvqbq0","pricing_plan_id":"free"},{"bike_id":"ee110a6c-389b-482b-88f3-0c275c83727e","system_id":"levelo_inurba_marseille","lat":43.312239,"lon":5.368562,"is_reserved":false,"is_disabled":false,"rental_uris":{"android":"levelo://app?vid=ee110a6c-389b-482b-88f3-0c275c83727e","ios":"levelo://app?vid=ee110a6c-389b-482b-88f3-0c275c83727e"},"vehicle_type_id":"4","last_reported":1685275874,"current_range_meters":31200,"station_id":"ce4bgl92rcd13ifvqbq0","pricing_plan_id":"free"},{"bike_id":"00279c37-e4ed-4a2c-86e4-dad1f9515497","system_id":"levelo_inurba_marseille","lat":43.31224,"lon":5.36859,"is_reserved":false,"is_disabled":false,"rental_uris":{"android":"levelo://app?vid=00279c37-e4ed-4a2c-86e4-dad1f9515497","ios":"levelo://app?vid=00279c37-e4ed-4a2c-86e4-dad1f9515497"},"vehicle_type_id":"4","last_reported":1685275874,"current_range_meters":30400,"station_id":"ce4bgl92rcd13ifvqbq0","pricing_plan_id":"free"},{"bike_id":"e3fabb24-d743-4faf-bb5b-b02090238067","system_id":"levelo_inurba_marseille","lat":43.309076,"lon":5.368465,"is_reserved":false,"is_disabled":false,"rental_uris":{"android":"levelo://app?vid=e3fabb24-d743-4faf-bb5b-b02090238067","ios":"levelo://app?vid=e3fabb24-d743-4faf-bb5b-b02090238067"},"vehicle_type_id":"4","last_reported":1685275874,"current_range_meters":31200,"station_id":"ce4bgn92rcd13ifvqbvg","pricing_plan_id":"free"},{"bike_id":"e3f02855-95c9-4cf1-abe4-71e44c25bffd","system_id":"levelo_inurba_marseille","lat":43.309076,"lon":5.368465,"is_reserved":false,"is_disabled":false,"rental_uris":{"android":"levelo://app?vid=e3f02855-95c9-4cf1-abe4-71e44c25bffd","ios":"levelo://app?vid=e3f02855-95c9-4cf1-abe4-71e44c25bffd"},"vehicle_type_id":"4","last_reported":1685275874,"current_range_meters":30400,"station_id":"ce4bgn92rcd13ifvqbvg","pricing_plan_id":"free"},{"bike_id":"0c711ed5-8a7b-4599-b2a2-a7777778ce2e","system_id":"levelo_inurba_marseille","lat":43.314811,"lon":5.373104,"is_reserved":false,"is_disabled":false,"rental_uris":{"android":"levelo://app?vid=0c711ed5-8a7b-4599-b2a2-a7777778ce2e","ios":"levelo://app?vid=0c711ed5-8a7b-4599-b2a2-a7777778ce2e"},"vehicle_type_id":"4","last_reported":1685275874,"current_range_meters":31200,"station_id":"ce4bgt12rcd13ifvqcd0","pricing_plan_id":"free"},{"bike_id":"55e3a882-ec38-48a8-8f2a-fab961a711e0","system_id":"levelo_inurba_marseille","lat":43.314811,"lon":5.373103,"is_reserved":false,"is_disabled":false,"rental_uris":{"android":"levelo://app?vid=55e3a882-ec38-48a8-8f2a-fab961a711e0","ios":"levelo://app?vid=55e3a882-ec38-48a8-8f2a-fab961a711e0"},"vehicle_type_id":"4","last_reported":1685275874,"current_range_meters":18400,"station_id":"ce4bgt12rcd13ifvqcd0","pricing_plan_id":"free"},{"bike_id":"108cbae7-29bf-43f9-863e-616402449ba4","system_id":"levelo_inurba_marseille","lat":43.314811,"lon":5.373104,"is_reserved":false,"is_disabled":false,"rental_uris":{"android":"levelo://app?vid=108cbae7-29bf-43f9-863e-616402449ba4","ios":"levelo://app?vid=108cbae7-29bf-43f9-863e-616402449ba4"},"vehicle_type_id":"4","last_reported":1685275874,"current_range_meters":11200,"station_id":"ce4bgt12rcd13ifvqcd0","pricing_plan_id":"free"},{"bike_id":"0da165f3-0224-41d9-b944-2d79a04123f2","system_id":"levelo_inurba_marseille","lat":43.308614,"lon":5.372098,"is_reserved":false,"is_disabled":false,"rental_uris":{"android":"levelo://app?vid=0da165f3-0224-41d9-b944-2d79a04123f2","ios":"levelo://app?vid=0da165f3-0224-41d9-b944-2d79a04123f2"},"vehicle_type_id":"4","last_reported":1685275874,"current_range_meters":20400,"station_id":"ce4bguh2rcd13ifvqckg","pricing_plan_id":"free"},{"bike_id":"a26e5215-39d7-42f0-b27c-faba7c7c0020","system_id":"levelo_inurba_marseille","lat":43.305368,"lon":5.367343,"is_reserved":false,"is_disabled":false,"rental_uris":{"android":"levelo://app?vid=a26e5215-39d7-42f0-b27c-faba7c7c0020","ios":"levelo://app?vid=a26e5215-39d7-42f0-b27c-faba7c7c0020"},"vehicle_type_id":"4","last_reported":1685275874,"current_range_meters":28000,"station_id":"ce4bgrp2rcd13ifvqc9g","pricing_plan_id":"free"},{"bike_id":"5e2f0a66-58c6-428a-82b3-36437e4d8725","system_id":"levelo_inurba_marseille","lat":43.305714,"lon":5.365633,"is_reserved":false,"is_disabled":false,"rental_uris":{"android":"levelo://app?vid=5e2f0a66-58c6-428a-82b3-36437e4d8725","ios":"levelo://app?vid=5e2f0a66-58c6-428a-82b3-36437e4d8725"},"vehicle_type_id":"4","last_reported":1685275874,"current_range_meters":19600,"station_id":"ce4bgs12rcd13ifvqcag","pricing_plan_id":"free"},{"bike_id":"baac4d7a-9e4d-46ee-a29a-55faa87c44f6","system_id":"levelo_inurba_marseille","lat":43.30528,"lon":5.36719,"is_reserved":false,"is_disabled":false,"rental_uris":{"android":"levelo://app?vid=baac4d7a-9e4d-46ee-a29a-55faa87c44f6","ios":"levelo://app?vid=baac4d7a-9e4d-46ee-a29a-55faa87c44f6"},"vehicle_type_id":"4","last_reported":1685275874,"current_range_meters":22800,"station_id":"ce4bgrp2rcd13ifvqc9g","pricing_plan_id":"free"},{"bike_id":"3260bb19-519e-4463-bd91-bc004b11e4ef","system_id":"levelo_inurba_marseille","lat":43.305989,"lon":5.37225,"is_reserved":false,"is_disabled":false,"rental_uris":{"android":"levelo://app?vid=3260bb19-519e-4463-bd91-bc004b11e4ef","ios":"levelo://app?vid=3260bb19-519e-4463-bd91-bc004b11e4ef"},"vehicle_type_id":"4","last_reported":1685275874,"current_range_meters":14000,"station_id":"ce4bgqh2rcd13ifvqc4g","pricing_plan_id":"free"},{"bike_id":"b6790580-4806-4652-87f4-89c44178d54d","system_id":"levelo_inurba_marseille","lat":43.311125,"lon":5.377624,"is_reserved":false,"is_disabled":false,"rental_uris":{"android":"levelo://app?vid=b6790580-4806-4652-87f4-89c44178d54d","ios":"levelo://app?vid=b6790580-4806-4652-87f4-89c44178d54d"},"vehicle_type_id":"4","last_reported":1685275874,"current_range_meters":4400,"station_id":"ce4bgt92rcd13ifvqcg0","pricing_plan_id":"free"},{"bike_id":"c0f63d33-872a-4649-b7a0-a72a5be32f13","system_id":"levelo_inurba_marseille","lat":43.31697,"lon":5.37736,"is_reserved":false,"is_disabled":false,"rental_uris":{"android":"levelo://app?vid=c0f63d33-872a-4649-b7a0-a72a5be32f13","ios":"levelo://app?vid=c0f63d33-872a-4649-b7a0-a72a5be32f13"},"vehicle_type_id":"4","last_reported":1685275874,"current_range_meters":15200,"station_id":"ce4bgth2rcd13ifvqch0","pricing_plan_id":"free"},{"bike_id":"997d1c34-75d3-4866-8b58-6d310d0ef290","system_id":"levelo_inurba_marseille","lat":43.31015,"lon":5.37944,"is_reserved":false,"is_disabled":false,"rental_uris":{"android":"levelo://app?vid=997d1c34-75d3-4866-8b58-6d310d0ef290","ios":"levelo://app?vid=997d1c34-75d3-4866-8b58-6d310d0ef290"},"vehicle_type_id":"4","last_reported":1685275874,"current_range_meters":9600,"station_id":"","pricing_plan_id":"free"},{"bike_id":"8cceafd8-ed6b-4555-9111-2be9b12638ab","system_id":"levelo_inurba_marseille","lat":43.315293,"lon":5.380349,"is_reserved":false,"is_disabled":false,"rental_uris":{"android":"levelo://app?vid=8cceafd8-ed6b-4555-9111-2be9b12638ab","ios":"levelo://app?vid=8cceafd8-ed6b-4555-9111-2be9b12638ab"},"vehicle_type_id":"4","last_reported":1685275874,"current_range_meters":16800,"station_id":"ce4bhsp2rcd13ifvqi50","pricing_plan_id":"free"},{"bike_id":"043b8837-d974-4e8a-824b-87c48710aa6e","system_id":"levelo_inurba_marseille","lat":43.31993,"lon":5.38146,"is_reserved":false,"is_disabled":false,"rental_uris":{"android":"levelo://app?vid=043b8837-d974-4e8a-824b-87c48710aa6e","ios":"levelo://app?vid=043b8837-d974-4e8a-824b-87c48710aa6e"},"vehicle_type_id":"4","last_reported":1685275874,"current_range_meters":7200,"station_id":"ce4bhr12rcd13ifvqhpg","pricing_plan_id":"free"},{"bike_id":"0c20fbd1-279e-4eb6-8380-eff8502e5586","system_id":"levelo_inurba_marseille","lat":43.313571,"lon":5.384829,"is_reserved":false,"is_disabled":false,"rental_uris":{"android":"levelo://app?vid=0c20fbd1-279e-4eb6-8380-eff8502e5586","ios":"levelo://app?vid=0c20fbd1-279e-4eb6-8380-eff8502e5586"},"vehicle_type_id":"4","last_reported":1685275874,"current_range_meters":23600,"station_id":"ce4bgt92rcd13ifvqcf0","pricing_plan_id":"free"},{"bike_id":"68180e47-9257-4c60-8135-15d58bfea0c2","system_id":"levelo_inurba_marseille","lat":43.313571,"lon":5.384829,"is_reserved":false,"is_disabled":false,"rental_uris":{"android":"levelo://app?vid=68180e47-9257-4c60-8135-15d58bfea0c2","ios":"levelo://app?vid=68180e47-9257-4c60-8135-15d58bfea0c2"},"vehicle_type_id":"4","last_reported":1685275874,"current_range_meters":8800,"station_id":"ce4bgt92rcd13ifvqcf0","pricing_plan_id":"free"},{"bike_id":"4b37d111-689a-4e70-88d7-724ffa0dc8f0","system_id":"levelo_inurba_marseille","lat":43.31956,"lon":5.38261,"is_reserved":false,"is_disabled":false,"rental_uris":{"android":"levelo://app?vid=4b37d111-689a-4e70-88d7-724ffa0dc8f0","ios":"levelo://app?vid=4b37d111-689a-4e70-88d7-724ffa0dc8f0"},"vehicle_type_id":"4","last_reported":1685275874,"current_range_meters":19200,"station_id":"","pricing_plan_id":"free"},{"bike_id":"e0a71e37-3333-4072-a4e6-d84279f658df","system_id":"levelo_inurba_marseille","lat":43.305364,"lon":5.384119,"is_reserved":false,"is_disabled":false,"rental_uris":{"android":"levelo://app?vid=e0a71e37-3333-4072-a4e6-d84279f658df","ios":"levelo://app?vid=e0a71e37-3333-4072-a4e6-d84279f658df"},"vehicle_type_id":"4","last_reported":1685275874,"current_range_meters":8000,"station_id":"ce4bgg92rcd13ifvqb30","pricing_plan_id":"free"},{"bike_id":"df220b0d-e90c-41b4-9c90-d61b2cc87791","system_id":"levelo_inurba_marseille","lat":43.298433,"lon":5.362774,"is_reserved":false,"is_disabled":false,"rental_uris":{"android":"levelo://app?vid=df220b0d-e90c-41b4-9c90-d61b2cc87791","ios":"levelo://app?vid=df220b0d-e90c-41b4-9c90-d61b2cc87791"},"vehicle_type_id":"4","last_reported":1685275874,"current_range_meters":1200,"station_id":"ce4bgpp2rcd13ifvqc3g","pricing_plan_id":"free"},{"bike_id":"c5d26764-49dc-4c63-be59-4fc735118cfc","system_id":"levelo_inurba_marseille","lat":43.305364,"lon":5.384119,"is_reserved":false,"is_disabled":false,"rental_uris":{"android":"levelo://app?vid=c5d26764-49dc-4c63-be59-4fc735118cfc","ios":"levelo://app?vid=c5d26764-49dc-4c63-be59-4fc735118cfc"},"vehicle_type_id":"4","last_reported":1685275874,"current_range_meters":23600,"station_id":"ce4bgg92rcd13ifvqb30","pricing_plan_id":"free"},{"bike_id":"5480afb8-112a-47f7-a636-0608be8550f0","system_id":"levelo_inurba_marseille","lat":43.29934,"lon":5.37692,"is_reserved":false,"is_disabled":false,"rental_uris":{"android":"levelo://app?vid=5480afb8-112a-47f7-a636-0608be8550f0","ios":"levelo://app?vid=5480afb8-112a-47f7-a636-0608be8550f0"},"vehicle_type_id":"4","last_reported":1685275874,"current_range_meters":19600,"station_id":"","pricing_plan_id":"free"},{"bike_id":"b509cb09-fad7-474b-8839-3794109ab722","system_id":"levelo_inurba_marseille","lat":43.328371,"lon":5.366909,"is_reserved":false,"is_disabled":false,"rental_uris":{"android":"levelo://app?vid=b509cb09-fad7-474b-8839-3794109ab722","ios":"levelo://app?vid=b509cb09-fad7-474b-8839-3794109ab722"},"vehicle_type_id":"4","last_reported":1685275874,"current_range_meters":3200,"station_id":"ce4bhs92rcd13ifvqi0g","pricing_plan_id":"free"},{"bike_id":"bb1e0ad9-df4b-41de-bdd5-bce01dd60691","system_id":"levelo_inurba_marseille","lat":43.328371,"lon":5.366909,"is_reserved":false,"is_disabled":false,"rental_uris":{"android":"levelo://app?vid=bb1e0ad9-df4b-41de-bdd5-bce01dd60691","ios":"levelo://app?vid=bb1e0ad9-df4b-41de-bdd5-bce01dd60691"},"vehicle_type_id":"4","last_reported":1685275874,"current_range_meters":30000,"station_id":"ce4bhs92rcd13ifvqi0g","pricing_plan_id":"free"},{"bike_id":"43d041a6-cdcf-4897-8665-6ed61b2c409c","system_id":"levelo_inurba_marseille","lat":43.32825,"lon":5.36678,"is_reserved":false,"is_disabled":false,"rental_uris":{"android":"levelo://app?vid=43d041a6-cdcf-4897-8665-6ed61b2c409c","ios":"levelo://app?vid=43d041a6-cdcf-4897-8665-6ed61b2c409c"},"vehicle_type_id":"4","last_reported":1685275874,"current_range_meters":30000,"station_id":"ce4bhs92rcd13ifvqi0g","pricing_plan_id":"free"},{"bike_id":"285c145e-777a-4b00-b299-e3b44b9cb422","system_id":"levelo_inurba_marseille","lat":43.32826,"lon":5.36687,"is_reserved":false,"is_disabled":false,"rental_uris":{"android":"levelo://app?vid=285c145e-777a-4b00-b299-e3b44b9cb422","ios":"levelo://app?vid=285c145e-777a-4b00-b299-e3b44b9cb422"},"vehicle_type_id":"4","last_reported":1685275874,"current_range_meters":6800,"station_id":"ce4bhs92rcd13ifvqi0g","pricing_plan_id":"free"},{"bike_id":"6aadd20f-ee22-42f7-9c69-f3066c5dfcf1","system_id":"levelo_inurba_marseille","lat":43.328371,"lon":5.366912,"is_reserved":false,"is_disabled":false,"rental_uris":{"android":"levelo://app?vid=6aadd20f-ee22-42f7-9c69-f3066c5dfcf1","ios":"levelo://app?vid=6aadd20f-ee22-42f7-9c69-f3066c5dfcf1"},"vehicle_type_id":"4","last_reported":1685275874,"current_range_meters":11200,"station_id":"ce4bhs92rcd13ifvqi0g","pricing_plan_id":"free"},{"bike_id":"95347b4f-9878-4885-a629-a67b8812af5a","system_id":"levelo_inurba_marseille","lat":43.297066,"lon":5.366022,"is_reserved":false,"is_disabled":false,"rental_uris":{"android":"levelo://app?vid=95347b4f-9878-4885-a629-a67b8812af5a","ios":"levelo://app?vid=95347b4f-9878-4885-a629-a67b8812af5a"},"vehicle_type_id":"4","last_reported":1685275874,"current_range_meters":24400,"station_id":"","pricing_plan_id":"free"},{"bike_id":"383aa7a2-3538-4d7d-9ca2-1fbba8b52814","system_id":"levelo_inurba_marseille","lat":43.29733,"lon":5.35966,"is_reserved":false,"is_disabled":false,"rental_uris":{"android":"levelo://app?vid=383aa7a2-3538-4d7d-9ca2-1fbba8b52814","ios":"levelo://app?vid=383aa7a2-3538-4d7d-9ca2-1fbba8b52814"},"vehicle_type_id":"4","last_reported":1685275874,"current_range_meters":27200,"station_id":"","pricing_plan_id":"free"},{"bike_id":"794f0de2-ca9c-47ee-a77a-3f1b232a3e18","system_id":"levelo_inurba_marseille","lat":43.32497,"lon":5.38247,"is_reserved":false,"is_disabled":false,"rental_uris":{"android":"levelo://app?vid=794f0de2-ca9c-47ee-a77a-3f1b232a3e18","ios":"levelo://app?vid=794f0de2-ca9c-47ee-a77a-3f1b232a3e18"},"vehicle_type_id":"4","last_reported":1685275874,"current_range_meters":14800,"station_id":"","pricing_plan_id":"free"},{"bike_id":"9258c112-86cf-4beb-bba3-773ff5cd6368","system_id":"levelo_inurba_marseille","lat":43.299028,"lon":5.381509,"is_reserved":false,"is_disabled":false,"rental_uris":{"android":"levelo://app?vid=9258c112-86cf-4beb-bba3-773ff5cd6368","ios":"levelo://app?vid=9258c112-86cf-4beb-bba3-773ff5cd6368"},"vehicle_type_id":"4","last_reported":1685275874,"current_range_meters":0,"station_id":"ce4bgj12rcd13ifvqbc0","pricing_plan_id":"free"},{"bike_id":"84b024f2-6321-45ea-907b-eae120e88f80","system_id":"levelo_inurba_marseille","lat":43.299028,"lon":5.381509,"is_reserved":false,"is_disabled":false,"rental_uris":{"android":"levelo://app?vid=84b024f2-6321-45ea-907b-eae120e88f80","ios":"levelo://app?vid=84b024f2-6321-45ea-907b-eae120e88f80"},"vehicle_type_id":"4","last_reported":1685275874,"current_range_meters":27200,"station_id":"ce4bgj12rcd13ifvqbc0","pricing_plan_id":"free"},{"bike_id":"cb5974c8-ce9c-42f2-9dcd-338a43c1ccd2","system_id":"levelo_inurba_marseille","lat":43.309589,"lon":5.390258,"is_reserved":false,"is_disabled":false,"rental_uris":{"android":"levelo://app?vid=cb5974c8-ce9c-42f2-9dcd-338a43c1ccd2","ios":"levelo://app?vid=cb5974c8-ce9c-42f2-9dcd-338a43c1ccd2"},"vehicle_type_id":"4","last_reported":1685275874,"current_range_meters":21200,"station_id":"ce4bgup2rcd13ifvqco0","pricing_plan_id":"free"},{"bike_id":"c7b85c1d-a9c3-45b0-9765-f7c724ab54ad","system_id":"levelo_inurba_marseille","lat":43.29778,"lon":5.37924,"is_reserved":false,"is_disabled":false,"rental_uris":{"android":"levelo://app?vid=c7b85c1d-a9c3-45b0-9765-f7c724ab54ad","ios":"levelo://app?vid=c7b85c1d-a9c3-45b0-9765-f7c724ab54ad"},"vehicle_type_id":"4","last_reported":1685275874,"current_range_meters":17600,"station_id":"","pricing_plan_id":"free"},{"bike_id":"8c8b0ebc-2c40-4c6f-8697-a5f0e903b13a","system_id":"levelo_inurba_marseille","lat":43.3176,"lon":5.3901,"is_reserved":false,"is_disabled":false,"rental_uris":{"android":"levelo://app?vid=8c8b0ebc-2c40-4c6f-8697-a5f0e903b13a","ios":"levelo://app?vid=8c8b0ebc-2c40-4c6f-8697-a5f0e903b13a"},"vehicle_type_id":"4","last_reported":1685275874,"current_range_meters":21200,"station_id":"ce4bhqp2rcd13ifvqhng","pricing_plan_id":"free"},{"bike_id":"a14c2ccf-dc4b-43a6-9e1d-8bcbee620dac","system_id":"levelo_inurba_marseille","lat":43.317557,"lon":5.390173,"is_reserved":false,"is_disabled":false,"rental_uris":{"android":"levelo://app?vid=a14c2ccf-dc4b-43a6-9e1d-8bcbee620dac","ios":"levelo://app?vid=a14c2ccf-dc4b-43a6-9e1d-8bcbee620dac"},"vehicle_type_id":"4","last_reported":1685275874,"current_range_meters":30800,"station_id":"ce4bhqp2rcd13ifvqhng","pricing_plan_id":"free"},{"bike_id":"99d48891-aeb2-4db1-9979-8896a8d145a2","system_id":"levelo_inurba_marseille","lat":43.298037,"lon":5.381066,"is_reserved":false,"is_disabled":false,"rental_uris":{"android":"levelo://app?vid=99d48891-aeb2-4db1-9979-8896a8d145a2","ios":"levelo://app?vid=99d48891-aeb2-4db1-9979-8896a8d145a2"},"vehicle_type_id":"4","last_reported":1685275874,"current_range_meters":28800,"station_id":"ce4bgip2rcd13ifvqbb0","pricing_plan_id":"free"},{"bike_id":"d7b5792b-f711-4ac1-b518-658bcf4dcf57","system_id":"levelo_inurba_marseille","lat":43.299717,"lon":5.384845,"is_reserved":false,"is_disabled":false,"rental_uris":{"android":"levelo://app?vid=d7b5792b-f711-4ac1-b518-658bcf4dcf57","ios":"levelo://app?vid=d7b5792b-f711-4ac1-b518-658bcf4dcf57"},"vehicle_type_id":"4","last_reported":1685275874,"current_range_meters":4800,"station_id":"ce4bgj92rcd13ifvqbd0","pricing_plan_id":"free"},{"bike_id":"52994f0e-6703-45e1-8616-bfb50ed0036a","system_id":"levelo_inurba_marseille","lat":43.32367,"lon":5.388836,"is_reserved":false,"is_disabled":false,"rental_uris":{"android":"levelo://app?vid=52994f0e-6703-45e1-8616-bfb50ed0036a","ios":"levelo://app?vid=52994f0e-6703-45e1-8616-bfb50ed0036a"},"vehicle_type_id":"4","last_reported":1685275874,"current_range_meters":30400,"station_id":"ce4bhqp2rcd13ifvqhog","pricing_plan_id":"free"},{"bike_id":"cf45cd99-5f7c-448d-b2bb-1deadd3e4f73","system_id":"levelo_inurba_marseille","lat":43.32368,"lon":5.38885,"is_reserved":false,"is_disabled":false,"rental_uris":{"android":"levelo://app?vid=cf45cd99-5f7c-448d-b2bb-1deadd3e4f73","ios":"levelo://app?vid=cf45cd99-5f7c-448d-b2bb-1deadd3e4f73"},"vehicle_type_id":"4","last_reported":1685275874,"current_range_meters":31200,"station_id":"ce4bhqp2rcd13ifvqhog","pricing_plan_id":"free"},{"bike_id":"94889092-b1f4-4db2-ba98-1d9099cf81b0","system_id":"levelo_inurba_marseille","lat":43.29302,"lon":5.37171,"is_reserved":false,"is_disabled":false,"rental_uris":{"android":"levelo://app?vid=94889092-b1f4-4db2-ba98-1d9099cf81b0","ios":"levelo://app?vid=94889092-b1f4-4db2-ba98-1d9099cf81b0"},"vehicle_type_id":"4","last_reported":1685275874,"current_range_meters":16400,"station_id":"","pricing_plan_id":"free"},{"bike_id":"2e7355f3-8fce-4935-ae88-c2b6b7ab8ec0","system_id":"levelo_inurba_marseille","lat":43.29303,"lon":5.37461,"is_reserved":false,"is_disabled":false,"rental_uris":{"android":"levelo://app?vid=2e7355f3-8fce-4935-ae88-c2b6b7ab8ec0","ios":"levelo://app?vid=2e7355f3-8fce-4935-ae88-c2b6b7ab8ec0"},"vehicle_type_id":"4","last_reported":1685275874,"current_range_meters":6800,"station_id":"ce4bgi12rcd13ifvqb70","pricing_plan_id":"free"},{"bike_id":"82130f60-7325-420a-901d-5cf2094a2590","system_id":"levelo_inurba_marseille","lat":43.31323,"lon":5.39688,"is_reserved":false,"is_disabled":false,"rental_uris":{"android":"levelo://app?vid=82130f60-7325-420a-901d-5cf2094a2590","ios":"levelo://app?vid=82130f60-7325-420a-901d-5cf2094a2590"},"vehicle_type_id":"4","last_reported":1685275874,"current_range_meters":25600,"station_id":"ce4bgvp2rcd13ifvqcu0","pricing_plan_id":"free"},{"bike_id":"6a5436f2-3060-486b-a305-24a89e28f27d","system_id":"levelo_inurba_marseille","lat":43.291994,"lon":5.357886,"is_reserved":false,"is_disabled":false,"rental_uris":{"android":"levelo://app?vid=6a5436f2-3060-486b-a305-24a89e28f27d","ios":"levelo://app?vid=6a5436f2-3060-486b-a305-24a89e28f27d"},"vehicle_type_id":"4","last_reported":1685275874,"current_range_meters":28000,"station_id":"ce4bhb12rcd13ifvqel0","pricing_plan_id":"free"},{"bike_id":"6deeb88d-95db-4fb0-a633-956c2fc1a824","system_id":"levelo_inurba_marseille","lat":43.28913,"lon":5.3701,"is_reserved":false,"is_disabled":false,"rental_uris":{"android":"levelo://app?vid=6deeb88d-95db-4fb0-a633-956c2fc1a824","ios":"levelo://app?vid=6deeb88d-95db-4fb0-a633-956c2fc1a824"},"vehicle_type_id":"4","last_reported":1685275874,"current_range_meters":11200,"station_id":"","pricing_plan_id":"free"},{"bike_id":"9d10140c-3a48-4bb3-b44a-8a8e3a8b5efc","system_id":"levelo_inurba_marseille","lat":43.3092,"lon":5.39918,"is_reserved":false,"is_disabled":false,"rental_uris":{"android":"levelo://app?vid=9d10140c-3a48-4bb3-b44a-8a8e3a8b5efc","ios":"levelo://app?vid=9d10140c-3a48-4bb3-b44a-8a8e3a8b5efc"},"vehicle_type_id":"4","last_reported":1685275874,"current_range_meters":4400,"station_id":"","pricing_plan_id":"free"},{"bike_id":"b01ded68-4f1d-4147-adba-3e5be077fc09","system_id":"levelo_inurba_marseille","lat":43.292644,"lon":5.384257,"is_reserved":false,"is_disabled":false,"rental_uris":{"android":"levelo://app?vid=b01ded68-4f1d-4147-adba-3e5be077fc09","ios":"levelo://app?vid=b01ded68-4f1d-4147-adba-3e5be077fc09"},"vehicle_type_id":"4","last_reported":1685275874,"current_range_meters":0,"station_id":"ce4bh692rcd13ifvqea0","pricing_plan_id":"free"},{"bike_id":"63a2180e-cf2a-4713-b22d-9e4df73396ec","system_id":"levelo_inurba_marseille","lat":43.33039,"lon":5.38911,"is_reserved":false,"is_disabled":false,"rental_uris":{"android":"levelo://app?vid=63a2180e-cf2a-4713-b22d-9e4df73396ec","ios":"levelo://app?vid=63a2180e-cf2a-4713-b22d-9e4df73396ec"},"vehicle_type_id":"4","last_reported":1685275874,"current_range_meters":29600,"station_id":"ce4bhr92rcd13ifvqhrg","pricing_plan_id":"free"},{"bike_id":"c3d8ec3e-90a2-4ed2-8fb9-8a4c9c64ef14","system_id":"levelo_inurba_marseille","lat":43.33038,"lon":5.38918,"is_reserved":false,"is_disabled":false,"rental_uris":{"android":"levelo://app?vid=c3d8ec3e-90a2-4ed2-8fb9-8a4c9c64ef14","ios":"levelo://app?vid=c3d8ec3e-90a2-4ed2-8fb9-8a4c9c64ef14"},"vehicle_type_id":"4","last_reported":1685275874,"current_range_meters":28800,"station_id":"ce4bhr92rcd13ifvqhrg","pricing_plan_id":"free"},{"bike_id":"a11335df-2eac-4f72-9f87-2dac06b52b6c","system_id":"levelo_inurba_marseille","lat":43.33042,"lon":5.38917,"is_reserved":false,"is_disabled":false,"rental_uris":{"android":"levelo://app?vid=a11335df-2eac-4f72-9f87-2dac06b52b6c","ios":"levelo://app?vid=a11335df-2eac-4f72-9f87-2dac06b52b6c"},"vehicle_type_id":"4","last_reported":1685275874,"current_range_meters":31200,"station_id":"ce4bhr92rcd13ifvqhrg","pricing_plan_id":"free"},{"bike_id":"e7e4ba52-f11e-4f66-9f72-b9634939c652","system_id":"levelo_inurba_marseille","lat":43.33044,"lon":5.38915,"is_reserved":false,"is_disabled":false,"rental_uris":{"android":"levelo://app?vid=e7e4ba52-f11e-4f66-9f72-b9634939c652","ios":"levelo://app?vid=e7e4ba52-f11e-4f66-9f72-b9634939c652"},"vehicle_type_id":"4","last_reported":1685275874,"current_range_meters":26000,"station_id":"ce4bhr92rcd13ifvqhrg","pricing_plan_id":"free"},{"bike_id":"4d5f94e9-ec95-4c97-baa6-ec2890691057","system_id":"levelo_inurba_marseille","lat":43.28901,"lon":5.3762,"is_reserved":false,"is_disabled":false,"rental_uris":{"android":"levelo://app?vid=4d5f94e9-ec95-4c97-baa6-ec2890691057","ios":"levelo://app?vid=4d5f94e9-ec95-4c97-baa6-ec2890691057"},"vehicle_type_id":"4","last_reported":1685275874,"current_range_meters":0,"station_id":"","pricing_plan_id":"free"},{"bike_id":"51cf1bb6-ddba-4e2f-a77b-0b66ad2b7bc7","system_id":"levelo_inurba_marseille","lat":43.31,"lon":5.40071,"is_reserved":false,"is_disabled":false,"rental_uris":{"android":"levelo://app?vid=51cf1bb6-ddba-4e2f-a77b-0b66ad2b7bc7","ios":"levelo://app?vid=51cf1bb6-ddba-4e2f-a77b-0b66ad2b7bc7"},"vehicle_type_id":"4","last_reported":1685275874,"current_range_meters":29200,"station_id":"","pricing_plan_id":"free"},{"bike_id":"500d4d15-1319-4801-a08a-ef1c914b502a","system_id":"levelo_inurba_marseille","lat":43.28856,"lon":5.358371,"is_reserved":false,"is_disabled":false,"rental_uris":{"android":"levelo://app?vid=500d4d15-1319-4801-a08a-ef1c914b502a","ios":"levelo://app?vid=500d4d15-1319-4801-a08a-ef1c914b502a"},"vehicle_type_id":"4","last_reported":1685275874,"current_range_meters":6800,"station_id":"ce4bhb12rcd13ifvqem0","pricing_plan_id":"free"},{"bike_id":"4e560971-0283-4985-b1ad-0dafdc36b2b8","system_id":"levelo_inurba_marseille","lat":43.28856,"lon":5.358371,"is_reserved":false,"is_disabled":false,"rental_uris":{"android":"levelo://app?vid=4e560971-0283-4985-b1ad-0dafdc36b2b8","ios":"levelo://app?vid=4e560971-0283-4985-b1ad-0dafdc36b2b8"},"vehicle_type_id":"4","last_reported":1685275874,"current_range_meters":20800,"station_id":"ce4bhb12rcd13ifvqem0","pricing_plan_id":"free"},{"bike_id":"4d395139-b839-4ab0-8519-abb908308d08","system_id":"levelo_inurba_marseille","lat":43.33743,"lon":5.37447,"is_reserved":false,"is_disabled":false,"rental_uris":{"android":"levelo://app?vid=4d395139-b839-4ab0-8519-abb908308d08","ios":"levelo://app?vid=4d395139-b839-4ab0-8519-abb908308d08"},"vehicle_type_id":"4","last_reported":1685275874,"current_range_meters":29600,"station_id":"","pricing_plan_id":"free"},{"bike_id":"c67b547c-3fcb-4384-8614-e15f558fec55","system_id":"levelo_inurba_marseille","lat":43.33744,"lon":5.37451,"is_reserved":false,"is_disabled":false,"rental_uris":{"android":"levelo://app?vid=c67b547c-3fcb-4384-8614-e15f558fec55","ios":"levelo://app?vid=c67b547c-3fcb-4384-8614-e15f558fec55"},"vehicle_type_id":"4","last_reported":1685275874,"current_range_meters":27600,"station_id":"","pricing_plan_id":"free"},{"bike_id":"493860ce-e063-4684-ab33-c360eaf64153","system_id":"levelo_inurba_marseille","lat":43.33744,"lon":5.37451,"is_reserved":false,"is_disabled":false,"rental_uris":{"android":"levelo://app?vid=493860ce-e063-4684-ab33-c360eaf64153","ios":"levelo://app?vid=493860ce-e063-4684-ab33-c360eaf64153"},"vehicle_type_id":"4","last_reported":1685275874,"current_range_meters":18400,"station_id":"","pricing_plan_id":"free"},{"bike_id":"915a1d5d-0a9c-4982-bd00-ae384a29cdde","system_id":"levelo_inurba_marseille","lat":43.33747,"lon":5.37445,"is_reserved":false,"is_disabled":false,"rental_uris":{"android":"levelo://app?vid=915a1d5d-0a9c-4982-bd00-ae384a29cdde","ios":"levelo://app?vid=915a1d5d-0a9c-4982-bd00-ae384a29cdde"},"vehicle_type_id":"4","last_reported":1685275874,"current_range_meters":30800,"station_id":"","pricing_plan_id":"free"},{"bike_id":"141c14ea-594b-43ee-894e-8c44af1dcd73","system_id":"levelo_inurba_marseille","lat":43.337475,"lon":5.374511,"is_reserved":false,"is_disabled":false,"rental_uris":{"android":"levelo://app?vid=141c14ea-594b-43ee-894e-8c44af1dcd73","ios":"levelo://app?vid=141c14ea-594b-43ee-894e-8c44af1dcd73"},"vehicle_type_id":"4","last_reported":1685275874,"current_range_meters":31200,"station_id":"","pricing_plan_id":"free"},{"bike_id":"556c6db1-2600-4c2b-9521-aae8453517c1","system_id":"levelo_inurba_marseille","lat":43.33755,"lon":5.37444,"is_reserved":false,"is_disabled":false,"rental_uris":{"android":"levelo://app?vid=556c6db1-2600-4c2b-9521-aae8453517c1","ios":"levelo://app?vid=556c6db1-2600-4c2b-9521-aae8453517c1"},"vehicle_type_id":"4","last_reported":1685275874,"current_range_meters":14000,"station_id":"","pricing_plan_id":"free"},{"bike_id":"9bbdf958-1737-493b-8bdb-642277200e12","system_id":"levelo_inurba_marseille","lat":43.33762,"lon":5.37442,"is_reserved":false,"is_disabled":false,"rental_uris":{"android":"levelo://app?vid=9bbdf958-1737-493b-8bdb-642277200e12","ios":"levelo://app?vid=9bbdf958-1737-493b-8bdb-642277200e12"},"vehicle_type_id":"4","last_reported":1685275874,"current_range_meters":20800,"station_id":"","pricing_plan_id":"free"},{"bike_id":"5aaf445f-f097-4041-99e9-0b2edc8a39b1","system_id":"levelo_inurba_marseille","lat":43.33764,"lon":5.37434,"is_reserved":false,"is_disabled":false,"rental_uris":{"android":"levelo://app?vid=5aaf445f-f097-4041-99e9-0b2edc8a39b1","ios":"levelo://app?vid=5aaf445f-f097-4041-99e9-0b2edc8a39b1"},"vehicle_type_id":"4","last_reported":1685275874,"current_range_meters":28800,"station_id":"","pricing_plan_id":"free"},{"bike_id":"0882f362-d858-4071-a168-b014ac1c8360","system_id":"levelo_inurba_marseille","lat":43.30432,"lon":5.40088,"is_reserved":false,"is_disabled":false,"rental_uris":{"android":"levelo://app?vid=0882f362-d858-4071-a168-b014ac1c8360","ios":"levelo://app?vid=0882f362-d858-4071-a168-b014ac1c8360"},"vehicle_type_id":"4","last_reported":1685275874,"current_range_meters":22000,"station_id":"","pricing_plan_id":"free"},{"bike_id":"be37aea4-9e33-4843-a719-f90be4d7e306","system_id":"levelo_inurba_marseille","lat":43.290345,"lon":5.38646,"is_reserved":false,"is_disabled":false,"rental_uris":{"android":"levelo://app?vid=be37aea4-9e33-4843-a719-f90be4d7e306","ios":"levelo://app?vid=be37aea4-9e33-4843-a719-f90be4d7e306"},"vehicle_type_id":"4","last_reported":1685275874,"current_range_meters":20000,"station_id":"ce4bh4p2rcd13ifvqe0g","pricing_plan_id":"free"},{"bike_id":"0a0d08dc-2010-4c1c-b6ac-faac4edef7cb","system_id":"levelo_inurba_marseille","lat":43.28607,"lon":5.37072,"is_reserved":false,"is_disabled":false,"rental_uris":{"android":"levelo://app?vid=0a0d08dc-2010-4c1c-b6ac-faac4edef7cb","ios":"levelo://app?vid=0a0d08dc-2010-4c1c-b6ac-faac4edef7cb"},"vehicle_type_id":"4","last_reported":1685275874,"current_range_meters":0,"station_id":"ce4bht12rcd13ifvqi60","pricing_plan_id":"free"},{"bike_id":"a77ff3c6-0e7b-4c50-bd1a-3f3fcd1660a3","system_id":"levelo_inurba_marseille","lat":43.316517,"lon":5.404375,"is_reserved":false,"is_disabled":false,"rental_uris":{"android":"levelo://app?vid=a77ff3c6-0e7b-4c50-bd1a-3f3fcd1660a3","ios":"levelo://app?vid=a77ff3c6-0e7b-4c50-bd1a-3f3fcd1660a3"},"vehicle_type_id":"4","last_reported":1685275874,"current_range_meters":30800,"station_id":"ce4bh012rcd13ifvqd00","pricing_plan_id":"free"},{"bike_id":"65b95b17-7a80-45ab-9291-7b61086dc9f1","system_id":"levelo_inurba_marseille","lat":43.316517,"lon":5.404375,"is_reserved":false,"is_disabled":false,"rental_uris":{"android":"levelo://app?vid=65b95b17-7a80-45ab-9291-7b61086dc9f1","ios":"levelo://app?vid=65b95b17-7a80-45ab-9291-7b61086dc9f1"},"vehicle_type_id":"4","last_reported":1685275874,"current_range_meters":19600,"station_id":"ce4bh012rcd13ifvqd00","pricing_plan_id":"free"},{"bike_id":"f0e6f1b5-21a6-4d68-8927-ef6e85bb93cc","system_id":"levelo_inurba_marseille","lat":43.316517,"lon":5.404375,"is_reserved":false,"is_disabled":false,"rental_uris":{"android":"levelo://app?vid=f0e6f1b5-21a6-4d68-8927-ef6e85bb93cc","ios":"levelo://app?vid=f0e6f1b5-21a6-4d68-8927-ef6e85bb93cc"},"vehicle_type_id":"4","last_reported":1685275874,"current_range_meters":27200,"station_id":"ce4bh012rcd13ifvqd00","pricing_plan_id":"free"},{"bike_id":"bae91ff6-a9a0-4525-bf74-10c5625ee080","system_id":"levelo_inurba_marseille","lat":43.316517,"lon":5.404375,"is_reserved":false,"is_disabled":false,"rental_uris":{"android":"levelo://app?vid=bae91ff6-a9a0-4525-bf74-10c5625ee080","ios":"levelo://app?vid=bae91ff6-a9a0-4525-bf74-10c5625ee080"},"vehicle_type_id":"4","last_reported":1685275874,"current_range_meters":30400,"station_id":"ce4bh012rcd13ifvqd00","pricing_plan_id":"free"},{"bike_id":"caa37214-e65e-4b21-87d1-283a386dabe4","system_id":"levelo_inurba_marseille","lat":43.316517,"lon":5.404375,"is_reserved":false,"is_disabled":false,"rental_uris":{"android":"levelo://app?vid=caa37214-e65e-4b21-87d1-283a386dabe4","ios":"levelo://app?vid=caa37214-e65e-4b21-87d1-283a386dabe4"},"vehicle_type_id":"4","last_reported":1685275874,"current_range_meters":26800,"station_id":"ce4bh012rcd13ifvqd00","pricing_plan_id":"free"},{"bike_id":"506ea9e9-1ba7-426a-a41a-9653e2702b99","system_id":"levelo_inurba_marseille","lat":43.28459,"lon":5.35882,"is_reserved":false,"is_disabled":false,"rental_uris":{"android":"levelo://app?vid=506ea9e9-1ba7-426a-a41a-9653e2702b99","ios":"levelo://app?vid=506ea9e9-1ba7-426a-a41a-9653e2702b99"},"vehicle_type_id":"4","last_reported":1685275874,"current_range_meters":0,"station_id":"ce4bhah2rcd13ifvqei0","pricing_plan_id":"free"},{"bike_id":"8087000d-7883-4f7b-b6e8-93e2c97951a9","system_id":"levelo_inurba_marseille","lat":43.28613,"lon":5.35103,"is_reserved":false,"is_disabled":false,"rental_uris":{"android":"levelo://app?vid=8087000d-7883-4f7b-b6e8-93e2c97951a9","ios":"levelo://app?vid=8087000d-7883-4f7b-b6e8-93e2c97951a9"},"vehicle_type_id":"4","last_reported":1685275874,"current_range_meters":13600,"station_id":"","pricing_plan_id":"free"},{"bike_id":"5936656b-276a-456b-b7bb-273f8a37025e","system_id":"levelo_inurba_marseille","lat":43.323464,"lon":5.406297,"is_reserved":false,"is_disabled":false,"rental_uris":{"android":"levelo://app?vid=5936656b-276a-456b-b7bb-273f8a37025e","ios":"levelo://app?vid=5936656b-276a-456b-b7bb-273f8a37025e"},"vehicle_type_id":"4","last_reported":1685275874,"current_range_meters":4800,"station_id":"ce4bhq92rcd13ifvqhjg","pricing_plan_id":"free"},{"bike_id":"576b8e19-4dd9-4c05-9bf2-2b27cf8d4172","system_id":"levelo_inurba_marseille","lat":43.323464,"lon":5.406297,"is_reserved":false,"is_disabled":false,"rental_uris":{"android":"levelo://app?vid=576b8e19-4dd9-4c05-9bf2-2b27cf8d4172","ios":"levelo://app?vid=576b8e19-4dd9-4c05-9bf2-2b27cf8d4172"},"vehicle_type_id":"4","last_reported":1685275874,"current_range_meters":26400,"station_id":"ce4bhq92rcd13ifvqhjg","pricing_plan_id":"free"},{"bike_id":"12b97231-b334-4083-9232-cac67a3556bb","system_id":"levelo_inurba_marseille","lat":43.323464,"lon":5.406297,"is_reserved":false,"is_disabled":false,"rental_uris":{"android":"levelo://app?vid=12b97231-b334-4083-9232-cac67a3556bb","ios":"levelo://app?vid=12b97231-b334-4083-9232-cac67a3556bb"},"vehicle_type_id":"4","last_reported":1685275874,"current_range_meters":26400,"station_id":"ce4bhq92rcd13ifvqhjg","pricing_plan_id":"free"},{"bike_id":"969a98ea-9105-40c2-b478-ba06482f8a03","system_id":"levelo_inurba_marseille","lat":43.284217,"lon":5.349697,"is_reserved":false,"is_disabled":false,"rental_uris":{"android":"levelo://app?vid=969a98ea-9105-40c2-b478-ba06482f8a03","ios":"levelo://app?vid=969a98ea-9105-40c2-b478-ba06482f8a03"},"vehicle_type_id":"4","last_reported":1685275874,"current_range_meters":16400,"station_id":"ce4bhbh2rcd13ifvqepg","pricing_plan_id":"free"},{"bike_id":"ba30215b-d6cb-4fe4-9504-80ce7f5713bc","system_id":"levelo_inurba_marseille","lat":43.28409,"lon":5.34987,"is_reserved":false,"is_disabled":false,"rental_uris":{"android":"levelo://app?vid=ba30215b-d6cb-4fe4-9504-80ce7f5713bc","ios":"levelo://app?vid=ba30215b-d6cb-4fe4-9504-80ce7f5713bc"},"vehicle_type_id":"4","last_reported":1685275874,"current_range_meters":25600,"station_id":"ce4bhbh2rcd13ifvqepg","pricing_plan_id":"free"},{"bike_id":"fe0a1f37-8718-48c8-be15-e3e175480c94","system_id":"levelo_inurba_marseille","lat":43.289363,"lon":5.396322,"is_reserved":false,"is_disabled":false,"rental_uris":{"android":"levelo://app?vid=fe0a1f37-8718-48c8-be15-e3e175480c94","ios":"levelo://app?vid=fe0a1f37-8718-48c8-be15-e3e175480c94"},"vehicle_type_id":"4","last_reported":1685275874,"current_range_meters":16400,"station_id":"ce4bh3h2rcd13ifvqdn0","pricing_plan_id":"free"},{"bike_id":"e38aa5d7-11f0-4276-95b3-7a9ab1a036aa","system_id":"levelo_inurba_marseille","lat":43.28937,"lon":5.396277,"is_reserved":false,"is_disabled":false,"rental_uris":{"android":"levelo://app?vid=e38aa5d7-11f0-4276-95b3-7a9ab1a036aa","ios":"levelo://app?vid=e38aa5d7-11f0-4276-95b3-7a9ab1a036aa"},"vehicle_type_id":"4","last_reported":1685275874,"current_range_meters":24400,"station_id":"ce4bh3h2rcd13ifvqdn0","pricing_plan_id":"free"},{"bike_id":"c66fa515-f58a-471b-9426-923be837eb13","system_id":"levelo_inurba_marseille","lat":43.292724,"lon":5.401131,"is_reserved":false,"is_disabled":false,"rental_uris":{"android":"levelo://app?vid=c66fa515-f58a-471b-9426-923be837eb13","ios":"levelo://app?vid=c66fa515-f58a-471b-9426-923be837eb13"},"vehicle_type_id":"4","last_reported":1685275874,"current_range_meters":14800,"station_id":"ce4bh312rcd13ifvqdk0","pricing_plan_id":"free"},{"bike_id":"55dee68f-7dec-4e62-a818-404607c4aad6","system_id":"levelo_inurba_marseille","lat":43.28275,"lon":5.35075,"is_reserved":false,"is_disabled":false,"rental_uris":{"android":"levelo://app?vid=55dee68f-7dec-4e62-a818-404607c4aad6","ios":"levelo://app?vid=55dee68f-7dec-4e62-a818-404607c4aad6"},"vehicle_type_id":"4","last_reported":1685275874,"current_range_meters":23600,"station_id":"ce4bhbp2rcd13ifvqerg","pricing_plan_id":"free"},{"bike_id":"d7d42cd2-1a77-4def-b981-046ac99f64cc","system_id":"levelo_inurba_marseille","lat":43.28275,"lon":5.35072,"is_reserved":false,"is_disabled":false,"rental_uris":{"android":"levelo://app?vid=d7d42cd2-1a77-4def-b981-046ac99f64cc","ios":"levelo://app?vid=d7d42cd2-1a77-4def-b981-046ac99f64cc"},"vehicle_type_id":"4","last_reported":1685275874,"current_range_meters":14000,"station_id":"ce4bhbp2rcd13ifvqerg","pricing_plan_id":"free"},{"bike_id":"c83cc0a6-d97b-48c9-a2e7-9b3ad486f56c","system_id":"levelo_inurba_marseille","lat":43.28274,"lon":5.35074,"is_reserved":false,"is_disabled":false,"rental_uris":{"android":"levelo://app?vid=c83cc0a6-d97b-48c9-a2e7-9b3ad486f56c","ios":"levelo://app?vid=c83cc0a6-d97b-48c9-a2e7-9b3ad486f56c"},"vehicle_type_id":"4","last_reported":1685275874,"current_range_meters":18400,"station_id":"ce4bhbp2rcd13ifvqerg","pricing_plan_id":"free"},{"bike_id":"d1edbea3-1868-4b04-aec7-1fc7e451c13d","system_id":"levelo_inurba_marseille","lat":43.282754,"lon":5.350519,"is_reserved":false,"is_disabled":false,"rental_uris":{"android":"levelo://app?vid=d1edbea3-1868-4b04-aec7-1fc7e451c13d","ios":"levelo://app?vid=d1edbea3-1868-4b04-aec7-1fc7e451c13d"},"vehicle_type_id":"4","last_reported":1685275874,"current_range_meters":16800,"station_id":"ce4bhbp2rcd13ifvqerg","pricing_plan_id":"free"},{"bike_id":"1eff8acb-f19f-4054-a340-00db2545b01c","system_id":"levelo_inurba_marseille","lat":43.282744,"lon":5.350533,"is_reserved":false,"is_disabled":false,"rental_uris":{"android":"levelo://app?vid=1eff8acb-f19f-4054-a340-00db2545b01c","ios":"levelo://app?vid=1eff8acb-f19f-4054-a340-00db2545b01c"},"vehicle_type_id":"4","last_reported":1685275874,"current_range_meters":21600,"station_id":"ce4bhbp2rcd13ifvqerg","pricing_plan_id":"free"},{"bike_id":"a853193c-86d3-458f-8c68-1868f3ef1adc","system_id":"levelo_inurba_marseille","lat":43.28273,"lon":5.35073,"is_reserved":false,"is_disabled":false,"rental_uris":{"android":"levelo://app?vid=a853193c-86d3-458f-8c68-1868f3ef1adc","ios":"levelo://app?vid=a853193c-86d3-458f-8c68-1868f3ef1adc"},"vehicle_type_id":"4","last_reported":1685275874,"current_range_meters":17600,"station_id":"ce4bhbp2rcd13ifvqerg","pricing_plan_id":"free"},{"bike_id":"52bab40f-1ecd-408c-839e-95e943af9ae6","system_id":"levelo_inurba_marseille","lat":43.28273,"lon":5.35072,"is_reserved":false,"is_disabled":false,"rental_uris":{"android":"levelo://app?vid=52bab40f-1ecd-408c-839e-95e943af9ae6","ios":"levelo://app?vid=52bab40f-1ecd-408c-839e-95e943af9ae6"},"vehicle_type_id":"4","last_reported":1685275874,"current_range_meters":15200,"station_id":"ce4bhbp2rcd13ifvqerg","pricing_plan_id":"free"},{"bike_id":"e625e382-ffdc-47f6-9f97-2eed09fb6a5b","system_id":"levelo_inurba_marseille","lat":43.282754,"lon":5.350519,"is_reserved":false,"is_disabled":false,"rental_uris":{"android":"levelo://app?vid=e625e382-ffdc-47f6-9f97-2eed09fb6a5b","ios":"levelo://app?vid=e625e382-ffdc-47f6-9f97-2eed09fb6a5b"},"vehicle_type_id":"4","last_reported":1685275874,"current_range_meters":18800,"station_id":"ce4bhbp2rcd13ifvqerg","pricing_plan_id":"free"},{"bike_id":"c524c425-90d6-4aaf-b26d-590cb7dcb76d","system_id":"levelo_inurba_marseille","lat":43.282754,"lon":5.350519,"is_reserved":false,"is_disabled":false,"rental_uris":{"android":"levelo://app?vid=c524c425-90d6-4aaf-b26d-590cb7dcb76d","ios":"levelo://app?vid=c524c425-90d6-4aaf-b26d-590cb7dcb76d"},"vehicle_type_id":"4","last_reported":1685275874,"current_range_meters":22000,"station_id":"ce4bhbp2rcd13ifvqerg","pricing_plan_id":"free"},{"bike_id":"a3fe1feb-82f5-410b-a97d-56a0508ee510","system_id":"levelo_inurba_marseille","lat":43.282754,"lon":5.350519,"is_reserved":false,"is_disabled":false,"rental_uris":{"android":"levelo://app?vid=a3fe1feb-82f5-410b-a97d-56a0508ee510","ios":"levelo://app?vid=a3fe1feb-82f5-410b-a97d-56a0508ee510"},"vehicle_type_id":"4","last_reported":1685275874,"current_range_meters":31600,"station_id":"ce4bhbp2rcd13ifvqerg","pricing_plan_id":"free"},{"bike_id":"d2e8c30f-8d27-4101-8098-fda75f4347ef","system_id":"levelo_inurba_marseille","lat":43.282754,"lon":5.350519,"is_reserved":false,"is_disabled":false,"rental_uris":{"android":"levelo://app?vid=d2e8c30f-8d27-4101-8098-fda75f4347ef","ios":"levelo://app?vid=d2e8c30f-8d27-4101-8098-fda75f4347ef"},"vehicle_type_id":"4","last_reported":1685275874,"current_range_meters":22800,"station_id":"ce4bhbp2rcd13ifvqerg","pricing_plan_id":"free"},{"bike_id":"0742f3b1-8acb-4b72-9ecb-a4ea7ec4e0c9","system_id":"levelo_inurba_marseille","lat":43.282744,"lon":5.350533,"is_reserved":false,"is_disabled":false,"rental_uris":{"android":"levelo://app?vid=0742f3b1-8acb-4b72-9ecb-a4ea7ec4e0c9","ios":"levelo://app?vid=0742f3b1-8acb-4b72-9ecb-a4ea7ec4e0c9"},"vehicle_type_id":"4","last_reported":1685275874,"current_range_meters":4800,"station_id":"ce4bhbp2rcd13ifvqerg","pricing_plan_id":"free"},{"bike_id":"350edb93-7cb3-40ee-b75b-bb5213b5efdd","system_id":"levelo_inurba_marseille","lat":43.282744,"lon":5.350533,"is_reserved":false,"is_disabled":false,"rental_uris":{"android":"levelo://app?vid=350edb93-7cb3-40ee-b75b-bb5213b5efdd","ios":"levelo://app?vid=350edb93-7cb3-40ee-b75b-bb5213b5efdd"},"vehicle_type_id":"4","last_reported":1685275874,"current_range_meters":31200,"station_id":"ce4bhbp2rcd13ifvqerg","pricing_plan_id":"free"},{"bike_id":"fc5a7086-02b1-4932-a3c2-901202221ae5","system_id":"levelo_inurba_marseille","lat":43.28271,"lon":5.35061,"is_reserved":false,"is_disabled":false,"rental_uris":{"android":"levelo://app?vid=fc5a7086-02b1-4932-a3c2-901202221ae5","ios":"levelo://app?vid=fc5a7086-02b1-4932-a3c2-901202221ae5"},"vehicle_type_id":"4","last_reported":1685275874,"current_range_meters":25600,"station_id":"ce4bhbp2rcd13ifvqerg","pricing_plan_id":"free"},{"bike_id":"fdc91db1-f4c3-4557-af5b-21bd0996d00f","system_id":"levelo_inurba_marseille","lat":43.282754,"lon":5.350519,"is_reserved":false,"is_disabled":false,"rental_uris":{"android":"levelo://app?vid=fdc91db1-f4c3-4557-af5b-21bd0996d00f","ios":"levelo://app?vid=fdc91db1-f4c3-4557-af5b-21bd0996d00f"},"vehicle_type_id":"4","last_reported":1685275874,"current_range_meters":26000,"station_id":"ce4bhbp2rcd13ifvqerg","pricing_plan_id":"free"},{"bike_id":"806983a1-7a5a-4864-a4c6-ed8ce64f1d2c","system_id":"levelo_inurba_marseille","lat":43.282754,"lon":5.350519,"is_reserved":false,"is_disabled":false,"rental_uris":{"android":"levelo://app?vid=806983a1-7a5a-4864-a4c6-ed8ce64f1d2c","ios":"levelo://app?vid=806983a1-7a5a-4864-a4c6-ed8ce64f1d2c"},"vehicle_type_id":"4","last_reported":1685275874,"current_range_meters":16400,"station_id":"ce4bhbp2rcd13ifvqerg","pricing_plan_id":"free"},{"bike_id":"3bde306f-1f91-4f5a-8275-4cbe8478d87b","system_id":"levelo_inurba_marseille","lat":43.282744,"lon":5.350533,"is_reserved":false,"is_disabled":false,"rental_uris":{"android":"levelo://app?vid=3bde306f-1f91-4f5a-8275-4cbe8478d87b","ios":"levelo://app?vid=3bde306f-1f91-4f5a-8275-4cbe8478d87b"},"vehicle_type_id":"4","last_reported":1685275874,"current_range_meters":22800,"station_id":"ce4bhbp2rcd13ifvqerg","pricing_plan_id":"free"},{"bike_id":"fcdb16b5-80e7-4a81-9dd7-4f0ab1853be8","system_id":"levelo_inurba_marseille","lat":43.282754,"lon":5.350519,"is_reserved":false,"is_disabled":false,"rental_uris":{"android":"levelo://app?vid=fcdb16b5-80e7-4a81-9dd7-4f0ab1853be8","ios":"levelo://app?vid=fcdb16b5-80e7-4a81-9dd7-4f0ab1853be8"},"vehicle_type_id":"4","last_reported":1685275874,"current_range_meters":1600,"station_id":"ce4bhbp2rcd13ifvqerg","pricing_plan_id":"free"},{"bike_id":"9185f75a-6efb-431b-9903-6fff616d3775","system_id":"levelo_inurba_marseille","lat":43.28268,"lon":5.35068,"is_reserved":false,"is_disabled":false,"rental_uris":{"android":"levelo://app?vid=9185f75a-6efb-431b-9903-6fff616d3775","ios":"levelo://app?vid=9185f75a-6efb-431b-9903-6fff616d3775"},"vehicle_type_id":"4","last_reported":1685275874,"current_range_meters":27200,"station_id":"ce4bhbp2rcd13ifvqerg","pricing_plan_id":"free"},{"bike_id":"0f82448f-4848-417d-9341-abf6eb3a6afd","system_id":"levelo_inurba_marseille","lat":43.28265,"lon":5.35074,"is_reserved":false,"is_disabled":false,"rental_uris":{"android":"levelo://app?vid=0f82448f-4848-417d-9341-abf6eb3a6afd","ios":"levelo://app?vid=0f82448f-4848-417d-9341-abf6eb3a6afd"},"vehicle_type_id":"4","last_reported":1685275874,"current_range_meters":26800,"station_id":"ce4bhbp2rcd13ifvqerg","pricing_plan_id":"free"},{"bike_id":"a85d9406-dde6-44e9-b05b-42440e664f62","system_id":"levelo_inurba_marseille","lat":43.28265,"lon":5.35069,"is_reserved":false,"is_disabled":false,"rental_uris":{"android":"levelo://app?vid=a85d9406-dde6-44e9-b05b-42440e664f62","ios":"levelo://app?vid=a85d9406-dde6-44e9-b05b-42440e664f62"},"vehicle_type_id":"4","last_reported":1685275874,"current_range_meters":19200,"station_id":"ce4bhbp2rcd13ifvqerg","pricing_plan_id":"free"},{"bike_id":"e3b1235d-ed42-49d8-9a15-e6a23bc1bd77","system_id":"levelo_inurba_marseille","lat":43.282744,"lon":5.350533,"is_reserved":false,"is_disabled":false,"rental_uris":{"android":"levelo://app?vid=e3b1235d-ed42-49d8-9a15-e6a23bc1bd77","ios":"levelo://app?vid=e3b1235d-ed42-49d8-9a15-e6a23bc1bd77"},"vehicle_type_id":"4","last_reported":1685275874,"current_range_meters":4800,"station_id":"ce4bhbp2rcd13ifvqerg","pricing_plan_id":"free"},{"bike_id":"d4cda7aa-a77e-47a2-b31b-2342ca6fc34b","system_id":"levelo_inurba_marseille","lat":43.282744,"lon":5.350533,"is_reserved":false,"is_disabled":false,"rental_uris":{"android":"levelo://app?vid=d4cda7aa-a77e-47a2-b31b-2342ca6fc34b","ios":"levelo://app?vid=d4cda7aa-a77e-47a2-b31b-2342ca6fc34b"},"vehicle_type_id":"4","last_reported":1685275874,"current_range_meters":6800,"station_id":"ce4bhbp2rcd13ifvqerg","pricing_plan_id":"free"},{"bike_id":"a2a6d1e1-e467-4c09-8372-495720339834","system_id":"levelo_inurba_marseille","lat":43.282744,"lon":5.350533,"is_reserved":false,"is_disabled":false,"rental_uris":{"android":"levelo://app?vid=a2a6d1e1-e467-4c09-8372-495720339834","ios":"levelo://app?vid=a2a6d1e1-e467-4c09-8372-495720339834"},"vehicle_type_id":"4","last_reported":1685275874,"current_range_meters":19200,"station_id":"ce4bhbp2rcd13ifvqerg","pricing_plan_id":"free"},{"bike_id":"6d68cab2-4b46-46c1-bdfd-002657939a60","system_id":"levelo_inurba_marseille","lat":43.282744,"lon":5.350533,"is_reserved":false,"is_disabled":false,"rental_uris":{"android":"levelo://app?vid=6d68cab2-4b46-46c1-bdfd-002657939a60","ios":"levelo://app?vid=6d68cab2-4b46-46c1-bdfd-002657939a60"},"vehicle_type_id":"4","last_reported":1685275874,"current_range_meters":10800,"station_id":"ce4bhbp2rcd13ifvqerg","pricing_plan_id":"free"},{"bike_id":"961fd7bb-fd1b-4b67-a94a-5722f6e605e2","system_id":"levelo_inurba_marseille","lat":43.28259,"lon":5.3506,"is_reserved":false,"is_disabled":false,"rental_uris":{"android":"levelo://app?vid=961fd7bb-fd1b-4b67-a94a-5722f6e605e2","ios":"levelo://app?vid=961fd7bb-fd1b-4b67-a94a-5722f6e605e2"},"vehicle_type_id":"4","last_reported":1685275874,"current_range_meters":9200,"station_id":"ce4bhbp2rcd13ifvqerg","pricing_plan_id":"free"},{"bike_id":"24ef754d-4328-4e97-b97b-7fd1d6bfd923","system_id":"levelo_inurba_marseille","lat":43.28039,"lon":5.369297,"is_reserved":false,"is_disabled":false,"rental_uris":{"android":"levelo://app?vid=24ef754d-4328-4e97-b97b-7fd1d6bfd923","ios":"levelo://app?vid=24ef754d-4328-4e97-b97b-7fd1d6bfd923"},"vehicle_type_id":"4","last_reported":1685275874,"current_range_meters":7200,"station_id":"ce4bha12rcd13ifvqef0","pricing_plan_id":"free"},{"bike_id":"8e29f5d8-6cb4-4f9a-aa99-29c6decdcd7d","system_id":"levelo_inurba_marseille","lat":43.29041,"lon":5.399634,"is_reserved":false,"is_disabled":false,"rental_uris":{"android":"levelo://app?vid=8e29f5d8-6cb4-4f9a-aa99-29c6decdcd7d","ios":"levelo://app?vid=8e29f5d8-6cb4-4f9a-aa99-29c6decdcd7d"},"vehicle_type_id":"4","last_reported":1685275874,"current_range_meters":21600,"station_id":"ce4bh392rcd13ifvqdm0","pricing_plan_id":"free"},{"bike_id":"f51d8a07-64c5-4865-b389-b91b5ad94064","system_id":"levelo_inurba_marseille","lat":43.28573,"lon":5.394992,"is_reserved":false,"is_disabled":false,"rental_uris":{"android":"levelo://app?vid=f51d8a07-64c5-4865-b389-b91b5ad94064","ios":"levelo://app?vid=f51d8a07-64c5-4865-b389-b91b5ad94064"},"vehicle_type_id":"4","last_reported":1685275874,"current_range_meters":6400,"station_id":"ce4bh292rcd13ifvqdg0","pricing_plan_id":"free"},{"bike_id":"f44c3073-cef6-4ca2-8b57-ffa2b6f87e84","system_id":"levelo_inurba_marseille","lat":43.28567,"lon":5.39497,"is_reserved":false,"is_disabled":false,"rental_uris":{"android":"levelo://app?vid=f44c3073-cef6-4ca2-8b57-ffa2b6f87e84","ios":"levelo://app?vid=f44c3073-cef6-4ca2-8b57-ffa2b6f87e84"},"vehicle_type_id":"4","last_reported":1685275874,"current_range_meters":0,"station_id":"ce4bh292rcd13ifvqdg0","pricing_plan_id":"free"},{"bike_id":"62d06c50-36a2-418f-8929-3ecd981a4543","system_id":"levelo_inurba_marseille","lat":43.29317,"lon":5.40525,"is_reserved":false,"is_disabled":false,"rental_uris":{"android":"levelo://app?vid=62d06c50-36a2-418f-8929-3ecd981a4543","ios":"levelo://app?vid=62d06c50-36a2-418f-8929-3ecd981a4543"},"vehicle_type_id":"4","last_reported":1685275874,"current_range_meters":9600,"station_id":"","pricing_plan_id":"free"},{"bike_id":"b7875148-60ec-482d-b012-111f0ccd3df8","system_id":"levelo_inurba_marseille","lat":43.304188,"lon":5.412904,"is_reserved":false,"is_disabled":false,"rental_uris":{"android":"levelo://app?vid=b7875148-60ec-482d-b012-111f0ccd3df8","ios":"levelo://app?vid=b7875148-60ec-482d-b012-111f0ccd3df8"},"vehicle_type_id":"4","last_reported":1685275874,"current_range_meters":31200,"station_id":"ce4bhop2rcd13ifvqh8g","pricing_plan_id":"free"},{"bike_id":"a917050a-4c48-4426-bb99-43abe2fb00c7","system_id":"levelo_inurba_marseille","lat":43.304188,"lon":5.412904,"is_reserved":false,"is_disabled":false,"rental_uris":{"android":"levelo://app?vid=a917050a-4c48-4426-bb99-43abe2fb00c7","ios":"levelo://app?vid=a917050a-4c48-4426-bb99-43abe2fb00c7"},"vehicle_type_id":"4","last_reported":1685275874,"current_range_meters":31200,"station_id":"ce4bhop2rcd13ifvqh8g","pricing_plan_id":"free"},{"bike_id":"8d6fefe2-11b8-4979-8cee-0e320fe90183","system_id":"levelo_inurba_marseille","lat":43.304188,"lon":5.412904,"is_reserved":false,"is_disabled":false,"rental_uris":{"android":"levelo://app?vid=8d6fefe2-11b8-4979-8cee-0e320fe90183","ios":"levelo://app?vid=8d6fefe2-11b8-4979-8cee-0e320fe90183"},"vehicle_type_id":"4","last_reported":1685275874,"current_range_meters":24400,"station_id":"ce4bhop2rcd13ifvqh8g","pricing_plan_id":"free"},{"bike_id":"cd437a07-b085-46eb-9e3b-c568dc0c9b2a","system_id":"levelo_inurba_marseille","lat":43.304188,"lon":5.412904,"is_reserved":false,"is_disabled":false,"rental_uris":{"android":"levelo://app?vid=cd437a07-b085-46eb-9e3b-c568dc0c9b2a","ios":"levelo://app?vid=cd437a07-b085-46eb-9e3b-c568dc0c9b2a"},"vehicle_type_id":"4","last_reported":1685275874,"current_range_meters":29200,"station_id":"ce4bhop2rcd13ifvqh8g","pricing_plan_id":"free"},{"bike_id":"083b3c21-b421-45d5-bf67-bb8434153a6e","system_id":"levelo_inurba_marseille","lat":43.28708,"lon":5.39994,"is_reserved":false,"is_disabled":false,"rental_uris":{"android":"levelo://app?vid=083b3c21-b421-45d5-bf67-bb8434153a6e","ios":"levelo://app?vid=083b3c21-b421-45d5-bf67-bb8434153a6e"},"vehicle_type_id":"4","last_reported":1685275874,"current_range_meters":28400,"station_id":"ce4bho92rcd13ifvqh3g","pricing_plan_id":"free"},{"bike_id":"fc13c5c6-2887-4670-86af-1bfd728a6c54","system_id":"levelo_inurba_marseille","lat":43.325233,"lon":5.414318,"is_reserved":false,"is_disabled":false,"rental_uris":{"android":"levelo://app?vid=fc13c5c6-2887-4670-86af-1bfd728a6c54","ios":"levelo://app?vid=fc13c5c6-2887-4670-86af-1bfd728a6c54"},"vehicle_type_id":"4","last_reported":1685275874,"current_range_meters":22400,"station_id":"ce4bhq12rcd13ifvqhhg","pricing_plan_id":"free"},{"bike_id":"b37279d8-3745-4728-bd44-625ef1b8ed44","system_id":"levelo_inurba_marseille","lat":43.292571,"lon":5.409107,"is_reserved":false,"is_disabled":false,"rental_uris":{"android":"levelo://app?vid=b37279d8-3745-4728-bd44-625ef1b8ed44","ios":"levelo://app?vid=b37279d8-3745-4728-bd44-625ef1b8ed44"},"vehicle_type_id":"4","last_reported":1685275874,"current_range_meters":5200,"station_id":"ce4bh192rcd13ifvqdc0","pricing_plan_id":"free"},{"bike_id":"6a4dd4ad-7101-430e-b7ee-46bf9da69be2","system_id":"levelo_inurba_marseille","lat":43.292571,"lon":5.409107,"is_reserved":false,"is_disabled":false,"rental_uris":{"android":"levelo://app?vid=6a4dd4ad-7101-430e-b7ee-46bf9da69be2","ios":"levelo://app?vid=6a4dd4ad-7101-430e-b7ee-46bf9da69be2"},"vehicle_type_id":"4","last_reported":1685275874,"current_range_meters":18000,"station_id":"ce4bh192rcd13ifvqdc0","pricing_plan_id":"free"},{"bike_id":"6c9481db-98e9-4edb-aa75-ef4b2a70be71","system_id":"levelo_inurba_marseille","lat":43.3254,"lon":5.41442,"is_reserved":false,"is_disabled":false,"rental_uris":{"android":"levelo://app?vid=6c9481db-98e9-4edb-aa75-ef4b2a70be71","ios":"levelo://app?vid=6c9481db-98e9-4edb-aa75-ef4b2a70be71"},"vehicle_type_id":"4","last_reported":1685275874,"current_range_meters":31600,"station_id":"ce4bhq12rcd13ifvqhhg","pricing_plan_id":"free"},{"bike_id":"e8584a03-9aee-4265-8fb9-8db4afa0c591","system_id":"levelo_inurba_marseille","lat":43.32548,"lon":5.41442,"is_reserved":false,"is_disabled":false,"rental_uris":{"android":"levelo://app?vid=e8584a03-9aee-4265-8fb9-8db4afa0c591","ios":"levelo://app?vid=e8584a03-9aee-4265-8fb9-8db4afa0c591"},"vehicle_type_id":"4","last_reported":1685275874,"current_range_meters":24400,"station_id":"","pricing_plan_id":"free"},{"bike_id":"42cbb3c0-54f9-4bbb-9953-d415032f1f35","system_id":"levelo_inurba_marseille","lat":43.276179,"lon":5.361009,"is_reserved":false,"is_disabled":false,"rental_uris":{"android":"levelo://app?vid=42cbb3c0-54f9-4bbb-9953-d415032f1f35","ios":"levelo://app?vid=42cbb3c0-54f9-4bbb-9953-d415032f1f35"},"vehicle_type_id":"4","last_reported":1685275874,"current_range_meters":13600,"station_id":"ce4bgj92rcd13ifvqbe0","pricing_plan_id":"free"},{"bike_id":"3a21568d-a6c0-44fc-a6ee-20e2451e4023","system_id":"levelo_inurba_marseille","lat":43.3255,"lon":5.41472,"is_reserved":false,"is_disabled":false,"rental_uris":{"android":"levelo://app?vid=3a21568d-a6c0-44fc-a6ee-20e2451e4023","ios":"levelo://app?vid=3a21568d-a6c0-44fc-a6ee-20e2451e4023"},"vehicle_type_id":"4","last_reported":1685275874,"current_range_meters":13200,"station_id":"","pricing_plan_id":"free"},{"bike_id":"cd898de2-9429-4cda-bf1e-6da0454b7a67","system_id":"levelo_inurba_marseille","lat":43.27548,"lon":5.35992,"is_reserved":false,"is_disabled":false,"rental_uris":{"android":"levelo://app?vid=cd898de2-9429-4cda-bf1e-6da0454b7a67","ios":"levelo://app?vid=cd898de2-9429-4cda-bf1e-6da0454b7a67"},"vehicle_type_id":"4","last_reported":1685275874,"current_range_meters":27200,"station_id":"","pricing_plan_id":"free"},{"bike_id":"04367e83-de91-421d-a9f6-f9cb25e03b3b","system_id":"levelo_inurba_marseille","lat":43.3035,"lon":5.41867,"is_reserved":false,"is_disabled":false,"rental_uris":{"android":"levelo://app?vid=04367e83-de91-421d-a9f6-f9cb25e03b3b","ios":"levelo://app?vid=04367e83-de91-421d-a9f6-f9cb25e03b3b"},"vehicle_type_id":"4","last_reported":1685275874,"current_range_meters":17200,"station_id":"","pricing_plan_id":"free"},{"bike_id":"2d07d6fd-a3bd-4bcf-9b03-54b1487c9558","system_id":"levelo_inurba_marseille","lat":43.303837,"lon":5.418724,"is_reserved":false,"is_disabled":false,"rental_uris":{"android":"levelo://app?vid=2d07d6fd-a3bd-4bcf-9b03-54b1487c9558","ios":"levelo://app?vid=2d07d6fd-a3bd-4bcf-9b03-54b1487c9558"},"vehicle_type_id":"4","last_reported":1685275874,"current_range_meters":16400,"station_id":"ce4bhop2rcd13ifvqh7g","pricing_plan_id":"free"},{"bike_id":"09666214-8d74-4d02-b590-fedff9c9c459","system_id":"levelo_inurba_marseille","lat":43.30353,"lon":5.41879,"is_reserved":false,"is_disabled":false,"rental_uris":{"android":"levelo://app?vid=09666214-8d74-4d02-b590-fedff9c9c459","ios":"levelo://app?vid=09666214-8d74-4d02-b590-fedff9c9c459"},"vehicle_type_id":"4","last_reported":1685275874,"current_range_meters":0,"station_id":"","pricing_plan_id":"free"},{"bike_id":"89ee060c-c0a0-4ecf-88f6-eb7966997381","system_id":"levelo_inurba_marseille","lat":43.278399,"lon":5.392139,"is_reserved":false,"is_disabled":false,"rental_uris":{"android":"levelo://app?vid=89ee060c-c0a0-4ecf-88f6-eb7966997381","ios":"levelo://app?vid=89ee060c-c0a0-4ecf-88f6-eb7966997381"},"vehicle_type_id":"4","last_reported":1685275874,"current_range_meters":10400,"station_id":"ce4bhjp2rcd13ifvqga0","pricing_plan_id":"free"},{"bike_id":"4a29ef71-2249-4973-99ed-e18be29d36a7","system_id":"levelo_inurba_marseille","lat":43.273613,"lon":5.362705,"is_reserved":false,"is_disabled":false,"rental_uris":{"android":"levelo://app?vid=4a29ef71-2249-4973-99ed-e18be29d36a7","ios":"levelo://app?vid=4a29ef71-2249-4973-99ed-e18be29d36a7"},"vehicle_type_id":"4","last_reported":1685275874,"current_range_meters":30400,"station_id":"ce4bhbh2rcd13ifvqeo0","pricing_plan_id":"free"},{"bike_id":"3637a878-1e3e-4ecc-9d42-05db2d906821","system_id":"levelo_inurba_marseille","lat":43.27381,"lon":5.36256,"is_reserved":false,"is_disabled":false,"rental_uris":{"android":"levelo://app?vid=3637a878-1e3e-4ecc-9d42-05db2d906821","ios":"levelo://app?vid=3637a878-1e3e-4ecc-9d42-05db2d906821"},"vehicle_type_id":"4","last_reported":1685275874,"current_range_meters":25600,"station_id":"ce4bhbh2rcd13ifvqeo0","pricing_plan_id":"free"},{"bike_id":"a94ea586-eed7-4ce7-8f75-e591e4da7de4","system_id":"levelo_inurba_marseille","lat":43.2738,"lon":5.36253,"is_reserved":false,"is_disabled":false,"rental_uris":{"android":"levelo://app?vid=a94ea586-eed7-4ce7-8f75-e591e4da7de4","ios":"levelo://app?vid=a94ea586-eed7-4ce7-8f75-e591e4da7de4"},"vehicle_type_id":"4","last_reported":1685275874,"current_range_meters":23200,"station_id":"ce4bhbh2rcd13ifvqeo0","pricing_plan_id":"free"},{"bike_id":"289582d6-5366-43d0-83c0-5203f4fc22a2","system_id":"levelo_inurba_marseille","lat":43.27379,"lon":5.36257,"is_reserved":false,"is_disabled":false,"rental_uris":{"android":"levelo://app?vid=289582d6-5366-43d0-83c0-5203f4fc22a2","ios":"levelo://app?vid=289582d6-5366-43d0-83c0-5203f4fc22a2"},"vehicle_type_id":"4","last_reported":1685275874,"current_range_meters":15600,"station_id":"ce4bhbh2rcd13ifvqeo0","pricing_plan_id":"free"},{"bike_id":"3aff19aa-4ae4-47ed-b72e-4b4c0af2e4cf","system_id":"levelo_inurba_marseille","lat":43.273613,"lon":5.362705,"is_reserved":false,"is_disabled":false,"rental_uris":{"android":"levelo://app?vid=3aff19aa-4ae4-47ed-b72e-4b4c0af2e4cf","ios":"levelo://app?vid=3aff19aa-4ae4-47ed-b72e-4b4c0af2e4cf"},"vehicle_type_id":"4","last_reported":1685275874,"current_range_meters":16800,"station_id":"ce4bhbh2rcd13ifvqeo0","pricing_plan_id":"free"},{"bike_id":"f9f55072-6ee8-4ea7-884a-9d7431a35278","system_id":"levelo_inurba_marseille","lat":43.27379,"lon":5.36254,"is_reserved":false,"is_disabled":false,"rental_uris":{"android":"levelo://app?vid=f9f55072-6ee8-4ea7-884a-9d7431a35278","ios":"levelo://app?vid=f9f55072-6ee8-4ea7-884a-9d7431a35278"},"vehicle_type_id":"4","last_reported":1685275874,"current_range_meters":19200,"station_id":"ce4bhbh2rcd13ifvqeo0","pricing_plan_id":"free"},{"bike_id":"3b59e253-2b83-43c9-8794-53764b2f5d09","system_id":"levelo_inurba_marseille","lat":43.27378,"lon":5.36256,"is_reserved":false,"is_disabled":false,"rental_uris":{"android":"levelo://app?vid=3b59e253-2b83-43c9-8794-53764b2f5d09","ios":"levelo://app?vid=3b59e253-2b83-43c9-8794-53764b2f5d09"},"vehicle_type_id":"4","last_reported":1685275874,"current_range_meters":14000,"station_id":"ce4bhbh2rcd13ifvqeo0","pricing_plan_id":"free"},{"bike_id":"ef922138-287f-4e5f-89fd-a02995b54b3c","system_id":"levelo_inurba_marseille","lat":43.273613,"lon":5.362705,"is_reserved":false,"is_disabled":false,"rental_uris":{"android":"levelo://app?vid=ef922138-287f-4e5f-89fd-a02995b54b3c","ios":"levelo://app?vid=ef922138-287f-4e5f-89fd-a02995b54b3c"},"vehicle_type_id":"4","last_reported":1685275874,"current_range_meters":30400,"station_id":"ce4bhbh2rcd13ifvqeo0","pricing_plan_id":"free"},{"bike_id":"a00dd75b-3fa0-43a6-ae9a-7a87d6d2d9cc","system_id":"levelo_inurba_marseille","lat":43.273613,"lon":5.362705,"is_reserved":false,"is_disabled":false,"rental_uris":{"android":"levelo://app?vid=a00dd75b-3fa0-43a6-ae9a-7a87d6d2d9cc","ios":"levelo://app?vid=a00dd75b-3fa0-43a6-ae9a-7a87d6d2d9cc"},"vehicle_type_id":"4","last_reported":1685275874,"current_range_meters":28000,"station_id":"ce4bhbh2rcd13ifvqeo0","pricing_plan_id":"free"},{"bike_id":"314ec4a7-53ae-457f-bd90-86c19e507b53","system_id":"levelo_inurba_marseille","lat":43.27377,"lon":5.36252,"is_reserved":false,"is_disabled":false,"rental_uris":{"android":"levelo://app?vid=314ec4a7-53ae-457f-bd90-86c19e507b53","ios":"levelo://app?vid=314ec4a7-53ae-457f-bd90-86c19e507b53"},"vehicle_type_id":"4","last_reported":1685275874,"current_range_meters":18000,"station_id":"ce4bhbh2rcd13ifvqeo0","pricing_plan_id":"free"},{"bike_id":"ca49e895-48b1-40f7-9a5d-1b17138265d9","system_id":"levelo_inurba_marseille","lat":43.27376,"lon":5.36246,"is_reserved":false,"is_disabled":false,"rental_uris":{"android":"levelo://app?vid=ca49e895-48b1-40f7-9a5d-1b17138265d9","ios":"levelo://app?vid=ca49e895-48b1-40f7-9a5d-1b17138265d9"},"vehicle_type_id":"4","last_reported":1685275874,"current_range_meters":23200,"station_id":"ce4bhbh2rcd13ifvqeo0","pricing_plan_id":"free"},{"bike_id":"7b6588ee-263d-4d1d-8383-1dbcb758717d","system_id":"levelo_inurba_marseille","lat":43.273613,"lon":5.362705,"is_reserved":false,"is_disabled":false,"rental_uris":{"android":"levelo://app?vid=7b6588ee-263d-4d1d-8383-1dbcb758717d","ios":"levelo://app?vid=7b6588ee-263d-4d1d-8383-1dbcb758717d"},"vehicle_type_id":"4","last_reported":1685275874,"current_range_meters":28400,"station_id":"ce4bhbh2rcd13ifvqeo0","pricing_plan_id":"free"},{"bike_id":"3476161d-06df-4596-9b0b-07971ef8e024","system_id":"levelo_inurba_marseille","lat":43.273613,"lon":5.362705,"is_reserved":false,"is_disabled":false,"rental_uris":{"android":"levelo://app?vid=3476161d-06df-4596-9b0b-07971ef8e024","ios":"levelo://app?vid=3476161d-06df-4596-9b0b-07971ef8e024"},"vehicle_type_id":"4","last_reported":1685275874,"current_range_meters":20000,"station_id":"ce4bhbh2rcd13ifvqeo0","pricing_plan_id":"free"},{"bike_id":"f04e7ee0-7cfb-4f64-ba58-35f4c152b742","system_id":"levelo_inurba_marseille","lat":43.273613,"lon":5.362705,"is_reserved":false,"is_disabled":false,"rental_uris":{"android":"levelo://app?vid=f04e7ee0-7cfb-4f64-ba58-35f4c152b742","ios":"levelo://app?vid=f04e7ee0-7cfb-4f64-ba58-35f4c152b742"},"vehicle_type_id":"4","last_reported":1685275874,"current_range_meters":31200,"station_id":"ce4bhbh2rcd13ifvqeo0","pricing_plan_id":"free"},{"bike_id":"3ee1fbd4-9fda-449a-836b-33d403dd7e67","system_id":"levelo_inurba_marseille","lat":43.273613,"lon":5.362705,"is_reserved":false,"is_disabled":false,"rental_uris":{"android":"levelo://app?vid=3ee1fbd4-9fda-449a-836b-33d403dd7e67","ios":"levelo://app?vid=3ee1fbd4-9fda-449a-836b-33d403dd7e67"},"vehicle_type_id":"4","last_reported":1685275874,"current_range_meters":30800,"station_id":"ce4bhbh2rcd13ifvqeo0","pricing_plan_id":"free"},{"bike_id":"01ccce58-4341-43e2-b1d8-19afbd28ae1b","system_id":"levelo_inurba_marseille","lat":43.273609,"lon":5.362708,"is_reserved":false,"is_disabled":false,"rental_uris":{"android":"levelo://app?vid=01ccce58-4341-43e2-b1d8-19afbd28ae1b","ios":"levelo://app?vid=01ccce58-4341-43e2-b1d8-19afbd28ae1b"},"vehicle_type_id":"4","last_reported":1685275874,"current_range_meters":12800,"station_id":"ce4bhbh2rcd13ifvqeo0","pricing_plan_id":"free"},{"bike_id":"6c4decf6-d9d1-4b87-b0ef-cb7b466508ef","system_id":"levelo_inurba_marseille","lat":43.27373,"lon":5.36253,"is_reserved":false,"is_disabled":false,"rental_uris":{"android":"levelo://app?vid=6c4decf6-d9d1-4b87-b0ef-cb7b466508ef","ios":"levelo://app?vid=6c4decf6-d9d1-4b87-b0ef-cb7b466508ef"},"vehicle_type_id":"4","last_reported":1685275874,"current_range_meters":18000,"station_id":"ce4bhbh2rcd13ifvqeo0","pricing_plan_id":"free"},{"bike_id":"dc6fd0e3-cafd-4642-94db-988f859ed200","system_id":"levelo_inurba_marseille","lat":43.273609,"lon":5.362708,"is_reserved":false,"is_disabled":false,"rental_uris":{"android":"levelo://app?vid=dc6fd0e3-cafd-4642-94db-988f859ed200","ios":"levelo://app?vid=dc6fd0e3-cafd-4642-94db-988f859ed200"},"vehicle_type_id":"4","last_reported":1685275874,"current_range_meters":12400,"station_id":"ce4bhbh2rcd13ifvqeo0","pricing_plan_id":"free"},{"bike_id":"e1807531-c5e1-4a51-87bb-eaf623a4eac5","system_id":"levelo_inurba_marseille","lat":43.273609,"lon":5.362708,"is_reserved":false,"is_disabled":false,"rental_uris":{"android":"levelo://app?vid=e1807531-c5e1-4a51-87bb-eaf623a4eac5","ios":"levelo://app?vid=e1807531-c5e1-4a51-87bb-eaf623a4eac5"},"vehicle_type_id":"4","last_reported":1685275874,"current_range_meters":4000,"station_id":"ce4bhbh2rcd13ifvqeo0","pricing_plan_id":"free"},{"bike_id":"ac47b351-2aad-4e39-85dc-2a376c58fd63","system_id":"levelo_inurba_marseille","lat":43.273609,"lon":5.362708,"is_reserved":false,"is_disabled":false,"rental_uris":{"android":"levelo://app?vid=ac47b351-2aad-4e39-85dc-2a376c58fd63","ios":"levelo://app?vid=ac47b351-2aad-4e39-85dc-2a376c58fd63"},"vehicle_type_id":"4","last_reported":1685275874,"current_range_meters":12000,"station_id":"ce4bhbh2rcd13ifvqeo0","pricing_plan_id":"free"},{"bike_id":"bc5a8a34-3990-47ce-b7b0-0413303f3998","system_id":"levelo_inurba_marseille","lat":43.273609,"lon":5.362708,"is_reserved":false,"is_disabled":false,"rental_uris":{"android":"levelo://app?vid=bc5a8a34-3990-47ce-b7b0-0413303f3998","ios":"levelo://app?vid=bc5a8a34-3990-47ce-b7b0-0413303f3998"},"vehicle_type_id":"4","last_reported":1685275874,"current_range_meters":0,"station_id":"ce4bhbh2rcd13ifvqeo0","pricing_plan_id":"free"},{"bike_id":"cb496428-86a0-47d7-85e9-3538b33f574e","system_id":"levelo_inurba_marseille","lat":43.273613,"lon":5.362705,"is_reserved":false,"is_disabled":false,"rental_uris":{"android":"levelo://app?vid=cb496428-86a0-47d7-85e9-3538b33f574e","ios":"levelo://app?vid=cb496428-86a0-47d7-85e9-3538b33f574e"},"vehicle_type_id":"4","last_reported":1685275874,"current_range_meters":28000,"station_id":"ce4bhbh2rcd13ifvqeo0","pricing_plan_id":"free"},{"bike_id":"ae88ed93-a610-4f61-96a4-17880de81b99","system_id":"levelo_inurba_marseille","lat":43.273613,"lon":5.362705,"is_reserved":false,"is_disabled":false,"rental_uris":{"android":"levelo://app?vid=ae88ed93-a610-4f61-96a4-17880de81b99","ios":"levelo://app?vid=ae88ed93-a610-4f61-96a4-17880de81b99"},"vehicle_type_id":"4","last_reported":1685275874,"current_range_meters":28400,"station_id":"ce4bhbh2rcd13ifvqeo0","pricing_plan_id":"free"},{"bike_id":"b8e5abaa-486a-45d0-8213-b62b4984b143","system_id":"levelo_inurba_marseille","lat":43.273609,"lon":5.362708,"is_reserved":false,"is_disabled":false,"rental_uris":{"android":"levelo://app?vid=b8e5abaa-486a-45d0-8213-b62b4984b143","ios":"levelo://app?vid=b8e5abaa-486a-45d0-8213-b62b4984b143"},"vehicle_type_id":"4","last_reported":1685275874,"current_range_meters":400,"station_id":"ce4bhbh2rcd13ifvqeo0","pricing_plan_id":"free"},{"bike_id":"9a232fe7-1f3c-4d6b-b43d-11f4fde8fe92","system_id":"levelo_inurba_marseille","lat":43.273609,"lon":5.362708,"is_reserved":false,"is_disabled":false,"rental_uris":{"android":"levelo://app?vid=9a232fe7-1f3c-4d6b-b43d-11f4fde8fe92","ios":"levelo://app?vid=9a232fe7-1f3c-4d6b-b43d-11f4fde8fe92"},"vehicle_type_id":"4","last_reported":1685275874,"current_range_meters":12800,"station_id":"ce4bhbh2rcd13ifvqeo0","pricing_plan_id":"free"},{"bike_id":"2843c4b9-04f6-4ce4-92fd-cdce337bf6a8","system_id":"levelo_inurba_marseille","lat":43.33612,"lon":5.410321,"is_reserved":false,"is_disabled":false,"rental_uris":{"android":"levelo://app?vid=2843c4b9-04f6-4ce4-92fd-cdce337bf6a8","ios":"levelo://app?vid=2843c4b9-04f6-4ce4-92fd-cdce337bf6a8"},"vehicle_type_id":"4","last_reported":1685275874,"current_range_meters":28000,"station_id":"ce4bhqh2rcd13ifvqhmg","pricing_plan_id":"free"},{"bike_id":"0e806c0e-0892-4ef2-a74e-4056bea0fa0e","system_id":"levelo_inurba_marseille","lat":43.273609,"lon":5.362708,"is_reserved":false,"is_disabled":false,"rental_uris":{"android":"levelo://app?vid=0e806c0e-0892-4ef2-a74e-4056bea0fa0e","ios":"levelo://app?vid=0e806c0e-0892-4ef2-a74e-4056bea0fa0e"},"vehicle_type_id":"4","last_reported":1685275874,"current_range_meters":31200,"station_id":"ce4bhbh2rcd13ifvqeo0","pricing_plan_id":"free"},{"bike_id":"93a7e820-b307-4209-862a-5243c6916a91","system_id":"levelo_inurba_marseille","lat":43.336029,"lon":5.410322,"is_reserved":false,"is_disabled":false,"rental_uris":{"android":"levelo://app?vid=93a7e820-b307-4209-862a-5243c6916a91","ios":"levelo://app?vid=93a7e820-b307-4209-862a-5243c6916a91"},"vehicle_type_id":"4","last_reported":1685275874,"current_range_meters":17600,"station_id":"ce4bhqh2rcd13ifvqhmg","pricing_plan_id":"free"},{"bike_id":"f97583f2-745a-45c8-8c58-f8d7776b8ab0","system_id":"levelo_inurba_marseille","lat":43.33612,"lon":5.410321,"is_reserved":false,"is_disabled":false,"rental_uris":{"android":"levelo://app?vid=f97583f2-745a-45c8-8c58-f8d7776b8ab0","ios":"levelo://app?vid=f97583f2-745a-45c8-8c58-f8d7776b8ab0"},"vehicle_type_id":"4","last_reported":1685275874,"current_range_meters":26000,"station_id":"ce4bhqh2rcd13ifvqhmg","pricing_plan_id":"free"},{"bike_id":"33f91f18-b77c-4de9-aebf-b68e9049e6de","system_id":"levelo_inurba_marseille","lat":43.273609,"lon":5.362708,"is_reserved":false,"is_disabled":false,"rental_uris":{"android":"levelo://app?vid=33f91f18-b77c-4de9-aebf-b68e9049e6de","ios":"levelo://app?vid=33f91f18-b77c-4de9-aebf-b68e9049e6de"},"vehicle_type_id":"4","last_reported":1685275874,"current_range_meters":26800,"station_id":"ce4bhbh2rcd13ifvqeo0","pricing_plan_id":"free"},{"bike_id":"91b49189-18df-431a-bbbf-f0b2350181de","system_id":"levelo_inurba_marseille","lat":43.28427,"lon":5.40796,"is_reserved":false,"is_disabled":false,"rental_uris":{"android":"levelo://app?vid=91b49189-18df-431a-bbbf-f0b2350181de","ios":"levelo://app?vid=91b49189-18df-431a-bbbf-f0b2350181de"},"vehicle_type_id":"4","last_reported":1685275874,"current_range_meters":7200,"station_id":"","pricing_plan_id":"free"},{"bike_id":"de88f9bd-fcfb-40fa-8f4f-0c4afdfd2242","system_id":"levelo_inurba_marseille","lat":43.27777,"lon":5.3993,"is_reserved":false,"is_disabled":false,"rental_uris":{"android":"levelo://app?vid=de88f9bd-fcfb-40fa-8f4f-0c4afdfd2242","ios":"levelo://app?vid=de88f9bd-fcfb-40fa-8f4f-0c4afdfd2242"},"vehicle_type_id":"4","last_reported":1685275874,"current_range_meters":1200,"station_id":"","pricing_plan_id":"free"},{"bike_id":"61975327-2901-4c46-99c0-45dcaddab9b1","system_id":"levelo_inurba_marseille","lat":43.27309,"lon":5.39087,"is_reserved":false,"is_disabled":false,"rental_uris":{"android":"levelo://app?vid=61975327-2901-4c46-99c0-45dcaddab9b1","ios":"levelo://app?vid=61975327-2901-4c46-99c0-45dcaddab9b1"},"vehicle_type_id":"4","last_reported":1685275874,"current_range_meters":0,"station_id":"ce4bhgp2rcd13ifvqfe0","pricing_plan_id":"free"},{"bike_id":"b0b4414c-c1af-45cf-adc3-f40685efb067","system_id":"levelo_inurba_marseille","lat":43.30415,"lon":5.42538,"is_reserved":false,"is_disabled":false,"rental_uris":{"android":"levelo://app?vid=b0b4414c-c1af-45cf-adc3-f40685efb067","ios":"levelo://app?vid=b0b4414c-c1af-45cf-adc3-f40685efb067"},"vehicle_type_id":"4","last_reported":1685275874,"current_range_meters":24000,"station_id":"ce4bhoh2rcd13ifvqh6g","pricing_plan_id":"free"},{"bike_id":"73a9f368-a204-4825-acb3-af9fc9cfb437","system_id":"levelo_inurba_marseille","lat":43.27353,"lon":5.39317,"is_reserved":false,"is_disabled":false,"rental_uris":{"android":"levelo://app?vid=73a9f368-a204-4825-acb3-af9fc9cfb437","ios":"levelo://app?vid=73a9f368-a204-4825-acb3-af9fc9cfb437"},"vehicle_type_id":"4","last_reported":1685275874,"current_range_meters":28800,"station_id":"","pricing_plan_id":"free"},{"bike_id":"896831ad-ebe9-4714-8f46-61cfeabf4873","system_id":"levelo_inurba_marseille","lat":43.295523,"lon":5.422926,"is_reserved":false,"is_disabled":false,"rental_uris":{"android":"levelo://app?vid=896831ad-ebe9-4714-8f46-61cfeabf4873","ios":"levelo://app?vid=896831ad-ebe9-4714-8f46-61cfeabf4873"},"vehicle_type_id":"4","last_reported":1685275874,"current_range_meters":6400,"station_id":"ce4bhph2rcd13ifvqhdg","pricing_plan_id":"free"},{"bike_id":"db261743-395e-4cce-8258-9ed6f6aadb11","system_id":"levelo_inurba_marseille","lat":43.295523,"lon":5.422926,"is_reserved":false,"is_disabled":false,"rental_uris":{"android":"levelo://app?vid=db261743-395e-4cce-8258-9ed6f6aadb11","ios":"levelo://app?vid=db261743-395e-4cce-8258-9ed6f6aadb11"},"vehicle_type_id":"4","last_reported":1685275874,"current_range_meters":4000,"station_id":"ce4bhph2rcd13ifvqhdg","pricing_plan_id":"free"},{"bike_id":"5c7aeee9-5d0c-48de-ab49-937e761c6362","system_id":"levelo_inurba_marseille","lat":43.295523,"lon":5.422926,"is_reserved":false,"is_disabled":false,"rental_uris":{"android":"levelo://app?vid=5c7aeee9-5d0c-48de-ab49-937e761c6362","ios":"levelo://app?vid=5c7aeee9-5d0c-48de-ab49-937e761c6362"},"vehicle_type_id":"4","last_reported":1685275874,"current_range_meters":20800,"station_id":"ce4bhph2rcd13ifvqhdg","pricing_plan_id":"free"},{"bike_id":"bbc5a755-3b0f-4ba9-b668-1a6c20b1f672","system_id":"levelo_inurba_marseille","lat":43.29555,"lon":5.42292,"is_reserved":false,"is_disabled":false,"rental_uris":{"android":"levelo://app?vid=bbc5a755-3b0f-4ba9-b668-1a6c20b1f672","ios":"levelo://app?vid=bbc5a755-3b0f-4ba9-b668-1a6c20b1f672"},"vehicle_type_id":"4","last_reported":1685275874,"current_range_meters":23600,"station_id":"ce4bhph2rcd13ifvqhdg","pricing_plan_id":"free"},{"bike_id":"aecd770b-7de6-40a9-8ec5-d6a17dea7730","system_id":"levelo_inurba_marseille","lat":43.295523,"lon":5.422926,"is_reserved":false,"is_disabled":false,"rental_uris":{"android":"levelo://app?vid=aecd770b-7de6-40a9-8ec5-d6a17dea7730","ios":"levelo://app?vid=aecd770b-7de6-40a9-8ec5-d6a17dea7730"},"vehicle_type_id":"4","last_reported":1685275874,"current_range_meters":7600,"station_id":"ce4bhph2rcd13ifvqhdg","pricing_plan_id":"free"},{"bike_id":"fe608350-37a2-4b8d-aca4-8c27203f027f","system_id":"levelo_inurba_marseille","lat":43.29511,"lon":5.42284,"is_reserved":false,"is_disabled":false,"rental_uris":{"android":"levelo://app?vid=fe608350-37a2-4b8d-aca4-8c27203f027f","ios":"levelo://app?vid=fe608350-37a2-4b8d-aca4-8c27203f027f"},"vehicle_type_id":"4","last_reported":1685275874,"current_range_meters":9600,"station_id":"","pricing_plan_id":"free"},{"bike_id":"f2015fd7-1f1a-4d69-a25d-53c503ab4993","system_id":"levelo_inurba_marseille","lat":43.272116,"lon":5.391747,"is_reserved":false,"is_disabled":false,"rental_uris":{"android":"levelo://app?vid=f2015fd7-1f1a-4d69-a25d-53c503ab4993","ios":"levelo://app?vid=f2015fd7-1f1a-4d69-a25d-53c503ab4993"},"vehicle_type_id":"4","last_reported":1685275874,"current_range_meters":11600,"station_id":"ce4bhhp2rcd13ifvqfm0","pricing_plan_id":"free"},{"bike_id":"6c4f85b5-7caf-4209-8580-6d73679cee62","system_id":"levelo_inurba_marseille","lat":43.278128,"lon":5.407195,"is_reserved":false,"is_disabled":false,"rental_uris":{"android":"levelo://app?vid=6c4f85b5-7caf-4209-8580-6d73679cee62","ios":"levelo://app?vid=6c4f85b5-7caf-4209-8580-6d73679cee62"},"vehicle_type_id":"4","last_reported":1685275874,"current_range_meters":31200,"station_id":"ce4bhnh2rcd13ifvqgtg","pricing_plan_id":"free"},{"bike_id":"fc40467a-a8b5-40a3-8406-a016499e657e","system_id":"levelo_inurba_marseille","lat":43.278128,"lon":5.407195,"is_reserved":false,"is_disabled":false,"rental_uris":{"android":"levelo://app?vid=fc40467a-a8b5-40a3-8406-a016499e657e","ios":"levelo://app?vid=fc40467a-a8b5-40a3-8406-a016499e657e"},"vehicle_type_id":"4","last_reported":1685275874,"current_range_meters":26800,"station_id":"ce4bhnh2rcd13ifvqgtg","pricing_plan_id":"free"},{"bike_id":"0fc742f9-7407-4376-93b0-5791603569ef","system_id":"levelo_inurba_marseille","lat":43.269319,"lon":5.389397,"is_reserved":false,"is_disabled":false,"rental_uris":{"android":"levelo://app?vid=0fc742f9-7407-4376-93b0-5791603569ef","ios":"levelo://app?vid=0fc742f9-7407-4376-93b0-5791603569ef"},"vehicle_type_id":"4","last_reported":1685275874,"current_range_meters":10800,"station_id":"ce4bhhh2rcd13ifvqfl0","pricing_plan_id":"free"},{"bike_id":"a9b2f74a-4e78-43c5-bd73-337d2cde7a0e","system_id":"levelo_inurba_marseille","lat":43.26687,"lon":5.38271,"is_reserved":false,"is_disabled":false,"rental_uris":{"android":"levelo://app?vid=a9b2f74a-4e78-43c5-bd73-337d2cde7a0e","ios":"levelo://app?vid=a9b2f74a-4e78-43c5-bd73-337d2cde7a0e"},"vehicle_type_id":"4","last_reported":1685275874,"current_range_meters":6000,"station_id":"ce4bhg92rcd13ifvqf90","pricing_plan_id":"free"},{"bike_id":"f1c562df-6c69-4d25-ac43-50caba86616a","system_id":"levelo_inurba_marseille","lat":43.265714,"lon":5.372891,"is_reserved":false,"is_disabled":false,"rental_uris":{"android":"levelo://app?vid=f1c562df-6c69-4d25-ac43-50caba86616a","ios":"levelo://app?vid=f1c562df-6c69-4d25-ac43-50caba86616a"},"vehicle_type_id":"4","last_reported":1685275874,"current_range_meters":14000,"station_id":"ce4bhg12rcd13ifvqf70","pricing_plan_id":"free"},{"bike_id":"20c85b51-5ab9-4a9f-a557-52bc5bca385a","system_id":"levelo_inurba_marseille","lat":43.265714,"lon":5.372891,"is_reserved":false,"is_disabled":false,"rental_uris":{"android":"levelo://app?vid=20c85b51-5ab9-4a9f-a557-52bc5bca385a","ios":"levelo://app?vid=20c85b51-5ab9-4a9f-a557-52bc5bca385a"},"vehicle_type_id":"4","last_reported":1685275874,"current_range_meters":6000,"station_id":"ce4bhg12rcd13ifvqf70","pricing_plan_id":"free"},{"bike_id":"392a8e5b-1941-4d71-83c8-daf701ad7686","system_id":"levelo_inurba_marseille","lat":43.265714,"lon":5.372891,"is_reserved":false,"is_disabled":false,"rental_uris":{"android":"levelo://app?vid=392a8e5b-1941-4d71-83c8-daf701ad7686","ios":"levelo://app?vid=392a8e5b-1941-4d71-83c8-daf701ad7686"},"vehicle_type_id":"4","last_reported":1685275874,"current_range_meters":3600,"station_id":"ce4bhg12rcd13ifvqf70","pricing_plan_id":"free"},{"bike_id":"79ddb459-fc57-4335-bdca-0dd406f7f5ac","system_id":"levelo_inurba_marseille","lat":43.26554,"lon":5.37281,"is_reserved":false,"is_disabled":false,"rental_uris":{"android":"levelo://app?vid=79ddb459-fc57-4335-bdca-0dd406f7f5ac","ios":"levelo://app?vid=79ddb459-fc57-4335-bdca-0dd406f7f5ac"},"vehicle_type_id":"4","last_reported":1685275874,"current_range_meters":0,"station_id":"","pricing_plan_id":"free"},{"bike_id":"97f92444-dc7f-4ac8-885e-43ac50454dc0","system_id":"levelo_inurba_marseille","lat":43.31686,"lon":5.43303,"is_reserved":false,"is_disabled":false,"rental_uris":{"android":"levelo://app?vid=97f92444-dc7f-4ac8-885e-43ac50454dc0","ios":"levelo://app?vid=97f92444-dc7f-4ac8-885e-43ac50454dc0"},"vehicle_type_id":"4","last_reported":1685275874,"current_range_meters":0,"station_id":"","pricing_plan_id":"free"},{"bike_id":"884e783d-6a6f-443c-89f4-c3357da3aaff","system_id":"levelo_inurba_marseille","lat":43.27993,"lon":5.41652,"is_reserved":false,"is_disabled":false,"rental_uris":{"android":"levelo://app?vid=884e783d-6a6f-443c-89f4-c3357da3aaff","ios":"levelo://app?vid=884e783d-6a6f-443c-89f4-c3357da3aaff"},"vehicle_type_id":"4","last_reported":1685275874,"current_range_meters":25600,"station_id":"ce4bho12rcd13ifvqh1g","pricing_plan_id":"free"},{"bike_id":"444cbd02-529d-400f-b760-6cd43e03a0ab","system_id":"levelo_inurba_marseille","lat":43.27994,"lon":5.41657,"is_reserved":false,"is_disabled":false,"rental_uris":{"android":"levelo://app?vid=444cbd02-529d-400f-b760-6cd43e03a0ab","ios":"levelo://app?vid=444cbd02-529d-400f-b760-6cd43e03a0ab"},"vehicle_type_id":"4","last_reported":1685275874,"current_range_meters":21200,"station_id":"ce4bho12rcd13ifvqh1g","pricing_plan_id":"free"},{"bike_id":"8451e787-f07f-43db-afc4-8e921ab0fda1","system_id":"levelo_inurba_marseille","lat":43.27988,"lon":5.41666,"is_reserved":false,"is_disabled":false,"rental_uris":{"android":"levelo://app?vid=8451e787-f07f-43db-afc4-8e921ab0fda1","ios":"levelo://app?vid=8451e787-f07f-43db-afc4-8e921ab0fda1"},"vehicle_type_id":"4","last_reported":1685275874,"current_range_meters":8800,"station_id":"ce4bho12rcd13ifvqh1g","pricing_plan_id":"free"},{"bike_id":"ba9d04d0-a059-4b07-a2bf-46d81fe5a12d","system_id":"levelo_inurba_marseille","lat":43.26201,"lon":5.37924,"is_reserved":false,"is_disabled":false,"rental_uris":{"android":"levelo://app?vid=ba9d04d0-a059-4b07-a2bf-46d81fe5a12d","ios":"levelo://app?vid=ba9d04d0-a059-4b07-a2bf-46d81fe5a12d"},"vehicle_type_id":"4","last_reported":1685275874,"current_range_meters":22400,"station_id":"ce4bhjp2rcd13ifvqg90","pricing_plan_id":"free"},{"bike_id":"760bfc38-e96f-40b9-8091-70e7d4460480","system_id":"levelo_inurba_marseille","lat":43.26196,"lon":5.37934,"is_reserved":false,"is_disabled":false,"rental_uris":{"android":"levelo://app?vid=760bfc38-e96f-40b9-8091-70e7d4460480","ios":"levelo://app?vid=760bfc38-e96f-40b9-8091-70e7d4460480"},"vehicle_type_id":"4","last_reported":1685275874,"current_range_meters":0,"station_id":"ce4bhjp2rcd13ifvqg90","pricing_plan_id":"free"},{"bike_id":"7b7dbc10-1e45-4d82-8541-b5257d3f2954","system_id":"levelo_inurba_marseille","lat":43.26804,"lon":5.40262,"is_reserved":false,"is_disabled":false,"rental_uris":{"android":"levelo://app?vid=7b7dbc10-1e45-4d82-8541-b5257d3f2954","ios":"levelo://app?vid=7b7dbc10-1e45-4d82-8541-b5257d3f2954"},"vehicle_type_id":"4","last_reported":1685275874,"current_range_meters":25200,"station_id":"ce501612rcd8frsf0b60","pricing_plan_id":"free"},{"bike_id":"1e27b0e8-003f-46f1-abe2-ec025dc7c780","system_id":"levelo_inurba_marseille","lat":43.267959,"lon":5.402687,"is_reserved":false,"is_disabled":false,"rental_uris":{"android":"levelo://app?vid=1e27b0e8-003f-46f1-abe2-ec025dc7c780","ios":"levelo://app?vid=1e27b0e8-003f-46f1-abe2-ec025dc7c780"},"vehicle_type_id":"4","last_reported":1685275874,"current_range_meters":27200,"station_id":"ce501612rcd8frsf0b60","pricing_plan_id":"free"},{"bike_id":"618fd3aa-b560-43e5-a22f-679e1caa0109","system_id":"levelo_inurba_marseille","lat":43.267959,"lon":5.402687,"is_reserved":false,"is_disabled":false,"rental_uris":{"android":"levelo://app?vid=618fd3aa-b560-43e5-a22f-679e1caa0109","ios":"levelo://app?vid=618fd3aa-b560-43e5-a22f-679e1caa0109"},"vehicle_type_id":"4","last_reported":1685275874,"current_range_meters":16800,"station_id":"ce501612rcd8frsf0b60","pricing_plan_id":"free"},{"bike_id":"a01b8269-cd6f-432a-9c44-37513ea96cd0","system_id":"levelo_inurba_marseille","lat":43.298768,"lon":5.43643,"is_reserved":false,"is_disabled":false,"rental_uris":{"android":"levelo://app?vid=a01b8269-cd6f-432a-9c44-37513ea96cd0","ios":"levelo://app?vid=a01b8269-cd6f-432a-9c44-37513ea96cd0"},"vehicle_type_id":"4","last_reported":1685275874,"current_range_meters":29600,"station_id":"ce4bhpp2rcd13ifvqhfg","pricing_plan_id":"free"},{"bike_id":"1522e6fe-e66c-4a0c-a606-391cd3d5a93b","system_id":"levelo_inurba_marseille","lat":43.298768,"lon":5.43643,"is_reserved":false,"is_disabled":false,"rental_uris":{"android":"levelo://app?vid=1522e6fe-e66c-4a0c-a606-391cd3d5a93b","ios":"levelo://app?vid=1522e6fe-e66c-4a0c-a606-391cd3d5a93b"},"vehicle_type_id":"4","last_reported":1685275874,"current_range_meters":32000,"station_id":"ce4bhpp2rcd13ifvqhfg","pricing_plan_id":"free"},{"bike_id":"6e057b96-6c51-4adf-801a-1416a709e107","system_id":"levelo_inurba_marseille","lat":43.298768,"lon":5.43643,"is_reserved":false,"is_disabled":false,"rental_uris":{"android":"levelo://app?vid=6e057b96-6c51-4adf-801a-1416a709e107","ios":"levelo://app?vid=6e057b96-6c51-4adf-801a-1416a709e107"},"vehicle_type_id":"4","last_reported":1685275874,"current_range_meters":25200,"station_id":"ce4bhpp2rcd13ifvqhfg","pricing_plan_id":"free"},{"bike_id":"6b404443-757b-4b8d-9a78-a03ca59013fb","system_id":"levelo_inurba_marseille","lat":43.2592,"lon":5.37283,"is_reserved":false,"is_disabled":false,"rental_uris":{"android":"levelo://app?vid=6b404443-757b-4b8d-9a78-a03ca59013fb","ios":"levelo://app?vid=6b404443-757b-4b8d-9a78-a03ca59013fb"},"vehicle_type_id":"4","last_reported":1685275874,"current_range_meters":10400,"station_id":"","pricing_plan_id":"free"},{"bike_id":"3cebc1f4-df61-4abf-9975-ca2660863baf","system_id":"levelo_inurba_marseille","lat":43.26061,"lon":5.39395,"is_reserved":false,"is_disabled":false,"rental_uris":{"android":"levelo://app?vid=3cebc1f4-df61-4abf-9975-ca2660863baf","ios":"levelo://app?vid=3cebc1f4-df61-4abf-9975-ca2660863baf"},"vehicle_type_id":"4","last_reported":1685275874,"current_range_meters":19600,"station_id":"ce4bhh92rcd13ifvqfj0","pricing_plan_id":"free"},{"bike_id":"d5c96873-5ae5-4c94-9a27-ac6953ef6165","system_id":"levelo_inurba_marseille","lat":43.260909,"lon":5.397591,"is_reserved":false,"is_disabled":false,"rental_uris":{"android":"levelo://app?vid=d5c96873-5ae5-4c94-9a27-ac6953ef6165","ios":"levelo://app?vid=d5c96873-5ae5-4c94-9a27-ac6953ef6165"},"vehicle_type_id":"4","last_reported":1685275874,"current_range_meters":31200,"station_id":"ce4bhi12rcd13ifvqfq0","pricing_plan_id":"free"},{"bike_id":"5ff3992f-6896-4f3d-b733-da4e51bd2233","system_id":"levelo_inurba_marseille","lat":43.260909,"lon":5.397591,"is_reserved":false,"is_disabled":false,"rental_uris":{"android":"levelo://app?vid=5ff3992f-6896-4f3d-b733-da4e51bd2233","ios":"levelo://app?vid=5ff3992f-6896-4f3d-b733-da4e51bd2233"},"vehicle_type_id":"4","last_reported":1685275874,"current_range_meters":31200,"station_id":"ce4bhi12rcd13ifvqfq0","pricing_plan_id":"free"},{"bike_id":"0451be90-fcb3-4481-bb56-4814a6258028","system_id":"levelo_inurba_marseille","lat":43.255756,"lon":5.382303,"is_reserved":false,"is_disabled":false,"rental_uris":{"android":"levelo://app?vid=0451be90-fcb3-4481-bb56-4814a6258028","ios":"levelo://app?vid=0451be90-fcb3-4481-bb56-4814a6258028"},"vehicle_type_id":"4","last_reported":1685275874,"current_range_meters":15600,"station_id":"ce4bhih2rcd13ifvqfs0","pricing_plan_id":"free"},{"bike_id":"df6fb32c-8ef8-4297-9839-208ced5df9d4","system_id":"levelo_inurba_marseille","lat":43.254947,"lon":5.376454,"is_reserved":false,"is_disabled":false,"rental_uris":{"android":"levelo://app?vid=df6fb32c-8ef8-4297-9839-208ced5df9d4","ios":"levelo://app?vid=df6fb32c-8ef8-4297-9839-208ced5df9d4"},"vehicle_type_id":"4","last_reported":1685275874,"current_range_meters":31200,"station_id":"ce4bhh12rcd13ifvqff0","pricing_plan_id":"free"},{"bike_id":"2e8ea3d2-8a75-4dc5-821a-82534183f619","system_id":"levelo_inurba_marseille","lat":43.25502,"lon":5.37652,"is_reserved":false,"is_disabled":false,"rental_uris":{"android":"levelo://app?vid=2e8ea3d2-8a75-4dc5-821a-82534183f619","ios":"levelo://app?vid=2e8ea3d2-8a75-4dc5-821a-82534183f619"},"vehicle_type_id":"4","last_reported":1685275874,"current_range_meters":30800,"station_id":"ce4bhh12rcd13ifvqff0","pricing_plan_id":"free"},{"bike_id":"21a94e83-2bcf-4902-8a6a-85407ac0d3c9","system_id":"levelo_inurba_marseille","lat":43.254952,"lon":5.376471,"is_reserved":false,"is_disabled":false,"rental_uris":{"android":"levelo://app?vid=21a94e83-2bcf-4902-8a6a-85407ac0d3c9","ios":"levelo://app?vid=21a94e83-2bcf-4902-8a6a-85407ac0d3c9"},"vehicle_type_id":"4","last_reported":1685275874,"current_range_meters":800,"station_id":"","pricing_plan_id":"free"},{"bike_id":"5209823c-5dd0-4ac6-81f4-b305dbcaad5a","system_id":"levelo_inurba_marseille","lat":43.27071,"lon":5.42277,"is_reserved":false,"is_disabled":false,"rental_uris":{"android":"levelo://app?vid=5209823c-5dd0-4ac6-81f4-b305dbcaad5a","ios":"levelo://app?vid=5209823c-5dd0-4ac6-81f4-b305dbcaad5a"},"vehicle_type_id":"4","last_reported":1685275874,"current_range_meters":16400,"station_id":"ce4bhk92rcd13ifvqgb0","pricing_plan_id":"free"},{"bike_id":"7ed32844-8944-4bea-9caa-6d916b34166c","system_id":"levelo_inurba_marseille","lat":43.27071,"lon":5.42281,"is_reserved":false,"is_disabled":false,"rental_uris":{"android":"levelo://app?vid=7ed32844-8944-4bea-9caa-6d916b34166c","ios":"levelo://app?vid=7ed32844-8944-4bea-9caa-6d916b34166c"},"vehicle_type_id":"4","last_reported":1685275874,"current_range_meters":20800,"station_id":"ce4bhk92rcd13ifvqgb0","pricing_plan_id":"free"},{"bike_id":"0d338879-6fac-4a0e-bd73-0d5eb639891d","system_id":"levelo_inurba_marseille","lat":43.259013,"lon":5.409301,"is_reserved":false,"is_disabled":false,"rental_uris":{"android":"levelo://app?vid=0d338879-6fac-4a0e-bd73-0d5eb639891d","ios":"levelo://app?vid=0d338879-6fac-4a0e-bd73-0d5eb639891d"},"vehicle_type_id":"4","last_reported":1685275874,"current_range_meters":22800,"station_id":"ce4bhm92rcd13ifvqglg","pricing_plan_id":"free"},{"bike_id":"da265475-fce4-4189-874e-60294304366a","system_id":"levelo_inurba_marseille","lat":43.250009,"lon":5.389195,"is_reserved":false,"is_disabled":false,"rental_uris":{"android":"levelo://app?vid=da265475-fce4-4189-874e-60294304366a","ios":"levelo://app?vid=da265475-fce4-4189-874e-60294304366a"},"vehicle_type_id":"4","last_reported":1685275874,"current_range_meters":31200,"station_id":"ce4bhgp2rcd13ifvqfd0","pricing_plan_id":"free"},{"bike_id":"897c0840-b49d-4585-92c0-679d7499a0f5","system_id":"levelo_inurba_marseille","lat":43.24813,"lon":5.3746,"is_reserved":false,"is_disabled":false,"rental_uris":{"android":"levelo://app?vid=897c0840-b49d-4585-92c0-679d7499a0f5","ios":"levelo://app?vid=897c0840-b49d-4585-92c0-679d7499a0f5"},"vehicle_type_id":"4","last_reported":1685275874,"current_range_meters":14800,"station_id":"ce4bhgh2rcd13ifvqfb0","pricing_plan_id":"free"},{"bike_id":"10f7a917-bf0c-469a-8f11-48a5a0f19f24","system_id":"levelo_inurba_marseille","lat":43.2479,"lon":5.374457,"is_reserved":false,"is_disabled":false,"rental_uris":{"android":"levelo://app?vid=10f7a917-bf0c-469a-8f11-48a5a0f19f24","ios":"levelo://app?vid=10f7a917-bf0c-469a-8f11-48a5a0f19f24"},"vehicle_type_id":"4","last_reported":1685275874,"current_range_meters":30400,"station_id":"ce4bhgh2rcd13ifvqfb0","pricing_plan_id":"free"},{"bike_id":"22c003ed-d1d9-4707-b820-1a75ba35a45f","system_id":"levelo_inurba_marseille","lat":43.24811,"lon":5.37461,"is_reserved":false,"is_disabled":false,"rental_uris":{"android":"levelo://app?vid=22c003ed-d1d9-4707-b820-1a75ba35a45f","ios":"levelo://app?vid=22c003ed-d1d9-4707-b820-1a75ba35a45f"},"vehicle_type_id":"4","last_reported":1685275874,"current_range_meters":31200,"station_id":"ce4bhgh2rcd13ifvqfb0","pricing_plan_id":"free"},{"bike_id":"93d00b69-9338-4525-ab75-7aa761f74eea","system_id":"levelo_inurba_marseille","lat":43.2481,"lon":5.37455,"is_reserved":false,"is_disabled":false,"rental_uris":{"android":"levelo://app?vid=93d00b69-9338-4525-ab75-7aa761f74eea","ios":"levelo://app?vid=93d00b69-9338-4525-ab75-7aa761f74eea"},"vehicle_type_id":"4","last_reported":1685275874,"current_range_meters":23600,"station_id":"ce4bhgh2rcd13ifvqfb0","pricing_plan_id":"free"},{"bike_id":"02ca65b4-eb5f-472d-98dc-9a7f2abad00d","system_id":"levelo_inurba_marseille","lat":43.2479,"lon":5.374457,"is_reserved":false,"is_disabled":false,"rental_uris":{"android":"levelo://app?vid=02ca65b4-eb5f-472d-98dc-9a7f2abad00d","ios":"levelo://app?vid=02ca65b4-eb5f-472d-98dc-9a7f2abad00d"},"vehicle_type_id":"4","last_reported":1685275874,"current_range_meters":8800,"station_id":"ce4bhgh2rcd13ifvqfb0","pricing_plan_id":"free"},{"bike_id":"e8eb230d-8564-4f62-a65a-9fc6bee2aa96","system_id":"levelo_inurba_marseille","lat":43.24811,"lon":5.37495,"is_reserved":false,"is_disabled":false,"rental_uris":{"android":"levelo://app?vid=e8eb230d-8564-4f62-a65a-9fc6bee2aa96","ios":"levelo://app?vid=e8eb230d-8564-4f62-a65a-9fc6bee2aa96"},"vehicle_type_id":"4","last_reported":1685275874,"current_range_meters":10400,"station_id":"","pricing_plan_id":"free"},{"bike_id":"e16cf53d-d4c8-4224-ac46-d2a403333578","system_id":"levelo_inurba_marseille","lat":43.24808,"lon":5.37457,"is_reserved":false,"is_disabled":false,"rental_uris":{"android":"levelo://app?vid=e16cf53d-d4c8-4224-ac46-d2a403333578","ios":"levelo://app?vid=e16cf53d-d4c8-4224-ac46-d2a403333578"},"vehicle_type_id":"4","last_reported":1685275874,"current_range_meters":5600,"station_id":"ce4bhgh2rcd13ifvqfb0","pricing_plan_id":"free"},{"bike_id":"820576eb-6020-46e9-bfbc-a4fee674817d","system_id":"levelo_inurba_marseille","lat":43.2479,"lon":5.374457,"is_reserved":false,"is_disabled":false,"rental_uris":{"android":"levelo://app?vid=820576eb-6020-46e9-bfbc-a4fee674817d","ios":"levelo://app?vid=820576eb-6020-46e9-bfbc-a4fee674817d"},"vehicle_type_id":"4","last_reported":1685275874,"current_range_meters":28400,"station_id":"ce4bhgh2rcd13ifvqfb0","pricing_plan_id":"free"},{"bike_id":"450bf423-04ae-44d9-bae4-c9fc3cef805a","system_id":"levelo_inurba_marseille","lat":43.24807,"lon":5.37453,"is_reserved":false,"is_disabled":false,"rental_uris":{"android":"levelo://app?vid=450bf423-04ae-44d9-bae4-c9fc3cef805a","ios":"levelo://app?vid=450bf423-04ae-44d9-bae4-c9fc3cef805a"},"vehicle_type_id":"4","last_reported":1685275874,"current_range_meters":12800,"station_id":"ce4bhgh2rcd13ifvqfb0","pricing_plan_id":"free"},{"bike_id":"90e24bed-e06a-443a-bd34-1be848da9d00","system_id":"levelo_inurba_marseille","lat":43.24807,"lon":5.37453,"is_reserved":false,"is_disabled":false,"rental_uris":{"android":"levelo://app?vid=90e24bed-e06a-443a-bd34-1be848da9d00","ios":"levelo://app?vid=90e24bed-e06a-443a-bd34-1be848da9d00"},"vehicle_type_id":"4","last_reported":1685275874,"current_range_meters":30400,"station_id":"ce4bhgh2rcd13ifvqfb0","pricing_plan_id":"free"},{"bike_id":"01e84b44-f389-4080-85a1-d16e80f967de","system_id":"levelo_inurba_marseille","lat":43.24807,"lon":5.37457,"is_reserved":false,"is_disabled":false,"rental_uris":{"android":"levelo://app?vid=01e84b44-f389-4080-85a1-d16e80f967de","ios":"levelo://app?vid=01e84b44-f389-4080-85a1-d16e80f967de"},"vehicle_type_id":"4","last_reported":1685275874,"current_range_meters":26800,"station_id":"ce4bhgh2rcd13ifvqfb0","pricing_plan_id":"free"},{"bike_id":"f961de03-0b20-476b-8f2f-b5b38714f884","system_id":"levelo_inurba_marseille","lat":43.24807,"lon":5.37458,"is_reserved":false,"is_disabled":false,"rental_uris":{"android":"levelo://app?vid=f961de03-0b20-476b-8f2f-b5b38714f884","ios":"levelo://app?vid=f961de03-0b20-476b-8f2f-b5b38714f884"},"vehicle_type_id":"4","last_reported":1685275874,"current_range_meters":22400,"station_id":"ce4bhgh2rcd13ifvqfb0","pricing_plan_id":"free"},{"bike_id":"4a735f1f-9065-4eb4-8ea1-5541d794d928","system_id":"levelo_inurba_marseille","lat":43.24806,"lon":5.37454,"is_reserved":false,"is_disabled":false,"rental_uris":{"android":"levelo://app?vid=4a735f1f-9065-4eb4-8ea1-5541d794d928","ios":"levelo://app?vid=4a735f1f-9065-4eb4-8ea1-5541d794d928"},"vehicle_type_id":"4","last_reported":1685275874,"current_range_meters":27600,"station_id":"ce4bhgh2rcd13ifvqfb0","pricing_plan_id":"free"},{"bike_id":"e28423ba-7ae8-48d8-9175-3e04057158de","system_id":"levelo_inurba_marseille","lat":43.2479,"lon":5.374457,"is_reserved":false,"is_disabled":false,"rental_uris":{"android":"levelo://app?vid=e28423ba-7ae8-48d8-9175-3e04057158de","ios":"levelo://app?vid=e28423ba-7ae8-48d8-9175-3e04057158de"},"vehicle_type_id":"4","last_reported":1685275874,"current_range_meters":13200,"station_id":"ce4bhgh2rcd13ifvqfb0","pricing_plan_id":"free"},{"bike_id":"a3f3bbfa-181d-418a-a5b3-d8b4e5788546","system_id":"levelo_inurba_marseille","lat":43.24805,"lon":5.37454,"is_reserved":false,"is_disabled":false,"rental_uris":{"android":"levelo://app?vid=a3f3bbfa-181d-418a-a5b3-d8b4e5788546","ios":"levelo://app?vid=a3f3bbfa-181d-418a-a5b3-d8b4e5788546"},"vehicle_type_id":"4","last_reported":1685275874,"current_range_meters":10400,"station_id":"ce4bhgh2rcd13ifvqfb0","pricing_plan_id":"free"},{"bike_id":"32aff3c4-5f80-461e-9a42-4df1e512a976","system_id":"levelo_inurba_marseille","lat":43.2479,"lon":5.374457,"is_reserved":false,"is_disabled":false,"rental_uris":{"android":"levelo://app?vid=32aff3c4-5f80-461e-9a42-4df1e512a976","ios":"levelo://app?vid=32aff3c4-5f80-461e-9a42-4df1e512a976"},"vehicle_type_id":"4","last_reported":1685275874,"current_range_meters":31600,"station_id":"ce4bhgh2rcd13ifvqfb0","pricing_plan_id":"free"},{"bike_id":"3e65b518-5840-4efb-8945-868dad43abf1","system_id":"levelo_inurba_marseille","lat":43.2479,"lon":5.374457,"is_reserved":false,"is_disabled":false,"rental_uris":{"android":"levelo://app?vid=3e65b518-5840-4efb-8945-868dad43abf1","ios":"levelo://app?vid=3e65b518-5840-4efb-8945-868dad43abf1"},"vehicle_type_id":"4","last_reported":1685275874,"current_range_meters":31600,"station_id":"ce4bhgh2rcd13ifvqfb0","pricing_plan_id":"free"},{"bike_id":"6b4c50b1-3e8d-478c-b78e-1f30ca21fbc9","system_id":"levelo_inurba_marseille","lat":43.2479,"lon":5.374457,"is_reserved":false,"is_disabled":false,"rental_uris":{"android":"levelo://app?vid=6b4c50b1-3e8d-478c-b78e-1f30ca21fbc9","ios":"levelo://app?vid=6b4c50b1-3e8d-478c-b78e-1f30ca21fbc9"},