{"last_updated":1753867123,"ttl":60,"version":"2.2","data":{"bikes":[{"bike_id":"0b567a54-a2d2-453e-9e35-5fd119a86d2e","system_id":"levelo_inurba_marseille","lat":43.27315,"lon":5.391,"is_reserved":false,"is_disabled":false,"rental_uris":{"android":"levelo://app?vid=0b567a54-a2d2-453e-9e35-5fd119a86d2e","ios":"levelo://app?vid=0b567a54-a2d2-453e-9e35-5fd119a86d2e"},"vehicle_type_id":"4","last_reported":1753867123,"current_range_meters":2800,"station_id":"ce4bhgp2rcd13ifvqfe0","pricing_plan_id":"cebpf4jnsgd1na2vs0mg"},{"bike_id":"56010f65-7e8c-42cf-bcef-561faa72629f","system_id":"levelo_inurba_marseille","lat":43.29206,"lon":5.3931,"is_reserved":false,"is_disabled":false,"rental_uris":{"android":"levelo://app?vid=56010f65-7e8c-42cf-bcef-561faa72629f","ios":"levelo://app?vid=56010f65-7e8c-42cf-bcef-561faa72629f"},"vehicle_type_id":"4","last_reported":1753867123,"current_range_meters":2800,"station_id":"ce4bh192rcd13ifvqdd0","pricing_plan_id":"cebpf4jnsgd1na2vs0mg"},{"bike_id":"3152576e-d602-4c3f-980e-717f41aed773","system_id":"levelo_inurba_marseille","lat":43.33737,"lon":5.37465,"is_reserved":false,"is_disabled":false,"rental_uris":{"android":"levelo://app?vid=3152576e-d602-4c3f-980e-717f41aed773","ios":"levelo://app?vid=3152576e-d602-4c3f-980e-717f41aed773"},"vehicle_type_id":"4","last_reported":1753867123,"current_range_meters":2800,"station_id":"","pricing_plan_id":"cebpf4jnsgd1na2vs0mg"},{"bike_id":"0da4f255-3149-4b71-8c88-85471d296a0b","system_id":"levelo_inurba_marseille","lat":43.29575,"lon":5.37516,"is_reserved":false,"is_disabled":false,"rental_uris":{"android":"levelo://app?vid=0da4f255-3149-4b71-8c88-85471d296a0b","ios":"levelo://app?vid=0da4f255-3149-4b71-8c88-85471d296a0b"},"vehicle_type_id":"4","last_reported":1753867123,"current_range_meters":3200,"station_id":"ce4bgh92rcd13ifvqb50","pricing_plan_id":"cebpf4jnsgd1na2vs0mg"},{"bike_id":"6fe4f646-b75b-4e51-99c9-25f3c1f3f3ab","system_id":"levelo_inurba_marseille","lat":43.27372,"lon":5.36265,"is_reserved":false,"is_disabled":false,"rental_uris":{"android":"levelo://app?vid=6fe4f646-b75b-4e51-99c9-25f3c1f3f3ab","ios":"levelo://app?vid=6fe4f646-b75b-4e51-99c9-25f3c1f3f3ab"},"vehicle_type_id":"4","last_reported":1753867123,"current_range_meters":3200,"station_id":"ce4bhbh2rcd13ifvqeo0","pricing_plan_id":"cebpf4jnsgd1na2vs0mg"},{"bike_id":"70a8d4a7-459e-47ea-a19c-673a43f1724f","system_id":"levelo_inurba_marseille","lat":43.30524,"lon":5.36545,"is_reserved":false,"is_disabled":false,"rental_uris":{"android":"levelo://app?vid=70a8d4a7-459e-47ea-a19c-673a43f1724f","ios":"levelo://app?vid=70a8d4a7-459e-47ea-a19c-673a43f1724f"},"vehicle_type_id":"4","last_reported":1753867123,"current_range_meters":3200,"station_id":"ce4bgs12rcd13ifvqcag","pricing_plan_id":"cebpf4jnsgd1na2vs0mg"},{"bike_id":"fc49bfb5-ce0b-4e0d-86d7-67c901184dca","system_id":"levelo_inurba_marseille","lat":43.284166,"lon":5.349871,"is_reserved":false,"is_disabled":false,"rental_uris":{"android":"levelo://app?vid=fc49bfb5-ce0b-4e0d-86d7-67c901184dca","ios":"levelo://app?vid=fc49bfb5-ce0b-4e0d-86d7-67c901184dca"},"vehicle_type_id":"4","last_reported":1753867123,"current_range_meters":3200,"station_id":"ce4bhah2rcd13ifvqei0","pricing_plan_id":"cebpf4jnsgd1na2vs0mg"},{"bike_id":"3c237dd4-411a-42b2-9356-167dda62ccef","system_id":"levelo_inurba_marseille","lat":43.28079,"lon":5.39661,"is_reserved":false,"is_disabled":false,"rental_uris":{"android":"levelo://app?vid=3c237dd4-411a-42b2-9356-167dda62ccef","ios":"levelo://app?vid=3c237dd4-411a-42b2-9356-167dda62ccef"},"vehicle_type_id":"4","last_reported":1753867123,"current_range_meters":4400,"station_id":"ce4bho12rcd13ifvqh2g","pricing_plan_id":"cebpf4jnsgd1na2vs0mg"},{"bike_id":"8a569b31-55c0-441f-9435-5ac594ac9c22","system_id":"levelo_inurba_marseille","lat":43.297302,"lon":5.374166,"is_reserved":false,"is_disabled":false,"rental_uris":{"android":"levelo://app?vid=8a569b31-55c0-441f-9435-5ac594ac9c22","ios":"levelo://app?vid=8a569b31-55c0-441f-9435-5ac594ac9c22"},"vehicle_type_id":"4","last_reported":1753867123,"current_range_meters":4400,"station_id":"","pricing_plan_id":"cebpf4jnsgd1na2vs0mg"},{"bike_id":"80915a30-ef88-4d81-b5d1-969d1c17a42d","system_id":"levelo_inurba_marseille","lat":43.30419,"lon":5.40831,"is_reserved":false,"is_disabled":false,"rental_uris":{"android":"levelo://app?vid=80915a30-ef88-4d81-b5d1-969d1c17a42d","ios":"levelo://app?vid=80915a30-ef88-4d81-b5d1-969d1c17a42d"},"vehicle_type_id":"4","last_reported":1753867123,"current_range_meters":4800,"station_id":"","pricing_plan_id":"cebpf4jnsgd1na2vs0mg"},{"bike_id":"95dd70e4-879c-49e7-b318-a6c71b22a43e","system_id":"levelo_inurba_marseille","lat":43.2703,"lon":5.39295,"is_reserved":false,"is_disabled":false,"rental_uris":{"android":"levelo://app?vid=95dd70e4-879c-49e7-b318-a6c71b22a43e","ios":"levelo://app?vid=95dd70e4-879c-49e7-b318-a6c71b22a43e"},"vehicle_type_id":"4","last_reported":1753867123,"current_range_meters":4800,"station_id":"","pricing_plan_id":"cebpf4jnsgd1na2vs0mg"},{"bike_id":"209c73e6-1f69-4d13-9fed-77cb46eecd05","system_id":"levelo_inurba_marseille","lat":43.34681,"lon":5.38065,"is_reserved":false,"is_disabled":false,"rental_uris":{"android":"levelo://app?vid=209c73e6-1f69-4d13-9fed-77cb46eecd05","ios":"levelo://app?vid=209c73e6-1f69-4d13-9fed-77cb46eecd05"},"vehicle_type_id":"4","last_reported":1753867123,"current_range_meters":4800,"station_id":"","pricing_plan_id":"cebpf4jnsgd1na2vs0mg"},{"bike_id":"375a6779-47db-4856-8cdc-bbf5514ebeef","system_id":"levelo_inurba_marseille","lat":43.26219,"lon":5.37462,"is_reserved":false,"is_disabled":false,"rental_uris":{"android":"levelo://app?vid=375a6779-47db-4856-8cdc-bbf5514ebeef","ios":"levelo://app?vid=375a6779-47db-4856-8cdc-bbf5514ebeef"},"vehicle_type_id":"4","last_reported":1753867123,"current_range_meters":5600,"station_id":"ce4bhgp2rcd13ifvqfc0","pricing_plan_id":"cebpf4jnsgd1na2vs0mg"},{"bike_id":"181c8049-4fb7-4c27-a6b2-7bb8fea4f09f","system_id":"levelo_inurba_marseille","lat":43.29532,"lon":5.39268,"is_reserved":false,"is_disabled":false,"rental_uris":{"android":"levelo://app?vid=181c8049-4fb7-4c27-a6b2-7bb8fea4f09f","ios":"levelo://app?vid=181c8049-4fb7-4c27-a6b2-7bb8fea4f09f"},"vehicle_type_id":"4","last_reported":1753867123,"current_range_meters":5600,"station_id":"","pricing_plan_id":"cebpf4jnsgd1na2vs0mg"},{"bike_id":"65e3db07-f188-422b-b687-3d06cfe2bcf8","system_id":"levelo_inurba_marseille","lat":43.28043,"lon":5.35004,"is_reserved":false,"is_disabled":false,"rental_uris":{"android":"levelo://app?vid=65e3db07-f188-422b-b687-3d06cfe2bcf8","ios":"levelo://app?vid=65e3db07-f188-422b-b687-3d06cfe2bcf8"},"vehicle_type_id":"4","last_reported":1753867123,"current_range_meters":5600,"station_id":"","pricing_plan_id":"cebpf4jnsgd1na2vs0mg"},{"bike_id":"44ddc854-d6b9-4fab-9c77-f5482c1670bd","system_id":"levelo_inurba_marseille","lat":43.305369,"lon":5.365289,"is_reserved":false,"is_disabled":false,"rental_uris":{"android":"levelo://app?vid=44ddc854-d6b9-4fab-9c77-f5482c1670bd","ios":"levelo://app?vid=44ddc854-d6b9-4fab-9c77-f5482c1670bd"},"vehicle_type_id":"4","last_reported":1753867123,"current_range_meters":6000,"station_id":"ce4bgs12rcd13ifvqcag","pricing_plan_id":"cebpf4jnsgd1na2vs0mg"},{"bike_id":"7ead535a-e7f2-4489-9051-59e4f5eeec8a","system_id":"levelo_inurba_marseille","lat":43.3071,"lon":5.37347,"is_reserved":false,"is_disabled":false,"rental_uris":{"android":"levelo://app?vid=7ead535a-e7f2-4489-9051-59e4f5eeec8a","ios":"levelo://app?vid=7ead535a-e7f2-4489-9051-59e4f5eeec8a"},"vehicle_type_id":"4","last_reported":1753867123,"current_range_meters":6400,"station_id":"","pricing_plan_id":"cebpf4jnsgd1na2vs0mg"},{"bike_id":"92383e12-1bb9-481d-8178-8f4713781f5b","system_id":"levelo_inurba_marseille","lat":43.29263,"lon":5.37644,"is_reserved":false,"is_disabled":false,"rental_uris":{"android":"levelo://app?vid=92383e12-1bb9-481d-8178-8f4713781f5b","ios":"levelo://app?vid=92383e12-1bb9-481d-8178-8f4713781f5b"},"vehicle_type_id":"4","last_reported":1753867123,"current_range_meters":6400,"station_id":"ce4bgi12rcd13ifvqb80","pricing_plan_id":"cebpf4jnsgd1na2vs0mg"},{"bike_id":"7cc83563-2453-4b11-9e51-eed3c6874cf3","system_id":"levelo_inurba_marseille","lat":43.27376,"lon":5.36268,"is_reserved":false,"is_disabled":false,"rental_uris":{"android":"levelo://app?vid=7cc83563-2453-4b11-9e51-eed3c6874cf3","ios":"levelo://app?vid=7cc83563-2453-4b11-9e51-eed3c6874cf3"},"vehicle_type_id":"4","last_reported":1753867123,"current_range_meters":6400,"station_id":"ce4bhbh2rcd13ifvqeo0","pricing_plan_id":"cebpf4jnsgd1na2vs0mg"},{"bike_id":"df1ca2fe-4a32-4625-926b-8a45948f1be8","system_id":"levelo_inurba_marseille","lat":43.29922,"lon":5.37471,"is_reserved":false,"is_disabled":false,"rental_uris":{"android":"levelo://app?vid=df1ca2fe-4a32-4625-926b-8a45948f1be8","ios":"levelo://app?vid=df1ca2fe-4a32-4625-926b-8a45948f1be8"},"vehicle_type_id":"4","last_reported":1753867123,"current_range_meters":6400,"station_id":"ce4bgjh2rcd13ifvqbg0","pricing_plan_id":"cebpf4jnsgd1na2vs0mg"},{"bike_id":"149fbe11-3bce-47a0-b584-c7c7bd6bb12f","system_id":"levelo_inurba_marseille","lat":43.21628,"lon":5.34431,"is_reserved":false,"is_disabled":false,"rental_uris":{"android":"levelo://app?vid=149fbe11-3bce-47a0-b584-c7c7bd6bb12f","ios":"levelo://app?vid=149fbe11-3bce-47a0-b584-c7c7bd6bb12f"},"vehicle_type_id":"4","last_reported":1753867123,"current_range_meters":6400,"station_id":"","pricing_plan_id":"cebpf4jnsgd1na2vs0mg"},{"bike_id":"882bdff1-651a-41c1-9ab0-596f43205cf1","system_id":"levelo_inurba_marseille","lat":43.337444,"lon":5.374475,"is_reserved":false,"is_disabled":false,"rental_uris":{"android":"levelo://app?vid=882bdff1-651a-41c1-9ab0-596f43205cf1","ios":"levelo://app?vid=882bdff1-651a-41c1-9ab0-596f43205cf1"},"vehicle_type_id":"4","last_reported":1753867123,"current_range_meters":6800,"station_id":"ce4bgkp2rcd13ifvqbmg","pricing_plan_id":"cebpf4jnsgd1na2vs0mg"},{"bike_id":"7cc1da72-5a84-4656-af48-1b30d4971806","system_id":"levelo_inurba_marseille","lat":43.26248,"lon":5.39785,"is_reserved":false,"is_disabled":false,"rental_uris":{"android":"levelo://app?vid=7cc1da72-5a84-4656-af48-1b30d4971806","ios":"levelo://app?vid=7cc1da72-5a84-4656-af48-1b30d4971806"},"vehicle_type_id":"4","last_reported":1753867123,"current_range_meters":6800,"station_id":"","pricing_plan_id":"cebpf4jnsgd1na2vs0mg"},{"bike_id":"32baa9dd-f7a0-4d60-82fb-fa1e028de131","system_id":"levelo_inurba_marseille","lat":43.28256,"lon":5.35066,"is_reserved":false,"is_disabled":true,"rental_uris":{"android":"levelo://app?vid=32baa9dd-f7a0-4d60-82fb-fa1e028de131","ios":"levelo://app?vid=32baa9dd-f7a0-4d60-82fb-fa1e028de131"},"vehicle_type_id":"4","last_reported":1753867123,"current_range_meters":6800,"station_id":"ce4bhbp2rcd13ifvqerg","pricing_plan_id":"cebpf4jnsgd1na2vs0mg"},{"bike_id":"2a3a9f20-00d1-4c95-a093-ba8e28724bc0","system_id":"levelo_inurba_marseille","lat":43.30702,"lon":5.37569,"is_reserved":false,"is_disabled":false,"rental_uris":{"android":"levelo://app?vid=2a3a9f20-00d1-4c95-a093-ba8e28724bc0","ios":"levelo://app?vid=2a3a9f20-00d1-4c95-a093-ba8e28724bc0"},"vehicle_type_id":"4","last_reported":1753867123,"current_range_meters":6800,"station_id":"","pricing_plan_id":"cebpf4jnsgd1na2vs0mg"},{"bike_id":"b678bfa8-66dc-4b83-8931-03c7de466b27","system_id":"levelo_inurba_marseille","lat":43.302,"lon":5.366,"is_reserved":false,"is_disabled":false,"rental_uris":{"android":"levelo://app?vid=b678bfa8-66dc-4b83-8931-03c7de466b27","ios":"levelo://app?vid=b678bfa8-66dc-4b83-8931-03c7de466b27"},"vehicle_type_id":"4","last_reported":1753867123,"current_range_meters":6800,"station_id":"ce4bgrh2rcd13ifvqc8g","pricing_plan_id":"cebpf4jnsgd1na2vs0mg"},{"bike_id":"d4b0442d-37e3-4887-8827-87b59f4e9086","system_id":"levelo_inurba_marseille","lat":43.2977,"lon":5.38108,"is_reserved":false,"is_disabled":false,"rental_uris":{"android":"levelo://app?vid=d4b0442d-37e3-4887-8827-87b59f4e9086","ios":"levelo://app?vid=d4b0442d-37e3-4887-8827-87b59f4e9086"},"vehicle_type_id":"4","last_reported":1753867123,"current_range_meters":7200,"station_id":"","pricing_plan_id":"cebpf4jnsgd1na2vs0mg"},{"bike_id":"99433346-4276-4217-8da5-a8a78e52d3bb","system_id":"levelo_inurba_marseille","lat":43.290617,"lon":5.375756,"is_reserved":false,"is_disabled":false,"rental_uris":{"android":"levelo://app?vid=99433346-4276-4217-8da5-a8a78e52d3bb","ios":"levelo://app?vid=99433346-4276-4217-8da5-a8a78e52d3bb"},"vehicle_type_id":"4","last_reported":1753867123,"current_range_meters":7200,"station_id":"ce4bh692rcd13ifvqe90","pricing_plan_id":"cebpf4jnsgd1na2vs0mg"},{"bike_id":"28e583f6-2fe3-4cfd-9f98-fe94277a0eb4","system_id":"levelo_inurba_marseille","lat":43.30549,"lon":5.36556,"is_reserved":false,"is_disabled":false,"rental_uris":{"android":"levelo://app?vid=28e583f6-2fe3-4cfd-9f98-fe94277a0eb4","ios":"levelo://app?vid=28e583f6-2fe3-4cfd-9f98-fe94277a0eb4"},"vehicle_type_id":"4","last_reported":1753867123,"current_range_meters":7200,"station_id":"ce4bgs12rcd13ifvqcag","pricing_plan_id":"cebpf4jnsgd1na2vs0mg"},{"bike_id":"ee294293-b484-40ec-a941-e6b5b62a025b","system_id":"levelo_inurba_marseille","lat":43.21191,"lon":5.35068,"is_reserved":false,"is_disabled":false,"rental_uris":{"android":"levelo://app?vid=ee294293-b484-40ec-a941-e6b5b62a025b","ios":"levelo://app?vid=ee294293-b484-40ec-a941-e6b5b62a025b"},"vehicle_type_id":"4","last_reported":1753867123,"current_range_meters":8000,"station_id":"st_cvj6sg6p6f1abm77japg","pricing_plan_id":"cebpf4jnsgd1na2vs0mg"},{"bike_id":"bb650ed0-d989-4f7c-9fda-1512931e29aa","system_id":"levelo_inurba_marseille","lat":43.30006,"lon":5.37189,"is_reserved":false,"is_disabled":false,"rental_uris":{"android":"levelo://app?vid=bb650ed0-d989-4f7c-9fda-1512931e29aa","ios":"levelo://app?vid=bb650ed0-d989-4f7c-9fda-1512931e29aa"},"vehicle_type_id":"4","last_reported":1753867123,"current_range_meters":8000,"station_id":"ce4bgr92rcd13ifvqc7g","pricing_plan_id":"cebpf4jnsgd1na2vs0mg"},{"bike_id":"a4f46262-9551-4d99-b4ee-3d3973a256ab","system_id":"levelo_inurba_marseille","lat":43.28617,"lon":5.35104,"is_reserved":false,"is_disabled":true,"rental_uris":{"android":"levelo://app?vid=a4f46262-9551-4d99-b4ee-3d3973a256ab","ios":"levelo://app?vid=a4f46262-9551-4d99-b4ee-3d3973a256ab"},"vehicle_type_id":"4","last_reported":1753867123,"current_range_meters":8400,"station_id":"ce4bhch2rcd13ifvqeug","pricing_plan_id":"cebpf4jnsgd1na2vs0mg"},{"bike_id":"37fcf059-83b8-4b6e-bc28-0c83f77e3c05","system_id":"levelo_inurba_marseille","lat":43.22557,"lon":5.34759,"is_reserved":false,"is_disabled":false,"rental_uris":{"android":"levelo://app?vid=37fcf059-83b8-4b6e-bc28-0c83f77e3c05","ios":"levelo://app?vid=37fcf059-83b8-4b6e-bc28-0c83f77e3c05"},"vehicle_type_id":"4","last_reported":1753867123,"current_range_meters":8400,"station_id":"","pricing_plan_id":"cebpf4jnsgd1na2vs0mg"},{"bike_id":"2a2ebcac-f77c-4247-a112-f93afdd14a48","system_id":"levelo_inurba_marseille","lat":43.3014,"lon":5.38793,"is_reserved":false,"is_disabled":false,"rental_uris":{"android":"levelo://app?vid=2a2ebcac-f77c-4247-a112-f93afdd14a48","ios":"levelo://app?vid=2a2ebcac-f77c-4247-a112-f93afdd14a48"},"vehicle_type_id":"4","last_reported":1753867123,"current_range_meters":8400,"station_id":"ce4bghh2rcd13ifvqb60","pricing_plan_id":"cebpf4jnsgd1na2vs0mg"},{"bike_id":"5bcc262b-7421-45cd-ae95-983db5642a60","system_id":"levelo_inurba_marseille","lat":43.28357,"lon":5.38108,"is_reserved":false,"is_disabled":false,"rental_uris":{"android":"levelo://app?vid=5bcc262b-7421-45cd-ae95-983db5642a60","ios":"levelo://app?vid=5bcc262b-7421-45cd-ae95-983db5642a60"},"vehicle_type_id":"4","last_reported":1753867123,"current_range_meters":8400,"station_id":"ce4bh412rcd13ifvqdr0","pricing_plan_id":"cebpf4jnsgd1na2vs0mg"},{"bike_id":"b5e469a6-8e8f-4b1a-91cc-e9f6f04151ad","system_id":"levelo_inurba_marseille","lat":43.29596,"lon":5.43713,"is_reserved":false,"is_disabled":false,"rental_uris":{"android":"levelo://app?vid=b5e469a6-8e8f-4b1a-91cc-e9f6f04151ad","ios":"levelo://app?vid=b5e469a6-8e8f-4b1a-91cc-e9f6f04151ad"},"vehicle_type_id":"4","last_reported":1753867123,"current_range_meters":8800,"station_id":"","pricing_plan_id":"cebpf4jnsgd1na2vs0mg"},{"bike_id":"55201a9e-328f-452a-8b58-b76f0e5a4511","system_id":"levelo_inurba_marseille","lat":43.23181,"lon":5.400041,"is_reserved":false,"is_disabled":true,"rental_uris":{"android":"levelo://app?vid=55201a9e-328f-452a-8b58-b76f0e5a4511","ios":"levelo://app?vid=55201a9e-328f-452a-8b58-b76f0e5a4511"},"vehicle_type_id":"4","last_reported":1753867123,"current_range_meters":8800,"station_id":"ce4bhn12rcd13ifvqgqg","pricing_plan_id":"cebpf4jnsgd1na2vs0mg"},{"bike_id":"99a130fc-a161-4c43-b270-235dbed48d00","system_id":"levelo_inurba_marseille","lat":43.28673,"lon":5.3636,"is_reserved":false,"is_disabled":false,"rental_uris":{"android":"levelo://app?vid=99a130fc-a161-4c43-b270-235dbed48d00","ios":"levelo://app?vid=99a130fc-a161-4c43-b270-235dbed48d00"},"vehicle_type_id":"4","last_reported":1753867123,"current_range_meters":8800,"station_id":"ce4bhah2rcd13ifvqej0","pricing_plan_id":"cebpf4jnsgd1na2vs0mg"},{"bike_id":"3f9a8cbe-33b8-4eda-aa1f-1605224bf3c2","system_id":"levelo_inurba_marseille","lat":43.25583,"lon":5.38252,"is_reserved":false,"is_disabled":false,"rental_uris":{"android":"levelo://app?vid=3f9a8cbe-33b8-4eda-aa1f-1605224bf3c2","ios":"levelo://app?vid=3f9a8cbe-33b8-4eda-aa1f-1605224bf3c2"},"vehicle_type_id":"4","last_reported":1753867123,"current_range_meters":9200,"station_id":"ce4bhih2rcd13ifvqfs0","pricing_plan_id":"cebpf4jnsgd1na2vs0mg"},{"bike_id":"babec3cd-4802-4418-b12d-ba6b4779501c","system_id":"levelo_inurba_marseille","lat":43.28002,"lon":5.40011,"is_reserved":false,"is_disabled":false,"rental_uris":{"android":"levelo://app?vid=babec3cd-4802-4418-b12d-ba6b4779501c","ios":"levelo://app?vid=babec3cd-4802-4418-b12d-ba6b4779501c"},"vehicle_type_id":"4","last_reported":1753867123,"current_range_meters":9200,"station_id":"ce4bho92rcd13ifvqh4g","pricing_plan_id":"cebpf4jnsgd1na2vs0mg"},{"bike_id":"a5d21f19-a2f8-4c79-9341-84f97b97beb0","system_id":"levelo_inurba_marseille","lat":43.33383,"lon":5.40065,"is_reserved":false,"is_disabled":false,"rental_uris":{"android":"levelo://app?vid=a5d21f19-a2f8-4c79-9341-84f97b97beb0","ios":"levelo://app?vid=a5d21f19-a2f8-4c79-9341-84f97b97beb0"},"vehicle_type_id":"4","last_reported":1753867123,"current_range_meters":9200,"station_id":"","pricing_plan_id":"cebpf4jnsgd1na2vs0mg"},{"bike_id":"5b66ec66-b2f8-4c22-ba53-416133a0f3c9","system_id":"levelo_inurba_marseille","lat":43.21751,"lon":5.34599,"is_reserved":false,"is_disabled":false,"rental_uris":{"android":"levelo://app?vid=5b66ec66-b2f8-4c22-ba53-416133a0f3c9","ios":"levelo://app?vid=5b66ec66-b2f8-4c22-ba53-416133a0f3c9"},"vehicle_type_id":"4","last_reported":1753867123,"current_range_meters":9200,"station_id":"st_cvj6r9ubvosntc0bgbag","pricing_plan_id":"cebpf4jnsgd1na2vs0mg"},{"bike_id":"c89d2321-0712-40c0-9544-3a900bc6881d","system_id":"levelo_inurba_marseille","lat":43.30243,"lon":5.40052,"is_reserved":false,"is_disabled":false,"rental_uris":{"android":"levelo://app?vid=c89d2321-0712-40c0-9544-3a900bc6881d","ios":"levelo://app?vid=c89d2321-0712-40c0-9544-3a900bc6881d"},"vehicle_type_id":"4","last_reported":1753867123,"current_range_meters":4400,"station_id":"ce4bgvh2rcd13ifvqcs0","pricing_plan_id":"cebpf4jnsgd1na2vs0mg"},{"bike_id":"73c28b44-fb9a-4083-b9eb-e60de241e4cb","system_id":"levelo_inurba_marseille","lat":43.323631,"lon":5.388929,"is_reserved":false,"is_disabled":false,"rental_uris":{"android":"levelo://app?vid=73c28b44-fb9a-4083-b9eb-e60de241e4cb","ios":"levelo://app?vid=73c28b44-fb9a-4083-b9eb-e60de241e4cb"},"vehicle_type_id":"4","last_reported":1753867123,"current_range_meters":9600,"station_id":"ce4bhqp2rcd13ifvqhog","pricing_plan_id":"cebpf4jnsgd1na2vs0mg"},{"bike_id":"b0f2b2c1-b378-4164-a22b-6eceaa434acc","system_id":"levelo_inurba_marseille","lat":43.29201,"lon":5.4271,"is_reserved":false,"is_disabled":false,"rental_uris":{"android":"levelo://app?vid=b0f2b2c1-b378-4164-a22b-6eceaa434acc","ios":"levelo://app?vid=b0f2b2c1-b378-4164-a22b-6eceaa434acc"},"vehicle_type_id":"4","last_reported":1753867123,"current_range_meters":9600,"station_id":"","pricing_plan_id":"cebpf4jnsgd1na2vs0mg"},{"bike_id":"fea084fe-0368-4f4d-8042-b0aec822f6a2","system_id":"levelo_inurba_marseille","lat":43.2926,"lon":5.37633,"is_reserved":false,"is_disabled":false,"rental_uris":{"android":"levelo://app?vid=fea084fe-0368-4f4d-8042-b0aec822f6a2","ios":"levelo://app?vid=fea084fe-0368-4f4d-8042-b0aec822f6a2"},"vehicle_type_id":"4","last_reported":1753867123,"current_range_meters":9600,"station_id":"ce4bgi12rcd13ifvqb80","pricing_plan_id":"cebpf4jnsgd1na2vs0mg"},{"bike_id":"0dc99cab-1546-4588-8ef9-e9c6ae8e0a6f","system_id":"levelo_inurba_marseille","lat":43.23069,"lon":5.35486,"is_reserved":false,"is_disabled":false,"rental_uris":{"android":"levelo://app?vid=0dc99cab-1546-4588-8ef9-e9c6ae8e0a6f","ios":"levelo://app?vid=0dc99cab-1546-4588-8ef9-e9c6ae8e0a6f"},"vehicle_type_id":"4","last_reported":1753867123,"current_range_meters":9600,"station_id":"cpo3342slgdg3j2ifvpg","pricing_plan_id":"cebpf4jnsgd1na2vs0mg"},{"bike_id":"1d9c8f69-ee78-4f0e-b9ef-f3cf3fc9103f","system_id":"levelo_inurba_marseille","lat":43.23191,"lon":5.35561,"is_reserved":false,"is_disabled":false,"rental_uris":{"android":"levelo://app?vid=1d9c8f69-ee78-4f0e-b9ef-f3cf3fc9103f","ios":"levelo://app?vid=1d9c8f69-ee78-4f0e-b9ef-f3cf3fc9103f"},"vehicle_type_id":"4","last_reported":1753867123,"current_range_meters":10000,"station_id":"ce4bhu92rcd13ifvqi70","pricing_plan_id":"cebpf4jnsgd1na2vs0mg"},{"bike_id":"da913aa8-3d8c-4ab2-b48f-187998fd2a99","system_id":"levelo_inurba_marseille","lat":43.29618,"lon":5.3716,"is_reserved":false,"is_disabled":false,"rental_uris":{"android":"levelo://app?vid=da913aa8-3d8c-4ab2-b48f-187998fd2a99","ios":"levelo://app?vid=da913aa8-3d8c-4ab2-b48f-187998fd2a99"},"vehicle_type_id":"4","last_reported":1753867123,"current_range_meters":10000,"station_id":"ce4bgnh2rcd13ifvqc0g","pricing_plan_id":"cebpf4jnsgd1na2vs0mg"},{"bike_id":"4c063a38-d881-4560-8a91-4a1888d38870","system_id":"levelo_inurba_marseille","lat":43.28148,"lon":5.42659,"is_reserved":false,"is_disabled":false,"rental_uris":{"android":"levelo://app?vid=4c063a38-d881-4560-8a91-4a1888d38870","ios":"levelo://app?vid=4c063a38-d881-4560-8a91-4a1888d38870"},"vehicle_type_id":"4","last_reported":1753867123,"current_range_meters":10000,"station_id":"ce4bhnh2rcd13ifvqgug","pricing_plan_id":"cebpf4jnsgd1na2vs0mg"},{"bike_id":"b7234136-bf62-4ef1-9964-a9c43529d354","system_id":"levelo_inurba_marseille","lat":43.31836,"lon":5.39406,"is_reserved":false,"is_disabled":false,"rental_uris":{"android":"levelo://app?vid=b7234136-bf62-4ef1-9964-a9c43529d354","ios":"levelo://app?vid=b7234136-bf62-4ef1-9964-a9c43529d354"},"vehicle_type_id":"4","last_reported":1753867123,"current_range_meters":10000,"station_id":"","pricing_plan_id":"cebpf4jnsgd1na2vs0mg"},{"bike_id":"e137dc03-26cf-440c-b3ea-1ea522645199","system_id":"levelo_inurba_marseille","lat":43.280815,"lon":5.396626,"is_reserved":false,"is_disabled":false,"rental_uris":{"android":"levelo://app?vid=e137dc03-26cf-440c-b3ea-1ea522645199","ios":"levelo://app?vid=e137dc03-26cf-440c-b3ea-1ea522645199"},"vehicle_type_id":"4","last_reported":1753867123,"current_range_meters":10000,"station_id":"","pricing_plan_id":"cebpf4jnsgd1na2vs0mg"},{"bike_id":"ef4d5740-2976-42eb-a41e-11a346ae68f2","system_id":"levelo_inurba_marseille","lat":43.23198,"lon":5.35554,"is_reserved":false,"is_disabled":false,"rental_uris":{"android":"levelo://app?vid=ef4d5740-2976-42eb-a41e-11a346ae68f2","ios":"levelo://app?vid=ef4d5740-2976-42eb-a41e-11a346ae68f2"},"vehicle_type_id":"4","last_reported":1753867123,"current_range_meters":10000,"station_id":"ce4bhu92rcd13ifvqi70","pricing_plan_id":"cebpf4jnsgd1na2vs0mg"},{"bike_id":"e9624a09-b572-4bcb-944b-ef4683557984","system_id":"levelo_inurba_marseille","lat":43.23055,"lon":5.35491,"is_reserved":false,"is_disabled":true,"rental_uris":{"android":"levelo://app?vid=e9624a09-b572-4bcb-944b-ef4683557984","ios":"levelo://app?vid=e9624a09-b572-4bcb-944b-ef4683557984"},"vehicle_type_id":"4","last_reported":1753867123,"current_range_meters":10000,"station_id":"cpo3342slgdg3j2ifvpg","pricing_plan_id":"cebpf4jnsgd1na2vs0mg"},{"bike_id":"9f48b346-faec-4f38-972b-4f84c66eb5e2","system_id":"levelo_inurba_marseille","lat":43.29508,"lon":5.37495,"is_reserved":false,"is_disabled":false,"rental_uris":{"android":"levelo://app?vid=9f48b346-faec-4f38-972b-4f84c66eb5e2","ios":"levelo://app?vid=9f48b346-faec-4f38-972b-4f84c66eb5e2"},"vehicle_type_id":"4","last_reported":1753867123,"current_range_meters":10800,"station_id":"ce4bgkp2rcd13ifvqbmg","pricing_plan_id":"cebpf4jnsgd1na2vs0mg"},{"bike_id":"a3e0b05d-557d-49b5-9128-d4dc18eeff1f","system_id":"levelo_inurba_marseille","lat":43.29686,"lon":5.3731,"is_reserved":false,"is_disabled":false,"rental_uris":{"android":"levelo://app?vid=a3e0b05d-557d-49b5-9128-d4dc18eeff1f","ios":"levelo://app?vid=a3e0b05d-557d-49b5-9128-d4dc18eeff1f"},"vehicle_type_id":"4","last_reported":1753867123,"current_range_meters":10800,"station_id":"ce4bgk12rcd13ifvqbj0","pricing_plan_id":"cebpf4jnsgd1na2vs0mg"},{"bike_id":"872d5b2c-8be4-4ca4-8957-e5c8e30b2999","system_id":"levelo_inurba_marseille","lat":43.29779,"lon":5.37065,"is_reserved":false,"is_disabled":false,"rental_uris":{"android":"levelo://app?vid=872d5b2c-8be4-4ca4-8957-e5c8e30b2999","ios":"levelo://app?vid=872d5b2c-8be4-4ca4-8957-e5c8e30b2999"},"vehicle_type_id":"4","last_reported":1753867123,"current_range_meters":10800,"station_id":"ce4bgop2rcd13ifvqc1g","pricing_plan_id":"cebpf4jnsgd1na2vs0mg"},{"bike_id":"18b4ed07-e4ac-4a19-a32e-2a0213d31546","system_id":"levelo_inurba_marseille","lat":43.26802,"lon":5.39406,"is_reserved":false,"is_disabled":false,"rental_uris":{"android":"levelo://app?vid=18b4ed07-e4ac-4a19-a32e-2a0213d31546","ios":"levelo://app?vid=18b4ed07-e4ac-4a19-a32e-2a0213d31546"},"vehicle_type_id":"4","last_reported":1753867123,"current_range_meters":11200,"station_id":"ce4bhh12rcd13ifvqfg0","pricing_plan_id":"cebpf4jnsgd1na2vs0mg"},{"bike_id":"c1116510-c55e-4206-8002-6ef73f970db5","system_id":"levelo_inurba_marseille","lat":43.28266,"lon":5.35064,"is_reserved":false,"is_disabled":false,"rental_uris":{"android":"levelo://app?vid=c1116510-c55e-4206-8002-6ef73f970db5","ios":"levelo://app?vid=c1116510-c55e-4206-8002-6ef73f970db5"},"vehicle_type_id":"4","last_reported":1753867123,"current_range_meters":11200,"station_id":"ce4bhbp2rcd13ifvqerg","pricing_plan_id":"cebpf4jnsgd1na2vs0mg"},{"bike_id":"ed2653a8-cef8-419b-b19a-e1a7f6058aa9","system_id":"levelo_inurba_marseille","lat":43.23213,"lon":5.35542,"is_reserved":false,"is_disabled":false,"rental_uris":{"android":"levelo://app?vid=ed2653a8-cef8-419b-b19a-e1a7f6058aa9","ios":"levelo://app?vid=ed2653a8-cef8-419b-b19a-e1a7f6058aa9"},"vehicle_type_id":"4","last_reported":1753867123,"current_range_meters":11200,"station_id":"ce4bhu92rcd13ifvqi70","pricing_plan_id":"cebpf4jnsgd1na2vs0mg"},{"bike_id":"a027973f-c8c9-4811-a512-806c935b4c27","system_id":"levelo_inurba_marseille","lat":43.211967,"lon":5.350784,"is_reserved":false,"is_disabled":false,"rental_uris":{"android":"levelo://app?vid=a027973f-c8c9-4811-a512-806c935b4c27","ios":"levelo://app?vid=a027973f-c8c9-4811-a512-806c935b4c27"},"vehicle_type_id":"4","last_reported":1753867123,"current_range_meters":11200,"station_id":"st_cvj6sg6p6f1abm77japg","pricing_plan_id":"cebpf4jnsgd1na2vs0mg"},{"bike_id":"d204994b-2874-4659-837e-835e70d3ea3d","system_id":"levelo_inurba_marseille","lat":43.29268,"lon":5.3845,"is_reserved":false,"is_disabled":false,"rental_uris":{"android":"levelo://app?vid=d204994b-2874-4659-837e-835e70d3ea3d","ios":"levelo://app?vid=d204994b-2874-4659-837e-835e70d3ea3d"},"vehicle_type_id":"4","last_reported":1753867123,"current_range_meters":11200,"station_id":"ce4bh692rcd13ifvqea0","pricing_plan_id":"cebpf4jnsgd1na2vs0mg"},{"bike_id":"938becca-5de5-4c97-bb97-3e45de7eff02","system_id":"levelo_inurba_marseille","lat":43.23203,"lon":5.40004,"is_reserved":false,"is_disabled":false,"rental_uris":{"android":"levelo://app?vid=938becca-5de5-4c97-bb97-3e45de7eff02","ios":"levelo://app?vid=938becca-5de5-4c97-bb97-3e45de7eff02"},"vehicle_type_id":"4","last_reported":1753867123,"current_range_meters":11200,"station_id":"ce4bhn12rcd13ifvqgqg","pricing_plan_id":"cebpf4jnsgd1na2vs0mg"},{"bike_id":"d5b225c9-59f1-4500-b3e4-7c1587169d1a","system_id":"levelo_inurba_marseille","lat":43.28411,"lon":5.34992,"is_reserved":false,"is_disabled":false,"rental_uris":{"android":"levelo://app?vid=d5b225c9-59f1-4500-b3e4-7c1587169d1a","ios":"levelo://app?vid=d5b225c9-59f1-4500-b3e4-7c1587169d1a"},"vehicle_type_id":"4","last_reported":1753867123,"current_range_meters":11200,"station_id":"ce4bhbh2rcd13ifvqepg","pricing_plan_id":"cebpf4jnsgd1na2vs0mg"},{"bike_id":"a97a2f50-3741-40b7-8483-47391cb5e1d2","system_id":"levelo_inurba_marseille","lat":43.2844,"lon":5.39209,"is_reserved":false,"is_disabled":false,"rental_uris":{"android":"levelo://app?vid=a97a2f50-3741-40b7-8483-47391cb5e1d2","ios":"levelo://app?vid=a97a2f50-3741-40b7-8483-47391cb5e1d2"},"vehicle_type_id":"4","last_reported":1753867123,"current_range_meters":11200,"station_id":"ce4bhoh2rcd13ifvqh5g","pricing_plan_id":"cebpf4jnsgd1na2vs0mg"},{"bike_id":"07011de4-93e6-44b9-910b-3084325b7fe4","system_id":"levelo_inurba_marseille","lat":43.32684,"lon":5.39551,"is_reserved":false,"is_disabled":false,"rental_uris":{"android":"levelo://app?vid=07011de4-93e6-44b9-910b-3084325b7fe4","ios":"levelo://app?vid=07011de4-93e6-44b9-910b-3084325b7fe4"},"vehicle_type_id":"4","last_reported":1753867123,"current_range_meters":11200,"station_id":"","pricing_plan_id":"cebpf4jnsgd1na2vs0mg"},{"bike_id":"00de3457-bb26-4f86-be97-d29604933a4d","system_id":"levelo_inurba_marseille","lat":43.28649,"lon":5.37171,"is_reserved":false,"is_disabled":false,"rental_uris":{"android":"levelo://app?vid=00de3457-bb26-4f86-be97-d29604933a4d","ios":"levelo://app?vid=00de3457-bb26-4f86-be97-d29604933a4d"},"vehicle_type_id":"4","last_reported":1753867123,"current_range_meters":11200,"station_id":"","pricing_plan_id":"cebpf4jnsgd1na2vs0mg"},{"bike_id":"343a7930-9aae-4e81-b6a4-9d27a05aa054","system_id":"levelo_inurba_marseille","lat":43.28613,"lon":5.35108,"is_reserved":false,"is_disabled":false,"rental_uris":{"android":"levelo://app?vid=343a7930-9aae-4e81-b6a4-9d27a05aa054","ios":"levelo://app?vid=343a7930-9aae-4e81-b6a4-9d27a05aa054"},"vehicle_type_id":"4","last_reported":1753867123,"current_range_meters":11200,"station_id":"ce4bhch2rcd13ifvqeug","pricing_plan_id":"cebpf4jnsgd1na2vs0mg"},{"bike_id":"45aac5c3-2446-4ec7-8f39-4ac0d7e020e1","system_id":"levelo_inurba_marseille","lat":43.23197,"lon":5.40016,"is_reserved":false,"is_disabled":false,"rental_uris":{"android":"levelo://app?vid=45aac5c3-2446-4ec7-8f39-4ac0d7e020e1","ios":"levelo://app?vid=45aac5c3-2446-4ec7-8f39-4ac0d7e020e1"},"vehicle_type_id":"4","last_reported":1753867123,"current_range_meters":11600,"station_id":"ce4bhn12rcd13ifvqgqg","pricing_plan_id":"cebpf4jnsgd1na2vs0mg"},{"bike_id":"e5571750-a5c8-45e3-96df-322230ea4555","system_id":"levelo_inurba_marseille","lat":43.24389,"lon":5.37054,"is_reserved":false,"is_disabled":false,"rental_uris":{"android":"levelo://app?vid=e5571750-a5c8-45e3-96df-322230ea4555","ios":"levelo://app?vid=e5571750-a5c8-45e3-96df-322230ea4555"},"vehicle_type_id":"4","last_reported":1753867123,"current_range_meters":11600,"station_id":"ce4bhhh2rcd13ifvqfk0","pricing_plan_id":"cebpf4jnsgd1na2vs0mg"},{"bike_id":"94d20c55-fb29-45f9-9932-320c56278e7d","system_id":"levelo_inurba_marseille","lat":43.286112,"lon":5.370699,"is_reserved":false,"is_disabled":false,"rental_uris":{"android":"levelo://app?vid=94d20c55-fb29-45f9-9932-320c56278e7d","ios":"levelo://app?vid=94d20c55-fb29-45f9-9932-320c56278e7d"},"vehicle_type_id":"4","last_reported":1753867123,"current_range_meters":11600,"station_id":"ce4bht12rcd13ifvqi60","pricing_plan_id":"cebpf4jnsgd1na2vs0mg"},{"bike_id":"03512f84-cd81-4d92-a653-768493ed1b9f","system_id":"levelo_inurba_marseille","lat":43.29845,"lon":5.36271,"is_reserved":false,"is_disabled":false,"rental_uris":{"android":"levelo://app?vid=03512f84-cd81-4d92-a653-768493ed1b9f","ios":"levelo://app?vid=03512f84-cd81-4d92-a653-768493ed1b9f"},"vehicle_type_id":"4","last_reported":1753867123,"current_range_meters":11600,"station_id":"ce4bgpp2rcd13ifvqc3g","pricing_plan_id":"cebpf4jnsgd1na2vs0mg"},{"bike_id":"cb30d5a1-6776-4ffa-b252-5340200d88d2","system_id":"levelo_inurba_marseille","lat":43.25122,"lon":5.4036,"is_reserved":false,"is_disabled":false,"rental_uris":{"android":"levelo://app?vid=cb30d5a1-6776-4ffa-b252-5340200d88d2","ios":"levelo://app?vid=cb30d5a1-6776-4ffa-b252-5340200d88d2"},"vehicle_type_id":"4","last_reported":1753867123,"current_range_meters":11600,"station_id":"ce4bhlh2rcd13ifvqgig","pricing_plan_id":"cebpf4jnsgd1na2vs0mg"},{"bike_id":"b48f5dd0-6dba-4454-bab2-8fe0e77c0439","system_id":"levelo_inurba_marseille","lat":43.24168,"lon":5.36387,"is_reserved":false,"is_disabled":false,"rental_uris":{"android":"levelo://app?vid=b48f5dd0-6dba-4454-bab2-8fe0e77c0439","ios":"levelo://app?vid=b48f5dd0-6dba-4454-bab2-8fe0e77c0439"},"vehicle_type_id":"4","last_reported":1753867123,"current_range_meters":12000,"station_id":"cpo36qri1sfpv3e86is0","pricing_plan_id":"cebpf4jnsgd1na2vs0mg"},{"bike_id":"c20b0e63-9b3e-4b98-a321-7a09cecccd35","system_id":"levelo_inurba_marseille","lat":43.24164,"lon":5.36392,"is_reserved":false,"is_disabled":false,"rental_uris":{"android":"levelo://app?vid=c20b0e63-9b3e-4b98-a321-7a09cecccd35","ios":"levelo://app?vid=c20b0e63-9b3e-4b98-a321-7a09cecccd35"},"vehicle_type_id":"4","last_reported":1753867123,"current_range_meters":12000,"station_id":"cpo36qri1sfpv3e86is0","pricing_plan_id":"cebpf4jnsgd1na2vs0mg"},{"bike_id":"7421ac90-33aa-4bc2-a69e-3fae26c45aff","system_id":"levelo_inurba_marseille","lat":43.29716,"lon":5.36605,"is_reserved":false,"is_disabled":false,"rental_uris":{"android":"levelo://app?vid=7421ac90-33aa-4bc2-a69e-3fae26c45aff","ios":"levelo://app?vid=7421ac90-33aa-4bc2-a69e-3fae26c45aff"},"vehicle_type_id":"4","last_reported":1753867123,"current_range_meters":12000,"station_id":"ce4bgn12rcd13ifvqbt0","pricing_plan_id":"cebpf4jnsgd1na2vs0mg"},{"bike_id":"e04978f3-d665-4a61-ae50-6a07923d04b6","system_id":"levelo_inurba_marseille","lat":43.28408,"lon":5.34996,"is_reserved":false,"is_disabled":false,"rental_uris":{"android":"levelo://app?vid=e04978f3-d665-4a61-ae50-6a07923d04b6","ios":"levelo://app?vid=e04978f3-d665-4a61-ae50-6a07923d04b6"},"vehicle_type_id":"4","last_reported":1753867123,"current_range_meters":12400,"station_id":"ce4bhbh2rcd13ifvqepg","pricing_plan_id":"cebpf4jnsgd1na2vs0mg"},{"bike_id":"58d60ef7-501e-48a0-a97f-c0e09ff3aab0","system_id":"levelo_inurba_marseille","lat":43.222792,"lon":5.345958,"is_reserved":false,"is_disabled":false,"rental_uris":{"android":"levelo://app?vid=58d60ef7-501e-48a0-a97f-c0e09ff3aab0","ios":"levelo://app?vid=58d60ef7-501e-48a0-a97f-c0e09ff3aab0"},"vehicle_type_id":"4","last_reported":1753867123,"current_range_meters":12400,"station_id":"ce4bhp92rcd13ifvqhag","pricing_plan_id":"cebpf4jnsgd1na2vs0mg"},{"bike_id":"1c988531-e903-49ef-84ba-585f5f138f9d","system_id":"levelo_inurba_marseille","lat":43.27913,"lon":5.395747,"is_reserved":false,"is_disabled":false,"rental_uris":{"android":"levelo://app?vid=1c988531-e903-49ef-84ba-585f5f138f9d","ios":"levelo://app?vid=1c988531-e903-49ef-84ba-585f5f138f9d"},"vehicle_type_id":"4","last_reported":1753867123,"current_range_meters":12400,"station_id":"ce4bhf92rcd13ifvqf40","pricing_plan_id":"cebpf4jnsgd1na2vs0mg"},{"bike_id":"135ab1ea-fc9a-4785-9240-6bfa3adf7c7c","system_id":"levelo_inurba_marseille","lat":43.32323,"lon":5.36569,"is_reserved":false,"is_disabled":false,"rental_uris":{"android":"levelo://app?vid=135ab1ea-fc9a-4785-9240-6bfa3adf7c7c","ios":"levelo://app?vid=135ab1ea-fc9a-4785-9240-6bfa3adf7c7c"},"vehicle_type_id":"4","last_reported":1753867123,"current_range_meters":12800,"station_id":"","pricing_plan_id":"cebpf4jnsgd1na2vs0mg"},{"bike_id":"e835e740-02a8-4b55-b83d-8f7e332e158e","system_id":"levelo_inurba_marseille","lat":43.23053,"lon":5.35502,"is_reserved":false,"is_disabled":false,"rental_uris":{"android":"levelo://app?vid=e835e740-02a8-4b55-b83d-8f7e332e158e","ios":"levelo://app?vid=e835e740-02a8-4b55-b83d-8f7e332e158e"},"vehicle_type_id":"4","last_reported":1753867123,"current_range_meters":12800,"station_id":"cpo3342slgdg3j2ifvpg","pricing_plan_id":"cebpf4jnsgd1na2vs0mg"},{"bike_id":"3c65e3a4-d98b-4db2-8d36-951b9612ba65","system_id":"levelo_inurba_marseille","lat":43.231904,"lon":5.355513,"is_reserved":false,"is_disabled":false,"rental_uris":{"android":"levelo://app?vid=3c65e3a4-d98b-4db2-8d36-951b9612ba65","ios":"levelo://app?vid=3c65e3a4-d98b-4db2-8d36-951b9612ba65"},"vehicle_type_id":"4","last_reported":1753867123,"current_range_meters":12800,"station_id":"ce4bhu92rcd13ifvqi70","pricing_plan_id":"cebpf4jnsgd1na2vs0mg"},{"bike_id":"f129605f-c561-462b-9dd8-38b1fae764e6","system_id":"levelo_inurba_marseille","lat":43.323448,"lon":5.367194,"is_reserved":false,"is_disabled":false,"rental_uris":{"android":"levelo://app?vid=f129605f-c561-462b-9dd8-38b1fae764e6","ios":"levelo://app?vid=f129605f-c561-462b-9dd8-38b1fae764e6"},"vehicle_type_id":"4","last_reported":1753867123,"current_range_meters":12800,"station_id":"ce4bhsh2rcd13ifvqi2g","pricing_plan_id":"cebpf4jnsgd1na2vs0mg"},{"bike_id":"aafc3bc1-c1be-40f5-91e7-c27bec18fc48","system_id":"levelo_inurba_marseille","lat":43.27217,"lon":5.41037,"is_reserved":false,"is_disabled":false,"rental_uris":{"android":"levelo://app?vid=aafc3bc1-c1be-40f5-91e7-c27bec18fc48","ios":"levelo://app?vid=aafc3bc1-c1be-40f5-91e7-c27bec18fc48"},"vehicle_type_id":"4","last_reported":1753867123,"current_range_meters":12800,"station_id":"ce4bhl12rcd13ifvqgf0","pricing_plan_id":"cebpf4jnsgd1na2vs0mg"},{"bike_id":"47f6f655-c10e-4acf-8866-49cd6d4979e9","system_id":"levelo_inurba_marseille","lat":43.27918,"lon":5.39576,"is_reserved":false,"is_disabled":false,"rental_uris":{"android":"levelo://app?vid=47f6f655-c10e-4acf-8866-49cd6d4979e9","ios":"levelo://app?vid=47f6f655-c10e-4acf-8866-49cd6d4979e9"},"vehicle_type_id":"4","last_reported":1753867123,"current_range_meters":12800,"station_id":"ce4bhf92rcd13ifvqf40","pricing_plan_id":"cebpf4jnsgd1na2vs0mg"},{"bike_id":"23cb5642-15b1-4dff-8751-77349dab4204","system_id":"levelo_inurba_marseille","lat":43.229414,"lon":5.353597,"is_reserved":false,"is_disabled":false,"rental_uris":{"android":"levelo://app?vid=23cb5642-15b1-4dff-8751-77349dab4204","ios":"levelo://app?vid=23cb5642-15b1-4dff-8751-77349dab4204"},"vehicle_type_id":"4","last_reported":1753867123,"current_range_meters":13600,"station_id":"cpo3532slgdg3j2ikp40","pricing_plan_id":"cebpf4jnsgd1na2vs0mg"},{"bike_id":"8f41ed9d-1778-4af7-b2ad-fd1607beff4e","system_id":"levelo_inurba_marseille","lat":43.22509,"lon":5.3476,"is_reserved":false,"is_disabled":false,"rental_uris":{"android":"levelo://app?vid=8f41ed9d-1778-4af7-b2ad-fd1607beff4e","ios":"levelo://app?vid=8f41ed9d-1778-4af7-b2ad-fd1607beff4e"},"vehicle_type_id":"4","last_reported":1753867123,"current_range_meters":13600,"station_id":"st_cvj5dfep6f1abm77gieg","pricing_plan_id":"cebpf4jnsgd1na2vs0mg"},{"bike_id":"a4ee2dcd-4c4f-415e-a6ee-b0b0c00440a0","system_id":"levelo_inurba_marseille","lat":43.28267,"lon":5.35061,"is_reserved":false,"is_disabled":false,"rental_uris":{"android":"levelo://app?vid=a4ee2dcd-4c4f-415e-a6ee-b0b0c00440a0","ios":"levelo://app?vid=a4ee2dcd-4c4f-415e-a6ee-b0b0c00440a0"},"vehicle_type_id":"4","last_reported":1753867123,"current_range_meters":13600,"station_id":"ce4bhbp2rcd13ifvqerg","pricing_plan_id":"cebpf4jnsgd1na2vs0mg"},{"bike_id":"056e4f3d-4ab7-42da-9834-2ca05b8a0f52","system_id":"levelo_inurba_marseille","lat":43.31478,"lon":5.36862,"is_reserved":false,"is_disabled":false,"rental_uris":{"android":"levelo://app?vid=056e4f3d-4ab7-42da-9834-2ca05b8a0f52","ios":"levelo://app?vid=056e4f3d-4ab7-42da-9834-2ca05b8a0f52"},"vehicle_type_id":"4","last_reported":1753867123,"current_range_meters":13600,"station_id":"","pricing_plan_id":"cebpf4jnsgd1na2vs0mg"},{"bike_id":"9eec0301-4694-4b5a-824c-d28ac74d4fc4","system_id":"levelo_inurba_marseille","lat":43.26217,"lon":5.37445,"is_reserved":false,"is_disabled":false,"rental_uris":{"android":"levelo://app?vid=9eec0301-4694-4b5a-824c-d28ac74d4fc4","ios":"levelo://app?vid=9eec0301-4694-4b5a-824c-d28ac74d4fc4"},"vehicle_type_id":"4","last_reported":1753867123,"current_range_meters":13600,"station_id":"ce4bhgp2rcd13ifvqfc0","pricing_plan_id":"cebpf4jnsgd1na2vs0mg"},{"bike_id":"e821e31a-1165-4015-a272-618d57f40e4f","system_id":"levelo_inurba_marseille","lat":43.29602,"lon":5.38088,"is_reserved":false,"is_disabled":false,"rental_uris":{"android":"levelo://app?vid=e821e31a-1165-4015-a272-618d57f40e4f","ios":"levelo://app?vid=e821e31a-1165-4015-a272-618d57f40e4f"},"vehicle_type_id":"4","last_reported":1753867123,"current_range_meters":14000,"station_id":"ce4bgl12rcd13ifvqbo0","pricing_plan_id":"cebpf4jnsgd1na2vs0mg"},{"bike_id":"27121016-03d3-4670-9ce6-a156435b86ae","system_id":"levelo_inurba_marseille","lat":43.32332,"lon":5.40632,"is_reserved":false,"is_disabled":false,"rental_uris":{"android":"levelo://app?vid=27121016-03d3-4670-9ce6-a156435b86ae","ios":"levelo://app?vid=27121016-03d3-4670-9ce6-a156435b86ae"},"vehicle_type_id":"4","last_reported":1753867123,"current_range_meters":14000,"station_id":"ce4bhq92rcd13ifvqhjg","pricing_plan_id":"cebpf4jnsgd1na2vs0mg"},{"bike_id":"85d95a9a-bae1-4127-a50f-dff98ce29fd5","system_id":"levelo_inurba_marseille","lat":43.324849,"lon":5.373784,"is_reserved":false,"is_disabled":false,"rental_uris":{"android":"levelo://app?vid=85d95a9a-bae1-4127-a50f-dff98ce29fd5","ios":"levelo://app?vid=85d95a9a-bae1-4127-a50f-dff98ce29fd5"},"vehicle_type_id":"4","last_reported":1753867123,"current_range_meters":14000,"station_id":"","pricing_plan_id":"cebpf4jnsgd1na2vs0mg"},{"bike_id":"671701a9-7243-46ba-9df9-fa49b6935265","system_id":"levelo_inurba_marseille","lat":43.259875,"lon":5.372417,"is_reserved":false,"is_disabled":false,"rental_uris":{"android":"levelo://app?vid=671701a9-7243-46ba-9df9-fa49b6935265","ios":"levelo://app?vid=671701a9-7243-46ba-9df9-fa49b6935265"},"vehicle_type_id":"4","last_reported":1753867123,"current_range_meters":14000,"station_id":"","pricing_plan_id":"cebpf4jnsgd1na2vs0mg"},{"bike_id":"24ddc855-9db1-447b-8cc7-fb33f85a47fb","system_id":"levelo_inurba_marseille","lat":43.30595,"lon":5.37213,"is_reserved":false,"is_disabled":false,"rental_uris":{"android":"levelo://app?vid=24ddc855-9db1-447b-8cc7-fb33f85a47fb","ios":"levelo://app?vid=24ddc855-9db1-447b-8cc7-fb33f85a47fb"},"vehicle_type_id":"4","last_reported":1753867123,"current_range_meters":14000,"station_id":"ce4bgqh2rcd13ifvqc4g","pricing_plan_id":"cebpf4jnsgd1na2vs0mg"},{"bike_id":"58393c2c-caac-478a-92a7-0dad0c9ca20d","system_id":"levelo_inurba_marseille","lat":43.26765,"lon":5.39485,"is_reserved":false,"is_disabled":false,"rental_uris":{"android":"levelo://app?vid=58393c2c-caac-478a-92a7-0dad0c9ca20d","ios":"levelo://app?vid=58393c2c-caac-478a-92a7-0dad0c9ca20d"},"vehicle_type_id":"4","last_reported":1753867123,"current_range_meters":14000,"station_id":"","pricing_plan_id":"cebpf4jnsgd1na2vs0mg"},{"bike_id":"a6a46ae2-d764-44ee-baf2-a76e49bd9084","system_id":"levelo_inurba_marseille","lat":43.26991,"lon":5.40302,"is_reserved":false,"is_disabled":false,"rental_uris":{"android":"levelo://app?vid=a6a46ae2-d764-44ee-baf2-a76e49bd9084","ios":"levelo://app?vid=a6a46ae2-d764-44ee-baf2-a76e49bd9084"},"vehicle_type_id":"4","last_reported":1753867123,"current_range_meters":14000,"station_id":"","pricing_plan_id":"cebpf4jnsgd1na2vs0mg"},{"bike_id":"c686771c-e4d6-4ee5-934b-f3ca190b833e","system_id":"levelo_inurba_marseille","lat":43.32765,"lon":5.39204,"is_reserved":false,"is_disabled":false,"rental_uris":{"android":"levelo://app?vid=c686771c-e4d6-4ee5-934b-f3ca190b833e","ios":"levelo://app?vid=c686771c-e4d6-4ee5-934b-f3ca190b833e"},"vehicle_type_id":"4","last_reported":1753867123,"current_range_meters":14000,"station_id":"","pricing_plan_id":"cebpf4jnsgd1na2vs0mg"},{"bike_id":"b91a9b2b-e08f-43fd-9334-860ca3b95422","system_id":"levelo_inurba_marseille","lat":43.29573,"lon":5.37515,"is_reserved":false,"is_disabled":false,"rental_uris":{"android":"levelo://app?vid=b91a9b2b-e08f-43fd-9334-860ca3b95422","ios":"levelo://app?vid=b91a9b2b-e08f-43fd-9334-860ca3b95422"},"vehicle_type_id":"4","last_reported":1753867123,"current_range_meters":14000,"station_id":"ce4bgh92rcd13ifvqb50","pricing_plan_id":"cebpf4jnsgd1na2vs0mg"},{"bike_id":"54e7cdb8-8b26-4b12-952e-b9e75eb92c0c","system_id":"levelo_inurba_marseille","lat":43.29047,"lon":5.3591,"is_reserved":false,"is_disabled":false,"rental_uris":{"android":"levelo://app?vid=54e7cdb8-8b26-4b12-952e-b9e75eb92c0c","ios":"levelo://app?vid=54e7cdb8-8b26-4b12-952e-b9e75eb92c0c"},"vehicle_type_id":"4","last_reported":1753867123,"current_range_meters":14000,"station_id":"ce4bha92rcd13ifvqeg0","pricing_plan_id":"cebpf4jnsgd1na2vs0mg"},{"bike_id":"13e261d5-decf-4e0f-9a18-3723f6b81cd5","system_id":"levelo_inurba_marseille","lat":43.27442,"lon":5.39406,"is_reserved":false,"is_disabled":false,"rental_uris":{"android":"levelo://app?vid=13e261d5-decf-4e0f-9a18-3723f6b81cd5","ios":"levelo://app?vid=13e261d5-decf-4e0f-9a18-3723f6b81cd5"},"vehicle_type_id":"4","last_reported":1753867123,"current_range_meters":14400,"station_id":"ce4bhdp2rcd13ifvqf20","pricing_plan_id":"cebpf4jnsgd1na2vs0mg"},{"bike_id":"bc84d725-bb67-404d-b921-db03ae244e8a","system_id":"levelo_inurba_marseille","lat":43.31319,"lon":5.36755,"is_reserved":false,"is_disabled":false,"rental_uris":{"android":"levelo://app?vid=bc84d725-bb67-404d-b921-db03ae244e8a","ios":"levelo://app?vid=bc84d725-bb67-404d-b921-db03ae244e8a"},"vehicle_type_id":"4","last_reported":1753867123,"current_range_meters":14400,"station_id":"ce4bgr92rcd13ifvqc6g","pricing_plan_id":"cebpf4jnsgd1na2vs0mg"},{"bike_id":"a8cb0696-e3c5-42bf-8e8b-31897b360093","system_id":"levelo_inurba_marseille","lat":43.29848,"lon":5.36291,"is_reserved":false,"is_disabled":false,"rental_uris":{"android":"levelo://app?vid=a8cb0696-e3c5-42bf-8e8b-31897b360093","ios":"levelo://app?vid=a8cb0696-e3c5-42bf-8e8b-31897b360093"},"vehicle_type_id":"4","last_reported":1753867123,"current_range_meters":14400,"station_id":"ce4bgpp2rcd13ifvqc3g","pricing_plan_id":"cebpf4jnsgd1na2vs0mg"},{"bike_id":"2fad1b6f-d0b7-4211-9b9d-661d7c090096","system_id":"levelo_inurba_marseille","lat":43.29815,"lon":5.4335,"is_reserved":false,"is_disabled":false,"rental_uris":{"android":"levelo://app?vid=2fad1b6f-d0b7-4211-9b9d-661d7c090096","ios":"levelo://app?vid=2fad1b6f-d0b7-4211-9b9d-661d7c090096"},"vehicle_type_id":"4","last_reported":1753867123,"current_range_meters":14400,"station_id":"","pricing_plan_id":"cebpf4jnsgd1na2vs0mg"},{"bike_id":"a49b4aa4-951e-481d-bd4e-d53b799767cb","system_id":"levelo_inurba_marseille","lat":43.21743,"lon":5.34621,"is_reserved":false,"is_disabled":false,"rental_uris":{"android":"levelo://app?vid=a49b4aa4-951e-481d-bd4e-d53b799767cb","ios":"levelo://app?vid=a49b4aa4-951e-481d-bd4e-d53b799767cb"},"vehicle_type_id":"4","last_reported":1753867123,"current_range_meters":13600,"station_id":"","pricing_plan_id":"cebpf4jnsgd1na2vs0mg"},{"bike_id":"a36bd7ba-074a-442d-8f4e-bb3cc65a52a2","system_id":"levelo_inurba_marseille","lat":43.29214,"lon":5.39567,"is_reserved":false,"is_disabled":false,"rental_uris":{"android":"levelo://app?vid=a36bd7ba-074a-442d-8f4e-bb3cc65a52a2","ios":"levelo://app?vid=a36bd7ba-074a-442d-8f4e-bb3cc65a52a2"},"vehicle_type_id":"4","last_reported":1753867123,"current_range_meters":14400,"station_id":"","pricing_plan_id":"cebpf4jnsgd1na2vs0mg"},{"bike_id":"5ff7b424-be72-460e-9279-c80ac3b388ac","system_id":"levelo_inurba_marseille","lat":43.231871,"lon":5.399953,"is_reserved":false,"is_disabled":false,"rental_uris":{"android":"levelo://app?vid=5ff7b424-be72-460e-9279-c80ac3b388ac","ios":"levelo://app?vid=5ff7b424-be72-460e-9279-c80ac3b388ac"},"vehicle_type_id":"4","last_reported":1753867123,"current_range_meters":14400,"station_id":"ce4bhn12rcd13ifvqgqg","pricing_plan_id":"cebpf4jnsgd1na2vs0mg"},{"bike_id":"3d60e95a-8706-4e13-b31f-ac7a913f607a","system_id":"levelo_inurba_marseille","lat":43.22925,"lon":5.35406,"is_reserved":false,"is_disabled":false,"rental_uris":{"android":"levelo://app?vid=3d60e95a-8706-4e13-b31f-ac7a913f607a","ios":"levelo://app?vid=3d60e95a-8706-4e13-b31f-ac7a913f607a"},"vehicle_type_id":"4","last_reported":1753867123,"current_range_meters":14800,"station_id":"cpo3532slgdg3j2ikp40","pricing_plan_id":"cebpf4jnsgd1na2vs0mg"},{"bike_id":"b27f7c8b-7cd5-4085-b45b-deae2c92eef8","system_id":"levelo_inurba_marseille","lat":43.29713,"lon":5.37701,"is_reserved":false,"is_disabled":false,"rental_uris":{"android":"levelo://app?vid=b27f7c8b-7cd5-4085-b45b-deae2c92eef8","ios":"levelo://app?vid=b27f7c8b-7cd5-4085-b45b-deae2c92eef8"},"vehicle_type_id":"4","last_reported":1753867123,"current_range_meters":14800,"station_id":"ce4bgkh2rcd13ifvqbl0","pricing_plan_id":"cebpf4jnsgd1na2vs0mg"},{"bike_id":"ae6c8428-e39e-40be-9df7-f418521aa777","system_id":"levelo_inurba_marseille","lat":43.22926,"lon":5.35383,"is_reserved":false,"is_disabled":false,"rental_uris":{"android":"levelo://app?vid=ae6c8428-e39e-40be-9df7-f418521aa777","ios":"levelo://app?vid=ae6c8428-e39e-40be-9df7-f418521aa777"},"vehicle_type_id":"4","last_reported":1753867123,"current_range_meters":14800,"station_id":"cpo3532slgdg3j2ikp40","pricing_plan_id":"cebpf4jnsgd1na2vs0mg"},{"bike_id":"01536e21-41d1-4d74-a5d1-e5beb8376b37","system_id":"levelo_inurba_marseille","lat":43.24167,"lon":5.36398,"is_reserved":false,"is_disabled":false,"rental_uris":{"android":"levelo://app?vid=01536e21-41d1-4d74-a5d1-e5beb8376b37","ios":"levelo://app?vid=01536e21-41d1-4d74-a5d1-e5beb8376b37"},"vehicle_type_id":"4","last_reported":1753867123,"current_range_meters":14800,"station_id":"cpo36qri1sfpv3e86is0","pricing_plan_id":"cebpf4jnsgd1na2vs0mg"},{"bike_id":"33039fb8-90b0-4005-8d05-106d7a03d731","system_id":"levelo_inurba_marseille","lat":43.296,"lon":5.38108,"is_reserved":false,"is_disabled":false,"rental_uris":{"android":"levelo://app?vid=33039fb8-90b0-4005-8d05-106d7a03d731","ios":"levelo://app?vid=33039fb8-90b0-4005-8d05-106d7a03d731"},"vehicle_type_id":"4","last_reported":1753867123,"current_range_meters":14800,"station_id":"ce4bgl12rcd13ifvqbo0","pricing_plan_id":"cebpf4jnsgd1na2vs0mg"},{"bike_id":"116d91c8-22c6-44b9-ad68-dfbfbe9e23dc","system_id":"levelo_inurba_marseille","lat":43.32482,"lon":5.36581,"is_reserved":false,"is_disabled":false,"rental_uris":{"android":"levelo://app?vid=116d91c8-22c6-44b9-ad68-dfbfbe9e23dc","ios":"levelo://app?vid=116d91c8-22c6-44b9-ad68-dfbfbe9e23dc"},"vehicle_type_id":"4","last_reported":1753867123,"current_range_meters":14800,"station_id":"ce4bhs12rcd13ifvqhvg","pricing_plan_id":"cebpf4jnsgd1na2vs0mg"},{"bike_id":"e68b2be1-75be-4282-8cfd-51c902aed33c","system_id":"levelo_inurba_marseille","lat":43.27976,"lon":5.3875,"is_reserved":false,"is_disabled":false,"rental_uris":{"android":"levelo://app?vid=e68b2be1-75be-4282-8cfd-51c902aed33c","ios":"levelo://app?vid=e68b2be1-75be-4282-8cfd-51c902aed33c"},"vehicle_type_id":"4","last_reported":1753867123,"current_range_meters":14800,"station_id":"ce4bhg12rcd13ifvqf80","pricing_plan_id":"cebpf4jnsgd1na2vs0mg"},{"bike_id":"52a7c1fa-c134-4c5c-b8ee-eb752a4d0d17","system_id":"levelo_inurba_marseille","lat":43.28422,"lon":5.34972,"is_reserved":false,"is_disabled":false,"rental_uris":{"android":"levelo://app?vid=52a7c1fa-c134-4c5c-b8ee-eb752a4d0d17","ios":"levelo://app?vid=52a7c1fa-c134-4c5c-b8ee-eb752a4d0d17"},"vehicle_type_id":"4","last_reported":1753867123,"current_range_meters":14800,"station_id":"ce4bhbh2rcd13ifvqepg","pricing_plan_id":"cebpf4jnsgd1na2vs0mg"},{"bike_id":"bd29920e-d0ec-4d53-9907-b0ffd0db20b8","system_id":"levelo_inurba_marseille","lat":43.29173,"lon":5.3715,"is_reserved":false,"is_disabled":false,"rental_uris":{"android":"levelo://app?vid=bd29920e-d0ec-4d53-9907-b0ffd0db20b8","ios":"levelo://app?vid=bd29920e-d0ec-4d53-9907-b0ffd0db20b8"},"vehicle_type_id":"4","last_reported":1753867123,"current_range_meters":15200,"station_id":"ce4bha92rcd13ifvqeh0","pricing_plan_id":"cebpf4jnsgd1na2vs0mg"},{"bike_id":"b44d763b-4f92-4731-b76a-85ebcd91acd5","system_id":"levelo_inurba_marseille","lat":43.30209,"lon":5.37153,"is_reserved":false,"is_disabled":false,"rental_uris":{"android":"levelo://app?vid=b44d763b-4f92-4731-b76a-85ebcd91acd5","ios":"levelo://app?vid=b44d763b-4f92-4731-b76a-85ebcd91acd5"},"vehicle_type_id":"4","last_reported":1753867123,"current_range_meters":15200,"station_id":"","pricing_plan_id":"cebpf4jnsgd1na2vs0mg"},{"bike_id":"97e0cc1c-fa5d-41b9-8b72-3eed848ec1f7","system_id":"levelo_inurba_marseille","lat":43.330295,"lon":5.390706,"is_reserved":false,"is_disabled":false,"rental_uris":{"android":"levelo://app?vid=97e0cc1c-fa5d-41b9-8b72-3eed848ec1f7","ios":"levelo://app?vid=97e0cc1c-fa5d-41b9-8b72-3eed848ec1f7"},"vehicle_type_id":"4","last_reported":1753867123,"current_range_meters":15200,"station_id":"ce4bhr92rcd13ifvqhrg","pricing_plan_id":"cebpf4jnsgd1na2vs0mg"},{"bike_id":"19295018-235d-4f62-9c12-0203c908e699","system_id":"levelo_inurba_marseille","lat":43.22924,"lon":5.35367,"is_reserved":false,"is_disabled":false,"rental_uris":{"android":"levelo://app?vid=19295018-235d-4f62-9c12-0203c908e699","ios":"levelo://app?vid=19295018-235d-4f62-9c12-0203c908e699"},"vehicle_type_id":"4","last_reported":1753867123,"current_range_meters":16000,"station_id":"cpo3532slgdg3j2ikp40","pricing_plan_id":"cebpf4jnsgd1na2vs0mg"},{"bike_id":"f1ed74e1-4ccb-49ad-9bf5-1fd7f0f0d470","system_id":"levelo_inurba_marseille","lat":43.27909,"lon":5.39592,"is_reserved":false,"is_disabled":false,"rental_uris":{"android":"levelo://app?vid=f1ed74e1-4ccb-49ad-9bf5-1fd7f0f0d470","ios":"levelo://app?vid=f1ed74e1-4ccb-49ad-9bf5-1fd7f0f0d470"},"vehicle_type_id":"4","last_reported":1753867123,"current_range_meters":16000,"station_id":"ce4bhf92rcd13ifvqf40","pricing_plan_id":"cebpf4jnsgd1na2vs0mg"},{"bike_id":"6f47bd7d-3516-4b85-8609-2fce8d195afb","system_id":"levelo_inurba_marseille","lat":43.30542,"lon":5.36552,"is_reserved":false,"is_disabled":false,"rental_uris":{"android":"levelo://app?vid=6f47bd7d-3516-4b85-8609-2fce8d195afb","ios":"levelo://app?vid=6f47bd7d-3516-4b85-8609-2fce8d195afb"},"vehicle_type_id":"4","last_reported":1753867123,"current_range_meters":16000,"station_id":"ce4bgs12rcd13ifvqcag","pricing_plan_id":"cebpf4jnsgd1na2vs0mg"},{"bike_id":"8423498e-f13f-4fe9-a2a7-49d2f1d71a92","system_id":"levelo_inurba_marseille","lat":43.3085,"lon":5.3815,"is_reserved":false,"is_disabled":false,"rental_uris":{"android":"levelo://app?vid=8423498e-f13f-4fe9-a2a7-49d2f1d71a92","ios":"levelo://app?vid=8423498e-f13f-4fe9-a2a7-49d2f1d71a92"},"vehicle_type_id":"4","last_reported":1753867123,"current_range_meters":16000,"station_id":"","pricing_plan_id":"cebpf4jnsgd1na2vs0mg"},{"bike_id":"5f72df66-2d68-4c6e-a917-44e1dcfede98","system_id":"levelo_inurba_marseille","lat":43.22934,"lon":5.35381,"is_reserved":false,"is_disabled":false,"rental_uris":{"android":"levelo://app?vid=5f72df66-2d68-4c6e-a917-44e1dcfede98","ios":"levelo://app?vid=5f72df66-2d68-4c6e-a917-44e1dcfede98"},"vehicle_type_id":"4","last_reported":1753867123,"current_range_meters":16000,"station_id":"cpo3532slgdg3j2ikp40","pricing_plan_id":"cebpf4jnsgd1na2vs0mg"},{"bike_id":"08a4daad-92c6-4c11-9b37-74d84de06af8","system_id":"levelo_inurba_marseille","lat":43.30317,"lon":5.36925,"is_reserved":false,"is_disabled":false,"rental_uris":{"android":"levelo://app?vid=08a4daad-92c6-4c11-9b37-74d84de06af8","ios":"levelo://app?vid=08a4daad-92c6-4c11-9b37-74d84de06af8"},"vehicle_type_id":"4","last_reported":1753867123,"current_range_meters":16000,"station_id":"ce4bgqh2rcd13ifvqc5g","pricing_plan_id":"cebpf4jnsgd1na2vs0mg"},{"bike_id":"48cc6657-42dc-4f3b-aa4c-2d32d0b5031a","system_id":"levelo_inurba_marseille","lat":43.29532,"lon":5.38542,"is_reserved":false,"is_disabled":false,"rental_uris":{"android":"levelo://app?vid=48cc6657-42dc-4f3b-aa4c-2d32d0b5031a","ios":"levelo://app?vid=48cc6657-42dc-4f3b-aa4c-2d32d0b5031a"},"vehicle_type_id":"4","last_reported":1753867123,"current_range_meters":16000,"station_id":"ce4bgih2rcd13ifvqba0","pricing_plan_id":"cebpf4jnsgd1na2vs0mg"},{"bike_id":"daabd21d-fe72-4bef-9caa-c5886e1b6fe4","system_id":"levelo_inurba_marseille","lat":43.31996,"lon":5.37452,"is_reserved":false,"is_disabled":false,"rental_uris":{"android":"levelo://app?vid=daabd21d-fe72-4bef-9caa-c5886e1b6fe4","ios":"levelo://app?vid=daabd21d-fe72-4bef-9caa-c5886e1b6fe4"},"vehicle_type_id":"4","last_reported":1753867123,"current_range_meters":16000,"station_id":"","pricing_plan_id":"cebpf4jnsgd1na2vs0mg"},{"bike_id":"2e1bdbd1-042c-4bf4-b623-908b6301c20d","system_id":"levelo_inurba_marseille","lat":43.28147,"lon":5.44186,"is_reserved":false,"is_disabled":false,"rental_uris":{"android":"levelo://app?vid=2e1bdbd1-042c-4bf4-b623-908b6301c20d","ios":"levelo://app?vid=2e1bdbd1-042c-4bf4-b623-908b6301c20d"},"vehicle_type_id":"4","last_reported":1753867123,"current_range_meters":16000,"station_id":"","pricing_plan_id":"cebpf4jnsgd1na2vs0mg"},{"bike_id":"6b5a8423-59e6-41e0-9800-c3f91ce1824a","system_id":"levelo_inurba_marseille","lat":43.24666,"lon":5.38169,"is_reserved":false,"is_disabled":true,"rental_uris":{"android":"levelo://app?vid=6b5a8423-59e6-41e0-9800-c3f91ce1824a","ios":"levelo://app?vid=6b5a8423-59e6-41e0-9800-c3f91ce1824a"},"vehicle_type_id":"4","last_reported":1753867123,"current_range_meters":16000,"station_id":"ce4bhih2rcd13ifvqfr0","pricing_plan_id":"cebpf4jnsgd1na2vs0mg"},{"bike_id":"a05992f6-1f51-4dbf-8921-4ad77bab57e9","system_id":"levelo_inurba_marseille","lat":43.24167,"lon":5.36389,"is_reserved":false,"is_disabled":false,"rental_uris":{"android":"levelo://app?vid=a05992f6-1f51-4dbf-8921-4ad77bab57e9","ios":"levelo://app?vid=a05992f6-1f51-4dbf-8921-4ad77bab57e9"},"vehicle_type_id":"4","last_reported":1753867123,"current_range_meters":16000,"station_id":"cpo36qri1sfpv3e86is0","pricing_plan_id":"cebpf4jnsgd1na2vs0mg"},{"bike_id":"006989d0-e964-4aa4-ad1e-5b81a65c337e","system_id":"levelo_inurba_marseille","lat":43.308,"lon":5.38164,"is_reserved":false,"is_disabled":true,"rental_uris":{"android":"levelo://app?vid=006989d0-e964-4aa4-ad1e-5b81a65c337e","ios":"levelo://app?vid=006989d0-e964-4aa4-ad1e-5b81a65c337e"},"vehicle_type_id":"4","last_reported":1753867123,"current_range_meters":16000,"station_id":"ce4bgt12rcd13ifvqce0","pricing_plan_id":"cebpf4jnsgd1na2vs0mg"},{"bike_id":"212e5cba-9e3e-4729-afba-f536276883e1","system_id":"levelo_inurba_marseille","lat":43.25017,"lon":5.38927,"is_reserved":false,"is_disabled":false,"rental_uris":{"android":"levelo://app?vid=212e5cba-9e3e-4729-afba-f536276883e1","ios":"levelo://app?vid=212e5cba-9e3e-4729-afba-f536276883e1"},"vehicle_type_id":"4","last_reported":1753867123,"current_range_meters":16000,"station_id":"ce4bhgp2rcd13ifvqfd0","pricing_plan_id":"cebpf4jnsgd1na2vs0mg"},{"bike_id":"14c963df-feca-4be0-9680-aec6482d06b2","system_id":"levelo_inurba_marseille","lat":43.29939,"lon":5.38615,"is_reserved":false,"is_disabled":false,"rental_uris":{"android":"levelo://app?vid=14c963df-feca-4be0-9680-aec6482d06b2","ios":"levelo://app?vid=14c963df-feca-4be0-9680-aec6482d06b2"},"vehicle_type_id":"4","last_reported":1753867123,"current_range_meters":16400,"station_id":"","pricing_plan_id":"cebpf4jnsgd1na2vs0mg"},{"bike_id":"59a6b5a4-98f4-449c-9f08-0a39f974a7a5","system_id":"levelo_inurba_marseille","lat":43.22494,"lon":5.34781,"is_reserved":false,"is_disabled":false,"rental_uris":{"android":"levelo://app?vid=59a6b5a4-98f4-449c-9f08-0a39f974a7a5","ios":"levelo://app?vid=59a6b5a4-98f4-449c-9f08-0a39f974a7a5"},"vehicle_type_id":"4","last_reported":1753867123,"current_range_meters":16400,"station_id":"st_cvj5dfep6f1abm77gieg","pricing_plan_id":"cebpf4jnsgd1na2vs0mg"},{"bike_id":"3ade2723-600a-4a28-a636-9f0444046ba7","system_id":"levelo_inurba_marseille","lat":43.25923,"lon":5.40952,"is_reserved":false,"is_disabled":false,"rental_uris":{"android":"levelo://app?vid=3ade2723-600a-4a28-a636-9f0444046ba7","ios":"levelo://app?vid=3ade2723-600a-4a28-a636-9f0444046ba7"},"vehicle_type_id":"4","last_reported":1753867123,"current_range_meters":16400,"station_id":"ce4bhm92rcd13ifvqglg","pricing_plan_id":"cebpf4jnsgd1na2vs0mg"},{"bike_id":"3d4696de-a064-4a37-9930-53ec06ebfbfd","system_id":"levelo_inurba_marseille","lat":43.31237,"lon":5.3688,"is_reserved":false,"is_disabled":false,"rental_uris":{"android":"levelo://app?vid=3d4696de-a064-4a37-9930-53ec06ebfbfd","ios":"levelo://app?vid=3d4696de-a064-4a37-9930-53ec06ebfbfd"},"vehicle_type_id":"4","last_reported":1753867123,"current_range_meters":16400,"station_id":"ce4bgl92rcd13ifvqbq0","pricing_plan_id":"cebpf4jnsgd1na2vs0mg"},{"bike_id":"363cd716-fe3b-4131-b0d7-bfb529d3966c","system_id":"levelo_inurba_marseille","lat":43.29768,"lon":5.37063,"is_reserved":false,"is_disabled":false,"rental_uris":{"android":"levelo://app?vid=363cd716-fe3b-4131-b0d7-bfb529d3966c","ios":"levelo://app?vid=363cd716-fe3b-4131-b0d7-bfb529d3966c"},"vehicle_type_id":"4","last_reported":1753867123,"current_range_meters":16400,"station_id":"ce4bgop2rcd13ifvqc1g","pricing_plan_id":"cebpf4jnsgd1na2vs0mg"},{"bike_id":"9ef0bad5-595e-4d28-90ae-6550089f4a98","system_id":"levelo_inurba_marseille","lat":43.30563,"lon":5.36683,"is_reserved":false,"is_disabled":false,"rental_uris":{"android":"levelo://app?vid=9ef0bad5-595e-4d28-90ae-6550089f4a98","ios":"levelo://app?vid=9ef0bad5-595e-4d28-90ae-6550089f4a98"},"vehicle_type_id":"4","last_reported":1753867123,"current_range_meters":16400,"station_id":"","pricing_plan_id":"cebpf4jnsgd1na2vs0mg"},{"bike_id":"0642bec0-d5df-45d1-8f24-13fa0bd6adc2","system_id":"levelo_inurba_marseille","lat":43.27817,"lon":5.40742,"is_reserved":false,"is_disabled":false,"rental_uris":{"android":"levelo://app?vid=0642bec0-d5df-45d1-8f24-13fa0bd6adc2","ios":"levelo://app?vid=0642bec0-d5df-45d1-8f24-13fa0bd6adc2"},"vehicle_type_id":"4","last_reported":1753867123,"current_range_meters":16400,"station_id":"ce4bhnh2rcd13ifvqgtg","pricing_plan_id":"cebpf4jnsgd1na2vs0mg"},{"bike_id":"b89ad748-f7c1-4685-8c85-3009b186b7d0","system_id":"levelo_inurba_marseille","lat":43.24849,"lon":5.37485,"is_reserved":false,"is_disabled":false,"rental_uris":{"android":"levelo://app?vid=b89ad748-f7c1-4685-8c85-3009b186b7d0","ios":"levelo://app?vid=b89ad748-f7c1-4685-8c85-3009b186b7d0"},"vehicle_type_id":"4","last_reported":1753867123,"current_range_meters":16400,"station_id":"","pricing_plan_id":"cebpf4jnsgd1na2vs0mg"},{"bike_id":"e2069aeb-10bf-4a20-897f-f5f8bc385c0a","system_id":"levelo_inurba_marseille","lat":43.30465,"lon":5.379,"is_reserved":false,"is_disabled":false,"rental_uris":{"android":"levelo://app?vid=e2069aeb-10bf-4a20-897f-f5f8bc385c0a","ios":"levelo://app?vid=e2069aeb-10bf-4a20-897f-f5f8bc385c0a"},"vehicle_type_id":"4","last_reported":1753867123,"current_range_meters":16800,"station_id":"ce4bgup2rcd13ifvqcn0","pricing_plan_id":"cebpf4jnsgd1na2vs0mg"},{"bike_id":"5bc97537-28a4-40dd-b480-6a1b37d9770e","system_id":"levelo_inurba_marseille","lat":43.29101,"lon":5.3814,"is_reserved":false,"is_disabled":false,"rental_uris":{"android":"levelo://app?vid=5bc97537-28a4-40dd-b480-6a1b37d9770e","ios":"levelo://app?vid=5bc97537-28a4-40dd-b480-6a1b37d9770e"},"vehicle_type_id":"4","last_reported":1753867123,"current_range_meters":16800,"station_id":"ce4bh512rcd13ifvqe2g","pricing_plan_id":"cebpf4jnsgd1na2vs0mg"},{"bike_id":"fc72750c-8629-412d-8606-ffe7b2eda556","system_id":"levelo_inurba_marseille","lat":43.2749,"lon":5.42467,"is_reserved":false,"is_disabled":false,"rental_uris":{"android":"levelo://app?vid=fc72750c-8629-412d-8606-ffe7b2eda556","ios":"levelo://app?vid=fc72750c-8629-412d-8606-ffe7b2eda556"},"vehicle_type_id":"4","last_reported":1753867123,"current_range_meters":16800,"station_id":"ce4bhn92rcd13ifvqgrg","pricing_plan_id":"cebpf4jnsgd1na2vs0mg"},{"bike_id":"0343076e-9898-4965-9bcb-09ba8707b162","system_id":"levelo_inurba_marseille","lat":43.25081,"lon":5.39524,"is_reserved":false,"is_disabled":false,"rental_uris":{"android":"levelo://app?vid=0343076e-9898-4965-9bcb-09ba8707b162","ios":"levelo://app?vid=0343076e-9898-4965-9bcb-09ba8707b162"},"vehicle_type_id":"4","last_reported":1753867123,"current_range_meters":16800,"station_id":"ce4bhm12rcd13ifvqgkg","pricing_plan_id":"cebpf4jnsgd1na2vs0mg"},{"bike_id":"6590494b-43e7-43e0-b312-c754fd5ea433","system_id":"levelo_inurba_marseille","lat":43.29086,"lon":5.43102,"is_reserved":false,"is_disabled":false,"rental_uris":{"android":"levelo://app?vid=6590494b-43e7-43e0-b312-c754fd5ea433","ios":"levelo://app?vid=6590494b-43e7-43e0-b312-c754fd5ea433"},"vehicle_type_id":"4","last_reported":1753867123,"current_range_meters":16800,"station_id":"","pricing_plan_id":"cebpf4jnsgd1na2vs0mg"},{"bike_id":"2c4400c7-2bd6-4d8f-805d-b1037b3fe518","system_id":"levelo_inurba_marseille","lat":43.22503,"lon":5.34811,"is_reserved":false,"is_disabled":false,"rental_uris":{"android":"levelo://app?vid=2c4400c7-2bd6-4d8f-805d-b1037b3fe518","ios":"levelo://app?vid=2c4400c7-2bd6-4d8f-805d-b1037b3fe518"},"vehicle_type_id":"4","last_reported":1753867123,"current_range_meters":16800,"station_id":"st_cvj5dfep6f1abm77gieg","pricing_plan_id":"cebpf4jnsgd1na2vs0mg"},{"bike_id":"1a0ca16f-4b93-4052-acd5-440501907ad3","system_id":"levelo_inurba_marseille","lat":43.231902,"lon":5.355551,"is_reserved":false,"is_disabled":false,"rental_uris":{"android":"levelo://app?vid=1a0ca16f-4b93-4052-acd5-440501907ad3","ios":"levelo://app?vid=1a0ca16f-4b93-4052-acd5-440501907ad3"},"vehicle_type_id":"4","last_reported":1753867123,"current_range_meters":16800,"station_id":"ce4bhu92rcd13ifvqi70","pricing_plan_id":"cebpf4jnsgd1na2vs0mg"},{"bike_id":"6edee4fe-46f2-43ea-a18a-6ec975f8373c","system_id":"levelo_inurba_marseille","lat":43.28853,"lon":5.358465,"is_reserved":false,"is_disabled":false,"rental_uris":{"android":"levelo://app?vid=6edee4fe-46f2-43ea-a18a-6ec975f8373c","ios":"levelo://app?vid=6edee4fe-46f2-43ea-a18a-6ec975f8373c"},"vehicle_type_id":"4","last_reported":1753867123,"current_range_meters":16800,"station_id":"","pricing_plan_id":"cebpf4jnsgd1na2vs0mg"},{"bike_id":"6261aae1-bcb4-4a00-888e-7789f7437da9","system_id":"levelo_inurba_marseille","lat":43.30518,"lon":5.36566,"is_reserved":false,"is_disabled":false,"rental_uris":{"android":"levelo://app?vid=6261aae1-bcb4-4a00-888e-7789f7437da9","ios":"levelo://app?vid=6261aae1-bcb4-4a00-888e-7789f7437da9"},"vehicle_type_id":"4","last_reported":1753867123,"current_range_meters":16800,"station_id":"ce4bgs12rcd13ifvqcag","pricing_plan_id":"cebpf4jnsgd1na2vs0mg"},{"bike_id":"bcbed5c7-801f-4c2e-a5ba-4f68ea29a5aa","system_id":"levelo_inurba_marseille","lat":43.27965,"lon":5.38729,"is_reserved":false,"is_disabled":false,"rental_uris":{"android":"levelo://app?vid=bcbed5c7-801f-4c2e-a5ba-4f68ea29a5aa","ios":"levelo://app?vid=bcbed5c7-801f-4c2e-a5ba-4f68ea29a5aa"},"vehicle_type_id":"4","last_reported":1753867123,"current_range_meters":17200,"station_id":"ce4bhg12rcd13ifvqf80","pricing_plan_id":"cebpf4jnsgd1na2vs0mg"},{"bike_id":"a42e4578-2621-4773-99bc-c8ad69d22335","system_id":"levelo_inurba_marseille","lat":43.27327,"lon":5.39037,"is_reserved":false,"is_disabled":false,"rental_uris":{"android":"levelo://app?vid=a42e4578-2621-4773-99bc-c8ad69d22335","ios":"levelo://app?vid=a42e4578-2621-4773-99bc-c8ad69d22335"},"vehicle_type_id":"4","last_reported":1753867123,"current_range_meters":17600,"station_id":"ce4bhgp2rcd13ifvqfe0","pricing_plan_id":"cebpf4jnsgd1na2vs0mg"},{"bike_id":"27e3af3a-615b-4cc9-8468-7f9a0e895f93","system_id":"levelo_inurba_marseille","lat":43.30512,"lon":5.36715,"is_reserved":false,"is_disabled":false,"rental_uris":{"android":"levelo://app?vid=27e3af3a-615b-4cc9-8468-7f9a0e895f93","ios":"levelo://app?vid=27e3af3a-615b-4cc9-8468-7f9a0e895f93"},"vehicle_type_id":"4","last_reported":1753867123,"current_range_meters":17600,"station_id":"ce4bgrp2rcd13ifvqc9g","pricing_plan_id":"cebpf4jnsgd1na2vs0mg"},{"bike_id":"cd135ec5-1f0e-488f-a7bf-0e94c2e06e6f","system_id":"levelo_inurba_marseille","lat":43.21195,"lon":5.35084,"is_reserved":false,"is_disabled":false,"rental_uris":{"android":"levelo://app?vid=cd135ec5-1f0e-488f-a7bf-0e94c2e06e6f","ios":"levelo://app?vid=cd135ec5-1f0e-488f-a7bf-0e94c2e06e6f"},"vehicle_type_id":"4","last_reported":1753867123,"current_range_meters":17600,"station_id":"st_cvj6sg6p6f1abm77japg","pricing_plan_id":"cebpf4jnsgd1na2vs0mg"},{"bike_id":"3dc94204-2f3e-4b8d-a98a-2eebdfcaff10","system_id":"levelo_inurba_marseille","lat":43.22473,"lon":5.34808,"is_reserved":false,"is_disabled":false,"rental_uris":{"android":"levelo://app?vid=3dc94204-2f3e-4b8d-a98a-2eebdfcaff10","ios":"levelo://app?vid=3dc94204-2f3e-4b8d-a98a-2eebdfcaff10"},"vehicle_type_id":"4","last_reported":1753867123,"current_range_meters":17600,"station_id":"st_cvj5dfep6f1abm77gieg","pricing_plan_id":"cebpf4jnsgd1na2vs0mg"},{"bike_id":"52aa1d0d-4466-44b5-a116-ec1102c8f422","system_id":"levelo_inurba_marseille","lat":43.32904,"lon":5.36068,"is_reserved":false,"is_disabled":false,"rental_uris":{"android":"levelo://app?vid=52aa1d0d-4466-44b5-a116-ec1102c8f422","ios":"levelo://app?vid=52aa1d0d-4466-44b5-a116-ec1102c8f422"},"vehicle_type_id":"4","last_reported":1753867123,"current_range_meters":17600,"station_id":"","pricing_plan_id":"cebpf4jnsgd1na2vs0mg"},{"bike_id":"85571ceb-5dfe-407f-a57f-e3e4a5c0e31a","system_id":"levelo_inurba_marseille","lat":43.24111,"lon":5.39689,"is_reserved":false,"is_disabled":false,"rental_uris":{"android":"levelo://app?vid=85571ceb-5dfe-407f-a57f-e3e4a5c0e31a","ios":"levelo://app?vid=85571ceb-5dfe-407f-a57f-e3e4a5c0e31a"},"vehicle_type_id":"4","last_reported":1753867123,"current_range_meters":18000,"station_id":"ce4bhn12rcd13ifvqgpg","pricing_plan_id":"cebpf4jnsgd1na2vs0mg"},{"bike_id":"dd1e8c4e-c61b-4e79-be2c-1dd75f7d9100","system_id":"levelo_inurba_marseille","lat":43.29962,"lon":5.38513,"is_reserved":false,"is_disabled":false,"rental_uris":{"android":"levelo://app?vid=dd1e8c4e-c61b-4e79-be2c-1dd75f7d9100","ios":"levelo://app?vid=dd1e8c4e-c61b-4e79-be2c-1dd75f7d9100"},"vehicle_type_id":"4","last_reported":1753867123,"current_range_meters":18000,"station_id":"ce4bgj92rcd13ifvqbd0","pricing_plan_id":"cebpf4jnsgd1na2vs0mg"},{"bike_id":"08ca8ae8-b77c-49d8-b9a3-9de07830275f","system_id":"levelo_inurba_marseille","lat":43.27506,"lon":5.42508,"is_reserved":false,"is_disabled":false,"rental_uris":{"android":"levelo://app?vid=08ca8ae8-b77c-49d8-b9a3-9de07830275f","ios":"levelo://app?vid=08ca8ae8-b77c-49d8-b9a3-9de07830275f"},"vehicle_type_id":"4","last_reported":1753867123,"current_range_meters":18000,"station_id":"ce4bhn92rcd13ifvqgrg","pricing_plan_id":"cebpf4jnsgd1na2vs0mg"},{"bike_id":"a0161da7-a8eb-4f00-ad0a-215ea57c2b9a","system_id":"levelo_inurba_marseille","lat":43.29605,"lon":5.37718,"is_reserved":false,"is_disabled":false,"rental_uris":{"android":"levelo://app?vid=a0161da7-a8eb-4f00-ad0a-215ea57c2b9a","ios":"levelo://app?vid=a0161da7-a8eb-4f00-ad0a-215ea57c2b9a"},"vehicle_type_id":"4","last_reported":1753867123,"current_range_meters":18000,"station_id":"ce4bgi92rcd13ifvqb90","pricing_plan_id":"cebpf4jnsgd1na2vs0mg"},{"bike_id":"d1ef298e-87b7-47a5-aaec-79fd9c0baa71","system_id":"levelo_inurba_marseille","lat":43.248119,"lon":5.374579,"is_reserved":false,"is_disabled":false,"rental_uris":{"android":"levelo://app?vid=d1ef298e-87b7-47a5-aaec-79fd9c0baa71","ios":"levelo://app?vid=d1ef298e-87b7-47a5-aaec-79fd9c0baa71"},"vehicle_type_id":"4","last_reported":1753867123,"current_range_meters":18000,"station_id":"ce4bhgh2rcd13ifvqfb0","pricing_plan_id":"cebpf4jnsgd1na2vs0mg"},{"bike_id":"feae27af-ed33-41f6-8fae-34610606c482","system_id":"levelo_inurba_marseille","lat":43.29852,"lon":5.36274,"is_reserved":false,"is_disabled":false,"rental_uris":{"android":"levelo://app?vid=feae27af-ed33-41f6-8fae-34610606c482","ios":"levelo://app?vid=feae27af-ed33-41f6-8fae-34610606c482"},"vehicle_type_id":"4","last_reported":1753867123,"current_range_meters":18000,"station_id":"ce4bgpp2rcd13ifvqc3g","pricing_plan_id":"cebpf4jnsgd1na2vs0mg"},{"bike_id":"4fffe636-355f-431d-b322-328f3f8b090a","system_id":"levelo_inurba_marseille","lat":43.30259,"lon":5.40051,"is_reserved":false,"is_disabled":false,"rental_uris":{"android":"levelo://app?vid=4fffe636-355f-431d-b322-328f3f8b090a","ios":"levelo://app?vid=4fffe636-355f-431d-b322-328f3f8b090a"},"vehicle_type_id":"4","last_reported":1753867123,"current_range_meters":18000,"station_id":"ce4bgvh2rcd13ifvqcs0","pricing_plan_id":"cebpf4jnsgd1na2vs0mg"},{"bike_id":"34be742c-6e59-4c4c-a509-950f8293f589","system_id":"levelo_inurba_marseille","lat":43.229319,"lon":5.353719,"is_reserved":false,"is_disabled":false,"rental_uris":{"android":"levelo://app?vid=34be742c-6e59-4c4c-a509-950f8293f589","ios":"levelo://app?vid=34be742c-6e59-4c4c-a509-950f8293f589"},"vehicle_type_id":"4","last_reported":1753867123,"current_range_meters":18000,"station_id":"cpo3532slgdg3j2ikp40","pricing_plan_id":"cebpf4jnsgd1na2vs0mg"},{"bike_id":"82421548-9820-4ad4-b3c2-dfb64180eb25","system_id":"levelo_inurba_marseille","lat":43.21203,"lon":5.35007,"is_reserved":false,"is_disabled":false,"rental_uris":{"android":"levelo://app?vid=82421548-9820-4ad4-b3c2-dfb64180eb25","ios":"levelo://app?vid=82421548-9820-4ad4-b3c2-dfb64180eb25"},"vehicle_type_id":"4","last_reported":1753867123,"current_range_meters":18000,"station_id":"","pricing_plan_id":"cebpf4jnsgd1na2vs0mg"},{"bike_id":"871e7e11-0bfd-47b3-858c-c917f2eae162","system_id":"levelo_inurba_marseille","lat":43.31231,"lon":5.36862,"is_reserved":false,"is_disabled":false,"rental_uris":{"android":"levelo://app?vid=871e7e11-0bfd-47b3-858c-c917f2eae162","ios":"levelo://app?vid=871e7e11-0bfd-47b3-858c-c917f2eae162"},"vehicle_type_id":"4","last_reported":1753867123,"current_range_meters":18000,"station_id":"ce4bgl92rcd13ifvqbq0","pricing_plan_id":"cebpf4jnsgd1na2vs0mg"},{"bike_id":"1126f44e-6002-4232-b288-2d61f3000e14","system_id":"levelo_inurba_marseille","lat":43.30523,"lon":5.36732,"is_reserved":false,"is_disabled":false,"rental_uris":{"android":"levelo://app?vid=1126f44e-6002-4232-b288-2d61f3000e14","ios":"levelo://app?vid=1126f44e-6002-4232-b288-2d61f3000e14"},"vehicle_type_id":"4","last_reported":1753867123,"current_range_meters":18000,"station_id":"ce4bgrp2rcd13ifvqc9g","pricing_plan_id":"cebpf4jnsgd1na2vs0mg"},{"bike_id":"b7e63ea0-539d-443d-ab1d-49b82a6a1b6b","system_id":"levelo_inurba_marseille","lat":43.23156,"lon":5.43747,"is_reserved":false,"is_disabled":false,"rental_uris":{"android":"levelo://app?vid=b7e63ea0-539d-443d-ab1d-49b82a6a1b6b","ios":"levelo://app?vid=b7e63ea0-539d-443d-ab1d-49b82a6a1b6b"},"vehicle_type_id":"4","last_reported":1753867123,"current_range_meters":18800,"station_id":"ce4bhmp2rcd13ifvqgog","pricing_plan_id":"cebpf4jnsgd1na2vs0mg"},{"bike_id":"76d1f38f-96c6-4c79-bf8c-b8d8e9ae0662","system_id":"levelo_inurba_marseille","lat":43.25922,"lon":5.40923,"is_reserved":false,"is_disabled":false,"rental_uris":{"android":"levelo://app?vid=76d1f38f-96c6-4c79-bf8c-b8d8e9ae0662","ios":"levelo://app?vid=76d1f38f-96c6-4c79-bf8c-b8d8e9ae0662"},"vehicle_type_id":"4","last_reported":1753867123,"current_range_meters":18800,"station_id":"ce4bhm92rcd13ifvqglg","pricing_plan_id":"cebpf4jnsgd1na2vs0mg"},{"bike_id":"d126d3e6-8f43-4d1e-929c-1f29f5f64def","system_id":"levelo_inurba_marseille","lat":43.32373,"lon":5.38885,"is_reserved":false,"is_disabled":false,"rental_uris":{"android":"levelo://app?vid=d126d3e6-8f43-4d1e-929c-1f29f5f64def","ios":"levelo://app?vid=d126d3e6-8f43-4d1e-929c-1f29f5f64def"},"vehicle_type_id":"4","last_reported":1753867123,"current_range_meters":18800,"station_id":"ce4bhqp2rcd13ifvqhog","pricing_plan_id":"cebpf4jnsgd1na2vs0mg"},{"bike_id":"b5aefb21-0e03-4de1-8bc3-178874b4e692","system_id":"levelo_inurba_marseille","lat":43.25118,"lon":5.40314,"is_reserved":false,"is_disabled":false,"rental_uris":{"android":"levelo://app?vid=b5aefb21-0e03-4de1-8bc3-178874b4e692","ios":"levelo://app?vid=b5aefb21-0e03-4de1-8bc3-178874b4e692"},"vehicle_type_id":"4","last_reported":1753867123,"current_range_meters":18800,"station_id":"ce4bhlh2rcd13ifvqgig","pricing_plan_id":"cebpf4jnsgd1na2vs0mg"},{"bike_id":"12a220c8-0b1b-4330-8cc1-7ededba84a81","system_id":"levelo_inurba_marseille","lat":43.23152,"lon":5.43737,"is_reserved":false,"is_disabled":false,"rental_uris":{"android":"levelo://app?vid=12a220c8-0b1b-4330-8cc1-7ededba84a81","ios":"levelo://app?vid=12a220c8-0b1b-4330-8cc1-7ededba84a81"},"vehicle_type_id":"4","last_reported":1753867123,"current_range_meters":18800,"station_id":"ce4bhmp2rcd13ifvqgog","pricing_plan_id":"cebpf4jnsgd1na2vs0mg"},{"bike_id":"23c5ff6b-8cac-4dff-9b59-ceed36159023","system_id":"levelo_inurba_marseille","lat":43.23082,"lon":5.35469,"is_reserved":false,"is_disabled":false,"rental_uris":{"android":"levelo://app?vid=23c5ff6b-8cac-4dff-9b59-ceed36159023","ios":"levelo://app?vid=23c5ff6b-8cac-4dff-9b59-ceed36159023"},"vehicle_type_id":"4","last_reported":1753867123,"current_range_meters":18800,"station_id":"cpo3342slgdg3j2ifvpg","pricing_plan_id":"cebpf4jnsgd1na2vs0mg"},{"bike_id":"b90e29ee-bdd3-4f60-b3b6-69cddf8b8fe4","system_id":"levelo_inurba_marseille","lat":43.25869,"lon":5.39903,"is_reserved":false,"is_disabled":false,"rental_uris":{"android":"levelo://app?vid=b90e29ee-bdd3-4f60-b3b6-69cddf8b8fe4","ios":"levelo://app?vid=b90e29ee-bdd3-4f60-b3b6-69cddf8b8fe4"},"vehicle_type_id":"4","last_reported":1753867123,"current_range_meters":18800,"station_id":"ce4bhl92rcd13ifvqghg","pricing_plan_id":"cebpf4jnsgd1na2vs0mg"},{"bike_id":"2093a2b7-8bbc-4356-896c-88cd021ab676","system_id":"levelo_inurba_marseille","lat":43.28616,"lon":5.35103,"is_reserved":false,"is_disabled":false,"rental_uris":{"android":"levelo://app?vid=2093a2b7-8bbc-4356-896c-88cd021ab676","ios":"levelo://app?vid=2093a2b7-8bbc-4356-896c-88cd021ab676"},"vehicle_type_id":"4","last_reported":1753867123,"current_range_meters":18800,"station_id":"ce4bhch2rcd13ifvqeug","pricing_plan_id":"cebpf4jnsgd1na2vs0mg"},{"bike_id":"6f945904-e30e-4baa-be01-1bd0424776dc","system_id":"levelo_inurba_marseille","lat":43.231857,"lon":5.355618,"is_reserved":false,"is_disabled":false,"rental_uris":{"android":"levelo://app?vid=6f945904-e30e-4baa-be01-1bd0424776dc","ios":"levelo://app?vid=6f945904-e30e-4baa-be01-1bd0424776dc"},"vehicle_type_id":"4","last_reported":1753867123,"current_range_meters":18800,"station_id":"ce4bhu92rcd13ifvqi70","pricing_plan_id":"cebpf4jnsgd1na2vs0mg"},{"bike_id":"779f16c9-be4e-43db-b028-12a31c95d841","system_id":"levelo_inurba_marseille","lat":43.24995,"lon":5.3897,"is_reserved":false,"is_disabled":false,"rental_uris":{"android":"levelo://app?vid=779f16c9-be4e-43db-b028-12a31c95d841","ios":"levelo://app?vid=779f16c9-be4e-43db-b028-12a31c95d841"},"vehicle_type_id":"4","last_reported":1753867123,"current_range_meters":18800,"station_id":"ce4bhgp2rcd13ifvqfd0","pricing_plan_id":"cebpf4jnsgd1na2vs0mg"},{"bike_id":"55bf355c-8c8a-4339-b38b-30b6f9dd8dd7","system_id":"levelo_inurba_marseille","lat":43.28626,"lon":5.3511,"is_reserved":false,"is_disabled":false,"rental_uris":{"android":"levelo://app?vid=55bf355c-8c8a-4339-b38b-30b6f9dd8dd7","ios":"levelo://app?vid=55bf355c-8c8a-4339-b38b-30b6f9dd8dd7"},"vehicle_type_id":"4","last_reported":1753867123,"current_range_meters":18800,"station_id":"ce4bhch2rcd13ifvqeug","pricing_plan_id":"cebpf4jnsgd1na2vs0mg"},{"bike_id":"6d4a8c8c-d8c5-4215-a06a-7475cf4d5132","system_id":"levelo_inurba_marseille","lat":43.280285,"lon":5.369364,"is_reserved":false,"is_disabled":false,"rental_uris":{"android":"levelo://app?vid=6d4a8c8c-d8c5-4215-a06a-7475cf4d5132","ios":"levelo://app?vid=6d4a8c8c-d8c5-4215-a06a-7475cf4d5132"},"vehicle_type_id":"4","last_reported":1753867123,"current_range_meters":19200,"station_id":"ce4bha12rcd13ifvqef0","pricing_plan_id":"cebpf4jnsgd1na2vs0mg"},{"bike_id":"c48e6e64-9d08-4fca-a774-7cc6169cfde3","system_id":"levelo_inurba_marseille","lat":43.298391,"lon":5.382953,"is_reserved":false,"is_disabled":false,"rental_uris":{"android":"levelo://app?vid=c48e6e64-9d08-4fca-a774-7cc6169cfde3","ios":"levelo://app?vid=c48e6e64-9d08-4fca-a774-7cc6169cfde3"},"vehicle_type_id":"4","last_reported":1753867123,"current_range_meters":19200,"station_id":"","pricing_plan_id":"cebpf4jnsgd1na2vs0mg"},{"bike_id":"f605ff71-c624-4936-a518-95ee9acc86fd","system_id":"levelo_inurba_marseille","lat":43.22494,"lon":5.34821,"is_reserved":false,"is_disabled":false,"rental_uris":{"android":"levelo://app?vid=f605ff71-c624-4936-a518-95ee9acc86fd","ios":"levelo://app?vid=f605ff71-c624-4936-a518-95ee9acc86fd"},"vehicle_type_id":"4","last_reported":1753867123,"current_range_meters":19200,"station_id":"st_cvj5dfep6f1abm77gieg","pricing_plan_id":"cebpf4jnsgd1na2vs0mg"},{"bike_id":"02dff666-8007-4eee-8739-65d8925c2470","system_id":"levelo_inurba_marseille","lat":43.30891,"lon":5.36869,"is_reserved":false,"is_disabled":false,"rental_uris":{"android":"levelo://app?vid=02dff666-8007-4eee-8739-65d8925c2470","ios":"levelo://app?vid=02dff666-8007-4eee-8739-65d8925c2470"},"vehicle_type_id":"4","last_reported":1753867123,"current_range_meters":19200,"station_id":"ce4bgn92rcd13ifvqbvg","pricing_plan_id":"cebpf4jnsgd1na2vs0mg"},{"bike_id":"b565b853-9616-4ab3-9cae-8b1d09dd4831","system_id":"levelo_inurba_marseille","lat":43.22503,"lon":5.34774,"is_reserved":false,"is_disabled":false,"rental_uris":{"android":"levelo://app?vid=b565b853-9616-4ab3-9cae-8b1d09dd4831","ios":"levelo://app?vid=b565b853-9616-4ab3-9cae-8b1d09dd4831"},"vehicle_type_id":"4","last_reported":1753867123,"current_range_meters":19200,"station_id":"st_cvj5dfep6f1abm77gieg","pricing_plan_id":"cebpf4jnsgd1na2vs0mg"},{"bike_id":"9f5fba08-5d1a-4a60-9f27-a4f6e760f703","system_id":"levelo_inurba_marseille","lat":43.323548,"lon":5.367398,"is_reserved":false,"is_disabled":false,"rental_uris":{"android":"levelo://app?vid=9f5fba08-5d1a-4a60-9f27-a4f6e760f703","ios":"levelo://app?vid=9f5fba08-5d1a-4a60-9f27-a4f6e760f703"},"vehicle_type_id":"4","last_reported":1753867123,"current_range_meters":19200,"station_id":"ce4bhsh2rcd13ifvqi2g","pricing_plan_id":"cebpf4jnsgd1na2vs0mg"},{"bike_id":"dd578866-d82b-4034-b467-f42046580e9f","system_id":"levelo_inurba_marseille","lat":43.24074,"lon":5.37762,"is_reserved":false,"is_disabled":false,"rental_uris":{"android":"levelo://app?vid=dd578866-d82b-4034-b467-f42046580e9f","ios":"levelo://app?vid=dd578866-d82b-4034-b467-f42046580e9f"},"vehicle_type_id":"4","last_reported":1753867123,"current_range_meters":19200,"station_id":"ce4bhnp2rcd13ifvqgvg","pricing_plan_id":"cebpf4jnsgd1na2vs0mg"},{"bike_id":"70c2e8b8-47e3-4846-ac55-d803c1bc1df9","system_id":"levelo_inurba_marseille","lat":43.30656,"lon":5.40063,"is_reserved":false,"is_disabled":false,"rental_uris":{"android":"levelo://app?vid=70c2e8b8-47e3-4846-ac55-d803c1bc1df9","ios":"levelo://app?vid=70c2e8b8-47e3-4846-ac55-d803c1bc1df9"},"vehicle_type_id":"4","last_reported":1753867123,"current_range_meters":19200,"station_id":"ce4bh112rcd13ifvqda0","pricing_plan_id":"cebpf4jnsgd1na2vs0mg"},{"bike_id":"c60bf1fe-ea6e-46b6-82f1-673df999dd5a","system_id":"levelo_inurba_marseille","lat":43.29576,"lon":5.37498,"is_reserved":false,"is_disabled":false,"rental_uris":{"android":"levelo://app?vid=c60bf1fe-ea6e-46b6-82f1-673df999dd5a","ios":"levelo://app?vid=c60bf1fe-ea6e-46b6-82f1-673df999dd5a"},"vehicle_type_id":"4","last_reported":1753867123,"current_range_meters":19200,"station_id":"ce4bgh92rcd13ifvqb50","pricing_plan_id":"cebpf4jnsgd1na2vs0mg"},{"bike_id":"c8d9e16b-3d47-4395-b964-e8d906b81668","system_id":"levelo_inurba_marseille","lat":43.268689,"lon":5.370273,"is_reserved":false,"is_disabled":false,"rental_uris":{"android":"levelo://app?vid=c8d9e16b-3d47-4395-b964-e8d906b81668","ios":"levelo://app?vid=c8d9e16b-3d47-4395-b964-e8d906b81668"},"vehicle_type_id":"4","last_reported":1753867123,"current_range_meters":19200,"station_id":"","pricing_plan_id":"cebpf4jnsgd1na2vs0mg"},{"bike_id":"02ba587b-fdc4-4538-91bf-a3fcb628a435","system_id":"levelo_inurba_marseille","lat":43.34658,"lon":5.44836,"is_reserved":false,"is_disabled":false,"rental_uris":{"android":"levelo://app?vid=02ba587b-fdc4-4538-91bf-a3fcb628a435","ios":"levelo://app?vid=02ba587b-fdc4-4538-91bf-a3fcb628a435"},"vehicle_type_id":"4","last_reported":1753867123,"current_range_meters":19200,"station_id":"","pricing_plan_id":"cebpf4jnsgd1na2vs0mg"},{"bike_id":"d8f1ea63-2b2f-4d21-9b8b-d398c7af1f74","system_id":"levelo_inurba_marseille","lat":43.280793,"lon":5.396634,"is_reserved":false,"is_disabled":false,"rental_uris":{"android":"levelo://app?vid=d8f1ea63-2b2f-4d21-9b8b-d398c7af1f74","ios":"levelo://app?vid=d8f1ea63-2b2f-4d21-9b8b-d398c7af1f74"},"vehicle_type_id":"4","last_reported":1753867123,"current_range_meters":19600,"station_id":"ce4bho12rcd13ifvqh2g","pricing_plan_id":"cebpf4jnsgd1na2vs0mg"},{"bike_id":"c9b491c1-c5b5-43c1-8295-bacd160dbee8","system_id":"levelo_inurba_marseille","lat":43.311233,"lon":5.377727,"is_reserved":false,"is_disabled":false,"rental_uris":{"android":"levelo://app?vid=c9b491c1-c5b5-43c1-8295-bacd160dbee8","ios":"levelo://app?vid=c9b491c1-c5b5-43c1-8295-bacd160dbee8"},"vehicle_type_id":"4","last_reported":1753867123,"current_range_meters":19600,"station_id":"ce4bgt92rcd13ifvqcg0","pricing_plan_id":"cebpf4jnsgd1na2vs0mg"},{"bike_id":"b4e22d7a-25cf-4328-b44d-366b87f14ef6","system_id":"levelo_inurba_marseille","lat":43.29872,"lon":5.36272,"is_reserved":false,"is_disabled":false,"rental_uris":{"android":"levelo://app?vid=b4e22d7a-25cf-4328-b44d-366b87f14ef6","ios":"levelo://app?vid=b4e22d7a-25cf-4328-b44d-366b87f14ef6"},"vehicle_type_id":"4","last_reported":1753867123,"current_range_meters":19600,"station_id":"ce4bgpp2rcd13ifvqc3g","pricing_plan_id":"cebpf4jnsgd1na2vs0mg"},{"bike_id":"4f311b95-16d0-4152-9b03-677da880350c","system_id":"levelo_inurba_marseille","lat":43.23959,"lon":5.36639,"is_reserved":false,"is_disabled":false,"rental_uris":{"android":"levelo://app?vid=4f311b95-16d0-4152-9b03-677da880350c","ios":"levelo://app?vid=4f311b95-16d0-4152-9b03-677da880350c"},"vehicle_type_id":"4","last_reported":1753867123,"current_range_meters":19600,"station_id":"ce4bhi12rcd13ifvqfp0","pricing_plan_id":"cebpf4jnsgd1na2vs0mg"},{"bike_id":"d0e68786-d337-4e6e-9ee9-8bd9daa48758","system_id":"levelo_inurba_marseille","lat":43.24825,"lon":5.37429,"is_reserved":false,"is_disabled":false,"rental_uris":{"android":"levelo://app?vid=d0e68786-d337-4e6e-9ee9-8bd9daa48758","ios":"levelo://app?vid=d0e68786-d337-4e6e-9ee9-8bd9daa48758"},"vehicle_type_id":"4","last_reported":1753867123,"current_range_meters":19600,"station_id":"ce4bhgh2rcd13ifvqfb0","pricing_plan_id":"cebpf4jnsgd1na2vs0mg"},{"bike_id":"0ec6b756-ef9c-423b-9995-462e18b7c0a4","system_id":"levelo_inurba_marseille","lat":43.313389,"lon":5.397044,"is_reserved":false,"is_disabled":false,"rental_uris":{"android":"levelo://app?vid=0ec6b756-ef9c-423b-9995-462e18b7c0a4","ios":"levelo://app?vid=0ec6b756-ef9c-423b-9995-462e18b7c0a4"},"vehicle_type_id":"4","last_reported":1753867123,"current_range_meters":19600,"station_id":"ce4bgvp2rcd13ifvqcu0","pricing_plan_id":"cebpf4jnsgd1na2vs0mg"},{"bike_id":"20782440-32e2-4e26-a85a-d8b01db73401","system_id":"levelo_inurba_marseille","lat":43.241653,"lon":5.36404,"is_reserved":false,"is_disabled":false,"rental_uris":{"android":"levelo://app?vid=20782440-32e2-4e26-a85a-d8b01db73401","ios":"levelo://app?vid=20782440-32e2-4e26-a85a-d8b01db73401"},"vehicle_type_id":"4","last_reported":1753867123,"current_range_meters":19600,"station_id":"cpo36qri1sfpv3e86is0","pricing_plan_id":"cebpf4jnsgd1na2vs0mg"},{"bike_id":"82178a1b-bb08-4da8-aa8a-3f881f9b30a7","system_id":"levelo_inurba_marseille","lat":43.269317,"lon":5.402547,"is_reserved":false,"is_disabled":false,"rental_uris":{"android":"levelo://app?vid=82178a1b-bb08-4da8-aa8a-3f881f9b30a7","ios":"levelo://app?vid=82178a1b-bb08-4da8-aa8a-3f881f9b30a7"},"vehicle_type_id":"4","last_reported":1753867123,"current_range_meters":19600,"station_id":"cjm6bp8fraef2m0cb0m0","pricing_plan_id":"cebpf4jnsgd1na2vs0mg"},{"bike_id":"c297cd42-f0e2-4362-a315-541c52087136","system_id":"levelo_inurba_marseille","lat":43.25007,"lon":5.38911,"is_reserved":false,"is_disabled":false,"rental_uris":{"android":"levelo://app?vid=c297cd42-f0e2-4362-a315-541c52087136","ios":"levelo://app?vid=c297cd42-f0e2-4362-a315-541c52087136"},"vehicle_type_id":"4","last_reported":1753867123,"current_range_meters":19600,"station_id":"ce4bhgp2rcd13ifvqfd0","pricing_plan_id":"cebpf4jnsgd1na2vs0mg"},{"bike_id":"eb222de6-87a7-4fc6-92e8-d4154e846895","system_id":"levelo_inurba_marseille","lat":43.229241,"lon":5.353671,"is_reserved":false,"is_disabled":false,"rental_uris":{"android":"levelo://app?vid=eb222de6-87a7-4fc6-92e8-d4154e846895","ios":"levelo://app?vid=eb222de6-87a7-4fc6-92e8-d4154e846895"},"vehicle_type_id":"4","last_reported":1753867123,"current_range_meters":19600,"station_id":"cpo3532slgdg3j2ikp40","pricing_plan_id":"cebpf4jnsgd1na2vs0mg"},{"bike_id":"a680cfd1-5b43-4211-9ae3-0ecb95596e08","system_id":"levelo_inurba_marseille","lat":43.28615,"lon":5.35106,"is_reserved":false,"is_disabled":false,"rental_uris":{"android":"levelo://app?vid=a680cfd1-5b43-4211-9ae3-0ecb95596e08","ios":"levelo://app?vid=a680cfd1-5b43-4211-9ae3-0ecb95596e08"},"vehicle_type_id":"4","last_reported":1753867123,"current_range_meters":19600,"station_id":"ce4bhch2rcd13ifvqeug","pricing_plan_id":"cebpf4jnsgd1na2vs0mg"},{"bike_id":"011fd654-e76c-4060-82ef-48cab0762fbe","system_id":"levelo_inurba_marseille","lat":43.229377,"lon":5.353738,"is_reserved":false,"is_disabled":false,"rental_uris":{"android":"levelo://app?vid=011fd654-e76c-4060-82ef-48cab0762fbe","ios":"levelo://app?vid=011fd654-e76c-4060-82ef-48cab0762fbe"},"vehicle_type_id":"4","last_reported":1753867123,"current_range_meters":19600,"station_id":"cpo3532slgdg3j2ikp40","pricing_plan_id":"cebpf4jnsgd1na2vs0mg"},{"bike_id":"35bbec5c-46f0-4540-8da9-e9d0eebe7816","system_id":"levelo_inurba_marseille","lat":43.30456,"lon":5.38909,"is_reserved":false,"is_disabled":false,"rental_uris":{"android":"levelo://app?vid=35bbec5c-46f0-4540-8da9-e9d0eebe7816","ios":"levelo://app?vid=35bbec5c-46f0-4540-8da9-e9d0eebe7816"},"vehicle_type_id":"4","last_reported":1753867123,"current_range_meters":20000,"station_id":"ce4bgk12rcd13ifvqbi0","pricing_plan_id":"cebpf4jnsgd1na2vs0mg"},{"bike_id":"9cc184b7-0b65-4d96-8af9-796187129c20","system_id":"levelo_inurba_marseille","lat":43.27999,"lon":5.4002,"is_reserved":false,"is_disabled":false,"rental_uris":{"android":"levelo://app?vid=9cc184b7-0b65-4d96-8af9-796187129c20","ios":"levelo://app?vid=9cc184b7-0b65-4d96-8af9-796187129c20"},"vehicle_type_id":"4","last_reported":1753867123,"current_range_meters":20000,"station_id":"ce4bho92rcd13ifvqh4g","pricing_plan_id":"cebpf4jnsgd1na2vs0mg"},{"bike_id":"e6076a94-3fae-4db8-9048-f76bbd60af67","system_id":"levelo_inurba_marseille","lat":43.246403,"lon":5.388957,"is_reserved":false,"is_disabled":false,"rental_uris":{"android":"levelo://app?vid=e6076a94-3fae-4db8-9048-f76bbd60af67","ios":"levelo://app?vid=e6076a94-3fae-4db8-9048-f76bbd60af67"},"vehicle_type_id":"4","last_reported":1753867123,"current_range_meters":20000,"station_id":"ce4bhg12rcd13ifvqf60","pricing_plan_id":"cebpf4jnsgd1na2vs0mg"},{"bike_id":"50098844-c65f-4ccc-b592-62773524b532","system_id":"levelo_inurba_marseille","lat":43.296211,"lon":5.371653,"is_reserved":false,"is_disabled":false,"rental_uris":{"android":"levelo://app?vid=50098844-c65f-4ccc-b592-62773524b532","ios":"levelo://app?vid=50098844-c65f-4ccc-b592-62773524b532"},"vehicle_type_id":"4","last_reported":1753867123,"current_range_meters":20000,"station_id":"ce4bgnh2rcd13ifvqc0g","pricing_plan_id":"cebpf4jnsgd1na2vs0mg"},{"bike_id":"388a80e1-8ad0-46cf-9ec1-51a1e6802968","system_id":"levelo_inurba_marseille","lat":43.26218,"lon":5.40455,"is_reserved":false,"is_disabled":false,"rental_uris":{"android":"levelo://app?vid=388a80e1-8ad0-46cf-9ec1-51a1e6802968","ios":"levelo://app?vid=388a80e1-8ad0-46cf-9ec1-51a1e6802968"},"vehicle_type_id":"4","last_reported":1753867123,"current_range_meters":20000,"station_id":"ce4bhmh2rcd13ifvqgmg","pricing_plan_id":"cebpf4jnsgd1na2vs0mg"},{"bike_id":"f28fd049-0d74-4420-9a84-4b4010164f06","system_id":"levelo_inurba_marseille","lat":43.32472,"lon":5.36578,"is_reserved":false,"is_disabled":false,"rental_uris":{"android":"levelo://app?vid=f28fd049-0d74-4420-9a84-4b4010164f06","ios":"levelo://app?vid=f28fd049-0d74-4420-9a84-4b4010164f06"},"vehicle_type_id":"4","last_reported":1753867123,"current_range_meters":20000,"station_id":"ce4bhs12rcd13ifvqhvg","pricing_plan_id":"cebpf4jnsgd1na2vs0mg"},{"bike_id":"f8830ba9-efcd-46f4-b8e3-697c7d242c0b","system_id":"levelo_inurba_marseille","lat":43.31348,"lon":5.3971,"is_reserved":false,"is_disabled":false,"rental_uris":{"android":"levelo://app?vid=f8830ba9-efcd-46f4-b8e3-697c7d242c0b","ios":"levelo://app?vid=f8830ba9-efcd-46f4-b8e3-697c7d242c0b"},"vehicle_type_id":"4","last_reported":1753867123,"current_range_meters":20400,"station_id":"ce4bgvp2rcd13ifvqcu0","pricing_plan_id":"cebpf4jnsgd1na2vs0mg"},{"bike_id":"0493419f-acaa-408f-b42e-4cd6f66c3e96","system_id":"levelo_inurba_marseille","lat":43.24548,"lon":5.39538,"is_reserved":false,"is_disabled":true,"rental_uris":{"android":"levelo://app?vid=0493419f-acaa-408f-b42e-4cd6f66c3e96","ios":"levelo://app?vid=0493419f-acaa-408f-b42e-4cd6f66c3e96"},"vehicle_type_id":"4","last_reported":1753867123,"current_range_meters":20000,"station_id":"ce4bhlp2rcd13ifvqgjg","pricing_plan_id":"cebpf4jnsgd1na2vs0mg"},{"bike_id":"9b028fe4-dcfc-4d65-9efc-48c392359bb6","system_id":"levelo_inurba_marseille","lat":43.27307,"lon":5.3911,"is_reserved":false,"is_disabled":false,"rental_uris":{"android":"levelo://app?vid=9b028fe4-dcfc-4d65-9efc-48c392359bb6","ios":"levelo://app?vid=9b028fe4-dcfc-4d65-9efc-48c392359bb6"},"vehicle_type_id":"4","last_reported":1753867123,"current_range_meters":20000,"station_id":"ce4bhgp2rcd13ifvqfe0","pricing_plan_id":"cebpf4jnsgd1na2vs0mg"},{"bike_id":"ed3a0051-03d8-4a74-9013-189ec3d82e1f","system_id":"levelo_inurba_marseille","lat":43.29007,"lon":5.35605,"is_reserved":false,"is_disabled":false,"rental_uris":{"android":"levelo://app?vid=ed3a0051-03d8-4a74-9013-189ec3d82e1f","ios":"levelo://app?vid=ed3a0051-03d8-4a74-9013-189ec3d82e1f"},"vehicle_type_id":"4","last_reported":1753867123,"current_range_meters":20000,"station_id":"ce4bhb92rcd13ifvqen0","pricing_plan_id":"cebpf4jnsgd1na2vs0mg"},{"bike_id":"3f8d70ae-895b-4507-b070-2ff8c80e486f","system_id":"levelo_inurba_marseille","lat":43.24164,"lon":5.36401,"is_reserved":false,"is_disabled":false,"rental_uris":{"android":"levelo://app?vid=3f8d70ae-895b-4507-b070-2ff8c80e486f","ios":"levelo://app?vid=3f8d70ae-895b-4507-b070-2ff8c80e486f"},"vehicle_type_id":"4","last_reported":1753867123,"current_range_meters":20000,"station_id":"cpo36qri1sfpv3e86is0","pricing_plan_id":"cebpf4jnsgd1na2vs0mg"},{"bike_id":"d8333f49-798b-40cd-a81b-86cd9221895d","system_id":"levelo_inurba_marseille","lat":43.28436,"lon":5.37562,"is_reserved":false,"is_disabled":false,"rental_uris":{"android":"levelo://app?vid=d8333f49-798b-40cd-a81b-86cd9221895d","ios":"levelo://app?vid=d8333f49-798b-40cd-a81b-86cd9221895d"},"vehicle_type_id":"4","last_reported":1753867123,"current_range_meters":20000,"station_id":"","pricing_plan_id":"cebpf4jnsgd1na2vs0mg"},{"bike_id":"9bb7b559-7113-4c94-bd89-307173ce7e81","system_id":"levelo_inurba_marseille","lat":43.25118,"lon":5.40325,"is_reserved":false,"is_disabled":false,"rental_uris":{"android":"levelo://app?vid=9bb7b559-7113-4c94-bd89-307173ce7e81","ios":"levelo://app?vid=9bb7b559-7113-4c94-bd89-307173ce7e81"},"vehicle_type_id":"4","last_reported":1753867123,"current_range_meters":20000,"station_id":"ce4bhlh2rcd13ifvqgig","pricing_plan_id":"cebpf4jnsgd1na2vs0mg"},{"bike_id":"3573266e-26c2-446d-8c32-782cf39bf334","system_id":"levelo_inurba_marseille","lat":43.25945,"lon":5.40921,"is_reserved":false,"is_disabled":false,"rental_uris":{"android":"levelo://app?vid=3573266e-26c2-446d-8c32-782cf39bf334","ios":"levelo://app?vid=3573266e-26c2-446d-8c32-782cf39bf334"},"vehicle_type_id":"4","last_reported":1753867123,"current_range_meters":20000,"station_id":"ce4bhm92rcd13ifvqglg","pricing_plan_id":"cebpf4jnsgd1na2vs0mg"},{"bike_id":"1eb8dbaa-0655-46c4-8fda-82376fa975a7","system_id":"levelo_inurba_marseille","lat":43.310847,"lon":5.378518,"is_reserved":false,"is_disabled":false,"rental_uris":{"android":"levelo://app?vid=1eb8dbaa-0655-46c4-8fda-82376fa975a7","ios":"levelo://app?vid=1eb8dbaa-0655-46c4-8fda-82376fa975a7"},"vehicle_type_id":"4","last_reported":1753867123,"current_range_meters":20000,"station_id":"ce4bgt12rcd13ifvqcd0","pricing_plan_id":"cebpf4jnsgd1na2vs0mg"},{"bike_id":"03780cff-a34f-4463-89ad-309e50413149","system_id":"levelo_inurba_marseille","lat":43.31223,"lon":5.37832,"is_reserved":false,"is_disabled":false,"rental_uris":{"android":"levelo://app?vid=03780cff-a34f-4463-89ad-309e50413149","ios":"levelo://app?vid=03780cff-a34f-4463-89ad-309e50413149"},"vehicle_type_id":"4","last_reported":1753867123,"current_range_meters":20400,"station_id":"","pricing_plan_id":"cebpf4jnsgd1na2vs0mg"},{"bike_id":"b958e876-273b-40f7-a30c-a3cdc266298a","system_id":"levelo_inurba_marseille","lat":43.312167,"lon":5.368413,"is_reserved":false,"is_disabled":false,"rental_uris":{"android":"levelo://app?vid=b958e876-273b-40f7-a30c-a3cdc266298a","ios":"levelo://app?vid=b958e876-273b-40f7-a30c-a3cdc266298a"},"vehicle_type_id":"4","last_reported":1753867123,"current_range_meters":20400,"station_id":"ce4bgl92rcd13ifvqbq0","pricing_plan_id":"cebpf4jnsgd1na2vs0mg"},{"bike_id":"373015f6-929b-49b7-83ad-819055551911","system_id":"levelo_inurba_marseille","lat":43.31694,"lon":5.37805,"is_reserved":false,"is_disabled":false,"rental_uris":{"android":"levelo://app?vid=373015f6-929b-49b7-83ad-819055551911","ios":"levelo://app?vid=373015f6-929b-49b7-83ad-819055551911"},"vehicle_type_id":"4","last_reported":1753867123,"current_range_meters":20400,"station_id":"","pricing_plan_id":"cebpf4jnsgd1na2vs0mg"},{"bike_id":"7dd60b10-bfb8-47ec-b3c8-3864cf72c50d","system_id":"levelo_inurba_marseille","lat":43.25581,"lon":5.38227,"is_reserved":false,"is_disabled":false,"rental_uris":{"android":"levelo://app?vid=7dd60b10-bfb8-47ec-b3c8-3864cf72c50d","ios":"levelo://app?vid=7dd60b10-bfb8-47ec-b3c8-3864cf72c50d"},"vehicle_type_id":"4","last_reported":1753867123,"current_range_meters":20400,"station_id":"ce4bhih2rcd13ifvqfs0","pricing_plan_id":"cebpf4jnsgd1na2vs0mg"},{"bike_id":"501fe082-6c32-4a24-80fd-4833724e8426","system_id":"levelo_inurba_marseille","lat":43.305715,"lon":5.374231,"is_reserved":false,"is_disabled":false,"rental_uris":{"android":"levelo://app?vid=501fe082-6c32-4a24-80fd-4833724e8426","ios":"levelo://app?vid=501fe082-6c32-4a24-80fd-4833724e8426"},"vehicle_type_id":"4","last_reported":1753867123,"current_range_meters":20400,"station_id":"","pricing_plan_id":"cebpf4jnsgd1na2vs0mg"},{"bike_id":"7b3e0b7e-aeb3-421b-99df-59380e9d60e1","system_id":"levelo_inurba_marseille","lat":43.301822,"lon":5.366162,"is_reserved":false,"is_disabled":false,"rental_uris":{"android":"levelo://app?vid=7b3e0b7e-aeb3-421b-99df-59380e9d60e1","ios":"levelo://app?vid=7b3e0b7e-aeb3-421b-99df-59380e9d60e1"},"vehicle_type_id":"4","last_reported":1753867123,"current_range_meters":20400,"station_id":"ce4bgrh2rcd13ifvqc8g","pricing_plan_id":"cebpf4jnsgd1na2vs0mg"},{"bike_id":"0b2ba3cd-88ec-4f4e-a39e-67875e9e03c4","system_id":"levelo_inurba_marseille","lat":43.28665,"lon":5.36357,"is_reserved":false,"is_disabled":false,"rental_uris":{"android":"levelo://app?vid=0b2ba3cd-88ec-4f4e-a39e-67875e9e03c4","ios":"levelo://app?vid=0b2ba3cd-88ec-4f4e-a39e-67875e9e03c4"},