{"last_updated":1762380591,"ttl":60,"version":"2.2","data":{"bikes":[{"bike_id":"b7c5e96f-2666-418c-b8cc-36dfc613348c","system_id":"levelo_inurba_marseille","lat":43.337444,"lon":5.374475,"is_reserved":false,"is_disabled":false,"rental_uris":{"android":"levelo://app?vid=b7c5e96f-2666-418c-b8cc-36dfc613348c","ios":"levelo://app?vid=b7c5e96f-2666-418c-b8cc-36dfc613348c"},"vehicle_type_id":"4","last_reported":1762380591,"current_range_meters":0,"station_id":"","pricing_plan_id":"cebpf4jnsgd1na2vs0mg"},{"bike_id":"9c46a9f5-39cb-461a-ac28-286dc216524b","system_id":"levelo_inurba_marseille","lat":43.337444,"lon":5.374475,"is_reserved":false,"is_disabled":false,"rental_uris":{"android":"levelo://app?vid=9c46a9f5-39cb-461a-ac28-286dc216524b","ios":"levelo://app?vid=9c46a9f5-39cb-461a-ac28-286dc216524b"},"vehicle_type_id":"4","last_reported":1762380591,"current_range_meters":0,"station_id":"","pricing_plan_id":"cebpf4jnsgd1na2vs0mg"},{"bike_id":"2aa95e42-5a8c-4825-81d0-40d356e0168e","system_id":"levelo_inurba_marseille","lat":43.337444,"lon":5.374475,"is_reserved":false,"is_disabled":false,"rental_uris":{"android":"levelo://app?vid=2aa95e42-5a8c-4825-81d0-40d356e0168e","ios":"levelo://app?vid=2aa95e42-5a8c-4825-81d0-40d356e0168e"},"vehicle_type_id":"4","last_reported":1762380591,"current_range_meters":0,"station_id":"","pricing_plan_id":"cebpf4jnsgd1na2vs0mg"},{"bike_id":"23f7c00c-abd3-4b9e-b454-b625ef68ddce","system_id":"levelo_inurba_marseille","lat":43.337444,"lon":5.374475,"is_reserved":false,"is_disabled":false,"rental_uris":{"android":"levelo://app?vid=23f7c00c-abd3-4b9e-b454-b625ef68ddce","ios":"levelo://app?vid=23f7c00c-abd3-4b9e-b454-b625ef68ddce"},"vehicle_type_id":"4","last_reported":1762380591,"current_range_meters":0,"station_id":"","pricing_plan_id":"cebpf4jnsgd1na2vs0mg"},{"bike_id":"a3451d83-9c80-4ffa-96f9-a14c25634465","system_id":"levelo_inurba_marseille","lat":43.337444,"lon":5.374475,"is_reserved":false,"is_disabled":false,"rental_uris":{"android":"levelo://app?vid=a3451d83-9c80-4ffa-96f9-a14c25634465","ios":"levelo://app?vid=a3451d83-9c80-4ffa-96f9-a14c25634465"},"vehicle_type_id":"4","last_reported":1762380591,"current_range_meters":0,"station_id":"","pricing_plan_id":"cebpf4jnsgd1na2vs0mg"},{"bike_id":"19649598-fd0f-4237-a302-8b748132eb30","system_id":"levelo_inurba_marseille","lat":43.337444,"lon":5.374475,"is_reserved":false,"is_disabled":false,"rental_uris":{"android":"levelo://app?vid=19649598-fd0f-4237-a302-8b748132eb30","ios":"levelo://app?vid=19649598-fd0f-4237-a302-8b748132eb30"},"vehicle_type_id":"4","last_reported":1762380591,"current_range_meters":0,"station_id":"","pricing_plan_id":"cebpf4jnsgd1na2vs0mg"},{"bike_id":"79f0199f-1fbb-40b2-9337-191d82b520a7","system_id":"levelo_inurba_marseille","lat":43.337444,"lon":5.374475,"is_reserved":false,"is_disabled":false,"rental_uris":{"android":"levelo://app?vid=79f0199f-1fbb-40b2-9337-191d82b520a7","ios":"levelo://app?vid=79f0199f-1fbb-40b2-9337-191d82b520a7"},"vehicle_type_id":"4","last_reported":1762380591,"current_range_meters":0,"station_id":"","pricing_plan_id":"cebpf4jnsgd1na2vs0mg"},{"bike_id":"34a0d96e-bbf5-4ab6-8de8-a56cc767fd57","system_id":"levelo_inurba_marseille","lat":43.337444,"lon":5.374475,"is_reserved":false,"is_disabled":false,"rental_uris":{"android":"levelo://app?vid=34a0d96e-bbf5-4ab6-8de8-a56cc767fd57","ios":"levelo://app?vid=34a0d96e-bbf5-4ab6-8de8-a56cc767fd57"},"vehicle_type_id":"4","last_reported":1762380591,"current_range_meters":0,"station_id":"","pricing_plan_id":"cebpf4jnsgd1na2vs0mg"},{"bike_id":"30c4756b-2e3a-4ac9-b1fb-aa08283eecaa","system_id":"levelo_inurba_marseille","lat":43.337444,"lon":5.374475,"is_reserved":false,"is_disabled":false,"rental_uris":{"android":"levelo://app?vid=30c4756b-2e3a-4ac9-b1fb-aa08283eecaa","ios":"levelo://app?vid=30c4756b-2e3a-4ac9-b1fb-aa08283eecaa"},"vehicle_type_id":"4","last_reported":1762380591,"current_range_meters":0,"station_id":"","pricing_plan_id":"cebpf4jnsgd1na2vs0mg"},{"bike_id":"cb5b6ee7-3ef8-4299-a38d-cc32f035098b","system_id":"levelo_inurba_marseille","lat":43.337444,"lon":5.374475,"is_reserved":false,"is_disabled":false,"rental_uris":{"android":"levelo://app?vid=cb5b6ee7-3ef8-4299-a38d-cc32f035098b","ios":"levelo://app?vid=cb5b6ee7-3ef8-4299-a38d-cc32f035098b"},"vehicle_type_id":"4","last_reported":1762380591,"current_range_meters":0,"station_id":"","pricing_plan_id":"cebpf4jnsgd1na2vs0mg"},{"bike_id":"0dbf8834-1963-4427-879a-60d5139a1252","system_id":"levelo_inurba_marseille","lat":43.337444,"lon":5.374475,"is_reserved":false,"is_disabled":false,"rental_uris":{"android":"levelo://app?vid=0dbf8834-1963-4427-879a-60d5139a1252","ios":"levelo://app?vid=0dbf8834-1963-4427-879a-60d5139a1252"},"vehicle_type_id":"4","last_reported":1762380591,"current_range_meters":0,"station_id":"","pricing_plan_id":"cebpf4jnsgd1na2vs0mg"},{"bike_id":"c3d3ce5c-8075-4b42-9455-beadd1468f17","system_id":"levelo_inurba_marseille","lat":43.337444,"lon":5.374475,"is_reserved":false,"is_disabled":false,"rental_uris":{"android":"levelo://app?vid=c3d3ce5c-8075-4b42-9455-beadd1468f17","ios":"levelo://app?vid=c3d3ce5c-8075-4b42-9455-beadd1468f17"},"vehicle_type_id":"4","last_reported":1762380591,"current_range_meters":0,"station_id":"","pricing_plan_id":"cebpf4jnsgd1na2vs0mg"},{"bike_id":"2177a091-7ad7-4fcd-ad08-e78406d1a8ef","system_id":"levelo_inurba_marseille","lat":43.337444,"lon":5.374475,"is_reserved":false,"is_disabled":false,"rental_uris":{"android":"levelo://app?vid=2177a091-7ad7-4fcd-ad08-e78406d1a8ef","ios":"levelo://app?vid=2177a091-7ad7-4fcd-ad08-e78406d1a8ef"},"vehicle_type_id":"4","last_reported":1762380591,"current_range_meters":0,"station_id":"","pricing_plan_id":"cebpf4jnsgd1na2vs0mg"},{"bike_id":"ed2dc6ad-7a96-47d2-b4d0-3deee38fd62c","system_id":"levelo_inurba_marseille","lat":43.337444,"lon":5.374475,"is_reserved":false,"is_disabled":false,"rental_uris":{"android":"levelo://app?vid=ed2dc6ad-7a96-47d2-b4d0-3deee38fd62c","ios":"levelo://app?vid=ed2dc6ad-7a96-47d2-b4d0-3deee38fd62c"},"vehicle_type_id":"4","last_reported":1762380591,"current_range_meters":0,"station_id":"","pricing_plan_id":"cebpf4jnsgd1na2vs0mg"},{"bike_id":"42735ee1-244b-4d96-8480-f9806199924f","system_id":"levelo_inurba_marseille","lat":43.337444,"lon":5.374475,"is_reserved":false,"is_disabled":false,"rental_uris":{"android":"levelo://app?vid=42735ee1-244b-4d96-8480-f9806199924f","ios":"levelo://app?vid=42735ee1-244b-4d96-8480-f9806199924f"},"vehicle_type_id":"4","last_reported":1762380591,"current_range_meters":0,"station_id":"","pricing_plan_id":"cebpf4jnsgd1na2vs0mg"},{"bike_id":"0d7ab61a-02ec-456f-ab23-ba92f34594d5","system_id":"levelo_inurba_marseille","lat":43.337444,"lon":5.374475,"is_reserved":false,"is_disabled":false,"rental_uris":{"android":"levelo://app?vid=0d7ab61a-02ec-456f-ab23-ba92f34594d5","ios":"levelo://app?vid=0d7ab61a-02ec-456f-ab23-ba92f34594d5"},"vehicle_type_id":"4","last_reported":1762380591,"current_range_meters":0,"station_id":"","pricing_plan_id":"cebpf4jnsgd1na2vs0mg"},{"bike_id":"f68022fa-eb0a-4aac-8aea-6f2e14d0afb9","system_id":"levelo_inurba_marseille","lat":43.337444,"lon":5.374475,"is_reserved":false,"is_disabled":false,"rental_uris":{"android":"levelo://app?vid=f68022fa-eb0a-4aac-8aea-6f2e14d0afb9","ios":"levelo://app?vid=f68022fa-eb0a-4aac-8aea-6f2e14d0afb9"},"vehicle_type_id":"4","last_reported":1762380591,"current_range_meters":0,"station_id":"","pricing_plan_id":"cebpf4jnsgd1na2vs0mg"},{"bike_id":"386a9781-f1f4-4d33-8679-4d1163c3b9de","system_id":"levelo_inurba_marseille","lat":43.337444,"lon":5.374475,"is_reserved":false,"is_disabled":false,"rental_uris":{"android":"levelo://app?vid=386a9781-f1f4-4d33-8679-4d1163c3b9de","ios":"levelo://app?vid=386a9781-f1f4-4d33-8679-4d1163c3b9de"},"vehicle_type_id":"4","last_reported":1762380591,"current_range_meters":0,"station_id":"","pricing_plan_id":"cebpf4jnsgd1na2vs0mg"},{"bike_id":"4692d694-8a80-47c7-a7c6-1264ca94c6df","system_id":"levelo_inurba_marseille","lat":43.337444,"lon":5.374475,"is_reserved":false,"is_disabled":false,"rental_uris":{"android":"levelo://app?vid=4692d694-8a80-47c7-a7c6-1264ca94c6df","ios":"levelo://app?vid=4692d694-8a80-47c7-a7c6-1264ca94c6df"},"vehicle_type_id":"4","last_reported":1762380591,"current_range_meters":0,"station_id":"","pricing_plan_id":"cebpf4jnsgd1na2vs0mg"},{"bike_id":"4706d18d-408c-4dc1-a44f-b0f99f27bdf0","system_id":"levelo_inurba_marseille","lat":43.337444,"lon":5.374475,"is_reserved":false,"is_disabled":false,"rental_uris":{"android":"levelo://app?vid=4706d18d-408c-4dc1-a44f-b0f99f27bdf0","ios":"levelo://app?vid=4706d18d-408c-4dc1-a44f-b0f99f27bdf0"},"vehicle_type_id":"4","last_reported":1762380591,"current_range_meters":0,"station_id":"","pricing_plan_id":"cebpf4jnsgd1na2vs0mg"},{"bike_id":"abb77335-fe7b-4b75-9b2f-be4bb45cbb0d","system_id":"levelo_inurba_marseille","lat":43.337444,"lon":5.374475,"is_reserved":false,"is_disabled":false,"rental_uris":{"android":"levelo://app?vid=abb77335-fe7b-4b75-9b2f-be4bb45cbb0d","ios":"levelo://app?vid=abb77335-fe7b-4b75-9b2f-be4bb45cbb0d"},"vehicle_type_id":"4","last_reported":1762380591,"current_range_meters":0,"station_id":"","pricing_plan_id":"cebpf4jnsgd1na2vs0mg"},{"bike_id":"4bde9393-6919-41f3-8fef-f4b40f375cc0","system_id":"levelo_inurba_marseille","lat":43.337444,"lon":5.374475,"is_reserved":false,"is_disabled":false,"rental_uris":{"android":"levelo://app?vid=4bde9393-6919-41f3-8fef-f4b40f375cc0","ios":"levelo://app?vid=4bde9393-6919-41f3-8fef-f4b40f375cc0"},"vehicle_type_id":"4","last_reported":1762380591,"current_range_meters":0,"station_id":"","pricing_plan_id":"cebpf4jnsgd1na2vs0mg"},{"bike_id":"51f4e824-5009-4c5b-9283-cfda2d34404c","system_id":"levelo_inurba_marseille","lat":43.337444,"lon":5.374475,"is_reserved":false,"is_disabled":false,"rental_uris":{"android":"levelo://app?vid=51f4e824-5009-4c5b-9283-cfda2d34404c","ios":"levelo://app?vid=51f4e824-5009-4c5b-9283-cfda2d34404c"},"vehicle_type_id":"4","last_reported":1762380591,"current_range_meters":0,"station_id":"","pricing_plan_id":"cebpf4jnsgd1na2vs0mg"},{"bike_id":"d155d58c-f50a-4469-b126-b5af1b8d3f8a","system_id":"levelo_inurba_marseille","lat":43.337444,"lon":5.374475,"is_reserved":false,"is_disabled":false,"rental_uris":{"android":"levelo://app?vid=d155d58c-f50a-4469-b126-b5af1b8d3f8a","ios":"levelo://app?vid=d155d58c-f50a-4469-b126-b5af1b8d3f8a"},"vehicle_type_id":"4","last_reported":1762380591,"current_range_meters":0,"station_id":"","pricing_plan_id":"cebpf4jnsgd1na2vs0mg"},{"bike_id":"16f471c2-a8ed-4e61-ba2a-d83085a9c284","system_id":"levelo_inurba_marseille","lat":43.337444,"lon":5.374475,"is_reserved":false,"is_disabled":false,"rental_uris":{"android":"levelo://app?vid=16f471c2-a8ed-4e61-ba2a-d83085a9c284","ios":"levelo://app?vid=16f471c2-a8ed-4e61-ba2a-d83085a9c284"},"vehicle_type_id":"4","last_reported":1762380591,"current_range_meters":0,"station_id":"","pricing_plan_id":"cebpf4jnsgd1na2vs0mg"},{"bike_id":"b8bd4cc4-f519-43de-b194-2cc2cf75483c","system_id":"levelo_inurba_marseille","lat":43.337444,"lon":5.374475,"is_reserved":false,"is_disabled":false,"rental_uris":{"android":"levelo://app?vid=b8bd4cc4-f519-43de-b194-2cc2cf75483c","ios":"levelo://app?vid=b8bd4cc4-f519-43de-b194-2cc2cf75483c"},"vehicle_type_id":"4","last_reported":1762380591,"current_range_meters":0,"station_id":"","pricing_plan_id":"cebpf4jnsgd1na2vs0mg"},{"bike_id":"591b062c-0423-40a0-9120-f7c30f97e98f","system_id":"levelo_inurba_marseille","lat":43.337444,"lon":5.374475,"is_reserved":false,"is_disabled":false,"rental_uris":{"android":"levelo://app?vid=591b062c-0423-40a0-9120-f7c30f97e98f","ios":"levelo://app?vid=591b062c-0423-40a0-9120-f7c30f97e98f"},"vehicle_type_id":"4","last_reported":1762380591,"current_range_meters":0,"station_id":"","pricing_plan_id":"cebpf4jnsgd1na2vs0mg"},{"bike_id":"8fbb8d57-565e-4232-a867-846a316b3375","system_id":"levelo_inurba_marseille","lat":43.337444,"lon":5.374475,"is_reserved":false,"is_disabled":false,"rental_uris":{"android":"levelo://app?vid=8fbb8d57-565e-4232-a867-846a316b3375","ios":"levelo://app?vid=8fbb8d57-565e-4232-a867-846a316b3375"},"vehicle_type_id":"4","last_reported":1762380591,"current_range_meters":0,"station_id":"","pricing_plan_id":"cebpf4jnsgd1na2vs0mg"},{"bike_id":"e6134458-396f-46c5-87ab-a79cf2b6424c","system_id":"levelo_inurba_marseille","lat":43.337444,"lon":5.374475,"is_reserved":false,"is_disabled":false,"rental_uris":{"android":"levelo://app?vid=e6134458-396f-46c5-87ab-a79cf2b6424c","ios":"levelo://app?vid=e6134458-396f-46c5-87ab-a79cf2b6424c"},"vehicle_type_id":"4","last_reported":1762380591,"current_range_meters":0,"station_id":"","pricing_plan_id":"cebpf4jnsgd1na2vs0mg"},{"bike_id":"0a0d4295-fe5b-4614-b2ca-f5579d5190b0","system_id":"levelo_inurba_marseille","lat":43.337444,"lon":5.374475,"is_reserved":false,"is_disabled":false,"rental_uris":{"android":"levelo://app?vid=0a0d4295-fe5b-4614-b2ca-f5579d5190b0","ios":"levelo://app?vid=0a0d4295-fe5b-4614-b2ca-f5579d5190b0"},"vehicle_type_id":"4","last_reported":1762380591,"current_range_meters":0,"station_id":"","pricing_plan_id":"cebpf4jnsgd1na2vs0mg"},{"bike_id":"683f52af-e538-4fae-b009-9007e731bdf4","system_id":"levelo_inurba_marseille","lat":43.30304,"lon":5.39225,"is_reserved":false,"is_disabled":false,"rental_uris":{"android":"levelo://app?vid=683f52af-e538-4fae-b009-9007e731bdf4","ios":"levelo://app?vid=683f52af-e538-4fae-b009-9007e731bdf4"},"vehicle_type_id":"4","last_reported":1762380591,"current_range_meters":2800,"station_id":"ce4bgkh2rcd13ifvqbk0","pricing_plan_id":"cebpf4jnsgd1na2vs0mg"},{"bike_id":"0afba7bd-6d65-490e-a669-b53c195eb27d","system_id":"levelo_inurba_marseille","lat":43.30143,"lon":5.39873,"is_reserved":false,"is_disabled":false,"rental_uris":{"android":"levelo://app?vid=0afba7bd-6d65-490e-a669-b53c195eb27d","ios":"levelo://app?vid=0afba7bd-6d65-490e-a669-b53c195eb27d"},"vehicle_type_id":"4","last_reported":1762380591,"current_range_meters":2800,"station_id":"ce4bh0h2rcd13ifvqd40","pricing_plan_id":"cebpf4jnsgd1na2vs0mg"},{"bike_id":"28b85111-1e3c-4e94-9d4a-5a837507bfee","system_id":"levelo_inurba_marseille","lat":43.29723,"lon":5.42642,"is_reserved":false,"is_disabled":false,"rental_uris":{"android":"levelo://app?vid=28b85111-1e3c-4e94-9d4a-5a837507bfee","ios":"levelo://app?vid=28b85111-1e3c-4e94-9d4a-5a837507bfee"},"vehicle_type_id":"4","last_reported":1762380591,"current_range_meters":3200,"station_id":"","pricing_plan_id":"cebpf4jnsgd1na2vs0mg"},{"bike_id":"7516b515-0067-49b1-b78c-06b342925154","system_id":"levelo_inurba_marseille","lat":43.25727,"lon":5.41112,"is_reserved":false,"is_disabled":false,"rental_uris":{"android":"levelo://app?vid=7516b515-0067-49b1-b78c-06b342925154","ios":"levelo://app?vid=7516b515-0067-49b1-b78c-06b342925154"},"vehicle_type_id":"4","last_reported":1762380591,"current_range_meters":3200,"station_id":"ce4bhkp2rcd13ifvqgd0","pricing_plan_id":"cebpf4jnsgd1na2vs0mg"},{"bike_id":"ebddb370-d644-4dfb-a2c2-26834be21211","system_id":"levelo_inurba_marseille","lat":43.26916,"lon":5.3927,"is_reserved":false,"is_disabled":false,"rental_uris":{"android":"levelo://app?vid=ebddb370-d644-4dfb-a2c2-26834be21211","ios":"levelo://app?vid=ebddb370-d644-4dfb-a2c2-26834be21211"},"vehicle_type_id":"4","last_reported":1762380591,"current_range_meters":3200,"station_id":"","pricing_plan_id":"cebpf4jnsgd1na2vs0mg"},{"bike_id":"c76b2c5b-16e9-4c55-870e-400171fa768d","system_id":"levelo_inurba_marseille","lat":43.29572,"lon":5.42279,"is_reserved":false,"is_disabled":false,"rental_uris":{"android":"levelo://app?vid=c76b2c5b-16e9-4c55-870e-400171fa768d","ios":"levelo://app?vid=c76b2c5b-16e9-4c55-870e-400171fa768d"},"vehicle_type_id":"4","last_reported":1762380591,"current_range_meters":3600,"station_id":"ce4bhph2rcd13ifvqhdg","pricing_plan_id":"cebpf4jnsgd1na2vs0mg"},{"bike_id":"d184b10a-0c7c-4ee2-8cdd-c70855163e61","system_id":"levelo_inurba_marseille","lat":43.29842,"lon":5.36269,"is_reserved":false,"is_disabled":false,"rental_uris":{"android":"levelo://app?vid=d184b10a-0c7c-4ee2-8cdd-c70855163e61","ios":"levelo://app?vid=d184b10a-0c7c-4ee2-8cdd-c70855163e61"},"vehicle_type_id":"4","last_reported":1762380591,"current_range_meters":3600,"station_id":"ce4bgpp2rcd13ifvqc3g","pricing_plan_id":"cebpf4jnsgd1na2vs0mg"},{"bike_id":"3e88af3d-4d83-4c75-bfdc-b350f519b0e9","system_id":"levelo_inurba_marseille","lat":43.302612,"lon":5.400762,"is_reserved":false,"is_disabled":false,"rental_uris":{"android":"levelo://app?vid=3e88af3d-4d83-4c75-bfdc-b350f519b0e9","ios":"levelo://app?vid=3e88af3d-4d83-4c75-bfdc-b350f519b0e9"},"vehicle_type_id":"4","last_reported":1762380591,"current_range_meters":4000,"station_id":"ce4bgvh2rcd13ifvqcs0","pricing_plan_id":"cebpf4jnsgd1na2vs0mg"},{"bike_id":"620cd075-2d5a-49da-b7d8-2c0f6892bc65","system_id":"levelo_inurba_marseille","lat":43.272046,"lon":5.391829,"is_reserved":false,"is_disabled":false,"rental_uris":{"android":"levelo://app?vid=620cd075-2d5a-49da-b7d8-2c0f6892bc65","ios":"levelo://app?vid=620cd075-2d5a-49da-b7d8-2c0f6892bc65"},"vehicle_type_id":"4","last_reported":1762380591,"current_range_meters":4000,"station_id":"","pricing_plan_id":"cebpf4jnsgd1na2vs0mg"},{"bike_id":"7f3de945-cb50-48c2-bc7a-5328ab329653","system_id":"levelo_inurba_marseille","lat":43.30878,"lon":5.39628,"is_reserved":false,"is_disabled":false,"rental_uris":{"android":"levelo://app?vid=7f3de945-cb50-48c2-bc7a-5328ab329653","ios":"levelo://app?vid=7f3de945-cb50-48c2-bc7a-5328ab329653"},"vehicle_type_id":"4","last_reported":1762380591,"current_range_meters":6000,"station_id":"ce4bh012rcd13ifvqcv0","pricing_plan_id":"cebpf4jnsgd1na2vs0mg"},{"bike_id":"ca027186-72c6-4358-8d7a-70b219e6273a","system_id":"levelo_inurba_marseille","lat":43.35098,"lon":5.38093,"is_reserved":false,"is_disabled":false,"rental_uris":{"android":"levelo://app?vid=ca027186-72c6-4358-8d7a-70b219e6273a","ios":"levelo://app?vid=ca027186-72c6-4358-8d7a-70b219e6273a"},"vehicle_type_id":"4","last_reported":1762380591,"current_range_meters":6000,"station_id":"","pricing_plan_id":"cebpf4jnsgd1na2vs0mg"},{"bike_id":"654dc482-8458-4686-a09b-a5e21a822232","system_id":"levelo_inurba_marseille","lat":43.23194,"lon":5.35561,"is_reserved":false,"is_disabled":true,"rental_uris":{"android":"levelo://app?vid=654dc482-8458-4686-a09b-a5e21a822232","ios":"levelo://app?vid=654dc482-8458-4686-a09b-a5e21a822232"},"vehicle_type_id":"4","last_reported":1762380591,"current_range_meters":6000,"station_id":"ce4bhu92rcd13ifvqi70","pricing_plan_id":"cebpf4jnsgd1na2vs0mg"},{"bike_id":"3def0f9b-5698-4d39-9d1d-6c18e272054f","system_id":"levelo_inurba_marseille","lat":43.302046,"lon":5.397683,"is_reserved":false,"is_disabled":false,"rental_uris":{"android":"levelo://app?vid=3def0f9b-5698-4d39-9d1d-6c18e272054f","ios":"levelo://app?vid=3def0f9b-5698-4d39-9d1d-6c18e272054f"},"vehicle_type_id":"4","last_reported":1762380591,"current_range_meters":6000,"station_id":"ce4bhb12rcd13ifvqel0","pricing_plan_id":"cebpf4jnsgd1na2vs0mg"},{"bike_id":"b13abe64-5c03-4c9b-8103-16bd62297598","system_id":"levelo_inurba_marseille","lat":43.24391,"lon":5.37064,"is_reserved":false,"is_disabled":false,"rental_uris":{"android":"levelo://app?vid=b13abe64-5c03-4c9b-8103-16bd62297598","ios":"levelo://app?vid=b13abe64-5c03-4c9b-8103-16bd62297598"},"vehicle_type_id":"4","last_reported":1762380591,"current_range_meters":6000,"station_id":"ce4bhhh2rcd13ifvqfk0","pricing_plan_id":"cebpf4jnsgd1na2vs0mg"},{"bike_id":"57f128f8-b056-49f7-86af-319d06c3ac00","system_id":"levelo_inurba_marseille","lat":43.29023,"lon":5.38649,"is_reserved":false,"is_disabled":false,"rental_uris":{"android":"levelo://app?vid=57f128f8-b056-49f7-86af-319d06c3ac00","ios":"levelo://app?vid=57f128f8-b056-49f7-86af-319d06c3ac00"},"vehicle_type_id":"4","last_reported":1762380591,"current_range_meters":6400,"station_id":"","pricing_plan_id":"cebpf4jnsgd1na2vs0mg"},{"bike_id":"398d1ccf-0bdf-4ffc-a7db-5511d5737dbc","system_id":"levelo_inurba_marseille","lat":43.292698,"lon":5.384325,"is_reserved":false,"is_disabled":false,"rental_uris":{"android":"levelo://app?vid=398d1ccf-0bdf-4ffc-a7db-5511d5737dbc","ios":"levelo://app?vid=398d1ccf-0bdf-4ffc-a7db-5511d5737dbc"},"vehicle_type_id":"4","last_reported":1762380591,"current_range_meters":6400,"station_id":"ce4bh692rcd13ifvqea0","pricing_plan_id":"cebpf4jnsgd1na2vs0mg"},{"bike_id":"d12af199-4e50-48ce-b5e7-40fd678dce02","system_id":"levelo_inurba_marseille","lat":43.29906,"lon":5.43664,"is_reserved":false,"is_disabled":false,"rental_uris":{"android":"levelo://app?vid=d12af199-4e50-48ce-b5e7-40fd678dce02","ios":"levelo://app?vid=d12af199-4e50-48ce-b5e7-40fd678dce02"},"vehicle_type_id":"4","last_reported":1762380591,"current_range_meters":6400,"station_id":"ce4bhpp2rcd13ifvqhfg","pricing_plan_id":"cebpf4jnsgd1na2vs0mg"},{"bike_id":"5e6b5e6b-9f8a-43ab-9eb8-b69e41a6c1e6","system_id":"levelo_inurba_marseille","lat":43.225298,"lon":5.348365,"is_reserved":false,"is_disabled":false,"rental_uris":{"android":"levelo://app?vid=5e6b5e6b-9f8a-43ab-9eb8-b69e41a6c1e6","ios":"levelo://app?vid=5e6b5e6b-9f8a-43ab-9eb8-b69e41a6c1e6"},"vehicle_type_id":"4","last_reported":1762380591,"current_range_meters":6800,"station_id":"","pricing_plan_id":"cebpf4jnsgd1na2vs0mg"},{"bike_id":"7c572724-d246-444c-a818-2550f93cae1a","system_id":"levelo_inurba_marseille","lat":43.28823,"lon":5.38619,"is_reserved":false,"is_disabled":false,"rental_uris":{"android":"levelo://app?vid=7c572724-d246-444c-a818-2550f93cae1a","ios":"levelo://app?vid=7c572724-d246-444c-a818-2550f93cae1a"},"vehicle_type_id":"4","last_reported":1762380591,"current_range_meters":6800,"station_id":"","pricing_plan_id":"cebpf4jnsgd1na2vs0mg"},{"bike_id":"068dd6cd-2778-4d85-925e-cf54b2e1efbf","system_id":"levelo_inurba_marseille","lat":43.26015,"lon":5.417433,"is_reserved":false,"is_disabled":false,"rental_uris":{"android":"levelo://app?vid=068dd6cd-2778-4d85-925e-cf54b2e1efbf","ios":"levelo://app?vid=068dd6cd-2778-4d85-925e-cf54b2e1efbf"},"vehicle_type_id":"4","last_reported":1762380591,"current_range_meters":6800,"station_id":"","pricing_plan_id":"cebpf4jnsgd1na2vs0mg"},{"bike_id":"ba9dd343-3a8b-4c29-ac26-d37d82c60f11","system_id":"levelo_inurba_marseille","lat":43.28868,"lon":5.39327,"is_reserved":false,"is_disabled":true,"rental_uris":{"android":"levelo://app?vid=ba9dd343-3a8b-4c29-ac26-d37d82c60f11","ios":"levelo://app?vid=ba9dd343-3a8b-4c29-ac26-d37d82c60f11"},"vehicle_type_id":"4","last_reported":1762380591,"current_range_meters":7200,"station_id":"ce4bh2p2rcd13ifvqdi0","pricing_plan_id":"cebpf4jnsgd1na2vs0mg"},{"bike_id":"f7a192fe-ecfa-451f-8d3a-3c4f39209fc4","system_id":"levelo_inurba_marseille","lat":43.32368,"lon":5.38886,"is_reserved":false,"is_disabled":false,"rental_uris":{"android":"levelo://app?vid=f7a192fe-ecfa-451f-8d3a-3c4f39209fc4","ios":"levelo://app?vid=f7a192fe-ecfa-451f-8d3a-3c4f39209fc4"},"vehicle_type_id":"4","last_reported":1762380591,"current_range_meters":7200,"station_id":"ce4bhqp2rcd13ifvqhog","pricing_plan_id":"cebpf4jnsgd1na2vs0mg"},{"bike_id":"51ff2a5f-0659-483f-9a74-fd123e1db13e","system_id":"levelo_inurba_marseille","lat":43.27675,"lon":5.38875,"is_reserved":false,"is_disabled":false,"rental_uris":{"android":"levelo://app?vid=51ff2a5f-0659-483f-9a74-fd123e1db13e","ios":"levelo://app?vid=51ff2a5f-0659-483f-9a74-fd123e1db13e"},"vehicle_type_id":"4","last_reported":1762380591,"current_range_meters":7200,"station_id":"ce4bhi12rcd13ifvqfo0","pricing_plan_id":"cebpf4jnsgd1na2vs0mg"},{"bike_id":"ad483091-7411-4e16-8cc4-09042e8161f5","system_id":"levelo_inurba_marseille","lat":43.273468,"lon":5.385179,"is_reserved":false,"is_disabled":true,"rental_uris":{"android":"levelo://app?vid=ad483091-7411-4e16-8cc4-09042e8161f5","ios":"levelo://app?vid=ad483091-7411-4e16-8cc4-09042e8161f5"},"vehicle_type_id":"4","last_reported":1762380591,"current_range_meters":7200,"station_id":"","pricing_plan_id":"cebpf4jnsgd1na2vs0mg"},{"bike_id":"43241b2a-4cb5-4e4c-8865-8a8693625499","system_id":"levelo_inurba_marseille","lat":43.31276,"lon":5.37866,"is_reserved":false,"is_disabled":false,"rental_uris":{"android":"levelo://app?vid=43241b2a-4cb5-4e4c-8865-8a8693625499","ios":"levelo://app?vid=43241b2a-4cb5-4e4c-8865-8a8693625499"},"vehicle_type_id":"4","last_reported":1762380591,"current_range_meters":7200,"station_id":"","pricing_plan_id":"cebpf4jnsgd1na2vs0mg"},{"bike_id":"b3b3fcde-ef29-4ae9-9661-53fb5ec40466","system_id":"levelo_inurba_marseille","lat":43.31131,"lon":5.39406,"is_reserved":false,"is_disabled":false,"rental_uris":{"android":"levelo://app?vid=b3b3fcde-ef29-4ae9-9661-53fb5ec40466","ios":"levelo://app?vid=b3b3fcde-ef29-4ae9-9661-53fb5ec40466"},"vehicle_type_id":"4","last_reported":1762380591,"current_range_meters":8000,"station_id":"","pricing_plan_id":"cebpf4jnsgd1na2vs0mg"},{"bike_id":"b10bb226-0147-4ff7-9c4a-945b5e174882","system_id":"levelo_inurba_marseille","lat":43.24651,"lon":5.38892,"is_reserved":false,"is_disabled":false,"rental_uris":{"android":"levelo://app?vid=b10bb226-0147-4ff7-9c4a-945b5e174882","ios":"levelo://app?vid=b10bb226-0147-4ff7-9c4a-945b5e174882"},"vehicle_type_id":"4","last_reported":1762380591,"current_range_meters":8000,"station_id":"ce4bhg12rcd13ifvqf60","pricing_plan_id":"cebpf4jnsgd1na2vs0mg"},{"bike_id":"f9b61f85-d8e8-498e-94c8-9afa4f390e74","system_id":"levelo_inurba_marseille","lat":43.25512,"lon":5.37653,"is_reserved":false,"is_disabled":false,"rental_uris":{"android":"levelo://app?vid=f9b61f85-d8e8-498e-94c8-9afa4f390e74","ios":"levelo://app?vid=f9b61f85-d8e8-498e-94c8-9afa4f390e74"},"vehicle_type_id":"4","last_reported":1762380591,"current_range_meters":8000,"station_id":"ce4bhh12rcd13ifvqff0","pricing_plan_id":"cebpf4jnsgd1na2vs0mg"},{"bike_id":"cd9c6c8f-813a-4b2c-b0c7-7a3265cb2fa0","system_id":"levelo_inurba_marseille","lat":43.24229,"lon":5.39336,"is_reserved":false,"is_disabled":false,"rental_uris":{"android":"levelo://app?vid=cd9c6c8f-813a-4b2c-b0c7-7a3265cb2fa0","ios":"levelo://app?vid=cd9c6c8f-813a-4b2c-b0c7-7a3265cb2fa0"},"vehicle_type_id":"4","last_reported":1762380591,"current_range_meters":8000,"station_id":"","pricing_plan_id":"cebpf4jnsgd1na2vs0mg"},{"bike_id":"f92a4c54-97d6-43bc-b8be-b7d9858ec53f","system_id":"levelo_inurba_marseille","lat":43.25329,"lon":5.42149,"is_reserved":false,"is_disabled":false,"rental_uris":{"android":"levelo://app?vid=f92a4c54-97d6-43bc-b8be-b7d9858ec53f","ios":"levelo://app?vid=f92a4c54-97d6-43bc-b8be-b7d9858ec53f"},"vehicle_type_id":"4","last_reported":1762380591,"current_range_meters":8000,"station_id":"","pricing_plan_id":"cebpf4jnsgd1na2vs0mg"},{"bike_id":"0f8ff35c-743d-4d54-a7f7-e5cc108ffd8a","system_id":"levelo_inurba_marseille","lat":43.29996,"lon":5.39871,"is_reserved":false,"is_disabled":false,"rental_uris":{"android":"levelo://app?vid=0f8ff35c-743d-4d54-a7f7-e5cc108ffd8a","ios":"levelo://app?vid=0f8ff35c-743d-4d54-a7f7-e5cc108ffd8a"},"vehicle_type_id":"4","last_reported":1762380591,"current_range_meters":8800,"station_id":"","pricing_plan_id":"cebpf4jnsgd1na2vs0mg"},{"bike_id":"36dadbf7-a228-4f6f-8b08-391008b68693","system_id":"levelo_inurba_marseille","lat":43.34555,"lon":5.368293,"is_reserved":false,"is_disabled":false,"rental_uris":{"android":"levelo://app?vid=36dadbf7-a228-4f6f-8b08-391008b68693","ios":"levelo://app?vid=36dadbf7-a228-4f6f-8b08-391008b68693"},"vehicle_type_id":"4","last_reported":1762380591,"current_range_meters":8800,"station_id":"","pricing_plan_id":"cebpf4jnsgd1na2vs0mg"},{"bike_id":"9465d862-db38-45cb-98a3-e49ecdfda4db","system_id":"levelo_inurba_marseille","lat":43.29494,"lon":5.43303,"is_reserved":false,"is_disabled":true,"rental_uris":{"android":"levelo://app?vid=9465d862-db38-45cb-98a3-e49ecdfda4db","ios":"levelo://app?vid=9465d862-db38-45cb-98a3-e49ecdfda4db"},"vehicle_type_id":"4","last_reported":1762380591,"current_range_meters":8800,"station_id":"st_d3j5ugp08ojc73fj9d10","pricing_plan_id":"cebpf4jnsgd1na2vs0mg"},{"bike_id":"ea4f4b84-78b0-4180-a7f8-ecb8c6182713","system_id":"levelo_inurba_marseille","lat":43.2953,"lon":5.36104,"is_reserved":false,"is_disabled":true,"rental_uris":{"android":"levelo://app?vid=ea4f4b84-78b0-4180-a7f8-ecb8c6182713","ios":"levelo://app?vid=ea4f4b84-78b0-4180-a7f8-ecb8c6182713"},"vehicle_type_id":"4","last_reported":1762380591,"current_range_meters":8800,"station_id":"","pricing_plan_id":"cebpf4jnsgd1na2vs0mg"},{"bike_id":"76b7b0d3-59f1-4530-8573-24bcc168f308","system_id":"levelo_inurba_marseille","lat":43.28465,"lon":5.35861,"is_reserved":false,"is_disabled":false,"rental_uris":{"android":"levelo://app?vid=76b7b0d3-59f1-4530-8573-24bcc168f308","ios":"levelo://app?vid=76b7b0d3-59f1-4530-8573-24bcc168f308"},"vehicle_type_id":"4","last_reported":1762380591,"current_range_meters":8800,"station_id":"ce4bhah2rcd13ifvqei0","pricing_plan_id":"cebpf4jnsgd1na2vs0mg"},{"bike_id":"909276d2-2f6a-4a77-adb3-88fffc8a36a3","system_id":"levelo_inurba_marseille","lat":43.28356,"lon":5.38099,"is_reserved":false,"is_disabled":false,"rental_uris":{"android":"levelo://app?vid=909276d2-2f6a-4a77-adb3-88fffc8a36a3","ios":"levelo://app?vid=909276d2-2f6a-4a77-adb3-88fffc8a36a3"},"vehicle_type_id":"4","last_reported":1762380591,"current_range_meters":9200,"station_id":"ce4bh412rcd13ifvqdr0","pricing_plan_id":"cebpf4jnsgd1na2vs0mg"},{"bike_id":"02c565c9-e1be-4475-b1a9-b37751cdb830","system_id":"levelo_inurba_marseille","lat":43.34192,"lon":5.34808,"is_reserved":false,"is_disabled":false,"rental_uris":{"android":"levelo://app?vid=02c565c9-e1be-4475-b1a9-b37751cdb830","ios":"levelo://app?vid=02c565c9-e1be-4475-b1a9-b37751cdb830"},"vehicle_type_id":"4","last_reported":1762380591,"current_range_meters":9600,"station_id":"","pricing_plan_id":"cebpf4jnsgd1na2vs0mg"},{"bike_id":"b6ca4410-31f2-4bfa-a6d3-2f0a4f6b5118","system_id":"levelo_inurba_marseille","lat":43.292633,"lon":5.384323,"is_reserved":false,"is_disabled":true,"rental_uris":{"android":"levelo://app?vid=b6ca4410-31f2-4bfa-a6d3-2f0a4f6b5118","ios":"levelo://app?vid=b6ca4410-31f2-4bfa-a6d3-2f0a4f6b5118"},"vehicle_type_id":"4","last_reported":1762380591,"current_range_meters":9600,"station_id":"ce4bh692rcd13ifvqea0","pricing_plan_id":"cebpf4jnsgd1na2vs0mg"},{"bike_id":"0efcd18a-8960-4933-9d9f-cf775ef41afd","system_id":"levelo_inurba_marseille","lat":43.3003,"lon":5.38889,"is_reserved":false,"is_disabled":false,"rental_uris":{"android":"levelo://app?vid=0efcd18a-8960-4933-9d9f-cf775ef41afd","ios":"levelo://app?vid=0efcd18a-8960-4933-9d9f-cf775ef41afd"},"vehicle_type_id":"4","last_reported":1762380591,"current_range_meters":9600,"station_id":"","pricing_plan_id":"cebpf4jnsgd1na2vs0mg"},{"bike_id":"765b9661-2b24-4c0f-a9fb-732d7409b10c","system_id":"levelo_inurba_marseille","lat":43.21639,"lon":5.34427,"is_reserved":false,"is_disabled":false,"rental_uris":{"android":"levelo://app?vid=765b9661-2b24-4c0f-a9fb-732d7409b10c","ios":"levelo://app?vid=765b9661-2b24-4c0f-a9fb-732d7409b10c"},"vehicle_type_id":"4","last_reported":1762380591,"current_range_meters":9600,"station_id":"","pricing_plan_id":"cebpf4jnsgd1na2vs0mg"},{"bike_id":"7c8c77e6-611f-4f5e-8374-da326e1729a3","system_id":"levelo_inurba_marseille","lat":43.29811,"lon":5.44072,"is_reserved":false,"is_disabled":false,"rental_uris":{"android":"levelo://app?vid=7c8c77e6-611f-4f5e-8374-da326e1729a3","ios":"levelo://app?vid=7c8c77e6-611f-4f5e-8374-da326e1729a3"},"vehicle_type_id":"4","last_reported":1762380591,"current_range_meters":9600,"station_id":"st_d3jp68qikq2c7381ktn0","pricing_plan_id":"cebpf4jnsgd1na2vs0mg"},{"bike_id":"3ed02add-87f3-41d7-bdf1-1cf82493034f","system_id":"levelo_inurba_marseille","lat":43.2931,"lon":5.38339,"is_reserved":false,"is_disabled":false,"rental_uris":{"android":"levelo://app?vid=3ed02add-87f3-41d7-bdf1-1cf82493034f","ios":"levelo://app?vid=3ed02add-87f3-41d7-bdf1-1cf82493034f"},"vehicle_type_id":"4","last_reported":1762380591,"current_range_meters":9600,"station_id":"","pricing_plan_id":"cebpf4jnsgd1na2vs0mg"},{"bike_id":"e7002296-a724-4792-9c77-9aa7da662e7d","system_id":"levelo_inurba_marseille","lat":43.29752,"lon":5.36248,"is_reserved":false,"is_disabled":false,"rental_uris":{"android":"levelo://app?vid=e7002296-a724-4792-9c77-9aa7da662e7d","ios":"levelo://app?vid=e7002296-a724-4792-9c77-9aa7da662e7d"},"vehicle_type_id":"4","last_reported":1762380591,"current_range_meters":9600,"station_id":"","pricing_plan_id":"cebpf4jnsgd1na2vs0mg"},{"bike_id":"4b24dbba-41a5-4ecf-ade9-ac15d69f3a39","system_id":"levelo_inurba_marseille","lat":43.30277,"lon":5.37689,"is_reserved":false,"is_disabled":false,"rental_uris":{"android":"levelo://app?vid=4b24dbba-41a5-4ecf-ade9-ac15d69f3a39","ios":"levelo://app?vid=4b24dbba-41a5-4ecf-ade9-ac15d69f3a39"},"vehicle_type_id":"4","last_reported":1762380591,"current_range_meters":10000,"station_id":"ce4bguh2rcd13ifvqcj0","pricing_plan_id":"cebpf4jnsgd1na2vs0mg"},{"bike_id":"75a0e7d0-a4d6-4f7c-adce-b5f633c7cb4f","system_id":"levelo_inurba_marseille","lat":43.30613,"lon":5.37244,"is_reserved":false,"is_disabled":true,"rental_uris":{"android":"levelo://app?vid=75a0e7d0-a4d6-4f7c-adce-b5f633c7cb4f","ios":"levelo://app?vid=75a0e7d0-a4d6-4f7c-adce-b5f633c7cb4f"},"vehicle_type_id":"4","last_reported":1762380591,"current_range_meters":10000,"station_id":"ce4bgqh2rcd13ifvqc4g","pricing_plan_id":"cebpf4jnsgd1na2vs0mg"},{"bike_id":"528e10e5-fbfd-4591-9275-c81e42b475d9","system_id":"levelo_inurba_marseille","lat":43.24953,"lon":5.40484,"is_reserved":false,"is_disabled":false,"rental_uris":{"android":"levelo://app?vid=528e10e5-fbfd-4591-9275-c81e42b475d9","ios":"levelo://app?vid=528e10e5-fbfd-4591-9275-c81e42b475d9"},"vehicle_type_id":"4","last_reported":1762380591,"current_range_meters":10000,"station_id":"st_d2ngiaodas8pm72gd1h0","pricing_plan_id":"cebpf4jnsgd1na2vs0mg"},{"bike_id":"7479cfee-6f68-4a59-afc8-ceca6b83dba4","system_id":"levelo_inurba_marseille","lat":43.25588,"lon":5.38231,"is_reserved":false,"is_disabled":false,"rental_uris":{"android":"levelo://app?vid=7479cfee-6f68-4a59-afc8-ceca6b83dba4","ios":"levelo://app?vid=7479cfee-6f68-4a59-afc8-ceca6b83dba4"},"vehicle_type_id":"4","last_reported":1762380591,"current_range_meters":10000,"station_id":"ce4bhih2rcd13ifvqfs0","pricing_plan_id":"cebpf4jnsgd1na2vs0mg"},{"bike_id":"ac3661dd-248f-4b92-ad04-1fbf8e5c6660","system_id":"levelo_inurba_marseille","lat":43.28037,"lon":5.36952,"is_reserved":false,"is_disabled":true,"rental_uris":{"android":"levelo://app?vid=ac3661dd-248f-4b92-ad04-1fbf8e5c6660","ios":"levelo://app?vid=ac3661dd-248f-4b92-ad04-1fbf8e5c6660"},"vehicle_type_id":"4","last_reported":1762380591,"current_range_meters":10000,"station_id":"ce4bha12rcd13ifvqef0","pricing_plan_id":"cebpf4jnsgd1na2vs0mg"},{"bike_id":"70cb578b-b109-4b39-bffa-8ea3228aa29c","system_id":"levelo_inurba_marseille","lat":43.27986,"lon":5.41708,"is_reserved":false,"is_disabled":false,"rental_uris":{"android":"levelo://app?vid=70cb578b-b109-4b39-bffa-8ea3228aa29c","ios":"levelo://app?vid=70cb578b-b109-4b39-bffa-8ea3228aa29c"},"vehicle_type_id":"4","last_reported":1762380591,"current_range_meters":10000,"station_id":"","pricing_plan_id":"cebpf4jnsgd1na2vs0mg"},{"bike_id":"3f14eb3d-e886-442c-a29d-ce46126f5339","system_id":"levelo_inurba_marseille","lat":43.22937,"lon":5.35371,"is_reserved":false,"is_disabled":false,"rental_uris":{"android":"levelo://app?vid=3f14eb3d-e886-442c-a29d-ce46126f5339","ios":"levelo://app?vid=3f14eb3d-e886-442c-a29d-ce46126f5339"},"vehicle_type_id":"4","last_reported":1762380591,"current_range_meters":10800,"station_id":"cpo3532slgdg3j2ikp40","pricing_plan_id":"cebpf4jnsgd1na2vs0mg"},{"bike_id":"cbf56b2a-2fe7-49c7-b629-bc93f74b7393","system_id":"levelo_inurba_marseille","lat":43.24565,"lon":5.41542,"is_reserved":false,"is_disabled":false,"rental_uris":{"android":"levelo://app?vid=cbf56b2a-2fe7-49c7-b629-bc93f74b7393","ios":"levelo://app?vid=cbf56b2a-2fe7-49c7-b629-bc93f74b7393"},"vehicle_type_id":"4","last_reported":1762380591,"current_range_meters":10800,"station_id":"","pricing_plan_id":"cebpf4jnsgd1na2vs0mg"},{"bike_id":"7d767f03-2923-4cb0-b987-76e0a8c95a82","system_id":"levelo_inurba_marseille","lat":43.289459,"lon":5.36645,"is_reserved":false,"is_disabled":false,"rental_uris":{"android":"levelo://app?vid=7d767f03-2923-4cb0-b987-76e0a8c95a82","ios":"levelo://app?vid=7d767f03-2923-4cb0-b987-76e0a8c95a82"},"vehicle_type_id":"4","last_reported":1762380591,"current_range_meters":10800,"station_id":"ce4bhap2rcd13ifvqek0","pricing_plan_id":"cebpf4jnsgd1na2vs0mg"},{"bike_id":"571bd3a6-912b-44a3-9841-50c558a61481","system_id":"levelo_inurba_marseille","lat":43.281227,"lon":5.405523,"is_reserved":false,"is_disabled":false,"rental_uris":{"android":"levelo://app?vid=571bd3a6-912b-44a3-9841-50c558a61481","ios":"levelo://app?vid=571bd3a6-912b-44a3-9841-50c558a61481"},"vehicle_type_id":"4","last_reported":1762380591,"current_range_meters":11200,"station_id":"","pricing_plan_id":"cebpf4jnsgd1na2vs0mg"},{"bike_id":"0311ed39-e0fb-4540-8f9d-3e2c7e4fef91","system_id":"levelo_inurba_marseille","lat":43.3031,"lon":5.36903,"is_reserved":false,"is_disabled":false,"rental_uris":{"android":"levelo://app?vid=0311ed39-e0fb-4540-8f9d-3e2c7e4fef91","ios":"levelo://app?vid=0311ed39-e0fb-4540-8f9d-3e2c7e4fef91"},"vehicle_type_id":"4","last_reported":1762380591,"current_range_meters":11200,"station_id":"ce4bgqh2rcd13ifvqc5g","pricing_plan_id":"cebpf4jnsgd1na2vs0mg"},{"bike_id":"7dd0a1b1-116d-4fee-bfcb-0eb5c293dfac","system_id":"levelo_inurba_marseille","lat":43.25822,"lon":5.3944,"is_reserved":false,"is_disabled":false,"rental_uris":{"android":"levelo://app?vid=7dd0a1b1-116d-4fee-bfcb-0eb5c293dfac","ios":"levelo://app?vid=7dd0a1b1-116d-4fee-bfcb-0eb5c293dfac"},"vehicle_type_id":"4","last_reported":1762380591,"current_range_meters":11200,"station_id":"ce4bhip2rcd13ifvqft0","pricing_plan_id":"cebpf4jnsgd1na2vs0mg"},{"bike_id":"1ccfb4dc-16f9-46fe-ba65-f75ae7cb48db","system_id":"levelo_inurba_marseille","lat":43.251128,"lon":5.403112,"is_reserved":false,"is_disabled":false,"rental_uris":{"android":"levelo://app?vid=1ccfb4dc-16f9-46fe-ba65-f75ae7cb48db","ios":"levelo://app?vid=1ccfb4dc-16f9-46fe-ba65-f75ae7cb48db"},"vehicle_type_id":"4","last_reported":1762380591,"current_range_meters":11200,"station_id":"ce4bhlh2rcd13ifvqgig","pricing_plan_id":"cebpf4jnsgd1na2vs0mg"},{"bike_id":"ceb4a990-cb5d-454a-a0da-25b46c4913eb","system_id":"levelo_inurba_marseille","lat":43.251154,"lon":5.403199,"is_reserved":false,"is_disabled":false,"rental_uris":{"android":"levelo://app?vid=ceb4a990-cb5d-454a-a0da-25b46c4913eb","ios":"levelo://app?vid=ceb4a990-cb5d-454a-a0da-25b46c4913eb"},"vehicle_type_id":"4","last_reported":1762380591,"current_range_meters":11200,"station_id":"ce4bhlh2rcd13ifvqgig","pricing_plan_id":"cebpf4jnsgd1na2vs0mg"},{"bike_id":"2d07d582-2fb3-48f9-b27d-8c24c71a7dda","system_id":"levelo_inurba_marseille","lat":43.307981,"lon":5.381527,"is_reserved":false,"is_disabled":false,"rental_uris":{"android":"levelo://app?vid=2d07d582-2fb3-48f9-b27d-8c24c71a7dda","ios":"levelo://app?vid=2d07d582-2fb3-48f9-b27d-8c24c71a7dda"},"vehicle_type_id":"4","last_reported":1762380591,"current_range_meters":11600,"station_id":"ce4bgt12rcd13ifvqce0","pricing_plan_id":"cebpf4jnsgd1na2vs0mg"},{"bike_id":"b8bf2799-1db9-47dd-b7c3-5c4dffca3ddf","system_id":"levelo_inurba_marseille","lat":43.23777,"lon":5.36635,"is_reserved":false,"is_disabled":false,"rental_uris":{"android":"levelo://app?vid=b8bf2799-1db9-47dd-b7c3-5c4dffca3ddf","ios":"levelo://app?vid=b8bf2799-1db9-47dd-b7c3-5c4dffca3ddf"},"vehicle_type_id":"4","last_reported":1762380591,"current_range_meters":11600,"station_id":"st_d3nk18o9ro0c73en2l3g","pricing_plan_id":"cebpf4jnsgd1na2vs0mg"},{"bike_id":"166452bc-5e96-42b7-8c41-2b91749b5fde","system_id":"levelo_inurba_marseille","lat":43.32107,"lon":5.36766,"is_reserved":false,"is_disabled":false,"rental_uris":{"android":"levelo://app?vid=166452bc-5e96-42b7-8c41-2b91749b5fde","ios":"levelo://app?vid=166452bc-5e96-42b7-8c41-2b91749b5fde"},"vehicle_type_id":"4","last_reported":1762380591,"current_range_meters":11600,"station_id":"ce4bhrh2rcd13ifvqhug","pricing_plan_id":"cebpf4jnsgd1na2vs0mg"},{"bike_id":"ab9b2bcc-ea75-449d-adbb-4add292d38c4","system_id":"levelo_inurba_marseille","lat":43.34059,"lon":5.38319,"is_reserved":false,"is_disabled":false,"rental_uris":{"android":"levelo://app?vid=ab9b2bcc-ea75-449d-adbb-4add292d38c4","ios":"levelo://app?vid=ab9b2bcc-ea75-449d-adbb-4add292d38c4"},"vehicle_type_id":"4","last_reported":1762380591,"current_range_meters":11600,"station_id":"","pricing_plan_id":"cebpf4jnsgd1na2vs0mg"},{"bike_id":"0d79fbf5-e2d2-4d94-b089-8401b0fba385","system_id":"levelo_inurba_marseille","lat":43.297139,"lon":5.387311,"is_reserved":false,"is_disabled":false,"rental_uris":{"android":"levelo://app?vid=0d79fbf5-e2d2-4d94-b089-8401b0fba385","ios":"levelo://app?vid=0d79fbf5-e2d2-4d94-b089-8401b0fba385"},"vehicle_type_id":"4","last_reported":1762380591,"current_range_meters":11600,"station_id":"ce4bh112rcd13ifvqda0","pricing_plan_id":"cebpf4jnsgd1na2vs0mg"},{"bike_id":"23704d21-dcb4-4524-a0e7-782c68706e98","system_id":"levelo_inurba_marseille","lat":43.27924,"lon":5.41028,"is_reserved":false,"is_disabled":false,"rental_uris":{"android":"levelo://app?vid=23704d21-dcb4-4524-a0e7-782c68706e98","ios":"levelo://app?vid=23704d21-dcb4-4524-a0e7-782c68706e98"},"vehicle_type_id":"4","last_reported":1762380591,"current_range_meters":12000,"station_id":"ce4bhnp2rcd13ifvqh0g","pricing_plan_id":"cebpf4jnsgd1na2vs0mg"},{"bike_id":"709ac22e-2e97-49bc-8ecd-b53546fa35d2","system_id":"levelo_inurba_marseille","lat":43.2466,"lon":5.38171,"is_reserved":false,"is_disabled":false,"rental_uris":{"android":"levelo://app?vid=709ac22e-2e97-49bc-8ecd-b53546fa35d2","ios":"levelo://app?vid=709ac22e-2e97-49bc-8ecd-b53546fa35d2"},"vehicle_type_id":"4","last_reported":1762380591,"current_range_meters":12000,"station_id":"ce4bhih2rcd13ifvqfr0","pricing_plan_id":"cebpf4jnsgd1na2vs0mg"},{"bike_id":"b78a3f58-aa58-46ec-81b6-5811d8a0dc36","system_id":"levelo_inurba_marseille","lat":43.28933,"lon":5.38394,"is_reserved":false,"is_disabled":false,"rental_uris":{"android":"levelo://app?vid=b78a3f58-aa58-46ec-81b6-5811d8a0dc36","ios":"levelo://app?vid=b78a3f58-aa58-46ec-81b6-5811d8a0dc36"},"vehicle_type_id":"4","last_reported":1762380591,"current_range_meters":12000,"station_id":"ce4bh612rcd13ifvqe6g","pricing_plan_id":"cebpf4jnsgd1na2vs0mg"},{"bike_id":"8db420a7-407a-4cd3-9095-5a8e96625979","system_id":"levelo_inurba_marseille","lat":43.22932,"lon":5.35381,"is_reserved":false,"is_disabled":false,"rental_uris":{"android":"levelo://app?vid=8db420a7-407a-4cd3-9095-5a8e96625979","ios":"levelo://app?vid=8db420a7-407a-4cd3-9095-5a8e96625979"},"vehicle_type_id":"4","last_reported":1762380591,"current_range_meters":12000,"station_id":"cpo3532slgdg3j2ikp40","pricing_plan_id":"cebpf4jnsgd1na2vs0mg"},{"bike_id":"375d4385-154f-487a-9593-87d7356f2ca3","system_id":"levelo_inurba_marseille","lat":43.289276,"lon":5.384099,"is_reserved":false,"is_disabled":false,"rental_uris":{"android":"levelo://app?vid=375d4385-154f-487a-9593-87d7356f2ca3","ios":"levelo://app?vid=375d4385-154f-487a-9593-87d7356f2ca3"},"vehicle_type_id":"4","last_reported":1762380591,"current_range_meters":12000,"station_id":"","pricing_plan_id":"cebpf4jnsgd1na2vs0mg"},{"bike_id":"c44fac27-b41a-4d2c-b402-1a923628b545","system_id":"levelo_inurba_marseille","lat":43.279152,"lon":5.40909,"is_reserved":false,"is_disabled":false,"rental_uris":{"android":"levelo://app?vid=c44fac27-b41a-4d2c-b402-1a923628b545","ios":"levelo://app?vid=c44fac27-b41a-4d2c-b402-1a923628b545"},"vehicle_type_id":"4","last_reported":1762380591,"current_range_meters":12000,"station_id":"","pricing_plan_id":"cebpf4jnsgd1na2vs0mg"},{"bike_id":"81686a60-b725-4352-b2f2-74035691a2e7","system_id":"levelo_inurba_marseille","lat":43.30639,"lon":5.40096,"is_reserved":false,"is_disabled":false,"rental_uris":{"android":"levelo://app?vid=81686a60-b725-4352-b2f2-74035691a2e7","ios":"levelo://app?vid=81686a60-b725-4352-b2f2-74035691a2e7"},"vehicle_type_id":"4","last_reported":1762380591,"current_range_meters":12000,"station_id":"ce4bh112rcd13ifvqda0","pricing_plan_id":"cebpf4jnsgd1na2vs0mg"},{"bike_id":"13d984c8-48d8-4dfc-aa86-5f78c707cacf","system_id":"levelo_inurba_marseille","lat":43.28037,"lon":5.36942,"is_reserved":false,"is_disabled":true,"rental_uris":{"android":"levelo://app?vid=13d984c8-48d8-4dfc-aa86-5f78c707cacf","ios":"levelo://app?vid=13d984c8-48d8-4dfc-aa86-5f78c707cacf"},"vehicle_type_id":"4","last_reported":1762380591,"current_range_meters":12400,"station_id":"ce4bha12rcd13ifvqef0","pricing_plan_id":"cebpf4jnsgd1na2vs0mg"},{"bike_id":"dae30738-204c-4787-a9b5-e056fa94e0c9","system_id":"levelo_inurba_marseille","lat":43.22575,"lon":5.41636,"is_reserved":false,"is_disabled":false,"rental_uris":{"android":"levelo://app?vid=dae30738-204c-4787-a9b5-e056fa94e0c9","ios":"levelo://app?vid=dae30738-204c-4787-a9b5-e056fa94e0c9"},"vehicle_type_id":"4","last_reported":1762380591,"current_range_meters":12400,"station_id":"st_d2o4gvlbi1j2169b742g","pricing_plan_id":"cebpf4jnsgd1na2vs0mg"},{"bike_id":"c14b70b2-98d4-4848-a2d9-32722b8d1daf","system_id":"levelo_inurba_marseille","lat":43.31797,"lon":5.36833,"is_reserved":false,"is_disabled":false,"rental_uris":{"android":"levelo://app?vid=c14b70b2-98d4-4848-a2d9-32722b8d1daf","ios":"levelo://app?vid=c14b70b2-98d4-4848-a2d9-32722b8d1daf"},"vehicle_type_id":"4","last_reported":1762380591,"current_range_meters":12400,"station_id":"","pricing_plan_id":"cebpf4jnsgd1na2vs0mg"},{"bike_id":"93aff8ba-8ccb-4805-8b64-a290f504b933","system_id":"levelo_inurba_marseille","lat":43.28622,"lon":5.35092,"is_reserved":false,"is_disabled":false,"rental_uris":{"android":"levelo://app?vid=93aff8ba-8ccb-4805-8b64-a290f504b933","ios":"levelo://app?vid=93aff8ba-8ccb-4805-8b64-a290f504b933"},"vehicle_type_id":"4","last_reported":1762380591,"current_range_meters":12400,"station_id":"ce4bhch2rcd13ifvqeug","pricing_plan_id":"cebpf4jnsgd1na2vs0mg"},{"bike_id":"27346f7c-aaa4-4baa-ad09-fca665d79d4e","system_id":"levelo_inurba_marseille","lat":43.29635,"lon":5.40606,"is_reserved":false,"is_disabled":false,"rental_uris":{"android":"levelo://app?vid=27346f7c-aaa4-4baa-ad09-fca665d79d4e","ios":"levelo://app?vid=27346f7c-aaa4-4baa-ad09-fca665d79d4e"},"vehicle_type_id":"4","last_reported":1762380591,"current_range_meters":12400,"station_id":"ce4bh0h2rcd13ifvqd60","pricing_plan_id":"cebpf4jnsgd1na2vs0mg"},{"bike_id":"bcb3c39b-ec48-48ef-9eac-eb8b71840959","system_id":"levelo_inurba_marseille","lat":43.33757,"lon":5.37464,"is_reserved":false,"is_disabled":false,"rental_uris":{"android":"levelo://app?vid=bcb3c39b-ec48-48ef-9eac-eb8b71840959","ios":"levelo://app?vid=bcb3c39b-ec48-48ef-9eac-eb8b71840959"},"vehicle_type_id":"4","last_reported":1762380591,"current_range_meters":12800,"station_id":"","pricing_plan_id":"cebpf4jnsgd1na2vs0mg"},{"bike_id":"813d84df-d28e-442a-86a4-2693a3f1117d","system_id":"levelo_inurba_marseille","lat":43.23052,"lon":5.35497,"is_reserved":false,"is_disabled":false,"rental_uris":{"android":"levelo://app?vid=813d84df-d28e-442a-86a4-2693a3f1117d","ios":"levelo://app?vid=813d84df-d28e-442a-86a4-2693a3f1117d"},"vehicle_type_id":"4","last_reported":1762380591,"current_range_meters":12800,"station_id":"cpo3342slgdg3j2ifvpg","pricing_plan_id":"cebpf4jnsgd1na2vs0mg"},{"bike_id":"8d9583f5-13d4-4bd8-9fd0-8797edcf3040","system_id":"levelo_inurba_marseille","lat":43.24395,"lon":5.37066,"is_reserved":false,"is_disabled":false,"rental_uris":{"android":"levelo://app?vid=8d9583f5-13d4-4bd8-9fd0-8797edcf3040","ios":"levelo://app?vid=8d9583f5-13d4-4bd8-9fd0-8797edcf3040"},"vehicle_type_id":"4","last_reported":1762380591,"current_range_meters":12800,"station_id":"ce4bhhh2rcd13ifvqfk0","pricing_plan_id":"cebpf4jnsgd1na2vs0mg"},{"bike_id":"9985289f-9550-4d33-81df-5625e1f25a02","system_id":"levelo_inurba_marseille","lat":43.24951,"lon":5.40492,"is_reserved":false,"is_disabled":false,"rental_uris":{"android":"levelo://app?vid=9985289f-9550-4d33-81df-5625e1f25a02","ios":"levelo://app?vid=9985289f-9550-4d33-81df-5625e1f25a02"},"vehicle_type_id":"4","last_reported":1762380591,"current_range_meters":12800,"station_id":"st_d2ngiaodas8pm72gd1h0","pricing_plan_id":"cebpf4jnsgd1na2vs0mg"},{"bike_id":"42d2792a-88bd-48e5-afe0-4b6400cd337a","system_id":"levelo_inurba_marseille","lat":43.3169,"lon":5.38203,"is_reserved":false,"is_disabled":false,"rental_uris":{"android":"levelo://app?vid=42d2792a-88bd-48e5-afe0-4b6400cd337a","ios":"levelo://app?vid=42d2792a-88bd-48e5-afe0-4b6400cd337a"},"vehicle_type_id":"4","last_reported":1762380591,"current_range_meters":12800,"station_id":"","pricing_plan_id":"cebpf4jnsgd1na2vs0mg"},{"bike_id":"b1dd7c4b-7e10-4f43-95b7-84593af814c4","system_id":"levelo_inurba_marseille","lat":43.28408,"lon":5.37504,"is_reserved":false,"is_disabled":false,"rental_uris":{"android":"levelo://app?vid=b1dd7c4b-7e10-4f43-95b7-84593af814c4","ios":"levelo://app?vid=b1dd7c4b-7e10-4f43-95b7-84593af814c4"},"vehicle_type_id":"4","last_reported":1762380591,"current_range_meters":12800,"station_id":"ce4bh412rcd13ifvqds0","pricing_plan_id":"cebpf4jnsgd1na2vs0mg"},{"bike_id":"05494d81-4a86-4ffa-98b4-159d396ed055","system_id":"levelo_inurba_marseille","lat":43.31347,"lon":5.39682,"is_reserved":false,"is_disabled":false,"rental_uris":{"android":"levelo://app?vid=05494d81-4a86-4ffa-98b4-159d396ed055","ios":"levelo://app?vid=05494d81-4a86-4ffa-98b4-159d396ed055"},"vehicle_type_id":"4","last_reported":1762380591,"current_range_meters":12800,"station_id":"ce4bgvp2rcd13ifvqcu0","pricing_plan_id":"cebpf4jnsgd1na2vs0mg"},{"bike_id":"81dcc136-dea2-46c0-98af-42dbdee92b54","system_id":"levelo_inurba_marseille","lat":43.28487,"lon":5.48395,"is_reserved":false,"is_disabled":false,"rental_uris":{"android":"levelo://app?vid=81dcc136-dea2-46c0-98af-42dbdee92b54","ios":"levelo://app?vid=81dcc136-dea2-46c0-98af-42dbdee92b54"},"vehicle_type_id":"4","last_reported":1762380591,"current_range_meters":12800,"station_id":"","pricing_plan_id":"cebpf4jnsgd1na2vs0mg"},{"bike_id":"508e04ec-6ed9-49ff-83b4-e57d77661871","system_id":"levelo_inurba_marseille","lat":43.29794,"lon":5.37094,"is_reserved":false,"is_disabled":false,"rental_uris":{"android":"levelo://app?vid=508e04ec-6ed9-49ff-83b4-e57d77661871","ios":"levelo://app?vid=508e04ec-6ed9-49ff-83b4-e57d77661871"},"vehicle_type_id":"4","last_reported":1762380591,"current_range_meters":12800,"station_id":"ce4bgop2rcd13ifvqc1g","pricing_plan_id":"cebpf4jnsgd1na2vs0mg"},{"bike_id":"d05e3da8-8106-4f59-8bbd-be54a04dadf0","system_id":"levelo_inurba_marseille","lat":43.27417,"lon":5.395705,"is_reserved":false,"is_disabled":false,"rental_uris":{"android":"levelo://app?vid=d05e3da8-8106-4f59-8bbd-be54a04dadf0","ios":"levelo://app?vid=d05e3da8-8106-4f59-8bbd-be54a04dadf0"},"vehicle_type_id":"4","last_reported":1762380591,"current_range_meters":12800,"station_id":"ce4bhdp2rcd13ifvqf20","pricing_plan_id":"cebpf4jnsgd1na2vs0mg"},{"bike_id":"c00be172-4928-4296-ba9d-3cb7da7a566b","system_id":"levelo_inurba_marseille","lat":43.302572,"lon":5.400855,"is_reserved":false,"is_disabled":false,"rental_uris":{"android":"levelo://app?vid=c00be172-4928-4296-ba9d-3cb7da7a566b","ios":"levelo://app?vid=c00be172-4928-4296-ba9d-3cb7da7a566b"},"vehicle_type_id":"4","last_reported":1762380591,"current_range_meters":13600,"station_id":"ce4bgvh2rcd13ifvqcs0","pricing_plan_id":"cebpf4jnsgd1na2vs0mg"},{"bike_id":"94b06f3e-9c43-404e-899a-d1e48d6d7a76","system_id":"levelo_inurba_marseille","lat":43.287102,"lon":5.399967,"is_reserved":false,"is_disabled":false,"rental_uris":{"android":"levelo://app?vid=94b06f3e-9c43-404e-899a-d1e48d6d7a76","ios":"levelo://app?vid=94b06f3e-9c43-404e-899a-d1e48d6d7a76"},"vehicle_type_id":"4","last_reported":1762380591,"current_range_meters":13600,"station_id":"ce4bho92rcd13ifvqh3g","pricing_plan_id":"cebpf4jnsgd1na2vs0mg"},{"bike_id":"a6010974-670e-49c0-b408-8e5fee4c2775","system_id":"levelo_inurba_marseille","lat":43.2416,"lon":5.36424,"is_reserved":false,"is_disabled":false,"rental_uris":{"android":"levelo://app?vid=a6010974-670e-49c0-b408-8e5fee4c2775","ios":"levelo://app?vid=a6010974-670e-49c0-b408-8e5fee4c2775"},"vehicle_type_id":"4","last_reported":1762380591,"current_range_meters":13600,"station_id":"cpo36qri1sfpv3e86is0","pricing_plan_id":"cebpf4jnsgd1na2vs0mg"},{"bike_id":"d1dda1a3-56ec-411a-af14-ce9e6583b8d3","system_id":"levelo_inurba_marseille","lat":43.24671,"lon":5.38166,"is_reserved":false,"is_disabled":false,"rental_uris":{"android":"levelo://app?vid=d1dda1a3-56ec-411a-af14-ce9e6583b8d3","ios":"levelo://app?vid=d1dda1a3-56ec-411a-af14-ce9e6583b8d3"},"vehicle_type_id":"4","last_reported":1762380591,"current_range_meters":13600,"station_id":"ce4bhih2rcd13ifvqfr0","pricing_plan_id":"cebpf4jnsgd1na2vs0mg"},{"bike_id":"cff64f4e-5f37-43ea-ae7e-1ca574864a38","system_id":"levelo_inurba_marseille","lat":43.32427,"lon":5.4275,"is_reserved":false,"is_disabled":false,"rental_uris":{"android":"levelo://app?vid=cff64f4e-5f37-43ea-ae7e-1ca574864a38","ios":"levelo://app?vid=cff64f4e-5f37-43ea-ae7e-1ca574864a38"},"vehicle_type_id":"4","last_reported":1762380591,"current_range_meters":13600,"station_id":"","pricing_plan_id":"cebpf4jnsgd1na2vs0mg"},{"bike_id":"89668189-b95b-43c4-a0b4-cad5f1f90638","system_id":"levelo_inurba_marseille","lat":43.30147,"lon":5.38106,"is_reserved":false,"is_disabled":true,"rental_uris":{"android":"levelo://app?vid=89668189-b95b-43c4-a0b4-cad5f1f90638","ios":"levelo://app?vid=89668189-b95b-43c4-a0b4-cad5f1f90638"},"vehicle_type_id":"4","last_reported":1762380591,"current_range_meters":13600,"station_id":"ce4bgjp2rcd13ifvqbh0","pricing_plan_id":"cebpf4jnsgd1na2vs0mg"},{"bike_id":"c259e04f-30ae-4004-813c-bfcf3bba2dbc","system_id":"levelo_inurba_marseille","lat":43.28206,"lon":5.39046,"is_reserved":false,"is_disabled":false,"rental_uris":{"android":"levelo://app?vid=c259e04f-30ae-4004-813c-bfcf3bba2dbc","ios":"levelo://app?vid=c259e04f-30ae-4004-813c-bfcf3bba2dbc"},"vehicle_type_id":"4","last_reported":1762380591,"current_range_meters":13600,"station_id":"ce4bhn92rcd13ifvqgsg","pricing_plan_id":"cebpf4jnsgd1na2vs0mg"},{"bike_id":"27aefe03-bbd2-43d3-8d72-3a7105da9194","system_id":"levelo_inurba_marseille","lat":43.31356,"lon":5.37911,"is_reserved":false,"is_disabled":false,"rental_uris":{"android":"levelo://app?vid=27aefe03-bbd2-43d3-8d72-3a7105da9194","ios":"levelo://app?vid=27aefe03-bbd2-43d3-8d72-3a7105da9194"},"vehicle_type_id":"4","last_reported":1762380591,"current_range_meters":13600,"station_id":"","pricing_plan_id":"cebpf4jnsgd1na2vs0mg"},{"bike_id":"f1dd700f-0364-4cee-825a-4f6ec40776ac","system_id":"levelo_inurba_marseille","lat":43.28975,"lon":5.37841,"is_reserved":false,"is_disabled":false,"rental_uris":{"android":"levelo://app?vid=f1dd700f-0364-4cee-825a-4f6ec40776ac","ios":"levelo://app?vid=f1dd700f-0364-4cee-825a-4f6ec40776ac"},"vehicle_type_id":"4","last_reported":1762380591,"current_range_meters":13600,"station_id":"ce4bh9p2rcd13ifvqed0","pricing_plan_id":"cebpf4jnsgd1na2vs0mg"},{"bike_id":"8cf54d33-efb5-4166-8509-df2cb57488b1","system_id":"levelo_inurba_marseille","lat":43.33426,"lon":5.40027,"is_reserved":false,"is_disabled":false,"rental_uris":{"android":"levelo://app?vid=8cf54d33-efb5-4166-8509-df2cb57488b1","ios":"levelo://app?vid=8cf54d33-efb5-4166-8509-df2cb57488b1"},"vehicle_type_id":"4","last_reported":1762380591,"current_range_meters":13600,"station_id":"","pricing_plan_id":"cebpf4jnsgd1na2vs0mg"},{"bike_id":"72d6d1aa-ee60-4366-a03f-3d0244ccfd08","system_id":"levelo_inurba_marseille","lat":43.28866,"lon":5.3933,"is_reserved":false,"is_disabled":true,"rental_uris":{"android":"levelo://app?vid=72d6d1aa-ee60-4366-a03f-3d0244ccfd08","ios":"levelo://app?vid=72d6d1aa-ee60-4366-a03f-3d0244ccfd08"},"vehicle_type_id":"4","last_reported":1762380591,"current_range_meters":14000,"station_id":"ce4bh2p2rcd13ifvqdi0","pricing_plan_id":"cebpf4jnsgd1na2vs0mg"},{"bike_id":"07f5d945-0a2b-4d3e-8d40-c91ebaa88b83","system_id":"levelo_inurba_marseille","lat":43.29269,"lon":5.37629,"is_reserved":false,"is_disabled":false,"rental_uris":{"android":"levelo://app?vid=07f5d945-0a2b-4d3e-8d40-c91ebaa88b83","ios":"levelo://app?vid=07f5d945-0a2b-4d3e-8d40-c91ebaa88b83"},"vehicle_type_id":"4","last_reported":1762380591,"current_range_meters":14000,"station_id":"ce4bgi12rcd13ifvqb80","pricing_plan_id":"cebpf4jnsgd1na2vs0mg"},{"bike_id":"dcd7cc05-09ca-451c-b5c3-aec30ed844a3","system_id":"levelo_inurba_marseille","lat":43.29389,"lon":5.39877,"is_reserved":false,"is_disabled":false,"rental_uris":{"android":"levelo://app?vid=dcd7cc05-09ca-451c-b5c3-aec30ed844a3","ios":"levelo://app?vid=dcd7cc05-09ca-451c-b5c3-aec30ed844a3"},"vehicle_type_id":"4","last_reported":1762380591,"current_range_meters":14400,"station_id":"","pricing_plan_id":"cebpf4jnsgd1na2vs0mg"},{"bike_id":"56b5ecf7-3bf4-48af-a2a7-db21803cf10a","system_id":"levelo_inurba_marseille","lat":43.289236,"lon":5.383911,"is_reserved":false,"is_disabled":false,"rental_uris":{"android":"levelo://app?vid=56b5ecf7-3bf4-48af-a2a7-db21803cf10a","ios":"levelo://app?vid=56b5ecf7-3bf4-48af-a2a7-db21803cf10a"},"vehicle_type_id":"4","last_reported":1762380591,"current_range_meters":14400,"station_id":"ce4bh612rcd13ifvqe6g","pricing_plan_id":"cebpf4jnsgd1na2vs0mg"},{"bike_id":"3e3c4309-1d07-410f-abe7-93465a07168a","system_id":"levelo_inurba_marseille","lat":43.30307,"lon":5.3922,"is_reserved":false,"is_disabled":false,"rental_uris":{"android":"levelo://app?vid=3e3c4309-1d07-410f-abe7-93465a07168a","ios":"levelo://app?vid=3e3c4309-1d07-410f-abe7-93465a07168a"},"vehicle_type_id":"4","last_reported":1762380591,"current_range_meters":14800,"station_id":"ce4bgkh2rcd13ifvqbk0","pricing_plan_id":"cebpf4jnsgd1na2vs0mg"},{"bike_id":"52064b58-4d79-446c-a869-74b6ab73bc9f","system_id":"levelo_inurba_marseille","lat":43.30415,"lon":5.41287,"is_reserved":false,"is_disabled":false,"rental_uris":{"android":"levelo://app?vid=52064b58-4d79-446c-a869-74b6ab73bc9f","ios":"levelo://app?vid=52064b58-4d79-446c-a869-74b6ab73bc9f"},"vehicle_type_id":"4","last_reported":1762380591,"current_range_meters":15200,"station_id":"ce4bhop2rcd13ifvqh8g","pricing_plan_id":"cebpf4jnsgd1na2vs0mg"},{"bike_id":"34e073ff-f842-4dc1-a850-ce32c28ccee5","system_id":"levelo_inurba_marseille","lat":43.27327,"lon":5.39082,"is_reserved":false,"is_disabled":false,"rental_uris":{"android":"levelo://app?vid=34e073ff-f842-4dc1-a850-ce32c28ccee5","ios":"levelo://app?vid=34e073ff-f842-4dc1-a850-ce32c28ccee5"},"vehicle_type_id":"4","last_reported":1762380591,"current_range_meters":15200,"station_id":"ce4bhgp2rcd13ifvqfe0","pricing_plan_id":"cebpf4jnsgd1na2vs0mg"},{"bike_id":"3737119b-b9ee-4853-abf1-69ab2692ad39","system_id":"levelo_inurba_marseille","lat":43.23152,"lon":5.43724,"is_reserved":false,"is_disabled":false,"rental_uris":{"android":"levelo://app?vid=3737119b-b9ee-4853-abf1-69ab2692ad39","ios":"levelo://app?vid=3737119b-b9ee-4853-abf1-69ab2692ad39"},"vehicle_type_id":"4","last_reported":1762380591,"current_range_meters":15200,"station_id":"ce4bhmp2rcd13ifvqgog","pricing_plan_id":"cebpf4jnsgd1na2vs0mg"},{"bike_id":"332ea5f8-d8ad-4878-bba6-2a32605882e6","system_id":"levelo_inurba_marseille","lat":43.32095,"lon":5.3678,"is_reserved":false,"is_disabled":false,"rental_uris":{"android":"levelo://app?vid=332ea5f8-d8ad-4878-bba6-2a32605882e6","ios":"levelo://app?vid=332ea5f8-d8ad-4878-bba6-2a32605882e6"},"vehicle_type_id":"4","last_reported":1762380591,"current_range_meters":15200,"station_id":"ce4bhrh2rcd13ifvqhug","pricing_plan_id":"cebpf4jnsgd1na2vs0mg"},{"bike_id":"11372894-d7ea-4a4b-8de6-72ef5b114c38","system_id":"levelo_inurba_marseille","lat":43.273297,"lon":5.39059,"is_reserved":false,"is_disabled":false,"rental_uris":{"android":"levelo://app?vid=11372894-d7ea-4a4b-8de6-72ef5b114c38","ios":"levelo://app?vid=11372894-d7ea-4a4b-8de6-72ef5b114c38"},"vehicle_type_id":"4","last_reported":1762380591,"current_range_meters":15200,"station_id":"ce4bhgp2rcd13ifvqfe0","pricing_plan_id":"cebpf4jnsgd1na2vs0mg"},{"bike_id":"d77a88e5-20b9-4fe1-89df-69baec122738","system_id":"levelo_inurba_marseille","lat":43.29748,"lon":5.38075,"is_reserved":false,"is_disabled":false,"rental_uris":{"android":"levelo://app?vid=d77a88e5-20b9-4fe1-89df-69baec122738","ios":"levelo://app?vid=d77a88e5-20b9-4fe1-89df-69baec122738"},"vehicle_type_id":"4","last_reported":1762380591,"current_range_meters":15200,"station_id":"","pricing_plan_id":"cebpf4jnsgd1na2vs0mg"},{"bike_id":"f64bf7d2-5fd8-4fa3-b324-dc5fa9e2df5d","system_id":"levelo_inurba_marseille","lat":43.29531,"lon":5.38537,"is_reserved":false,"is_disabled":false,"rental_uris":{"android":"levelo://app?vid=f64bf7d2-5fd8-4fa3-b324-dc5fa9e2df5d","ios":"levelo://app?vid=f64bf7d2-5fd8-4fa3-b324-dc5fa9e2df5d"},"vehicle_type_id":"4","last_reported":1762380591,"current_range_meters":15200,"station_id":"ce4bgih2rcd13ifvqba0","pricing_plan_id":"cebpf4jnsgd1na2vs0mg"},{"bike_id":"929999a6-b071-4278-81b4-e68a96607eec","system_id":"levelo_inurba_marseille","lat":43.24075,"lon":5.37773,"is_reserved":false,"is_disabled":false,"rental_uris":{"android":"levelo://app?vid=929999a6-b071-4278-81b4-e68a96607eec","ios":"levelo://app?vid=929999a6-b071-4278-81b4-e68a96607eec"},"vehicle_type_id":"4","last_reported":1762380591,"current_range_meters":15200,"station_id":"ce4bhnp2rcd13ifvqgvg","pricing_plan_id":"cebpf4jnsgd1na2vs0mg"},{"bike_id":"2513b90c-b4c3-43bd-8303-1097f32912a8","system_id":"levelo_inurba_marseille","lat":43.24942,"lon":5.40495,"is_reserved":false,"is_disabled":false,"rental_uris":{"android":"levelo://app?vid=2513b90c-b4c3-43bd-8303-1097f32912a8","ios":"levelo://app?vid=2513b90c-b4c3-43bd-8303-1097f32912a8"},"vehicle_type_id":"4","last_reported":1762380591,"current_range_meters":15200,"station_id":"st_d2ngiaodas8pm72gd1h0","pricing_plan_id":"cebpf4jnsgd1na2vs0mg"},{"bike_id":"ddeaa719-beea-4500-8aff-3836fff83949","system_id":"levelo_inurba_marseille","lat":43.31275,"lon":5.4676,"is_reserved":false,"is_disabled":false,"rental_uris":{"android":"levelo://app?vid=ddeaa719-beea-4500-8aff-3836fff83949","ios":"levelo://app?vid=ddeaa719-beea-4500-8aff-3836fff83949"},"vehicle_type_id":"4","last_reported":1762380591,"current_range_meters":15200,"station_id":"","pricing_plan_id":"cebpf4jnsgd1na2vs0mg"},{"bike_id":"361929a8-d7eb-429e-bc08-e51e1b6cada8","system_id":"levelo_inurba_marseille","lat":43.29435,"lon":5.39742,"is_reserved":false,"is_disabled":false,"rental_uris":{"android":"levelo://app?vid=361929a8-d7eb-429e-bc08-e51e1b6cada8","ios":"levelo://app?vid=361929a8-d7eb-429e-bc08-e51e1b6cada8"},"vehicle_type_id":"4","last_reported":1762380591,"current_range_meters":16000,"station_id":"ce4bh3h2rcd13ifvqdo0","pricing_plan_id":"cebpf4jnsgd1na2vs0mg"},{"bike_id":"376d879c-b18b-4d8c-8432-51ed24b99976","system_id":"levelo_inurba_marseille","lat":43.268053,"lon":5.402702,"is_reserved":false,"is_disabled":false,"rental_uris":{"android":"levelo://app?vid=376d879c-b18b-4d8c-8432-51ed24b99976","ios":"levelo://app?vid=376d879c-b18b-4d8c-8432-51ed24b99976"},"vehicle_type_id":"4","last_reported":1762380591,"current_range_meters":16000,"station_id":"ce501612rcd8frsf0b60","pricing_plan_id":"cebpf4jnsgd1na2vs0mg"},{"bike_id":"1630b2ec-950a-417d-ae10-91104c051d51","system_id":"levelo_inurba_marseille","lat":43.27813,"lon":5.40726,"is_reserved":false,"is_disabled":false,"rental_uris":{"android":"levelo://app?vid=1630b2ec-950a-417d-ae10-91104c051d51","ios":"levelo://app?vid=1630b2ec-950a-417d-ae10-91104c051d51"},"vehicle_type_id":"4","last_reported":1762380591,"current_range_meters":16000,"station_id":"ce4bhnh2rcd13ifvqgtg","pricing_plan_id":"cebpf4jnsgd1na2vs0mg"},{"bike_id":"83f0b677-7d19-4265-a5bc-613d01c002ff","system_id":"levelo_inurba_marseille","lat":43.3211,"lon":5.36769,"is_reserved":false,"is_disabled":false,"rental_uris":{"android":"levelo://app?vid=83f0b677-7d19-4265-a5bc-613d01c002ff","ios":"levelo://app?vid=83f0b677-7d19-4265-a5bc-613d01c002ff"},"vehicle_type_id":"4","last_reported":1762380591,"current_range_meters":16000,"station_id":"ce4bhrh2rcd13ifvqhug","pricing_plan_id":"cebpf4jnsgd1na2vs0mg"},{"bike_id":"ca2b7fb0-6095-44a0-b632-f707e4bdd9f1","system_id":"levelo_inurba_marseille","lat":43.26195,"lon":5.37457,"is_reserved":false,"is_disabled":false,"rental_uris":{"android":"levelo://app?vid=ca2b7fb0-6095-44a0-b632-f707e4bdd9f1","ios":"levelo://app?vid=ca2b7fb0-6095-44a0-b632-f707e4bdd9f1"},"vehicle_type_id":"4","last_reported":1762380591,"current_range_meters":16000,"station_id":"ce4bhgp2rcd13ifvqfc0","pricing_plan_id":"cebpf4jnsgd1na2vs0mg"},{"bike_id":"4d4b8b96-a912-406c-9e11-78bbaf181b71","system_id":"levelo_inurba_marseille","lat":43.24189,"lon":5.3972,"is_reserved":false,"is_disabled":false,"rental_uris":{"android":"levelo://app?vid=4d4b8b96-a912-406c-9e11-78bbaf181b71","ios":"levelo://app?vid=4d4b8b96-a912-406c-9e11-78bbaf181b71"},"vehicle_type_id":"4","last_reported":1762380591,"current_range_meters":16400,"station_id":"ce4bhn12rcd13ifvqgpg","pricing_plan_id":"cebpf4jnsgd1na2vs0mg"},{"bike_id":"4409e8e6-e2b1-45fd-ac80-4ccdb4f82c11","system_id":"levelo_inurba_marseille","lat":43.31092,"lon":5.42443,"is_reserved":false,"is_disabled":false,"rental_uris":{"android":"levelo://app?vid=4409e8e6-e2b1-45fd-ac80-4ccdb4f82c11","ios":"levelo://app?vid=4409e8e6-e2b1-45fd-ac80-4ccdb4f82c11"},"vehicle_type_id":"4","last_reported":1762380591,"current_range_meters":16400,"station_id":"ce4bhp92rcd13ifvqhag","pricing_plan_id":"cebpf4jnsgd1na2vs0mg"},{"bike_id":"1b3a8964-62b3-429e-a834-93ff2b2537e1","system_id":"levelo_inurba_marseille","lat":43.28692,"lon":5.40019,"is_reserved":false,"is_disabled":false,"rental_uris":{"android":"levelo://app?vid=1b3a8964-62b3-429e-a834-93ff2b2537e1","ios":"levelo://app?vid=1b3a8964-62b3-429e-a834-93ff2b2537e1"},"vehicle_type_id":"4","last_reported":1762380591,"current_range_meters":16400,"station_id":"ce4bho92rcd13ifvqh3g","pricing_plan_id":"cebpf4jnsgd1na2vs0mg"},{"bike_id":"a715c0ef-3857-414c-967a-b5d1a542eb13","system_id":"levelo_inurba_marseille","lat":43.224571,"lon":5.347186,"is_reserved":false,"is_disabled":false,"rental_uris":{"android":"levelo://app?vid=a715c0ef-3857-414c-967a-b5d1a542eb13","ios":"levelo://app?vid=a715c0ef-3857-414c-967a-b5d1a542eb13"},"vehicle_type_id":"4","last_reported":1762380591,"current_range_meters":16400,"station_id":"","pricing_plan_id":"cebpf4jnsgd1na2vs0mg"},{"bike_id":"815f6c5e-c259-40bc-a2f0-13fb20795193","system_id":"levelo_inurba_marseille","lat":43.2407,"lon":5.37737,"is_reserved":false,"is_disabled":false,"rental_uris":{"android":"levelo://app?vid=815f6c5e-c259-40bc-a2f0-13fb20795193","ios":"levelo://app?vid=815f6c5e-c259-40bc-a2f0-13fb20795193"},"vehicle_type_id":"4","last_reported":1762380591,"current_range_meters":16400,"station_id":"ce4bhnp2rcd13ifvqgvg","pricing_plan_id":"cebpf4jnsgd1na2vs0mg"},{"bike_id":"c174055a-5793-4272-ab43-bc9c47647071","system_id":"levelo_inurba_marseille","lat":43.29028,"lon":5.38635,"is_reserved":false,"is_disabled":false,"rental_uris":{"android":"levelo://app?vid=c174055a-5793-4272-ab43-bc9c47647071","ios":"levelo://app?vid=c174055a-5793-4272-ab43-bc9c47647071"},"vehicle_type_id":"4","last_reported":1762380591,"current_range_meters":16400,"station_id":"ce4bh4p2rcd13ifvqe0g","pricing_plan_id":"cebpf4jnsgd1na2vs0mg"},{"bike_id":"8c8245c6-a05e-4d5c-b901-53333eca16fc","system_id":"levelo_inurba_marseille","lat":43.22568,"lon":5.41619,"is_reserved":false,"is_disabled":false,"rental_uris":{"android":"levelo://app?vid=8c8245c6-a05e-4d5c-b901-53333eca16fc","ios":"levelo://app?vid=8c8245c6-a05e-4d5c-b901-53333eca16fc"},"vehicle_type_id":"4","last_reported":1762380591,"current_range_meters":16400,"station_id":"st_d2o4gvlbi1j2169b742g","pricing_plan_id":"cebpf4jnsgd1na2vs0mg"},{"bike_id":"e9a2d578-2add-4e55-a5a1-2ded329f9de3","system_id":"levelo_inurba_marseille","lat":43.28439,"lon":5.39204,"is_reserved":false,"is_disabled":false,"rental_uris":{"android":"levelo://app?vid=e9a2d578-2add-4e55-a5a1-2ded329f9de3","ios":"levelo://app?vid=e9a2d578-2add-4e55-a5a1-2ded329f9de3"},"vehicle_type_id":"4","last_reported":1762380591,"current_range_meters":16400,"station_id":"ce4bhoh2rcd13ifvqh5g","pricing_plan_id":"cebpf4jnsgd1na2vs0mg"},{"bike_id":"e8851154-0da3-4c57-af32-b60315ca0a61","system_id":"levelo_inurba_marseille","lat":43.25098,"lon":5.40324,"is_reserved":false,"is_disabled":false,"rental_uris":{"android":"levelo://app?vid=e8851154-0da3-4c57-af32-b60315ca0a61","ios":"levelo://app?vid=e8851154-0da3-4c57-af32-b60315ca0a61"},"vehicle_type_id":"4","last_reported":1762380591,"current_range_meters":16800,"station_id":"ce4bhlh2rcd13ifvqgig","pricing_plan_id":"cebpf4jnsgd1na2vs0mg"},{"bike_id":"641f3606-c8bf-4bd0-8cb0-a02cda6c9e1a","system_id":"levelo_inurba_marseille","lat":43.268395,"lon":5.402834,"is_reserved":false,"is_disabled":false,"rental_uris":{"android":"levelo://app?vid=641f3606-c8bf-4bd0-8cb0-a02cda6c9e1a","ios":"levelo://app?vid=641f3606-c8bf-4bd0-8cb0-a02cda6c9e1a"},"vehicle_type_id":"4","last_reported":1762380591,"current_range_meters":16800,"station_id":"ce501612rcd8frsf0b60","pricing_plan_id":"cebpf4jnsgd1na2vs0mg"},{"bike_id":"b311b2f6-735e-444b-9f9c-f00dfe7c9f6f","system_id":"levelo_inurba_marseille","lat":43.22948,"lon":5.35383,"is_reserved":false,"is_disabled":false,"rental_uris":{"android":"levelo://app?vid=b311b2f6-735e-444b-9f9c-f00dfe7c9f6f","ios":"levelo://app?vid=b311b2f6-735e-444b-9f9c-f00dfe7c9f6f"},"vehicle_type_id":"4","last_reported":1762380591,"current_range_meters":16800,"station_id":"cpo3532slgdg3j2ikp40","pricing_plan_id":"cebpf4jnsgd1na2vs0mg"},{"bike_id":"68c0e971-221a-4fdb-9405-e66c64612e18","system_id":"levelo_inurba_marseille","lat":43.29291,"lon":5.38434,"is_reserved":false,"is_disabled":false,"rental_uris":{"android":"levelo://app?vid=68c0e971-221a-4fdb-9405-e66c64612e18","ios":"levelo://app?vid=68c0e971-221a-4fdb-9405-e66c64612e18"},"vehicle_type_id":"4","last_reported":1762380591,"current_range_meters":16800,"station_id":"ce4bh692rcd13ifvqea0","pricing_plan_id":"cebpf4jnsgd1na2vs0mg"},{"bike_id":"9d6d3791-8e72-42ad-884a-9a530d16ded3","system_id":"levelo_inurba_marseille","lat":43.24951,"lon":5.40488,"is_reserved":false,"is_disabled":false,"rental_uris":{"android":"levelo://app?vid=9d6d3791-8e72-42ad-884a-9a530d16ded3","ios":"levelo://app?vid=9d6d3791-8e72-42ad-884a-9a530d16ded3"},"vehicle_type_id":"4","last_reported":1762380591,"current_range_meters":16800,"station_id":"st_d2ngiaodas8pm72gd1h0","pricing_plan_id":"cebpf4jnsgd1na2vs0mg"},{"bike_id":"59b31ef2-3fe3-46e5-b5a5-685f264695ce","system_id":"levelo_inurba_marseille","lat":43.28483,"lon":5.48397,"is_reserved":false,"is_disabled":false,"rental_uris":{"android":"levelo://app?vid=59b31ef2-3fe3-46e5-b5a5-685f264695ce","ios":"levelo://app?vid=59b31ef2-3fe3-46e5-b5a5-685f264695ce"},"vehicle_type_id":"4","last_reported":1762380591,"current_range_meters":16800,"station_id":"","pricing_plan_id":"cebpf4jnsgd1na2vs0mg"},{"bike_id":"3ffe2c7b-f27f-49bd-95c3-0ecfbf0880d2","system_id":"levelo_inurba_marseille","lat":43.30711,"lon":5.38447,"is_reserved":false,"is_disabled":false,"rental_uris":{"android":"levelo://app?vid=3ffe2c7b-f27f-49bd-95c3-0ecfbf0880d2","ios":"levelo://app?vid=3ffe2c7b-f27f-49bd-95c3-0ecfbf0880d2"},"vehicle_type_id":"4","last_reported":1762380591,"current_range_meters":16800,"station_id":"","pricing_plan_id":"cebpf4jnsgd1na2vs0mg"},{"bike_id":"71967476-752a-4f5e-b222-99c0eea95f39","system_id":"levelo_inurba_marseille","lat":43.32328,"lon":5.38402,"is_reserved":false,"is_disabled":false,"rental_uris":{"android":"levelo://app?vid=71967476-752a-4f5e-b222-99c0eea95f39","ios":"levelo://app?vid=71967476-752a-4f5e-b222-99c0eea95f39"},"vehicle_type_id":"4","last_reported":1762380591,"current_range_meters":16800,"station_id":"","pricing_plan_id":"cebpf4jnsgd1na2vs0mg"},{"bike_id":"e6386c74-bd9b-47a1-8cd6-cfff4be1db56","system_id":"levelo_inurba_marseille","lat":43.279481,"lon":5.436417,"is_reserved":false,"is_disabled":false,"rental_uris":{"android":"levelo://app?vid=e6386c74-bd9b-47a1-8cd6-cfff4be1db56","ios":"levelo://app?vid=e6386c74-bd9b-47a1-8cd6-cfff4be1db56"},"vehicle_type_id":"4","last_reported":1762380591,"current_range_meters":16800,"station_id":"","pricing_plan_id":"cebpf4jnsgd1na2vs0mg"},{"bike_id":"a28ee5cb-cb37-4196-8687-eb0f8cad2aa4","system_id":"levelo_inurba_marseille","lat":43.28436,"lon":5.39193,"is_reserved":false,"is_disabled":false,"rental_uris":{"android":"levelo://app?vid=a28ee5cb-cb37-4196-8687-eb0f8cad2aa4","ios":"levelo://app?vid=a28ee5cb-cb37-4196-8687-eb0f8cad2aa4"},"vehicle_type_id":"4","last_reported":1762380591,"current_range_meters":16800,"station_id":"ce4bhoh2rcd13ifvqh5g","pricing_plan_id":"cebpf4jnsgd1na2vs0mg"},{"bike_id":"65d83eaf-428a-43cd-a356-ecaed95948ff","system_id":"levelo_inurba_marseille","lat":43.24828,"lon":5.39781,"is_reserved":false,"is_disabled":false,"rental_uris":{"android":"levelo://app?vid=65d83eaf-428a-43cd-a356-ecaed95948ff","ios":"levelo://app?vid=65d83eaf-428a-43cd-a356-ecaed95948ff"},"vehicle_type_id":"4","last_reported":1762380591,"current_range_meters":17200,"station_id":"","pricing_plan_id":"cebpf4jnsgd1na2vs0mg"},{"bike_id":"0d7db708-3004-4c5b-b11b-27003898eadd","system_id":"levelo_inurba_marseille","lat":43.286934,"lon":5.35184,"is_reserved":false,"is_disabled":false,"rental_uris":{"android":"levelo://app?vid=0d7db708-3004-4c5b-b11b-27003898eadd","ios":"levelo://app?vid=0d7db708-3004-4c5b-b11b-27003898eadd"},"vehicle_type_id":"4","last_reported":1762380591,"current_range_meters":17200,"station_id":"","pricing_plan_id":"cebpf4jnsgd1na2vs0mg"},{"bike_id":"9947732c-daf0-4f3a-8f2b-89ca946fbbea","system_id":"levelo_inurba_marseille","lat":43.27931,"lon":5.39584,"is_reserved":false,"is_disabled":false,"rental_uris":{"android":"levelo://app?vid=9947732c-daf0-4f3a-8f2b-89ca946fbbea","ios":"levelo://app?vid=9947732c-daf0-4f3a-8f2b-89ca946fbbea"},"vehicle_type_id":"4","last_reported":1762380591,"current_range_meters":17200,"station_id":"ce4bhf92rcd13ifvqf40","pricing_plan_id":"cebpf4jnsgd1na2vs0mg"},{"bike_id":"360927de-7cb0-4e8d-87fd-ae15ab62b6d0","system_id":"levelo_inurba_marseille","lat":43.29282,"lon":5.38444,"is_reserved":false,"is_disabled":false,"rental_uris":{"android":"levelo://app?vid=360927de-7cb0-4e8d-87fd-ae15ab62b6d0","ios":"levelo://app?vid=360927de-7cb0-4e8d-87fd-ae15ab62b6d0"},"vehicle_type_id":"4","last_reported":1762380591,"current_range_meters":17200,"station_id":"ce4bh692rcd13ifvqea0","pricing_plan_id":"cebpf4jnsgd1na2vs0mg"},{"bike_id":"3aef97ee-c77f-40ee-b513-0ec274555b26","system_id":"levelo_inurba_marseille","lat":43.258647,"lon":5.399018,"is_reserved":false,"is_disabled":false,"rental_uris":{"android":"levelo://app?vid=3aef97ee-c77f-40ee-b513-0ec274555b26","ios":"levelo://app?vid=3aef97ee-c77f-40ee-b513-0ec274555b26"},"vehicle_type_id":"4","last_reported":1762380591,"current_range_meters":17600,"station_id":"","pricing_plan_id":"cebpf4jnsgd1na2vs0mg"},{"bike_id":"5f433812-4992-4556-8bea-3ef019818e9b","system_id":"levelo_inurba_marseille","lat":43.30064,"lon":5.36531,"is_reserved":false,"is_disabled":false,"rental_uris":{"android":"levelo://app?vid=5f433812-4992-4556-8bea-3ef019818e9b","ios":"levelo://app?vid=5f433812-4992-4556-8bea-3ef019818e9b"},"vehicle_type_id":"4","last_reported":1762380591,"current_range_meters":17600,"station_id":"","pricing_plan_id":"cebpf4jnsgd1na2vs0mg"},{"bike_id":"2a56320a-0ebb-4a50-92bc-218516def051","system_id":"levelo_inurba_marseille","lat":43.31993,"lon":5.38136,"is_reserved":false,"is_disabled":false,"rental_uris":{"android":"levelo://app?vid=2a56320a-0ebb-4a50-92bc-218516def051","ios":"levelo://app?vid=2a56320a-0ebb-4a50-92bc-218516def051"},"vehicle_type_id":"4","last_reported":1762380591,"current_range_meters":17600,"station_id":"ce4bhr12rcd13ifvqhpg","pricing_plan_id":"cebpf4jnsgd1na2vs0mg"},{"bike_id":"07bfcfe6-a386-40c1-b97e-bf900ddc69da","system_id":"levelo_inurba_marseille","lat":43.25943,"lon":5.40911,"is_reserved":false,"is_disabled":true,"rental_uris":{"android":"levelo://app?vid=07bfcfe6-a386-40c1-b97e-bf900ddc69da","ios":"levelo://app?vid=07bfcfe6-a386-40c1-b97e-bf900ddc69da"},"vehicle_type_id":"4","last_reported":1762380591,"current_range_meters":17600,"station_id":"ce4bhm92rcd13ifvqglg","pricing_plan_id":"cebpf4jnsgd1na2vs0mg"},{"bike_id":"02931a4f-41ca-4d63-991e-b78142ffd2df","system_id":"levelo_inurba_marseille","lat":43.324764,"lon":5.365757,"is_reserved":false,"is_disabled":true,"rental_uris":{"android":"levelo://app?vid=02931a4f-41ca-4d63-991e-b78142ffd2df","ios":"levelo://app?vid=02931a4f-41ca-4d63-991e-b78142ffd2df"},"vehicle_type_id":"4","last_reported":1762380591,"current_range_meters":17600,"station_id":"ce4bhs12rcd13ifvqhvg","pricing_plan_id":"cebpf4jnsgd1na2vs0mg"},{"bike_id":"7180d4fb-8867-478a-87e3-627481930e50","system_id":"levelo_inurba_marseille","lat":43.29597,"lon":5.36747,"is_reserved":false,"is_disabled":false,"rental_uris":{"android":"levelo://app?vid=7180d4fb-8867-478a-87e3-627481930e50","ios":"levelo://app?vid=7180d4fb-8867-478a-87e3-627481930e50"},"vehicle_type_id":"4","last_reported":1762380591,"current_range_meters":17600,"station_id":"ce4bgph2rcd13ifvqc2g","pricing_plan_id":"cebpf4jnsgd1na2vs0mg"},{"bike_id":"7a2f2a6b-85e0-408b-9008-d883cf8a7bd7","system_id":"levelo_inurba_marseille","lat":43.24651,"lon":5.43141,"is_reserved":false,"is_disabled":false,"rental_uris":{"android":"levelo://app?vid=7a2f2a6b-85e0-408b-9008-d883cf8a7bd7","ios":"levelo://app?vid=7a2f2a6b-85e0-408b-9008-d883cf8a7bd7"},"vehicle_type_id":"4","last_reported":1762380591,"current_range_meters":17600,"station_id":"st_d2m6c4gdas8pm72e190g","pricing_plan_id":"cebpf4jnsgd1na2vs0mg"},{"bike_id":"1d9df1f2-e349-4d9d-9ca1-5bd6b1126ee9","system_id":"levelo_inurba_marseille","lat":43.23201,"lon":5.35549,"is_reserved":false,"is_disabled":false,"rental_uris":{"android":"levelo://app?vid=1d9df1f2-e349-4d9d-9ca1-5bd6b1126ee9","ios":"levelo://app?vid=1d9df1f2-e349-4d9d-9ca1-5bd6b1126ee9"},"vehicle_type_id":"4","last_reported":1762380591,"current_range_meters":17600,"station_id":"ce4bhu92rcd13ifvqi70","pricing_plan_id":"cebpf4jnsgd1na2vs0mg"},{"bike_id":"9f2da96b-e073-41e9-9cb6-b8c289d4a763","system_id":"levelo_inurba_marseille","lat":43.23186,"lon":5.39991,"is_reserved":false,"is_disabled":false,"rental_uris":{"android":"levelo://app?vid=9f2da96b-e073-41e9-9cb6-b8c289d4a763","ios":"levelo://app?vid=9f2da96b-e073-41e9-9cb6-b8c289d4a763"},"vehicle_type_id":"4","last_reported":1762380591,"current_range_meters":17600,"station_id":"ce4bhn12rcd13ifvqgqg","pricing_plan_id":"cebpf4jnsgd1na2vs0mg"},{"bike_id":"e22b345d-4f89-4072-adbf-98664e18b0de","system_id":"levelo_inurba_marseille","lat":43.21191,"lon":5.35091,"is_reserved":false,"is_disabled":false,"rental_uris":{"android":"levelo://app?vid=e22b345d-4f89-4072-adbf-98664e18b0de","ios":"levelo://app?vid=e22b345d-4f89-4072-adbf-98664e18b0de"},"vehicle_type_id":"4","last_reported":1762380591,"current_range_meters":17600,"station_id":"st_cvj6sg6p6f1abm77japg","pricing_plan_id":"cebpf4jnsgd1na2vs0mg"},{"bike_id":"65aee44e-8ffd-40ae-a906-86e06eea2c59","system_id":"levelo_inurba_marseille","lat":43.30327,"lon":5.40443,"is_reserved":false,"is_disabled":false,"rental_uris":{"android":"levelo://app?vid=65aee44e-8ffd-40ae-a906-86e06eea2c59","ios":"levelo://app?vid=65aee44e-8ffd-40ae-a906-86e06eea2c59"},"vehicle_type_id":"4","last_reported":1762380591,"current_range_meters":17600,"station_id":"ce4bh012rcd13ifvqd10","pricing_plan_id":"cebpf4jnsgd1na2vs0mg"},{"bike_id":"bc6a2dc7-4634-4914-9b14-faf18bae776e","system_id":"levelo_inurba_marseille","lat":43.27915,"lon":5.3958,"is_reserved":false,"is_disabled":false,"rental_uris":{"android":"levelo://app?vid=bc6a2dc7-4634-4914-9b14-faf18bae776e","ios":"levelo://app?vid=bc6a2dc7-4634-4914-9b14-faf18bae776e"},"vehicle_type_id":"4","last_reported":1762380591,"current_range_meters":18000,"station_id":"ce4bhf92rcd13ifvqf40","pricing_plan_id":"cebpf4jnsgd1na2vs0mg"},{"bike_id":"16ef74b7-1203-4a9a-8afd-2d12a6594735","system_id":"levelo_inurba_marseille","lat":43.25828,"lon":5.39445,"is_reserved":false,"is_disabled":false,"rental_uris":{"android":"levelo://app?vid=16ef74b7-1203-4a9a-8afd-2d12a6594735","ios":"levelo://app?vid=16ef74b7-1203-4a9a-8afd-2d12a6594735"},"vehicle_type_id":"4","last_reported":1762380591,"current_range_meters":18000,"station_id":"ce4bhip2rcd13ifvqft0","pricing_plan_id":"cebpf4jnsgd1na2vs0mg"},{"bike_id":"54beb56b-6fba-4aae-840b-7823b2db7357","system_id":"levelo_inurba_marseille","lat":43.25342,"lon":5.42163,"is_reserved":false,"is_disabled":false,"rental_uris":{"android":"levelo://app?vid=54beb56b-6fba-4aae-840b-7823b2db7357","ios":"levelo://app?vid=54beb56b-6fba-4aae-840b-7823b2db7357"},"vehicle_type_id":"4","last_reported":1762380591,"current_range_meters":18000,"station_id":"st_d2m65c5bi1j21697t3ng","pricing_plan_id":"cebpf4jnsgd1na2vs0mg"},{"bike_id":"459043f2-13d4-4daa-aed3-ac275c423216","system_id":"levelo_inurba_marseille","lat":43.25829,"lon":5.39428,"is_reserved":false,"is_disabled":false,"rental_uris":{"android":"levelo://app?vid=459043f2-13d4-4daa-aed3-ac275c423216","ios":"levelo://app?vid=459043f2-13d4-4daa-aed3-ac275c423216"},"vehicle_type_id":"4","last_reported":1762380591,"current_range_meters":18000,"station_id":"ce4bhip2rcd13ifvqft0","pricing_plan_id":"cebpf4jnsgd1na2vs0mg"},{"bike_id":"58913ae0-74ea-49b4-8d46-6c500447e71d","system_id":"levelo_inurba_marseille","lat":43.29862,"lon":5.37644,"is_reserved":false,"is_disabled":false,"rental_uris":{"android":"levelo://app?vid=58913ae0-74ea-49b4-8d46-6c500447e71d","ios":"levelo://app?vid=58913ae0-74ea-49b4-8d46-6c500447e71d"},"vehicle_type_id":"4","last_reported":1762380591,"current_range_meters":18000,"station_id":"","pricing_plan_id":"cebpf4jnsgd1na2vs0mg"},{"bike_id":"43cfab9e-f547-4304-9999-4a8329474751","system_id":"levelo_inurba_marseille","lat":43.212147,"lon":5.350619,"is_reserved":false,"is_disabled":false,"rental_uris":{"android":"levelo://app?vid=43cfab9e-f547-4304-9999-4a8329474751","ios":"levelo://app?vid=43cfab9e-f547-4304-9999-4a8329474751"},"vehicle_type_id":"4","last_reported":1762380591,"current_range_meters":18000,"station_id":"st_cvj6sg6p6f1abm77japg","pricing_plan_id":"cebpf4jnsgd1na2vs0mg"},{"bike_id":"d0581743-e06c-4ad1-9f8a-41b25975ba07","system_id":"levelo_inurba_marseille","lat":43.29826,"lon":5.44069,"is_reserved":false,"is_disabled":false,"rental_uris":{"android":"levelo://app?vid=d0581743-e06c-4ad1-9f8a-41b25975ba07","ios":"levelo://app?vid=d0581743-e06c-4ad1-9f8a-41b25975ba07"},"vehicle_type_id":"4","last_reported":1762380591,"current_range_meters":18000,"station_id":"st_d3jp68qikq2c7381ktn0","pricing_plan_id":"cebpf4jnsgd1na2vs0mg"},{"bike_id":"5320d5e3-ae19-4bcf-9738-20f74763c067","system_id":"levelo_inurba_marseille","lat":43.311175,"lon":5.377728,"is_reserved":false,"is_disabled":false,"rental_uris":{"android":"levelo://app?vid=5320d5e3-ae19-4bcf-9738-20f74763c067","ios":"levelo://app?vid=5320d5e3-ae19-4bcf-9738-20f74763c067"},"vehicle_type_id":"4","last_reported":1762380591,"current_range_meters":18800,"station_id":"ce4bgt92rcd13ifvqcg0","pricing_plan_id":"cebpf4jnsgd1na2vs0mg"},{"bike_id":"ea04fae1-b3c2-4ee8-9f5b-00301c7bc960","system_id":"levelo_inurba_marseille","lat":43.29261,"lon":5.38442,"is_reserved":false,"is_disabled":false,"rental_uris":{"android":"levelo://app?vid=ea04fae1-b3c2-4ee8-9f5b-00301c7bc960","ios":"levelo://app?vid=ea04fae1-b3c2-4ee8-9f5b-00301c7bc960"},"vehicle_type_id":"4","last_reported":1762380591,"current_range_meters":18800,"station_id":"ce4bh692rcd13ifvqea0","pricing_plan_id":"cebpf4jnsgd1na2vs0mg"},{"bike_id":"917a643b-60ef-49a9-b797-4e58fec456a8","system_id":"levelo_inurba_marseille","lat":43.27817,"lon":5.40703,"is_reserved":false,"is_disabled":false,"rental_uris":{"android":"levelo://app?vid=917a643b-60ef-49a9-b797-4e58fec456a8","ios":"levelo://app?vid=917a643b-60ef-49a9-b797-4e58fec456a8"},"vehicle_type_id":"4","last_reported":1762380591,"current_range_meters":18800,"station_id":"ce4bhnh2rcd13ifvqgtg","pricing_plan_id":"cebpf4jnsgd1na2vs0mg"},{"bike_id":"a605b0fd-b5bf-4eaf-8b03-728b65b443bb","system_id":"levelo_inurba_marseille","lat":43.30615,"lon":5.40459,"is_reserved":false,"is_disabled":false,"rental_uris":{"android":"levelo://app?vid=a605b0fd-b5bf-4eaf-8b03-728b65b443bb","ios":"levelo://app?vid=a605b0fd-b5bf-4eaf-8b03-728b65b443bb"},"vehicle_type_id":"4","last_reported":1762380591,"current_range_meters":18800,"station_id":"","pricing_plan_id":"cebpf4jnsgd1na2vs0mg"},{"bike_id":"d6868fe2-8dfb-4b03-9b67-46fb9e01fade","system_id":"levelo_inurba_marseille","lat":43.28278,"lon":5.35068,"is_reserved":false,"is_disabled":true,"rental_uris":{"android":"levelo://app?vid=d6868fe2-8dfb-4b03-9b67-46fb9e01fade","ios":"levelo://app?vid=d6868fe2-8dfb-4b03-9b67-46fb9e01fade"},"vehicle_type_id":"4","last_reported":1762380591,"current_range_meters":18800,"station_id":"ce4bhbp2rcd13ifvqerg","pricing_plan_id":"cebpf4jnsgd1na2vs0mg"},{"bike_id":"ff8c5919-d588-42ad-b8f2-47a442d8cf32","system_id":"levelo_inurba_marseille","lat":43.2927,"lon":5.38446,"is_reserved":false,"is_disabled":false,"rental_uris":{"android":"levelo://app?vid=ff8c5919-d588-42ad-b8f2-47a442d8cf32","ios":"levelo://app?vid=ff8c5919-d588-42ad-b8f2-47a442d8cf32"},"vehicle_type_id":"4","last_reported":1762380591,"current_range_meters":18800,"station_id":"ce4bh692rcd13ifvqea0","pricing_plan_id":"cebpf4jnsgd1na2vs0mg"},{"bike_id":"96995cb6-b98c-49bd-8530-d7f70257d04f","system_id":"levelo_inurba_marseille","lat":43.29261,"lon":5.38433,"is_reserved":false,"is_disabled":false,"rental_uris":{"android":"levelo://app?vid=96995cb6-b98c-49bd-8530-d7f70257d04f","ios":"levelo://app?vid=96995cb6-b98c-49bd-8530-d7f70257d04f"},"vehicle_type_id":"4","last_reported":1762380591,"current_range_meters":18800,"station_id":"ce4bh692rcd13ifvqea0","pricing_plan_id":"cebpf4jnsgd1na2vs0mg"},{"bike_id":"1eb2b5c3-8e03-4bda-a321-08860bef2aed","system_id":"levelo_inurba_marseille","lat":43.29703,"lon":5.3809,"is_reserved":false,"is_disabled":false,"rental_uris":{"android":"levelo://app?vid=1eb2b5c3-8e03-4bda-a321-08860bef2aed","ios":"levelo://app?vid=1eb2b5c3-8e03-4bda-a321-08860bef2aed"},"vehicle_type_id":"4","last_reported":1762380591,"current_range_meters":19200,"station_id":"","pricing_plan_id":"cebpf4jnsgd1na2vs0mg"},{"bike_id":"01a57c46-f341-402c-aa52-948cd1c63408","system_id":"levelo_inurba_marseille","lat":43.27805,"lon":5.40712,"is_reserved":false,"is_disabled":false,"rental_uris":{"android":"levelo://app?vid=01a57c46-f341-402c-aa52-948cd1c63408","ios":"levelo://app?vid=01a57c46-f341-402c-aa52-948cd1c63408"},"vehicle_type_id":"4","last_reported":1762380591,"current_range_meters":19200,"station_id":"ce4bhnh2rcd13ifvqgtg","pricing_plan_id":"cebpf4jnsgd1na2vs0mg"},{"bike_id":"1c1406c3-ccbf-4c7e-948d-af3d562996c8","system_id":"levelo_inurba_marseille","lat":43.29818,"lon":5.44054,"is_reserved":false,"is_disabled":false,"rental_uris":{"android":"levelo://app?vid=1c1406c3-ccbf-4c7e-948d-af3d562996c8","ios":"levelo://app?vid=1c1406c3-ccbf-4c7e-948d-af3d562996c8"},"vehicle_type_id":"4","last_reported":1762380591,"current_range_meters":19200,"station_id":"st_d3jp68qikq2c7381ktn0","pricing_plan_id":"cebpf4jnsgd1na2vs0mg"},{"bike_id":"9996224b-dea5-4edb-b09a-1f8757625f95","system_id":"levelo_inurba_marseille","lat":43.24095,"lon":5.37756,"is_reserved":false,"is_disabled":false,"rental_uris":{"android":"levelo://app?vid=9996224b-dea5-4edb-b09a-1f8757625f95","ios":"levelo://app?vid=9996224b-dea5-4edb-b09a-1f8757625f95"},"vehicle_type_id":"4","last_reported":1762380591,"current_range_meters":19200,"station_id":"ce4bhnp2rcd13ifvqgvg","pricing_plan_id":"cebpf4jnsgd1na2vs0mg"},{"bike_id":"4db561fa-0133-449c-a0eb-011343a5bd3a","system_id":"levelo_inurba_marseille","lat":43.289645,"lon":5.425804,"is_reserved":false,"is_disabled":false,"rental_uris":{"android":"levelo://app?vid=4db561fa-0133-449c-a0eb-011343a5bd3a","ios":"levelo://app?vid=4db561fa-0133-449c-a0eb-011343a5bd3a"},"vehicle_type_id":"4","last_reported":1762380591,"current_range_meters":19200,"station_id":"","pricing_plan_id":"cebpf4jnsgd1na2vs0mg"},{"bike_id":"e891f061-a38f-4c7a-b1ff-14ff94e2c0fd","system_id":"levelo_inurba_marseille","lat":43.28865,"lon":5.39324,"is_reserved":false,"is_disabled":true,"rental_uris":{"android":"levelo://app?vid=e891f061-a38f-4c7a-b1ff-14ff94e2c0fd","ios":"levelo://app?vid=e891f061-a38f-4c7a-b1ff-14ff94e2c0fd"},"vehicle_type_id":"4","last_reported":1762380591,"current_range_meters":19200,"station_id":"ce4bh2p2rcd13ifvqdi0","pricing_plan_id":"cebpf4jnsgd1na2vs0mg"},{"bike_id":"3807233d-c298-4fe3-b1d4-811ad5bff701","system_id":"levelo_inurba_marseille","lat":43.27896,"lon":5.38003,"is_reserved":false,"is_disabled":false,"rental_uris":{"android":"levelo://app?vid=3807233d-c298-4fe3-b1d4-811ad5bff701","ios":"levelo://app?vid=3807233d-c298-4fe3-b1d4-811ad5bff701"},"vehicle_type_id":"4","last_reported":1762380591,"current_range_meters":19200,"station_id":"ce4bhf92rcd13ifvqf50","pricing_plan_id":"cebpf4jnsgd1na2vs0mg"},{"bike_id":"5ef84235-eddd-425b-8be4-c31c46a00271","system_id":"levelo_inurba_marseille","lat":43.24177,"lon":5.36398,"is_reserved":false,"is_disabled":false,"rental_uris":{"android":"levelo://app?vid=5ef84235-eddd-425b-8be4-c31c46a00271","ios":"levelo://app?vid=5ef84235-eddd-425b-8be4-c31c46a00271"},"vehicle_type_id":"4","last_reported":1762380591,"current_range_meters":19200,"station_id":"cpo36qri1sfpv3e86is0","pricing_plan_id":"cebpf4jnsgd1na2vs0mg"},{"bike_id":"22e1598f-e953-41bb-8799-f15e4e25cd3f","system_id":"levelo_inurba_marseille","lat":43.29096,"lon":5.38149,"is_reserved":false,"is_disabled":true,"rental_uris":{"android":"levelo://app?vid=22e1598f-e953-41bb-8799-f15e4e25cd3f","ios":"levelo://app?vid=22e1598f-e953-41bb-8799-f15e4e25cd3f"},"vehicle_type_id":"4","last_reported":1762380591,"current_range_meters":19200,"station_id":"ce4bh512rcd13ifvqe2g","pricing_plan_id":"cebpf4jnsgd1na2vs0mg"},{"bike_id":"d98fae59-ff60-41e6-b471-90b576c490fa","system_id":"levelo_inurba_marseille","lat":43.29196,"lon":5.35798,"is_reserved":false,"is_disabled":true,"rental_uris":{"android":"levelo://app?vid=d98fae59-ff60-41e6-b471-90b576c490fa","ios":"levelo://app?vid=d98fae59-ff60-41e6-b471-90b576c490fa"},"vehicle_type_id":"4","last_reported":1762380591,"current_range_meters":19600,"station_id":"ce4bhb12rcd13ifvqel0","pricing_plan_id":"cebpf4jnsgd1na2vs0mg"},{"bike_id":"91bb12c7-2827-42b8-b3c8-c74ccf87e60c","system_id":"levelo_inurba_marseille","lat":43.29259,"lon":5.40916,"is_reserved":false,"is_disabled":false,"rental_uris":{"android":"levelo://app?vid=91bb12c7-2827-42b8-b3c8-c74ccf87e60c","ios":"levelo://app?vid=91bb12c7-2827-42b8-b3c8-c74ccf87e60c"},"vehicle_type_id":"4","last_reported":1762380591,"current_range_meters":19600,"station_id":"ce4bh192rcd13ifvqdc0","pricing_plan_id":"cebpf4jnsgd1na2vs0mg"},{"bike_id":"c8f136e5-31d7-40da-91e8-58d3251aaaa1","system_id":"levelo_inurba_marseille","lat":43.292728,"lon":5.368392,"is_reserved":false,"is_disabled":true,"rental_uris":{"android":"levelo://app?vid=c8f136e5-31d7-40da-91e8-58d3251aaaa1","ios":"levelo://app?vid=c8f136e5-31d7-40da-91e8-58d3251aaaa1"},"vehicle_type_id":"4","last_reported":1762380591,"current_range_meters":19600,"station_id":"ce4bhbp2rcd13ifvqesg","pricing_plan_id":"cebpf4jnsgd1na2vs0mg"},{"bike_id":"b2ee5b49-600b-4507-ad32-80e18dcfde19","system_id":"levelo_inurba_marseille","lat":43.24071,"lon":5.37753,"is_reserved":false,"is_disabled":false,"rental_uris":{"android":"levelo://app?vid=b2ee5b49-600b-4507-ad32-80e18dcfde19","ios":"levelo://app?vid=b2ee5b49-600b-4507-ad32-80e18dcfde19"},"vehicle_type_id":"4","last_reported":1762380591,"current_range_meters":19600,"station_id":"ce4bhnp2rcd13ifvqgvg","pricing_plan_id":"cebpf4jnsgd1na2vs0mg"},{"bike_id":"0123d389-7e54-4ccf-8a92-68068d391af3","system_id":"levelo_inurba_marseille","lat":43.29275,"lon":5.38462,"is_reserved":false,"is_disabled":false,"rental_uris":{"android":"levelo://app?vid=0123d389-7e54-4ccf-8a92-68068d391af3","ios":"levelo://app?vid=0123d389-7e54-4ccf-8a92-68068d391af3"},"vehicle_type_id":"4","last_reported":1762380591,"current_range_meters":19600,"station_id":"ce4bh692rcd13ifvqea0","pricing_plan_id":"cebpf4jnsgd1na2vs0mg"},{"bike_id":"1e9120ba-d6d8-48fc-931b-2ce3e4ab0591","system_id":"levelo_inurba_marseille","lat":43.2893,"lon":5.36626,"is_reserved":false,"is_disabled":false,"rental_uris":{"android":"levelo://app?vid=1e9120ba-d6d8-48fc-931b-2ce3e4ab0591","ios":"levelo://app?vid=1e9120ba-d6d8-48fc-931b-2ce3e4ab0591"},"vehicle_type_id":"4","last_reported":1762380591,"current_range_meters":19600,"station_id":"ce4bhap2rcd13ifvqek0","pricing_plan_id":"cebpf4jnsgd1na2vs0mg"},{"bike_id":"761d2e93-ee4f-4f07-a525-36819d651b8b","system_id":"levelo_inurba_marseille","lat":43.30785,"lon":5.37655,"is_reserved":false,"is_disabled":false,"rental_uris":{"android":"levelo://app?vid=761d2e93-ee4f-4f07-a525-36819d651b8b","ios":"levelo://app?vid=761d2e93-ee4f-4f07-a525-36819d651b8b"},"vehicle_type_id":"4","last_reported":1762380591,"current_range_meters":19600,"station_id":"ce4bgv92rcd13ifvqcq0","pricing_plan_id":"cebpf4jnsgd1na2vs0mg"},{"bike_id":"f624275d-7314-4086-88a2-6b57a64cc643","system_id":"levelo_inurba_marseille","lat":43.29718,"lon":5.37692,"is_reserved":false,"is_disabled":false,"rental_uris":{"android":"levelo://app?vid=f624275d-7314-4086-88a2-6b57a64cc643","ios":"levelo://app?vid=f624275d-7314-4086-88a2-6b57a64cc643"},"vehicle_type_id":"4","last_reported":1762380591,"current_range_meters":19600,"station_id":"ce4bgkh2rcd13ifvqbl0","pricing_plan_id":"cebpf4jnsgd1na2vs0mg"},{"bike_id":"f20df5d1-4102-48a9-8df3-bba4e71f31e8","system_id":"levelo_inurba_marseille","lat":43.29353,"lon":5.37607,"is_reserved":false,"is_disabled":false,"rental_uris":{"android":"levelo://app?vid=f20df5d1-4102-48a9-8df3-bba4e71f31e8","ios":"levelo://app?vid=f20df5d1-4102-48a9-8df3-bba4e71f31e8"},"vehicle_type_id":"4","last_reported":1762380591,"current_range_meters":19600,"station_id":"","pricing_plan_id":"cebpf4jnsgd1na2vs0mg"},{"bike_id":"25f99b52-7ea2-446f-9604-b3ed6b043044","system_id":"levelo_inurba_marseille","lat":43.24079,"lon":5.37759,"is_reserved":false,"is_disabled":false,"rental_uris":{"android":"levelo://app?vid=25f99b52-7ea2-446f-9604-b3ed6b043044","ios":"levelo://app?vid=25f99b52-7ea2-446f-9604-b3ed6b043044"},"vehicle_type_id":"4","last_reported":1762380591,"current_range_meters":19600,"station_id":"ce4bhnp2rcd13ifvqgvg","pricing_plan_id":"cebpf4jnsgd1na2vs0mg"},{"bike_id":"105cf377-d85d-4796-9e86-c27ee31ac250","system_id":"levelo_inurba_marseille","lat":43.32002,"lon":5.38165,"is_reserved":false,"is_disabled":false,"rental_uris":{"android":"levelo://app?vid=105cf377-d85d-4796-9e86-c27ee31ac250","ios":"levelo://app?vid=105cf377-d85d-4796-9e86-c27ee31ac250"},"vehicle_type_id":"4","last_reported":1762380591,"current_range_meters":19600,"station_id":"ce4bhr12rcd13ifvqhpg","pricing_plan_id":"cebpf4jnsgd1na2vs0mg"},{"bike_id":"ea1e9e56-c5ff-4b91-8a09-b8724ebae715","system_id":"levelo_inurba_marseille","lat":43.284451,"lon":5.392042,"is_reserved":false,"is_disabled":false,"rental_uris":{"android":"levelo://app?vid=ea1e9e56-c5ff-4b91-8a09-b8724ebae715","ios":"levelo://app?vid=ea1e9e56-c5ff-4b91-8a09-b8724ebae715"},"vehicle_type_id":"4","last_reported":1762380591,"current_range_meters":19600,"station_id":"ce4bhoh2rcd13ifvqh5g","pricing_plan_id":"cebpf4jnsgd1na2vs0mg"},{"bike_id":"a0b97eec-9fc6-43c9-9096-9f4e8a0c7c02","system_id":"levelo_inurba_marseille","lat":43.29273,"lon":5.38446,"is_reserved":false,"is_disabled":false,"rental_uris":{"android":"levelo://app?vid=a0b97eec-9fc6-43c9-9096-9f4e8a0c7c02","ios":"levelo://app?vid=a0b97eec-9fc6-43c9-9096-9f4e8a0c7c02"},"vehicle_type_id":"4","last_reported":1762380591,"current_range_meters":20000,"station_id":"ce4bh692rcd13ifvqea0","pricing_plan_id":"cebpf4jnsgd1na2vs0mg"},{"bike_id":"ee1042f8-d88a-46aa-a342-278040f0e482","system_id":"levelo_inurba_marseille","lat":43.28638,"lon":5.38565,"is_reserved":false,"is_disabled":true,"rental_uris":{"android":"levelo://app?vid=ee1042f8-d88a-46aa-a342-278040f0e482","ios":"levelo://app?vid=ee1042f8-d88a-46aa-a342-278040f0e482"},"vehicle_type_id":"4","last_reported":1762380591,"current_range_meters":20000,"station_id":"","pricing_plan_id":"cebpf4jnsgd1na2vs0mg"},{"bike_id":"c8928740-e178-489c-9684-e98542ddf730","system_id":"levelo_inurba_marseille","lat":43.29026,"lon":5.38658,"is_reserved":false,"is_disabled":false,"rental_uris":{"android":"levelo://app?vid=c8928740-e178-489c-9684-e98542ddf730","ios":"levelo://app?vid=c8928740-e178-489c-9684-e98542ddf730"},"vehicle_type_id":"4","last_reported":1762380591,"current_range_meters":20000,"station_id":"ce4bh4p2rcd13ifvqe0g","pricing_plan_id":"cebpf4jnsgd1na2vs0mg"},{"bike_id":"363d28a4-8070-409b-b6c7-eb06990c7e61","system_id":"levelo_inurba_marseille","lat":43.25335,"lon":5.42173,"is_reserved":false,"is_disabled":false,"rental_uris":{"android":"levelo://app?vid=363d28a4-8070-409b-b6c7-eb06990c7e61","ios":"levelo://app?vid=363d28a4-8070-409b-b6c7-eb06990c7e61"},"vehicle_type_id":"4","last_reported":1762380591,"current_range_meters":20000,"station_id":"st_d2m65c5bi1j21697t3ng","pricing_plan_id":"cebpf4jnsgd1na2vs0mg"},{"bike_id":"8c469623-2e38-46c0-af40-d2bd7c685bdf","system_id":"levelo_inurba_marseille","lat":43.32392,"lon":5.38894,"is_reserved":false,"is_disabled":false,"rental_uris":{"android":"levelo://app?vid=8c469623-2e38-46c0-af40-d2bd7c685bdf","ios":"levelo://app?vid=8c469623-2e38-46c0-af40-d2bd7c685bdf"},"vehicle_type_id":"4","last_reported":1762380591,"current_range_meters":20000,"station_id":"ce4bhqp2rcd13ifvqhog","pricing_plan_id":"cebpf4jnsgd1na2vs0mg"},{"bike_id":"139928a5-81eb-4874-951a-68dcacfed9a0","system_id":"levelo_inurba_marseille","lat":43.27566,"lon":5.3842,"is_reserved":false,"is_disabled":false,"rental_uris":{"android":"levelo://app?vid=139928a5-81eb-4874-951a-68dcacfed9a0","ios":"levelo://app?vid=139928a5-81eb-4874-951a-68dcacfed9a0"},"vehicle_type_id":"4","last_reported":1762380591,"current_range_meters":20000,"station_id":"ce4bhh92rcd13ifvqfi0","pricing_plan_id":"cebpf4jnsgd1na2vs0mg"},{"bike_id":"73b62140-79a9-4b95-8a6a-80b62e2597f3","system_id":"levelo_inurba_marseille","lat":43.29005,"lon":5.3561,"is_reserved":false,"is_disabled":false,"rental_uris":{"android":"levelo://app?vid=73b62140-79a9-4b95-8a6a-80b62e2597f3","ios":"levelo://app?vid=73b62140-79a9-4b95-8a6a-80b62e2597f3"},"vehicle_type_id":"4","last_reported":1762380591,"current_range_meters":20000,"station_id":"ce4bhb92rcd13ifvqen0","pricing_plan_id":"cebpf4jnsgd1na2vs0mg"},{"bike_id":"f0c6c83c-ec82-4455-90aa-37bb4a7b576c","system_id":"levelo_inurba_marseille","lat":43.30735,"lon":5.42447,"is_reserved":false,"is_disabled":false,"rental_uris":{"android":"levelo://app?vid=f0c6c83c-ec82-4455-90aa-37bb4a7b576c","ios":"levelo://app?vid=f0c6c83c-ec82-4455-90aa-37bb4a7b576c"},"vehicle_type_id":"4","last_reported":1762380591,"current_range_meters":20400,"station_id":"st_cvj6ca6bvosntc0bfgr0","pricing_plan_id":"cebpf4jnsgd1na2vs0mg"},{"bike_id":"ad0a2f4e-a4a2-465f-aad4-236a7100f698","system_id":"levelo_inurba_marseille","lat":43.28706,"lon":5.37393,"is_reserved":false,"is_disabled":false,"rental_uris":{"android":"levelo://app?vid=ad0a2f4e-a4a2-465f-aad4-236a7100f698","ios":"levelo://app?vid=ad0a2f4e-a4a2-465f-aad4-236a7100f698"},"vehicle_type_id":"4","last_reported":1762380591,"current_range_meters":20400,"station_id":"ce4bh3p2rcd13ifvqdq0","pricing_plan_id":"cebpf4jnsgd1na2vs0mg"},{"bike_id":"711b5184-06a1-46c6-b1ad-270408b914a4","system_id":"levelo_inurba_marseille","lat":43.29985,"lon":5.40968,"is_reserved":false,"is_disabled":false,"rental_uris":{"android":"levelo://app?vid=711b5184-06a1-46c6-b1ad-270408b914a4","ios":"levelo://app?vid=711b5184-06a1-46c6-b1ad-270408b914a4"},"vehicle_type_id":"4","last_reported":1762380591,"current_range_meters":20400,"station_id":"","pricing_plan_id":"cebpf4jnsgd1na2vs0mg"},