{"last_updated":1758906483,"ttl":60,"version":"2.2","data":{"bikes":[{"bike_id":"565a0112-5b88-4a6f-8df7-08b703407b4f","system_id":"levelo_inurba_marseille","lat":43.2119,"lon":5.35077,"is_reserved":false,"is_disabled":false,"rental_uris":{"android":"levelo://app?vid=565a0112-5b88-4a6f-8df7-08b703407b4f","ios":"levelo://app?vid=565a0112-5b88-4a6f-8df7-08b703407b4f"},"vehicle_type_id":"4","last_reported":1758906483,"current_range_meters":2800,"station_id":"","pricing_plan_id":"cebpf4jnsgd1na2vs0mg"},{"bike_id":"4951a732-3ff9-48b9-a5e9-05f39c39514a","system_id":"levelo_inurba_marseille","lat":43.2792,"lon":5.39593,"is_reserved":false,"is_disabled":false,"rental_uris":{"android":"levelo://app?vid=4951a732-3ff9-48b9-a5e9-05f39c39514a","ios":"levelo://app?vid=4951a732-3ff9-48b9-a5e9-05f39c39514a"},"vehicle_type_id":"4","last_reported":1758906483,"current_range_meters":800,"station_id":"ce4bhf92rcd13ifvqf40","pricing_plan_id":"cebpf4jnsgd1na2vs0mg"},{"bike_id":"34926454-3d56-454c-b339-4aefa528fe3c","system_id":"levelo_inurba_marseille","lat":43.2903,"lon":5.38641,"is_reserved":false,"is_disabled":false,"rental_uris":{"android":"levelo://app?vid=34926454-3d56-454c-b339-4aefa528fe3c","ios":"levelo://app?vid=34926454-3d56-454c-b339-4aefa528fe3c"},"vehicle_type_id":"4","last_reported":1758906483,"current_range_meters":2800,"station_id":"ce4bh4p2rcd13ifvqe0g","pricing_plan_id":"cebpf4jnsgd1na2vs0mg"},{"bike_id":"438ead59-de14-4fa0-a61d-03a70a4122ae","system_id":"levelo_inurba_marseille","lat":43.97269,"lon":4.89111,"is_reserved":false,"is_disabled":true,"rental_uris":{"android":"levelo://app?vid=438ead59-de14-4fa0-a61d-03a70a4122ae","ios":"levelo://app?vid=438ead59-de14-4fa0-a61d-03a70a4122ae"},"vehicle_type_id":"4","last_reported":1758906483,"current_range_meters":2800,"station_id":"","pricing_plan_id":"cebpf4jnsgd1na2vs0mg"},{"bike_id":"ce644f05-16fb-469b-99cd-f12e4acf3ebe","system_id":"levelo_inurba_marseille","lat":43.30949,"lon":5.3904,"is_reserved":false,"is_disabled":false,"rental_uris":{"android":"levelo://app?vid=ce644f05-16fb-469b-99cd-f12e4acf3ebe","ios":"levelo://app?vid=ce644f05-16fb-469b-99cd-f12e4acf3ebe"},"vehicle_type_id":"4","last_reported":1758906483,"current_range_meters":2800,"station_id":"ce4bgup2rcd13ifvqco0","pricing_plan_id":"cebpf4jnsgd1na2vs0mg"},{"bike_id":"0e118b52-22b2-435a-8fd6-c0694d58e18a","system_id":"levelo_inurba_marseille","lat":43.3107,"lon":5.38361,"is_reserved":false,"is_disabled":false,"rental_uris":{"android":"levelo://app?vid=0e118b52-22b2-435a-8fd6-c0694d58e18a","ios":"levelo://app?vid=0e118b52-22b2-435a-8fd6-c0694d58e18a"},"vehicle_type_id":"4","last_reported":1758906483,"current_range_meters":3200,"station_id":"ce4bgv92rcd13ifvqcr0","pricing_plan_id":"cebpf4jnsgd1na2vs0mg"},{"bike_id":"ab4f6090-bf80-4591-9354-aeb11e68c55f","system_id":"levelo_inurba_marseille","lat":43.25857,"lon":5.39915,"is_reserved":false,"is_disabled":false,"rental_uris":{"android":"levelo://app?vid=ab4f6090-bf80-4591-9354-aeb11e68c55f","ios":"levelo://app?vid=ab4f6090-bf80-4591-9354-aeb11e68c55f"},"vehicle_type_id":"4","last_reported":1758906483,"current_range_meters":3200,"station_id":"ce4bhl92rcd13ifvqghg","pricing_plan_id":"cebpf4jnsgd1na2vs0mg"},{"bike_id":"82948309-b976-44d8-947a-30966ce5653d","system_id":"levelo_inurba_marseille","lat":43.29967,"lon":5.38513,"is_reserved":false,"is_disabled":false,"rental_uris":{"android":"levelo://app?vid=82948309-b976-44d8-947a-30966ce5653d","ios":"levelo://app?vid=82948309-b976-44d8-947a-30966ce5653d"},"vehicle_type_id":"4","last_reported":1758906483,"current_range_meters":3200,"station_id":"ce4bgj92rcd13ifvqbd0","pricing_plan_id":"cebpf4jnsgd1na2vs0mg"},{"bike_id":"c5e3f216-3240-41fe-ac20-c17381f8e2e1","system_id":"levelo_inurba_marseille","lat":43.28617,"lon":5.35104,"is_reserved":false,"is_disabled":false,"rental_uris":{"android":"levelo://app?vid=c5e3f216-3240-41fe-ac20-c17381f8e2e1","ios":"levelo://app?vid=c5e3f216-3240-41fe-ac20-c17381f8e2e1"},"vehicle_type_id":"4","last_reported":1758906483,"current_range_meters":3200,"station_id":"ce4bhch2rcd13ifvqeug","pricing_plan_id":"cebpf4jnsgd1na2vs0mg"},{"bike_id":"95e1280b-5991-4128-912a-75e9f859bedc","system_id":"levelo_inurba_marseille","lat":43.28604,"lon":5.37063,"is_reserved":false,"is_disabled":false,"rental_uris":{"android":"levelo://app?vid=95e1280b-5991-4128-912a-75e9f859bedc","ios":"levelo://app?vid=95e1280b-5991-4128-912a-75e9f859bedc"},"vehicle_type_id":"4","last_reported":1758906483,"current_range_meters":3200,"station_id":"ce4bht12rcd13ifvqi60","pricing_plan_id":"cebpf4jnsgd1na2vs0mg"},{"bike_id":"dc2c690c-c51f-4e0f-b9c0-c1918d17113b","system_id":"levelo_inurba_marseille","lat":43.26568,"lon":5.3901,"is_reserved":false,"is_disabled":false,"rental_uris":{"android":"levelo://app?vid=dc2c690c-c51f-4e0f-b9c0-c1918d17113b","ios":"levelo://app?vid=dc2c690c-c51f-4e0f-b9c0-c1918d17113b"},"vehicle_type_id":"4","last_reported":1758906483,"current_range_meters":3600,"station_id":"ce4bhe12rcd13ifvqf30","pricing_plan_id":"cebpf4jnsgd1na2vs0mg"},{"bike_id":"dc33a220-1f5c-4585-a50b-640303fba8a9","system_id":"levelo_inurba_marseille","lat":43.24995,"lon":5.38934,"is_reserved":false,"is_disabled":false,"rental_uris":{"android":"levelo://app?vid=dc33a220-1f5c-4585-a50b-640303fba8a9","ios":"levelo://app?vid=dc33a220-1f5c-4585-a50b-640303fba8a9"},"vehicle_type_id":"4","last_reported":1758906483,"current_range_meters":3200,"station_id":"ce4bhgp2rcd13ifvqfd0","pricing_plan_id":"cebpf4jnsgd1na2vs0mg"},{"bike_id":"5dceb39d-8e5b-4799-9b66-5f849e3ce89b","system_id":"levelo_inurba_marseille","lat":43.28857,"lon":5.35851,"is_reserved":false,"is_disabled":false,"rental_uris":{"android":"levelo://app?vid=5dceb39d-8e5b-4799-9b66-5f849e3ce89b","ios":"levelo://app?vid=5dceb39d-8e5b-4799-9b66-5f849e3ce89b"},"vehicle_type_id":"4","last_reported":1758906483,"current_range_meters":4000,"station_id":"ce4bhb12rcd13ifvqem0","pricing_plan_id":"cebpf4jnsgd1na2vs0mg"},{"bike_id":"a825d9f5-d9f8-4b04-8ea9-f405cddf7d46","system_id":"levelo_inurba_marseille","lat":43.24634,"lon":5.43153,"is_reserved":false,"is_disabled":false,"rental_uris":{"android":"levelo://app?vid=a825d9f5-d9f8-4b04-8ea9-f405cddf7d46","ios":"levelo://app?vid=a825d9f5-d9f8-4b04-8ea9-f405cddf7d46"},"vehicle_type_id":"4","last_reported":1758906483,"current_range_meters":4000,"station_id":"st_d2m6c4gdas8pm72e190g","pricing_plan_id":"cebpf4jnsgd1na2vs0mg"},{"bike_id":"75e10da2-e527-4d26-98da-2e521a32d3dd","system_id":"levelo_inurba_marseille","lat":43.30645,"lon":5.40084,"is_reserved":false,"is_disabled":false,"rental_uris":{"android":"levelo://app?vid=75e10da2-e527-4d26-98da-2e521a32d3dd","ios":"levelo://app?vid=75e10da2-e527-4d26-98da-2e521a32d3dd"},"vehicle_type_id":"4","last_reported":1758906483,"current_range_meters":4000,"station_id":"ce4bh112rcd13ifvqda0","pricing_plan_id":"cebpf4jnsgd1na2vs0mg"},{"bike_id":"5001b619-8a21-45c9-8930-9794a5346fdb","system_id":"levelo_inurba_marseille","lat":43.28742,"lon":5.38574,"is_reserved":false,"is_disabled":false,"rental_uris":{"android":"levelo://app?vid=5001b619-8a21-45c9-8930-9794a5346fdb","ios":"levelo://app?vid=5001b619-8a21-45c9-8930-9794a5346fdb"},"vehicle_type_id":"4","last_reported":1758906483,"current_range_meters":4000,"station_id":"","pricing_plan_id":"cebpf4jnsgd1na2vs0mg"},{"bike_id":"d1226357-3a9c-4510-b8d1-77f196c2fd60","system_id":"levelo_inurba_marseille","lat":43.26785,"lon":5.39412,"is_reserved":false,"is_disabled":false,"rental_uris":{"android":"levelo://app?vid=d1226357-3a9c-4510-b8d1-77f196c2fd60","ios":"levelo://app?vid=d1226357-3a9c-4510-b8d1-77f196c2fd60"},"vehicle_type_id":"4","last_reported":1758906483,"current_range_meters":4000,"station_id":"ce4bhh12rcd13ifvqfg0","pricing_plan_id":"cebpf4jnsgd1na2vs0mg"},{"bike_id":"49e0f250-30c2-4c1e-9199-b69784336db0","system_id":"levelo_inurba_marseille","lat":43.24662,"lon":5.38168,"is_reserved":false,"is_disabled":false,"rental_uris":{"android":"levelo://app?vid=49e0f250-30c2-4c1e-9199-b69784336db0","ios":"levelo://app?vid=49e0f250-30c2-4c1e-9199-b69784336db0"},"vehicle_type_id":"4","last_reported":1758906483,"current_range_meters":4000,"station_id":"ce4bhih2rcd13ifvqfr0","pricing_plan_id":"cebpf4jnsgd1na2vs0mg"},{"bike_id":"cf0cf14b-a09e-4638-aa7d-870fe9013089","system_id":"levelo_inurba_marseille","lat":43.28351,"lon":5.38108,"is_reserved":false,"is_disabled":false,"rental_uris":{"android":"levelo://app?vid=cf0cf14b-a09e-4638-aa7d-870fe9013089","ios":"levelo://app?vid=cf0cf14b-a09e-4638-aa7d-870fe9013089"},"vehicle_type_id":"4","last_reported":1758906483,"current_range_meters":3600,"station_id":"ce4bh412rcd13ifvqdr0","pricing_plan_id":"cebpf4jnsgd1na2vs0mg"},{"bike_id":"e5bb3149-139c-49eb-82ec-69fdead3b5c4","system_id":"levelo_inurba_marseille","lat":43.231923,"lon":5.355548,"is_reserved":false,"is_disabled":false,"rental_uris":{"android":"levelo://app?vid=e5bb3149-139c-49eb-82ec-69fdead3b5c4","ios":"levelo://app?vid=e5bb3149-139c-49eb-82ec-69fdead3b5c4"},"vehicle_type_id":"4","last_reported":1758906483,"current_range_meters":4000,"station_id":"ce4bhu92rcd13ifvqi70","pricing_plan_id":"cebpf4jnsgd1na2vs0mg"},{"bike_id":"307a29c1-1714-4985-a01c-d669c20e3ea9","system_id":"levelo_inurba_marseille","lat":43.248018,"lon":5.374601,"is_reserved":false,"is_disabled":false,"rental_uris":{"android":"levelo://app?vid=307a29c1-1714-4985-a01c-d669c20e3ea9","ios":"levelo://app?vid=307a29c1-1714-4985-a01c-d669c20e3ea9"},"vehicle_type_id":"4","last_reported":1758906483,"current_range_meters":4000,"station_id":"ce4bhgh2rcd13ifvqfb0","pricing_plan_id":"cebpf4jnsgd1na2vs0mg"},{"bike_id":"d8033d9a-6866-416c-89fb-6946117610e7","system_id":"levelo_inurba_marseille","lat":43.30801,"lon":5.43522,"is_reserved":false,"is_disabled":false,"rental_uris":{"android":"levelo://app?vid=d8033d9a-6866-416c-89fb-6946117610e7","ios":"levelo://app?vid=d8033d9a-6866-416c-89fb-6946117610e7"},"vehicle_type_id":"4","last_reported":1758906483,"current_range_meters":4400,"station_id":"ce4bhph2rcd13ifvqheg","pricing_plan_id":"cebpf4jnsgd1na2vs0mg"},{"bike_id":"cd1f8f5a-b1e4-4aa4-b638-89b293804c99","system_id":"levelo_inurba_marseille","lat":43.30414,"lon":5.41275,"is_reserved":false,"is_disabled":false,"rental_uris":{"android":"levelo://app?vid=cd1f8f5a-b1e4-4aa4-b638-89b293804c99","ios":"levelo://app?vid=cd1f8f5a-b1e4-4aa4-b638-89b293804c99"},"vehicle_type_id":"4","last_reported":1758906483,"current_range_meters":4400,"station_id":"ce4bhop2rcd13ifvqh8g","pricing_plan_id":"cebpf4jnsgd1na2vs0mg"},{"bike_id":"d666f661-1be9-4a6d-bfa2-7d39bdfc5367","system_id":"levelo_inurba_marseille","lat":43.295838,"lon":5.399652,"is_reserved":false,"is_disabled":false,"rental_uris":{"android":"levelo://app?vid=d666f661-1be9-4a6d-bfa2-7d39bdfc5367","ios":"levelo://app?vid=d666f661-1be9-4a6d-bfa2-7d39bdfc5367"},"vehicle_type_id":"4","last_reported":1758906483,"current_range_meters":4800,"station_id":"ce4bh312rcd13ifvqdj0","pricing_plan_id":"cebpf4jnsgd1na2vs0mg"},{"bike_id":"194c48d5-6849-45bf-8a89-f8fcfbf6ac7f","system_id":"levelo_inurba_marseille","lat":43.22562,"lon":5.41633,"is_reserved":false,"is_disabled":false,"rental_uris":{"android":"levelo://app?vid=194c48d5-6849-45bf-8a89-f8fcfbf6ac7f","ios":"levelo://app?vid=194c48d5-6849-45bf-8a89-f8fcfbf6ac7f"},"vehicle_type_id":"4","last_reported":1758906483,"current_range_meters":4800,"station_id":"st_d2o4gvlbi1j2169b742g","pricing_plan_id":"cebpf4jnsgd1na2vs0mg"},{"bike_id":"89e44e0b-6a9f-4b51-a391-dd1bd8186fd1","system_id":"levelo_inurba_marseille","lat":43.31826,"lon":5.37422,"is_reserved":false,"is_disabled":false,"rental_uris":{"android":"levelo://app?vid=89e44e0b-6a9f-4b51-a391-dd1bd8186fd1","ios":"levelo://app?vid=89e44e0b-6a9f-4b51-a391-dd1bd8186fd1"},"vehicle_type_id":"4","last_reported":1758906483,"current_range_meters":4800,"station_id":"","pricing_plan_id":"cebpf4jnsgd1na2vs0mg"},{"bike_id":"3df9fe23-bf9f-46d2-a6f3-17a2f94576ca","system_id":"levelo_inurba_marseille","lat":43.30599,"lon":5.39362,"is_reserved":false,"is_disabled":false,"rental_uris":{"android":"levelo://app?vid=3df9fe23-bf9f-46d2-a6f3-17a2f94576ca","ios":"levelo://app?vid=3df9fe23-bf9f-46d2-a6f3-17a2f94576ca"},"vehicle_type_id":"4","last_reported":1758906483,"current_range_meters":4800,"station_id":"ce4bh0p2rcd13ifvqd80","pricing_plan_id":"cebpf4jnsgd1na2vs0mg"},{"bike_id":"09f62ba6-af65-412e-aa52-83df4d376991","system_id":"levelo_inurba_marseille","lat":43.31054,"lon":5.36815,"is_reserved":false,"is_disabled":false,"rental_uris":{"android":"levelo://app?vid=09f62ba6-af65-412e-aa52-83df4d376991","ios":"levelo://app?vid=09f62ba6-af65-412e-aa52-83df4d376991"},"vehicle_type_id":"4","last_reported":1758906483,"current_range_meters":6000,"station_id":"","pricing_plan_id":"cebpf4jnsgd1na2vs0mg"},{"bike_id":"dd6a4543-8058-4d63-80e3-9689383d1441","system_id":"levelo_inurba_marseille","lat":43.298755,"lon":5.397249,"is_reserved":false,"is_disabled":false,"rental_uris":{"android":"levelo://app?vid=dd6a4543-8058-4d63-80e3-9689383d1441","ios":"levelo://app?vid=dd6a4543-8058-4d63-80e3-9689383d1441"},"vehicle_type_id":"4","last_reported":1758906483,"current_range_meters":5600,"station_id":"","pricing_plan_id":"cebpf4jnsgd1na2vs0mg"},{"bike_id":"249d1e25-9e45-4813-8ea5-9dc1b901d558","system_id":"levelo_inurba_marseille","lat":43.30414,"lon":5.41281,"is_reserved":false,"is_disabled":false,"rental_uris":{"android":"levelo://app?vid=249d1e25-9e45-4813-8ea5-9dc1b901d558","ios":"levelo://app?vid=249d1e25-9e45-4813-8ea5-9dc1b901d558"},"vehicle_type_id":"4","last_reported":1758906483,"current_range_meters":5600,"station_id":"ce4bhop2rcd13ifvqh8g","pricing_plan_id":"cebpf4jnsgd1na2vs0mg"},{"bike_id":"cbfe13b1-b3d5-4a13-842d-739fec2bb6fb","system_id":"levelo_inurba_marseille","lat":43.2511,"lon":5.40326,"is_reserved":false,"is_disabled":false,"rental_uris":{"android":"levelo://app?vid=cbfe13b1-b3d5-4a13-842d-739fec2bb6fb","ios":"levelo://app?vid=cbfe13b1-b3d5-4a13-842d-739fec2bb6fb"},"vehicle_type_id":"4","last_reported":1758906483,"current_range_meters":4800,"station_id":"ce4bhlh2rcd13ifvqgig","pricing_plan_id":"cebpf4jnsgd1na2vs0mg"},{"bike_id":"588bb5c6-d90f-4edd-b1de-2d2164a39c00","system_id":"levelo_inurba_marseille","lat":43.33013,"lon":5.3903,"is_reserved":false,"is_disabled":false,"rental_uris":{"android":"levelo://app?vid=588bb5c6-d90f-4edd-b1de-2d2164a39c00","ios":"levelo://app?vid=588bb5c6-d90f-4edd-b1de-2d2164a39c00"},"vehicle_type_id":"4","last_reported":1758906483,"current_range_meters":5600,"station_id":"ce4bhr92rcd13ifvqhrg","pricing_plan_id":"cebpf4jnsgd1na2vs0mg"},{"bike_id":"b0f52f1c-56b9-44f4-ad1d-e6928125e03b","system_id":"levelo_inurba_marseille","lat":43.284865,"lon":5.384001,"is_reserved":false,"is_disabled":false,"rental_uris":{"android":"levelo://app?vid=b0f52f1c-56b9-44f4-ad1d-e6928125e03b","ios":"levelo://app?vid=b0f52f1c-56b9-44f4-ad1d-e6928125e03b"},"vehicle_type_id":"4","last_reported":1758906483,"current_range_meters":5600,"station_id":"ce4bh512rcd13ifvqe3g","pricing_plan_id":"cebpf4jnsgd1na2vs0mg"},{"bike_id":"1e5e7e4a-2824-4f15-99ad-ad78e98fd54b","system_id":"levelo_inurba_marseille","lat":43.30418,"lon":5.41283,"is_reserved":false,"is_disabled":false,"rental_uris":{"android":"levelo://app?vid=1e5e7e4a-2824-4f15-99ad-ad78e98fd54b","ios":"levelo://app?vid=1e5e7e4a-2824-4f15-99ad-ad78e98fd54b"},"vehicle_type_id":"4","last_reported":1758906483,"current_range_meters":6400,"station_id":"ce4bhop2rcd13ifvqh8g","pricing_plan_id":"cebpf4jnsgd1na2vs0mg"},{"bike_id":"cbc956b0-49df-4478-b160-84ee51447c26","system_id":"levelo_inurba_marseille","lat":43.311707,"lon":5.387183,"is_reserved":false,"is_disabled":false,"rental_uris":{"android":"levelo://app?vid=cbc956b0-49df-4478-b160-84ee51447c26","ios":"levelo://app?vid=cbc956b0-49df-4478-b160-84ee51447c26"},"vehicle_type_id":"4","last_reported":1758906483,"current_range_meters":6000,"station_id":"ce4bgv12rcd13ifvqcp0","pricing_plan_id":"cebpf4jnsgd1na2vs0mg"},{"bike_id":"7d9c893e-52dd-45e6-aa9f-5fa5fcf1a192","system_id":"levelo_inurba_marseille","lat":43.30921,"lon":5.40133,"is_reserved":false,"is_disabled":true,"rental_uris":{"android":"levelo://app?vid=7d9c893e-52dd-45e6-aa9f-5fa5fcf1a192","ios":"levelo://app?vid=7d9c893e-52dd-45e6-aa9f-5fa5fcf1a192"},"vehicle_type_id":"4","last_reported":1758906483,"current_range_meters":6400,"station_id":"ce4bgvp2rcd13ifvqct0","pricing_plan_id":"cebpf4jnsgd1na2vs0mg"},{"bike_id":"afdb5328-095f-4e1e-95a3-52503685a159","system_id":"levelo_inurba_marseille","lat":43.2781,"lon":5.40713,"is_reserved":false,"is_disabled":false,"rental_uris":{"android":"levelo://app?vid=afdb5328-095f-4e1e-95a3-52503685a159","ios":"levelo://app?vid=afdb5328-095f-4e1e-95a3-52503685a159"},"vehicle_type_id":"4","last_reported":1758906483,"current_range_meters":6000,"station_id":"ce4bhnh2rcd13ifvqgtg","pricing_plan_id":"cebpf4jnsgd1na2vs0mg"},{"bike_id":"3f283512-f47c-4374-88d9-932117cbdece","system_id":"levelo_inurba_marseille","lat":43.2582,"lon":5.39436,"is_reserved":false,"is_disabled":false,"rental_uris":{"android":"levelo://app?vid=3f283512-f47c-4374-88d9-932117cbdece","ios":"levelo://app?vid=3f283512-f47c-4374-88d9-932117cbdece"},"vehicle_type_id":"4","last_reported":1758906483,"current_range_meters":6400,"station_id":"ce4bhip2rcd13ifvqft0","pricing_plan_id":"cebpf4jnsgd1na2vs0mg"},{"bike_id":"2ca7562b-646d-4340-b985-31d0591ba76f","system_id":"levelo_inurba_marseille","lat":43.25875,"lon":5.39894,"is_reserved":false,"is_disabled":false,"rental_uris":{"android":"levelo://app?vid=2ca7562b-646d-4340-b985-31d0591ba76f","ios":"levelo://app?vid=2ca7562b-646d-4340-b985-31d0591ba76f"},"vehicle_type_id":"4","last_reported":1758906483,"current_range_meters":6400,"station_id":"ce4bhl92rcd13ifvqghg","pricing_plan_id":"cebpf4jnsgd1na2vs0mg"},{"bike_id":"92e9b0fb-bc7b-46ea-80d9-ff27f3f4c141","system_id":"levelo_inurba_marseille","lat":43.246245,"lon":5.43158,"is_reserved":false,"is_disabled":false,"rental_uris":{"android":"levelo://app?vid=92e9b0fb-bc7b-46ea-80d9-ff27f3f4c141","ios":"levelo://app?vid=92e9b0fb-bc7b-46ea-80d9-ff27f3f4c141"},"vehicle_type_id":"4","last_reported":1758906483,"current_range_meters":6400,"station_id":"st_d2m6c4gdas8pm72e190g","pricing_plan_id":"cebpf4jnsgd1na2vs0mg"},{"bike_id":"c4c14fd8-ea32-424b-a86d-e0453cafdd6a","system_id":"levelo_inurba_marseille","lat":43.28851,"lon":5.42551,"is_reserved":false,"is_disabled":false,"rental_uris":{"android":"levelo://app?vid=c4c14fd8-ea32-424b-a86d-e0453cafdd6a","ios":"levelo://app?vid=c4c14fd8-ea32-424b-a86d-e0453cafdd6a"},"vehicle_type_id":"4","last_reported":1758906483,"current_range_meters":6400,"station_id":"st_d3b462108ojc7389ooeg","pricing_plan_id":"cebpf4jnsgd1na2vs0mg"},{"bike_id":"6f89f8c4-29de-4983-b583-f8b2f306e785","system_id":"levelo_inurba_marseille","lat":43.30295,"lon":5.39224,"is_reserved":false,"is_disabled":false,"rental_uris":{"android":"levelo://app?vid=6f89f8c4-29de-4983-b583-f8b2f306e785","ios":"levelo://app?vid=6f89f8c4-29de-4983-b583-f8b2f306e785"},"vehicle_type_id":"4","last_reported":1758906483,"current_range_meters":6800,"station_id":"ce4bgkh2rcd13ifvqbk0","pricing_plan_id":"cebpf4jnsgd1na2vs0mg"},{"bike_id":"a5e3e9d3-12ab-4a4e-a00e-149f280d5248","system_id":"levelo_inurba_marseille","lat":43.276778,"lon":5.388927,"is_reserved":false,"is_disabled":false,"rental_uris":{"android":"levelo://app?vid=a5e3e9d3-12ab-4a4e-a00e-149f280d5248","ios":"levelo://app?vid=a5e3e9d3-12ab-4a4e-a00e-149f280d5248"},"vehicle_type_id":"4","last_reported":1758906483,"current_range_meters":6800,"station_id":"ce4bhi12rcd13ifvqfo0","pricing_plan_id":"cebpf4jnsgd1na2vs0mg"},{"bike_id":"572f6b78-535e-4579-ab15-d6738f4a9376","system_id":"levelo_inurba_marseille","lat":43.29301,"lon":5.37167,"is_reserved":false,"is_disabled":false,"rental_uris":{"android":"levelo://app?vid=572f6b78-535e-4579-ab15-d6738f4a9376","ios":"levelo://app?vid=572f6b78-535e-4579-ab15-d6738f4a9376"},"vehicle_type_id":"4","last_reported":1758906483,"current_range_meters":4000,"station_id":"ce4bgh92rcd13ifvqb40","pricing_plan_id":"cebpf4jnsgd1na2vs0mg"},{"bike_id":"c3738fcd-c314-4a3e-ac85-af68fd009c82","system_id":"levelo_inurba_marseille","lat":43.2984,"lon":5.36269,"is_reserved":false,"is_disabled":false,"rental_uris":{"android":"levelo://app?vid=c3738fcd-c314-4a3e-ac85-af68fd009c82","ios":"levelo://app?vid=c3738fcd-c314-4a3e-ac85-af68fd009c82"},"vehicle_type_id":"4","last_reported":1758906483,"current_range_meters":6800,"station_id":"ce4bgpp2rcd13ifvqc3g","pricing_plan_id":"cebpf4jnsgd1na2vs0mg"},{"bike_id":"12f438a3-5086-4391-8509-8ec87f97d887","system_id":"levelo_inurba_marseille","lat":43.27386,"lon":5.36256,"is_reserved":false,"is_disabled":false,"rental_uris":{"android":"levelo://app?vid=12f438a3-5086-4391-8509-8ec87f97d887","ios":"levelo://app?vid=12f438a3-5086-4391-8509-8ec87f97d887"},"vehicle_type_id":"4","last_reported":1758906483,"current_range_meters":6800,"station_id":"ce4bhbh2rcd13ifvqeo0","pricing_plan_id":"cebpf4jnsgd1na2vs0mg"},{"bike_id":"c0466175-81bd-4e8b-934c-3b97da1c47fc","system_id":"levelo_inurba_marseille","lat":43.29547,"lon":5.42287,"is_reserved":false,"is_disabled":false,"rental_uris":{"android":"levelo://app?vid=c0466175-81bd-4e8b-934c-3b97da1c47fc","ios":"levelo://app?vid=c0466175-81bd-4e8b-934c-3b97da1c47fc"},"vehicle_type_id":"4","last_reported":1758906483,"current_range_meters":6800,"station_id":"ce4bhph2rcd13ifvqhdg","pricing_plan_id":"cebpf4jnsgd1na2vs0mg"},{"bike_id":"fccdae06-3bd6-44f1-b906-438e34122278","system_id":"levelo_inurba_marseille","lat":43.25725,"lon":5.41111,"is_reserved":false,"is_disabled":false,"rental_uris":{"android":"levelo://app?vid=fccdae06-3bd6-44f1-b906-438e34122278","ios":"levelo://app?vid=fccdae06-3bd6-44f1-b906-438e34122278"},"vehicle_type_id":"4","last_reported":1758906483,"current_range_meters":6800,"station_id":"ce4bhkp2rcd13ifvqgd0","pricing_plan_id":"cebpf4jnsgd1na2vs0mg"},{"bike_id":"90f6fdae-b85c-4224-aa93-4b6f03186f63","system_id":"levelo_inurba_marseille","lat":43.26954,"lon":5.38634,"is_reserved":false,"is_disabled":false,"rental_uris":{"android":"levelo://app?vid=90f6fdae-b85c-4224-aa93-4b6f03186f63","ios":"levelo://app?vid=90f6fdae-b85c-4224-aa93-4b6f03186f63"},"vehicle_type_id":"4","last_reported":1758906483,"current_range_meters":7200,"station_id":"ce4bhh92rcd13ifvqfh0","pricing_plan_id":"cebpf4jnsgd1na2vs0mg"},{"bike_id":"eead48af-bceb-4006-a07d-3db94501e700","system_id":"levelo_inurba_marseille","lat":43.30304,"lon":5.39199,"is_reserved":false,"is_disabled":false,"rental_uris":{"android":"levelo://app?vid=eead48af-bceb-4006-a07d-3db94501e700","ios":"levelo://app?vid=eead48af-bceb-4006-a07d-3db94501e700"},"vehicle_type_id":"4","last_reported":1758906483,"current_range_meters":7200,"station_id":"ce4bgkh2rcd13ifvqbk0","pricing_plan_id":"cebpf4jnsgd1na2vs0mg"},{"bike_id":"b3e88e90-6aa4-4f3e-a57a-c95b51208df2","system_id":"levelo_inurba_marseille","lat":43.295721,"lon":5.399668,"is_reserved":false,"is_disabled":false,"rental_uris":{"android":"levelo://app?vid=b3e88e90-6aa4-4f3e-a57a-c95b51208df2","ios":"levelo://app?vid=b3e88e90-6aa4-4f3e-a57a-c95b51208df2"},"vehicle_type_id":"4","last_reported":1758906483,"current_range_meters":7200,"station_id":"ce4bh312rcd13ifvqdj0","pricing_plan_id":"cebpf4jnsgd1na2vs0mg"},{"bike_id":"6ea57fc1-42fd-411b-a295-3bf6933fe217","system_id":"levelo_inurba_marseille","lat":43.32363,"lon":5.38881,"is_reserved":false,"is_disabled":false,"rental_uris":{"android":"levelo://app?vid=6ea57fc1-42fd-411b-a295-3bf6933fe217","ios":"levelo://app?vid=6ea57fc1-42fd-411b-a295-3bf6933fe217"},"vehicle_type_id":"4","last_reported":1758906483,"current_range_meters":7200,"station_id":"ce4bhqp2rcd13ifvqhog","pricing_plan_id":"cebpf4jnsgd1na2vs0mg"},{"bike_id":"1c542e2c-a858-4cff-ab4a-72b8e31f0dd8","system_id":"levelo_inurba_marseille","lat":43.29026,"lon":5.38654,"is_reserved":false,"is_disabled":false,"rental_uris":{"android":"levelo://app?vid=1c542e2c-a858-4cff-ab4a-72b8e31f0dd8","ios":"levelo://app?vid=1c542e2c-a858-4cff-ab4a-72b8e31f0dd8"},"vehicle_type_id":"4","last_reported":1758906483,"current_range_meters":6400,"station_id":"ce4bh4p2rcd13ifvqe0g","pricing_plan_id":"cebpf4jnsgd1na2vs0mg"},{"bike_id":"9bc8fdba-ff13-4492-8bce-0415a76ced11","system_id":"levelo_inurba_marseille","lat":43.30949,"lon":5.39036,"is_reserved":false,"is_disabled":false,"rental_uris":{"android":"levelo://app?vid=9bc8fdba-ff13-4492-8bce-0415a76ced11","ios":"levelo://app?vid=9bc8fdba-ff13-4492-8bce-0415a76ced11"},"vehicle_type_id":"4","last_reported":1758906483,"current_range_meters":8400,"station_id":"ce4bgup2rcd13ifvqco0","pricing_plan_id":"cebpf4jnsgd1na2vs0mg"},{"bike_id":"4e4d9faf-5f37-48b7-b513-4eab5401442a","system_id":"levelo_inurba_marseille","lat":43.30129,"lon":5.3986,"is_reserved":false,"is_disabled":false,"rental_uris":{"android":"levelo://app?vid=4e4d9faf-5f37-48b7-b513-4eab5401442a","ios":"levelo://app?vid=4e4d9faf-5f37-48b7-b513-4eab5401442a"},"vehicle_type_id":"4","last_reported":1758906483,"current_range_meters":6000,"station_id":"ce4bh0h2rcd13ifvqd40","pricing_plan_id":"cebpf4jnsgd1na2vs0mg"},{"bike_id":"67ece992-3d6b-43d5-8a42-4c4017f70af6","system_id":"levelo_inurba_marseille","lat":43.33583,"lon":5.39195,"is_reserved":false,"is_disabled":false,"rental_uris":{"android":"levelo://app?vid=67ece992-3d6b-43d5-8a42-4c4017f70af6","ios":"levelo://app?vid=67ece992-3d6b-43d5-8a42-4c4017f70af6"},"vehicle_type_id":"4","last_reported":1758906483,"current_range_meters":7200,"station_id":"","pricing_plan_id":"cebpf4jnsgd1na2vs0mg"},{"bike_id":"35123bef-c3d7-40fe-9ac6-a43d867d5b89","system_id":"levelo_inurba_marseille","lat":43.28042,"lon":5.36937,"is_reserved":false,"is_disabled":false,"rental_uris":{"android":"levelo://app?vid=35123bef-c3d7-40fe-9ac6-a43d867d5b89","ios":"levelo://app?vid=35123bef-c3d7-40fe-9ac6-a43d867d5b89"},"vehicle_type_id":"4","last_reported":1758906483,"current_range_meters":12000,"station_id":"ce4bha12rcd13ifvqef0","pricing_plan_id":"cebpf4jnsgd1na2vs0mg"},{"bike_id":"003515e8-8117-44bb-979d-5f47e8d50fda","system_id":"levelo_inurba_marseille","lat":43.30659,"lon":5.37539,"is_reserved":false,"is_disabled":false,"rental_uris":{"android":"levelo://app?vid=003515e8-8117-44bb-979d-5f47e8d50fda","ios":"levelo://app?vid=003515e8-8117-44bb-979d-5f47e8d50fda"},"vehicle_type_id":"4","last_reported":1758906483,"current_range_meters":8000,"station_id":"","pricing_plan_id":"cebpf4jnsgd1na2vs0mg"},{"bike_id":"d1568a73-00ed-40c6-9fda-eb1c96db5039","system_id":"levelo_inurba_marseille","lat":43.2781,"lon":5.40709,"is_reserved":false,"is_disabled":false,"rental_uris":{"android":"levelo://app?vid=d1568a73-00ed-40c6-9fda-eb1c96db5039","ios":"levelo://app?vid=d1568a73-00ed-40c6-9fda-eb1c96db5039"},"vehicle_type_id":"4","last_reported":1758906483,"current_range_meters":8400,"station_id":"ce4bhnh2rcd13ifvqgtg","pricing_plan_id":"cebpf4jnsgd1na2vs0mg"},{"bike_id":"8eae954c-dab6-4303-94f5-569e1c483f62","system_id":"levelo_inurba_marseille","lat":43.29452,"lon":5.40765,"is_reserved":false,"is_disabled":false,"rental_uris":{"android":"levelo://app?vid=8eae954c-dab6-4303-94f5-569e1c483f62","ios":"levelo://app?vid=8eae954c-dab6-4303-94f5-569e1c483f62"},"vehicle_type_id":"4","last_reported":1758906483,"current_range_meters":8000,"station_id":"","pricing_plan_id":"cebpf4jnsgd1na2vs0mg"},{"bike_id":"e60d69b9-c1da-4561-bf8c-bca576b38d93","system_id":"levelo_inurba_marseille","lat":43.28481,"lon":5.38545,"is_reserved":false,"is_disabled":false,"rental_uris":{"android":"levelo://app?vid=e60d69b9-c1da-4561-bf8c-bca576b38d93","ios":"levelo://app?vid=e60d69b9-c1da-4561-bf8c-bca576b38d93"},"vehicle_type_id":"4","last_reported":1758906483,"current_range_meters":8000,"station_id":"ce4bh8p2rcd13ifvqeb0","pricing_plan_id":"cebpf4jnsgd1na2vs0mg"},{"bike_id":"2e5980df-cbfe-46ea-95c2-2ad726d4768e","system_id":"levelo_inurba_marseille","lat":43.26518,"lon":5.39048,"is_reserved":false,"is_disabled":false,"rental_uris":{"android":"levelo://app?vid=2e5980df-cbfe-46ea-95c2-2ad726d4768e","ios":"levelo://app?vid=2e5980df-cbfe-46ea-95c2-2ad726d4768e"},"vehicle_type_id":"4","last_reported":1758906483,"current_range_meters":8000,"station_id":"ce4bhe12rcd13ifvqf30","pricing_plan_id":"cebpf4jnsgd1na2vs0mg"},{"bike_id":"d430fe77-a5b0-47df-a0ec-94ddd5562bca","system_id":"levelo_inurba_marseille","lat":43.284115,"lon":5.375085,"is_reserved":false,"is_disabled":false,"rental_uris":{"android":"levelo://app?vid=d430fe77-a5b0-47df-a0ec-94ddd5562bca","ios":"levelo://app?vid=d430fe77-a5b0-47df-a0ec-94ddd5562bca"},"vehicle_type_id":"4","last_reported":1758906483,"current_range_meters":8000,"station_id":"ce4bh412rcd13ifvqds0","pricing_plan_id":"cebpf4jnsgd1na2vs0mg"},{"bike_id":"786da0f1-85d2-4a65-833b-d126e8ba2d54","system_id":"levelo_inurba_marseille","lat":43.250012,"lon":5.389369,"is_reserved":false,"is_disabled":false,"rental_uris":{"android":"levelo://app?vid=786da0f1-85d2-4a65-833b-d126e8ba2d54","ios":"levelo://app?vid=786da0f1-85d2-4a65-833b-d126e8ba2d54"},"vehicle_type_id":"4","last_reported":1758906483,"current_range_meters":8000,"station_id":"ce4bhgp2rcd13ifvqfd0","pricing_plan_id":"cebpf4jnsgd1na2vs0mg"},{"bike_id":"587179cf-e4b8-44ad-982a-6da667f76dde","system_id":"levelo_inurba_marseille","lat":43.27917,"lon":5.39588,"is_reserved":false,"is_disabled":false,"rental_uris":{"android":"levelo://app?vid=587179cf-e4b8-44ad-982a-6da667f76dde","ios":"levelo://app?vid=587179cf-e4b8-44ad-982a-6da667f76dde"},"vehicle_type_id":"4","last_reported":1758906483,"current_range_meters":8000,"station_id":"ce4bhf92rcd13ifvqf40","pricing_plan_id":"cebpf4jnsgd1na2vs0mg"},{"bike_id":"212de2eb-8bbc-413c-b204-9fe1facd76e8","system_id":"levelo_inurba_marseille","lat":43.31303,"lon":5.37815,"is_reserved":false,"is_disabled":false,"rental_uris":{"android":"levelo://app?vid=212de2eb-8bbc-413c-b204-9fe1facd76e8","ios":"levelo://app?vid=212de2eb-8bbc-413c-b204-9fe1facd76e8"},"vehicle_type_id":"4","last_reported":1758906483,"current_range_meters":8000,"station_id":"","pricing_plan_id":"cebpf4jnsgd1na2vs0mg"},{"bike_id":"2c2af432-5cf8-4dd2-bfdc-28dd66380887","system_id":"levelo_inurba_marseille","lat":43.32541,"lon":5.41422,"is_reserved":false,"is_disabled":false,"rental_uris":{"android":"levelo://app?vid=2c2af432-5cf8-4dd2-bfdc-28dd66380887","ios":"levelo://app?vid=2c2af432-5cf8-4dd2-bfdc-28dd66380887"},"vehicle_type_id":"4","last_reported":1758906483,"current_range_meters":7200,"station_id":"ce4bhq12rcd13ifvqhhg","pricing_plan_id":"cebpf4jnsgd1na2vs0mg"},{"bike_id":"6885e06b-e47f-45ee-9d7d-2b5445743555","system_id":"levelo_inurba_marseille","lat":43.2717,"lon":5.40986,"is_reserved":false,"is_disabled":false,"rental_uris":{"android":"levelo://app?vid=6885e06b-e47f-45ee-9d7d-2b5445743555","ios":"levelo://app?vid=6885e06b-e47f-45ee-9d7d-2b5445743555"},"vehicle_type_id":"4","last_reported":1758906483,"current_range_meters":8400,"station_id":"ce4bhl12rcd13ifvqgf0","pricing_plan_id":"cebpf4jnsgd1na2vs0mg"},{"bike_id":"d8ef61cb-73df-4d5f-b1dc-dc014fa163bf","system_id":"levelo_inurba_marseille","lat":43.29277,"lon":5.38443,"is_reserved":false,"is_disabled":false,"rental_uris":{"android":"levelo://app?vid=d8ef61cb-73df-4d5f-b1dc-dc014fa163bf","ios":"levelo://app?vid=d8ef61cb-73df-4d5f-b1dc-dc014fa163bf"},"vehicle_type_id":"4","last_reported":1758906483,"current_range_meters":8400,"station_id":"ce4bh692rcd13ifvqea0","pricing_plan_id":"cebpf4jnsgd1na2vs0mg"},{"bike_id":"b2716baa-4da3-4277-8b6b-250e6d0ed3d6","system_id":"levelo_inurba_marseille","lat":43.28433,"lon":5.39205,"is_reserved":false,"is_disabled":false,"rental_uris":{"android":"levelo://app?vid=b2716baa-4da3-4277-8b6b-250e6d0ed3d6","ios":"levelo://app?vid=b2716baa-4da3-4277-8b6b-250e6d0ed3d6"},"vehicle_type_id":"4","last_reported":1758906483,"current_range_meters":8400,"station_id":"ce4bhoh2rcd13ifvqh5g","pricing_plan_id":"cebpf4jnsgd1na2vs0mg"},{"bike_id":"10139621-049e-47ff-999b-8a965d22d327","system_id":"levelo_inurba_marseille","lat":43.29056,"lon":5.35915,"is_reserved":false,"is_disabled":false,"rental_uris":{"android":"levelo://app?vid=10139621-049e-47ff-999b-8a965d22d327","ios":"levelo://app?vid=10139621-049e-47ff-999b-8a965d22d327"},"vehicle_type_id":"4","last_reported":1758906483,"current_range_meters":8400,"station_id":"ce4bha92rcd13ifvqeg0","pricing_plan_id":"cebpf4jnsgd1na2vs0mg"},{"bike_id":"cfb43fe7-7c79-44a5-9800-f919dc9e002e","system_id":"levelo_inurba_marseille","lat":43.27176,"lon":5.4098,"is_reserved":false,"is_disabled":false,"rental_uris":{"android":"levelo://app?vid=cfb43fe7-7c79-44a5-9800-f919dc9e002e","ios":"levelo://app?vid=cfb43fe7-7c79-44a5-9800-f919dc9e002e"},"vehicle_type_id":"4","last_reported":1758906483,"current_range_meters":8400,"station_id":"ce4bhl12rcd13ifvqgf0","pricing_plan_id":"cebpf4jnsgd1na2vs0mg"},{"bike_id":"bbdc9c1c-8846-4335-a10a-dd6bb7fc5236","system_id":"levelo_inurba_marseille","lat":43.29192,"lon":5.35799,"is_reserved":false,"is_disabled":false,"rental_uris":{"android":"levelo://app?vid=bbdc9c1c-8846-4335-a10a-dd6bb7fc5236","ios":"levelo://app?vid=bbdc9c1c-8846-4335-a10a-dd6bb7fc5236"},"vehicle_type_id":"4","last_reported":1758906483,"current_range_meters":8400,"station_id":"ce4bhb12rcd13ifvqel0","pricing_plan_id":"cebpf4jnsgd1na2vs0mg"},{"bike_id":"722ad19a-0376-4fcb-a002-f0a406dcadad","system_id":"levelo_inurba_marseille","lat":43.254667,"lon":5.376322,"is_reserved":false,"is_disabled":false,"rental_uris":{"android":"levelo://app?vid=722ad19a-0376-4fcb-a002-f0a406dcadad","ios":"levelo://app?vid=722ad19a-0376-4fcb-a002-f0a406dcadad"},"vehicle_type_id":"4","last_reported":1758906483,"current_range_meters":8400,"station_id":"ce4bhh12rcd13ifvqff0","pricing_plan_id":"cebpf4jnsgd1na2vs0mg"},{"bike_id":"cf4d774d-3626-4ef1-96a4-a279b7190a32","system_id":"levelo_inurba_marseille","lat":43.26555,"lon":5.37284,"is_reserved":false,"is_disabled":false,"rental_uris":{"android":"levelo://app?vid=cf4d774d-3626-4ef1-96a4-a279b7190a32","ios":"levelo://app?vid=cf4d774d-3626-4ef1-96a4-a279b7190a32"},"vehicle_type_id":"4","last_reported":1758906483,"current_range_meters":8400,"station_id":"ce4bhg12rcd13ifvqf70","pricing_plan_id":"cebpf4jnsgd1na2vs0mg"},{"bike_id":"339534b4-d6ce-428f-97c9-087d1b58c7b3","system_id":"levelo_inurba_marseille","lat":43.32685,"lon":5.40294,"is_reserved":false,"is_disabled":false,"rental_uris":{"android":"levelo://app?vid=339534b4-d6ce-428f-97c9-087d1b58c7b3","ios":"levelo://app?vid=339534b4-d6ce-428f-97c9-087d1b58c7b3"},"vehicle_type_id":"4","last_reported":1758906483,"current_range_meters":8400,"station_id":"","pricing_plan_id":"cebpf4jnsgd1na2vs0mg"},{"bike_id":"7d1387cb-fd39-4b73-bb23-7159f9fde49d","system_id":"levelo_inurba_marseille","lat":43.22554,"lon":5.41641,"is_reserved":false,"is_disabled":false,"rental_uris":{"android":"levelo://app?vid=7d1387cb-fd39-4b73-bb23-7159f9fde49d","ios":"levelo://app?vid=7d1387cb-fd39-4b73-bb23-7159f9fde49d"},"vehicle_type_id":"4","last_reported":1758906483,"current_range_meters":8800,"station_id":"st_d2o4gvlbi1j2169b742g","pricing_plan_id":"cebpf4jnsgd1na2vs0mg"},{"bike_id":"f897d300-643c-4c7a-951b-f56d70ef23ca","system_id":"levelo_inurba_marseille","lat":43.30357,"lon":5.39078,"is_reserved":false,"is_disabled":false,"rental_uris":{"android":"levelo://app?vid=f897d300-643c-4c7a-951b-f56d70ef23ca","ios":"levelo://app?vid=f897d300-643c-4c7a-951b-f56d70ef23ca"},"vehicle_type_id":"4","last_reported":1758906483,"current_range_meters":8800,"station_id":"","pricing_plan_id":"cebpf4jnsgd1na2vs0mg"},{"bike_id":"1af17fee-3c11-4aad-965d-8e7be7c439ad","system_id":"levelo_inurba_marseille","lat":43.305364,"lon":5.384193,"is_reserved":false,"is_disabled":false,"rental_uris":{"android":"levelo://app?vid=1af17fee-3c11-4aad-965d-8e7be7c439ad","ios":"levelo://app?vid=1af17fee-3c11-4aad-965d-8e7be7c439ad"},"vehicle_type_id":"4","last_reported":1758906483,"current_range_meters":8800,"station_id":"ce4bgg92rcd13ifvqb30","pricing_plan_id":"cebpf4jnsgd1na2vs0mg"},{"bike_id":"e057a4ef-97bf-4e25-9a18-02598bbb0bbf","system_id":"levelo_inurba_marseille","lat":43.24537,"lon":5.39525,"is_reserved":false,"is_disabled":true,"rental_uris":{"android":"levelo://app?vid=e057a4ef-97bf-4e25-9a18-02598bbb0bbf","ios":"levelo://app?vid=e057a4ef-97bf-4e25-9a18-02598bbb0bbf"},"vehicle_type_id":"4","last_reported":1758906483,"current_range_meters":8800,"station_id":"ce4bhlp2rcd13ifvqgjg","pricing_plan_id":"cebpf4jnsgd1na2vs0mg"},{"bike_id":"a7862c84-1ee5-4824-bd79-9ce62d6933b3","system_id":"levelo_inurba_marseille","lat":43.2908,"lon":5.37158,"is_reserved":false,"is_disabled":true,"rental_uris":{"android":"levelo://app?vid=a7862c84-1ee5-4824-bd79-9ce62d6933b3","ios":"levelo://app?vid=a7862c84-1ee5-4824-bd79-9ce62d6933b3"},"vehicle_type_id":"4","last_reported":1758906483,"current_range_meters":8800,"station_id":"ce4bh5p2rcd13ifvqe4g","pricing_plan_id":"cebpf4jnsgd1na2vs0mg"},{"bike_id":"6d590fe1-b8ab-46e4-af64-6a1b10a3d55d","system_id":"levelo_inurba_marseille","lat":43.297824,"lon":5.371009,"is_reserved":false,"is_disabled":false,"rental_uris":{"android":"levelo://app?vid=6d590fe1-b8ab-46e4-af64-6a1b10a3d55d","ios":"levelo://app?vid=6d590fe1-b8ab-46e4-af64-6a1b10a3d55d"},"vehicle_type_id":"4","last_reported":1758906483,"current_range_meters":8400,"station_id":"ce4bgop2rcd13ifvqc1g","pricing_plan_id":"cebpf4jnsgd1na2vs0mg"},{"bike_id":"a03e1155-34bd-4ed6-b0d9-aca14879dcdc","system_id":"levelo_inurba_marseille","lat":43.25079,"lon":5.39528,"is_reserved":false,"is_disabled":false,"rental_uris":{"android":"levelo://app?vid=a03e1155-34bd-4ed6-b0d9-aca14879dcdc","ios":"levelo://app?vid=a03e1155-34bd-4ed6-b0d9-aca14879dcdc"},"vehicle_type_id":"4","last_reported":1758906483,"current_range_meters":9200,"station_id":"ce4bhm12rcd13ifvqgkg","pricing_plan_id":"cebpf4jnsgd1na2vs0mg"},{"bike_id":"174dfb4f-f618-4c2f-be1c-ae0d6b405e94","system_id":"levelo_inurba_marseille","lat":43.29719,"lon":5.38258,"is_reserved":false,"is_disabled":false,"rental_uris":{"android":"levelo://app?vid=174dfb4f-f618-4c2f-be1c-ae0d6b405e94","ios":"levelo://app?vid=174dfb4f-f618-4c2f-be1c-ae0d6b405e94"},"vehicle_type_id":"4","last_reported":1758906483,"current_range_meters":9200,"station_id":"","pricing_plan_id":"cebpf4jnsgd1na2vs0mg"},{"bike_id":"0154bb8a-1776-4e09-b6c4-0944a5a44f54","system_id":"levelo_inurba_marseille","lat":43.31159,"lon":5.38724,"is_reserved":false,"is_disabled":false,"rental_uris":{"android":"levelo://app?vid=0154bb8a-1776-4e09-b6c4-0944a5a44f54","ios":"levelo://app?vid=0154bb8a-1776-4e09-b6c4-0944a5a44f54"},"vehicle_type_id":"4","last_reported":1758906483,"current_range_meters":9200,"station_id":"ce4bgv12rcd13ifvqcp0","pricing_plan_id":"cebpf4jnsgd1na2vs0mg"},{"bike_id":"f06f303e-9c77-4cb4-9807-03e5552271ec","system_id":"levelo_inurba_marseille","lat":43.292654,"lon":5.384277,"is_reserved":false,"is_disabled":false,"rental_uris":{"android":"levelo://app?vid=f06f303e-9c77-4cb4-9807-03e5552271ec","ios":"levelo://app?vid=f06f303e-9c77-4cb4-9807-03e5552271ec"},"vehicle_type_id":"4","last_reported":1758906483,"current_range_meters":9200,"station_id":"ce4bh692rcd13ifvqea0","pricing_plan_id":"cebpf4jnsgd1na2vs0mg"},{"bike_id":"c7f6a08b-c655-4213-b2ba-7d02e7f382fe","system_id":"levelo_inurba_marseille","lat":43.27988,"lon":5.39483,"is_reserved":false,"is_disabled":false,"rental_uris":{"android":"levelo://app?vid=c7f6a08b-c655-4213-b2ba-7d02e7f382fe","ios":"levelo://app?vid=c7f6a08b-c655-4213-b2ba-7d02e7f382fe"},"vehicle_type_id":"4","last_reported":1758906483,"current_range_meters":9200,"station_id":"","pricing_plan_id":"cebpf4jnsgd1na2vs0mg"},{"bike_id":"e5303607-da03-4ac7-b81e-b332ede84cf7","system_id":"levelo_inurba_marseille","lat":43.313,"lon":5.37821,"is_reserved":false,"is_disabled":false,"rental_uris":{"android":"levelo://app?vid=e5303607-da03-4ac7-b81e-b332ede84cf7","ios":"levelo://app?vid=e5303607-da03-4ac7-b81e-b332ede84cf7"},"vehicle_type_id":"4","last_reported":1758906483,"current_range_meters":9200,"station_id":"","pricing_plan_id":"cebpf4jnsgd1na2vs0mg"},{"bike_id":"22e1526a-5d94-480e-9eef-c281aa35345c","system_id":"levelo_inurba_marseille","lat":43.21189,"lon":5.35078,"is_reserved":false,"is_disabled":false,"rental_uris":{"android":"levelo://app?vid=22e1526a-5d94-480e-9eef-c281aa35345c","ios":"levelo://app?vid=22e1526a-5d94-480e-9eef-c281aa35345c"},"vehicle_type_id":"4","last_reported":1758906483,"current_range_meters":9600,"station_id":"","pricing_plan_id":"cebpf4jnsgd1na2vs0mg"},{"bike_id":"96d9d290-3482-406b-a187-2a8b12ccabb2","system_id":"levelo_inurba_marseille","lat":43.28983,"lon":5.37121,"is_reserved":false,"is_disabled":false,"rental_uris":{"android":"levelo://app?vid=96d9d290-3482-406b-a187-2a8b12ccabb2","ios":"levelo://app?vid=96d9d290-3482-406b-a187-2a8b12ccabb2"},"vehicle_type_id":"4","last_reported":1758906483,"current_range_meters":9600,"station_id":"","pricing_plan_id":"cebpf4jnsgd1na2vs0mg"},{"bike_id":"cc7f38f0-e9be-45b0-9aae-212eebcf00cc","system_id":"levelo_inurba_marseille","lat":43.29022,"lon":5.37555,"is_reserved":false,"is_disabled":false,"rental_uris":{"android":"levelo://app?vid=cc7f38f0-e9be-45b0-9aae-212eebcf00cc","ios":"levelo://app?vid=cc7f38f0-e9be-45b0-9aae-212eebcf00cc"},"vehicle_type_id":"4","last_reported":1758906483,"current_range_meters":9600,"station_id":"ce4bh692rcd13ifvqe90","pricing_plan_id":"cebpf4jnsgd1na2vs0mg"},{"bike_id":"93c45366-c971-43fb-8538-8a09abd49d8b","system_id":"levelo_inurba_marseille","lat":43.29155,"lon":5.38495,"is_reserved":false,"is_disabled":false,"rental_uris":{"android":"levelo://app?vid=93c45366-c971-43fb-8538-8a09abd49d8b","ios":"levelo://app?vid=93c45366-c971-43fb-8538-8a09abd49d8b"},"vehicle_type_id":"4","last_reported":1758906483,"current_range_meters":9600,"station_id":"","pricing_plan_id":"cebpf4jnsgd1na2vs0mg"},{"bike_id":"f3c08c97-427d-416e-b45c-d363a48e51df","system_id":"levelo_inurba_marseille","lat":43.28436,"lon":5.39184,"is_reserved":false,"is_disabled":false,"rental_uris":{"android":"levelo://app?vid=f3c08c97-427d-416e-b45c-d363a48e51df","ios":"levelo://app?vid=f3c08c97-427d-416e-b45c-d363a48e51df"},"vehicle_type_id":"4","last_reported":1758906483,"current_range_meters":9600,"station_id":"ce4bhoh2rcd13ifvqh5g","pricing_plan_id":"cebpf4jnsgd1na2vs0mg"},{"bike_id":"f94ce7dc-151c-4716-81ea-2dc153aee662","system_id":"levelo_inurba_marseille","lat":43.25334,"lon":5.4218,"is_reserved":false,"is_disabled":false,"rental_uris":{"android":"levelo://app?vid=f94ce7dc-151c-4716-81ea-2dc153aee662","ios":"levelo://app?vid=f94ce7dc-151c-4716-81ea-2dc153aee662"},"vehicle_type_id":"4","last_reported":1758906483,"current_range_meters":9600,"station_id":"st_d2m65c5bi1j21697t3ng","pricing_plan_id":"cebpf4jnsgd1na2vs0mg"},{"bike_id":"3cc8249a-b149-4ab0-8a3e-52241bb02fdd","system_id":"levelo_inurba_marseille","lat":43.29703,"lon":5.38027,"is_reserved":false,"is_disabled":false,"rental_uris":{"android":"levelo://app?vid=3cc8249a-b149-4ab0-8a3e-52241bb02fdd","ios":"levelo://app?vid=3cc8249a-b149-4ab0-8a3e-52241bb02fdd"},"vehicle_type_id":"4","last_reported":1758906483,"current_range_meters":9600,"station_id":"","pricing_plan_id":"cebpf4jnsgd1na2vs0mg"},{"bike_id":"ab7fb273-24bd-4fa4-b931-8044071b4bd8","system_id":"levelo_inurba_marseille","lat":43.28668,"lon":5.3634,"is_reserved":false,"is_disabled":false,"rental_uris":{"android":"levelo://app?vid=ab7fb273-24bd-4fa4-b931-8044071b4bd8","ios":"levelo://app?vid=ab7fb273-24bd-4fa4-b931-8044071b4bd8"},"vehicle_type_id":"4","last_reported":1758906483,"current_range_meters":9200,"station_id":"ce4bhah2rcd13ifvqej0","pricing_plan_id":"cebpf4jnsgd1na2vs0mg"},{"bike_id":"39bb99be-b25d-4119-b9e9-fa26430c15f1","system_id":"levelo_inurba_marseille","lat":43.292613,"lon":5.384303,"is_reserved":false,"is_disabled":false,"rental_uris":{"android":"levelo://app?vid=39bb99be-b25d-4119-b9e9-fa26430c15f1","ios":"levelo://app?vid=39bb99be-b25d-4119-b9e9-fa26430c15f1"},"vehicle_type_id":"4","last_reported":1758906483,"current_range_meters":10000,"station_id":"ce4bh692rcd13ifvqea0","pricing_plan_id":"cebpf4jnsgd1na2vs0mg"},{"bike_id":"465f6d1d-1d91-4137-9241-414fdc83ed72","system_id":"levelo_inurba_marseille","lat":43.2256,"lon":5.41632,"is_reserved":false,"is_disabled":false,"rental_uris":{"android":"levelo://app?vid=465f6d1d-1d91-4137-9241-414fdc83ed72","ios":"levelo://app?vid=465f6d1d-1d91-4137-9241-414fdc83ed72"},"vehicle_type_id":"4","last_reported":1758906483,"current_range_meters":10000,"station_id":"st_d2o4gvlbi1j2169b742g","pricing_plan_id":"cebpf4jnsgd1na2vs0mg"},{"bike_id":"5c768fc9-a150-4c9b-925c-c5b3140a7446","system_id":"levelo_inurba_marseille","lat":43.269565,"lon":5.386278,"is_reserved":false,"is_disabled":false,"rental_uris":{"android":"levelo://app?vid=5c768fc9-a150-4c9b-925c-c5b3140a7446","ios":"levelo://app?vid=5c768fc9-a150-4c9b-925c-c5b3140a7446"},"vehicle_type_id":"4","last_reported":1758906483,"current_range_meters":10000,"station_id":"ce4bhh92rcd13ifvqfh0","pricing_plan_id":"cebpf4jnsgd1na2vs0mg"},{"bike_id":"d85a21d7-1e65-4d76-b134-97a257d3c799","system_id":"levelo_inurba_marseille","lat":43.29097,"lon":5.38148,"is_reserved":false,"is_disabled":true,"rental_uris":{"android":"levelo://app?vid=d85a21d7-1e65-4d76-b134-97a257d3c799","ios":"levelo://app?vid=d85a21d7-1e65-4d76-b134-97a257d3c799"},"vehicle_type_id":"4","last_reported":1758906483,"current_range_meters":10000,"station_id":"ce4bh512rcd13ifvqe2g","pricing_plan_id":"cebpf4jnsgd1na2vs0mg"},{"bike_id":"59b8e66e-58b9-4c8d-81a1-f91854b36405","system_id":"levelo_inurba_marseille","lat":43.24552,"lon":5.39529,"is_reserved":false,"is_disabled":false,"rental_uris":{"android":"levelo://app?vid=59b8e66e-58b9-4c8d-81a1-f91854b36405","ios":"levelo://app?vid=59b8e66e-58b9-4c8d-81a1-f91854b36405"},"vehicle_type_id":"4","last_reported":1758906483,"current_range_meters":9600,"station_id":"ce4bhlp2rcd13ifvqgjg","pricing_plan_id":"cebpf4jnsgd1na2vs0mg"},{"bike_id":"f892a531-0ca5-4f4b-881e-d7844895b89e","system_id":"levelo_inurba_marseille","lat":43.24807,"lon":5.37462,"is_reserved":false,"is_disabled":false,"rental_uris":{"android":"levelo://app?vid=f892a531-0ca5-4f4b-881e-d7844895b89e","ios":"levelo://app?vid=f892a531-0ca5-4f4b-881e-d7844895b89e"},"vehicle_type_id":"4","last_reported":1758906483,"current_range_meters":10000,"station_id":"ce4bhgh2rcd13ifvqfb0","pricing_plan_id":"cebpf4jnsgd1na2vs0mg"},{"bike_id":"041cd397-24ab-4e04-af23-07b961e161f4","system_id":"levelo_inurba_marseille","lat":43.337444,"lon":5.374475,"is_reserved":false,"is_disabled":false,"rental_uris":{"android":"levelo://app?vid=041cd397-24ab-4e04-af23-07b961e161f4","ios":"levelo://app?vid=041cd397-24ab-4e04-af23-07b961e161f4"},"vehicle_type_id":"4","last_reported":1758906483,"current_range_meters":10000,"station_id":"","pricing_plan_id":"cebpf4jnsgd1na2vs0mg"},{"bike_id":"8b06627c-9655-40c6-b21e-ddd76bb04fc1","system_id":"levelo_inurba_marseille","lat":43.292051,"lon":5.358836,"is_reserved":false,"is_disabled":false,"rental_uris":{"android":"levelo://app?vid=8b06627c-9655-40c6-b21e-ddd76bb04fc1","ios":"levelo://app?vid=8b06627c-9655-40c6-b21e-ddd76bb04fc1"},"vehicle_type_id":"4","last_reported":1758906483,"current_range_meters":10000,"station_id":"ce4bhb12rcd13ifvqel0","pricing_plan_id":"cebpf4jnsgd1na2vs0mg"},{"bike_id":"0c375b8c-a40e-4773-bb15-c57b61a3f03d","system_id":"levelo_inurba_marseille","lat":43.25725,"lon":5.41101,"is_reserved":false,"is_disabled":false,"rental_uris":{"android":"levelo://app?vid=0c375b8c-a40e-4773-bb15-c57b61a3f03d","ios":"levelo://app?vid=0c375b8c-a40e-4773-bb15-c57b61a3f03d"},"vehicle_type_id":"4","last_reported":1758906483,"current_range_meters":10800,"station_id":"ce4bhkp2rcd13ifvqgd0","pricing_plan_id":"cebpf4jnsgd1na2vs0mg"},{"bike_id":"7f5979b9-b664-4bd4-b653-1c6386687555","system_id":"levelo_inurba_marseille","lat":43.29789,"lon":5.39351,"is_reserved":false,"is_disabled":false,"rental_uris":{"android":"levelo://app?vid=7f5979b9-b664-4bd4-b653-1c6386687555","ios":"levelo://app?vid=7f5979b9-b664-4bd4-b653-1c6386687555"},"vehicle_type_id":"4","last_reported":1758906483,"current_range_meters":10800,"station_id":"chh1huq6cuj3fo74tm60","pricing_plan_id":"cebpf4jnsgd1na2vs0mg"},{"bike_id":"217486d0-8957-4213-b9c9-a83698745957","system_id":"levelo_inurba_marseille","lat":43.28023,"lon":5.36947,"is_reserved":false,"is_disabled":false,"rental_uris":{"android":"levelo://app?vid=217486d0-8957-4213-b9c9-a83698745957","ios":"levelo://app?vid=217486d0-8957-4213-b9c9-a83698745957"},"vehicle_type_id":"4","last_reported":1758906483,"current_range_meters":10800,"station_id":"ce4bha12rcd13ifvqef0","pricing_plan_id":"cebpf4jnsgd1na2vs0mg"},{"bike_id":"75611fb7-df45-4d9f-9db0-a181136cc424","system_id":"levelo_inurba_marseille","lat":43.2175,"lon":5.34589,"is_reserved":false,"is_disabled":true,"rental_uris":{"android":"levelo://app?vid=75611fb7-df45-4d9f-9db0-a181136cc424","ios":"levelo://app?vid=75611fb7-df45-4d9f-9db0-a181136cc424"},"vehicle_type_id":"4","last_reported":1758906483,"current_range_meters":11200,"station_id":"st_cvj6r9ubvosntc0bgbag","pricing_plan_id":"cebpf4jnsgd1na2vs0mg"},{"bike_id":"b0934032-3d3c-44e1-985e-e72b8cee3491","system_id":"levelo_inurba_marseille","lat":43.24653,"lon":5.43147,"is_reserved":false,"is_disabled":false,"rental_uris":{"android":"levelo://app?vid=b0934032-3d3c-44e1-985e-e72b8cee3491","ios":"levelo://app?vid=b0934032-3d3c-44e1-985e-e72b8cee3491"},"vehicle_type_id":"4","last_reported":1758906483,"current_range_meters":11200,"station_id":"st_d2m6c4gdas8pm72e190g","pricing_plan_id":"cebpf4jnsgd1na2vs0mg"},{"bike_id":"b01b5bc6-6834-41fb-be97-f5b6fb7e9ec8","system_id":"levelo_inurba_marseille","lat":43.26307,"lon":5.39857,"is_reserved":false,"is_disabled":false,"rental_uris":{"android":"levelo://app?vid=b01b5bc6-6834-41fb-be97-f5b6fb7e9ec8","ios":"levelo://app?vid=b01b5bc6-6834-41fb-be97-f5b6fb7e9ec8"},"vehicle_type_id":"4","last_reported":1758906483,"current_range_meters":11200,"station_id":"","pricing_plan_id":"cebpf4jnsgd1na2vs0mg"},{"bike_id":"fd7db3b2-bf6f-47a6-a193-d9e54fb8924d","system_id":"levelo_inurba_marseille","lat":43.32249,"lon":5.39448,"is_reserved":false,"is_disabled":false,"rental_uris":{"android":"levelo://app?vid=fd7db3b2-bf6f-47a6-a193-d9e54fb8924d","ios":"levelo://app?vid=fd7db3b2-bf6f-47a6-a193-d9e54fb8924d"},"vehicle_type_id":"4","last_reported":1758906483,"current_range_meters":11200,"station_id":"","pricing_plan_id":"cebpf4jnsgd1na2vs0mg"},{"bike_id":"45841393-6e71-40c3-aa51-1af80df156db","system_id":"levelo_inurba_marseille","lat":43.295349,"lon":5.385502,"is_reserved":false,"is_disabled":false,"rental_uris":{"android":"levelo://app?vid=45841393-6e71-40c3-aa51-1af80df156db","ios":"levelo://app?vid=45841393-6e71-40c3-aa51-1af80df156db"},"vehicle_type_id":"4","last_reported":1758906483,"current_range_meters":11200,"station_id":"ce4bgih2rcd13ifvqba0","pricing_plan_id":"cebpf4jnsgd1na2vs0mg"},{"bike_id":"0c7f7ac9-1a5c-4391-af26-eaeefd992644","system_id":"levelo_inurba_marseille","lat":43.289379,"lon":5.366387,"is_reserved":false,"is_disabled":false,"rental_uris":{"android":"levelo://app?vid=0c7f7ac9-1a5c-4391-af26-eaeefd992644","ios":"levelo://app?vid=0c7f7ac9-1a5c-4391-af26-eaeefd992644"},"vehicle_type_id":"4","last_reported":1758906483,"current_range_meters":11600,"station_id":"ce4bhap2rcd13ifvqek0","pricing_plan_id":"cebpf4jnsgd1na2vs0mg"},{"bike_id":"8e1b1eb0-4c33-4e74-bae5-ed22f5e316bb","system_id":"levelo_inurba_marseille","lat":43.2781,"lon":5.40713,"is_reserved":false,"is_disabled":false,"rental_uris":{"android":"levelo://app?vid=8e1b1eb0-4c33-4e74-bae5-ed22f5e316bb","ios":"levelo://app?vid=8e1b1eb0-4c33-4e74-bae5-ed22f5e316bb"},"vehicle_type_id":"4","last_reported":1758906483,"current_range_meters":12000,"station_id":"ce4bhnh2rcd13ifvqgtg","pricing_plan_id":"cebpf4jnsgd1na2vs0mg"},{"bike_id":"4e4c8a03-f9fc-4833-9785-996115880133","system_id":"levelo_inurba_marseille","lat":43.28454,"lon":5.35872,"is_reserved":false,"is_disabled":false,"rental_uris":{"android":"levelo://app?vid=4e4c8a03-f9fc-4833-9785-996115880133","ios":"levelo://app?vid=4e4c8a03-f9fc-4833-9785-996115880133"},"vehicle_type_id":"4","last_reported":1758906483,"current_range_meters":11600,"station_id":"ce4bhah2rcd13ifvqei0","pricing_plan_id":"cebpf4jnsgd1na2vs0mg"},{"bike_id":"2907de3a-cdb7-4c49-945b-9d4546080cdd","system_id":"levelo_inurba_marseille","lat":43.29419,"lon":5.36217,"is_reserved":false,"is_disabled":false,"rental_uris":{"android":"levelo://app?vid=2907de3a-cdb7-4c49-945b-9d4546080cdd","ios":"levelo://app?vid=2907de3a-cdb7-4c49-945b-9d4546080cdd"},"vehicle_type_id":"4","last_reported":1758906483,"current_range_meters":11600,"station_id":"","pricing_plan_id":"cebpf4jnsgd1na2vs0mg"},{"bike_id":"d38c687c-4d4c-4787-9d54-15b7cc3f78f7","system_id":"levelo_inurba_marseille","lat":43.30878,"lon":5.37197,"is_reserved":false,"is_disabled":false,"rental_uris":{"android":"levelo://app?vid=d38c687c-4d4c-4787-9d54-15b7cc3f78f7","ios":"levelo://app?vid=d38c687c-4d4c-4787-9d54-15b7cc3f78f7"},"vehicle_type_id":"4","last_reported":1758906483,"current_range_meters":11200,"station_id":"ce4bguh2rcd13ifvqckg","pricing_plan_id":"cebpf4jnsgd1na2vs0mg"},{"bike_id":"8fb6b312-30ed-4765-90d6-32ed783bc889","system_id":"levelo_inurba_marseille","lat":43.29961,"lon":5.4134,"is_reserved":false,"is_disabled":true,"rental_uris":{"android":"levelo://app?vid=8fb6b312-30ed-4765-90d6-32ed783bc889","ios":"levelo://app?vid=8fb6b312-30ed-4765-90d6-32ed783bc889"},"vehicle_type_id":"4","last_reported":1758906483,"current_range_meters":11600,"station_id":"ce4bhp12rcd13ifvqh9g","pricing_plan_id":"cebpf4jnsgd1na2vs0mg"},{"bike_id":"1e22be40-3984-45a2-b266-26127bc89bb4","system_id":"levelo_inurba_marseille","lat":43.27169,"lon":5.40991,"is_reserved":false,"is_disabled":false,"rental_uris":{"android":"levelo://app?vid=1e22be40-3984-45a2-b266-26127bc89bb4","ios":"levelo://app?vid=1e22be40-3984-45a2-b266-26127bc89bb4"},"vehicle_type_id":"4","last_reported":1758906483,"current_range_meters":11600,"station_id":"ce4bhl12rcd13ifvqgf0","pricing_plan_id":"cebpf4jnsgd1na2vs0mg"},{"bike_id":"edc68dae-2b0b-4c76-9b4a-9131899da862","system_id":"levelo_inurba_marseille","lat":43.26062,"lon":5.39398,"is_reserved":false,"is_disabled":false,"rental_uris":{"android":"levelo://app?vid=edc68dae-2b0b-4c76-9b4a-9131899da862","ios":"levelo://app?vid=edc68dae-2b0b-4c76-9b4a-9131899da862"},"vehicle_type_id":"4","last_reported":1758906483,"current_range_meters":11600,"station_id":"ce4bhh92rcd13ifvqfj0","pricing_plan_id":"cebpf4jnsgd1na2vs0mg"},{"bike_id":"c975862c-3721-4ac1-a6a4-5b86cf0364aa","system_id":"levelo_inurba_marseille","lat":43.21201,"lon":5.35077,"is_reserved":false,"is_disabled":false,"rental_uris":{"android":"levelo://app?vid=c975862c-3721-4ac1-a6a4-5b86cf0364aa","ios":"levelo://app?vid=c975862c-3721-4ac1-a6a4-5b86cf0364aa"},"vehicle_type_id":"4","last_reported":1758906483,"current_range_meters":11600,"station_id":"st_cvj6sg6p6f1abm77japg","pricing_plan_id":"cebpf4jnsgd1na2vs0mg"},{"bike_id":"886a229d-cba7-42a2-819f-5d628673e084","system_id":"levelo_inurba_marseille","lat":43.29002,"lon":5.35612,"is_reserved":false,"is_disabled":false,"rental_uris":{"android":"levelo://app?vid=886a229d-cba7-42a2-819f-5d628673e084","ios":"levelo://app?vid=886a229d-cba7-42a2-819f-5d628673e084"},"vehicle_type_id":"4","last_reported":1758906483,"current_range_meters":11600,"station_id":"ce4bhb92rcd13ifvqen0","pricing_plan_id":"cebpf4jnsgd1na2vs0mg"},{"bike_id":"a57b3feb-2354-42fe-87fd-e8fcee3a0260","system_id":"levelo_inurba_marseille","lat":43.26953,"lon":5.40241,"is_reserved":false,"is_disabled":false,"rental_uris":{"android":"levelo://app?vid=a57b3feb-2354-42fe-87fd-e8fcee3a0260","ios":"levelo://app?vid=a57b3feb-2354-42fe-87fd-e8fcee3a0260"},"vehicle_type_id":"4","last_reported":1758906483,"current_range_meters":11600,"station_id":"","pricing_plan_id":"cebpf4jnsgd1na2vs0mg"},{"bike_id":"9ff4c139-6967-4712-97d8-18d0d8625d33","system_id":"levelo_inurba_marseille","lat":43.28099,"lon":5.37848,"is_reserved":false,"is_disabled":false,"rental_uris":{"android":"levelo://app?vid=9ff4c139-6967-4712-97d8-18d0d8625d33","ios":"levelo://app?vid=9ff4c139-6967-4712-97d8-18d0d8625d33"},"vehicle_type_id":"4","last_reported":1758906483,"current_range_meters":12000,"station_id":"ce4bha12rcd13ifvqee0","pricing_plan_id":"cebpf4jnsgd1na2vs0mg"},{"bike_id":"22baad07-eaf3-43fa-b0e8-56b1d925e452","system_id":"levelo_inurba_marseille","lat":43.2586,"lon":5.3992,"is_reserved":false,"is_disabled":false,"rental_uris":{"android":"levelo://app?vid=22baad07-eaf3-43fa-b0e8-56b1d925e452","ios":"levelo://app?vid=22baad07-eaf3-43fa-b0e8-56b1d925e452"},"vehicle_type_id":"4","last_reported":1758906483,"current_range_meters":12000,"station_id":"ce4bhl92rcd13ifvqghg","pricing_plan_id":"cebpf4jnsgd1na2vs0mg"},{"bike_id":"ed9c1b6f-0cc7-47fb-a193-bb02351072ff","system_id":"levelo_inurba_marseille","lat":43.254958,"lon":5.376427,"is_reserved":false,"is_disabled":false,"rental_uris":{"android":"levelo://app?vid=ed9c1b6f-0cc7-47fb-a193-bb02351072ff","ios":"levelo://app?vid=ed9c1b6f-0cc7-47fb-a193-bb02351072ff"},"vehicle_type_id":"4","last_reported":1758906483,"current_range_meters":12000,"station_id":"","pricing_plan_id":"cebpf4jnsgd1na2vs0mg"},{"bike_id":"7266fb39-452a-4e7f-aafa-8725c9c5d955","system_id":"levelo_inurba_marseille","lat":43.27182,"lon":5.40995,"is_reserved":false,"is_disabled":false,"rental_uris":{"android":"levelo://app?vid=7266fb39-452a-4e7f-aafa-8725c9c5d955","ios":"levelo://app?vid=7266fb39-452a-4e7f-aafa-8725c9c5d955"},"vehicle_type_id":"4","last_reported":1758906483,"current_range_meters":12000,"station_id":"ce4bhl12rcd13ifvqgf0","pricing_plan_id":"cebpf4jnsgd1na2vs0mg"},{"bike_id":"3f51e03c-3abb-4dde-8cdd-da596aa3252f","system_id":"levelo_inurba_marseille","lat":43.27672,"lon":5.38893,"is_reserved":false,"is_disabled":true,"rental_uris":{"android":"levelo://app?vid=3f51e03c-3abb-4dde-8cdd-da596aa3252f","ios":"levelo://app?vid=3f51e03c-3abb-4dde-8cdd-da596aa3252f"},"vehicle_type_id":"4","last_reported":1758906483,"current_range_meters":12000,"station_id":"ce4bhi12rcd13ifvqfo0","pricing_plan_id":"cebpf4jnsgd1na2vs0mg"},{"bike_id":"f8128348-f3bf-41cc-8b6e-a6df8137ba43","system_id":"levelo_inurba_marseille","lat":43.29274,"lon":5.38434,"is_reserved":false,"is_disabled":false,"rental_uris":{"android":"levelo://app?vid=f8128348-f3bf-41cc-8b6e-a6df8137ba43","ios":"levelo://app?vid=f8128348-f3bf-41cc-8b6e-a6df8137ba43"},"vehicle_type_id":"4","last_reported":1758906483,"current_range_meters":12000,"station_id":"ce4bh692rcd13ifvqea0","pricing_plan_id":"cebpf4jnsgd1na2vs0mg"},{"bike_id":"a193967c-a3b2-458c-b3f3-21fbf997eaa2","system_id":"levelo_inurba_marseille","lat":43.30539,"lon":5.36548,"is_reserved":false,"is_disabled":false,"rental_uris":{"android":"levelo://app?vid=a193967c-a3b2-458c-b3f3-21fbf997eaa2","ios":"levelo://app?vid=a193967c-a3b2-458c-b3f3-21fbf997eaa2"},"vehicle_type_id":"4","last_reported":1758906483,"current_range_meters":12000,"station_id":"ce4bgs12rcd13ifvqcag","pricing_plan_id":"cebpf4jnsgd1na2vs0mg"},{"bike_id":"49e66773-1bef-4ce7-984f-02a5a9ab1fec","system_id":"levelo_inurba_marseille","lat":43.24662,"lon":5.38157,"is_reserved":false,"is_disabled":false,"rental_uris":{"android":"levelo://app?vid=49e66773-1bef-4ce7-984f-02a5a9ab1fec","ios":"levelo://app?vid=49e66773-1bef-4ce7-984f-02a5a9ab1fec"},"vehicle_type_id":"4","last_reported":1758906483,"current_range_meters":12000,"station_id":"ce4bhih2rcd13ifvqfr0","pricing_plan_id":"cebpf4jnsgd1na2vs0mg"},{"bike_id":"41f88399-fdde-42e5-b00a-c2e9ccec0f9d","system_id":"levelo_inurba_marseille","lat":43.27052,"lon":5.40262,"is_reserved":false,"is_disabled":false,"rental_uris":{"android":"levelo://app?vid=41f88399-fdde-42e5-b00a-c2e9ccec0f9d","ios":"levelo://app?vid=41f88399-fdde-42e5-b00a-c2e9ccec0f9d"},"vehicle_type_id":"4","last_reported":1758906483,"current_range_meters":12000,"station_id":"ce4bhk92rcd13ifvqgc0","pricing_plan_id":"cebpf4jnsgd1na2vs0mg"},{"bike_id":"a3565901-488d-4b0e-b4ce-6cc412499625","system_id":"levelo_inurba_marseille","lat":43.26569,"lon":5.39006,"is_reserved":false,"is_disabled":false,"rental_uris":{"android":"levelo://app?vid=a3565901-488d-4b0e-b4ce-6cc412499625","ios":"levelo://app?vid=a3565901-488d-4b0e-b4ce-6cc412499625"},"vehicle_type_id":"4","last_reported":1758906483,"current_range_meters":8400,"station_id":"ce4bhe12rcd13ifvqf30","pricing_plan_id":"cebpf4jnsgd1na2vs0mg"},{"bike_id":"a639c491-c436-478a-8d5d-bd2c30b918ff","system_id":"levelo_inurba_marseille","lat":43.29746,"lon":5.37197,"is_reserved":false,"is_disabled":false,"rental_uris":{"android":"levelo://app?vid=a639c491-c436-478a-8d5d-bd2c30b918ff","ios":"levelo://app?vid=a639c491-c436-478a-8d5d-bd2c30b918ff"},"vehicle_type_id":"4","last_reported":1758906483,"current_range_meters":12000,"station_id":"","pricing_plan_id":"cebpf4jnsgd1na2vs0mg"},{"bike_id":"8baeac13-7e80-456d-83aa-12e0372d0df5","system_id":"levelo_inurba_marseille","lat":43.32482,"lon":5.37568,"is_reserved":false,"is_disabled":false,"rental_uris":{"android":"levelo://app?vid=8baeac13-7e80-456d-83aa-12e0372d0df5","ios":"levelo://app?vid=8baeac13-7e80-456d-83aa-12e0372d0df5"},"vehicle_type_id":"4","last_reported":1758906483,"current_range_meters":12000,"station_id":"","pricing_plan_id":"cebpf4jnsgd1na2vs0mg"},{"bike_id":"ec5697ad-dcf7-4860-97de-959fcdd566f7","system_id":"levelo_inurba_marseille","lat":43.273794,"lon":5.36252,"is_reserved":false,"is_disabled":false,"rental_uris":{"android":"levelo://app?vid=ec5697ad-dcf7-4860-97de-959fcdd566f7","ios":"levelo://app?vid=ec5697ad-dcf7-4860-97de-959fcdd566f7"},"vehicle_type_id":"4","last_reported":1758906483,"current_range_meters":12000,"station_id":"ce4bhbh2rcd13ifvqeo0","pricing_plan_id":"cebpf4jnsgd1na2vs0mg"},{"bike_id":"748b4a47-40a7-4c38-9681-dbdb6b213078","system_id":"levelo_inurba_marseille","lat":43.32478,"lon":5.36562,"is_reserved":false,"is_disabled":false,"rental_uris":{"android":"levelo://app?vid=748b4a47-40a7-4c38-9681-dbdb6b213078","ios":"levelo://app?vid=748b4a47-40a7-4c38-9681-dbdb6b213078"},"vehicle_type_id":"4","last_reported":1758906483,"current_range_meters":12000,"station_id":"ce4bhs12rcd13ifvqhvg","pricing_plan_id":"cebpf4jnsgd1na2vs0mg"},{"bike_id":"6bcdfc7c-350c-4674-9ede-2928d75a3a1a","system_id":"levelo_inurba_marseille","lat":43.25328,"lon":5.42162,"is_reserved":false,"is_disabled":false,"rental_uris":{"android":"levelo://app?vid=6bcdfc7c-350c-4674-9ede-2928d75a3a1a","ios":"levelo://app?vid=6bcdfc7c-350c-4674-9ede-2928d75a3a1a"},"vehicle_type_id":"4","last_reported":1758906483,"current_range_meters":12000,"station_id":"st_d2m65c5bi1j21697t3ng","pricing_plan_id":"cebpf4jnsgd1na2vs0mg"},{"bike_id":"36240005-e7c4-46f1-84eb-71b2123a1927","system_id":"levelo_inurba_marseille","lat":43.29167,"lon":5.37157,"is_reserved":false,"is_disabled":false,"rental_uris":{"android":"levelo://app?vid=36240005-e7c4-46f1-84eb-71b2123a1927","ios":"levelo://app?vid=36240005-e7c4-46f1-84eb-71b2123a1927"},"vehicle_type_id":"4","last_reported":1758906483,"current_range_meters":12400,"station_id":"ce4bha92rcd13ifvqeh0","pricing_plan_id":"cebpf4jnsgd1na2vs0mg"},{"bike_id":"df649d25-1f44-4471-8cdd-9566da8ef9b9","system_id":"levelo_inurba_marseille","lat":43.32336,"lon":5.38902,"is_reserved":false,"is_disabled":false,"rental_uris":{"android":"levelo://app?vid=df649d25-1f44-4471-8cdd-9566da8ef9b9","ios":"levelo://app?vid=df649d25-1f44-4471-8cdd-9566da8ef9b9"},"vehicle_type_id":"4","last_reported":1758906483,"current_range_meters":12400,"station_id":"ce4bhqp2rcd13ifvqhog","pricing_plan_id":"cebpf4jnsgd1na2vs0mg"},{"bike_id":"280349c2-7d75-4732-844a-272770d12d07","system_id":"levelo_inurba_marseille","lat":43.24952,"lon":5.4049,"is_reserved":false,"is_disabled":false,"rental_uris":{"android":"levelo://app?vid=280349c2-7d75-4732-844a-272770d12d07","ios":"levelo://app?vid=280349c2-7d75-4732-844a-272770d12d07"},"vehicle_type_id":"4","last_reported":1758906483,"current_range_meters":12400,"station_id":"st_d2ngiaodas8pm72gd1h0","pricing_plan_id":"cebpf4jnsgd1na2vs0mg"},{"bike_id":"0503a8ce-8efb-4a44-accb-b4d31ec1112a","system_id":"levelo_inurba_marseille","lat":43.30215,"lon":5.3948,"is_reserved":false,"is_disabled":false,"rental_uris":{"android":"levelo://app?vid=0503a8ce-8efb-4a44-accb-b4d31ec1112a","ios":"levelo://app?vid=0503a8ce-8efb-4a44-accb-b4d31ec1112a"},"vehicle_type_id":"4","last_reported":1758906483,"current_range_meters":12400,"station_id":"ce4bh0p2rcd13ifvqd70","pricing_plan_id":"cebpf4jnsgd1na2vs0mg"},{"bike_id":"435ea7f2-2d14-4844-9d46-504c8c8ad753","system_id":"levelo_inurba_marseille","lat":43.3136,"lon":5.38503,"is_reserved":false,"is_disabled":false,"rental_uris":{"android":"levelo://app?vid=435ea7f2-2d14-4844-9d46-504c8c8ad753","ios":"levelo://app?vid=435ea7f2-2d14-4844-9d46-504c8c8ad753"},"vehicle_type_id":"4","last_reported":1758906483,"current_range_meters":12400,"station_id":"ce4bgt92rcd13ifvqcf0","pricing_plan_id":"cebpf4jnsgd1na2vs0mg"},{"bike_id":"f5eb5fac-36cc-401f-ae2d-ac5e41206691","system_id":"levelo_inurba_marseille","lat":43.25329,"lon":5.42161,"is_reserved":false,"is_disabled":false,"rental_uris":{"android":"levelo://app?vid=f5eb5fac-36cc-401f-ae2d-ac5e41206691","ios":"levelo://app?vid=f5eb5fac-36cc-401f-ae2d-ac5e41206691"},"vehicle_type_id":"4","last_reported":1758906483,"current_range_meters":12400,"station_id":"st_d2m65c5bi1j21697t3ng","pricing_plan_id":"cebpf4jnsgd1na2vs0mg"},{"bike_id":"a4e54d39-985f-44d9-b3cf-56264f9808ee","system_id":"levelo_inurba_marseille","lat":43.266779,"lon":5.382679,"is_reserved":false,"is_disabled":false,"rental_uris":{"android":"levelo://app?vid=a4e54d39-985f-44d9-b3cf-56264f9808ee","ios":"levelo://app?vid=a4e54d39-985f-44d9-b3cf-56264f9808ee"},"vehicle_type_id":"4","last_reported":1758906483,"current_range_meters":12400,"station_id":"ce4bhg92rcd13ifvqf90","pricing_plan_id":"cebpf4jnsgd1na2vs0mg"},{"bike_id":"492ad12c-b243-47af-8b99-b8dc1dc5237a","system_id":"levelo_inurba_marseille","lat":43.22925,"lon":5.35378,"is_reserved":false,"is_disabled":false,"rental_uris":{"android":"levelo://app?vid=492ad12c-b243-47af-8b99-b8dc1dc5237a","ios":"levelo://app?vid=492ad12c-b243-47af-8b99-b8dc1dc5237a"},"vehicle_type_id":"4","last_reported":1758906483,"current_range_meters":12400,"station_id":"cpo3532slgdg3j2ikp40","pricing_plan_id":"cebpf4jnsgd1na2vs0mg"},{"bike_id":"5d944089-7d4d-485d-8e5e-fe9c9b3dd7de","system_id":"levelo_inurba_marseille","lat":43.22558,"lon":5.41632,"is_reserved":false,"is_disabled":false,"rental_uris":{"android":"levelo://app?vid=5d944089-7d4d-485d-8e5e-fe9c9b3dd7de","ios":"levelo://app?vid=5d944089-7d4d-485d-8e5e-fe9c9b3dd7de"},"vehicle_type_id":"4","last_reported":1758906483,"current_range_meters":12400,"station_id":"st_d2o4gvlbi1j2169b742g","pricing_plan_id":"cebpf4jnsgd1na2vs0mg"},{"bike_id":"5f812992-17bf-4ad1-b97e-c1ff131aee96","system_id":"levelo_inurba_marseille","lat":43.27174,"lon":5.40997,"is_reserved":false,"is_disabled":false,"rental_uris":{"android":"levelo://app?vid=5f812992-17bf-4ad1-b97e-c1ff131aee96","ios":"levelo://app?vid=5f812992-17bf-4ad1-b97e-c1ff131aee96"},"vehicle_type_id":"4","last_reported":1758906483,"current_range_meters":12000,"station_id":"ce4bhl12rcd13ifvqgf0","pricing_plan_id":"cebpf4jnsgd1na2vs0mg"},{"bike_id":"df815fe2-2748-44b7-b0a3-64c7360aa330","system_id":"levelo_inurba_marseille","lat":43.30216,"lon":5.38822,"is_reserved":false,"is_disabled":false,"rental_uris":{"android":"levelo://app?vid=df815fe2-2748-44b7-b0a3-64c7360aa330","ios":"levelo://app?vid=df815fe2-2748-44b7-b0a3-64c7360aa330"},"vehicle_type_id":"4","last_reported":1758906483,"current_range_meters":12400,"station_id":"","pricing_plan_id":"cebpf4jnsgd1na2vs0mg"},{"bike_id":"fd18a301-a9dd-4600-afce-c6b935fa8b40","system_id":"levelo_inurba_marseille","lat":43.26176,"lon":5.37473,"is_reserved":false,"is_disabled":false,"rental_uris":{"android":"levelo://app?vid=fd18a301-a9dd-4600-afce-c6b935fa8b40","ios":"levelo://app?vid=fd18a301-a9dd-4600-afce-c6b935fa8b40"},"vehicle_type_id":"4","last_reported":1758906483,"current_range_meters":12800,"station_id":"ce4bhgp2rcd13ifvqfc0","pricing_plan_id":"cebpf4jnsgd1na2vs0mg"},{"bike_id":"2cd8c0a6-85be-40db-b6d3-a33970d6198b","system_id":"levelo_inurba_marseille","lat":43.28443,"lon":5.39205,"is_reserved":false,"is_disabled":false,"rental_uris":{"android":"levelo://app?vid=2cd8c0a6-85be-40db-b6d3-a33970d6198b","ios":"levelo://app?vid=2cd8c0a6-85be-40db-b6d3-a33970d6198b"},"vehicle_type_id":"4","last_reported":1758906483,"current_range_meters":10800,"station_id":"ce4bhoh2rcd13ifvqh5g","pricing_plan_id":"cebpf4jnsgd1na2vs0mg"},{"bike_id":"dbe20fd4-1c47-48e5-bc8e-9ccffcd21c88","system_id":"levelo_inurba_marseille","lat":43.24543,"lon":5.39529,"is_reserved":false,"is_disabled":false,"rental_uris":{"android":"levelo://app?vid=dbe20fd4-1c47-48e5-bc8e-9ccffcd21c88","ios":"levelo://app?vid=dbe20fd4-1c47-48e5-bc8e-9ccffcd21c88"},"vehicle_type_id":"4","last_reported":1758906483,"current_range_meters":12800,"station_id":"ce4bhlp2rcd13ifvqgjg","pricing_plan_id":"cebpf4jnsgd1na2vs0mg"},{"bike_id":"08fe2b08-b3fa-43f8-ae73-04061f76318d","system_id":"levelo_inurba_marseille","lat":43.305552,"lon":5.365395,"is_reserved":false,"is_disabled":false,"rental_uris":{"android":"levelo://app?vid=08fe2b08-b3fa-43f8-ae73-04061f76318d","ios":"levelo://app?vid=08fe2b08-b3fa-43f8-ae73-04061f76318d"},"vehicle_type_id":"4","last_reported":1758906483,"current_range_meters":12800,"station_id":"","pricing_plan_id":"cebpf4jnsgd1na2vs0mg"},{"bike_id":"a721913d-a883-4c3b-b474-c8ff8a32e668","system_id":"levelo_inurba_marseille","lat":43.29863,"lon":5.39743,"is_reserved":false,"is_disabled":false,"rental_uris":{"android":"levelo://app?vid=a721913d-a883-4c3b-b474-c8ff8a32e668","ios":"levelo://app?vid=a721913d-a883-4c3b-b474-c8ff8a32e668"},"vehicle_type_id":"4","last_reported":1758906483,"current_range_meters":12800,"station_id":"ce4bh0h2rcd13ifvqd50","pricing_plan_id":"cebpf4jnsgd1na2vs0mg"},{"bike_id":"311e6bd1-a893-4ccd-9570-4efe1e6a69e0","system_id":"levelo_inurba_marseille","lat":43.30324,"lon":5.40447,"is_reserved":false,"is_disabled":false,"rental_uris":{"android":"levelo://app?vid=311e6bd1-a893-4ccd-9570-4efe1e6a69e0","ios":"levelo://app?vid=311e6bd1-a893-4ccd-9570-4efe1e6a69e0"},"vehicle_type_id":"4","last_reported":1758906483,"current_range_meters":12400,"station_id":"ce4bh012rcd13ifvqd10","pricing_plan_id":"cebpf4jnsgd1na2vs0mg"},{"bike_id":"10b8d871-07e9-4114-9eb9-6bcce40e7beb","system_id":"levelo_inurba_marseille","lat":43.27045,"lon":5.392226,"is_reserved":false,"is_disabled":false,"rental_uris":{"android":"levelo://app?vid=10b8d871-07e9-4114-9eb9-6bcce40e7beb","ios":"levelo://app?vid=10b8d871-07e9-4114-9eb9-6bcce40e7beb"},"vehicle_type_id":"4","last_reported":1758906483,"current_range_meters":12800,"station_id":"ce4bhe12rcd13ifvqf30","pricing_plan_id":"cebpf4jnsgd1na2vs0mg"},{"bike_id":"9a0e9874-fa1d-45d4-b09c-e9aa0318f5cf","system_id":"levelo_inurba_marseille","lat":43.23189,"lon":5.399862,"is_reserved":false,"is_disabled":false,"rental_uris":{"android":"levelo://app?vid=9a0e9874-fa1d-45d4-b09c-e9aa0318f5cf","ios":"levelo://app?vid=9a0e9874-fa1d-45d4-b09c-e9aa0318f5cf"},"vehicle_type_id":"4","last_reported":1758906483,"current_range_meters":12800,"station_id":"ce4bhn12rcd13ifvqgqg","pricing_plan_id":"cebpf4jnsgd1na2vs0mg"},{"bike_id":"050a1441-fcf0-4c9c-b19a-20e3f7b8e116","system_id":"levelo_inurba_marseille","lat":43.23181,"lon":5.39977,"is_reserved":false,"is_disabled":false,"rental_uris":{"android":"levelo://app?vid=050a1441-fcf0-4c9c-b19a-20e3f7b8e116","ios":"levelo://app?vid=050a1441-fcf0-4c9c-b19a-20e3f7b8e116"},"vehicle_type_id":"4","last_reported":1758906483,"current_range_meters":13600,"station_id":"ce4bhn12rcd13ifvqgqg","pricing_plan_id":"cebpf4jnsgd1na2vs0mg"},{"bike_id":"08292ac0-f4a0-4778-9703-5ac015ee1e3a","system_id":"levelo_inurba_marseille","lat":43.24654,"lon":5.43144,"is_reserved":false,"is_disabled":false,"rental_uris":{"android":"levelo://app?vid=08292ac0-f4a0-4778-9703-5ac015ee1e3a","ios":"levelo://app?vid=08292ac0-f4a0-4778-9703-5ac015ee1e3a"},"vehicle_type_id":"4","last_reported":1758906483,"current_range_meters":13600,"station_id":"st_d2m6c4gdas8pm72e190g","pricing_plan_id":"cebpf4jnsgd1na2vs0mg"},{"bike_id":"f59933d2-584b-4d31-b540-f48162f472e1","system_id":"levelo_inurba_marseille","lat":43.28603,"lon":5.35124,"is_reserved":false,"is_disabled":false,"rental_uris":{"android":"levelo://app?vid=f59933d2-584b-4d31-b540-f48162f472e1","ios":"levelo://app?vid=f59933d2-584b-4d31-b540-f48162f472e1"},"vehicle_type_id":"4","last_reported":1758906483,"current_range_meters":13600,"station_id":"ce4bhch2rcd13ifvqeug","pricing_plan_id":"cebpf4jnsgd1na2vs0mg"},{"bike_id":"9a4f92ed-e086-4038-a651-bbe0613f80bd","system_id":"levelo_inurba_marseille","lat":43.22569,"lon":5.41631,"is_reserved":false,"is_disabled":false,"rental_uris":{"android":"levelo://app?vid=9a4f92ed-e086-4038-a651-bbe0613f80bd","ios":"levelo://app?vid=9a4f92ed-e086-4038-a651-bbe0613f80bd"},"vehicle_type_id":"4","last_reported":1758906483,"current_range_meters":13600,"station_id":"st_d2o4gvlbi1j2169b742g","pricing_plan_id":"cebpf4jnsgd1na2vs0mg"},{"bike_id":"45e07bae-690f-4ff3-a8bd-511d32841972","system_id":"levelo_inurba_marseille","lat":43.25098,"lon":5.40328,"is_reserved":false,"is_disabled":false,"rental_uris":{"android":"levelo://app?vid=45e07bae-690f-4ff3-a8bd-511d32841972","ios":"levelo://app?vid=45e07bae-690f-4ff3-a8bd-511d32841972"},"vehicle_type_id":"4","last_reported":1758906483,"current_range_meters":13600,"station_id":"ce4bhlh2rcd13ifvqgig","pricing_plan_id":"cebpf4jnsgd1na2vs0mg"},{"bike_id":"8af06d23-cfa2-4988-bb89-5d4a532d4033","system_id":"levelo_inurba_marseille","lat":43.25497,"lon":5.37663,"is_reserved":false,"is_disabled":false,"rental_uris":{"android":"levelo://app?vid=8af06d23-cfa2-4988-bb89-5d4a532d4033","ios":"levelo://app?vid=8af06d23-cfa2-4988-bb89-5d4a532d4033"},"vehicle_type_id":"4","last_reported":1758906483,"current_range_meters":14000,"station_id":"ce4bhh12rcd13ifvqff0","pricing_plan_id":"cebpf4jnsgd1na2vs0mg"},{"bike_id":"60a11e90-3848-4dab-955c-0056635e037e","system_id":"levelo_inurba_marseille","lat":43.295276,"lon":5.385452,"is_reserved":false,"is_disabled":false,"rental_uris":{"android":"levelo://app?vid=60a11e90-3848-4dab-955c-0056635e037e","ios":"levelo://app?vid=60a11e90-3848-4dab-955c-0056635e037e"},"vehicle_type_id":"4","last_reported":1758906483,"current_range_meters":14000,"station_id":"ce4bgih2rcd13ifvqba0","pricing_plan_id":"cebpf4jnsgd1na2vs0mg"},{"bike_id":"eb281c4f-a74c-421c-a6aa-552bc2fe547c","system_id":"levelo_inurba_marseille","lat":43.289346,"lon":5.366429,"is_reserved":false,"is_disabled":false,"rental_uris":{"android":"levelo://app?vid=eb281c4f-a74c-421c-a6aa-552bc2fe547c","ios":"levelo://app?vid=eb281c4f-a74c-421c-a6aa-552bc2fe547c"},"vehicle_type_id":"4","last_reported":1758906483,"current_range_meters":14000,"station_id":"ce4bhap2rcd13ifvqek0","pricing_plan_id":"cebpf4jnsgd1na2vs0mg"},{"bike_id":"2c027251-8d59-4973-8993-777e382b379c","system_id":"levelo_inurba_marseille","lat":43.23175,"lon":5.39988,"is_reserved":false,"is_disabled":false,"rental_uris":{"android":"levelo://app?vid=2c027251-8d59-4973-8993-777e382b379c","ios":"levelo://app?vid=2c027251-8d59-4973-8993-777e382b379c"},"vehicle_type_id":"4","last_reported":1758906483,"current_range_meters":14000,"station_id":"ce4bhn12rcd13ifvqgqg","pricing_plan_id":"cebpf4jnsgd1na2vs0mg"},{"bike_id":"4407f0c7-f8f2-44c4-b16c-74d5984e3278","system_id":"levelo_inurba_marseille","lat":43.25573,"lon":5.3823,"is_reserved":false,"is_disabled":true,"rental_uris":{"android":"levelo://app?vid=4407f0c7-f8f2-44c4-b16c-74d5984e3278","ios":"levelo://app?vid=4407f0c7-f8f2-44c4-b16c-74d5984e3278"},"vehicle_type_id":"4","last_reported":1758906483,"current_range_meters":14000,"station_id":"ce4bhih2rcd13ifvqfs0","pricing_plan_id":"cebpf4jnsgd1na2vs0mg"},{"bike_id":"f626f457-0696-4e32-af9e-687030f53c6d","system_id":"levelo_inurba_marseille","lat":43.33764,"lon":5.37474,"is_reserved":false,"is_disabled":false,"rental_uris":{"android":"levelo://app?vid=f626f457-0696-4e32-af9e-687030f53c6d","ios":"levelo://app?vid=f626f457-0696-4e32-af9e-687030f53c6d"},"vehicle_type_id":"4","last_reported":1758906483,"current_range_meters":14000,"station_id":"","pricing_plan_id":"cebpf4jnsgd1na2vs0mg"},{"bike_id":"fee74e98-eb52-4f66-a612-109c75f34aa6","system_id":"levelo_inurba_marseille","lat":43.29629,"lon":5.37959,"is_reserved":false,"is_disabled":false,"rental_uris":{"android":"levelo://app?vid=fee74e98-eb52-4f66-a612-109c75f34aa6","ios":"levelo://app?vid=fee74e98-eb52-4f66-a612-109c75f34aa6"},"vehicle_type_id":"4","last_reported":1758906483,"current_range_meters":14000,"station_id":"","pricing_plan_id":"cebpf4jnsgd1na2vs0mg"},{"bike_id":"d83db798-4585-4d56-9103-401f9923a77e","system_id":"levelo_inurba_marseille","lat":43.30775,"lon":5.37649,"is_reserved":false,"is_disabled":false,"rental_uris":{"android":"levelo://app?vid=d83db798-4585-4d56-9103-401f9923a77e","ios":"levelo://app?vid=d83db798-4585-4d56-9103-401f9923a77e"},"vehicle_type_id":"4","last_reported":1758906483,"current_range_meters":14000,"station_id":"ce4bgv92rcd13ifvqcq0","pricing_plan_id":"cebpf4jnsgd1na2vs0mg"},{"bike_id":"be2872ef-f5d9-4685-b95d-fb503bad1acd","system_id":"levelo_inurba_marseille","lat":43.30151,"lon":5.38095,"is_reserved":false,"is_disabled":true,"rental_uris":{"android":"levelo://app?vid=be2872ef-f5d9-4685-b95d-fb503bad1acd","ios":"levelo://app?vid=be2872ef-f5d9-4685-b95d-fb503bad1acd"},"vehicle_type_id":"4","last_reported":1758906483,"current_range_meters":14000,"station_id":"ce4bgjp2rcd13ifvqbh0","pricing_plan_id":"cebpf4jnsgd1na2vs0mg"},{"bike_id":"fdbe593b-d872-4945-b80c-58b8b60aa37d","system_id":"levelo_inurba_marseille","lat":43.31718,"lon":5.42393,"is_reserved":false,"is_disabled":false,"rental_uris":{"android":"levelo://app?vid=fdbe593b-d872-4945-b80c-58b8b60aa37d","ios":"levelo://app?vid=fdbe593b-d872-4945-b80c-58b8b60aa37d"},"vehicle_type_id":"4","last_reported":1758906483,"current_range_meters":14400,"station_id":"ce4bhp92rcd13ifvqhbg","pricing_plan_id":"cebpf4jnsgd1na2vs0mg"},{"bike_id":"0b01e881-a275-45eb-a15a-645add1561c8","system_id":"levelo_inurba_marseille","lat":43.28604,"lon":5.35116,"is_reserved":false,"is_disabled":false,"rental_uris":{"android":"levelo://app?vid=0b01e881-a275-45eb-a15a-645add1561c8","ios":"levelo://app?vid=0b01e881-a275-45eb-a15a-645add1561c8"},"vehicle_type_id":"4","last_reported":1758906483,"current_range_meters":14400,"station_id":"ce4bhch2rcd13ifvqeug","pricing_plan_id":"cebpf4jnsgd1na2vs0mg"},{"bike_id":"de3747e9-e37c-4cdb-ad1a-9f67e8a91990","system_id":"levelo_inurba_marseille","lat":43.23182,"lon":5.39986,"is_reserved":false,"is_disabled":false,"rental_uris":{"android":"levelo://app?vid=de3747e9-e37c-4cdb-ad1a-9f67e8a91990","ios":"levelo://app?vid=de3747e9-e37c-4cdb-ad1a-9f67e8a91990"},"vehicle_type_id":"4","last_reported":1758906483,"current_range_meters":14400,"station_id":"ce4bhn12rcd13ifvqgqg","pricing_plan_id":"cebpf4jnsgd1na2vs0mg"},{"bike_id":"15230cb7-1ba7-487a-a3c8-fe51d0ec76ad","system_id":"levelo_inurba_marseille","lat":43.29196,"lon":5.35812,"is_reserved":false,"is_disabled":false,"rental_uris":{"android":"levelo://app?vid=15230cb7-1ba7-487a-a3c8-fe51d0ec76ad","ios":"levelo://app?vid=15230cb7-1ba7-487a-a3c8-fe51d0ec76ad"},"vehicle_type_id":"4","last_reported":1758906483,"current_range_meters":14400,"station_id":"ce4bhb12rcd13ifvqel0","pricing_plan_id":"cebpf4jnsgd1na2vs0mg"},{"bike_id":"444e70bd-9170-4f77-b0fd-ff2e4b618a59","system_id":"levelo_inurba_marseille","lat":43.24388,"lon":5.37063,"is_reserved":false,"is_disabled":false,"rental_uris":{"android":"levelo://app?vid=444e70bd-9170-4f77-b0fd-ff2e4b618a59","ios":"levelo://app?vid=444e70bd-9170-4f77-b0fd-ff2e4b618a59"},"vehicle_type_id":"4","last_reported":1758906483,"current_range_meters":14400,"station_id":"ce4bhhh2rcd13ifvqfk0","pricing_plan_id":"cebpf4jnsgd1na2vs0mg"},{"bike_id":"6dacd337-663c-4bb9-9da1-b012fa0d2fa0","system_id":"levelo_inurba_marseille","lat":43.30781,"lon":5.37635,"is_reserved":false,"is_disabled":false,"rental_uris":{"android":"levelo://app?vid=6dacd337-663c-4bb9-9da1-b012fa0d2fa0","ios":"levelo://app?vid=6dacd337-663c-4bb9-9da1-b012fa0d2fa0"},"vehicle_type_id":"4","last_reported":1758906483,"current_range_meters":14400,"station_id":"ce4bgv92rcd13ifvqcq0","pricing_plan_id":"cebpf4jnsgd1na2vs0mg"},{"bike_id":"c91aa95c-ae83-4f8a-bef3-89f188e39bfa","system_id":"levelo_inurba_marseille","lat":43.22557,"lon":5.41654,"is_reserved":false,"is_disabled":false,"rental_uris":{"android":"levelo://app?vid=c91aa95c-ae83-4f8a-bef3-89f188e39bfa","ios":"levelo://app?vid=c91aa95c-ae83-4f8a-bef3-89f188e39bfa"},"vehicle_type_id":"4","last_reported":1758906483,"current_range_meters":14400,"station_id":"st_d2o4gvlbi1j2169b742g","pricing_plan_id":"cebpf4jnsgd1na2vs0mg"},{"bike_id":"6052b6fb-e998-4b61-a341-0704e9ef7ebb","system_id":"levelo_inurba_marseille","lat":43.29163,"lon":5.37155,"is_reserved":false,"is_disabled":false,"rental_uris":{"android":"levelo://app?vid=6052b6fb-e998-4b61-a341-0704e9ef7ebb","ios":"levelo://app?vid=6052b6fb-e998-4b61-a341-0704e9ef7ebb"},"vehicle_type_id":"4","last_reported":1758906483,"current_range_meters":14800,"station_id":"ce4bha92rcd13ifvqeh0","pricing_plan_id":"cebpf4jnsgd1na2vs0mg"},{"bike_id":"8cf842e4-76c1-4a82-ad31-66529da65dba","system_id":"levelo_inurba_marseille","lat":43.26708,"lon":5.40197,"is_reserved":false,"is_disabled":false,"rental_uris":{"android":"levelo://app?vid=8cf842e4-76c1-4a82-ad31-66529da65dba","ios":"levelo://app?vid=8cf842e4-76c1-4a82-ad31-66529da65dba"},"vehicle_type_id":"4","last_reported":1758906483,"current_range_meters":14800,"station_id":"","pricing_plan_id":"cebpf4jnsgd1na2vs0mg"},{"bike_id":"dd19907d-2c1f-4c5c-8d64-ca99b8a77437","system_id":"levelo_inurba_marseille","lat":43.27397,"lon":5.39433,"is_reserved":false,"is_disabled":false,"rental_uris":{"android":"levelo://app?vid=dd19907d-2c1f-4c5c-8d64-ca99b8a77437","ios":"levelo://app?vid=dd19907d-2c1f-4c5c-8d64-ca99b8a77437"},"vehicle_type_id":"4","last_reported":1758906483,"current_range_meters":14800,"station_id":"ce4bhdp2rcd13ifvqf20","pricing_plan_id":"cebpf4jnsgd1na2vs0mg"},{"bike_id":"741fa2be-876d-42eb-90b2-e79e156771de","system_id":"levelo_inurba_marseille","lat":43.28698,"lon":5.39998,"is_reserved":false,"is_disabled":false,"rental_uris":{"android":"levelo://app?vid=741fa2be-876d-42eb-90b2-e79e156771de","ios":"levelo://app?vid=741fa2be-876d-42eb-90b2-e79e156771de"},"vehicle_type_id":"4","last_reported":1758906483,"current_range_meters":14800,"station_id":"ce4bho92rcd13ifvqh3g","pricing_plan_id":"cebpf4jnsgd1na2vs0mg"},{"bike_id":"983d14d6-9f0c-42a3-a56f-b8dbffb21163","system_id":"levelo_inurba_marseille","lat":43.261923,"lon":5.379119,"is_reserved":false,"is_disabled":false,"rental_uris":{"android":"levelo://app?vid=983d14d6-9f0c-42a3-a56f-b8dbffb21163","ios":"levelo://app?vid=983d14d6-9f0c-42a3-a56f-b8dbffb21163"},"vehicle_type_id":"4","last_reported":1758906483,"current_range_meters":14400,"station_id":"ce4bhjp2rcd13ifvqg90","pricing_plan_id":"cebpf4jnsgd1na2vs0mg"},{"bike_id":"70b7ea01-eb7d-4ad4-9d7b-08819c9c9cd3","system_id":"levelo_inurba_marseille","lat":43.25566,"lon":5.38253,"is_reserved":false,"is_disabled":true,"rental_uris":{"android":"levelo://app?vid=70b7ea01-eb7d-4ad4-9d7b-08819c9c9cd3","ios":"levelo://app?vid=70b7ea01-eb7d-4ad4-9d7b-08819c9c9cd3"},"vehicle_type_id":"4","last_reported":1758906483,"current_range_meters":14800,"station_id":"ce4bhih2rcd13ifvqfs0","pricing_plan_id":"cebpf4jnsgd1na2vs0mg"},{"bike_id":"9bb4db31-0bf9-4171-bca1-76cb045f53a3","system_id":"levelo_inurba_marseille","lat":43.26924,"lon":5.389081,"is_reserved":false,"is_disabled":true,"rental_uris":{"android":"levelo://app?vid=9bb4db31-0bf9-4171-bca1-76cb045f53a3","ios":"levelo://app?vid=9bb4db31-0bf9-4171-bca1-76cb045f53a3"},"vehicle_type_id":"4","last_reported":1758906483,"current_range_meters":14800,"station_id":"ce4bhhh2rcd13ifvqfl0","pricing_plan_id":"cebpf4jnsgd1na2vs0mg"},{"bike_id":"d8e98cda-3f15-41a5-9b69-0a1d8b74921d","system_id":"levelo_inurba_marseille","lat":43.29024,"lon":5.38648,"is_reserved":false,"is_disabled":false,"rental_uris":{"android":"levelo://app?vid=d8e98cda-3f15-41a5-9b69-0a1d8b74921d","ios":"levelo://app?vid=d8e98cda-3f15-41a5-9b69-0a1d8b74921d"},"vehicle_type_id":"4","last_reported":1758906483,"current_range_meters":12400,"station_id":"ce4bh4p2rcd13ifvqe0g","pricing_plan_id":"cebpf4jnsgd1na2vs0mg"},{"bike_id":"2a416e7a-1803-402e-9523-74bfe690bd54","system_id":"levelo_inurba_marseille","lat":43.32365,"lon":5.36767,"is_reserved":false,"is_disabled":false,"rental_uris":{"android":"levelo://app?vid=2a416e7a-1803-402e-9523-74bfe690bd54","ios":"levelo://app?vid=2a416e7a-1803-402e-9523-74bfe690bd54"},"vehicle_type_id":"4","last_reported":1758906483,"current_range_meters":14800,"station_id":"ce4bhsh2rcd13ifvqi2g","pricing_plan_id":"cebpf4jnsgd1na2vs0mg"},{"bike_id":"72fb43fa-8e11-4c56-b8ba-eefc88474d61","system_id":"levelo_inurba_marseille","lat":43.2988,"lon":5.38919,"is_reserved":false,"is_disabled":false,"rental_uris":{"android":"levelo://app?vid=72fb43fa-8e11-4c56-b8ba-eefc88474d61","ios":"levelo://app?vid=72fb43fa-8e11-4c56-b8ba-eefc88474d61"},"vehicle_type_id":"4","last_reported":1758906483,"current_range_meters":14400,"station_id":"ce4bh392rcd13ifvqdl0","pricing_plan_id":"cebpf4jnsgd1na2vs0mg"},{"bike_id":"d5502e59-93d5-4688-a084-3c7ac0e1b4b1","system_id":"levelo_inurba_marseille","lat":43.26943,"lon":5.38651,"is_reserved":false,"is_disabled":false,"rental_uris":{"android":"levelo://app?vid=d5502e59-93d5-4688-a084-3c7ac0e1b4b1","ios":"levelo://app?vid=d5502e59-93d5-4688-a084-3c7ac0e1b4b1"},"vehicle_type_id":"4","last_reported":1758906483,"current_range_meters":15200,"station_id":"ce4bhh92rcd13ifvqfh0","pricing_plan_id":"cebpf4jnsgd1na2vs0mg"},{"bike_id":"3652de56-c611-41c6-aa03-7fef6136da9d","system_id":"levelo_inurba_marseille","lat":43.25004,"lon":5.38937,"is_reserved":false,"is_disabled":false,"rental_uris":{"android":"levelo://app?vid=3652de56-c611-41c6-aa03-7fef6136da9d","ios":"levelo://app?vid=3652de56-c611-41c6-aa03-7fef6136da9d"},"vehicle_type_id":"4","last_reported":1758906483,"current_range_meters":15200,"station_id":"ce4bhgp2rcd13ifvqfd0","pricing_plan_id":"cebpf4jnsgd1na2vs0mg"},{"bike_id":"15b8abb9-1b82-439d-bef4-2444276aa7c3","system_id":"levelo_inurba_marseille","lat":43.31069,"lon":5.38345,"is_reserved":false,"is_disabled":true,"rental_uris":{"android":"levelo://app?vid=15b8abb9-1b82-439d-bef4-2444276aa7c3","ios":"levelo://app?vid=15b8abb9-1b82-439d-bef4-2444276aa7c3"},"vehicle_type_id":"4","last_reported":1758906483,"current_range_meters":15200,"station_id":"ce4bgv92rcd13ifvqcr0","pricing_plan_id":"cebpf4jnsgd1na2vs0mg"},{"bike_id":"63d52c35-c9c9-44eb-9780-1b2f9145123b","system_id":"levelo_inurba_marseille","lat":43.29627,"lon":5.377037,"is_reserved":false,"is_disabled":false,"rental_uris":{"android":"levelo://app?vid=63d52c35-c9c9-44eb-9780-1b2f9145123b","ios":"levelo://app?vid=63d52c35-c9c9-44eb-9780-1b2f9145123b"},"vehicle_type_id":"4","last_reported":1758906483,"current_range_meters":15200,"station_id":"","pricing_plan_id":"cebpf4jnsgd1na2vs0mg"},{"bike_id":"85782661-163d-4a8b-b5a4-1f0a766faaa2","system_id":"levelo_inurba_marseille","lat":43.24626,"lon":5.43152,"is_reserved":false,"is_disabled":false,"rental_uris":{"android":"levelo://app?vid=85782661-163d-4a8b-b5a4-1f0a766faaa2","ios":"levelo://app?vid=85782661-163d-4a8b-b5a4-1f0a766faaa2"},"vehicle_type_id":"4","last_reported":1758906483,"current_range_meters":15200,"station_id":"st_d2m6c4gdas8pm72e190g","pricing_plan_id":"cebpf4jnsgd1na2vs0mg"},{"bike_id":"01bf55f2-4ac6-46f6-8504-3267bf31e1a6","system_id":"levelo_inurba_marseille","lat":43.2973,"lon":5.381787,"is_reserved":false,"is_disabled":false,"rental_uris":{"android":"levelo://app?vid=01bf55f2-4ac6-46f6-8504-3267bf31e1a6","ios":"levelo://app?vid=01bf55f2-4ac6-46f6-8504-3267bf31e1a6"},"vehicle_type_id":"4","last_reported":1758906483,"current_range_meters":15200,"station_id":"","pricing_plan_id":"cebpf4jnsgd1na2vs0mg"},{"bike_id":"bdf98283-e040-4f5f-94a3-6c902d369273","system_id":"levelo_inurba_marseille","lat":43.29737,"lon":5.37703,"is_reserved":false,"is_disabled":true,"rental_uris":{"android":"levelo://app?vid=bdf98283-e040-4f5f-94a3-6c902d369273","ios":"levelo://app?vid=bdf98283-e040-4f5f-94a3-6c902d369273"},"vehicle_type_id":"4","last_reported":1758906483,"current_range_meters":15200,"station_id":"ce4bgkh2rcd13ifvqbl0","pricing_plan_id":"cebpf4jnsgd1na2vs0mg"},{"bike_id":"01beb51a-e13a-487f-af71-ab4e8f196c35","system_id":"levelo_inurba_marseille","lat":43.28729,"lon":5.36082,"is_reserved":false,"is_disabled":false,"rental_uris":{"android":"levelo://app?vid=01beb51a-e13a-487f-af71-ab4e8f196c35","ios":"levelo://app?vid=01beb51a-e13a-487f-af71-ab4e8f196c35"},"vehicle_type_id":"4","last_reported":1758906483,"current_range_meters":15200,"station_id":"cki0cbj6b192h4jlfktg","pricing_plan_id":"cebpf4jnsgd1na2vs0mg"},{"bike_id":"c5f176b6-4594-46aa-b07d-b67bed8ed837","system_id":"levelo_inurba_marseille","lat":43.27552,"lon":5.38444,"is_reserved":false,"is_disabled":false,"rental_uris":{"android":"levelo://app?vid=c5f176b6-4594-46aa-b07d-b67bed8ed837","ios":"levelo://app?vid=c5f176b6-4594-46aa-b07d-b67bed8ed837"},"vehicle_type_id":"4","last_reported":1758906483,"current_range_meters":14800,"station_id":"ce4bhh92rcd13ifvqfi0","pricing_plan_id":"cebpf4jnsgd1na2vs0mg"},{"bike_id":"e9965d7f-c60b-4fbd-96cd-93282f8867aa","system_id":"levelo_inurba_marseille","lat":43.2534,"lon":5.42168,"is_reserved":false,"is_disabled":false,"rental_uris":{"android":"levelo://app?vid=e9965d7f-c60b-4fbd-96cd-93282f8867aa","ios":"levelo://app?vid=e9965d7f-c60b-4fbd-96cd-93282f8867aa"},"vehicle_type_id":"4","last_reported":1758906483,"current_range_meters":15200,"station_id":"st_d2m65c5bi1j21697t3ng","pricing_plan_id":"cebpf4jnsgd1na2vs0mg"},{"bike_id":"41fbe864-b9c2-4b8a-a22b-e40ee788b52e","system_id":"levelo_inurba_marseille","lat":43.2507,"lon":5.39528,"is_reserved":false,"is_disabled":false,"rental_uris":{"android":"levelo://app?vid=41fbe864-b9c2-4b8a-a22b-e40ee788b52e","ios":"levelo://app?vid=41fbe864-b9c2-4b8a-a22b-e40ee788b52e"},"vehicle_type_id":"4","last_reported":1758906483,"current_range_meters":15200,"station_id":"ce4bhm12rcd13ifvqgkg","pricing_plan_id":"cebpf4jnsgd1na2vs0mg"},{"bike_id":"6451e7e9-719b-4815-b42d-da504fb6cc61","system_id":"levelo_inurba_marseille","lat":43.32118,"lon":5.36781,"is_reserved":false,"is_disabled":false,"rental_uris":{"android":"levelo://app?vid=6451e7e9-719b-4815-b42d-da504fb6cc61","ios":"levelo://app?vid=6451e7e9-719b-4815-b42d-da504fb6cc61"},"vehicle_type_id":"4","last_reported":1758906483,"current_range_meters":15200,"station_id":"ce4bhrh2rcd13ifvqhug","pricing_plan_id":"cebpf4jnsgd1na2vs0mg"},{"bike_id":"fdde4f57-cf92-4ef8-a1d9-ee9b166fc255","system_id":"levelo_inurba_marseille","lat":43.23179,"lon":5.39986,"is_reserved":false,"is_disabled":false,"rental_uris":{"android":"levelo://app?vid=fdde4f57-cf92-4ef8-a1d9-ee9b166fc255","ios":"levelo://app?vid=fdde4f57-cf92-4ef8-a1d9-ee9b166fc255"},"vehicle_type_id":"4","last_reported":1758906483,"current_range_meters":15200,"station_id":"ce4bhn12rcd13ifvqgqg","pricing_plan_id":"cebpf4jnsgd1na2vs0mg"},{"bike_id":"7d8d1b6e-f17d-4ea2-aead-408fb9ecc07d","system_id":"levelo_inurba_marseille","lat":43.31706,"lon":5.43711,"is_reserved":false,"is_disabled":false,"rental_uris":{"android":"levelo://app?vid=7d8d1b6e-f17d-4ea2-aead-408fb9ecc07d","ios":"levelo://app?vid=7d8d1b6e-f17d-4ea2-aead-408fb9ecc07d"},"vehicle_type_id":"4","last_reported":1758906483,"current_range_meters":16000,"station_id":"ce4bhp92rcd13ifvqhcg","pricing_plan_id":"cebpf4jnsgd1na2vs0mg"},{"bike_id":"89d6914d-f84e-41d0-8250-af47fe8c6e2b","system_id":"levelo_inurba_marseille","lat":43.2783,"lon":5.39209,"is_reserved":false,"is_disabled":false,"rental_uris":{"android":"levelo://app?vid=89d6914d-f84e-41d0-8250-af47fe8c6e2b","ios":"levelo://app?vid=89d6914d-f84e-41d0-8250-af47fe8c6e2b"},"vehicle_type_id":"4","last_reported":1758906483,"current_range_meters":16000,"station_id":"ce4bhjp2rcd13ifvqga0","pricing_plan_id":"cebpf4jnsgd1na2vs0mg"},{"bike_id":"13796cb5-8a68-4a24-aa6d-cc4716dd8f06","system_id":"levelo_inurba_marseille","lat":43.26205,"lon":5.37452,"is_reserved":false,"is_disabled":false,"rental_uris":{"android":"levelo://app?vid=13796cb5-8a68-4a24-aa6d-cc4716dd8f06","ios":"levelo://app?vid=13796cb5-8a68-4a24-aa6d-cc4716dd8f06"},"vehicle_type_id":"4","last_reported":1758906483,"current_range_meters":16000,"station_id":"ce4bhgp2rcd13ifvqfc0","pricing_plan_id":"cebpf4jnsgd1na2vs0mg"},{"bike_id":"b26d0ad2-dc83-49f4-a445-3fdb02e36eaa","system_id":"levelo_inurba_marseille","lat":43.27494,"lon":5.4245,"is_reserved":false,"is_disabled":false,"rental_uris":{"android":"levelo://app?vid=b26d0ad2-dc83-49f4-a445-3fdb02e36eaa","ios":"levelo://app?vid=b26d0ad2-dc83-49f4-a445-3fdb02e36eaa"},"vehicle_type_id":"4","last_reported":1758906483,"current_range_meters":15200,"station_id":"ce4bhn92rcd13ifvqgrg","pricing_plan_id":"cebpf4jnsgd1na2vs0mg"},{"bike_id":"3cca746f-fac4-450b-bb9c-94a2c2908362","system_id":"levelo_inurba_marseille","lat":43.29007,"lon":5.37791,"is_reserved":false,"is_disabled":false,"rental_uris":{"android":"levelo://app?vid=3cca746f-fac4-450b-bb9c-94a2c2908362","ios":"levelo://app?vid=3cca746f-fac4-450b-bb9c-94a2c2908362"},"vehicle_type_id":"4","last_reported":1758906483,"current_range_meters":16000,"station_id":"ce4bh9p2rcd13ifvqed0","pricing_plan_id":"cebpf4jnsgd1na2vs0mg"},{"bike_id":"62529f44-1407-45b5-a57d-0e6b577d523f","system_id":"levelo_inurba_marseille","lat":43.31711,"lon":5.42406,"is_reserved":false,"is_disabled":true,"rental_uris":{"android":"levelo://app?vid=62529f44-1407-45b5-a57d-0e6b577d523f","ios":"levelo://app?vid=62529f44-1407-45b5-a57d-0e6b577d523f"},"vehicle_type_id":"4","last_reported":1758906483,"current_range_meters":16000,"station_id":"ce4bhp92rcd13ifvqhbg","pricing_plan_id":"cebpf4jnsgd1na2vs0mg"},{"bike_id":"7d55416f-dcf1-4698-bd03-e9a6cded4277","system_id":"levelo_inurba_marseille","lat":43.3243,"lon":5.36799,"is_reserved":false,"is_disabled":false,"rental_uris":{"android":"levelo://app?vid=7d55416f-dcf1-4698-bd03-e9a6cded4277","ios":"levelo://app?vid=7d55416f-dcf1-4698-bd03-e9a6cded4277"},"vehicle_type_id":"4","last_reported":1758906483,"current_range_meters":16000,"station_id":"","pricing_plan_id":"cebpf4jnsgd1na2vs0mg"},{"bike_id":"f9c65942-181b-4f8a-b983-b18d8cb01494","system_id":"levelo_inurba_marseille","lat":43.26679,"lon":5.38275,"is_reserved":false,"is_disabled":false,"rental_uris":{"android":"levelo://app?vid=f9c65942-181b-4f8a-b983-b18d8cb01494","ios":"levelo://app?vid=f9c65942-181b-4f8a-b983-b18d8cb01494"},"vehicle_type_id":"4","last_reported":1758906483,"current_range_meters":16000,"station_id":"ce4bhg92rcd13ifvqf90","pricing_plan_id":"cebpf4jnsgd1na2vs0mg"},{"bike_id":"d797771b-18c2-46d0-8f08-8f540e16b982","system_id":"levelo_inurba_marseille","lat":43.24399,"lon":5.37052,"is_reserved":false,"is_disabled":false,"rental_uris":{"android":"levelo://app?vid=d797771b-18c2-46d0-8f08-8f540e16b982","ios":"levelo://app?vid=d797771b-18c2-46d0-8f08-8f540e16b982"},"vehicle_type_id":"4","last_reported":1758906483,"current_range_meters":16000,"station_id":"ce4bhhh2rcd13ifvqfk0","pricing_plan_id":"cebpf4jnsgd1na2vs0mg"},{"bike_id":"3181866a-1952-49fb-b4ea-2e21fdf4bb0b","system_id":"levelo_inurba_marseille","lat":43.29305,"lon":5.37147,"is_reserved":false,"is_disabled":false,"rental_uris":{"android":"levelo://app?vid=3181866a-1952-49fb-b4ea-2e21fdf4bb0b","ios":"levelo://app?vid=3181866a-1952-49fb-b4ea-2e21fdf4bb0b"},"vehicle_type_id":"4","last_reported":1758906483,"current_range_meters":16000,"station_id":"ce4bgh92rcd13ifvqb40","pricing_plan_id":"cebpf4jnsgd1na2vs0mg"},{"bike_id":"ac894387-043b-42ef-96f2-3f279963ad27","system_id":"levelo_inurba_marseille","lat":43.25085,"lon":5.39523,"is_reserved":false,"is_disabled":false,"rental_uris":{"android":"levelo://app?vid=ac894387-043b-42ef-96f2-3f279963ad27","ios":"levelo://app?vid=ac894387-043b-42ef-96f2-3f279963ad27"},"vehicle_type_id":"4","last_reported":1758906483,"current_range_meters":16000,"station_id":"ce4bhm12rcd13ifvqgkg","pricing_plan_id":"cebpf4jnsgd1na2vs0mg"},{"bike_id":"ec348589-ff91-45a4-84f8-96a0dc2abb69","system_id":"levelo_inurba_marseille","lat":43.32724,"lon":5.39267,"is_reserved":false,"is_disabled":false,"rental_uris":{"android":"levelo://app?vid=ec348589-ff91-45a4-84f8-96a0dc2abb69","ios":"levelo://app?vid=ec348589-ff91-45a4-84f8-96a0dc2abb69"},"vehicle_type_id":"4","last_reported":1758906483,"current_range_meters":16000,"station_id":"","pricing_plan_id":"cebpf4jnsgd1na2vs0mg"},{"bike_id":"ba7332e3-be62-467a-b886-1e18aa22759d","system_id":"levelo_inurba_marseille","lat":43.29277,"lon":5.40123,"is_reserved":false,"is_disabled":false,"rental_uris":{"android":"levelo://app?vid=ba7332e3-be62-467a-b886-1e18aa22759d","ios":"levelo://app?vid=ba7332e3-be62-467a-b886-1e18aa22759d"},"vehicle_type_id":"4","last_reported":1758906483,"current_range_meters":16000,"station_id":"ce4bh312rcd13ifvqdk0","pricing_plan_id":"cebpf4jnsgd1na2vs0mg"},{"bike_id":"934ea1ec-b7f6-49a1-9efa-287317d4eb22","system_id":"levelo_inurba_marseille","lat":43.29048,"lon":5.35914,"is_reserved":false,"is_disabled":false,"rental_uris":{"android":"levelo://app?vid=934ea1ec-b7f6-49a1-9efa-287317d4eb22","ios":"levelo://app?vid=934ea1ec-b7f6-49a1-9efa-287317d4eb22"},"vehicle_type_id":"4","last_reported":1758906483,"current_range_meters":16400,"station_id":"","pricing_plan_id":"cebpf4jnsgd1na2vs0mg"},{"bike_id":"a6187c30-1c11-4309-be70-335b3ca8c646","system_id":"levelo_inurba_marseille","lat":43.2119,"lon":5.35085,"is_reserved":false,"is_disabled":false,"rental_uris":{"android":"levelo://app?vid=a6187c30-1c11-4309-be70-335b3ca8c646","ios":"levelo://app?vid=a6187c30-1c11-4309-be70-335b3ca8c646"},"vehicle_type_id":"4","last_reported":1758906483,"current_range_meters":16400,"station_id":"","pricing_plan_id":"cebpf4jnsgd1na2vs0mg"},{"bike_id":"83c24ba8-e5e4-4dcf-945a-5a9ee254e274","system_id":"levelo_inurba_marseille","lat":43.27076,"lon":5.42283,"is_reserved":false,"is_disabled":false,"rental_uris":{"android":"levelo://app?vid=83c24ba8-e5e4-4dcf-945a-5a9ee254e274","ios":"levelo://app?vid=83c24ba8-e5e4-4dcf-945a-5a9ee254e274"},"vehicle_type_id":"4","last_reported":1758906483,"current_range_meters":16400,"station_id":"ce4bhk92rcd13ifvqgb0","pricing_plan_id":"cebpf4jnsgd1na2vs0mg"},{"bike_id":"59d1ef66-928a-42ea-809a-869ac3d6f273","system_id":"levelo_inurba_marseille","lat":43.29549,"lon":5.3753,"is_reserved":false,"is_disabled":false,"rental_uris":{"android":"levelo://app?vid=59d1ef66-928a-42ea-809a-869ac3d6f273","ios":"levelo://app?vid=59d1ef66-928a-42ea-809a-869ac3d6f273"},"vehicle_type_id":"4","last_reported":1758906483,"current_range_meters":16400,"station_id":"ce4bgh92rcd13ifvqb50","pricing_plan_id":"cebpf4jnsgd1na2vs0mg"},{"bike_id":"6e45500f-0918-4d5c-9e69-8146e3a26a1a","system_id":"levelo_inurba_marseille","lat":43.26791,"lon":5.39415,"is_reserved":false,"is_disabled":false,"rental_uris":{"android":"levelo://app?vid=6e45500f-0918-4d5c-9e69-8146e3a26a1a","ios":"levelo://app?vid=6e45500f-0918-4d5c-9e69-8146e3a26a1a"},"vehicle_type_id":"4","last_reported":1758906483,"current_range_meters":16400,"station_id":"ce4bhh12rcd13ifvqfg0","pricing_plan_id":"cebpf4jnsgd1na2vs0mg"},{"bike_id":"fd1364a5-ff73-488a-b72e-592513140002","system_id":"levelo_inurba_marseille","lat":43.25067,"lon":5.39526,"is_reserved":false,"is_disabled":false,"rental_uris":{"android":"levelo://app?vid=fd1364a5-ff73-488a-b72e-592513140002","ios":"levelo://app?vid=fd1364a5-ff73-488a-b72e-592513140002"},"vehicle_type_id":"4","last_reported":1758906483,"current_range_meters":16400,"station_id":"ce4bhm12rcd13ifvqgkg","pricing_plan_id":"cebpf4jnsgd1na2vs0mg"},