{"last_updated":1751735300,"ttl":60,"version":"2.2","data":{"bikes":[{"bike_id":"3da29fb8-fc97-44c6-b9ac-31dd456b2fd4","system_id":"levelo_inurba_marseille","lat":43.33771,"lon":5.37424,"is_reserved":false,"is_disabled":true,"rental_uris":{"android":"levelo://app?vid=3da29fb8-fc97-44c6-b9ac-31dd456b2fd4","ios":"levelo://app?vid=3da29fb8-fc97-44c6-b9ac-31dd456b2fd4"},"vehicle_type_id":"4","last_reported":1751735300,"current_range_meters":0,"station_id":"","pricing_plan_id":"cebpf4jnsgd1na2vs0mg"},{"bike_id":"01861ad8-a8d7-4be6-816e-651927c87584","system_id":"levelo_inurba_marseille","lat":43.33751,"lon":5.37456,"is_reserved":false,"is_disabled":true,"rental_uris":{"android":"levelo://app?vid=01861ad8-a8d7-4be6-816e-651927c87584","ios":"levelo://app?vid=01861ad8-a8d7-4be6-816e-651927c87584"},"vehicle_type_id":"4","last_reported":1751735300,"current_range_meters":0,"station_id":"","pricing_plan_id":"cebpf4jnsgd1na2vs0mg"},{"bike_id":"374dc5fc-aac8-4da9-98b1-98e70c32d600","system_id":"levelo_inurba_marseille","lat":43.28208,"lon":5.34931,"is_reserved":false,"is_disabled":true,"rental_uris":{"android":"levelo://app?vid=374dc5fc-aac8-4da9-98b1-98e70c32d600","ios":"levelo://app?vid=374dc5fc-aac8-4da9-98b1-98e70c32d600"},"vehicle_type_id":"4","last_reported":1751735300,"current_range_meters":0,"station_id":"","pricing_plan_id":"cebpf4jnsgd1na2vs0mg"},{"bike_id":"f70f4eac-3f58-4e34-b450-f4227420bc3d","system_id":"levelo_inurba_marseille","lat":43.30529,"lon":5.39171,"is_reserved":false,"is_disabled":true,"rental_uris":{"android":"levelo://app?vid=f70f4eac-3f58-4e34-b450-f4227420bc3d","ios":"levelo://app?vid=f70f4eac-3f58-4e34-b450-f4227420bc3d"},"vehicle_type_id":"4","last_reported":1751735300,"current_range_meters":0,"station_id":"","pricing_plan_id":"cebpf4jnsgd1na2vs0mg"},{"bike_id":"9cf9a367-2367-434b-a40c-d11404a5ae25","system_id":"levelo_inurba_marseille","lat":43.3149,"lon":5.3729,"is_reserved":false,"is_disabled":true,"rental_uris":{"android":"levelo://app?vid=9cf9a367-2367-434b-a40c-d11404a5ae25","ios":"levelo://app?vid=9cf9a367-2367-434b-a40c-d11404a5ae25"},"vehicle_type_id":"4","last_reported":1751735300,"current_range_meters":0,"station_id":"ce4bgt12rcd13ifvqcd0","pricing_plan_id":"cebpf4jnsgd1na2vs0mg"},{"bike_id":"ecdf00ec-0568-4ab4-9dac-ced31dd64be2","system_id":"levelo_inurba_marseille","lat":43.28949,"lon":5.39639,"is_reserved":false,"is_disabled":true,"rental_uris":{"android":"levelo://app?vid=ecdf00ec-0568-4ab4-9dac-ced31dd64be2","ios":"levelo://app?vid=ecdf00ec-0568-4ab4-9dac-ced31dd64be2"},"vehicle_type_id":"4","last_reported":1751735300,"current_range_meters":0,"station_id":"ce4bh3h2rcd13ifvqdn0","pricing_plan_id":"cebpf4jnsgd1na2vs0mg"},{"bike_id":"40edf1d3-5c94-489b-9884-e57e951e7cdf","system_id":"levelo_inurba_marseille","lat":43.28677,"lon":5.38663,"is_reserved":false,"is_disabled":true,"rental_uris":{"android":"levelo://app?vid=40edf1d3-5c94-489b-9884-e57e951e7cdf","ios":"levelo://app?vid=40edf1d3-5c94-489b-9884-e57e951e7cdf"},"vehicle_type_id":"4","last_reported":1751735300,"current_range_meters":0,"station_id":"ce4bh492rcd13ifvqdug","pricing_plan_id":"cebpf4jnsgd1na2vs0mg"},{"bike_id":"b4fb5a4b-563c-4051-a245-6c24e4494ea8","system_id":"levelo_inurba_marseille","lat":43.2919,"lon":5.35807,"is_reserved":false,"is_disabled":true,"rental_uris":{"android":"levelo://app?vid=b4fb5a4b-563c-4051-a245-6c24e4494ea8","ios":"levelo://app?vid=b4fb5a4b-563c-4051-a245-6c24e4494ea8"},"vehicle_type_id":"4","last_reported":1751735300,"current_range_meters":0,"station_id":"ce4bhb12rcd13ifvqel0","pricing_plan_id":"cebpf4jnsgd1na2vs0mg"},{"bike_id":"ac91fe53-4dbe-4227-95e0-a089acde74b6","system_id":"levelo_inurba_marseille","lat":43.2842,"lon":5.3498,"is_reserved":false,"is_disabled":true,"rental_uris":{"android":"levelo://app?vid=ac91fe53-4dbe-4227-95e0-a089acde74b6","ios":"levelo://app?vid=ac91fe53-4dbe-4227-95e0-a089acde74b6"},"vehicle_type_id":"4","last_reported":1751735300,"current_range_meters":0,"station_id":"ce4bhbh2rcd13ifvqepg","pricing_plan_id":"cebpf4jnsgd1na2vs0mg"},{"bike_id":"c3cfe106-2802-4e67-ab12-cb3aeab65e24","system_id":"levelo_inurba_marseille","lat":43.27221,"lon":5.39223,"is_reserved":false,"is_disabled":true,"rental_uris":{"android":"levelo://app?vid=c3cfe106-2802-4e67-ab12-cb3aeab65e24","ios":"levelo://app?vid=c3cfe106-2802-4e67-ab12-cb3aeab65e24"},"vehicle_type_id":"4","last_reported":1751735300,"current_range_meters":0,"station_id":"ce4bhhp2rcd13ifvqfm0","pricing_plan_id":"cebpf4jnsgd1na2vs0mg"},{"bike_id":"6297f5c8-b136-4085-b0a0-42d6f89aa798","system_id":"levelo_inurba_marseille","lat":43.27682,"lon":5.38872,"is_reserved":false,"is_disabled":true,"rental_uris":{"android":"levelo://app?vid=6297f5c8-b136-4085-b0a0-42d6f89aa798","ios":"levelo://app?vid=6297f5c8-b136-4085-b0a0-42d6f89aa798"},"vehicle_type_id":"4","last_reported":1751735300,"current_range_meters":0,"station_id":"ce4bhi12rcd13ifvqfo0","pricing_plan_id":"cebpf4jnsgd1na2vs0mg"},{"bike_id":"8cbba3b6-0cf0-42a1-9ca8-c0ebec5b57bd","system_id":"levelo_inurba_marseille","lat":43.24175,"lon":5.39732,"is_reserved":false,"is_disabled":true,"rental_uris":{"android":"levelo://app?vid=8cbba3b6-0cf0-42a1-9ca8-c0ebec5b57bd","ios":"levelo://app?vid=8cbba3b6-0cf0-42a1-9ca8-c0ebec5b57bd"},"vehicle_type_id":"4","last_reported":1751735300,"current_range_meters":0,"station_id":"ce4bhn12rcd13ifvqgpg","pricing_plan_id":"cebpf4jnsgd1na2vs0mg"},{"bike_id":"f09be592-c507-4cfa-9ee2-67480c753dcd","system_id":"levelo_inurba_marseille","lat":43.27494,"lon":5.42454,"is_reserved":false,"is_disabled":true,"rental_uris":{"android":"levelo://app?vid=f09be592-c507-4cfa-9ee2-67480c753dcd","ios":"levelo://app?vid=f09be592-c507-4cfa-9ee2-67480c753dcd"},"vehicle_type_id":"4","last_reported":1751735300,"current_range_meters":0,"station_id":"ce4bhn92rcd13ifvqgrg","pricing_plan_id":"cebpf4jnsgd1na2vs0mg"},{"bike_id":"14ae4c9b-3ca1-4f53-9a80-6eae3726ac85","system_id":"levelo_inurba_marseille","lat":43.28153,"lon":5.42651,"is_reserved":false,"is_disabled":true,"rental_uris":{"android":"levelo://app?vid=14ae4c9b-3ca1-4f53-9a80-6eae3726ac85","ios":"levelo://app?vid=14ae4c9b-3ca1-4f53-9a80-6eae3726ac85"},"vehicle_type_id":"4","last_reported":1751735300,"current_range_meters":0,"station_id":"ce4bhnh2rcd13ifvqgug","pricing_plan_id":"cebpf4jnsgd1na2vs0mg"},{"bike_id":"7d42ffde-370a-4cd3-b92e-ca46b773c821","system_id":"levelo_inurba_marseille","lat":43.29598,"lon":5.37759,"is_reserved":false,"is_disabled":true,"rental_uris":{"android":"levelo://app?vid=7d42ffde-370a-4cd3-b92e-ca46b773c821","ios":"levelo://app?vid=7d42ffde-370a-4cd3-b92e-ca46b773c821"},"vehicle_type_id":"4","last_reported":1751735300,"current_range_meters":400,"station_id":"","pricing_plan_id":"cebpf4jnsgd1na2vs0mg"},{"bike_id":"f72c9982-4f61-4aa3-867e-a5a1a95d7734","system_id":"levelo_inurba_marseille","lat":43.30217,"lon":5.39469,"is_reserved":false,"is_disabled":true,"rental_uris":{"android":"levelo://app?vid=f72c9982-4f61-4aa3-867e-a5a1a95d7734","ios":"levelo://app?vid=f72c9982-4f61-4aa3-867e-a5a1a95d7734"},"vehicle_type_id":"4","last_reported":1751735300,"current_range_meters":400,"station_id":"ce4bh0p2rcd13ifvqd70","pricing_plan_id":"cebpf4jnsgd1na2vs0mg"},{"bike_id":"7f75be18-8e87-4479-be44-0e91afdfcfbd","system_id":"levelo_inurba_marseille","lat":43.29009,"lon":5.35616,"is_reserved":false,"is_disabled":true,"rental_uris":{"android":"levelo://app?vid=7f75be18-8e87-4479-be44-0e91afdfcfbd","ios":"levelo://app?vid=7f75be18-8e87-4479-be44-0e91afdfcfbd"},"vehicle_type_id":"4","last_reported":1751735300,"current_range_meters":400,"station_id":"ce4bhb92rcd13ifvqen0","pricing_plan_id":"cebpf4jnsgd1na2vs0mg"},{"bike_id":"0c49a7d6-f9db-4a6c-978f-71d3ca86d4a3","system_id":"levelo_inurba_marseille","lat":43.22507,"lon":5.34801,"is_reserved":false,"is_disabled":true,"rental_uris":{"android":"levelo://app?vid=0c49a7d6-f9db-4a6c-978f-71d3ca86d4a3","ios":"levelo://app?vid=0c49a7d6-f9db-4a6c-978f-71d3ca86d4a3"},"vehicle_type_id":"4","last_reported":1751735300,"current_range_meters":400,"station_id":"st_cvj5dfep6f1abm77gieg","pricing_plan_id":"cebpf4jnsgd1na2vs0mg"},{"bike_id":"e26ba497-efc7-4420-b8c5-9fa5e27f2ce4","system_id":"levelo_inurba_marseille","lat":43.313799,"lon":5.370671,"is_reserved":false,"is_disabled":true,"rental_uris":{"android":"levelo://app?vid=e26ba497-efc7-4420-b8c5-9fa5e27f2ce4","ios":"levelo://app?vid=e26ba497-efc7-4420-b8c5-9fa5e27f2ce4"},"vehicle_type_id":"4","last_reported":1751735300,"current_range_meters":800,"station_id":"","pricing_plan_id":"cebpf4jnsgd1na2vs0mg"},{"bike_id":"dba62655-3225-4a05-a495-6a1b1f72b205","system_id":"levelo_inurba_marseille","lat":43.2987,"lon":5.39729,"is_reserved":false,"is_disabled":true,"rental_uris":{"android":"levelo://app?vid=dba62655-3225-4a05-a495-6a1b1f72b205","ios":"levelo://app?vid=dba62655-3225-4a05-a495-6a1b1f72b205"},"vehicle_type_id":"4","last_reported":1751735300,"current_range_meters":800,"station_id":"ce4bh0h2rcd13ifvqd50","pricing_plan_id":"cebpf4jnsgd1na2vs0mg"},{"bike_id":"58b1ad31-8d3f-4ed0-9032-b121d79ef071","system_id":"levelo_inurba_marseille","lat":43.28486,"lon":5.38552,"is_reserved":false,"is_disabled":true,"rental_uris":{"android":"levelo://app?vid=58b1ad31-8d3f-4ed0-9032-b121d79ef071","ios":"levelo://app?vid=58b1ad31-8d3f-4ed0-9032-b121d79ef071"},"vehicle_type_id":"4","last_reported":1751735300,"current_range_meters":800,"station_id":"ce4bh8p2rcd13ifvqeb0","pricing_plan_id":"cebpf4jnsgd1na2vs0mg"},{"bike_id":"60abe387-d356-454c-91f4-92dc541e66be","system_id":"levelo_inurba_marseille","lat":43.32367,"lon":5.38886,"is_reserved":false,"is_disabled":true,"rental_uris":{"android":"levelo://app?vid=60abe387-d356-454c-91f4-92dc541e66be","ios":"levelo://app?vid=60abe387-d356-454c-91f4-92dc541e66be"},"vehicle_type_id":"4","last_reported":1751735300,"current_range_meters":800,"station_id":"ce4bhqp2rcd13ifvqhog","pricing_plan_id":"cebpf4jnsgd1na2vs0mg"},{"bike_id":"7d700fe5-59ec-4d47-b8c2-c85d7cc322a5","system_id":"levelo_inurba_marseille","lat":43.2852,"lon":5.37797,"is_reserved":false,"is_disabled":true,"rental_uris":{"android":"levelo://app?vid=7d700fe5-59ec-4d47-b8c2-c85d7cc322a5","ios":"levelo://app?vid=7d700fe5-59ec-4d47-b8c2-c85d7cc322a5"},"vehicle_type_id":"4","last_reported":1751735300,"current_range_meters":1200,"station_id":"","pricing_plan_id":"cebpf4jnsgd1na2vs0mg"},{"bike_id":"73c86613-cdbc-4589-9e4e-844449798f03","system_id":"levelo_inurba_marseille","lat":43.29779,"lon":5.37116,"is_reserved":false,"is_disabled":true,"rental_uris":{"android":"levelo://app?vid=73c86613-cdbc-4589-9e4e-844449798f03","ios":"levelo://app?vid=73c86613-cdbc-4589-9e4e-844449798f03"},"vehicle_type_id":"4","last_reported":1751735300,"current_range_meters":1200,"station_id":"ce4bgop2rcd13ifvqc1g","pricing_plan_id":"cebpf4jnsgd1na2vs0mg"},{"bike_id":"4d91a666-cd90-4382-abdd-c157d8b87cd4","system_id":"levelo_inurba_marseille","lat":43.302979,"lon":5.392029,"is_reserved":false,"is_disabled":true,"rental_uris":{"android":"levelo://app?vid=4d91a666-cd90-4382-abdd-c157d8b87cd4","ios":"levelo://app?vid=4d91a666-cd90-4382-abdd-c157d8b87cd4"},"vehicle_type_id":"4","last_reported":1751735300,"current_range_meters":1600,"station_id":"","pricing_plan_id":"cebpf4jnsgd1na2vs0mg"},{"bike_id":"3802593f-b206-4eea-8896-4424139d9ea3","system_id":"levelo_inurba_marseille","lat":43.283966,"lon":5.349844,"is_reserved":false,"is_disabled":true,"rental_uris":{"android":"levelo://app?vid=3802593f-b206-4eea-8896-4424139d9ea3","ios":"levelo://app?vid=3802593f-b206-4eea-8896-4424139d9ea3"},"vehicle_type_id":"4","last_reported":1751735300,"current_range_meters":1600,"station_id":"ce4bh692rcd13ifvqea0","pricing_plan_id":"cebpf4jnsgd1na2vs0mg"},{"bike_id":"7293903b-5ff9-48d9-8c18-b1fa5c6a8e8f","system_id":"levelo_inurba_marseille","lat":43.27911,"lon":5.39581,"is_reserved":false,"is_disabled":true,"rental_uris":{"android":"levelo://app?vid=7293903b-5ff9-48d9-8c18-b1fa5c6a8e8f","ios":"levelo://app?vid=7293903b-5ff9-48d9-8c18-b1fa5c6a8e8f"},"vehicle_type_id":"4","last_reported":1751735300,"current_range_meters":1600,"station_id":"ce4bhf92rcd13ifvqf40","pricing_plan_id":"cebpf4jnsgd1na2vs0mg"},{"bike_id":"9bfc7d3d-4e60-4f8a-9c32-ef3d0e77ec5b","system_id":"levelo_inurba_marseille","lat":43.21199,"lon":5.35065,"is_reserved":false,"is_disabled":true,"rental_uris":{"android":"levelo://app?vid=9bfc7d3d-4e60-4f8a-9c32-ef3d0e77ec5b","ios":"levelo://app?vid=9bfc7d3d-4e60-4f8a-9c32-ef3d0e77ec5b"},"vehicle_type_id":"4","last_reported":1751735300,"current_range_meters":1600,"station_id":"st_cvj6sg6p6f1abm77japg","pricing_plan_id":"cebpf4jnsgd1na2vs0mg"},{"bike_id":"5489b5bf-d34e-4f79-ab3f-5d179d52cbcd","system_id":"levelo_inurba_marseille","lat":43.2738,"lon":5.36271,"is_reserved":false,"is_disabled":true,"rental_uris":{"android":"levelo://app?vid=5489b5bf-d34e-4f79-ab3f-5d179d52cbcd","ios":"levelo://app?vid=5489b5bf-d34e-4f79-ab3f-5d179d52cbcd"},"vehicle_type_id":"4","last_reported":1751735300,"current_range_meters":2000,"station_id":"ce4bhbh2rcd13ifvqeo0","pricing_plan_id":"cebpf4jnsgd1na2vs0mg"},{"bike_id":"c26e5f0a-59df-418f-8cc1-ebf39504c49f","system_id":"levelo_inurba_marseille","lat":43.289445,"lon":5.363948,"is_reserved":false,"is_disabled":true,"rental_uris":{"android":"levelo://app?vid=c26e5f0a-59df-418f-8cc1-ebf39504c49f","ios":"levelo://app?vid=c26e5f0a-59df-418f-8cc1-ebf39504c49f"},"vehicle_type_id":"4","last_reported":1751735300,"current_range_meters":2000,"station_id":"ce4bhc92rcd13ifvqetg","pricing_plan_id":"cebpf4jnsgd1na2vs0mg"},{"bike_id":"be4e2ba2-f83c-4be6-923a-932d435bb5ce","system_id":"levelo_inurba_marseille","lat":43.28232,"lon":5.40445,"is_reserved":false,"is_disabled":false,"rental_uris":{"android":"levelo://app?vid=be4e2ba2-f83c-4be6-923a-932d435bb5ce","ios":"levelo://app?vid=be4e2ba2-f83c-4be6-923a-932d435bb5ce"},"vehicle_type_id":"4","last_reported":1751735300,"current_range_meters":2800,"station_id":"","pricing_plan_id":"cebpf4jnsgd1na2vs0mg"},{"bike_id":"937e997a-be62-4fdf-8914-beabf9863c81","system_id":"levelo_inurba_marseille","lat":43.2668,"lon":5.38267,"is_reserved":false,"is_disabled":false,"rental_uris":{"android":"levelo://app?vid=937e997a-be62-4fdf-8914-beabf9863c81","ios":"levelo://app?vid=937e997a-be62-4fdf-8914-beabf9863c81"},"vehicle_type_id":"4","last_reported":1751735300,"current_range_meters":3200,"station_id":"ce4bhg92rcd13ifvqf90","pricing_plan_id":"cebpf4jnsgd1na2vs0mg"},{"bike_id":"070c8116-c05a-4b93-afdf-fd444d1ec5d5","system_id":"levelo_inurba_marseille","lat":43.271898,"lon":5.410022,"is_reserved":false,"is_disabled":false,"rental_uris":{"android":"levelo://app?vid=070c8116-c05a-4b93-afdf-fd444d1ec5d5","ios":"levelo://app?vid=070c8116-c05a-4b93-afdf-fd444d1ec5d5"},"vehicle_type_id":"4","last_reported":1751735300,"current_range_meters":3200,"station_id":"ce4bhl12rcd13ifvqgf0","pricing_plan_id":"cebpf4jnsgd1na2vs0mg"},{"bike_id":"f6ac2ca1-a3ac-4f58-b1a1-b74be8a76990","system_id":"levelo_inurba_marseille","lat":43.299032,"lon":5.436644,"is_reserved":false,"is_disabled":false,"rental_uris":{"android":"levelo://app?vid=f6ac2ca1-a3ac-4f58-b1a1-b74be8a76990","ios":"levelo://app?vid=f6ac2ca1-a3ac-4f58-b1a1-b74be8a76990"},"vehicle_type_id":"4","last_reported":1751735300,"current_range_meters":3200,"station_id":"ce4bhpp2rcd13ifvqhfg","pricing_plan_id":"cebpf4jnsgd1na2vs0mg"},{"bike_id":"e02e6b9e-5180-4e7e-b76a-9f36b618f3a7","system_id":"levelo_inurba_marseille","lat":43.29968,"lon":5.38487,"is_reserved":false,"is_disabled":false,"rental_uris":{"android":"levelo://app?vid=e02e6b9e-5180-4e7e-b76a-9f36b618f3a7","ios":"levelo://app?vid=e02e6b9e-5180-4e7e-b76a-9f36b618f3a7"},"vehicle_type_id":"4","last_reported":1751735300,"current_range_meters":3600,"station_id":"ce4bgj92rcd13ifvqbd0","pricing_plan_id":"cebpf4jnsgd1na2vs0mg"},{"bike_id":"26e75a44-06d9-4559-8f8f-4f1edfae4595","system_id":"levelo_inurba_marseille","lat":43.3089,"lon":5.3964,"is_reserved":false,"is_disabled":false,"rental_uris":{"android":"levelo://app?vid=26e75a44-06d9-4559-8f8f-4f1edfae4595","ios":"levelo://app?vid=26e75a44-06d9-4559-8f8f-4f1edfae4595"},"vehicle_type_id":"4","last_reported":1751735300,"current_range_meters":3600,"station_id":"ce4bh012rcd13ifvqcv0","pricing_plan_id":"cebpf4jnsgd1na2vs0mg"},{"bike_id":"34062e24-46d3-45ac-a539-964d5a241d7a","system_id":"levelo_inurba_marseille","lat":43.290679,"lon":5.356289,"is_reserved":false,"is_disabled":false,"rental_uris":{"android":"levelo://app?vid=34062e24-46d3-45ac-a539-964d5a241d7a","ios":"levelo://app?vid=34062e24-46d3-45ac-a539-964d5a241d7a"},"vehicle_type_id":"4","last_reported":1751735300,"current_range_meters":3600,"station_id":"ce4bhb92rcd13ifvqen0","pricing_plan_id":"cebpf4jnsgd1na2vs0mg"},{"bike_id":"bd8a4a34-e456-4643-97cf-f1bc97f0bd5e","system_id":"levelo_inurba_marseille","lat":43.27376,"lon":5.362396,"is_reserved":false,"is_disabled":false,"rental_uris":{"android":"levelo://app?vid=bd8a4a34-e456-4643-97cf-f1bc97f0bd5e","ios":"levelo://app?vid=bd8a4a34-e456-4643-97cf-f1bc97f0bd5e"},"vehicle_type_id":"4","last_reported":1751735300,"current_range_meters":3600,"station_id":"ce4bhbh2rcd13ifvqeo0","pricing_plan_id":"cebpf4jnsgd1na2vs0mg"},{"bike_id":"d1444e94-489f-4fa9-9e06-4bdf6ba47149","system_id":"levelo_inurba_marseille","lat":43.22516,"lon":5.34785,"is_reserved":false,"is_disabled":false,"rental_uris":{"android":"levelo://app?vid=d1444e94-489f-4fa9-9e06-4bdf6ba47149","ios":"levelo://app?vid=d1444e94-489f-4fa9-9e06-4bdf6ba47149"},"vehicle_type_id":"4","last_reported":1751735300,"current_range_meters":3600,"station_id":"st_cvj5dfep6f1abm77gieg","pricing_plan_id":"cebpf4jnsgd1na2vs0mg"},{"bike_id":"70218286-22dc-46fb-bbee-784d274e5418","system_id":"levelo_inurba_marseille","lat":43.29534,"lon":5.38537,"is_reserved":false,"is_disabled":false,"rental_uris":{"android":"levelo://app?vid=70218286-22dc-46fb-bbee-784d274e5418","ios":"levelo://app?vid=70218286-22dc-46fb-bbee-784d274e5418"},"vehicle_type_id":"4","last_reported":1751735300,"current_range_meters":4400,"station_id":"ce4bgih2rcd13ifvqba0","pricing_plan_id":"cebpf4jnsgd1na2vs0mg"},{"bike_id":"ce9a6b88-00b3-44c1-89d8-903e71ada96d","system_id":"levelo_inurba_marseille","lat":43.30888,"lon":5.39651,"is_reserved":false,"is_disabled":false,"rental_uris":{"android":"levelo://app?vid=ce9a6b88-00b3-44c1-89d8-903e71ada96d","ios":"levelo://app?vid=ce9a6b88-00b3-44c1-89d8-903e71ada96d"},"vehicle_type_id":"4","last_reported":1751735300,"current_range_meters":4400,"station_id":"ce4bh012rcd13ifvqcv0","pricing_plan_id":"cebpf4jnsgd1na2vs0mg"},{"bike_id":"0b344e49-619f-44bc-852e-298378c335e4","system_id":"levelo_inurba_marseille","lat":43.29634,"lon":5.40591,"is_reserved":false,"is_disabled":false,"rental_uris":{"android":"levelo://app?vid=0b344e49-619f-44bc-852e-298378c335e4","ios":"levelo://app?vid=0b344e49-619f-44bc-852e-298378c335e4"},"vehicle_type_id":"4","last_reported":1751735300,"current_range_meters":4400,"station_id":"ce4bh0h2rcd13ifvqd60","pricing_plan_id":"cebpf4jnsgd1na2vs0mg"},{"bike_id":"17878187-7cc5-4f5d-b207-166acc7b12a4","system_id":"levelo_inurba_marseille","lat":43.2901,"lon":5.35613,"is_reserved":false,"is_disabled":false,"rental_uris":{"android":"levelo://app?vid=17878187-7cc5-4f5d-b207-166acc7b12a4","ios":"levelo://app?vid=17878187-7cc5-4f5d-b207-166acc7b12a4"},"vehicle_type_id":"4","last_reported":1751735300,"current_range_meters":4400,"station_id":"ce4bhb92rcd13ifvqen0","pricing_plan_id":"cebpf4jnsgd1na2vs0mg"},{"bike_id":"09171df6-2b64-42ba-bf34-a59eb892db58","system_id":"levelo_inurba_marseille","lat":43.26032,"lon":5.37551,"is_reserved":false,"is_disabled":false,"rental_uris":{"android":"levelo://app?vid=09171df6-2b64-42ba-bf34-a59eb892db58","ios":"levelo://app?vid=09171df6-2b64-42ba-bf34-a59eb892db58"},"vehicle_type_id":"4","last_reported":1751735300,"current_range_meters":4400,"station_id":"ce4bhgh2rcd13ifvqfa0","pricing_plan_id":"cebpf4jnsgd1na2vs0mg"},{"bike_id":"d643a738-ed19-46aa-8600-8678df8adf0c","system_id":"levelo_inurba_marseille","lat":43.30132,"lon":5.39841,"is_reserved":false,"is_disabled":false,"rental_uris":{"android":"levelo://app?vid=d643a738-ed19-46aa-8600-8678df8adf0c","ios":"levelo://app?vid=d643a738-ed19-46aa-8600-8678df8adf0c"},"vehicle_type_id":"4","last_reported":1751735300,"current_range_meters":6000,"station_id":"ce4bh0h2rcd13ifvqd40","pricing_plan_id":"cebpf4jnsgd1na2vs0mg"},{"bike_id":"ba154a12-11bd-42a5-958a-5992f5d043d1","system_id":"levelo_inurba_marseille","lat":43.3051,"lon":5.37079,"is_reserved":false,"is_disabled":false,"rental_uris":{"android":"levelo://app?vid=ba154a12-11bd-42a5-958a-5992f5d043d1","ios":"levelo://app?vid=ba154a12-11bd-42a5-958a-5992f5d043d1"},"vehicle_type_id":"4","last_reported":1751735300,"current_range_meters":6400,"station_id":"","pricing_plan_id":"cebpf4jnsgd1na2vs0mg"},{"bike_id":"ba3212a5-168e-4692-bb80-75fb600c3670","system_id":"levelo_inurba_marseille","lat":43.296202,"lon":5.377119,"is_reserved":false,"is_disabled":false,"rental_uris":{"android":"levelo://app?vid=ba3212a5-168e-4692-bb80-75fb600c3670","ios":"levelo://app?vid=ba3212a5-168e-4692-bb80-75fb600c3670"},"vehicle_type_id":"4","last_reported":1751735300,"current_range_meters":6400,"station_id":"ce4bgi92rcd13ifvqb90","pricing_plan_id":"cebpf4jnsgd1na2vs0mg"},{"bike_id":"a7fd63cc-8c0c-46fa-b46a-425d98218908","system_id":"levelo_inurba_marseille","lat":43.30307,"lon":5.392198,"is_reserved":false,"is_disabled":false,"rental_uris":{"android":"levelo://app?vid=a7fd63cc-8c0c-46fa-b46a-425d98218908","ios":"levelo://app?vid=a7fd63cc-8c0c-46fa-b46a-425d98218908"},"vehicle_type_id":"4","last_reported":1751735300,"current_range_meters":6400,"station_id":"ce4bgkh2rcd13ifvqbk0","pricing_plan_id":"cebpf4jnsgd1na2vs0mg"},{"bike_id":"ccd6ba95-ced5-4dfd-abdf-b1c6f3b079ea","system_id":"levelo_inurba_marseille","lat":43.28466,"lon":5.35883,"is_reserved":false,"is_disabled":false,"rental_uris":{"android":"levelo://app?vid=ccd6ba95-ced5-4dfd-abdf-b1c6f3b079ea","ios":"levelo://app?vid=ccd6ba95-ced5-4dfd-abdf-b1c6f3b079ea"},"vehicle_type_id":"4","last_reported":1751735300,"current_range_meters":6400,"station_id":"ce4bhah2rcd13ifvqei0","pricing_plan_id":"cebpf4jnsgd1na2vs0mg"},{"bike_id":"82c446f9-f62b-44bb-badb-b489a0d883fe","system_id":"levelo_inurba_marseille","lat":43.27494,"lon":5.42459,"is_reserved":false,"is_disabled":false,"rental_uris":{"android":"levelo://app?vid=82c446f9-f62b-44bb-badb-b489a0d883fe","ios":"levelo://app?vid=82c446f9-f62b-44bb-badb-b489a0d883fe"},"vehicle_type_id":"4","last_reported":1751735300,"current_range_meters":6400,"station_id":"ce4bhn92rcd13ifvqgrg","pricing_plan_id":"cebpf4jnsgd1na2vs0mg"},{"bike_id":"0c4b7fdb-b39e-49b3-a2b0-ae3d0f43e89d","system_id":"levelo_inurba_marseille","lat":43.32914,"lon":5.4055,"is_reserved":false,"is_disabled":false,"rental_uris":{"android":"levelo://app?vid=0c4b7fdb-b39e-49b3-a2b0-ae3d0f43e89d","ios":"levelo://app?vid=0c4b7fdb-b39e-49b3-a2b0-ae3d0f43e89d"},"vehicle_type_id":"4","last_reported":1751735300,"current_range_meters":6800,"station_id":"","pricing_plan_id":"cebpf4jnsgd1na2vs0mg"},{"bike_id":"1c77a8e7-a153-4561-b1bb-651b7dc56b43","system_id":"levelo_inurba_marseille","lat":43.29575,"lon":5.39987,"is_reserved":false,"is_disabled":false,"rental_uris":{"android":"levelo://app?vid=1c77a8e7-a153-4561-b1bb-651b7dc56b43","ios":"levelo://app?vid=1c77a8e7-a153-4561-b1bb-651b7dc56b43"},"vehicle_type_id":"4","last_reported":1751735300,"current_range_meters":6800,"station_id":"ce4bh312rcd13ifvqdj0","pricing_plan_id":"cebpf4jnsgd1na2vs0mg"},{"bike_id":"54094fc4-8e6a-488d-8587-5c1047da5532","system_id":"levelo_inurba_marseille","lat":43.28982,"lon":5.37839,"is_reserved":false,"is_disabled":false,"rental_uris":{"android":"levelo://app?vid=54094fc4-8e6a-488d-8587-5c1047da5532","ios":"levelo://app?vid=54094fc4-8e6a-488d-8587-5c1047da5532"},"vehicle_type_id":"4","last_reported":1751735300,"current_range_meters":6800,"station_id":"ce4bh9p2rcd13ifvqed0","pricing_plan_id":"cebpf4jnsgd1na2vs0mg"},{"bike_id":"10e613fd-5ff8-447a-8ef6-c1c02710087f","system_id":"levelo_inurba_marseille","lat":43.251094,"lon":5.403224,"is_reserved":false,"is_disabled":false,"rental_uris":{"android":"levelo://app?vid=10e613fd-5ff8-447a-8ef6-c1c02710087f","ios":"levelo://app?vid=10e613fd-5ff8-447a-8ef6-c1c02710087f"},"vehicle_type_id":"4","last_reported":1751735300,"current_range_meters":6800,"station_id":"ce4bhlh2rcd13ifvqgig","pricing_plan_id":"cebpf4jnsgd1na2vs0mg"},{"bike_id":"536b3fd2-8da8-41c0-829e-6e305e53a2f4","system_id":"levelo_inurba_marseille","lat":43.30889,"lon":5.37194,"is_reserved":false,"is_disabled":false,"rental_uris":{"android":"levelo://app?vid=536b3fd2-8da8-41c0-829e-6e305e53a2f4","ios":"levelo://app?vid=536b3fd2-8da8-41c0-829e-6e305e53a2f4"},"vehicle_type_id":"4","last_reported":1751735300,"current_range_meters":7200,"station_id":"ce4bguh2rcd13ifvqckg","pricing_plan_id":"cebpf4jnsgd1na2vs0mg"},{"bike_id":"7b30a72a-a704-4565-b800-d83ca2770739","system_id":"levelo_inurba_marseille","lat":43.2845,"lon":5.34968,"is_reserved":false,"is_disabled":false,"rental_uris":{"android":"levelo://app?vid=7b30a72a-a704-4565-b800-d83ca2770739","ios":"levelo://app?vid=7b30a72a-a704-4565-b800-d83ca2770739"},"vehicle_type_id":"4","last_reported":1751735300,"current_range_meters":7200,"station_id":"ce4bhbh2rcd13ifvqepg","pricing_plan_id":"cebpf4jnsgd1na2vs0mg"},{"bike_id":"9278eed4-5544-4424-a5ac-e79399bcd56a","system_id":"levelo_inurba_marseille","lat":43.2923,"lon":5.36044,"is_reserved":false,"is_disabled":false,"rental_uris":{"android":"levelo://app?vid=9278eed4-5544-4424-a5ac-e79399bcd56a","ios":"levelo://app?vid=9278eed4-5544-4424-a5ac-e79399bcd56a"},"vehicle_type_id":"4","last_reported":1751735300,"current_range_meters":7200,"station_id":"ce4bhbh2rcd13ifvqeqg","pricing_plan_id":"cebpf4jnsgd1na2vs0mg"},{"bike_id":"254b06bd-2177-439d-a911-69fa42b192a7","system_id":"levelo_inurba_marseille","lat":43.30946,"lon":5.39031,"is_reserved":false,"is_disabled":false,"rental_uris":{"android":"levelo://app?vid=254b06bd-2177-439d-a911-69fa42b192a7","ios":"levelo://app?vid=254b06bd-2177-439d-a911-69fa42b192a7"},"vehicle_type_id":"4","last_reported":1751735300,"current_range_meters":8000,"station_id":"ce4bgup2rcd13ifvqco0","pricing_plan_id":"cebpf4jnsgd1na2vs0mg"},{"bike_id":"e20769b7-76c1-475b-a8ef-73b07cd654a0","system_id":"levelo_inurba_marseille","lat":43.30932,"lon":5.40152,"is_reserved":false,"is_disabled":false,"rental_uris":{"android":"levelo://app?vid=e20769b7-76c1-475b-a8ef-73b07cd654a0","ios":"levelo://app?vid=e20769b7-76c1-475b-a8ef-73b07cd654a0"},"vehicle_type_id":"4","last_reported":1751735300,"current_range_meters":8000,"station_id":"ce4bgvp2rcd13ifvqct0","pricing_plan_id":"cebpf4jnsgd1na2vs0mg"},{"bike_id":"2ffeba7a-8316-4052-8019-91454da58cbe","system_id":"levelo_inurba_marseille","lat":43.26984,"lon":5.42027,"is_reserved":false,"is_disabled":false,"rental_uris":{"android":"levelo://app?vid=2ffeba7a-8316-4052-8019-91454da58cbe","ios":"levelo://app?vid=2ffeba7a-8316-4052-8019-91454da58cbe"},"vehicle_type_id":"4","last_reported":1751735300,"current_range_meters":8400,"station_id":"","pricing_plan_id":"cebpf4jnsgd1na2vs0mg"},{"bike_id":"6917bed5-c21f-48c3-870d-5408dab99803","system_id":"levelo_inurba_marseille","lat":43.29679,"lon":5.36898,"is_reserved":false,"is_disabled":false,"rental_uris":{"android":"levelo://app?vid=6917bed5-c21f-48c3-870d-5408dab99803","ios":"levelo://app?vid=6917bed5-c21f-48c3-870d-5408dab99803"},"vehicle_type_id":"4","last_reported":1751735300,"current_range_meters":8400,"station_id":"","pricing_plan_id":"cebpf4jnsgd1na2vs0mg"},{"bike_id":"2f03f3de-913c-4ee3-be57-3b241ea104c2","system_id":"levelo_inurba_marseille","lat":43.29792,"lon":5.3808,"is_reserved":false,"is_disabled":false,"rental_uris":{"android":"levelo://app?vid=2f03f3de-913c-4ee3-be57-3b241ea104c2","ios":"levelo://app?vid=2f03f3de-913c-4ee3-be57-3b241ea104c2"},"vehicle_type_id":"4","last_reported":1751735300,"current_range_meters":8400,"station_id":"ce4bgip2rcd13ifvqbb0","pricing_plan_id":"cebpf4jnsgd1na2vs0mg"},{"bike_id":"d972c238-3d6c-4d6d-ac33-e2a05296b48e","system_id":"levelo_inurba_marseille","lat":43.27425,"lon":5.39412,"is_reserved":false,"is_disabled":false,"rental_uris":{"android":"levelo://app?vid=d972c238-3d6c-4d6d-ac33-e2a05296b48e","ios":"levelo://app?vid=d972c238-3d6c-4d6d-ac33-e2a05296b48e"},"vehicle_type_id":"4","last_reported":1751735300,"current_range_meters":8400,"station_id":"ce4bhdp2rcd13ifvqf20","pricing_plan_id":"cebpf4jnsgd1na2vs0mg"},{"bike_id":"2e5e59fa-5366-460d-93a4-9992e1228a9b","system_id":"levelo_inurba_marseille","lat":43.24807,"lon":5.37454,"is_reserved":false,"is_disabled":false,"rental_uris":{"android":"levelo://app?vid=2e5e59fa-5366-460d-93a4-9992e1228a9b","ios":"levelo://app?vid=2e5e59fa-5366-460d-93a4-9992e1228a9b"},"vehicle_type_id":"4","last_reported":1751735300,"current_range_meters":8400,"station_id":"ce4bhgh2rcd13ifvqfb0","pricing_plan_id":"cebpf4jnsgd1na2vs0mg"},{"bike_id":"608af681-242a-499f-a55a-bc80dd0413ee","system_id":"levelo_inurba_marseille","lat":43.24175,"lon":5.39723,"is_reserved":false,"is_disabled":false,"rental_uris":{"android":"levelo://app?vid=608af681-242a-499f-a55a-bc80dd0413ee","ios":"levelo://app?vid=608af681-242a-499f-a55a-bc80dd0413ee"},"vehicle_type_id":"4","last_reported":1751735300,"current_range_meters":8400,"station_id":"ce4bhn12rcd13ifvqgpg","pricing_plan_id":"cebpf4jnsgd1na2vs0mg"},{"bike_id":"de094790-81ed-4682-9e8b-95b04eb701e1","system_id":"levelo_inurba_marseille","lat":43.28464,"lon":5.35886,"is_reserved":false,"is_disabled":false,"rental_uris":{"android":"levelo://app?vid=de094790-81ed-4682-9e8b-95b04eb701e1","ios":"levelo://app?vid=de094790-81ed-4682-9e8b-95b04eb701e1"},"vehicle_type_id":"4","last_reported":1751735300,"current_range_meters":8800,"station_id":"ce4bhah2rcd13ifvqei0","pricing_plan_id":"cebpf4jnsgd1na2vs0mg"},{"bike_id":"091c8696-fea0-4308-ac88-9caa09c9df86","system_id":"levelo_inurba_marseille","lat":43.28079,"lon":5.39666,"is_reserved":false,"is_disabled":false,"rental_uris":{"android":"levelo://app?vid=091c8696-fea0-4308-ac88-9caa09c9df86","ios":"levelo://app?vid=091c8696-fea0-4308-ac88-9caa09c9df86"},"vehicle_type_id":"4","last_reported":1751735300,"current_range_meters":8800,"station_id":"ce4bho12rcd13ifvqh2g","pricing_plan_id":"cebpf4jnsgd1na2vs0mg"},{"bike_id":"1c8ab180-05fd-405f-9922-b2b2c2d5142f","system_id":"levelo_inurba_marseille","lat":43.33792,"lon":5.38119,"is_reserved":false,"is_disabled":false,"rental_uris":{"android":"levelo://app?vid=1c8ab180-05fd-405f-9922-b2b2c2d5142f","ios":"levelo://app?vid=1c8ab180-05fd-405f-9922-b2b2c2d5142f"},"vehicle_type_id":"4","last_reported":1751735300,"current_range_meters":9200,"station_id":"","pricing_plan_id":"cebpf4jnsgd1na2vs0mg"},{"bike_id":"b26fae72-751e-4090-a9c4-76ff5de1ad66","system_id":"levelo_inurba_marseille","lat":43.33249,"lon":5.38037,"is_reserved":false,"is_disabled":false,"rental_uris":{"android":"levelo://app?vid=b26fae72-751e-4090-a9c4-76ff5de1ad66","ios":"levelo://app?vid=b26fae72-751e-4090-a9c4-76ff5de1ad66"},"vehicle_type_id":"4","last_reported":1751735300,"current_range_meters":9200,"station_id":"","pricing_plan_id":"cebpf4jnsgd1na2vs0mg"},{"bike_id":"0f640d46-a2b5-4d98-b259-647b90dcae18","system_id":"levelo_inurba_marseille","lat":43.30031,"lon":5.40188,"is_reserved":false,"is_disabled":false,"rental_uris":{"android":"levelo://app?vid=0f640d46-a2b5-4d98-b259-647b90dcae18","ios":"levelo://app?vid=0f640d46-a2b5-4d98-b259-647b90dcae18"},"vehicle_type_id":"4","last_reported":1751735300,"current_range_meters":9200,"station_id":"","pricing_plan_id":"cebpf4jnsgd1na2vs0mg"},{"bike_id":"6b0a1fd8-d9c6-42b7-8aee-05d9231cf95a","system_id":"levelo_inurba_marseille","lat":43.29216,"lon":5.400406,"is_reserved":false,"is_disabled":false,"rental_uris":{"android":"levelo://app?vid=6b0a1fd8-d9c6-42b7-8aee-05d9231cf95a","ios":"levelo://app?vid=6b0a1fd8-d9c6-42b7-8aee-05d9231cf95a"},"vehicle_type_id":"4","last_reported":1751735300,"current_range_meters":9200,"station_id":"","pricing_plan_id":"cebpf4jnsgd1na2vs0mg"},{"bike_id":"975eb99f-fe0f-4164-a109-5695cb84d250","system_id":"levelo_inurba_marseille","lat":43.2971,"lon":5.3661,"is_reserved":false,"is_disabled":false,"rental_uris":{"android":"levelo://app?vid=975eb99f-fe0f-4164-a109-5695cb84d250","ios":"levelo://app?vid=975eb99f-fe0f-4164-a109-5695cb84d250"},"vehicle_type_id":"4","last_reported":1751735300,"current_range_meters":9200,"station_id":"ce4bgn12rcd13ifvqbt0","pricing_plan_id":"cebpf4jnsgd1na2vs0mg"},{"bike_id":"384a2d98-4d60-464c-8347-458e398db044","system_id":"levelo_inurba_marseille","lat":43.31355,"lon":5.36701,"is_reserved":false,"is_disabled":false,"rental_uris":{"android":"levelo://app?vid=384a2d98-4d60-464c-8347-458e398db044","ios":"levelo://app?vid=384a2d98-4d60-464c-8347-458e398db044"},"vehicle_type_id":"4","last_reported":1751735300,"current_range_meters":9200,"station_id":"ce4bgr92rcd13ifvqc6g","pricing_plan_id":"cebpf4jnsgd1na2vs0mg"},{"bike_id":"c719cc28-329d-4520-bcde-eef8f1856b2f","system_id":"levelo_inurba_marseille","lat":43.30953,"lon":5.39027,"is_reserved":false,"is_disabled":false,"rental_uris":{"android":"levelo://app?vid=c719cc28-329d-4520-bcde-eef8f1856b2f","ios":"levelo://app?vid=c719cc28-329d-4520-bcde-eef8f1856b2f"},"vehicle_type_id":"4","last_reported":1751735300,"current_range_meters":9200,"station_id":"ce4bgup2rcd13ifvqco0","pricing_plan_id":"cebpf4jnsgd1na2vs0mg"},{"bike_id":"a1247792-bf45-401d-9a41-111c5dcebb20","system_id":"levelo_inurba_marseille","lat":43.28936,"lon":5.36636,"is_reserved":false,"is_disabled":false,"rental_uris":{"android":"levelo://app?vid=a1247792-bf45-401d-9a41-111c5dcebb20","ios":"levelo://app?vid=a1247792-bf45-401d-9a41-111c5dcebb20"},"vehicle_type_id":"4","last_reported":1751735300,"current_range_meters":9200,"station_id":"ce4bhap2rcd13ifvqek0","pricing_plan_id":"cebpf4jnsgd1na2vs0mg"},{"bike_id":"d7365e34-9878-4292-8a31-744af97a0315","system_id":"levelo_inurba_marseille","lat":43.27175,"lon":5.40994,"is_reserved":false,"is_disabled":false,"rental_uris":{"android":"levelo://app?vid=d7365e34-9878-4292-8a31-744af97a0315","ios":"levelo://app?vid=d7365e34-9878-4292-8a31-744af97a0315"},"vehicle_type_id":"4","last_reported":1751735300,"current_range_meters":9200,"station_id":"ce4bhl12rcd13ifvqgf0","pricing_plan_id":"cebpf4jnsgd1na2vs0mg"},{"bike_id":"6f9f4511-2671-4f96-80b4-1d46e588b470","system_id":"levelo_inurba_marseille","lat":43.28441,"lon":5.39198,"is_reserved":false,"is_disabled":false,"rental_uris":{"android":"levelo://app?vid=6f9f4511-2671-4f96-80b4-1d46e588b470","ios":"levelo://app?vid=6f9f4511-2671-4f96-80b4-1d46e588b470"},"vehicle_type_id":"4","last_reported":1751735300,"current_range_meters":9200,"station_id":"ce4bhoh2rcd13ifvqh5g","pricing_plan_id":"cebpf4jnsgd1na2vs0mg"},{"bike_id":"f0eba0bb-9dc1-4b10-aba1-2a07286dbe98","system_id":"levelo_inurba_marseille","lat":43.26957,"lon":5.386383,"is_reserved":false,"is_disabled":false,"rental_uris":{"android":"levelo://app?vid=f0eba0bb-9dc1-4b10-aba1-2a07286dbe98","ios":"levelo://app?vid=f0eba0bb-9dc1-4b10-aba1-2a07286dbe98"},"vehicle_type_id":"4","last_reported":1751735300,"current_range_meters":9600,"station_id":"ce4bhh92rcd13ifvqfh0","pricing_plan_id":"cebpf4jnsgd1na2vs0mg"},{"bike_id":"25725dba-2104-4f39-8784-daec340735f6","system_id":"levelo_inurba_marseille","lat":43.28157,"lon":5.42637,"is_reserved":false,"is_disabled":false,"rental_uris":{"android":"levelo://app?vid=25725dba-2104-4f39-8784-daec340735f6","ios":"levelo://app?vid=25725dba-2104-4f39-8784-daec340735f6"},"vehicle_type_id":"4","last_reported":1751735300,"current_range_meters":9600,"station_id":"ce4bhnh2rcd13ifvqgug","pricing_plan_id":"cebpf4jnsgd1na2vs0mg"},{"bike_id":"4b8da722-ee9e-48a4-a5e5-3a8a10364708","system_id":"levelo_inurba_marseille","lat":43.31232,"lon":5.37811,"is_reserved":false,"is_disabled":false,"rental_uris":{"android":"levelo://app?vid=4b8da722-ee9e-48a4-a5e5-3a8a10364708","ios":"levelo://app?vid=4b8da722-ee9e-48a4-a5e5-3a8a10364708"},"vehicle_type_id":"4","last_reported":1751735300,"current_range_meters":10000,"station_id":"","pricing_plan_id":"cebpf4jnsgd1na2vs0mg"},{"bike_id":"69c2280d-9883-47db-99f2-c073a6babae6","system_id":"levelo_inurba_marseille","lat":43.30867,"lon":5.37034,"is_reserved":false,"is_disabled":false,"rental_uris":{"android":"levelo://app?vid=69c2280d-9883-47db-99f2-c073a6babae6","ios":"levelo://app?vid=69c2280d-9883-47db-99f2-c073a6babae6"},"vehicle_type_id":"4","last_reported":1751735300,"current_range_meters":10000,"station_id":"","pricing_plan_id":"cebpf4jnsgd1na2vs0mg"},{"bike_id":"4a4fa98b-23cb-40fb-a687-6cfd61d302a7","system_id":"levelo_inurba_marseille","lat":43.29202,"lon":5.39314,"is_reserved":false,"is_disabled":false,"rental_uris":{"android":"levelo://app?vid=4a4fa98b-23cb-40fb-a687-6cfd61d302a7","ios":"levelo://app?vid=4a4fa98b-23cb-40fb-a687-6cfd61d302a7"},"vehicle_type_id":"4","last_reported":1751735300,"current_range_meters":10800,"station_id":"ce4bh192rcd13ifvqdd0","pricing_plan_id":"cebpf4jnsgd1na2vs0mg"},{"bike_id":"7feb672c-da16-48c0-9403-96b3b993e295","system_id":"levelo_inurba_marseille","lat":43.2781,"lon":5.40711,"is_reserved":false,"is_disabled":false,"rental_uris":{"android":"levelo://app?vid=7feb672c-da16-48c0-9403-96b3b993e295","ios":"levelo://app?vid=7feb672c-da16-48c0-9403-96b3b993e295"},"vehicle_type_id":"4","last_reported":1751735300,"current_range_meters":10800,"station_id":"ce4bhnh2rcd13ifvqgtg","pricing_plan_id":"cebpf4jnsgd1na2vs0mg"},{"bike_id":"96c04fbf-1d9b-416f-8612-f7a94d3b6e48","system_id":"levelo_inurba_marseille","lat":43.21186,"lon":5.35061,"is_reserved":false,"is_disabled":false,"rental_uris":{"android":"levelo://app?vid=96c04fbf-1d9b-416f-8612-f7a94d3b6e48","ios":"levelo://app?vid=96c04fbf-1d9b-416f-8612-f7a94d3b6e48"},"vehicle_type_id":"4","last_reported":1751735300,"current_range_meters":10800,"station_id":"st_cvj6sg6p6f1abm77japg","pricing_plan_id":"cebpf4jnsgd1na2vs0mg"},{"bike_id":"4db45513-e520-4598-82fa-5809d80d4f3d","system_id":"levelo_inurba_marseille","lat":43.28109,"lon":5.35499,"is_reserved":false,"is_disabled":false,"rental_uris":{"android":"levelo://app?vid=4db45513-e520-4598-82fa-5809d80d4f3d","ios":"levelo://app?vid=4db45513-e520-4598-82fa-5809d80d4f3d"},"vehicle_type_id":"4","last_reported":1751735300,"current_range_meters":11200,"station_id":"","pricing_plan_id":"cebpf4jnsgd1na2vs0mg"},{"bike_id":"1e04b9e2-27c6-4b30-b902-6c81e18716e2","system_id":"levelo_inurba_marseille","lat":43.3117,"lon":5.37741,"is_reserved":false,"is_disabled":false,"rental_uris":{"android":"levelo://app?vid=1e04b9e2-27c6-4b30-b902-6c81e18716e2","ios":"levelo://app?vid=1e04b9e2-27c6-4b30-b902-6c81e18716e2"},"vehicle_type_id":"4","last_reported":1751735300,"current_range_meters":11200,"station_id":"","pricing_plan_id":"cebpf4jnsgd1na2vs0mg"},{"bike_id":"1106b725-71d5-4309-88ea-ae692896f80f","system_id":"levelo_inurba_marseille","lat":43.29526,"lon":5.38546,"is_reserved":false,"is_disabled":false,"rental_uris":{"android":"levelo://app?vid=1106b725-71d5-4309-88ea-ae692896f80f","ios":"levelo://app?vid=1106b725-71d5-4309-88ea-ae692896f80f"},"vehicle_type_id":"4","last_reported":1751735300,"current_range_meters":11200,"station_id":"ce4bgih2rcd13ifvqba0","pricing_plan_id":"cebpf4jnsgd1na2vs0mg"},{"bike_id":"a08e94dc-e6bc-46b3-bdc9-2d33c7141cbc","system_id":"levelo_inurba_marseille","lat":43.28458,"lon":5.35892,"is_reserved":false,"is_disabled":false,"rental_uris":{"android":"levelo://app?vid=a08e94dc-e6bc-46b3-bdc9-2d33c7141cbc","ios":"levelo://app?vid=a08e94dc-e6bc-46b3-bdc9-2d33c7141cbc"},"vehicle_type_id":"4","last_reported":1751735300,"current_range_meters":11200,"station_id":"ce4bhah2rcd13ifvqei0","pricing_plan_id":"cebpf4jnsgd1na2vs0mg"},{"bike_id":"220a97c7-7a1f-4a4c-8f04-bd7030b29edc","system_id":"levelo_inurba_marseille","lat":43.29231,"lon":5.3609,"is_reserved":false,"is_disabled":false,"rental_uris":{"android":"levelo://app?vid=220a97c7-7a1f-4a4c-8f04-bd7030b29edc","ios":"levelo://app?vid=220a97c7-7a1f-4a4c-8f04-bd7030b29edc"},"vehicle_type_id":"4","last_reported":1751735300,"current_range_meters":11200,"station_id":"ce4bhbh2rcd13ifvqeqg","pricing_plan_id":"cebpf4jnsgd1na2vs0mg"},{"bike_id":"e9aeb126-d4db-474a-824d-1b796a8f3843","system_id":"levelo_inurba_marseille","lat":43.27905,"lon":5.38014,"is_reserved":false,"is_disabled":false,"rental_uris":{"android":"levelo://app?vid=e9aeb126-d4db-474a-824d-1b796a8f3843","ios":"levelo://app?vid=e9aeb126-d4db-474a-824d-1b796a8f3843"},"vehicle_type_id":"4","last_reported":1751735300,"current_range_meters":11200,"station_id":"ce4bhf92rcd13ifvqf50","pricing_plan_id":"cebpf4jnsgd1na2vs0mg"},{"bike_id":"dd9c68d6-b625-4425-a757-0a19a0cab156","system_id":"levelo_inurba_marseille","lat":43.27211,"lon":5.39182,"is_reserved":false,"is_disabled":false,"rental_uris":{"android":"levelo://app?vid=dd9c68d6-b625-4425-a757-0a19a0cab156","ios":"levelo://app?vid=dd9c68d6-b625-4425-a757-0a19a0cab156"},"vehicle_type_id":"4","last_reported":1751735300,"current_range_meters":11200,"station_id":"ce4bhhp2rcd13ifvqfm0","pricing_plan_id":"cebpf4jnsgd1na2vs0mg"},{"bike_id":"29b19e99-4845-4ee3-b1ee-35721cd36dc7","system_id":"levelo_inurba_marseille","lat":43.231938,"lon":5.355551,"is_reserved":false,"is_disabled":false,"rental_uris":{"android":"levelo://app?vid=29b19e99-4845-4ee3-b1ee-35721cd36dc7","ios":"levelo://app?vid=29b19e99-4845-4ee3-b1ee-35721cd36dc7"},"vehicle_type_id":"4","last_reported":1751735300,"current_range_meters":11200,"station_id":"ce4bhu92rcd13ifvqi70","pricing_plan_id":"cebpf4jnsgd1na2vs0mg"},{"bike_id":"c6d298a3-20bd-4d97-aa47-e36cb0f535b5","system_id":"levelo_inurba_marseille","lat":43.292268,"lon":5.360525,"is_reserved":false,"is_disabled":false,"rental_uris":{"android":"levelo://app?vid=c6d298a3-20bd-4d97-aa47-e36cb0f535b5","ios":"levelo://app?vid=c6d298a3-20bd-4d97-aa47-e36cb0f535b5"},"vehicle_type_id":"4","last_reported":1751735300,"current_range_meters":12000,"station_id":"","pricing_plan_id":"cebpf4jnsgd1na2vs0mg"},{"bike_id":"00d046c1-c97a-4cbf-9104-df0b8a144efc","system_id":"levelo_inurba_marseille","lat":43.27498,"lon":5.42453,"is_reserved":false,"is_disabled":false,"rental_uris":{"android":"levelo://app?vid=00d046c1-c97a-4cbf-9104-df0b8a144efc","ios":"levelo://app?vid=00d046c1-c97a-4cbf-9104-df0b8a144efc"},"vehicle_type_id":"4","last_reported":1751735300,"current_range_meters":12000,"station_id":"ce4bhn92rcd13ifvqgrg","pricing_plan_id":"cebpf4jnsgd1na2vs0mg"},{"bike_id":"f1284ee2-078d-4dbd-9580-2dc23345a810","system_id":"levelo_inurba_marseille","lat":43.26542,"lon":5.37354,"is_reserved":false,"is_disabled":false,"rental_uris":{"android":"levelo://app?vid=f1284ee2-078d-4dbd-9580-2dc23345a810","ios":"levelo://app?vid=f1284ee2-078d-4dbd-9580-2dc23345a810"},"vehicle_type_id":"4","last_reported":1751735300,"current_range_meters":12400,"station_id":"","pricing_plan_id":"cebpf4jnsgd1na2vs0mg"},{"bike_id":"daeee1e5-3b93-44da-8e47-7b24df6d544e","system_id":"levelo_inurba_marseille","lat":43.30012,"lon":5.37351,"is_reserved":false,"is_disabled":false,"rental_uris":{"android":"levelo://app?vid=daeee1e5-3b93-44da-8e47-7b24df6d544e","ios":"levelo://app?vid=daeee1e5-3b93-44da-8e47-7b24df6d544e"},"vehicle_type_id":"4","last_reported":1751735300,"current_range_meters":12400,"station_id":"","pricing_plan_id":"cebpf4jnsgd1na2vs0mg"},{"bike_id":"ecf5cc27-08f9-434f-a42b-6dc1aa0344c7","system_id":"levelo_inurba_marseille","lat":43.308915,"lon":5.396635,"is_reserved":false,"is_disabled":false,"rental_uris":{"android":"levelo://app?vid=ecf5cc27-08f9-434f-a42b-6dc1aa0344c7","ios":"levelo://app?vid=ecf5cc27-08f9-434f-a42b-6dc1aa0344c7"},"vehicle_type_id":"4","last_reported":1751735300,"current_range_meters":12400,"station_id":"ce4bh012rcd13ifvqcv0","pricing_plan_id":"cebpf4jnsgd1na2vs0mg"},{"bike_id":"669717ba-be0c-460d-b9da-a7a55d1d47b1","system_id":"levelo_inurba_marseille","lat":43.28269,"lon":5.35065,"is_reserved":false,"is_disabled":false,"rental_uris":{"android":"levelo://app?vid=669717ba-be0c-460d-b9da-a7a55d1d47b1","ios":"levelo://app?vid=669717ba-be0c-460d-b9da-a7a55d1d47b1"},"vehicle_type_id":"4","last_reported":1751735300,"current_range_meters":12400,"station_id":"ce4bhbp2rcd13ifvqerg","pricing_plan_id":"cebpf4jnsgd1na2vs0mg"},{"bike_id":"04df0658-1f8c-4e95-927e-94281d4289a0","system_id":"levelo_inurba_marseille","lat":43.21749,"lon":5.34606,"is_reserved":false,"is_disabled":false,"rental_uris":{"android":"levelo://app?vid=04df0658-1f8c-4e95-927e-94281d4289a0","ios":"levelo://app?vid=04df0658-1f8c-4e95-927e-94281d4289a0"},"vehicle_type_id":"4","last_reported":1751735300,"current_range_meters":12400,"station_id":"st_cvj6r9ubvosntc0bgbag","pricing_plan_id":"cebpf4jnsgd1na2vs0mg"},{"bike_id":"c121e66d-2947-4c6d-a275-3b626c6b6bb0","system_id":"levelo_inurba_marseille","lat":43.21196,"lon":5.35068,"is_reserved":false,"is_disabled":false,"rental_uris":{"android":"levelo://app?vid=c121e66d-2947-4c6d-a275-3b626c6b6bb0","ios":"levelo://app?vid=c121e66d-2947-4c6d-a275-3b626c6b6bb0"},"vehicle_type_id":"4","last_reported":1751735300,"current_range_meters":12400,"station_id":"st_cvj6sg6p6f1abm77japg","pricing_plan_id":"cebpf4jnsgd1na2vs0mg"},{"bike_id":"b1d40197-e49c-4962-8cd8-0babe05d31a6","system_id":"levelo_inurba_marseille","lat":43.21261,"lon":5.35279,"is_reserved":false,"is_disabled":false,"rental_uris":{"android":"levelo://app?vid=b1d40197-e49c-4962-8cd8-0babe05d31a6","ios":"levelo://app?vid=b1d40197-e49c-4962-8cd8-0babe05d31a6"},"vehicle_type_id":"4","last_reported":1751735300,"current_range_meters":12800,"station_id":"","pricing_plan_id":"cebpf4jnsgd1na2vs0mg"},{"bike_id":"3095fde8-a60c-44fc-b923-65aeb3c748e2","system_id":"levelo_inurba_marseille","lat":43.27431,"lon":5.39412,"is_reserved":false,"is_disabled":false,"rental_uris":{"android":"levelo://app?vid=3095fde8-a60c-44fc-b923-65aeb3c748e2","ios":"levelo://app?vid=3095fde8-a60c-44fc-b923-65aeb3c748e2"},"vehicle_type_id":"4","last_reported":1751735300,"current_range_meters":12800,"station_id":"ce4bhdp2rcd13ifvqf20","pricing_plan_id":"cebpf4jnsgd1na2vs0mg"},{"bike_id":"77bde8bf-068b-4583-87d6-ec3b6c990d7d","system_id":"levelo_inurba_marseille","lat":43.23972,"lon":5.36627,"is_reserved":false,"is_disabled":false,"rental_uris":{"android":"levelo://app?vid=77bde8bf-068b-4583-87d6-ec3b6c990d7d","ios":"levelo://app?vid=77bde8bf-068b-4583-87d6-ec3b6c990d7d"},"vehicle_type_id":"4","last_reported":1751735300,"current_range_meters":12800,"station_id":"ce4bhi12rcd13ifvqfp0","pricing_plan_id":"cebpf4jnsgd1na2vs0mg"},{"bike_id":"89c4c171-fa34-44ee-8818-b4f1de745083","system_id":"levelo_inurba_marseille","lat":43.23208,"lon":5.35547,"is_reserved":false,"is_disabled":false,"rental_uris":{"android":"levelo://app?vid=89c4c171-fa34-44ee-8818-b4f1de745083","ios":"levelo://app?vid=89c4c171-fa34-44ee-8818-b4f1de745083"},"vehicle_type_id":"4","last_reported":1751735300,"current_range_meters":12800,"station_id":"ce4bhu92rcd13ifvqi70","pricing_plan_id":"cebpf4jnsgd1na2vs0mg"},{"bike_id":"49229a7d-37ce-408b-b04e-088817ea1614","system_id":"levelo_inurba_marseille","lat":43.27877,"lon":5.40588,"is_reserved":false,"is_disabled":false,"rental_uris":{"android":"levelo://app?vid=49229a7d-37ce-408b-b04e-088817ea1614","ios":"levelo://app?vid=49229a7d-37ce-408b-b04e-088817ea1614"},"vehicle_type_id":"4","last_reported":1751735300,"current_range_meters":13600,"station_id":"ce4bhnh2rcd13ifvqgtg","pricing_plan_id":"cebpf4jnsgd1na2vs0mg"},{"bike_id":"3644516d-8587-496f-96ec-fb5a535ffeee","system_id":"levelo_inurba_marseille","lat":43.31714,"lon":5.43707,"is_reserved":false,"is_disabled":false,"rental_uris":{"android":"levelo://app?vid=3644516d-8587-496f-96ec-fb5a535ffeee","ios":"levelo://app?vid=3644516d-8587-496f-96ec-fb5a535ffeee"},"vehicle_type_id":"4","last_reported":1751735300,"current_range_meters":13600,"station_id":"ce4bhp92rcd13ifvqhcg","pricing_plan_id":"cebpf4jnsgd1na2vs0mg"},{"bike_id":"d008f2d7-a6e8-4370-83cd-46244114c79c","system_id":"levelo_inurba_marseille","lat":43.23186,"lon":5.35547,"is_reserved":false,"is_disabled":false,"rental_uris":{"android":"levelo://app?vid=d008f2d7-a6e8-4370-83cd-46244114c79c","ios":"levelo://app?vid=d008f2d7-a6e8-4370-83cd-46244114c79c"},"vehicle_type_id":"4","last_reported":1751735300,"current_range_meters":13600,"station_id":"ce4bhu92rcd13ifvqi70","pricing_plan_id":"cebpf4jnsgd1na2vs0mg"},{"bike_id":"85e59ae2-b351-4789-8c40-11e04c4e6808","system_id":"levelo_inurba_marseille","lat":43.23206,"lon":5.35547,"is_reserved":false,"is_disabled":false,"rental_uris":{"android":"levelo://app?vid=85e59ae2-b351-4789-8c40-11e04c4e6808","ios":"levelo://app?vid=85e59ae2-b351-4789-8c40-11e04c4e6808"},"vehicle_type_id":"4","last_reported":1751735300,"current_range_meters":13600,"station_id":"ce4bhu92rcd13ifvqi70","pricing_plan_id":"cebpf4jnsgd1na2vs0mg"},{"bike_id":"96bee655-62f8-4906-b63b-cc98a8cb85c7","system_id":"levelo_inurba_marseille","lat":43.23187,"lon":5.35554,"is_reserved":false,"is_disabled":false,"rental_uris":{"android":"levelo://app?vid=96bee655-62f8-4906-b63b-cc98a8cb85c7","ios":"levelo://app?vid=96bee655-62f8-4906-b63b-cc98a8cb85c7"},"vehicle_type_id":"4","last_reported":1751735300,"current_range_meters":13600,"station_id":"ce4bhu92rcd13ifvqi70","pricing_plan_id":"cebpf4jnsgd1na2vs0mg"},{"bike_id":"429fcfd4-52c6-4a37-a77c-e1d9b2bd16ca","system_id":"levelo_inurba_marseille","lat":43.2953,"lon":5.38557,"is_reserved":false,"is_disabled":false,"rental_uris":{"android":"levelo://app?vid=429fcfd4-52c6-4a37-a77c-e1d9b2bd16ca","ios":"levelo://app?vid=429fcfd4-52c6-4a37-a77c-e1d9b2bd16ca"},"vehicle_type_id":"4","last_reported":1751735300,"current_range_meters":14000,"station_id":"ce4bgih2rcd13ifvqba0","pricing_plan_id":"cebpf4jnsgd1na2vs0mg"},{"bike_id":"86c62818-7579-4762-a158-728195c677c4","system_id":"levelo_inurba_marseille","lat":43.28621,"lon":5.35108,"is_reserved":false,"is_disabled":false,"rental_uris":{"android":"levelo://app?vid=86c62818-7579-4762-a158-728195c677c4","ios":"levelo://app?vid=86c62818-7579-4762-a158-728195c677c4"},"vehicle_type_id":"4","last_reported":1751735300,"current_range_meters":14000,"station_id":"ce4bhch2rcd13ifvqeug","pricing_plan_id":"cebpf4jnsgd1na2vs0mg"},{"bike_id":"775f6ec7-7184-423b-a458-4f29cb442540","system_id":"levelo_inurba_marseille","lat":43.2396,"lon":5.36636,"is_reserved":false,"is_disabled":false,"rental_uris":{"android":"levelo://app?vid=775f6ec7-7184-423b-a458-4f29cb442540","ios":"levelo://app?vid=775f6ec7-7184-423b-a458-4f29cb442540"},"vehicle_type_id":"4","last_reported":1751735300,"current_range_meters":14000,"station_id":"ce4bhi12rcd13ifvqfp0","pricing_plan_id":"cebpf4jnsgd1na2vs0mg"},{"bike_id":"3b94207c-4139-4abc-9bb5-5a1e38510ecd","system_id":"levelo_inurba_marseille","lat":43.26212,"lon":5.40481,"is_reserved":false,"is_disabled":false,"rental_uris":{"android":"levelo://app?vid=3b94207c-4139-4abc-9bb5-5a1e38510ecd","ios":"levelo://app?vid=3b94207c-4139-4abc-9bb5-5a1e38510ecd"},"vehicle_type_id":"4","last_reported":1751735300,"current_range_meters":14000,"station_id":"ce4bhmh2rcd13ifvqgmg","pricing_plan_id":"cebpf4jnsgd1na2vs0mg"},{"bike_id":"8b01cf32-54e2-4fd2-a618-94fbfc8c3130","system_id":"levelo_inurba_marseille","lat":43.23187,"lon":5.35535,"is_reserved":false,"is_disabled":false,"rental_uris":{"android":"levelo://app?vid=8b01cf32-54e2-4fd2-a618-94fbfc8c3130","ios":"levelo://app?vid=8b01cf32-54e2-4fd2-a618-94fbfc8c3130"},"vehicle_type_id":"4","last_reported":1751735300,"current_range_meters":14000,"station_id":"ce4bhu92rcd13ifvqi70","pricing_plan_id":"cebpf4jnsgd1na2vs0mg"},{"bike_id":"adf1d38d-1f03-40cf-9b57-0a8f15f62b2d","system_id":"levelo_inurba_marseille","lat":43.32988,"lon":5.36459,"is_reserved":false,"is_disabled":false,"rental_uris":{"android":"levelo://app?vid=adf1d38d-1f03-40cf-9b57-0a8f15f62b2d","ios":"levelo://app?vid=adf1d38d-1f03-40cf-9b57-0a8f15f62b2d"},"vehicle_type_id":"4","last_reported":1751735300,"current_range_meters":14400,"station_id":"","pricing_plan_id":"cebpf4jnsgd1na2vs0mg"},{"bike_id":"bcd02806-a5ab-4521-bbc8-119dd799125f","system_id":"levelo_inurba_marseille","lat":43.29516,"lon":5.39393,"is_reserved":false,"is_disabled":false,"rental_uris":{"android":"levelo://app?vid=bcd02806-a5ab-4521-bbc8-119dd799125f","ios":"levelo://app?vid=bcd02806-a5ab-4521-bbc8-119dd799125f"},"vehicle_type_id":"4","last_reported":1751735300,"current_range_meters":14400,"station_id":"ce4bh292rcd13ifvqdf0","pricing_plan_id":"cebpf4jnsgd1na2vs0mg"},{"bike_id":"90d20113-36ea-42f3-b776-6728e1948dff","system_id":"levelo_inurba_marseille","lat":43.29521,"lon":5.39048,"is_reserved":false,"is_disabled":false,"rental_uris":{"android":"levelo://app?vid=90d20113-36ea-42f3-b776-6728e1948dff","ios":"levelo://app?vid=90d20113-36ea-42f3-b776-6728e1948dff"},"vehicle_type_id":"4","last_reported":1751735300,"current_range_meters":14400,"station_id":"ce4bh3p2rcd13ifvqdp0","pricing_plan_id":"cebpf4jnsgd1na2vs0mg"},{"bike_id":"06b4ab0f-e412-4a61-b405-f9b5523d6b68","system_id":"levelo_inurba_marseille","lat":43.25004,"lon":5.38923,"is_reserved":false,"is_disabled":false,"rental_uris":{"android":"levelo://app?vid=06b4ab0f-e412-4a61-b405-f9b5523d6b68","ios":"levelo://app?vid=06b4ab0f-e412-4a61-b405-f9b5523d6b68"},"vehicle_type_id":"4","last_reported":1751735300,"current_range_meters":14400,"station_id":"ce4bhgp2rcd13ifvqfd0","pricing_plan_id":"cebpf4jnsgd1na2vs0mg"},{"bike_id":"d712008c-4f25-4a2b-bf71-9d59dbc29da6","system_id":"levelo_inurba_marseille","lat":43.2573,"lon":5.41107,"is_reserved":false,"is_disabled":false,"rental_uris":{"android":"levelo://app?vid=d712008c-4f25-4a2b-bf71-9d59dbc29da6","ios":"levelo://app?vid=d712008c-4f25-4a2b-bf71-9d59dbc29da6"},"vehicle_type_id":"4","last_reported":1751735300,"current_range_meters":14800,"station_id":"","pricing_plan_id":"cebpf4jnsgd1na2vs0mg"},{"bike_id":"ba8e5270-5a7f-4191-a91d-7cf85eea91c2","system_id":"levelo_inurba_marseille","lat":43.28203,"lon":5.34952,"is_reserved":false,"is_disabled":false,"rental_uris":{"android":"levelo://app?vid=ba8e5270-5a7f-4191-a91d-7cf85eea91c2","ios":"levelo://app?vid=ba8e5270-5a7f-4191-a91d-7cf85eea91c2"},"vehicle_type_id":"4","last_reported":1751735300,"current_range_meters":14800,"station_id":"","pricing_plan_id":"cebpf4jnsgd1na2vs0mg"},{"bike_id":"3e39d607-2606-4409-8e3a-ae0c534db294","system_id":"levelo_inurba_marseille","lat":43.29049,"lon":5.35903,"is_reserved":false,"is_disabled":false,"rental_uris":{"android":"levelo://app?vid=3e39d607-2606-4409-8e3a-ae0c534db294","ios":"levelo://app?vid=3e39d607-2606-4409-8e3a-ae0c534db294"},"vehicle_type_id":"4","last_reported":1751735300,"current_range_meters":14800,"station_id":"ce4bha92rcd13ifvqeg0","pricing_plan_id":"cebpf4jnsgd1na2vs0mg"},{"bike_id":"32883bb5-17a5-41a5-a279-4d119c078ea2","system_id":"levelo_inurba_marseille","lat":43.26205,"lon":5.37438,"is_reserved":false,"is_disabled":false,"rental_uris":{"android":"levelo://app?vid=32883bb5-17a5-41a5-a279-4d119c078ea2","ios":"levelo://app?vid=32883bb5-17a5-41a5-a279-4d119c078ea2"},"vehicle_type_id":"4","last_reported":1751735300,"current_range_meters":14800,"station_id":"ce4bhgp2rcd13ifvqfc0","pricing_plan_id":"cebpf4jnsgd1na2vs0mg"},{"bike_id":"4f48c755-16cc-4637-9526-70991ff2b5d0","system_id":"levelo_inurba_marseille","lat":43.26215,"lon":5.37442,"is_reserved":false,"is_disabled":false,"rental_uris":{"android":"levelo://app?vid=4f48c755-16cc-4637-9526-70991ff2b5d0","ios":"levelo://app?vid=4f48c755-16cc-4637-9526-70991ff2b5d0"},"vehicle_type_id":"4","last_reported":1751735300,"current_range_meters":14800,"station_id":"ce4bhgp2rcd13ifvqfc0","pricing_plan_id":"cebpf4jnsgd1na2vs0mg"},{"bike_id":"e71bcd81-9ad3-4c70-8aed-a8c086e789ac","system_id":"levelo_inurba_marseille","lat":43.25933,"lon":5.409065,"is_reserved":false,"is_disabled":false,"rental_uris":{"android":"levelo://app?vid=e71bcd81-9ad3-4c70-8aed-a8c086e789ac","ios":"levelo://app?vid=e71bcd81-9ad3-4c70-8aed-a8c086e789ac"},"vehicle_type_id":"4","last_reported":1751735300,"current_range_meters":14800,"station_id":"ce4bhm92rcd13ifvqglg","pricing_plan_id":"cebpf4jnsgd1na2vs0mg"},{"bike_id":"9bcc5a60-261d-4e43-8b8d-77c8938ce621","system_id":"levelo_inurba_marseille","lat":43.32339,"lon":5.40617,"is_reserved":false,"is_disabled":false,"rental_uris":{"android":"levelo://app?vid=9bcc5a60-261d-4e43-8b8d-77c8938ce621","ios":"levelo://app?vid=9bcc5a60-261d-4e43-8b8d-77c8938ce621"},"vehicle_type_id":"4","last_reported":1751735300,"current_range_meters":14800,"station_id":"ce4bhq92rcd13ifvqhjg","pricing_plan_id":"cebpf4jnsgd1na2vs0mg"},{"bike_id":"36f9c75b-5d6c-412a-b395-ad8ffc2d771a","system_id":"levelo_inurba_marseille","lat":43.26023,"lon":5.41744,"is_reserved":false,"is_disabled":false,"rental_uris":{"android":"levelo://app?vid=36f9c75b-5d6c-412a-b395-ad8ffc2d771a","ios":"levelo://app?vid=36f9c75b-5d6c-412a-b395-ad8ffc2d771a"},"vehicle_type_id":"4","last_reported":1751735300,"current_range_meters":15200,"station_id":"","pricing_plan_id":"cebpf4jnsgd1na2vs0mg"},{"bike_id":"fe8ee84c-fdfc-40aa-a1c2-6e36409c0740","system_id":"levelo_inurba_marseille","lat":43.26828,"lon":5.39069,"is_reserved":false,"is_disabled":false,"rental_uris":{"android":"levelo://app?vid=fe8ee84c-fdfc-40aa-a1c2-6e36409c0740","ios":"levelo://app?vid=fe8ee84c-fdfc-40aa-a1c2-6e36409c0740"},"vehicle_type_id":"4","last_reported":1751735300,"current_range_meters":15200,"station_id":"","pricing_plan_id":"cebpf4jnsgd1na2vs0mg"},{"bike_id":"38d8e249-348c-4e8b-9a55-f56fa45e4d15","system_id":"levelo_inurba_marseille","lat":43.2379,"lon":5.43052,"is_reserved":false,"is_disabled":false,"rental_uris":{"android":"levelo://app?vid=38d8e249-348c-4e8b-9a55-f56fa45e4d15","ios":"levelo://app?vid=38d8e249-348c-4e8b-9a55-f56fa45e4d15"},"vehicle_type_id":"4","last_reported":1751735300,"current_range_meters":15200,"station_id":"","pricing_plan_id":"cebpf4jnsgd1na2vs0mg"},{"bike_id":"ab4ae97d-c6ec-45ad-8fdf-5faec64239e0","system_id":"levelo_inurba_marseille","lat":43.286859,"lon":5.373842,"is_reserved":false,"is_disabled":false,"rental_uris":{"android":"levelo://app?vid=ab4ae97d-c6ec-45ad-8fdf-5faec64239e0","ios":"levelo://app?vid=ab4ae97d-c6ec-45ad-8fdf-5faec64239e0"},"vehicle_type_id":"4","last_reported":1751735300,"current_range_meters":15200,"station_id":"ce4bh3p2rcd13ifvqdq0","pricing_plan_id":"cebpf4jnsgd1na2vs0mg"},{"bike_id":"72e99e51-880b-41a2-bfd2-4dd1f099bf08","system_id":"levelo_inurba_marseille","lat":43.273707,"lon":5.362632,"is_reserved":false,"is_disabled":false,"rental_uris":{"android":"levelo://app?vid=72e99e51-880b-41a2-bfd2-4dd1f099bf08","ios":"levelo://app?vid=72e99e51-880b-41a2-bfd2-4dd1f099bf08"},"vehicle_type_id":"4","last_reported":1751735300,"current_range_meters":15200,"station_id":"ce4bhbh2rcd13ifvqeo0","pricing_plan_id":"cebpf4jnsgd1na2vs0mg"},{"bike_id":"736cb780-619a-4c87-bb33-3a45c6d3502b","system_id":"levelo_inurba_marseille","lat":43.32067,"lon":5.41545,"is_reserved":false,"is_disabled":false,"rental_uris":{"android":"levelo://app?vid=736cb780-619a-4c87-bb33-3a45c6d3502b","ios":"levelo://app?vid=736cb780-619a-4c87-bb33-3a45c6d3502b"},"vehicle_type_id":"4","last_reported":1751735300,"current_range_meters":15200,"station_id":"ce4bhq92rcd13ifvqhkg","pricing_plan_id":"cebpf4jnsgd1na2vs0mg"},{"bike_id":"8a42812b-a6a1-406d-afe6-f3a1f04badd8","system_id":"levelo_inurba_marseille","lat":43.308487,"lon":5.369961,"is_reserved":false,"is_disabled":false,"rental_uris":{"android":"levelo://app?vid=8a42812b-a6a1-406d-afe6-f3a1f04badd8","ios":"levelo://app?vid=8a42812b-a6a1-406d-afe6-f3a1f04badd8"},"vehicle_type_id":"4","last_reported":1751735300,"current_range_meters":16000,"station_id":"","pricing_plan_id":"cebpf4jnsgd1na2vs0mg"},{"bike_id":"856c776b-976c-4e7f-97c1-3dc27b8380dd","system_id":"levelo_inurba_marseille","lat":43.31598,"lon":5.38358,"is_reserved":false,"is_disabled":false,"rental_uris":{"android":"levelo://app?vid=856c776b-976c-4e7f-97c1-3dc27b8380dd","ios":"levelo://app?vid=856c776b-976c-4e7f-97c1-3dc27b8380dd"},"vehicle_type_id":"4","last_reported":1751735300,"current_range_meters":16000,"station_id":"","pricing_plan_id":"cebpf4jnsgd1na2vs0mg"},{"bike_id":"38f7fbb9-ddf9-4adc-90d7-9ce9e9c6f27c","system_id":"levelo_inurba_marseille","lat":43.28224,"lon":5.38572,"is_reserved":false,"is_disabled":false,"rental_uris":{"android":"levelo://app?vid=38f7fbb9-ddf9-4adc-90d7-9ce9e9c6f27c","ios":"levelo://app?vid=38f7fbb9-ddf9-4adc-90d7-9ce9e9c6f27c"},"vehicle_type_id":"4","last_reported":1751735300,"current_range_meters":16000,"station_id":"","pricing_plan_id":"cebpf4jnsgd1na2vs0mg"},{"bike_id":"2a15d97e-2d62-4362-890e-b9419124fecc","system_id":"levelo_inurba_marseille","lat":43.30251,"lon":5.40069,"is_reserved":false,"is_disabled":false,"rental_uris":{"android":"levelo://app?vid=2a15d97e-2d62-4362-890e-b9419124fecc","ios":"levelo://app?vid=2a15d97e-2d62-4362-890e-b9419124fecc"},"vehicle_type_id":"4","last_reported":1751735300,"current_range_meters":16000,"station_id":"ce4bgvh2rcd13ifvqcs0","pricing_plan_id":"cebpf4jnsgd1na2vs0mg"},{"bike_id":"cf3ca2d7-c3aa-4505-8a6a-8c6014c20b67","system_id":"levelo_inurba_marseille","lat":43.290305,"lon":5.386513,"is_reserved":false,"is_disabled":false,"rental_uris":{"android":"levelo://app?vid=cf3ca2d7-c3aa-4505-8a6a-8c6014c20b67","ios":"levelo://app?vid=cf3ca2d7-c3aa-4505-8a6a-8c6014c20b67"},"vehicle_type_id":"4","last_reported":1751735300,"current_range_meters":16000,"station_id":"ce4bh4p2rcd13ifvqe0g","pricing_plan_id":"cebpf4jnsgd1na2vs0mg"},{"bike_id":"16371782-24e4-423e-8528-b3378980588b","system_id":"levelo_inurba_marseille","lat":43.28424,"lon":5.34997,"is_reserved":false,"is_disabled":false,"rental_uris":{"android":"levelo://app?vid=16371782-24e4-423e-8528-b3378980588b","ios":"levelo://app?vid=16371782-24e4-423e-8528-b3378980588b"},"vehicle_type_id":"4","last_reported":1751735300,"current_range_meters":16000,"station_id":"ce4bhbh2rcd13ifvqepg","pricing_plan_id":"cebpf4jnsgd1na2vs0mg"},{"bike_id":"80906c92-fb35-4b5e-a01d-5031ba008412","system_id":"levelo_inurba_marseille","lat":43.24808,"lon":5.37448,"is_reserved":false,"is_disabled":false,"rental_uris":{"android":"levelo://app?vid=80906c92-fb35-4b5e-a01d-5031ba008412","ios":"levelo://app?vid=80906c92-fb35-4b5e-a01d-5031ba008412"},"vehicle_type_id":"4","last_reported":1751735300,"current_range_meters":16000,"station_id":"ce4bhgh2rcd13ifvqfb0","pricing_plan_id":"cebpf4jnsgd1na2vs0mg"},{"bike_id":"1133fa96-960d-45e6-9328-aa458deeee07","system_id":"levelo_inurba_marseille","lat":43.26215,"lon":5.4046,"is_reserved":false,"is_disabled":false,"rental_uris":{"android":"levelo://app?vid=1133fa96-960d-45e6-9328-aa458deeee07","ios":"levelo://app?vid=1133fa96-960d-45e6-9328-aa458deeee07"},"vehicle_type_id":"4","last_reported":1751735300,"current_range_meters":16000,"station_id":"ce4bhmh2rcd13ifvqgmg","pricing_plan_id":"cebpf4jnsgd1na2vs0mg"},{"bike_id":"18e903c3-bd69-4cad-bc4b-fefd2f289489","system_id":"levelo_inurba_marseille","lat":43.26226,"lon":5.40458,"is_reserved":false,"is_disabled":false,"rental_uris":{"android":"levelo://app?vid=18e903c3-bd69-4cad-bc4b-fefd2f289489","ios":"levelo://app?vid=18e903c3-bd69-4cad-bc4b-fefd2f289489"},"vehicle_type_id":"4","last_reported":1751735300,"current_range_meters":16000,"station_id":"ce4bhmh2rcd13ifvqgmg","pricing_plan_id":"cebpf4jnsgd1na2vs0mg"},{"bike_id":"84303959-8cba-4981-9cd0-d7bbd107feff","system_id":"levelo_inurba_marseille","lat":43.30428,"lon":5.41256,"is_reserved":false,"is_disabled":false,"rental_uris":{"android":"levelo://app?vid=84303959-8cba-4981-9cd0-d7bbd107feff","ios":"levelo://app?vid=84303959-8cba-4981-9cd0-d7bbd107feff"},"vehicle_type_id":"4","last_reported":1751735300,"current_range_meters":16000,"station_id":"ce4bhop2rcd13ifvqh8g","pricing_plan_id":"cebpf4jnsgd1na2vs0mg"},{"bike_id":"7d7ca329-d013-418c-84c4-2b0666103eeb","system_id":"levelo_inurba_marseille","lat":43.29906,"lon":5.43687,"is_reserved":false,"is_disabled":false,"rental_uris":{"android":"levelo://app?vid=7d7ca329-d013-418c-84c4-2b0666103eeb","ios":"levelo://app?vid=7d7ca329-d013-418c-84c4-2b0666103eeb"},"vehicle_type_id":"4","last_reported":1751735300,"current_range_meters":16000,"station_id":"ce4bhpp2rcd13ifvqhfg","pricing_plan_id":"cebpf4jnsgd1na2vs0mg"},{"bike_id":"bf24b26e-7f51-4120-9a48-54c87edaa2f7","system_id":"levelo_inurba_marseille","lat":43.21198,"lon":5.35073,"is_reserved":false,"is_disabled":false,"rental_uris":{"android":"levelo://app?vid=bf24b26e-7f51-4120-9a48-54c87edaa2f7","ios":"levelo://app?vid=bf24b26e-7f51-4120-9a48-54c87edaa2f7"},"vehicle_type_id":"4","last_reported":1751735300,"current_range_meters":16000,"station_id":"st_cvj6sg6p6f1abm77japg","pricing_plan_id":"cebpf4jnsgd1na2vs0mg"},{"bike_id":"45b9d97f-fe41-491f-9c34-c1ba93335a35","system_id":"levelo_inurba_marseille","lat":43.28941,"lon":5.39638,"is_reserved":false,"is_disabled":false,"rental_uris":{"android":"levelo://app?vid=45b9d97f-fe41-491f-9c34-c1ba93335a35","ios":"levelo://app?vid=45b9d97f-fe41-491f-9c34-c1ba93335a35"},"vehicle_type_id":"4","last_reported":1751735300,"current_range_meters":16400,"station_id":"ce4bh3h2rcd13ifvqdn0","pricing_plan_id":"cebpf4jnsgd1na2vs0mg"},{"bike_id":"61fbb665-a659-4dfb-a42a-849e601b78bf","system_id":"levelo_inurba_marseille","lat":43.28477,"lon":5.38416,"is_reserved":false,"is_disabled":false,"rental_uris":{"android":"levelo://app?vid=61fbb665-a659-4dfb-a42a-849e601b78bf","ios":"levelo://app?vid=61fbb665-a659-4dfb-a42a-849e601b78bf"},"vehicle_type_id":"4","last_reported":1751735300,"current_range_meters":16400,"station_id":"ce4bh512rcd13ifvqe3g","pricing_plan_id":"cebpf4jnsgd1na2vs0mg"},{"bike_id":"b6e48e5f-e234-4c93-b6af-0c488e78d7fd","system_id":"levelo_inurba_marseille","lat":43.28416,"lon":5.34973,"is_reserved":false,"is_disabled":false,"rental_uris":{"android":"levelo://app?vid=b6e48e5f-e234-4c93-b6af-0c488e78d7fd","ios":"levelo://app?vid=b6e48e5f-e234-4c93-b6af-0c488e78d7fd"},"vehicle_type_id":"4","last_reported":1751735300,"current_range_meters":16400,"station_id":"ce4bhbh2rcd13ifvqepg","pricing_plan_id":"cebpf4jnsgd1na2vs0mg"},{"bike_id":"1046bf07-3c28-4349-9620-39d2845f10c0","system_id":"levelo_inurba_marseille","lat":43.28604,"lon":5.35117,"is_reserved":false,"is_disabled":false,"rental_uris":{"android":"levelo://app?vid=1046bf07-3c28-4349-9620-39d2845f10c0","ios":"levelo://app?vid=1046bf07-3c28-4349-9620-39d2845f10c0"},"vehicle_type_id":"4","last_reported":1751735300,"current_range_meters":16400,"station_id":"ce4bhch2rcd13ifvqeug","pricing_plan_id":"cebpf4jnsgd1na2vs0mg"},{"bike_id":"5e4669bd-8536-4919-8da2-15409e182044","system_id":"levelo_inurba_marseille","lat":43.23167,"lon":5.43737,"is_reserved":false,"is_disabled":false,"rental_uris":{"android":"levelo://app?vid=5e4669bd-8536-4919-8da2-15409e182044","ios":"levelo://app?vid=5e4669bd-8536-4919-8da2-15409e182044"},"vehicle_type_id":"4","last_reported":1751735300,"current_range_meters":16400,"station_id":"ce4bhmp2rcd13ifvqgog","pricing_plan_id":"cebpf4jnsgd1na2vs0mg"},{"bike_id":"7f0c1e3c-145d-459e-b135-55934e2c45cf","system_id":"levelo_inurba_marseille","lat":43.28157,"lon":5.42647,"is_reserved":false,"is_disabled":false,"rental_uris":{"android":"levelo://app?vid=7f0c1e3c-145d-459e-b135-55934e2c45cf","ios":"levelo://app?vid=7f0c1e3c-145d-459e-b135-55934e2c45cf"},"vehicle_type_id":"4","last_reported":1751735300,"current_range_meters":16400,"station_id":"ce4bhnh2rcd13ifvqgug","pricing_plan_id":"cebpf4jnsgd1na2vs0mg"},{"bike_id":"d8c93050-8f4a-45d2-9269-93687a24b3cc","system_id":"levelo_inurba_marseille","lat":43.31717,"lon":5.43706,"is_reserved":false,"is_disabled":false,"rental_uris":{"android":"levelo://app?vid=d8c93050-8f4a-45d2-9269-93687a24b3cc","ios":"levelo://app?vid=d8c93050-8f4a-45d2-9269-93687a24b3cc"},"vehicle_type_id":"4","last_reported":1751735300,"current_range_meters":16400,"station_id":"ce4bhp92rcd13ifvqhcg","pricing_plan_id":"cebpf4jnsgd1na2vs0mg"},{"bike_id":"38855c64-4a55-4d3a-8da1-44a2b313158b","system_id":"levelo_inurba_marseille","lat":43.32372,"lon":5.36785,"is_reserved":false,"is_disabled":false,"rental_uris":{"android":"levelo://app?vid=38855c64-4a55-4d3a-8da1-44a2b313158b","ios":"levelo://app?vid=38855c64-4a55-4d3a-8da1-44a2b313158b"},"vehicle_type_id":"4","last_reported":1751735300,"current_range_meters":16400,"station_id":"ce4bhsh2rcd13ifvqi2g","pricing_plan_id":"cebpf4jnsgd1na2vs0mg"},{"bike_id":"e9f184b7-4c52-47df-adfb-be4fdc9c8ed3","system_id":"levelo_inurba_marseille","lat":43.23195,"lon":5.35565,"is_reserved":false,"is_disabled":false,"rental_uris":{"android":"levelo://app?vid=e9f184b7-4c52-47df-adfb-be4fdc9c8ed3","ios":"levelo://app?vid=e9f184b7-4c52-47df-adfb-be4fdc9c8ed3"},"vehicle_type_id":"4","last_reported":1751735300,"current_range_meters":16400,"station_id":"ce4bhu92rcd13ifvqi70","pricing_plan_id":"cebpf4jnsgd1na2vs0mg"},{"bike_id":"e449aa29-cae1-4432-9aec-dedc13360b20","system_id":"levelo_inurba_marseille","lat":43.21196,"lon":5.35079,"is_reserved":false,"is_disabled":false,"rental_uris":{"android":"levelo://app?vid=e449aa29-cae1-4432-9aec-dedc13360b20","ios":"levelo://app?vid=e449aa29-cae1-4432-9aec-dedc13360b20"},"vehicle_type_id":"4","last_reported":1751735300,"current_range_meters":16400,"station_id":"st_cvj6sg6p6f1abm77japg","pricing_plan_id":"cebpf4jnsgd1na2vs0mg"},{"bike_id":"cd6f91d4-bdaf-4e38-b4f5-14f6e83055e8","system_id":"levelo_inurba_marseille","lat":43.21196,"lon":5.3508,"is_reserved":false,"is_disabled":false,"rental_uris":{"android":"levelo://app?vid=cd6f91d4-bdaf-4e38-b4f5-14f6e83055e8","ios":"levelo://app?vid=cd6f91d4-bdaf-4e38-b4f5-14f6e83055e8"},"vehicle_type_id":"4","last_reported":1751735300,"current_range_meters":16400,"station_id":"st_cvj6sg6p6f1abm77japg","pricing_plan_id":"cebpf4jnsgd1na2vs0mg"},{"bike_id":"f6657ed4-cc2c-4d41-81ee-6fb89526c1e9","system_id":"levelo_inurba_marseille","lat":43.28619,"lon":5.35107,"is_reserved":false,"is_disabled":false,"rental_uris":{"android":"levelo://app?vid=f6657ed4-cc2c-4d41-81ee-6fb89526c1e9","ios":"levelo://app?vid=f6657ed4-cc2c-4d41-81ee-6fb89526c1e9"},"vehicle_type_id":"4","last_reported":1751735300,"current_range_meters":16800,"station_id":"ce4bhch2rcd13ifvqeug","pricing_plan_id":"cebpf4jnsgd1na2vs0mg"},{"bike_id":"4a5ea6cf-0080-4542-aae9-f545715c1050","system_id":"levelo_inurba_marseille","lat":43.24392,"lon":5.37065,"is_reserved":false,"is_disabled":false,"rental_uris":{"android":"levelo://app?vid=4a5ea6cf-0080-4542-aae9-f545715c1050","ios":"levelo://app?vid=4a5ea6cf-0080-4542-aae9-f545715c1050"},"vehicle_type_id":"4","last_reported":1751735300,"current_range_meters":16800,"station_id":"ce4bhhh2rcd13ifvqfk0","pricing_plan_id":"cebpf4jnsgd1na2vs0mg"},{"bike_id":"e934df3a-55ad-4287-be0e-970eb81a614c","system_id":"levelo_inurba_marseille","lat":43.33741,"lon":5.39178,"is_reserved":false,"is_disabled":false,"rental_uris":{"android":"levelo://app?vid=e934df3a-55ad-4287-be0e-970eb81a614c","ios":"levelo://app?vid=e934df3a-55ad-4287-be0e-970eb81a614c"},"vehicle_type_id":"4","last_reported":1751735300,"current_range_meters":16800,"station_id":"ce4bhr92rcd13ifvqhsg","pricing_plan_id":"cebpf4jnsgd1na2vs0mg"},{"bike_id":"cfedde4d-29e4-48a6-bc2a-67d1ad344395","system_id":"levelo_inurba_marseille","lat":43.23214,"lon":5.35544,"is_reserved":false,"is_disabled":false,"rental_uris":{"android":"levelo://app?vid=cfedde4d-29e4-48a6-bc2a-67d1ad344395","ios":"levelo://app?vid=cfedde4d-29e4-48a6-bc2a-67d1ad344395"},"vehicle_type_id":"4","last_reported":1751735300,"current_range_meters":16800,"station_id":"ce4bhu92rcd13ifvqi70","pricing_plan_id":"cebpf4jnsgd1na2vs0mg"},{"bike_id":"452e8211-4f44-45d0-814a-3e9e25b8c44e","system_id":"levelo_inurba_marseille","lat":43.21185,"lon":5.35072,"is_reserved":false,"is_disabled":false,"rental_uris":{"android":"levelo://app?vid=452e8211-4f44-45d0-814a-3e9e25b8c44e","ios":"levelo://app?vid=452e8211-4f44-45d0-814a-3e9e25b8c44e"},"vehicle_type_id":"4","last_reported":1751735300,"current_range_meters":16800,"station_id":"st_cvj6sg6p6f1abm77japg","pricing_plan_id":"cebpf4jnsgd1na2vs0mg"},{"bike_id":"77115f98-bfd7-488f-b07c-0398439a39bd","system_id":"levelo_inurba_marseille","lat":43.290973,"lon":5.35582,"is_reserved":false,"is_disabled":false,"rental_uris":{"android":"levelo://app?vid=77115f98-bfd7-488f-b07c-0398439a39bd","ios":"levelo://app?vid=77115f98-bfd7-488f-b07c-0398439a39bd"},"vehicle_type_id":"4","last_reported":1751735300,"current_range_meters":17200,"station_id":"","pricing_plan_id":"cebpf4jnsgd1na2vs0mg"},{"bike_id":"3ea7a273-24c9-4a26-8cc5-ae83c99551e5","system_id":"levelo_inurba_marseille","lat":43.31237,"lon":5.36846,"is_reserved":false,"is_disabled":false,"rental_uris":{"android":"levelo://app?vid=3ea7a273-24c9-4a26-8cc5-ae83c99551e5","ios":"levelo://app?vid=3ea7a273-24c9-4a26-8cc5-ae83c99551e5"},"vehicle_type_id":"4","last_reported":1751735300,"current_range_meters":17200,"station_id":"ce4bgl92rcd13ifvqbq0","pricing_plan_id":"cebpf4jnsgd1na2vs0mg"},{"bike_id":"c45f1ced-a58f-4ab9-a879-ee6ffae9edea","system_id":"levelo_inurba_marseille","lat":43.28412,"lon":5.34989,"is_reserved":false,"is_disabled":false,"rental_uris":{"android":"levelo://app?vid=c45f1ced-a58f-4ab9-a879-ee6ffae9edea","ios":"levelo://app?vid=c45f1ced-a58f-4ab9-a879-ee6ffae9edea"},"vehicle_type_id":"4","last_reported":1751735300,"current_range_meters":17200,"station_id":"ce4bhbh2rcd13ifvqepg","pricing_plan_id":"cebpf4jnsgd1na2vs0mg"},{"bike_id":"41d928e6-b9b0-4e48-84e1-7ba52781d76b","system_id":"levelo_inurba_marseille","lat":43.24683,"lon":5.38144,"is_reserved":false,"is_disabled":false,"rental_uris":{"android":"levelo://app?vid=41d928e6-b9b0-4e48-84e1-7ba52781d76b","ios":"levelo://app?vid=41d928e6-b9b0-4e48-84e1-7ba52781d76b"},"vehicle_type_id":"4","last_reported":1751735300,"current_range_meters":17200,"station_id":"ce4bhih2rcd13ifvqfr0","pricing_plan_id":"cebpf4jnsgd1na2vs0mg"},{"bike_id":"c310c455-2738-40af-9f2f-6b8c178c9275","system_id":"levelo_inurba_marseille","lat":43.27172,"lon":5.40993,"is_reserved":false,"is_disabled":false,"rental_uris":{"android":"levelo://app?vid=c310c455-2738-40af-9f2f-6b8c178c9275","ios":"levelo://app?vid=c310c455-2738-40af-9f2f-6b8c178c9275"},"vehicle_type_id":"4","last_reported":1751735300,"current_range_meters":17200,"station_id":"ce4bhl12rcd13ifvqgf0","pricing_plan_id":"cebpf4jnsgd1na2vs0mg"},{"bike_id":"3e96cccd-0bc5-4705-99ff-962517f21539","system_id":"levelo_inurba_marseille","lat":43.28003,"lon":5.40014,"is_reserved":false,"is_disabled":false,"rental_uris":{"android":"levelo://app?vid=3e96cccd-0bc5-4705-99ff-962517f21539","ios":"levelo://app?vid=3e96cccd-0bc5-4705-99ff-962517f21539"},"vehicle_type_id":"4","last_reported":1751735300,"current_range_meters":17200,"station_id":"ce4bho92rcd13ifvqh4g","pricing_plan_id":"cebpf4jnsgd1na2vs0mg"},{"bike_id":"5f5727ef-e7c2-4005-9f45-e517bc06c86b","system_id":"levelo_inurba_marseille","lat":43.30377,"lon":5.42493,"is_reserved":false,"is_disabled":false,"rental_uris":{"android":"levelo://app?vid=5f5727ef-e7c2-4005-9f45-e517bc06c86b","ios":"levelo://app?vid=5f5727ef-e7c2-4005-9f45-e517bc06c86b"},"vehicle_type_id":"4","last_reported":1751735300,"current_range_meters":17200,"station_id":"ce4bhoh2rcd13ifvqh6g","pricing_plan_id":"cebpf4jnsgd1na2vs0mg"},{"bike_id":"38556a8c-bc16-440b-aba1-9df44c77db93","system_id":"levelo_inurba_marseille","lat":43.26253,"lon":5.40511,"is_reserved":false,"is_disabled":false,"rental_uris":{"android":"levelo://app?vid=38556a8c-bc16-440b-aba1-9df44c77db93","ios":"levelo://app?vid=38556a8c-bc16-440b-aba1-9df44c77db93"},"vehicle_type_id":"4","last_reported":1751735300,"current_range_meters":17600,"station_id":"","pricing_plan_id":"cebpf4jnsgd1na2vs0mg"},{"bike_id":"d858b784-4fd9-41d7-8169-6d2f7e176251","system_id":"levelo_inurba_marseille","lat":43.30031,"lon":5.37811,"is_reserved":false,"is_disabled":false,"rental_uris":{"android":"levelo://app?vid=d858b784-4fd9-41d7-8169-6d2f7e176251","ios":"levelo://app?vid=d858b784-4fd9-41d7-8169-6d2f7e176251"},"vehicle_type_id":"4","last_reported":1751735300,"current_range_meters":17600,"station_id":"","pricing_plan_id":"cebpf4jnsgd1na2vs0mg"},{"bike_id":"012f5f24-8db5-4c36-88c3-cbd3dd3df1a6","system_id":"levelo_inurba_marseille","lat":43.30434,"lon":5.38895,"is_reserved":false,"is_disabled":false,"rental_uris":{"android":"levelo://app?vid=012f5f24-8db5-4c36-88c3-cbd3dd3df1a6","ios":"levelo://app?vid=012f5f24-8db5-4c36-88c3-cbd3dd3df1a6"},"vehicle_type_id":"4","last_reported":1751735300,"current_range_meters":17600,"station_id":"ce4bgk12rcd13ifvqbi0","pricing_plan_id":"cebpf4jnsgd1na2vs0mg"},{"bike_id":"aca47642-4ceb-4a40-bae0-66b7f0d6dee2","system_id":"levelo_inurba_marseille","lat":43.22505,"lon":5.34778,"is_reserved":false,"is_disabled":false,"rental_uris":{"android":"levelo://app?vid=aca47642-4ceb-4a40-bae0-66b7f0d6dee2","ios":"levelo://app?vid=aca47642-4ceb-4a40-bae0-66b7f0d6dee2"},"vehicle_type_id":"4","last_reported":1751735300,"current_range_meters":17600,"station_id":"st_cvj5dfep6f1abm77gieg","pricing_plan_id":"cebpf4jnsgd1na2vs0mg"},{"bike_id":"d7d3dcd2-ad3b-47eb-9ac8-5e975e5f2c50","system_id":"levelo_inurba_marseille","lat":43.30296,"lon":5.39193,"is_reserved":false,"is_disabled":false,"rental_uris":{"android":"levelo://app?vid=d7d3dcd2-ad3b-47eb-9ac8-5e975e5f2c50","ios":"levelo://app?vid=d7d3dcd2-ad3b-47eb-9ac8-5e975e5f2c50"},"vehicle_type_id":"4","last_reported":1751735300,"current_range_meters":18000,"station_id":"ce4bgkh2rcd13ifvqbk0","pricing_plan_id":"cebpf4jnsgd1na2vs0mg"},{"bike_id":"6ee13dda-fd4a-4157-90be-a46fc578ef62","system_id":"levelo_inurba_marseille","lat":43.30145,"lon":5.37422,"is_reserved":false,"is_disabled":false,"rental_uris":{"android":"levelo://app?vid=6ee13dda-fd4a-4157-90be-a46fc578ef62","ios":"levelo://app?vid=6ee13dda-fd4a-4157-90be-a46fc578ef62"},"vehicle_type_id":"4","last_reported":1751735300,"current_range_meters":18000,"station_id":"ce4bgs92rcd13ifvqcc0","pricing_plan_id":"cebpf4jnsgd1na2vs0mg"},{"bike_id":"0316ea61-c6a5-43ee-9ce3-048412fd471c","system_id":"levelo_inurba_marseille","lat":43.25113,"lon":5.40321,"is_reserved":false,"is_disabled":false,"rental_uris":{"android":"levelo://app?vid=0316ea61-c6a5-43ee-9ce3-048412fd471c","ios":"levelo://app?vid=0316ea61-c6a5-43ee-9ce3-048412fd471c"},"vehicle_type_id":"4","last_reported":1751735300,"current_range_meters":18000,"station_id":"ce4bhlh2rcd13ifvqgig","pricing_plan_id":"cebpf4jnsgd1na2vs0mg"},{"bike_id":"c43eae3b-dccb-4509-aa37-b59577141f6c","system_id":"levelo_inurba_marseille","lat":43.23194,"lon":5.35574,"is_reserved":false,"is_disabled":false,"rental_uris":{"android":"levelo://app?vid=c43eae3b-dccb-4509-aa37-b59577141f6c","ios":"levelo://app?vid=c43eae3b-dccb-4509-aa37-b59577141f6c"},"vehicle_type_id":"4","last_reported":1751735300,"current_range_meters":18000,"station_id":"ce4bhu92rcd13ifvqi70","pricing_plan_id":"cebpf4jnsgd1na2vs0mg"},{"bike_id":"d5ef770d-9759-47e3-b3a5-7d2785ef76db","system_id":"levelo_inurba_marseille","lat":43.32656,"lon":5.39215,"is_reserved":false,"is_disabled":false,"rental_uris":{"android":"levelo://app?vid=d5ef770d-9759-47e3-b3a5-7d2785ef76db","ios":"levelo://app?vid=d5ef770d-9759-47e3-b3a5-7d2785ef76db"},"vehicle_type_id":"4","last_reported":1751735300,"current_range_meters":18800,"station_id":"","pricing_plan_id":"cebpf4jnsgd1na2vs0mg"},{"bike_id":"647c68e4-2970-4925-b859-de64a5b7831b","system_id":"levelo_inurba_marseille","lat":43.29541,"lon":5.37507,"is_reserved":false,"is_disabled":false,"rental_uris":{"android":"levelo://app?vid=647c68e4-2970-4925-b859-de64a5b7831b","ios":"levelo://app?vid=647c68e4-2970-4925-b859-de64a5b7831b"},"vehicle_type_id":"4","last_reported":1751735300,"current_range_meters":18800,"station_id":"ce4bgkp2rcd13ifvqbmg","pricing_plan_id":"cebpf4jnsgd1na2vs0mg"},{"bike_id":"2d6814ce-8b7b-4c94-adfe-7c42ad9d993b","system_id":"levelo_inurba_marseille","lat":43.30894,"lon":5.39659,"is_reserved":false,"is_disabled":false,"rental_uris":{"android":"levelo://app?vid=2d6814ce-8b7b-4c94-adfe-7c42ad9d993b","ios":"levelo://app?vid=2d6814ce-8b7b-4c94-adfe-7c42ad9d993b"},"vehicle_type_id":"4","last_reported":1751735300,"current_range_meters":18800,"station_id":"ce4bh012rcd13ifvqcv0","pricing_plan_id":"cebpf4jnsgd1na2vs0mg"},{"bike_id":"f80c61ac-9570-479a-b73c-17eeae26a6c8","system_id":"levelo_inurba_marseille","lat":43.27066,"lon":5.42289,"is_reserved":false,"is_disabled":false,"rental_uris":{"android":"levelo://app?vid=f80c61ac-9570-479a-b73c-17eeae26a6c8","ios":"levelo://app?vid=f80c61ac-9570-479a-b73c-17eeae26a6c8"},"vehicle_type_id":"4","last_reported":1751735300,"current_range_meters":18800,"station_id":"ce4bhk92rcd13ifvqgb0","pricing_plan_id":"cebpf4jnsgd1na2vs0mg"},{"bike_id":"0b33059f-0494-4c60-b478-3ce36068d1f3","system_id":"levelo_inurba_marseille","lat":43.29805,"lon":5.38108,"is_reserved":false,"is_disabled":false,"rental_uris":{"android":"levelo://app?vid=0b33059f-0494-4c60-b478-3ce36068d1f3","ios":"levelo://app?vid=0b33059f-0494-4c60-b478-3ce36068d1f3"},"vehicle_type_id":"4","last_reported":1751735300,"current_range_meters":19200,"station_id":"ce4bgip2rcd13ifvqbb0","pricing_plan_id":"cebpf4jnsgd1na2vs0mg"},{"bike_id":"d22c96d6-9240-4f3c-8622-ba20ecafac95","system_id":"levelo_inurba_marseille","lat":43.30306,"lon":5.3922,"is_reserved":false,"is_disabled":false,"rental_uris":{"android":"levelo://app?vid=d22c96d6-9240-4f3c-8622-ba20ecafac95","ios":"levelo://app?vid=d22c96d6-9240-4f3c-8622-ba20ecafac95"},"vehicle_type_id":"4","last_reported":1751735300,"current_range_meters":19200,"station_id":"ce4bgkh2rcd13ifvqbk0","pricing_plan_id":"cebpf4jnsgd1na2vs0mg"},{"bike_id":"6a29fb8a-78af-488c-8e33-b93e754fbbae","system_id":"levelo_inurba_marseille","lat":43.28415,"lon":5.34982,"is_reserved":false,"is_disabled":false,"rental_uris":{"android":"levelo://app?vid=6a29fb8a-78af-488c-8e33-b93e754fbbae","ios":"levelo://app?vid=6a29fb8a-78af-488c-8e33-b93e754fbbae"},"vehicle_type_id":"4","last_reported":1751735300,"current_range_meters":19200,"station_id":"ce4bhbh2rcd13ifvqepg","pricing_plan_id":"cebpf4jnsgd1na2vs0mg"},{"bike_id":"7384a57e-d95e-4016-b410-33edfad0bf75","system_id":"levelo_inurba_marseille","lat":43.24164,"lon":5.36399,"is_reserved":false,"is_disabled":false,"rental_uris":{"android":"levelo://app?vid=7384a57e-d95e-4016-b410-33edfad0bf75","ios":"levelo://app?vid=7384a57e-d95e-4016-b410-33edfad0bf75"},"vehicle_type_id":"4","last_reported":1751735300,"current_range_meters":19200,"station_id":"cpo36qri1sfpv3e86is0","pricing_plan_id":"cebpf4jnsgd1na2vs0mg"},{"bike_id":"69642295-98e8-42b2-b780-533016775486","system_id":"levelo_inurba_marseille","lat":43.241621,"lon":5.364003,"is_reserved":false,"is_disabled":false,"rental_uris":{"android":"levelo://app?vid=69642295-98e8-42b2-b780-533016775486","ios":"levelo://app?vid=69642295-98e8-42b2-b780-533016775486"},"vehicle_type_id":"4","last_reported":1751735300,"current_range_meters":19200,"station_id":"cpo36qri1sfpv3e86is0","pricing_plan_id":"cebpf4jnsgd1na2vs0mg"},{"bike_id":"377f41d7-3106-4e8e-8842-a283cd6c6d80","system_id":"levelo_inurba_marseille","lat":43.29627,"lon":5.37717,"is_reserved":false,"is_disabled":false,"rental_uris":{"android":"levelo://app?vid=377f41d7-3106-4e8e-8842-a283cd6c6d80","ios":"levelo://app?vid=377f41d7-3106-4e8e-8842-a283cd6c6d80"},"vehicle_type_id":"4","last_reported":1751735300,"current_range_meters":19600,"station_id":"ce4bgi92rcd13ifvqb90","pricing_plan_id":"cebpf4jnsgd1na2vs0mg"},{"bike_id":"5281f3dd-41c9-424a-9b20-d2f7f47bac39","system_id":"levelo_inurba_marseille","lat":43.29775,"lon":5.38133,"is_reserved":false,"is_disabled":false,"rental_uris":{"android":"levelo://app?vid=5281f3dd-41c9-424a-9b20-d2f7f47bac39","ios":"levelo://app?vid=5281f3dd-41c9-424a-9b20-d2f7f47bac39"},"vehicle_type_id":"4","last_reported":1751735300,"current_range_meters":19600,"station_id":"ce4bgip2rcd13ifvqbb0","pricing_plan_id":"cebpf4jnsgd1na2vs0mg"},{"bike_id":"c7b72587-06b9-45ba-bc28-bcd40bade756","system_id":"levelo_inurba_marseille","lat":43.30958,"lon":5.39038,"is_reserved":false,"is_disabled":false,"rental_uris":{"android":"levelo://app?vid=c7b72587-06b9-45ba-bc28-bcd40bade756","ios":"levelo://app?vid=c7b72587-06b9-45ba-bc28-bcd40bade756"},"vehicle_type_id":"4","last_reported":1751735300,"current_range_meters":19600,"station_id":"ce4bgup2rcd13ifvqco0","pricing_plan_id":"cebpf4jnsgd1na2vs0mg"},{"bike_id":"a6db5fc2-e5d0-430e-aa71-36b96c5b42ff","system_id":"levelo_inurba_marseille","lat":43.26224,"lon":5.37431,"is_reserved":false,"is_disabled":false,"rental_uris":{"android":"levelo://app?vid=a6db5fc2-e5d0-430e-aa71-36b96c5b42ff","ios":"levelo://app?vid=a6db5fc2-e5d0-430e-aa71-36b96c5b42ff"},"vehicle_type_id":"4","last_reported":1751735300,"current_range_meters":19600,"station_id":"ce4bhgp2rcd13ifvqfc0","pricing_plan_id":"cebpf4jnsgd1na2vs0mg"},{"bike_id":"9abd6f77-4e53-434c-beb9-a6104827143a","system_id":"levelo_inurba_marseille","lat":43.24378,"lon":5.3705,"is_reserved":false,"is_disabled":false,"rental_uris":{"android":"levelo://app?vid=9abd6f77-4e53-434c-beb9-a6104827143a","ios":"levelo://app?vid=9abd6f77-4e53-434c-beb9-a6104827143a"},"vehicle_type_id":"4","last_reported":1751735300,"current_range_meters":19600,"station_id":"ce4bhhh2rcd13ifvqfk0","pricing_plan_id":"cebpf4jnsgd1na2vs0mg"},{"bike_id":"8c7c5d40-ce0f-4f33-9d38-1a6b52d48c34","system_id":"levelo_inurba_marseille","lat":43.24172,"lon":5.39725,"is_reserved":false,"is_disabled":false,"rental_uris":{"android":"levelo://app?vid=8c7c5d40-ce0f-4f33-9d38-1a6b52d48c34","ios":"levelo://app?vid=8c7c5d40-ce0f-4f33-9d38-1a6b52d48c34"},"vehicle_type_id":"4","last_reported":1751735300,"current_range_meters":19600,"station_id":"ce4bhn12rcd13ifvqgpg","pricing_plan_id":"cebpf4jnsgd1na2vs0mg"},{"bike_id":"1651de4a-86a7-438f-ac73-c8aa63351922","system_id":"levelo_inurba_marseille","lat":43.33027,"lon":5.39032,"is_reserved":false,"is_disabled":false,"rental_uris":{"android":"levelo://app?vid=1651de4a-86a7-438f-ac73-c8aa63351922","ios":"levelo://app?vid=1651de4a-86a7-438f-ac73-c8aa63351922"},"vehicle_type_id":"4","last_reported":1751735300,"current_range_meters":19600,"station_id":"ce4bhr92rcd13ifvqhrg","pricing_plan_id":"cebpf4jnsgd1na2vs0mg"},{"bike_id":"80955d0f-8669-4c02-b90f-c6fe20790c37","system_id":"levelo_inurba_marseille","lat":43.23181,"lon":5.35065,"is_reserved":false,"is_disabled":false,"rental_uris":{"android":"levelo://app?vid=80955d0f-8669-4c02-b90f-c6fe20790c37","ios":"levelo://app?vid=80955d0f-8669-4c02-b90f-c6fe20790c37"},"vehicle_type_id":"4","last_reported":1751735300,"current_range_meters":20000,"station_id":"","pricing_plan_id":"cebpf4jnsgd1na2vs0mg"},{"bike_id":"3b22f952-d0bc-4c00-8fd3-7e27b88aea23","system_id":"levelo_inurba_marseille","lat":43.29659,"lon":5.36245,"is_reserved":false,"is_disabled":false,"rental_uris":{"android":"levelo://app?vid=3b22f952-d0bc-4c00-8fd3-7e27b88aea23","ios":"levelo://app?vid=3b22f952-d0bc-4c00-8fd3-7e27b88aea23"},"vehicle_type_id":"4","last_reported":1751735300,"current_range_meters":20000,"station_id":"","pricing_plan_id":"cebpf4jnsgd1na2vs0mg"},{"bike_id":"f1d7853c-ced7-42c7-8943-1d4c68bed572","system_id":"levelo_inurba_marseille","lat":43.30952,"lon":5.39031,"is_reserved":false,"is_disabled":false,"rental_uris":{"android":"levelo://app?vid=f1d7853c-ced7-42c7-8943-1d4c68bed572","ios":"levelo://app?vid=f1d7853c-ced7-42c7-8943-1d4c68bed572"},"vehicle_type_id":"4","last_reported":1751735300,"current_range_meters":20000,"station_id":"ce4bgup2rcd13ifvqco0","pricing_plan_id":"cebpf4jnsgd1na2vs0mg"},{"bike_id":"b8dbcbed-46a8-42e4-8577-bed9186deaa4","system_id":"levelo_inurba_marseille","lat":43.2886,"lon":5.35849,"is_reserved":false,"is_disabled":false,"rental_uris":{"android":"levelo://app?vid=b8dbcbed-46a8-42e4-8577-bed9186deaa4","ios":"levelo://app?vid=b8dbcbed-46a8-42e4-8577-bed9186deaa4"},"vehicle_type_id":"4","last_reported":1751735300,"current_range_meters":20000,"station_id":"ce4bhb12rcd13ifvqem0","pricing_plan_id":"cebpf4jnsgd1na2vs0mg"},{"bike_id":"f0c04b99-4756-4481-8b3d-27f3bdc96df5","system_id":"levelo_inurba_marseille","lat":43.269321,"lon":5.38922,"is_reserved":false,"is_disabled":false,"rental_uris":{"android":"levelo://app?vid=f0c04b99-4756-4481-8b3d-27f3bdc96df5","ios":"levelo://app?vid=f0c04b99-4756-4481-8b3d-27f3bdc96df5"},"vehicle_type_id":"4","last_reported":1751735300,"current_range_meters":20000,"station_id":"ce4bhhh2rcd13ifvqfl0","pricing_plan_id":"cebpf4jnsgd1na2vs0mg"},{"bike_id":"e113175a-26c2-4709-bd2e-8b90ec8dd3ee","system_id":"levelo_inurba_marseille","lat":43.27483,"lon":5.42487,"is_reserved":false,"is_disabled":false,"rental_uris":{"android":"levelo://app?vid=e113175a-26c2-4709-bd2e-8b90ec8dd3ee","ios":"levelo://app?vid=e113175a-26c2-4709-bd2e-8b90ec8dd3ee"},"vehicle_type_id":"4","last_reported":1751735300,"current_range_meters":20000,"station_id":"ce4bhn92rcd13ifvqgrg","pricing_plan_id":"cebpf4jnsgd1na2vs0mg"},{"bike_id":"e8d7fcf5-14a0-430b-a247-ddceafd06b95","system_id":"levelo_inurba_marseille","lat":43.22511,"lon":5.34788,"is_reserved":false,"is_disabled":false,"rental_uris":{"android":"levelo://app?vid=e8d7fcf5-14a0-430b-a247-ddceafd06b95","ios":"levelo://app?vid=e8d7fcf5-14a0-430b-a247-ddceafd06b95"},"vehicle_type_id":"4","last_reported":1751735300,"current_range_meters":20000,"station_id":"st_cvj5dfep6f1abm77gieg","pricing_plan_id":"cebpf4jnsgd1na2vs0mg"},{"bike_id":"37f2becd-23f9-4f13-a711-38b8024eeec7","system_id":"levelo_inurba_marseille","lat":43.33768,"lon":5.37516,"is_reserved":false,"is_disabled":false,"rental_uris":{"android":"levelo://app?vid=37f2becd-23f9-4f13-a711-38b8024eeec7","ios":"levelo://app?vid=37f2becd-23f9-4f13-a711-38b8024eeec7"},"vehicle_type_id":"4","last_reported":1751735300,"current_range_meters":20400,"station_id":"","pricing_plan_id":"cebpf4jnsgd1na2vs0mg"},{"bike_id":"70e64bbf-9810-4165-951f-00e331a3d2f0","system_id":"levelo_inurba_marseille","lat":43.30436,"lon":5.38899,"is_reserved":false,"is_disabled":false,"rental_uris":{"android":"levelo://app?vid=70e64bbf-9810-4165-951f-00e331a3d2f0","ios":"levelo://app?vid=70e64bbf-9810-4165-951f-00e331a3d2f0"},"vehicle_type_id":"4","last_reported":1751735300,"current_range_meters":20400,"station_id":"ce4bgk12rcd13ifvqbi0","pricing_plan_id":"cebpf4jnsgd1na2vs0mg"},{"bike_id":"a3c52eda-b496-4310-9c69-9d50edcb3b63","system_id":"levelo_inurba_marseille","lat":43.2846,"lon":5.35879,"is_reserved":false,"is_disabled":false,"rental_uris":{"android":"levelo://app?vid=a3c52eda-b496-4310-9c69-9d50edcb3b63","ios":"levelo://app?vid=a3c52eda-b496-4310-9c69-9d50edcb3b63"},"vehicle_type_id":"4","last_reported":1751735300,"current_range_meters":20400,"station_id":"ce4bhah2rcd13ifvqei0","pricing_plan_id":"cebpf4jnsgd1na2vs0mg"},{"bike_id":"2dfd661e-73d5-47cb-ad63-0bad0a16eb09","system_id":"levelo_inurba_marseille","lat":43.28858,"lon":5.35842,"is_reserved":false,"is_disabled":false,"rental_uris":{"android":"levelo://app?vid=2dfd661e-73d5-47cb-ad63-0bad0a16eb09","ios":"levelo://app?vid=2dfd661e-73d5-47cb-ad63-0bad0a16eb09"},"vehicle_type_id":"4","last_reported":1751735300,"current_range_meters":20400,"station_id":"ce4bhb12rcd13ifvqem0","pricing_plan_id":"cebpf4jnsgd1na2vs0mg"},{"bike_id":"f75184c9-e1ab-4581-8df3-2120d045e32e","system_id":"levelo_inurba_marseille","lat":43.27071,"lon":5.42277,"is_reserved":false,"is_disabled":false,"rental_uris":{"android":"levelo://app?vid=f75184c9-e1ab-4581-8df3-2120d045e32e","ios":"levelo://app?vid=f75184c9-e1ab-4581-8df3-2120d045e32e"},"vehicle_type_id":"4","last_reported":1751735300,"current_range_meters":20400,"station_id":"ce4bhk92rcd13ifvqgb0","pricing_plan_id":"cebpf4jnsgd1na2vs0mg"},{"bike_id":"ac77698d-484e-413d-8696-832890c0e8d1","system_id":"levelo_inurba_marseille","lat":43.23158,"lon":5.43691,"is_reserved":false,"is_disabled":false,"rental_uris":{"android":"levelo://app?vid=ac77698d-484e-413d-8696-832890c0e8d1","ios":"levelo://app?vid=ac77698d-484e-413d-8696-832890c0e8d1"},"vehicle_type_id":"4","last_reported":1751735300,"current_range_meters":20400,"station_id":"ce4bhmp2rcd13ifvqgog","pricing_plan_id":"cebpf4jnsgd1na2vs0mg"},{"bike_id":"d0f90c24-dd03-411b-9731-55305f76b7c8","system_id":"levelo_inurba_marseille","lat":43.21202,"lon":5.35074,"is_reserved":false,"is_disabled":false,"rental_uris":{"android":"levelo://app?vid=d0f90c24-dd03-411b-9731-55305f76b7c8","ios":"levelo://app?vid=d0f90c24-dd03-411b-9731-55305f76b7c8"},"vehicle_type_id":"4","last_reported":1751735300,"current_range_meters":20400,"station_id":"st_cvj6sg6p6f1abm77japg","pricing_plan_id":"cebpf4jnsgd1na2vs0mg"},{"bike_id":"ae94f3e5-118d-47b5-84e6-b780696a3190","system_id":"levelo_inurba_marseille","lat":43.26929,"lon":5.38922,"is_reserved":false,"is_disabled":false,"rental_uris":{"android":"levelo://app?vid=ae94f3e5-118d-47b5-84e6-b780696a3190","ios":"levelo://app?vid=ae94f3e5-118d-47b5-84e6-b780696a3190"},"vehicle_type_id":"4","last_reported":1751735300,"current_range_meters":20800,"station_id":"ce4bhhh2rcd13ifvqfl0","pricing_plan_id":"cebpf4jnsgd1na2vs0mg"},{"bike_id":"5f585f05-d724-4949-95fe-9262956f57e0","system_id":"levelo_inurba_marseille","lat":43.26227,"lon":5.4046,"is_reserved":false,"is_disabled":false,"rental_uris":{"android":"levelo://app?vid=5f585f05-d724-4949-95fe-9262956f57e0","ios":"levelo://app?vid=5f585f05-d724-4949-95fe-9262956f57e0"},"vehicle_type_id":"4","last_reported":1751735300,"current_range_meters":20800,"station_id":"ce4bhmh2rcd13ifvqgmg","pricing_plan_id":"cebpf4jnsgd1na2vs0mg"},{"bike_id":"e1228ce6-f82e-4293-9e77-993aa73723e1","system_id":"levelo_inurba_marseille","lat":43.26221,"lon":5.40436,"is_reserved":false,"is_disabled":false,"rental_uris":{"android":"levelo://app?vid=e1228ce6-f82e-4293-9e77-993aa73723e1","ios":"levelo://app?vid=e1228ce6-f82e-4293-9e77-993aa73723e1"},"vehicle_type_id":"4","last_reported":1751735300,"current_range_meters":20800,"station_id":"ce4bhmh2rcd13ifvqgmg","pricing_plan_id":"cebpf4jnsgd1na2vs0mg"},{"bike_id":"4d049d54-a43c-4e38-b4de-cff152aadef2","system_id":"levelo_inurba_marseille","lat":43.28157,"lon":5.42674,"is_reserved":false,"is_disabled":false,"rental_uris":{"android":"levelo://app?vid=4d049d54-a43c-4e38-b4de-cff152aadef2","ios":"levelo://app?vid=4d049d54-a43c-4e38-b4de-cff152aadef2"},"vehicle_type_id":"4","last_reported":1751735300,"current_range_meters":20800,"station_id":"ce4bhnh2rcd13ifvqgug","pricing_plan_id":"cebpf4jnsgd1na2vs0mg"},{"bike_id":"872ddf45-69df-44d1-85e5-f10e1cfd0c19","system_id":"levelo_inurba_marseille","lat":43.24382,"lon":5.3699,"is_reserved":false,"is_disabled":false,"rental_uris":{"android":"levelo://app?vid=872ddf45-69df-44d1-85e5-f10e1cfd0c19","ios":"levelo://app?vid=872ddf45-69df-44d1-85e5-f10e1cfd0c19"},"vehicle_type_id":"4","last_reported":1751735300,"current_range_meters":21600,"station_id":"","pricing_plan_id":"cebpf4jnsgd1na2vs0mg"},{"bike_id":"9a1e1b82-d0f7-4e60-ad08-6928789021d1","system_id":"levelo_inurba_marseille","lat":43.28712,"lon":5.37392,"is_reserved":false,"is_disabled":false,"rental_uris":{"android":"levelo://app?vid=9a1e1b82-d0f7-4e60-ad08-6928789021d1","ios":"levelo://app?vid=9a1e1b82-d0f7-4e60-ad08-6928789021d1"},"vehicle_type_id":"4","last_reported":1751735300,"current_range_meters":21600,"station_id":"ce4bh3p2rcd13ifvqdq0","pricing_plan_id":"cebpf4jnsgd1na2vs0mg"},{"bike_id":"577439be-00ce-4b34-8c3e-dbbcf8ff15a9","system_id":"levelo_inurba_marseille","lat":43.30942,"lon":5.39019,"is_reserved":false,"is_disabled":false,"rental_uris":{"android":"levelo://app?vid=577439be-00ce-4b34-8c3e-dbbcf8ff15a9","ios":"levelo://app?vid=577439be-00ce-4b34-8c3e-dbbcf8ff15a9"},"vehicle_type_id":"4","last_reported":1751735300,"current_range_meters":22000,"station_id":"ce4bgup2rcd13ifvqco0","pricing_plan_id":"cebpf4jnsgd1na2vs0mg"},{"bike_id":"b0b38266-1a66-4b37-8e7a-2448926918e0","system_id":"levelo_inurba_marseille","lat":43.2319,"lon":5.35546,"is_reserved":false,"is_disabled":false,"rental_uris":{"android":"levelo://app?vid=b0b38266-1a66-4b37-8e7a-2448926918e0","ios":"levelo://app?vid=b0b38266-1a66-4b37-8e7a-2448926918e0"},"vehicle_type_id":"4","last_reported":1751735300,"current_range_meters":22000,"station_id":"ce4bhu92rcd13ifvqi70","pricing_plan_id":"cebpf4jnsgd1na2vs0mg"},{"bike_id":"19c552da-55bc-46d8-97cb-d1fbabdad01a","system_id":"levelo_inurba_marseille","lat":43.21188,"lon":5.35065,"is_reserved":false,"is_disabled":false,"rental_uris":{"android":"levelo://app?vid=19c552da-55bc-46d8-97cb-d1fbabdad01a","ios":"levelo://app?vid=19c552da-55bc-46d8-97cb-d1fbabdad01a"},"vehicle_type_id":"4","last_reported":1751735300,"current_range_meters":22000,"station_id":"st_cvj6sg6p6f1abm77japg","pricing_plan_id":"cebpf4jnsgd1na2vs0mg"},{"bike_id":"7589c2de-0299-456e-aa09-cd6f3311053f","system_id":"levelo_inurba_marseille","lat":43.309493,"lon":5.390343,"is_reserved":false,"is_disabled":false,"rental_uris":{"android":"levelo://app?vid=7589c2de-0299-456e-aa09-cd6f3311053f","ios":"levelo://app?vid=7589c2de-0299-456e-aa09-cd6f3311053f"},"vehicle_type_id":"4","last_reported":1751735300,"current_range_meters":22400,"station_id":"ce4bgup2rcd13ifvqco0","pricing_plan_id":"cebpf4jnsgd1na2vs0mg"},{"bike_id":"0f226c69-e0d9-47e1-bb9e-52992d11c6d0","system_id":"levelo_inurba_marseille","lat":43.28471,"lon":5.35874,"is_reserved":false,"is_disabled":false,"rental_uris":{"android":"levelo://app?vid=0f226c69-e0d9-47e1-bb9e-52992d11c6d0","ios":"levelo://app?vid=0f226c69-e0d9-47e1-bb9e-52992d11c6d0"},"vehicle_type_id":"4","last_reported":1751735300,"current_range_meters":22400,"station_id":"ce4bhah2rcd13ifvqei0","pricing_plan_id":"cebpf4jnsgd1na2vs0mg"},{"bike_id":"82b7d7e5-b783-4fdc-98ca-20db1531cbe0","system_id":"levelo_inurba_marseille","lat":43.2957,"lon":5.42312,"is_reserved":false,"is_disabled":false,"rental_uris":{"android":"levelo://app?vid=82b7d7e5-b783-4fdc-98ca-20db1531cbe0","ios":"levelo://app?vid=82b7d7e5-b783-4fdc-98ca-20db1531cbe0"},"vehicle_type_id":"4","last_reported":1751735300,"current_range_meters":22400,"station_id":"ce4bhph2rcd13ifvqhdg","pricing_plan_id":"cebpf4jnsgd1na2vs0mg"},{"bike_id":"c4ac1bb7-95b9-444d-944d-ad497cf4b7e9","system_id":"levelo_inurba_marseille","lat":43.32285,"lon":5.38273,"is_reserved":false,"is_disabled":false,"rental_uris":{"android":"levelo://app?vid=c4ac1bb7-95b9-444d-944d-ad497cf4b7e9","ios":"levelo://app?vid=c4ac1bb7-95b9-444d-944d-ad497cf4b7e9"},"vehicle_type_id":"4","last_reported":1751735300,"current_range_meters":22400,"station_id":"ce4bhr12rcd13ifvqhqg","pricing_plan_id":"cebpf4jnsgd1na2vs0mg"},{"bike_id":"ad6d14a3-a18e-4ff2-a25a-43d4111f6646","system_id":"levelo_inurba_marseille","lat":43.24804,"lon":5.37452,"is_reserved":false,"is_disabled":false,"rental_uris":{"android":"levelo://app?vid=ad6d14a3-a18e-4ff2-a25a-43d4111f6646","ios":"levelo://app?vid=ad6d14a3-a18e-4ff2-a25a-43d4111f6646"},"vehicle_type_id":"4","last_reported":1751735300,"current_range_meters":22800,"station_id":"ce4bhgh2rcd13ifvqfb0","pricing_plan_id":"cebpf4jnsgd1na2vs0mg"},{"bike_id":"da2c9619-fe32-452b-8702-edb4b465e349","system_id":"levelo_inurba_marseille","lat":43.23965,"lon":5.36636,"is_reserved":false,"is_disabled":false,"rental_uris":{"android":"levelo://app?vid=da2c9619-fe32-452b-8702-edb4b465e349","ios":"levelo://app?vid=da2c9619-fe32-452b-8702-edb4b465e349"},"vehicle_type_id":"4","last_reported":1751735300,"current_range_meters":22800,"station_id":"ce4bhi12rcd13ifvqfp0","pricing_plan_id":"cebpf4jnsgd1na2vs0mg"},{"bike_id":"261b418c-142a-4e2b-bc02-45ea8e7e6a07","system_id":"levelo_inurba_marseille","lat":43.28699,"lon":5.3998,"is_reserved":false,"is_disabled":false,"rental_uris":{"android":"levelo://app?vid=261b418c-142a-4e2b-bc02-45ea8e7e6a07","ios":"levelo://app?vid=261b418c-142a-4e2b-bc02-45ea8e7e6a07"},"vehicle_type_id":"4","last_reported":1751735300,"current_range_meters":22800,"station_id":"ce4bho92rcd13ifvqh3g","pricing_plan_id":"cebpf4jnsgd1na2vs0mg"},{"bike_id":"47fa39f2-1093-4b51-b193-a9060c2870c2","system_id":"levelo_inurba_marseille","lat":43.32288,"lon":5.38263,"is_reserved":false,"is_disabled":false,"rental_uris":{"android":"levelo://app?vid=47fa39f2-1093-4b51-b193-a9060c2870c2","ios":"levelo://app?vid=47fa39f2-1093-4b51-b193-a9060c2870c2"},